timestamp,dt,pos_x,pos_y,pos_z,vel_x,vel_y,vel_z,roll,pitch,yaw,agv_x,agv_y,agv_z,x_ref,y_ref,z_ref,roll_ref,pitch_ref,yaw_ref,x_vel_ref,y_vel_ref,z_vel_ref,x_torque,y_torque,z_torque,w0,w1,w2,w3,u0,u1,u2,u3,m0req,m1req,m2req,m3req,thrust0,thrust1,thrust2,thrust3,thrust_ref,roll_vicon,pitch_vicon,yaw_vicon,acc_x,acc_y,acc_z
5,5,0.0,0.0,0.0,0.006007822696119547,0.0027447037864476442,0.0008188363281078637,0.13565528392791748,-0.05849568545818329,0.0661742314696312,-0.0051468792371451855,0.12098269164562225,-0.03108859434723854,0.0,0.0,0.0,-0.0037396945990622044,0.005457195919007063,-0.0,0.0,0.0,0.0,-0.004426856990903616,0.0025005110073834658,0.0019359966972842813,0.0,0.0,0.0,0.0,0.0,0.0,0.0,0.0,0.0,0.0,0.0,0.0,0.0,0.0,0.0,0.0,0.38047531247138977,0.12612537366751456,0.09111420362597698,0.05912218958227374,-0.024031290784478188,-0.010978815145790577,-0.002456509042531252
28,23,0.0,0.0,0.0,0.0021236438769847155,0.0006245163385756314,0.0011316768359392881,0.13565528392791748,-0.05849568545818329,0.0661742314696312,-0.0051468792371451855,0.12098269164562225,-0.03108859434723854,0.0,0.0,0.0,-0.0008509244071319699,0.001929025282151997,-0.0,0.0,0.0,0.0,-0.004426856990903616,0.0025005110073834658,0.0019359966972842813,0.0,0.0,0.0,0.0,0.0,0.0,0.0,0.0,0.0,0.0,0.0,0.0,0.0,0.0,0.0,0.0,0.38046783208847046,0.1274091658026363,0.09894004471147017,0.060236074989105805,-0.008494575507938862,-0.0024980653543025255,-0.0033950305078178644
34,6,0.0,0.0,0.0,0.0014994442462921143,-9.197509643854573e-05,0.0003223158128093928,0.13575096428394318,-0.05983918905258179,0.06616397947072983,0.0052188788540661335,0.19416888058185577,-0.018797965720295906,0.0,0.0,0.0,0.00012532314576674253,0.0013620725367218256,-0.0,0.0,0.0,0.0,-0.004559204448014498,0.00342581607401371,0.001965067582204938,0.0,0.0,0.0,0.0,0.0,0.0,0.0,0.0,0.0,0.0,0.0,0.0,0.0,0.0,0.0,0.0,0.3804555833339691,0.12774386287439465,0.09972146396796068,0.06026585384866051,-0.005997776985168457,0.00036790038575418293,-0.000966947409324348
39,5,0.0,0.0,0.0,0.0018214544979855418,-0.001170298783108592,0.0014635772677138448,0.13576045632362366,-0.06228448078036308,0.06630035489797592,-0.006121512036770582,0.20489516854286194,-0.011929872445762157,0.0,0.0,0.0,0.0015939663862809539,0.0016539022326469421,-0.0,0.0,0.0,0.0,-0.004559204448014498,0.00342581607401371,0.001965067582204938,0.0,0.0,0.0,0.0,0.0,0.0,0.0,0.0,0.0,0.0,0.0,0.0,0.0,0.0,0.0,0.0,0.38061243295669556,0.1276432710206207,0.09990089238031262,0.060303021642245255,-0.007285817991942167,0.004681195132434368,-0.004390731919556856
47,8,0.0,0.0,0.0,-0.0017419010400772095,-0.003614539047703147,-0.0031951572746038437,0.13576045632362366,-0.06228448078036308,0.06630035489797592,-0.006121512036770582,0.20489516854286194,-0.011929872445762157,0.0,0.0,0.0,0.0015939663862809539,0.0016539022326469421,-0.0,0.0,0.0,0.0,-0.004559204448014498,0.00342581607401371,0.001965067582204938,0.0,0.0,0.0,0.0,0.0,0.0,0.0,0.0,0.0,0.0,0.0,0.0,0.0,0.0,0.0,0.0,0.38061651587486267,0.12858773563398557,0.10162041813804681,0.059802189768076344,0.006967604160308838,0.014458156190812588,0.009585471823811531
52,5,0.0,0.0,0.0,0.0014346909010782838,0.00980420783162117,0.00882095005363226,0.13585765659809113,-0.06369282305240631,0.06646545231342316,0.007148892153054476,0.14508534967899323,0.005133343394845724,0.0,0.0,0.0,-0.013346522115170956,0.0013020698679611087,-0.0,0.0,0.0,0.0,-0.004418747965246439,0.002672879258170724,0.0019454795401543379,47435.0,9504.0,31546.0,3960.0,0.216531440615654,0.02890504151582718,0.12386880815029144,0.011162541806697845,0.0,0.0,0.0,0.0,47404.0,9536.0,31709.0,3704.0,0.38083478808403015,0.12843833071497224,0.10033596577609692,0.06048141224217633,-0.005738763604313135,-0.03921683132648468,-0.026462849229574203
57,5,6.129836401669309e-05,4.4551859900821e-05,-7.756886043353006e-05,0.009012178517878056,-0.00329599785618484,0.013505925424396992,0.13578741252422333,-0.0650051012635231,0.06629103422164917,-0.0040935128927230835,0.03843763843178749,-0.05162876471877098,0.0,0.0,0.0,0.004583466798067093,0.008269710466265678,-0.0,0.0,0.0,0.0,-0.004429680295288563,0.002336896024644375,0.0017666359199211001,45555.0,12591.0,31135.0,5068.0,0.20451177656650543,0.039852239191532135,0.12174231559038162,0.014510191977024078,0.0,0.0,0.0,0.0,46252.0,11506.0,31881.0,3563.0,0.38061776757240295,0.1315193111240681,0.10048027636188266,0.06098350573097437,-0.036429744213819504,0.013460925780236721,-0.041890744119882584
62,5,0.0005885174032300711,0.00024442377616651356,-0.0007863968494348228,0.07651432603597641,-0.028970867395401,0.10328768938779831,0.13578741252422333,-0.0650051012635231,0.06629103422164917,-0.0040935128927230835,0.03843763843178749,-0.05162876471877098,0.0,0.0,0.0,0.038842346519231796,0.06838072091341019,-0.0,0.0,0.0,0.0,-0.004429680295288563,0.002336896024644375,0.0017666359199211001,45555.0,12591.0,31135.0,5068.0,0.20451177656650543,0.039852239191532135,0.12174231559038162,0.014510191977024078,0.0,0.0,0.0,0.0,46252.0,11506.0,31881.0,3563.0,0.3917911946773529,0.14720435884911404,0.0899103260942835,0.06529118635729961,-0.30960649251937866,0.11736167967319489,-0.3219490349292755
67,5,0.0007562037790194154,0.0005077879759483039,-0.0011889877496287227,0.04643038660287857,-0.045562244951725006,0.08734903484582901,0.13578741252422333,-0.0650051012635231,0.06629103422164917,-0.0040935128927230835,0.03843763843178749,-0.05162876471877098,0.0,0.0,0.0,0.06302402168512344,0.04319914057850838,-0.0,0.0,0.0,0.0,-0.004429680295288563,0.002336896024644375,0.0017666359199211001,45555.0,12591.0,31135.0,5068.0,0.20451177656650543,0.039852239191532135,0.12174231559038162,0.014510191977024078,0.0,0.0,0.0,0.0,46252.0,11506.0,31881.0,3563.0,0.38171401619911194,0.15823033018691915,0.08927961775146664,0.0695163708387871,-0.19041505455970764,0.18536671996116638,-0.28250280022621155
72,5,0.0004205164732411504,0.00012547802180051804,-0.0005398319917730987,-0.012984887696802616,0.013659111224114895,-0.02376536652445793,0.13578741252422333,-0.0650051012635231,0.06629103422164917,-0.0040935128927230835,0.03843763843178749,-0.05162876471877098,0.0,0.0,0.0,-0.018284043297171593,-0.011144261807203293,-0.0,0.0,0.0,0.0,-0.004429680295288563,0.002336896024644375,0.0017666359199211001,45555.0,12591.0,31135.0,5068.0,0.20451177656650543,0.039852239191532135,0.12174231559038162,0.014510191977024078,0.0,0.0,0.0,0.0,46252.0,11506.0,31881.0,3563.0,0.38068804144859314,0.14035357400057516,0.0930302095721542,0.06343038715575472,0.049092791974544525,-0.053701117634773254,0.057297252118587494
77,5,0.0004205164732411504,0.00012547802180051804,-0.0005398319917730987,-0.012984887696802616,0.013659111224114895,-0.02376536652445793,0.13580340147018433,-0.06473417580127716,0.06557576358318329,0.013146437704563141,-0.10657747089862823,-0.0061264969408512115,0.0,0.0,0.0,-0.018310895189642906,-0.01114017702639103,-0.0,0.0,0.0,0.0,-0.004436207469552755,0.0022779470309615135,0.002118507632985711,46925.0,10245.0,33197.0,1310.0,0.21324580907821655,0.03146319091320038,0.13255366683006287,0.0035548657178878784,0.0,0.0,0.0,0.0,46946.0,9890.0,33144.0,1734.0,0.379868745803833,0.14035357400057516,0.0930302095721542,0.06343038715575472,0.04897000268101692,-0.05366447940468788,0.05532686412334442
82,5,-0.00020979336113668978,-0.0005642154719680548,0.0007489143172279,-0.0626906231045723,0.08977025002241135,-0.145713210105896,0.13580340147018433,-0.06473417580127716,0.06557576358318329,0.013146437704563141,-0.10657747089862823,-0.0061264969408512115,0.0,0.0,0.0,-0.11272897571325302,-0.05230386555194855,-0.0,0.0,0.0,0.0,-0.004436207469552755,0.0022779470309615135,0.002118507632985711,46925.0,10245.0,33197.0,1310.0,0.21324580907821655,0.03146319091320038,0.13255366683006287,0.0035548657178878784,0.0,0.0,0.0,0.0,46946.0,9890.0,33144.0,1734.0,0.4183138906955719,0.1046154399265052,0.11495907794569407,0.06999594993041157,0.2515121400356293,-0.3622314929962158,0.439532071352005
87,5,-0.00020979336113668978,-0.0005642154719680548,0.0007489143172279,-0.0626906231045723,0.08977025002241135,-0.145713210105896,0.13567280769348145,-0.06301672756671906,0.06518692523241043,-0.04489466920495033,-0.3233688175678253,0.046637024730443954,0.0,0.0,0.0,-0.11275409907102585,-0.052308760583400726,-0.0,0.0,0.0,0.0,-0.004999999888241291,0.0005009782616980374,0.0020981421694159508,45888.0,13892.0,35097.0,0.0,0.20662125945091248,0.04469834268093109,0.14281848073005676,-0.013450086116790771,0.0,0.0,0.0,0.0,45952.0,11946.0,33573.0,642.0,0.4183387756347656,0.1046154399265052,0.11495907794569407,0.06999594993041157,0.2515503168106079,-0.3623341917991638,0.44123587012290955
92,5,0.00016498556942678988,-7.339684816543013e-05,0.001169673167169094,-0.003989687189459801,-0.011102103628218174,-0.05721058323979378,0.1356479972600937,-0.05956459790468216,0.06499224156141281,0.03590681776404381,-0.26588237285614014,-0.02485305815935135,0.0,0.0,0.0,0.015038272365927696,-0.003308891085907817,-0.0,0.0,0.0,0.0,-0.004999999888241291,-0.0012989351525902748,0.002092261565849185,45685.0,18944.0,37871.0,0.0,0.2053365558385849,0.0647977739572525,0.1583285629749298,-0.010145433247089386,0.0,0.0,0.0,0.0,46050.0,13619.0,35372.0,0.0,0.379158079624176,0.128058404369019,0.06466822056734854,0.04906761985355855,0.014519082382321358,0.043992508202791214,0.185138538479805
97,5,-1.4232899047783576e-05,4.032726428704336e-05,0.001070788479410112,-0.026287490501999855,-0.019252005964517593,-0.00331931933760643,0.1356479972600937,-0.05956459790468216,0.06499224156141281,0.03590681776404381,-0.26588237285614014,-0.02485305815935135,0.0,0.0,0.0,0.026402777060866356,-0.02387111634016037,-0.0,0.0,0.0,0.0,-0.004999999888241291,-0.0012989351525902748,0.002092261565849185,45685.0,18944.0,37871.0,0.0,0.2053365558385849,0.0647977739572525,0.1583285629749298,-0.010145433247089386,0.0,0.0,0.0,0.0,46050.0,13619.0,35372.0,0.0,0.379353404045105,0.13989940976983808,0.08165273730167291,0.054178377176778945,0.10476358234882355,0.07726486772298813,0.02402099408209324
102,5,0.00020138481340836734,-5.784716267953627e-05,0.0008917110390029848,0.02230023220181465,0.007968817837536335,0.024075044319033623,0.1356479972600937,-0.05956459790468216,0.06499224156141281,0.03590681776404381,-0.26588237285614014,-0.02485305815935135,0.0,0.0,0.0,-0.011004339903593063,0.020708169788122177,-0.0,0.0,0.0,0.0,-0.004999999888241291,-0.0012989351525902748,0.002092261565849185,45685.0,18944.0,37871.0,0.0,0.2053365558385849,0.0647977739572525,0.1583285629749298,-0.010145433247089386,0.0,0.0,0.0,0.0,46050.0,13619.0,35372.0,0.0,0.3792174160480499,0.12492792999243003,0.06832180303742,0.050055078095550376,-0.0908784344792366,-0.03219810500741005,-0.05761807784438133
107,5,0.00034040072932839394,-0.00014051924517843872,0.0003132885613013059,0.026152297854423523,0.013964736834168434,0.08820165693759918,0.13534194231033325,-0.05732627213001251,0.06464577466249466,-0.054240092635154724,-0.28293368220329285,0.0013893268769606948,0.0,0.0,0.0,-0.019393490627408028,0.024444477632641792,-0.0,0.0,0.0,0.0,-0.004999999888241291,-0.0010971666779369116,0.0021549751982092857,45219.0,11756.0,35830.0,0.0,0.20239627361297607,0.03681574761867523,0.14685510098934174,-0.00668606162071228,0.0,0.0,0.0,0.0,44318.0,13188.0,35703.0,0.0,0.3789007365703583,0.11173566679714127,0.07131973632488449,0.04489822286809318,-0.10716859251260757,-0.05669163167476654,-0.2560581564903259
113,5,0.0004100908408872783,-2.3871914891060442e-05,-0.00010202150588156655,0.017602305859327316,-0.012141205370426178,0.08460390567779541,0.13534194231033325,-0.05732627213001251,0.06464577466249466,-0.054240092635154724,-0.28293368220329285,0.0013893268769606948,0.0,0.0,0.0,0.016559669747948647,0.01675921306014061,-0.0,0.0,0.0,0.0,-0.004999999888241291,-0.0010971666779369116,0.0021549751982092857,45219.0,11756.0,35830.0,0.0,0.20239627361297607,0.03681574761867523,0.14685510098934174,-0.00668606162071228,0.0,0.0,0.0,0.0,44318.0,13188.0,35703.0,0.0,0.3788214325904846,0.11229859944414616,0.07770639583286969,0.046053593709916664,-0.07346820086240768,0.04839927703142166,-0.2505936920642853
118,5,1.127540508605307e-05,-0.00016503655933775008,0.0009638973861001432,-0.050553470849990845,0.01612068898975849,-0.12384747713804245,0.13491380214691162,-0.05383581668138504,0.06362738460302353,0.002339891390874982,-0.3551945090293884,-0.00979639869183302,0.0,0.0,0.0,-0.022458715364336967,-0.046069346368312836,-0.0,0.0,0.0,0.0,-0.004102072212845087,3.6016794183524325e-05,0.0020237264689058065,44231.0,13748.0,35766.0,0.0,0.1962185800075531,0.044154904782772064,0.146503746509552,-0.007496170699596405,0.0,0.0,0.0,0.0,46525.0,12606.0,34720.0,0.0,0.3780462145805359,0.11423160090681579,0.05855691837696371,0.0444910677419352,0.20145592093467712,-0.06550096720457077,0.3904877007007599
123,5,-0.00018910507787950337,-9.8206932307221e-05,0.001296966103836894,-0.04321930930018425,-0.004519942216575146,-0.08378385752439499,0.13491380214691162,-0.05383581668138504,0.06362738460302353,0.002339891390874982,-0.3551945090293884,-0.00979639869183302,0.0,0.0,0.0,0.00597662478685379,-0.039642397314310074,-0.0,0.0,0.0,0.0,-0.004102072212845087,3.6016794183524325e-05,0.0020237264689058065,44231.0,13748.0,35766.0,0.0,0.1962185800075531,0.044154904782772064,0.146503746509552,-0.007496170699596405,0.0,0.0,0.0,0.0,46525.0,12606.0,34720.0,0.0,0.3778534531593323,0.12035732138401532,0.056564981868119146,0.04904802272982518,0.17332014441490173,0.017424648627638817,0.27811315655708313
128,5,-0.0001517481723567471,-0.0001648944744374603,0.0007689647609367967,-0.007735825143754482,0.007980273105204105,0.048785027116537094,0.1349690556526184,-0.05074383690953255,0.06378700584173203,-0.0555589385330677,-0.3958740234375,0.09510072320699692,0.0,0.0,0.0,-0.011321713216602802,-0.007137849926948547,-0.0,0.0,0.0,0.0,-0.004999999888241291,0.00019522197544574738,0.0022864025086164474,46877.0,11986.0,36013.0,0.0,0.21293611824512482,0.03764822334051132,0.14787034690380096,-0.01923724263906479,0.0,0.0,0.0,0.0,45534.0,10732.0,37413.0,0.0,0.37776651978492737,0.11353510918857374,0.05863594323462835,0.04941213341928256,0.031206540763378143,-0.032999780029058456,-0.12371388077735901
133,5,-0.00046688347356393933,0.0002298177860211581,0.0007646317244507372,-0.04643968865275383,-0.052865635603666306,0.015242127701640129,0.1349690556526184,-0.05074383690953255,0.06378700584173203,-0.0555589385330677,-0.3958740234375,0.09510072320699692,0.0,0.0,0.0,0.07241728901863098,-0.04270269721746445,-0.0,0.0,0.0,0.0,-0.004999999888241291,0.00019522197544574738,0.0022864025086164474,46877.0,11986.0,36013.0,0.0,0.21293611824512482,0.03764822334051132,0.14787034690380096,-0.01923724263906479,0.0,0.0,0.0,0.0,45534.0,10732.0,37413.0,0.0,0.38138824701309204,0.13346341504621811,0.08071930981509404,0.056890336270207266,0.18794775009155273,0.21271710097789764,-0.021016515791416168
138,5,-0.0002485416189301759,-7.853049282857683e-06,0.000673118163831532,0.016635950654745102,0.01741422712802887,0.017384542152285576,0.13292548060417175,-0.04501922428607941,0.06392494589090347,-0.31098392605781555,-0.5598658919334412,0.03852358087897301,0.0,0.0,0.0,-0.0239249337464571,0.01498712319880724,-0.0,0.0,0.0,0.0,-0.003637974616140127,-0.0003512554394546896,0.002274350030347705,44236.0,11528.0,38368.0,0.0,0.19624781608581543,0.035997599363327026,0.16117264330387115,-0.014596536755561829,0.0,0.0,0.0,0.0,42181.0,15419.0,39950.0,0.0,0.3780413269996643,0.11052435343026186,0.058906665686969194,0.04920507710583384,-0.06555461138486862,-0.06977462768554688,-0.026546258479356766
143,5,-0.0003382190770935267,0.0001307459024246782,0.0006073590484447777,-0.007564057130366564,-0.014179584570229053,0.01442163996398449,0.13292548060417175,-0.04501922428607941,0.06392494589090347,-0.31098392605781555,-0.5598658919334412,0.03852358087897301,0.0,0.0,0.0,0.01969456672668457,-0.007279767654836178,-0.0,0.0,0.0,0.0,-0.003637974616140127,-0.0003512554394546896,0.002274350030347705,44236.0,11528.0,38368.0,0.0,0.19624781608581543,0.035997599363327026,0.16117264330387115,-0.014596536755561829,0.0,0.0,0.0,0.0,42181.0,15419.0,39950.0,0.0,0.3779740035533905,0.10581436893506581,0.057861709349154286,0.0495129883137176,0.031841009855270386,0.05743096023797989,-0.016712011769413948
148,5,-0.0004818458401132375,2.8503118301159702e-05,0.00033372113830409944,-0.02237696573138237,0.010060113854706287,0.04263579472899437,0.1296055167913437,-0.04040087014436722,0.06331057846546173,-0.5713045001029968,-0.618596613407135,-0.03608518838882446,0.0,0.0,0.0,-0.013778842985630035,-0.02107812650501728,-0.0,0.0,0.0,0.0,-0.00318133388645947,-0.0030669027473777533,0.002130439504981041,40626.0,15970.0,40399.0,0.0,0.17433911561965942,0.05271676927804947,0.17299775779247284,-0.022200074046850204,0.0,0.0,0.0,0.0,39661.0,16441.0,41122.0,0.0,0.37730661034584045,0.10791146059234746,0.0572245344039491,0.056449242941344555,0.09203305840492249,-0.040111832320690155,-0.10373341292142868
153,5,-0.0005496125668287277,9.002901060739532e-05,0.0002567943593021482,-0.01620042882859707,-0.00559559091925621,0.02356048859655857,0.1296055167913437,-0.04040087014436722,0.06331057846546173,-0.5713045001029968,-0.618596613407135,-0.03608518838882446,0.0,0.0,0.0,0.00786290317773819,-0.015540175139904022,-0.0,0.0,0.0,0.0,-0.00318133388645947,-0.0030669027473777533,0.002130439504981041,40626.0,15970.0,40399.0,0.0,0.17433911561965942,0.05271676927804947,0.17299775779247284,-0.022200074046850204,0.0,0.0,0.0,0.0,39661.0,16441.0,41122.0,0.0,0.3772442042827606,0.1066850544836421,0.05820802482091449,0.058093472844426806,0.06784859299659729,0.022887293249368668,-0.04667434096336365
158,5,0.00015532133693341166,0.0007687624311074615,-0.0012947146315127611,0.09383061528205872,-0.09670136123895645,0.22427940368652344,0.1296055167913437,-0.04040087014436722,0.06331057846546173,-0.5713045001029968,-0.618596613407135,-0.03608518838882446,0.0,0.0,0.0,0.11530846357345581,0.07413483411073685,-0.0,0.0,0.0,0.0,-0.00318133388645947,-0.0030669027473777533,0.002130439504981041,40626.0,15970.0,40399.0,0.0,0.17433911561965942,0.05271676927804947,0.17299775779247284,-0.022200074046850204,0.0,0.0,0.0,0.0,39661.0,16441.0,41122.0,0.0,0.44198790192604065,0.1530231360702655,0.05867219805093842,0.07340555468596292,-0.3763808012008667,0.39140790700912476,-0.67146897315979
163,5,-0.0011584950843825936,-0.0006953698466531932,0.0009876523399725556,0.09383061528205872,-0.09670136123895645,0.22427940368652344,0.12139904499053955,-0.032896481454372406,0.06180121749639511,-0.7519744634628296,-0.6064862012863159,-0.03717665374279022,0.0,0.0,0.0,0.11346235871315002,0.07302597910165787,-0.0,0.0,0.0,0.0,-0.0003450707299634814,-0.003691560821607709,0.0020855600014328957,36754.0,12972.0,43839.0,0.0,0.15200522541999817,0.04125950485467911,0.1937863528728485,-0.005641542375087738,0.0,0.0,0.0,0.0,37096.0,12204.0,44255.0,0.0,0.43923714756965637,0.07020435998205483,0.07735093654341453,0.07408838190816194,-0.36852961778640747,0.38280022144317627,-0.6409711241722107
168,5,-0.001038790331222117,-0.0005386219709180295,0.0008204937330447137,0.04490785300731659,-0.050955116748809814,0.09068603068590164,0.12139904499053955,-0.032896481454372406,0.06180121749639511,-0.7519744634628296,-0.6064862012863159,-0.03717665374279022,0.0,0.0,0.0,0.06906318664550781,0.03981240466237068,-0.0,0.0,0.0,0.0,-0.0003450707299634814,-0.003691560821607709,0.0020855600014328957,36754.0,12972.0,43839.0,0.0,0.15200522541999817,0.04125950485467911,0.1937863528728485,-0.005641542375087738,0.0,0.0,0.0,0.0,37096.0,12204.0,44255.0,0.0,0.3770495057106018,0.07218767901158316,0.07266397069509584,0.07302263671004898,-0.17327924072742462,0.20058947801589966,-0.23974376916885376
174,5,-0.0012692483142018318,-0.00044960863306187093,0.001063959440216422,-0.018791763111948967,-0.02774840034544468,-0.006879395339637995,0.11495694518089294,-0.027863794937729836,0.06116219609975815,-0.7955921292304993,-0.5773906111717224,-0.027402229607105255,0.0,0.0,0.0,0.03739391639828682,-0.01917172409594059,-0.0,0.0,0.0,0.0,0.0019077900797128677,0.0006882121087983251,0.0020192048978060484,39770.0,12450.0,41407.0,0.0,0.16930162906646729,0.039335787296295166,0.17899011075496674,-0.009653404355049133,0.0,0.0,0.0,0.0,39549.0,12425.0,40781.0,0.0,0.3750573396682739,0.07162614738710811,0.08395747651887883,0.06842562964077734,0.08316005766391754,0.10816328972578049,0.05915410444140434
179,5,-0.0007193381316028535,-0.00046573791769333184,0.00016531773144379258,0.07134989649057388,-0.006066417321562767,0.12374603003263474,0.11495694518089294,-0.027863794937729836,0.06116219609975815,-0.7955921292304993,-0.5773906111717224,-0.027402229607105255,0.0,0.0,0.0,0.007236435078084469,0.06376056373119354,-0.0,0.0,0.0,0.0,0.0019077900797128677,0.0006882121087983251,0.0020192048978060484,39770.0,12450.0,41407.0,0.0,0.16930162906646729,0.039335787296295166,0.17899011075496674,-0.009653404355049133,0.0,0.0,0.0,0.0,39549.0,12425.0,40781.0,0.0,0.3802339434623718,0.07061155255048797,0.07007612482407963,0.0723124926197134,-0.28040361404418945,0.021230613812804222,-0.343054860830307
184,5,-0.000752006599213928,-0.00012364189024083316,0.0005268807290121913,0.01683138869702816,-0.0497133694589138,-0.013495014049112797,0.10492265969514847,-0.021587589755654335,0.05965392664074898,-0.868617057800293,-0.4596254825592041,-0.07635961472988129,0.0,0.0,0.0,0.0686570480465889,0.014350713230669498,-0.0,0.0,0.0,0.0,0.0010286030592396855,5.494400829775259e-05,0.001893398235552013,41198.0,6290.0,43735.0,15988.0,0.17774128913879395,0.018317483365535736,0.1931435465812683,0.05278558284044266,0.0,0.0,0.0,0.0,41457.0,5634.0,43719.0,16142.0,0.3739180862903595,0.07276925471591555,0.06444450008650252,0.06656668836191526,-0.06195793300867081,0.1977587193250656,0.0746140256524086
189,5,-0.0007073565502651036,0.00041325416532345116,0.00018237857148051262,0.011300422251224518,-0.09007945656776428,0.04418180137872696,0.10492265969514847,-0.021587589755654335,0.05965392664074898,-0.868617057800293,-0.4596254825592041,-0.07635961472988129,0.0,0.0,0.0,0.1177501231431961,0.008664689026772976,-0.0,0.0,0.0,0.0,0.0010286030592396855,5.494400829775259e-05,0.001893398235552013,41198.0,6290.0,43735.0,15988.0,0.17774128913879395,0.018317483365535736,0.1931435465812683,0.05278558284044266,0.0,0.0,0.0,0.0,41457.0,5634.0,43719.0,16142.0,0.4008447527885437,0.09310463637157121,0.07214287830644664,0.06387616301132024,-0.03992015868425369,0.36241668462753296,-0.10200736671686172
194,5,-0.0007032513967715204,-0.0001125266935559921,0.0003585949307307601,0.003964844159781933,0.046585481613874435,-0.011415749788284302,0.09727157652378082,-0.017979705706238747,0.05851789191365242,-0.970477283000946,-0.3833819329738617,-0.18575619161128998,0.0,0.0,0.0,-0.06526360660791397,0.0024240638595074415,-0.0,0.0,0.0,0.0,-0.0008717891178093851,0.0018585514044389129,0.0018430823693051934,41592.0,6622.0,36177.0,10389.0,0.1800995171070099,0.019373111426830292,0.1487855315208435,0.031965471804142,0.0,0.0,0.0,0.0,37578.0,6235.0,39109.0,11749.0,0.37249162793159485,0.06154069940907786,0.058925461659360696,0.06883814299267207,-0.01042847614735365,-0.18729715049266815,0.06799375265836716
199,5,-0.0005530960625037551,8.845074626151472e-05,0.0003108862438239157,0.02221120335161686,-0.014161196537315845,0.0032544892746955156,0.09727157652378082,-0.017979705706238747,0.05851789191365242,-0.970477283000946,-0.3833819329738617,-0.18575619161128998,0.0,0.0,0.0,0.019823601469397545,0.01955682411789894,-0.0,0.0,0.0,0.0,-0.0008717891178093851,0.0018585514044389129,0.0018430823693051934,41592.0,6622.0,36177.0,10389.0,0.1800995171070099,0.019373111426830292,0.1487855315208435,0.031965471804142,0.0,0.0,0.0,0.0,37578.0,6235.0,39109.0,11749.0,0.3718416690826416,0.06361848160624707,0.05842064256486053,0.06498866387537372,-0.08414525538682938,0.05686899647116661,0.024349769577383995
204,5,-0.0003977188025601208,0.0003347893070895225,0.00018193367577623576,0.02841617725789547,-0.038735758513212204,0.019029708579182625,0.07812852412462234,-0.013858667574822903,0.05563007667660713,-1.0115914344787598,0.09284255653619766,0.01449527032673359,0.0,0.0,0.0,0.055073048919439316,0.025736987590789795,-0.0,0.0,0.0,0.0,0.0031874992419034243,0.0014124027220532298,0.002068587113171816,39648.0,0.0,42894.0,15863.0,0.16858762502670288,-0.00801084190607071,0.18798083066940308,0.05229414254426956,0.0,0.0,0.0,0.0,42649.0,4546.0,36066.0,10584.0,0.36907148361206055,0.06778808494758785,0.05718532440728547,0.06364398098623374,-0.10976007580757141,0.15666887164115906,-0.02394833043217659
209,5,-0.00041690131183713675,0.0004220502160023898,0.0002116401883540675,0.005839302204549313,-0.02383725345134735,0.001550000044517219,0.07812852412462234,-0.013858667574822903,0.05563007667660713,-1.0115914344787598,0.09284255653619766,0.01449527032673359,0.0,0.0,0.0,0.055100828409194946,0.025714987888932228,-0.0,0.0,0.0,0.0,0.0031874992419034243,0.0014124027220532298,0.002068587113171816,39648.0,0.0,42894.0,15863.0,0.16858762502670288,-0.00801084190607071,0.18798083066940308,0.05229414254426956,0.0,0.0,0.0,0.0,42649.0,4546.0,36066.0,10584.0,0.3690718412399292,0.06534014675813436,0.06061994722133856,0.06155111509483507,-0.019243581220507622,0.09767759591341019,0.029473841190338135
214,5,-0.0006381113780662417,0.00015242095105350018,0.0015441756695508957,-0.029217619448900223,0.03059692122042179,-0.18608996272087097,0.06609144061803818,-0.015876183286309242,0.05626410245895386,-1.0208749771118164,0.23747733235359192,0.024897919967770576,0.0,0.0,0.0,-0.0426577590405941,-0.028645245358347893,-0.0,0.0,0.0,0.0,0.00042045372538268566,0.0030184194911271334,0.0021940574515610933,43302.0,0.0,37844.0,10986.0,0.19047841429710388,-0.010875396430492401,0.1581725776195526,0.03406602889299393,0.0,0.0,0.0,0.0,40287.0,0.0,43032.0,16160.0,0.36960381269454956,0.05061678929037812,0.02181061186146992,0.04506811576421794,0.12241230905056,-0.12157665938138962,0.6130833029747009
219,5,-0.0005517870304174721,0.00018100604938808829,0.0013832275290042162,0.003320120507851243,0.005177163518965244,-0.03329426050186157,0.06609144061803818,-0.015876183286309242,0.05626410245895386,-1.0208749771118164,0.23747733235359192,0.024897919967770576,0.0,0.0,0.0,-0.006912860553711653,0.0018962780013680458,-0.0,0.0,0.0,0.0,0.00042045372538268566,0.0030184194911271334,0.0021940574515610933,43302.0,0.0,37844.0,10986.0,0.19047841429710388,-0.010875396430492401,0.1581725776195526,0.03406602889299393,0.0,0.0,0.0,0.0,40287.0,0.0,43032.0,16160.0,0.3691255748271942,0.04707705867014191,0.023790388536177976,0.04686497730811194,-0.008101244457066059,-0.019688816741108894,0.15698367357254028
224,5,-0.000747579790186137,0.00030653949943371117,0.002008965238928795,-0.02641494944691658,-0.01602153480052948,-0.09759155660867691,0.057998113334178925,-0.018515929579734802,0.056370001286268234,-1.0261521339416504,0.4521031975746155,0.05146200209856033,0.0,0.0,0.0,0.02312178909778595,-0.026235908269882202,-0.0,0.0,0.0,0.0,0.0011964892037212849,0.0038830083794891834,0.0021964542102068663,43566.0,0.0,37871.0,12816.0,0.19210201501846313,-0.022496502846479416,0.15832483768463135,0.04068104922771454,0.0,0.0,0.0,0.0,43281.0,0.0,37222.0,11925.0,0.3694632351398468,0.06271088869370317,0.034755638167830984,0.056273592773981404,0.1121470034122467,0.06590311974287033,0.363442599773407
229,5,-0.0022773887030780315,-5.3226212912704796e-06,0.004864138085395098,-0.2220977395772934,0.03885423764586449,-0.42900165915489197,0.057998113334178925,-0.018515929579734802,0.056370001286268234,-1.0261521339416504,0.4521031975746155,0.05146200209856033,0.0,0.0,0.0,-0.038192786276340485,-0.14874038100242615,-0.0,0.0,0.0,0.0,0.0011964892037212849,0.0038830083794891834,0.0021964542102068663,43566.0,0.0,37871.0,12816.0,0.19210201501846313,-0.022496502846479416,0.15832483768463135,0.04068104922771454,0.0,0.0,0.0,0.0,43281.0,0.0,37222.0,11925.0,0.5275810360908508,0.05090421492220421,0.05456303043859909,0.054471407280917386,0.9042470455169678,-0.1553969830274582,1.40689218044281
234,5,-0.0008128943154588342,0.00026607976178638637,0.0023487797006964684,0.1383998990058899,-0.02634006179869175,0.2234496772289276,0.04541618376970291,-0.024651600047945976,0.057536058127880096,-1.0865275859832764,0.5517445206642151,0.062255218625068665,0.0,0.0,0.0,0.031276602298021317,0.10660486668348312,-0.0,0.0,0.0,0.0,0.0016343152383342385,0.004994290415197611,0.002310738665983081,45851.0,0.0,36533.0,12368.0,0.2063864916563034,-0.027068644762039185,0.15077197551727295,0.03903569281101227,0.0,0.0,0.0,0.0,44203.0,0.0,37987.0,13100.0,0.4435606002807617,0.043272384656588996,0.0440267139526201,0.0557502334541419,-0.545983612537384,0.10700896382331848,-0.5735452175140381
239,5,-0.0003878372081089765,0.00038970584864728153,0.0014468446606770158,0.1010279655456543,-0.02520967274904251,0.19330580532550812,0.04541618376970291,-0.024651600047945976,0.057536058127880096,-1.0865275859832764,0.5517445206642151,0.062255218625068665,0.0,0.0,0.0,0.03263923153281212,0.08413436263799667,-0.0,0.0,0.0,0.0,0.0016343152383342385,0.004994290415197611,0.002310738665983081,45851.0,0.0,36533.0,12368.0,0.2063864916563034,-0.027068644762039185,0.15077197551727295,0.03903569281101227,0.0,0.0,0.0,0.0,44203.0,0.0,37987.0,13100.0,0.410296231508255,0.034750320872257094,0.045740149048605766,0.05464274763739706,-0.39885279536247253,0.1032935157418251,-0.489641398191452
245,5,0.00013869022950530052,0.0002656547585502267,-7.747281051706523e-05,0.10402222722768784,0.009804253466427326,0.2713961899280548,0.03575951233506203,-0.02880670130252838,0.05844174697995186,-1.3068912029266357,0.4643893837928772,0.07643669098615646,0.0,0.0,0.0,-0.011797294020652771,0.08712252974510193,-0.0,0.0,0.0,0.0,0.0011623018654063344,0.004642189014703035,0.002401055069640279,47634.0,13603.0,48784.0,12880.0,0.2178216576576233,0.043607860803604126,0.22533684968948364,0.04091736674308777,0.0,0.0,0.0,0.0,47017.0,13878.0,48812.0,13621.0,0.4110112190246582,0.004179596673201011,0.05380265473216285,0.05508096264047378,-0.4138954281806946,-0.037411902099847794,-0.7424406409263611
250,5,0.00015782879199832678,0.0004899448249489069,0.0003647512348834425,0.03388606756925583,-0.028459332883358,0.01950748823583126,0.03575951233506203,-0.02880670130252838,0.05844174697995186,-1.3068912029266357,0.4643893837928772,0.07643669098615646,0.0,0.0,0.0,0.040793150663375854,0.031028950586915016,-0.0,0.0,0.0,0.0,0.0011623018654063344,0.004642189014703035,0.002401055069640279,47634.0,13603.0,48784.0,12880.0,0.2178216576576233,0.043607860803604126,0.22533684968948364,0.04091736674308777,0.0,0.0,0.0,0.0,47017.0,13878.0,48812.0,13621.0,0.372098833322525,0.00929255682737444,0.0406005347702755,0.04764359164587301,-0.1335000991821289,0.11705496162176132,0.019640769809484482
255,5,9.584582585375756e-05,0.0005212522810325027,0.0004980084486305714,0.001488204812631011,-0.012920845299959183,-0.012803766876459122,0.03575951233506203,-0.02880670130252838,0.05844174697995186,-1.3068912029266357,0.4643893837928772,0.07643669098615646,0.0,0.0,0.0,0.019253043457865715,0.0008311947458423674,-0.0,0.0,0.0,0.0,0.0011623018654063344,0.004642189014703035,0.002401055069640279,47634.0,13603.0,48784.0,12880.0,0.2178216576576233,0.043607860803604126,0.22533684968948364,0.04091736674308777,0.0,0.0,0.0,0.0,47017.0,13878.0,48812.0,13621.0,0.3716793358325958,0.004599627128166333,0.05272148896406389,0.052954160153887264,-0.0035751990508288145,0.05520956963300705,0.11970499902963638
260,5,0.00029647257179021835,0.0004842374473810196,4.182518750894815e-06,0.02853420563042164,0.0013058222830295563,0.06529450416564941,0.019244417548179626,-0.03364180773496628,0.05924510210752487,-1.4604026079177856,0.3780615031719208,0.08147776871919632,0.0,0.0,0.0,-0.0006239586509764194,0.026198631152510643,-0.0,0.0,0.0,0.0,0.0009204409434460104,-0.0007439214386977255,0.0023868216667324305,45191.0,0.0,42122.0,18729.0,0.2022196650505066,-0.03912336751818657,0.18328876793384552,0.06389694660902023,0.0,0.0,0.0,0.0,45283.0,0.0,42494.0,18591.0,0.3726584315299988,-0.008871924375049923,0.06659556075648405,0.059078770330751595,-0.1129869595170021,-0.0017931937472894788,-0.12051542103290558
265,5,0.00021736872440669686,0.0006989355897530913,0.00016273798246402293,-0.0025142759550362825,-0.02966599352657795,-0.002609414281323552,0.019244417548179626,-0.03364180773496628,0.05924510210752487,-1.4604026079177856,0.3780615031719208,0.08147776871919632,0.0,0.0,0.0,0.042952895164489746,-0.002692743670195341,-0.0,0.0,0.0,0.0,0.0009204409434460104,-0.0007439214386977255,0.0023868216667324305,45191.0,0.0,42122.0,18729.0,0.2022196650505066,-0.03912336751818657,0.18328876793384552,0.06389694660902023,0.0,0.0,0.0,0.0,45283.0,0.0,42494.0,18591.0,0.37287572026252747,-0.014537009041469932,0.06999938191596636,0.05669877661457006,0.011609883047640324,0.12350212782621384,0.08560328185558319
270,5,0.00043298269156366587,0.000872779346536845,-0.00019553441961761564,0.029431670904159546,-0.03323792666196823,0.04937531054019928,0.006935803685337305,-0.036573026329278946,0.05969565361738205,-1.578028678894043,0.40644940733909607,0.01468717958778143,0.0,0.0,0.0,0.04825735092163086,0.027212124317884445,-0.0,0.0,0.0,0.0,0.004110404755920172,0.004999999888241291,0.0023868149146437645,44281.0,0.0,42583.0,20078.0,0.19652891159057617,-0.04191835597157478,0.18608376383781433,0.06958770751953125,0.0,0.0,0.0,0.0,42626.0,0.0,41504.0,16279.0,0.3736196458339691,-0.010798474504609575,0.07184538838396981,0.06325503422604445,-0.11752279102802277,0.1390073001384735,-0.07524736225605011
275,5,0.00028049666434526443,0.0009967806981876493,3.7797126424266025e-05,-0.01251854095607996,-0.02733156643807888,-0.01785382255911827,0.006935803685337305,-0.036573026329278946,0.05969565361738205,-1.578028678894043,0.40644940733909607,0.01468717958778143,0.0,0.0,0.0,0.040403515100479126,-0.01183207705616951,-0.0,0.0,0.0,0.0,0.004110404755920172,0.004999999888241291,0.0023868149146437645,44281.0,0.0,42583.0,20078.0,0.19652891159057617,-0.04191835597157478,0.18608376383781433,0.06958770751953125,0.0,0.0,0.0,0.0,42626.0,0.0,41504.0,16279.0,0.37337735295295715,-0.019459698095237295,0.08330795839746596,0.06607637150736194,0.051089365035295486,0.11633558571338654,0.12935924530029297
280,5,0.0004529709694907069,0.0011044723214581609,-0.00030826774309389293,0.020390838384628296,-0.023276301100850105,0.043092936277389526,-0.012013069353997707,-0.04134559631347656,0.060484617948532104,-1.5965640544891357,0.3750590980052948,0.09504677355289459,0.0,0.0,0.0,0.034992512315511703,0.01886322721838951,-0.0,0.0,0.0,0.0,0.004153836518526077,0.004450679756700993,0.002531628590077162,42980.0,0.0,42882.0,15509.0,0.18850809335708618,-0.05564375966787338,0.18790829181671143,0.050906702876091,0.0,0.0,0.0,0.0,42127.0,0.0,42979.0,17517.0,0.374245822429657,-0.01348562001318283,0.087018377681031,0.07464109809739923,-0.08165212720632553,0.10100431740283966,-0.05857403203845024
285,5,6.62508828099817e-05,0.001187684596516192,6.888757343403995e-05,-0.04802355915307999,-0.018632611259818077,-0.039873864501714706,-0.012013069353997707,-0.04134559631347656,0.060484617948532104,-1.5965640544891357,0.3750590980052948,0.09504677355289459,0.0,0.0,0.0,0.028802473098039627,-0.04484305903315544,-0.0,0.0,0.0,0.0,0.004153836518526077,0.004450679756700993,0.002531628590077162,42980.0,0.0,42882.0,15509.0,0.18850809335708618,-0.05564375966787338,0.18790829181671143,0.050906702876091,0.0,0.0,0.0,0.0,42127.0,0.0,42979.0,17517.0,0.37448179721832275,-0.025400804001429234,0.10157721053094036,0.07144614473482182,0.19421666860580444,0.08320103585720062,0.19506406784057617
290,5,0.0001262158912140876,0.001104053109884262,0.00012214359594509006,-0.006011966150254011,0.006118639837950468,-0.019418003037571907,-0.02488524466753006,-0.04465124011039734,0.060482777655124664,-1.5682547092437744,0.35128751397132874,0.023762747645378113,0.0,0.0,0.0,-0.005551560781896114,-0.005959611386060715,-0.0,0.0,0.0,0.0,0.004999999888241291,0.004526905715465546,0.0024094500113278627,41696.0,0.0,42704.0,17928.0,0.18072247505187988,-0.055260155349969864,0.18682442605495453,0.060589127242565155,0.0,0.0,0.0,0.0,41674.0,0.0,44093.0,15801.0,0.3739604949951172,-0.038280259764163826,0.1003997643106987,0.07152610149842403,0.02579411491751671,-0.016018841415643692,0.13470770418643951
295,5,0.000444322096882388,0.0007598091615363955,0.00016334553947672248,0.042731281369924545,0.05002973601222038,-0.011593671515583992,-0.02488524466753006,-0.04465124011039734,0.060482777655124664,-1.5682547092437744,0.35128751397132874,0.023762747645378113,0.0,0.0,0.0,-0.06688575446605682,0.0394744873046875,-0.0,0.0,0.0,0.0,0.004999999888241291,0.004526905715465546,0.0024094500113278627,41696.0,0.0,42704.0,17928.0,0.18072247505187988,-0.055260155349969864,0.18682442605495453,0.060589127242565155,0.0,0.0,0.0,0.0,41674.0,0.0,44093.0,15801.0,0.3754710555076599,-0.07645218612264656,0.06798070490478533,0.04916157306358819,-0.17111831903457642,-0.19347171485424042,0.11221206188201904
300,5,-0.0006625279202125967,0.0006538315792568028,0.0028608234133571386,-0.14213961362838745,0.02984578162431717,-0.38112500309944153,-0.04383682832121849,-0.047920770943164825,0.06106714531779289,-1.620831847190857,0.2434147745370865,0.030250154435634613,0.0,0.0,0.0,-0.03257995471358299,-0.11056485772132874,-0.0,0.0,0.0,0.0,0.004999999888241291,0.0016868043458089232,0.0025910947006195784,41274.0,0.0,44536.0,15160.0,0.1781974732875824,-0.05248423293232918,0.19811594486236572,0.04954851418733597,0.0,0.0,0.0,0.0,39669.0,0.0,45455.0,13796.0,0.450409471988678,-0.07827387503658463,0.05183269663253215,0.04680013064847776,0.5749037265777588,-0.11318548768758774,1.2619727849960327
305,5,0.0016879856120795012,0.001037283451296389,-0.0025546103715896606,0.2864300012588501,-0.044729530811309814,0.6438232064247131,-0.04383682832121849,-0.047920770943164825,0.06106714531779289,-1.620831847190857,0.2434147745370865,0.030250154435634613,0.0,0.0,0.0,0.04148074984550476,0.17090865969657898,-0.0,0.0,0.0,0.0,0.004999999888241291,0.0016868043458089232,0.0025910947006195784,41274.0,0.0,44536.0,15160.0,0.1781974732875824,-0.05248423293232918,0.19811594486236572,0.04954851418733597,0.0,0.0,0.0,0.0,39669.0,0.0,45455.0,13796.0,0.5863965153694153,-0.10086280683793368,0.07042737030540845,0.05337109340709496,-1.153324842453003,0.18757285177707672,-1.8857277631759644
310,5,0.00014356491737999022,0.0009823694126680493,0.0011010515736415982,-0.13028989732265472,-0.00573089299723506,-0.318645715713501,-0.05641844868659973,-0.04928451403975487,0.06123283505439758,-1.5315617322921753,0.04925621673464775,0.07254625856876373,0.0,0.0,0.0,0.009369706735014915,-0.10375472158193588,-0.0,0.0,0.0,0.0,0.0031310035847127438,0.003747117705643177,0.0025333769153803587,39713.0,0.0,46855.0,11367.0,0.16896569728851318,-0.042700204998254776,0.21279799938201904,0.03541871905326843,0.0,0.0,0.0,0.0,39635.0,0.0,46845.0,11386.0,0.4358249604701996,-0.07460272807971173,0.06065433866338979,0.06084725102344467,0.5224051475524902,0.031509879976511,1.048741102218628
316,5,0.0001837529125623405,0.0010739661520347,0.0009496560669504106,-0.033460650593042374,-0.014542801305651665,-0.07439833134412766,-0.05641844868659973,-0.04928451403975487,0.06123283505439758,-1.5315617322921753,0.04925621673464775,0.07254625856876373,0.0,0.0,0.0,0.023343151435256004,-0.03106663003563881,-0.0,0.0,0.0,0.0,0.0031310035847127438,0.003747117705643177,0.0025333769153803587,39713.0,0.0,46855.0,11367.0,0.16896569728851318,-0.042700204998254776,0.21279799938201904,0.03541871905326843,0.0,0.0,0.0,0.0,39635.0,0.0,46845.0,11386.0,0.3750903010368347,-0.07949041546222456,0.05939556082174995,0.060560127091476304,0.13481184840202332,0.06754715740680695,0.3170786499977112
321,5,0.0004724186146631837,0.0011447840370237827,0.00023554252402391285,0.030375003814697266,-0.014277344569563866,0.07765639573335648,-0.07437001913785934,-0.04946812987327576,0.06169642135500908,-1.4649641513824463,-0.06918322294950485,-0.00042253267019987106,0.0,0.0,0.0,0.02318437211215496,0.02814728207886219,-0.0,0.0,0.0,0.0,0.004999999888241291,0.004999999888241291,0.002499661408364773,43169.0,0.0,42695.0,13018.0,0.18966242671012878,-0.04239862039685249,0.18676841259002686,0.04142996668815613,0.0,0.0,0.0,0.0,43289.0,0.0,42574.0,13184.0,0.3755878508090973,-0.09154179040809673,0.058785711480142055,0.05856004977114266,-0.12231043726205826,0.06717915832996368,-0.14688311517238617
326,5,0.0002977086987812072,0.0011890847235918045,0.0006212648586370051,-0.015346886590123177,-0.010485307313501835,-0.030704209581017494,-0.07437001913785934,-0.04946812987327576,0.06169642135500908,-1.4649641513824463,-0.06918322294950485,-0.00042253267019987106,0.0,0.0,0.0,0.018144454807043076,-0.014158537611365318,-0.0,0.0,0.0,0.0,0.004999999888241291,0.004999999888241291,0.002499661408364773,43169.0,0.0,42695.0,13018.0,0.18966242671012878,-0.04239862039685249,0.18676841259002686,0.04142996668815613,0.0,0.0,0.0,0.0,43289.0,0.0,42574.0,13184.0,0.37543758749961853,-0.09403412957861965,0.05728429472011454,0.060844212003548954,0.06151151284575462,0.052556492388248444,0.18474151194095612
331,5,0.0005694811698049307,0.0011777901090681553,-0.0001512878661742434,0.03344407677650452,-0.0015643496299162507,0.09894611686468124,-0.08579844981431961,-0.04909864440560341,0.06162377446889877,-1.3800313472747803,-0.11355593055486679,-0.04561081528663635,0.0,0.0,0.0,0.005897013004869223,0.031154228374361992,-0.0,0.0,0.0,0.0,0.004999999888241291,0.0008373455493710935,0.002494134707376361,38457.0,0.0,46378.0,12297.0,0.16168227791786194,-0.035112470388412476,0.20974169671535492,0.03877934068441391,0.0,0.0,0.0,0.0,50950.0,0.0,50950.0,29703.0,0.3754436671733856,-0.10329775230782413,0.05716868488074218,0.059799332121786446,-0.13535486161708832,0.017085449770092964,-0.21402296423912048
336,5,0.0008139029378071427,0.0013839432504028082,-0.0006093751871958375,0.044252268970012665,-0.029330739751458168,0.09381605684757233,-0.08579844981431961,-0.04909864440560341,0.06162377446889877,-1.3800313472747803,-0.11355593055486679,-0.04561081528663635,0.0,0.0,0.0,0.04473467171192169,0.041464995592832565,-0.0,0.0,0.0,0.0,0.004999999888241291,0.0008373455493710935,0.002494134707376361,38457.0,0.0,46378.0,12297.0,0.16168227791786194,-0.035112470388412476,0.20974169671535492,0.03877934068441391,0.0,0.0,0.0,0.0,50950.0,0.0,50950.0,29703.0,0.37595391273498535,-0.11237511499969902,0.05146518184337591,0.05774410942454069,-0.18019524216651917,0.12967848777770996,-0.2059922069311142
341,5,0.0005596922128461301,0.0013654794311150908,-0.0003694614861160517,-0.022313816472887993,-0.006214287597686052,-0.005443098954856396,-0.11156414449214935,-0.045739442110061646,0.06109996140003204,-1.0957757234573364,-0.19163362681865692,0.0060975090600550175,0.0,0.0,0.0,0.012949972413480282,-0.020151285454630852,-0.0,0.0,0.0,0.0,0.004999999888241291,0.0007854257128201425,0.002584313740953803,39175.0,0.0,47317.0,10663.0,0.16583022475242615,-0.03908680006861687,0.21577060222625732,0.032924048602581024,0.0,0.0,0.0,0.0,38084.0,0.0,46633.0,11849.0,0.37476250529289246,-0.12374027677547637,0.06317233334909757,0.05945384265960486,0.08739353716373444,0.03744504228234291,0.09350689500570297
346,5,0.0003478767757769674,0.0012413669610396028,0.00034152090665884316,-0.03634830564260483,0.015511460602283478,-0.10117046535015106,-0.11156414449214935,-0.045739442110061646,0.06109996140003204,-1.0957757234573364,-0.19163362681865692,0.0060975090600550175,0.0,0.0,0.0,-0.01724245958030224,-0.03335003927350044,-0.0,0.0,0.0,0.0,0.004999999888241291,0.0007854257128201425,0.002584313740953803,39175.0,0.0,47317.0,10663.0,0.16583022475242615,-0.03908680006861687,0.21577060222625732,0.032924048602581024,0.0,0.0,0.0,0.0,38084.0,0.0,46633.0,11849.0,0.37491917610168457,-0.14072232941868468,0.04290857570078661,0.04875711938006836,0.14466890692710876,-0.0498754046857357,0.39028090238571167
351,5,-9.729727025842294e-06,0.001355295768007636,0.0009748333832249045,-0.06096940487623215,-0.011296597309410572,-0.11901488900184631,-0.11156414449214935,-0.045739442110061646,0.06109996140003204,-1.0957757234573364,-0.19163362681865692,0.0060975090600550175,0.0,0.0,0.0,0.020150478929281235,-0.05648919194936752,-0.0,0.0,0.0,0.0,0.004999999888241291,0.0007854257128201425,0.002584313740953803,39175.0,0.0,47317.0,10663.0,0.16583022475242615,-0.03908680006861687,0.21577060222625732,0.032924048602581024,0.0,0.0,0.0,0.0,38084.0,0.0,46633.0,11849.0,0.37532976269721985,-0.13568722578790854,0.04846185995619091,0.055219596601945885,0.24521411955356598,0.05835142359137535,0.45442861318588257
356,5,-5.4845728300279006e-05,0.0015664245001971722,0.00023763799981679767,0.0035633957013487816,0.0008141257567331195,0.07820958644151688,-0.12389837950468063,-0.043356746435165405,0.06171391159296036,-0.945487380027771,-0.20227858424186707,0.0597604475915432,0.0,0.0,0.0,0.003972797188907862,0.0029103707056492567,-0.0,0.0,0.0,0.0,0.004999999888241291,0.0027126092463731766,0.002691033761948347,41827.0,0.0,46392.0,12392.0,0.18151462078094482,-0.05451195687055588,0.20982912182807922,0.039124757051467896,0.0,0.0,0.0,0.0,39390.0,0.0,47189.0,10896.0,0.375362753868103,-0.1283242100534834,0.07338405952389387,0.06898821293746488,-0.012643810361623764,0.011509551666676998,-0.14534200727939606
362,5,-0.00023179445997811854,0.0014384221285581589,0.0010965055553242564,-0.0237038042396307,0.018164560198783875,-0.09677858650684357,-0.12389837950468063,-0.043356746435165405,0.06171391159296036,-0.945487380027771,-0.20227858424186707,0.0597604475915432,0.0,0.0,0.0,-0.020117633044719696,-0.022438840940594673,-0.0,0.0,0.0,0.0,0.004999999888241291,0.0027126092463731766,0.002691033761948347,41827.0,0.0,46392.0,12392.0,0.18151462078094482,-0.05451195687055588,0.20982912182807922,0.039124757051467896,0.0,0.0,0.0,0.0,39390.0,0.0,47189.0,10896.0,0.3755286931991577,-0.13025288836766657,0.049133198940961145,0.0639547857640786,0.09750065952539444,-0.058281637728214264,0.39326733350753784
367,5,-0.00013636265066452324,0.0014357276959344745,0.0008268107776530087,0.006249312311410904,0.005826591979712248,0.008723697625100613,-0.13036611676216125,-0.041894812136888504,0.06221461668610573,-0.7040498852729797,-0.19083715975284576,0.048624202609062195,0.0,0.0,0.0,-0.002961034420877695,0.005246412940323353,-0.0,0.0,0.0,0.0,0.004999999888241291,-0.0002612415119074285,0.0027477957773953676,38911.0,0.0,49405.0,6569.0,0.16430068016052246,-0.03761138767004013,0.22943811118602753,0.019202418625354767,0.0,0.0,0.0,0.0,42187.0,0.0,45787.0,13433.0,0.3759385347366333,-0.13546386679721828,0.051954568281943725,0.0647165113680563,-0.022827399894595146,-0.008586352691054344,0.076107919216156
372,5,3.4357988624833524e-05,0.0013236982049420476,0.000255465303780511,0.025775684043765068,0.01743210479617119,0.08260547369718552,-0.13036611676216125,-0.041894812136888504,0.06221461668610573,-0.7040498852729797,-0.19083715975284576,0.048624202609062195,0.0,0.0,0.0,-0.019076557829976082,0.023421449586749077,-0.0,0.0,0.0,0.0,0.004999999888241291,-0.0002612415119074285,0.0027477957773953676,38911.0,0.0,49405.0,6569.0,0.16430068016052246,-0.03761138767004013,0.22943811118602753,0.019202418625354767,0.0,0.0,0.0,0.0,42187.0,0.0,45787.0,13433.0,0.3761032521724701,-0.15348514710640357,0.05304879254287695,0.06125863729207985,-0.10192687064409256,-0.05535103753209114,-0.1517733633518219
377,5,-0.0001990858290810138,0.001582985045388341,0.0006747223669663072,-0.02494942955672741,-0.031070522964000702,-0.03391434624791145,-0.13736701011657715,-0.04026542976498604,0.06217203661799431,-0.45152848958969116,-0.09034021943807602,-0.0098081324249506,0.0,0.0,0.0,0.04842329025268555,-0.02352561429142952,-0.0,0.0,0.0,0.0,0.0047372994013130665,0.001529810717329383,0.0026331106200814247,40470.0,0.0,46928.0,10490.0,0.1734163463115692,-0.04346892982721329,0.21326425671577454,0.032316870987415314,0.0,0.0,0.0,0.0,38815.0,0.0,48379.0,8636.0,0.3764282166957855,-0.14728741307199114,0.05300435530216024,0.05915150088807915,0.10236740112304688,0.140534445643425,0.20487280189990997
382,5,-0.00012005857570329681,0.0015352912014350295,0.0005427337600849569,0.0035789862740784883,-0.0026440168730914593,0.008304104208946228,-0.13736701011657715,-0.04026542976498604,0.06217203661799431,-0.45152848958969116,-0.09034021943807602,-0.0098081324249506,0.0,0.0,0.0,0.009283316321671009,0.0027979635633528233,-0.0,0.0,0.0,0.0,0.0047372994013130665,0.001529810717329383,0.0026331106200814247,40470.0,0.0,46928.0,10490.0,0.1734163463115692,-0.04346892982721329,0.21326425671577454,0.032316870987415314,0.0,0.0,0.0,0.0,38815.0,0.0,48379.0,8636.0,0.37590059638023376,-0.14074479228265693,0.05745664230499104,0.06441945511984136,-0.012172563932836056,0.026925142854452133,0.07827205210924149
387,5,-9.48289452935569e-05,0.0015974605921655893,0.0004356520948931575,0.004605843685567379,-0.009496917948126793,0.017482660710811615,-0.13986611366271973,-0.039874911308288574,0.06176644191145897,-0.19824661314487457,0.010362271219491959,0.005539305508136749,0.0,0.0,0.0,0.01901063695549965,0.0037750420160591602,-0.0,0.0,0.0,0.0,0.004339723382145166,0.0034653639886528254,0.002646917011588812,42809.0,0.0,44537.0,13401.0,0.18745985627174377,-0.052331794053316116,0.1981227695941925,0.04285220056772232,0.0,0.0,0.0,0.0,43266.0,0.0,44767.0,12682.0,0.37548887729644775,-0.14397657228577868,0.06051286804622335,0.06434169285752545,-0.016402898356318474,0.05507553741335869,0.05073676258325577
392,5,-8.602223533671349e-05,0.0016477660974487662,0.00034722822601906955,0.0026146923191845417,-0.00989184807986021,0.0176241435110569,-0.13986611366271973,-0.039874911308288574,0.06176644191145897,-0.19824661314487457,0.010362271219491959,0.005539305508136749,0.0,0.0,0.0,0.019793668761849403,0.0019489446422085166,-0.0,0.0,0.0,0.0,0.004339723382145166,0.0034653639886528254,0.002646917011588812,42809.0,0.0,44537.0,13401.0,0.18745985627174377,-0.052331794053316116,0.1981227695941925,0.04285220056772232,0.0,0.0,0.0,0.0,43266.0,0.0,44767.0,12682.0,0.3754926323890686,-0.13938086662440743,0.0648013854178747,0.06691463502197686,-0.008468409068882465,0.05734068155288696,0.05028849095106125
397,5,-0.0003373333311174065,0.0017652565147727728,-6.885570473968983e-05,-0.03439914435148239,-0.019416216760873795,0.06353899091482162,-0.1411929726600647,-0.040197644382715225,0.06154836341738701,0.005330371204763651,0.09596090018749237,-0.006573732942342758,0.0,0.0,0.0,0.033324677497148514,-0.03248714655637741,-0.0,0.0,0.0,0.0,0.003990801051259041,0.0038682203739881516,0.0026923951227217913,43832.0,0.0,44073.0,13033.0,0.1937408298254013,-0.0543576143682003,0.1952357143163681,0.04148411750793457,0.0,0.0,0.0,0.0,42518.0,0.0,45448.0,12993.0,0.3755751848220825,-0.12450224907911112,0.08781152103072964,0.07363304443912781,0.14111627638339996,0.09653573483228683,-0.09268511086702347
402,5,-8.641218300908804e-05,0.0016236003721132874,-5.1151229854440317e-05,0.0248092170804739,0.014006996527314186,0.016583072021603584,-0.1411929726600647,-0.040197644382715225,0.06154836341738701,0.005330371204763651,0.09596090018749237,-0.006573732942342758,0.0,0.0,0.0,-0.012973511591553688,0.022367119789123535,-0.0,0.0,0.0,0.0,0.003990801051259041,0.0038682203739881516,0.0026923951227217913,43832.0,0.0,44073.0,13033.0,0.1937408298254013,-0.0543576143682003,0.1952357143163681,0.04148411750793457,0.0,0.0,0.0,0.0,42518.0,0.0,45448.0,12993.0,0.375294029712677,-0.13055739237961214,0.07747023678202707,0.06996471026141834,-0.09713935852050781,-0.037566304206848145,0.04823392257094383
407,5,-4.896396058029495e-05,0.001705543720163405,1.1531418749655131e-05,0.01268551591783762,-0.007269962690770626,-0.0038006494287401438,-0.14029330015182495,-0.04081563651561737,0.06119997054338455,0.21806488931179047,0.14225095510482788,-0.039252739399671555,0.0,0.0,0.0,0.01674695312976837,0.011261055245995522,-0.0,0.0,0.0,0.0,0.004413509275764227,0.003307300852611661,0.0026837624609470367,42980.0,0.0,44736.0,13023.0,0.18850842118263245,-0.05341709032654762,0.19936156272888184,0.04144786298274994,0.0,0.0,0.0,0.0,42781.0,0.0,44748.0,13638.0,0.37484586238861084,-0.12934845692596814,0.0757016441713907,0.0711453132723006,-0.04884804040193558,0.04843633621931076,0.11017145961523056
413,5,9.915569535223767e-05,0.0016886392841115594,-0.0001154279598267749,0.02454240806400776,0.00018563252524472773,0.01663411781191826,-0.14029330015182495,-0.04081563651561737,0.06119997054338455,0.21806488931179047,0.14225095510482788,-0.039252739399671555,0.0,0.0,0.0,0.006541710812598467,0.02239410951733589,-0.0,0.0,0.0,0.0,0.004413509275764227,0.003307300852611661,0.0026837624609470367,42980.0,0.0,44736.0,13023.0,0.18850842118263245,-0.05341709032654762,0.19936156272888184,0.04144786298274994,0.0,0.0,0.0,0.0,42781.0,0.0,44748.0,13638.0,0.37487155199050903,-0.13174669294155894,0.08166689221658782,0.07286751498968186,-0.09715336561203003,0.018925169482827187,0.04698812961578369
418,5,-0.0002016219514189288,0.0018309049773961306,0.00027432781644165516,-0.03474614769220352,-0.019861506298184395,-0.0495755709707737,-0.13679955899715424,-0.04246058687567711,0.06075267866253853,0.3312150835990906,0.17166556417942047,0.03989911079406738,0.0,0.0,0.0,0.0347294919192791,-0.03272007405757904,-0.0,0.0,0.0,0.0,0.004393996205180883,0.003627089085057378,0.002759774448350072,43876.0,0.0,45197.0,12272.0,0.19401749968528748,-0.05946851521730423,0.20225760340690613,0.038686603307724,0.0,0.0,0.0,0.0,46037.0,0.0,43214.0,11521.0,0.37468358874320984,-0.14075987352555452,0.09120642144551272,0.07129581469198522,0.1417839229106903,0.10036668926477432,0.25115224719047546
423,5,7.3410636105109e-05,0.001927102799527347,-3.4640703233890235e-05,0.028080718591809273,-0.019426148384809494,0.02838291972875595,-0.13679955899715424,-0.04246058687567711,0.06075267866253853,0.3312150835990906,0.17166556417942047,0.03989911079406738,0.0,0.0,0.0,0.03449501469731331,0.02564845234155655,-0.0,0.0,0.0,0.0,0.004393996205180883,0.003627089085057378,0.002759774448350072,43876.0,0.0,45197.0,12272.0,0.19401749968528748,-0.05946851521730423,0.20225760340690613,0.038686603307724,0.0,0.0,0.0,0.0,46037.0,0.0,43214.0,11521.0,0.3746032118797302,-0.12877866881774827,0.08667477231598363,0.07189806478262203,-0.11112527549266815,0.0996684581041336,0.013474619947373867
428,5,0.0004810984537471086,0.0018932122038677335,-0.00044424307998269796,0.06550050526857376,-0.001083168899640441,0.06585920602083206,-0.13362829387187958,-0.043526168912649155,0.060874875634908676,0.4529939889907837,0.19361913204193115,0.0705757662653923,0.0,0.0,0.0,0.009142467752099037,0.06046271696686745,-0.0,0.0,0.0,0.0,0.0028611409943550825,0.004445679020136595,0.002864873968064785,46716.0,0.0,43466.0,10101.0,0.2119034379720688,-0.05905694141983986,0.19148650765419006,0.030960574746131897,0.0,0.0,0.0,0.0,46352.0,0.0,43217.0,12313.0,0.37645256519317627,-0.1166718596026973,0.08662113438299694,0.07835158165236437,-0.263270765542984,0.02655935287475586,-0.10523378103971481
433,5,0.0006359080434776843,0.0019732671789824963,-0.0005953394575044513,0.041323497891426086,-0.011532633565366268,0.040911249816417694,-0.13362829387187958,-0.043526168912649155,0.060874875634908676,0.4529939889907837,0.19361913204193115,0.0705757662653923,0.0,0.0,0.0,0.023968609049916267,0.03866015374660492,-0.0,0.0,0.0,0.0,0.0028611409943550825,0.004445679020136595,0.002864873968064785,46716.0,0.0,43466.0,10101.0,0.2119034379720688,-0.05905694141983986,0.19148650765419006,0.030960574746131897,0.0,0.0,0.0,0.0,46352.0,0.0,43217.0,12313.0,0.37478479743003845,-0.10965068637211206,0.0830646838893963,0.07827741201904369,-0.16761086881160736,0.06930375099182129,-0.03403373807668686
438,5,0.0005366179393604398,0.0019141207449138165,-0.0004195875080768019,-0.0015035659307613969,0.00482070492580533,-0.012331893667578697,-0.1279490441083908,-0.04626958444714546,0.06065472215414047,0.45623448491096497,0.23985318839550018,0.02678879350423813,0.0,0.0,0.0,0.001394097227603197,-0.0009550710092298687,-0.0,0.0,0.0,0.0,0.003315496491268277,0.004991994239389896,0.0028039985336363316,46318.0,0.0,43127.0,12372.0,0.20935970544815063,-0.06294743716716766,0.18940776586532593,0.0390518382191658,0.0,0.0,0.0,0.0,46320.0,0.0,42942.0,12369.0,0.3741455674171448,-0.1123726277205897,0.08839158840944074,0.07801161863069199,0.004134750459343195,0.004028480499982834,0.1264847218990326
443,5,0.0007078599301166832,0.002041724743321538,-0.0006249960279092193,0.02352280728518963,-0.01641835644841194,0.025057625025510788,-0.1279490441083908,-0.04626958444714546,0.06065472215414047,0.45623448491096497,0.23985318839550018,0.02678879350423813,0.0,0.0,0.0,0.031230144202709198,0.02242484875023365,-0.0,0.0,0.0,0.0,0.003315496491268277,0.004991994239389896,0.0028039985336363316,46318.0,0.0,43127.0,12372.0,0.20935970544815063,-0.06294743716716766,0.18940776586532593,0.0390518382191658,0.0,0.0,0.0,0.0,46320.0,0.0,42942.0,12369.0,0.37442171573638916,-0.10400402986561078,0.08312538913234221,0.0773818648697042,-0.09712444990873337,0.09019876271486282,0.009997467510402203
448,5,0.0006580944173038006,0.002005969174206257,-0.0005595378461293876,8.967166650108993e-05,8.026277646422386e-05,-0.0016468577086925507,-0.1279490441083908,-0.04626958444714546,0.06065472215414047,0.45623448491096497,0.23985318839550018,0.02678879350423813,0.0,0.0,0.0,0.008483641780912876,0.0007544936961494386,-0.0,0.0,0.0,0.0,0.003315496491268277,0.004991994239389896,0.0028039985336363316,46318.0,0.0,43127.0,12372.0,0.20935970544815063,-0.06294743716716766,0.18940776586532593,0.0390518382191658,0.0,0.0,0.0,0.0,46320.0,0.0,42942.0,12369.0,0.3741585910320282,-0.10442096885018079,0.08578598523363412,0.07680813562862568,-0.0032685629557818174,0.024495888501405716,0.08916021138429642
453,5,0.0007838085875846446,0.002055159769952297,-0.0007270720670931041,0.01762688346207142,-0.006862579844892025,0.022960733622312546,-0.12418268620967865,-0.04775112867355347,0.06045094132423401,0.47438308596611023,0.1916251927614212,0.0006551364203915,0.0,0.0,0.0,0.018380356952548027,0.01717352122068405,-0.0,0.0,0.0,0.0,0.0036263461224734783,0.004999999888241291,0.002840027678757906,45555.0,0.0,43787.0,13645.0,0.20451124012470245,-0.06713718175888062,0.19346405565738678,0.043766848742961884,0.0,0.0,0.0,0.0,45395.0,0.0,43499.0,13913.0,0.3740299344062805,-0.10223772043362699,0.08009445260380497,0.0741666662504035,-0.0743303894996643,0.05304412916302681,0.011133244261145592
458,5,0.0009561885963194072,0.0018574760761111975,-0.0008458811207674444,0.029421266168355942,0.025616923347115517,0.023521488532423973,-0.12418268620967865,-0.04775112867355347,0.06045094132423401,0.47438308596611023,0.1916251927614212,0.0006551364203915,0.0,0.0,0.0,-0.02687297761440277,0.028351493179798126,-0.0,0.0,0.0,0.0,0.0036263461224734783,0.004999999888241291,0.002840027678757906,45555.0,0.0,43787.0,13645.0,0.20451124012470245,-0.06713718175888062,0.19346405565738678,0.043766848742961884,0.0,0.0,0.0,0.0,45395.0,0.0,43499.0,13913.0,0.3741970360279083,-0.13051022751041658,0.06645840697216246,0.05618947854532002,-0.12273100763559341,-0.07756754010915756,0.0054816873744130135
463,5,0.0011332090944051743,0.001961692236363888,-0.0009958574082702398,0.03360924869775772,-0.0069051762111485004,0.028053119778633118,-0.11841198801994324,-0.049595803022384644,0.060126375406980515,0.4790317118167877,0.11869268864393234,-0.009040518663823605,0.0,0.0,0.0,0.01858433708548546,0.03255026414990425,-0.0,0.0,0.0,0.0,0.003014313755556941,0.003556834999471903,0.002887463429942727,46035.0,0.0,43396.0,12852.0,0.20755308866500854,-0.06463846564292908,0.19105622172355652,0.04081587493419647,0.0,0.0,0.0,0.0,45918.0,0.0,43182.0,13053.0,0.37380239367485046,-0.10692380793252533,0.05430271756262128,0.06084813037887207,-0.14077907800674438,0.05359979718923569,-0.012950287200510502
