timestamp,dt,pos_x,pos_y,pos_z,vel_x,vel_y,vel_z,roll,pitch,yaw,agv_x,agv_y,agv_z,x_ref,y_ref,z_ref,roll_ref,pitch_ref,yaw_ref,x_vel_ref,y_vel_ref,z_vel_ref,x_torque,y_torque,z_torque,w0,w1,w2,w3,u0,u1,u2,u3,m0req,m1req,m2req,m3req,thrust0,thrust1,thrust2,thrust3,thrust_ref,roll_vicon,pitch_vicon,yaw_vicon,acc_x,acc_y,acc_z
5,5,0.0,0.0,0.0,0.00047594658099114895,3.4302658605156466e-05,0.00035212788498029113,0.06202878803014755,-0.005458126775920391,0.006625709123909473,-4.999804514227435e-05,0.0013879446778446436,-0.0021617989987134933,0.0,0.0,0.0,-3.4967026294907555e-05,0.00048516466631554067,-0.0,0.0,0.0,0.0,-0.0020333384163677692,0.00018185205408371985,0.0001984932750929147,0.0,0.0,0.0,0.0,0.0,0.0,0.0,0.0,0.0,0.0,0.0,0.0,0.0,0.0,0.0,0.0,0.3390336334705353,0.06865954486412387,0.03667505994168334,0.07215997412619822,-0.0019037863239645958,-0.00013721063442062587,-0.0010563835967332125
26,21,0.0,0.0,0.0,0.0008904482237994671,-0.00029267961508594453,0.0007538457284681499,0.06202878803014755,-0.005458126775920391,0.006625709123909473,-4.999804514227435e-05,0.0013879446778446436,-0.0021617989987134933,0.0,0.0,0.0,0.00029834810993634164,0.000907694164197892,-0.0,0.0,0.0,0.0,-0.0020333384163677692,0.00018185205408371985,0.0001984932750929147,0.0,0.0,0.0,0.0,0.0,0.0,0.0,0.0,0.0,0.0,0.0,0.0,0.0,0.0,0.0,0.0,0.33903375267982483,0.06903332982389843,0.03685229364007328,0.07237156820729332,-0.0035617928951978683,0.0011707184603437781,-0.002261537127196789
31,5,0.0,0.0,0.0,0.00016292896179948002,0.0010128143476322293,0.003819297067821026,0.06202363595366478,-0.0054862177930772305,0.006645163055509329,-0.0010446588275954127,-0.0005923128919675946,0.0037982300855219364,0.0,0.0,0.0,-0.0010324300965294242,0.00016608457372058183,-0.0,0.0,0.0,0.0,-0.0020337849855422974,0.0002058109239442274,0.00020691707322839648,0.0,0.0,0.0,0.0,0.0,0.0,0.0,0.0,0.0,0.0,0.0,0.0,0.0,0.0,0.0,0.0,0.3390337824821472,0.0684758179884938,0.036628968310302296,0.07185920425718656,-0.0006517158471979201,-0.004051257390528917,-0.011457891203463078
36,5,0.0,0.0,0.0,0.0005286788800731301,0.0023117002565413713,-0.005109528079628944,0.06202363595366478,-0.0054862177930772305,0.006645163055509329,-0.0010446588275954127,-0.0005923128919675946,0.0037982300855219364,0.0,0.0,0.0,-0.00235646846704185,0.0005389182479120791,-0.0,0.0,0.0,0.0,-0.0020337849855422974,0.0002058109239442274,0.00020691707322839648,0.0,0.0,0.0,0.0,0.0,0.0,0.0,0.0,0.0,0.0,0.0,0.0,0.0,0.0,0.0,0.0,0.3390345871448517,0.06822944857596047,0.0365732280087587,0.07254740958351331,-0.0021147155202925205,-0.009246801026165485,0.015328584238886833
41,5,4.059303682879545e-05,-5.099934423924424e-05,-2.4542014216422103e-05,0.005841628648340702,0.007833418436348438,0.0019030236871913075,0.06203274056315422,-0.005442708730697632,0.006657683756202459,-0.0002363708772463724,-0.0040547787211835384,-0.0009248811984434724,0.0,0.0,0.0,-0.008062847889959812,0.006016806699335575,-0.0,0.0,0.0,0.0,-0.002038810169324279,0.00015597768651787192,0.00020380050409585238,0.0,0.0,0.0,0.0,0.0,0.0,0.0,0.0,0.0,0.0,0.0,0.0,27952.0,24330.0,22089.0,19347.0,0.3390507698059082,0.06630113311498935,0.034957430496903995,0.07071757386614766,-0.023610316216945648,-0.03163997456431389,-0.006079041864722967
47,5,-0.00022423641348723322,-0.00042447520536370575,0.0010751931695267558,-0.03532363474369049,0.054636646062135696,-0.153392031788826,0.06206847354769707,-0.005478496663272381,0.006629022303968668,0.009110935963690281,0.006866736803203821,-0.0037502103950828314,0.0,0.0,0.0,-0.07624632120132446,-0.032821882516145706,-0.0,0.0,0.0,0.0,-0.002045721048489213,0.00022837630240246654,0.00019865210924763232,28016.0,24328.0,22043.0,19323.0,0.10603319108486176,0.08847314119338989,0.07814155519008636,0.06638586521148682,0.0,0.0,0.0,0.0,28043.0,24503.0,21830.0,19324.0,0.3767341375350952,0.07000603050401416,0.03130308246146415,0.07733181950251568,0.14267387986183167,-0.22118781507015228,0.4788389503955841
52,5,-0.00038290294469334185,-0.0005582414451055229,0.0010354924015700817,-0.03281040117144585,0.035118263214826584,-0.04045949876308441,0.06206847354769707,-0.005478496663272381,0.006629022303968668,0.009110935963690281,0.006866736803203821,-0.0037502103950828314,0.0,0.0,0.0,-0.051693592220544815,-0.03200187161564827,-0.0,0.0,0.0,0.0,-0.002045721048489213,0.00022837630240246654,0.00019865210924763232,28016.0,24328.0,22043.0,19323.0,0.10603319108486176,0.08847314119338989,0.07814155519008636,0.06638586521148682,0.0,0.0,0.0,0.0,28043.0,24503.0,21830.0,19324.0,0.36119621992111206,0.0668756350285542,0.04008846523168802,0.07378920447704605,0.1335826814174652,-0.14393498003482819,0.1400093138217926
57,5,-0.000357356941094622,-0.0005570498178713024,0.0008910088217817247,-0.006266679614782333,0.01036865171045065,0.008089853450655937,0.06205441802740097,-0.0055082798935472965,0.006559847854077816,-0.000181158262421377,-0.0016715920064598322,0.0008377035264857113,0.0,0.0,0.0,-0.01729811541736126,-0.0070002153515815735,-0.0,0.0,0.0,0.0,-0.004545632284134626,-0.0009152732673101127,0.00019227345183026046,28010.0,24495.0,21948.0,19246.0,0.10600511729717255,0.08924610912799835,0.07772132754325867,0.06606203317642212,0.0,0.0,0.0,0.0,28080.0,24413.0,22094.0,19102.0,0.3390926420688629,0.07668987702317767,0.03530380324023125,0.07722073017503936,0.027469294145703316,-0.045254986733198166,-0.000871796568389982
63,6,-0.000328957597957924,-0.0006243487587198615,0.0007573608891107142,0.002095903502777219,0.012532453052699566,0.021137669682502747,0.06205441802740097,-0.0055082798935472965,0.006559847854077816,-0.000181158262421377,-0.0016715920064598322,0.0008377035264857113,0.0,0.0,0.0,-0.020762205123901367,0.0015671106521040201,-0.0,0.0,0.0,0.0,-0.004545632284134626,-0.0009152732673101127,0.00019227345183026046,28010.0,24495.0,21948.0,19246.0,0.10600511729717255,0.08924610912799835,0.07772132754325867,0.06606203317642212,0.0,0.0,0.0,0.0,28080.0,24413.0,22094.0,19102.0,0.33910709619522095,0.05990446006414728,0.03022852077344567,0.07660713944151962,-0.006148689426481724,-0.054318711161613464,-0.04193754494190216
68,5,-0.0003001865406986326,-0.0005811151931993663,0.000710647611413151,0.004656718112528324,-0.0022929676342755556,0.012881157919764519,0.06205441802740097,-0.0055082798935472965,0.006559847854077816,-0.000181158262421377,-0.0016715920064598322,0.0008377035264857113,0.0,0.0,0.0,0.0019348004134371877,0.004197042901068926,-0.0,0.0,0.0,0.0,-0.004545632284134626,-0.0009152732673101127,0.00019227345183026046,28010.0,24495.0,21948.0,19246.0,0.10600511729717255,0.08924610912799835,0.07772132754325867,0.06606203317642212,0.0,0.0,0.0,0.0,28080.0,24413.0,22094.0,19102.0,0.3390372097492218,0.06075997608383831,0.028319258669883027,0.07739179519020861,-0.01646869070827961,0.0050603230483829975,-0.015107845887541771
73,5,-0.00033122437889687717,-0.0006043493049219251,0.0006992749404162169,-0.002948284149169922,0.002564889146015048,0.005456523969769478,0.062019214034080505,-0.005485998932272196,0.006566595286130905,-0.002542471047490835,-0.008600707165896893,-0.0024791057221591473,0.0,0.0,0.0,-0.005628211423754692,-0.0036314348690211773,-0.0,0.0,0.0,0.0,-0.004545632284134626,-0.0009152732673101127,0.00019227345183026046,31452.0,30886.0,22315.0,16178.0,0.12338311970233917,0.12045679986476898,0.07934781908988953,0.053537722676992416,0.0,0.0,0.0,0.0,31473.0,30888.0,22448.0,15998.0,0.33904120326042175,0.05997651121392902,0.030714345418908835,0.07654707361749458,0.014249812811613083,-0.01472356729209423,0.010194655507802963
78,5,-0.0003037175047211349,-0.00057904765708372,0.0006421005236916244,0.0029664773028343916,-0.0027727640699595213,0.009641374461352825,0.062019214034080505,-0.005485998932272196,0.006566595286130905,-0.002542471047490835,-0.008600707165896893,-0.0024791057221591473,0.0,0.0,0.0,0.002548845950514078,0.0024244331289082766,-0.0,0.0,0.0,0.0,-0.004545632284134626,-0.0009152732673101127,0.00019227345183026046,31452.0,30886.0,22315.0,16178.0,0.12338311970233917,0.12045679986476898,0.07934781908988953,0.053537722676992416,0.0,0.0,0.0,0.0,31473.0,30888.0,22448.0,15998.0,0.33903568983078003,0.06005608478696267,0.029777606451194902,0.0771038460511682,-0.00951288640499115,0.006666648667305708,-0.0015974149573594332
83,5,-0.0002968314802274108,-0.0005786455585621297,0.0005846983403898776,0.0018539888551458716,-0.0008881283574737608,0.01092872116714716,0.06199795752763748,-0.005360884591937065,0.00658941175788641,0.0031289514154195786,-0.009208844974637032,0.005953641142696142,0.0,0.0,0.0,-0.00038415755261667073,0.0012827595928683877,-0.0,0.0,0.0,0.0,-0.001983441412448883,0.0004962889943271875,0.00020467897411435843,28265.0,25494.0,21899.0,17887.0,0.1072600781917572,0.09390807151794434,0.07750238478183746,0.06042186915874481,0.0,0.0,0.0,0.0,28465.0,25371.0,21768.0,17930.0,0.33903390169143677,0.05993738334685918,0.03089231078931288,0.07694308146147266,-0.005032957531511784,-0.0010061142966151237,-0.0044664726592600346
88,5,-0.0002969003398902714,-0.0008262753835879266,0.0003913383116014302,0.0005465541034936905,0.03440173715353012,0.030349016189575195,0.06199795752763748,-0.005360884591937065,0.00658941175788641,0.0031289514154195786,-0.009208844974637032,0.005953641142696142,0.0,0.0,0.0,-0.05343269929289818,-7.325539627345279e-05,-0.0,0.0,0.0,0.0,-0.001983441412448883,0.0004962889943271875,0.00020467897411435843,28265.0,25494.0,21899.0,17887.0,0.1072600781917572,0.09390807151794434,0.07750238478183746,0.06042186915874481,0.0,0.0,0.0,0.0,28465.0,25371.0,21768.0,17930.0,0.34931859374046326,0.044745850242122485,0.03808046652745507,0.06987843067840463,0.00029575175722129643,-0.14387565851211548,-0.06351546943187714
93,5,-0.0003167968534398824,-0.0006113576819188893,0.0005498892278410494,-0.002621545223519206,-0.01976795680820942,-0.013092420995235443,0.062046971172094345,-0.005505830980837345,0.006611933466047049,-0.00433211587369442,0.014636967331171036,-0.009010943584144115,0.0,0.0,0.0,0.028281645849347115,-0.003344520926475525,-0.0,0.0,0.0,0.0,-0.0019646654836833477,0.000254923157626763,0.00020918638620059937,28029.0,24090.0,22244.0,19357.0,0.10609845072031021,0.08737871795892715,0.07903029769659042,0.06652819365262985,0.0,0.0,0.0,0.0,27711.0,24370.0,21838.0,19845.0,0.3391711413860321,0.0531714404249307,0.04007390683460252,0.07117854991172576,0.013123949058353901,0.07399396598339081,0.06980371475219727
98,5,-0.0005582887097261846,-0.0006948105292394757,0.0002224966447101906,-0.034595321863889694,0.00575301656499505,0.041907232254743576,0.062046971172094345,-0.005505830980837345,0.006611933466047049,-0.00433211587369442,0.014636967331171036,-0.009010943584144115,0.0,0.0,0.0,-0.01067194901406765,-0.03526170179247856,-0.0,0.0,0.0,0.0,-0.0019646654836833477,0.000254923157626763,0.00020918638620059937,28029.0,24090.0,22244.0,19357.0,0.10609845072031021,0.08737871795892715,0.07903029769659042,0.06652819365262985,0.0,0.0,0.0,0.0,27711.0,24370.0,21838.0,19845.0,0.3494051694869995,0.04195449913689149,0.05668390220441802,0.07620138732981989,0.1425621062517166,-0.02877071499824524,-0.0981016606092453
104,5,-0.0005022145342081785,-0.0006557201850228012,0.00014499145618174225,-0.0025282122660428286,-0.0037467414513230324,0.02342289686203003,0.062046971172094345,-0.005505830980837345,0.006611933466047049,-0.00433211587369442,0.014636967331171036,-0.009010943584144115,0.0,0.0,0.0,0.0035524647682905197,-0.003591587534174323,-0.0,0.0,0.0,0.0,-0.0019646654836833477,0.000254923157626763,0.00020918638620059937,28029.0,24090.0,22244.0,19357.0,0.10609845072031021,0.08737871795892715,0.07903029769659042,0.06652819365262985,0.0,0.0,0.0,0.0,27711.0,24370.0,21838.0,19845.0,0.3390379250049591,0.04158455884002954,0.05472094768768243,0.07725396710291495,0.014094454236328602,0.009292013943195343,-0.04312899336218834
109,5,-0.0005264267674647272,-0.0006370068877004087,0.00014030396414455026,-0.0041481731459498405,-0.0037438871804624796,0.007683118339627981,0.06208283454179764,-0.005393647123128176,0.006551796570420265,0.007108530029654503,0.02506391704082489,-0.020725306123495102,0.0,0.0,0.0,0.0035208244808018208,-0.005315759219229221,-0.0,0.0,0.0,0.0,-0.0038087968714535236,0.00023997836979106069,0.0001527197746327147,30451.0,27393.0,19697.0,17820.0,0.11822902411222458,0.10299292951822281,0.06796599179506302,0.06014736369252205,0.0,0.0,0.0,0.0,28189.0,23926.0,22853.0,18698.0,0.33904048800468445,0.039573811903883774,0.05522550981528173,0.07834198770789287,0.020859235897660255,0.009210623800754547,0.00452375877648592
114,5,0.00031497987220063806,-0.00017450582527089864,-0.0008268856909126043,0.11655247211456299,-0.06587331742048264,0.13771148025989532,0.06208283454179764,-0.005393647123128176,0.006551796570420265,0.007108530029654503,0.02506391704082489,-0.020725306123495102,0.0,0.0,0.0,0.0034497217275202274,-0.005354931578040123,-0.0,0.0,0.0,0.0,-0.0038087968714535236,0.00023997836979106069,0.0001527197746327147,30451.0,27393.0,19697.0,17820.0,0.11822902411222458,0.10299292951822281,0.06796599179506302,0.06014736369252205,0.0,0.0,0.0,0.0,28189.0,23926.0,22853.0,18698.0,0.33904048800468445,0.06698870340751796,0.04083358188727002,0.0839026073579178,-0.46683868765830994,0.26031699776649475,-0.3995777368545532
119,5,-0.0004358955193310976,-0.00052534049609676,0.0013068480184301734,-0.07015681266784668,0.02935486100614071,-0.2574092745780945,0.06202162802219391,-0.005226456094533205,0.006656443700194359,0.009461515583097935,0.007306030951440334,-0.0060837361961603165,0.0,0.0,0.0,0.07697702199220657,0.09227100759744644,-0.0,0.0,0.0,0.0,-0.001910724095068872,-1.6772619346738793e-05,0.0002038381644524634,27582.0,24422.0,22644.0,19088.0,0.10391386598348618,0.08890660852193832,0.08081690222024918,0.06540054827928543,0.0,0.0,0.0,0.0,30681.0,27168.0,19983.0,17501.0,0.43912336230278015,0.06907925172151035,0.01928768504743327,0.08184183524172825,-0.4669105112552643,0.2602772116661072,-0.40193435549736023
124,5,-0.00030083770980127156,-0.0005598365678451955,0.00095680559752509,-0.0021389510948210955,0.013635910116136074,-0.02821684256196022,0.06202162802219391,-0.005226456094533205,0.006656443700194359,0.009461515583097935,0.007306030951440334,-0.0060837361961603165,0.0,0.0,0.0,-0.023009926080703735,-0.0029701825696974993,-0.0,0.0,0.0,0.0,-0.001910724095068872,-1.6772619346738793e-05,0.0002038381644524634,27582.0,24422.0,22644.0,19088.0,0.10391386598348618,0.08890660852193832,0.08081690222024918,0.06540054827928543,0.0,0.0,0.0,0.0,30681.0,27168.0,19983.0,17501.0,0.339124858379364,0.06261451064271463,0.022095247646317023,0.07761518629476125,0.01165563240647316,-0.060200076550245285,0.1265656054019928
129,5,-0.00023738642630632967,-0.0005084410076960921,0.0009977216832339764,0.008241496048867702,-0.0031046122312545776,-0.01419330295175314,0.0620185062289238,-0.005405549891293049,0.006626474671065807,-0.0045701004564762115,0.015888163819909096,-0.02444782480597496,0.0,0.0,0.0,0.0026432122103869915,0.007686739321798086,-0.0,0.0,0.0,0.0,0.0005057956441305578,0.0034078408498317003,0.00017310006660409272,33356.0,22467.0,26431.0,32210.0,0.13339965045452118,0.08002649247646332,0.09835319221019745,0.12733571231365204,0.0,0.0,0.0,0.0,27711.0,24373.0,22317.0,19340.0,0.33904480934143066,0.06585240221246685,0.019941950473012997,0.0778814311218675,-0.030162883922457695,0.006913837976753712,0.08845960348844528
134,5,0.00013510099961422384,-0.0004138831573072821,0.00031120190396904945,0.054620686918497086,-0.014169478788971901,0.0918547734618187,0.0620185062289238,-0.005405549891293049,0.006626474671065807,-0.0045701004564762115,0.015888163819909096,-0.02444782480597496,0.0,0.0,0.0,0.01820940338075161,0.051287416368722916,-0.0,0.0,0.0,0.0,0.0005057956441305578,0.0034078408498317003,0.00017310006660409272,33356.0,22467.0,26431.0,32210.0,0.13339965045452118,0.08002649247646332,0.09835319221019745,0.12733571231365204,0.0,0.0,0.0,0.0,27711.0,24373.0,22317.0,19340.0,0.3672058880329132,0.06728007218360993,0.021181680068037,0.07808645654850722,-0.21784362196922302,0.051587291061878204,-0.236233189702034
139,5,-0.0002472746418789029,-0.0005215102573856711,0.0009453552775084972,-0.03714638203382492,0.010816953144967556,-0.0612250380218029,0.06209739297628403,-0.005391781218349934,0.006621852982789278,0.011271520517766476,-0.02278858795762062,-0.003380116540938616,0.0,0.0,0.0,-0.018053090199828148,-0.03714008256793022,-0.0,0.0,0.0,0.0,0.0004335272533353418,0.0031884517520666122,0.00021918379934504628,28805.0,25566.0,21355.0,17743.0,0.10993477702140808,0.09424760937690735,0.0751103013753891,0.05983234941959381,0.0,0.0,0.0,0.0,28648.0,25559.0,21147.0,18163.0,0.3525492250919342,0.06315476373572412,0.02951122520272172,0.07760052437194026,0.1514884978532791,-0.04910500347614288,0.23350749909877777
144,5,5.127816984895617e-05,-0.00035494682379066944,0.0006228744168765843,0.03065347857773304,-0.020073795691132545,0.02677980810403824,0.06209739297628403,-0.005391781218349934,0.006621852982789278,0.011271520517766476,-0.02278858795762062,-0.003380116540938616,0.0,0.0,0.0,0.02798890881240368,0.030089816078543663,-0.0,0.0,0.0,0.0,0.0004335272533353418,0.0031884517520666122,0.00021918379934504628,28805.0,25566.0,21355.0,17743.0,0.10993477702140808,0.09424760937690735,0.0751103013753891,0.05983234941959381,0.0,0.0,0.0,0.0,28648.0,25559.0,21147.0,18163.0,0.3488985598087311,0.07145966145334162,0.012268301681758473,0.07247552793361053,-0.12144222855567932,0.07532799243927002,-0.032414209097623825
149,5,-0.0001796853175619617,-0.0004300199216231704,0.0008978277328424156,-0.023138845339417458,0.004488090984523296,-0.03045952133834362,0.06203771010041237,-0.005206363275647163,0.006476092152297497,0.02764659747481346,-0.04535508528351784,0.014109894633293152,0.0,0.0,0.0,-0.008963423781096935,-0.02423110418021679,-0.0,0.0,0.0,0.0,-0.002831232501193881,-0.0002759898779913783,0.00015995670401025563,28333.0,26094.0,21449.0,17603.0,0.1075979620218277,0.09674495458602905,0.0755208432674408,0.05926127731800079,0.0,0.0,0.0,0.0,30893.0,22757.0,23425.0,22695.0,0.33914679288864136,0.0670806403470268,0.026406150869578315,0.0749748968412827,0.09510182589292526,-0.02345634065568447,0.14533290266990662
154,5,-0.0002052667987300083,-0.00041360509931109846,0.0008773247827775776,-0.010523061268031597,-0.0009516475256532431,-0.006267445627599955,0.06203771010041237,-0.005206363275647163,0.006476092152297497,0.02764659747481346,-0.04535508528351784,0.014109894633293152,0.0,0.0,0.0,-0.0006594588048756123,-0.011427919380366802,-0.0,0.0,0.0,0.0,-0.002831232501193881,-0.0002759898779913783,0.00015995670401025563,28333.0,26094.0,21449.0,17603.0,0.1075979620218277,0.09674495458602905,0.0755208432674408,0.05926127731800079,0.0,0.0,0.0,0.0,30893.0,22757.0,23425.0,22695.0,0.3390558063983917,0.06552569174222932,0.029802547230755046,0.07467802874431699,0.044845517724752426,-0.001726084272377193,0.07576955109834671
159,5,-0.00020740620675496757,-0.00040204322431236506,0.0008435684721916914,-0.003456435166299343,-0.001904154778458178,0.0028456554282456636,0.062248650938272476,-0.004775461740791798,0.006669446360319853,0.0038721023593097925,-0.03395570069551468,0.006189692299813032,0.0,0.0,0.0,0.0007769855437800288,-0.0042435526847839355,-0.0,0.0,0.0,0.0,-0.001498392433859408,0.0019349682843312621,0.00018783255654852837,30694.0,22951.0,22271.0,23875.0,0.11947056651115417,0.08219592273235321,0.07914984226226807,0.08639033138751984,0.0,0.0,0.0,0.0,28394.0,22590.0,22879.0,22135.0,0.339036762714386,0.06344731455608868,0.0313338527830871,0.07460788979585069,0.016651799902319908,0.0020326126832515,0.05112360417842865
165,5,-0.00018955979612655938,-0.00038062510429881513,0.0007417501183226705,-0.03045816533267498,0.01832679845392704,-0.047053262591362,0.062248650938272476,-0.004775461740791798,0.006669446360319853,0.0038721023593097925,-0.03395570069551468,0.006189692299813032,0.0,0.0,0.0,-0.029222307726740837,-0.030784856528043747,-0.0,0.0,0.0,0.0,-0.001498392433859408,0.0019349682843312621,0.00018783255654852837,30694.0,22951.0,22271.0,23875.0,0.11947056651115417,0.08219592273235321,0.07914984226226807,0.08639033138751984,0.0,0.0,0.0,0.0,28394.0,22590.0,22879.0,22135.0,0.34993916749954224,0.06004241327570066,0.035540691565661316,0.07432504793141544,0.1246129646897316,-0.07888161391019821,0.20240919291973114
170,5,-0.00017285897047258914,-0.00037504866486415267,0.0006668373243883252,-0.006799335591495037,0.004717337898910046,-0.0036281843204051256,0.062222521752119064,-0.0047506424598395824,0.006631254684180021,0.007061058189719915,-0.006059412844479084,-0.019964924082159996,0.0,0.0,0.0,-0.009365102276206017,-0.0076252794824540615,-0.0,0.0,0.0,0.0,-0.0010989868314936757,0.0011994915548712015,0.000188395832083188,28393.0,22521.0,22414.0,22672.0,0.1078931987285614,0.08026708662509918,0.07978969812393188,0.08094452321529388,0.0,0.0,0.0,0.0,28394.0,22590.0,22879.0,22135.0,0.3390583395957947,0.05930918533327784,0.03608201683605024,0.0742738814923088,0.029922520741820335,-0.024500887840986252,0.07321510463953018
175,5,-0.0002565397589933127,-0.0001603941636858508,0.0004407405504025519,-0.013755111023783684,-0.028636427596211433,0.030565092340111732,0.062222521752119064,-0.0047506424598395824,0.006631254684180021,0.007061058189719915,-0.006059412844479084,-0.019964924082159996,0.0,0.0,0.0,0.04139954596757889,-0.014619657769799232,-0.0,0.0,0.0,0.0,-0.0010989868314936757,0.0011994915548712015,0.000188395832083188,28393.0,22521.0,22414.0,22672.0,0.1078931987285614,0.08026708662509918,0.07978969812393188,0.08094452321529388,0.0,0.0,0.0,0.0,28394.0,22590.0,22879.0,22135.0,0.3448474109172821,0.055392919679263436,0.03218743426249367,0.072271940293877,0.05829920992255211,0.11009194701910019,-0.030300185084342957
180,5,-0.00011208566138520837,-0.00032894601463340223,0.0005004846025258303,0.016097040846943855,0.015006331726908684,0.0008053587516769767,0.0622788704931736,-0.004777322988957167,0.0063761137425899506,-0.011535772122442722,-0.004187711514532566,-0.04935476556420326,0.0,0.0,0.0,-0.025044582784175873,0.015776949003338814,-0.0,0.0,0.0,0.0,-0.0020395475439727306,-0.000245025526965037,0.00012616754975169897,26625.0,25718.0,22016.0,19419.0,0.09928061813116074,0.09496300667524338,0.07802102714776993,0.06679121404886246,0.0,0.0,0.0,0.0,28388.0,27618.0,22573.0,17169.0,0.33918216824531555,0.059224947977142874,0.04014493470664621,0.07442312438417736,-0.061913881450891495,-0.06553087383508682,0.061234936118125916
185,5,-0.00031871514511294663,-0.0003571679990272969,0.0006012534722685814,-0.024099016562104225,0.008452975191175938,-0.013866035267710686,0.0622788704931736,-0.004777322988957167,0.0063761137425899506,-0.011535772122442722,-0.004187711514532566,-0.04935476556420326,0.0,0.0,0.0,-0.01504988968372345,-0.02538706548511982,-0.0,0.0,0.0,0.0,-0.0020395475439727306,-0.000245025526965037,0.00012616754975169897,26625.0,25718.0,22016.0,19419.0,0.09928061813116074,0.09496300667524338,0.07802102714776993,0.06679121404886246,0.0,0.0,0.0,0.0,28388.0,27618.0,22573.0,17169.0,0.34089577198028564,0.051865644537906375,0.059942398510699754,0.0772820030086487,0.1001439020037651,-0.03958360105752945,0.10860496759414673
190,5,-0.0008614764083176851,-0.000551643141079694,0.0006102512707002461,-0.08321627974510193,0.02976241149008274,-0.005419500637799501,0.06221398711204529,-0.004982128273695707,0.00619451142847538,0.014328681863844395,-0.03703438118100166,-0.019885893911123276,0.0,0.0,0.0,-0.0409729927778244,-0.0737379789352417,-0.0,0.0,0.0,0.0,-0.0030106641352176666,-0.0006624293746426702,0.00010235013905912638,27911.0,28131.0,22221.0,17516.0,0.10552027821540833,0.10659822821617126,0.07892872393131256,0.05890588462352753,0.0,0.0,0.0,0.0,25518.0,24023.0,24923.0,20761.0,0.39901843667030334,0.05450059455107095,0.08232731071640627,0.07425511989931594,0.33994773030281067,-0.12607501447200775,0.08521934598684311
195,5,-0.0002920918050222099,-0.00024110134108923376,0.00044626693124882877,0.054748959839344025,-0.03454712778329849,0.02133195847272873,0.06221398711204529,-0.004982128273695707,0.00619451142847538,0.014328681863844395,-0.03703438118100166,-0.019885893911123276,0.0,0.0,0.0,0.04608763009309769,0.04977257922291756,-0.0,0.0,0.0,0.0,-0.0030106641352176666,-0.0006624293746426702,0.00010235013905912638,27911.0,28131.0,22221.0,17516.0,0.10552027821540833,0.10659822821617126,0.07892872393131256,0.05890588462352753,0.0,0.0,0.0,0.0,25518.0,24023.0,24923.0,20761.0,0.37398993968963623,0.05305917925598958,0.056297282263656497,0.07658672002980665,-0.21512676775455475,0.1328963339328766,0.004312504548579454
200,5,-0.00027587093063630164,-0.0003149872936774045,0.0004276258696336299,0.018695611506700516,-2.010345815506298e-05,0.009009337984025478,0.06224030256271362,-0.0048612914979457855,0.005839194171130657,0.005823781713843346,0.012641655281186104,-0.03937269747257233,0.0,0.0,0.0,-0.0021842801943421364,0.018076088279485703,-0.0,0.0,0.0,0.0,-0.0007032793946564198,-0.0006307023577392101,0.00011311344132991508,25017.0,24526.0,24371.0,21356.0,0.09166932851076126,0.08938848227262497,0.08867157250642776,0.07511713355779648,0.0,0.0,0.0,0.0,25600.0,24053.0,24501.0,21091.0,0.3390898108482361,0.05375792718059024,0.05708419916778006,0.07731079103033357,-0.07093774527311325,-0.0057156444527208805,0.042394403368234634
205,5,-0.00031183287501335144,-0.00032382237259298563,0.00038397134630940855,0.0005740097258239985,0.0012308784062042832,0.00881443452090025,0.06224030256271362,-0.0048612914979457855,0.005839194171130657,0.005823781713843346,0.012641655281186104,-0.03937269747257233,0.0,0.0,0.0,-0.004152887035161257,-0.00047009458648972213,-0.0,0.0,0.0,0.0,-0.0007032793946564198,-0.0006307023577392101,0.00011311344132991508,25017.0,24526.0,24371.0,21356.0,0.09166932851076126,0.08938848227262497,0.08867157250642776,0.07511713355779648,0.0,0.0,0.0,0.0,25600.0,24053.0,24501.0,21091.0,0.3390365540981293,0.05459497104972771,0.05638895578836381,0.077031033583287,0.001844651298597455,-0.01086398120969534,0.043871164321899414
210,5,-0.0002695595321711153,-0.00017382261285092682,0.0002030964387813583,0.006090471055358648,-0.02063070237636566,0.02796681597828865,0.06224030256271362,-0.0048612914979457855,0.005839194171130657,0.005823781713843346,0.012641655281186104,-0.03937269747257233,0.0,0.0,0.0,0.02957848273217678,0.0051946393214166164,-0.0,0.0,0.0,0.0,-0.0007032793946564198,-0.0006307023577392101,0.00011311344132991508,25017.0,24526.0,24371.0,21356.0,0.09166932851076126,0.08938848227262497,0.08867157250642776,0.07511713355779648,0.0,0.0,0.0,0.0,25600.0,24053.0,24501.0,21091.0,0.33918654918670654,0.05791095368339702,0.05241894350473949,0.0759255791269918,-0.02038394846022129,0.07738838344812393,-0.014906652271747589
215,5,0.0004187138401903212,0.00012885571049991995,-0.0009725790005177259,0.09818541258573532,-0.04856417700648308,0.17298461496829987,0.06217983365058899,-0.004806893412023783,0.005519351456314325,0.02718234620988369,-0.004578357096761465,-0.018585845828056335,0.0,0.0,0.0,0.059504445642232895,0.08176764845848083,-0.0,0.0,0.0,0.0,-0.00219174032099545,0.0005594802787527442,7.519996142946184e-05,27153.0,26850.0,22162.0,17798.0,0.10182809829711914,0.10036279261112213,0.07866890728473663,0.06005587801337242,0.0,0.0,0.0,0.0,26734.0,27262.0,21935.0,18050.0,0.41626790165901184,0.08435708507189492,0.04139679742208227,0.08159682756092804,-0.3928149938583374,0.1908869743347168,-0.46690651774406433
220,5,-0.0005492887576110661,-0.0005186425405554473,-4.474072557059117e-05,-0.10606473684310913,0.07608050107955933,-0.0780019760131836,0.06217983365058899,-0.004806893412023783,0.005519351456314325,0.02718234620988369,-0.004578357096761465,-0.018585845828056335,0.0,0.0,0.0,-0.0923352912068367,-0.08515066653490067,-0.0,0.0,0.0,0.0,-0.00219174032099545,0.0005594802787527442,7.519996142946184e-05,27153.0,26850.0,22162.0,17798.0,0.10182809829711914,0.10036279261112213,0.07866890728473663,0.06005587801337242,0.0,0.0,0.0,0.0,26734.0,27262.0,21935.0,18050.0,0.4385998249053955,0.03901723718623623,0.04299283281109049,0.07974026449165052,0.42989641427993774,-0.3115489184856415,0.29704973101615906
225,5,-0.000528645352460444,-0.0004770392260979861,-8.834703476168215e-05,-0.028929345309734344,0.016999686136841774,-0.017295710742473602,0.06222352758049965,-0.004790421575307846,0.004910388495773077,-0.006244087591767311,0.0106195705011487,-0.05580100789666176,0.0,0.0,0.0,-0.027908818796277046,-0.030074726790189743,-0.0,0.0,0.0,0.0,-0.001038399524986744,0.0004863377253059298,6.060819941922091e-05,27552.0,25077.0,20332.0,20800.0,0.10376766324043274,0.09195181727409363,0.07067704200744629,0.07269328832626343,0.0,0.0,0.0,0.0,28132.0,24342.0,19343.0,21893.0,0.348857045173645,0.04016359390727604,0.0405137839565895,0.0792563197028689,0.12136705219745636,-0.07510431855916977,0.1141337975859642
231,5,-0.0005836134660057724,-0.000488562451209873,-1.7288215531152673e-05,-0.016374336555600166,0.006713157519698143,-0.015136947855353355,0.06222352758049965,-0.004790421575307846,0.004910388495773077,-0.006244087591767311,0.0106195705011487,-0.05580100789666176,0.0,0.0,0.0,-0.013050524517893791,-0.01824709214270115,-0.0,0.0,0.0,0.0,-0.001038399524986744,0.0004863377253059298,6.060819941922091e-05,27552.0,25077.0,20332.0,20800.0,0.10376766324043274,0.09195181727409363,0.07067704200744629,0.07269328832626343,0.0,0.0,0.0,0.0,28132.0,24342.0,19343.0,21893.0,0.33911892771720886,0.038259214792970224,0.03856277863160753,0.07848077805304907,0.07160953432321548,-0.03414671868085861,0.10845618695020676
236,5,-0.0003029703802894801,-0.00045471012708730996,-0.0007292054942809045,0.03437773138284683,-0.002725377678871155,0.09512733668088913,0.062125228345394135,-0.0049322498962283134,0.004468773491680622,-0.02138879895210266,-0.019142307341098785,-0.07223624736070633,0.0,0.0,0.0,0.0013723565498366952,0.033141303807497025,-0.0,0.0,0.0,0.0,-0.004999999888241291,-0.0030579748563468456,-1.2109572935514734e-06,25820.0,23971.0,21895.0,22333.0,0.0954471156001091,0.08682911843061447,0.07748401910066605,0.07942626625299454,0.0,0.0,0.0,0.0,24774.0,24917.0,22299.0,22050.0,0.34657731652259827,0.02786162962463976,0.039535648058079485,0.07551979844496078,-0.13291503489017487,0.0036690544802695513,-0.23313148319721222
241,5,-0.0005894954665564001,-0.00082652538549155,-6.094098239373125e-07,-0.029800189658999443,0.05123652517795563,-0.0734652504324913,0.062125228345394135,-0.0049322498962283134,0.004468773491680622,-0.02138879895210266,-0.019142307341098785,-0.07223624736070633,0.0,0.0,0.0,-0.0746082067489624,-0.0291475560516119,-0.0,0.0,0.0,0.0,-0.004999999888241291,-0.0030579748563468456,-1.2109572935514734e-06,25820.0,23971.0,21895.0,22333.0,0.0954471156001091,0.08682911843061447,0.07748401910066605,0.07942626625299454,0.0,0.0,0.0,0.0,24774.0,24917.0,22299.0,22050.0,0.3733712136745453,0.03006130920653329,0.034917711535146355,0.08406650932167499,0.12559199333190918,-0.21452321112155914,0.2814604341983795
246,5,-0.0004844251670874655,-0.0007594728376716375,-4.6270215534605086e-05,0.005769779905676842,0.005983601324260235,-0.01564706303179264,0.06211596354842186,-0.004189292900264263,0.003690616926178336,0.014286274090409279,-0.131407231092453,-0.053086716681718826,0.0,0.0,0.0,-0.012734092772006989,0.004376416560262442,-0.0,0.0,0.0,0.0,-0.0024465597234666348,-0.001024708035402,2.37412859860342e-05,25976.0,27476.0,21516.0,18686.0,0.09618660807609558,0.10339736938476562,0.0758143812417984,0.06372062861919403,0.0,0.0,0.0,0.0,31073.0,37964.0,27208.0,16854.0,0.3390643298625946,0.03331698000790596,0.03039873813008299,0.08269819527967778,-0.017173167318105698,-0.033313505351543427,0.107313372194767
251,5,-0.0005769474664703012,-0.0006190885324031115,-0.00014313113933894783,-0.011222189292311668,-0.017858728766441345,0.008866410702466965,0.06211596354842186,-0.004189292900264263,0.003690616926178336,0.014286274090409279,-0.131407231092453,-0.053086716681718826,0.0,0.0,0.0,0.02395612746477127,-0.013120991177856922,-0.0,0.0,0.0,0.0,-0.0024465597234666348,-0.001024708035402,2.37412859860342e-05,25976.0,27476.0,21516.0,18686.0,0.09618660807609558,0.10339736938476562,0.0758143812417984,0.06372062861919403,0.0,0.0,0.0,0.0,31073.0,37964.0,27208.0,16854.0,0.33916011452674866,0.04179249523832682,0.04813333373948559,0.06915823881352147,0.05148972570896149,0.0626799538731575,0.03214861825108528
256,5,-0.0005510903429239988,-0.00048372941091656685,6.547653174493462e-05,0.00025334133533760905,-0.024307891726493835,-0.026545150205492973,0.06190120428800583,-0.0036745104007422924,0.002796448301523924,-0.060620274394750595,0.08566956967115402,-0.03474236652255058,0.0,0.0,0.0,0.034055955708026886,-0.001427926355972886,-0.0,0.0,0.0,0.0,-0.00445527071133256,-0.0007632833439856768,4.2009611206594855e-05,30508.0,31182.0,20375.0,18277.0,0.11851871013641357,0.12198328971862793,0.07086092233657837,0.06202327832579613,0.0,0.0,0.0,0.0,26287.0,27092.0,21129.0,19182.0,0.33923065662384033,0.05414956310665198,0.04192016459343492,0.07523284445591409,0.005603186786174774,0.08910578489303589,0.1409880518913269
261,5,0.00010333664977224544,-0.0005762376240454614,-0.0008139816345646977,0.09169578552246094,0.005658783484250307,0.11516059935092926,0.06190120428800583,-0.0036745104007422924,0.002796448301523924,-0.060620274394750595,0.08566956967115402,-0.03474236652255058,0.0,0.0,0.0,-0.010208101011812687,0.07879908382892609,-0.0,0.0,0.0,0.0,-0.00445527071133256,-0.0007632833439856768,4.2009611206594855e-05,30508.0,31182.0,20375.0,18277.0,0.11851871013641357,0.12198328971862793,0.07086092233657837,0.06202327832579613,0.0,0.0,0.0,0.0,26287.0,27092.0,21129.0,19182.0,0.3994651734828949,0.058294663126160766,0.01739029373235808,0.08638833458837504,-0.3639269173145294,-0.03146320581436157,-0.2970942556858063
266,5,4.442481804289855e-05,-0.00047548432485200465,-0.0005510223563760519,0.019261078909039497,-0.012407827191054821,-0.0022661173716187477,0.05994710698723793,-0.004614042583853006,0.00265199551358819,-0.4885614812374115,0.2524093687534332,-0.08800318092107773,0.0,0.0,0.0,-0.010252383537590504,0.07880279421806335,-0.0,0.0,0.0,0.0,-0.00022785540204495192,0.0009405564051121473,-7.773921424814034e-06,24769.0,22597.0,21537.0,25116.0,0.09051734954118729,0.08060473948717117,0.07590637356042862,0.09213147312402725,0.0,0.0,0.0,0.0,30389.0,30908.0,20612.0,18519.0,0.3391358256340027,0.05934730220667864,0.023080072993746384,0.0843866829624347,-0.0738593116402626,0.041269659996032715,0.056694917380809784
271,5,-0.0004215713415760547,-0.0006723413243889809,5.373094973037951e-05,-0.059461139142513275,0.023837631568312645,-0.0853452980518341,0.05994710698723793,-0.004614042583853006,0.00265199551358819,-0.4885614812374115,0.2524093687534332,-0.08800318092107773,0.0,0.0,0.0,-0.03580461069941521,-0.05543402209877968,-0.0,0.0,0.0,0.0,-0.00022785540204495192,0.0009405564051121473,-7.773921424814034e-06,24769.0,22597.0,21537.0,25116.0,0.09051734954118729,0.08060473948717117,0.07590637356042862,0.09213147312402725,0.0,0.0,0.0,0.0,30389.0,30908.0,20612.0,18519.0,0.3760838210582733,0.0315761932940732,0.031145808879448435,0.07958122278527456,0.24101631343364716,-0.10385386645793915,0.30387991666793823
276,5,-0.0009201000793837011,-0.0009841792052611709,0.0004351498791947961,-0.08763236552476883,0.05080859735608101,-0.07900223881006241,0.05171281844377518,-0.00851110927760601,0.00177947583142668,-0.7667862176895142,0.45048201084136963,-0.06586673855781555,0.0,0.0,0.0,-0.06767777353525162,-0.07560119777917862,-0.0,0.0,0.0,0.0,-0.0003077163128182292,0.004884612746536732,-9.648928244132549e-05,32480.0,20999.0,19040.0,33085.0,0.12875260412693024,0.07356010377407074,0.06519925594329834,0.1319579780101776,0.0,0.0,0.0,0.0,24314.0,21709.0,21833.0,26121.0,0.4122917950153351,0.004056260787614564,0.05479737389129483,0.08470981720249471,0.35959237813949585,-0.21495385468006134,0.29982492327690125
281,5,-0.0005034592468291521,-0.0007312604575417936,0.00023923165281303227,0.03204001113772392,-0.020166054368019104,0.0037278805393725634,0.05171281844377518,-0.00851110927760601,0.00177947583142668,-0.7667862176895142,0.45048201084136963,-0.06586673855781555,0.0,0.0,0.0,0.026137646287679672,0.030124880373477936,-0.0,0.0,0.0,0.0,-0.0003077163128182292,0.004884612746536732,-9.648928244132549e-05,32480.0,20999.0,19040.0,33085.0,0.12875260412693024,0.07356010377407074,0.06519925594329834,0.1319579780101776,0.0,0.0,0.0,0.0,24314.0,21709.0,21833.0,26121.0,0.34828293323516846,0.019057785381851114,0.03623226610848033,0.07938657704729657,-0.12137412279844284,0.0702231377363205,0.05001319572329521
286,5,-0.0007310103392228484,-0.0006828376208432019,0.0003889269719365984,-0.022245151922106743,-0.01282900758087635,-0.019838979467749596,0.0451987162232399,-0.012537691742181778,0.0023036564234644175,-0.8682939410209656,0.5488964319229126,0.07739545404911041,0.0,0.0,0.0,0.015606222674250603,-0.024689434096217155,-0.0,0.0,0.0,0.0,-0.0006681248196400702,0.0018978541484102607,0.0002414982591290027,30520.0,21889.0,23947.0,25523.0,0.11858224868774414,0.07745860517024994,0.08672043681144714,0.0940425843000412,0.0,0.0,0.0,0.0,32896.0,20150.0,19908.0,32670.0,0.3404141962528229,0.009263026654494282,0.05376421084140257,0.08050753718522002,0.09725558757781982,0.040987253189086914,0.12369634211063385
291,5,-0.0005231049144640565,-0.000523964234162122,0.0004422662896104157,0.022433215752243996,-0.02609098143875599,-0.013419197872281075,0.0451987162232399,-0.012537691742181778,0.0023036564234644175,-0.8682939410209656,0.5488964319229126,0.07739545404911041,0.0,0.0,0.0,0.015541228465735912,-0.02473343536257744,-0.0,0.0,0.0,0.0,-0.0006681248196400702,0.0018978541484102607,0.0002414982591290027,30520.0,21889.0,23947.0,25523.0,0.11858224868774414,0.07745860517024994,0.08672043681144714,0.0940425843000412,0.0,0.0,0.0,0.0,32896.0,20150.0,19908.0,32670.0,0.3404366970062256,0.0183320459095683,0.04251666151662239,0.07441736340000801,-0.08252590149641037,0.09482073038816452,0.10643437504768372
296,5,-0.00047394190914928913,-0.0004385497886687517,0.0007808981463313103,0.013612784445285797,-0.019785312935709953,-0.051434226334095,0.0451987162232399,-0.012537691742181778,0.0023036564234644175,-0.8682939410209656,0.5488964319229126,0.07739545404911041,0.0,0.0,0.0,0.026747137308120728,0.01208190806210041,-0.0,0.0,0.0,0.0,-0.0006681248196400702,0.0018978541484102607,0.0002414982591290027,30520.0,21889.0,23947.0,25523.0,0.11858224868774414,0.07745860517024994,0.08672043681144714,0.0940425843000412,0.0,0.0,0.0,0.0,32896.0,20150.0,19908.0,32670.0,0.339179664850235,0.030077877175479373,0.032387064069139083,0.07556227286814961,-0.047410767525434494,0.06998215615749359,0.22694429755210876
301,5,-0.0003157244937028736,-0.0003562504716683179,0.0007231137133203447,0.026234271004796028,-0.017457498237490654,-0.007340440060943365,0.03402355685830116,-0.016536829993128777,0.002223595743998885,-0.9592469334602356,0.11647117882966995,-0.10559654235839844,0.0,0.0,0.0,0.023079272359609604,0.02488686889410019,-0.0,0.0,0.0,0.0,-0.00010504824604140595,-0.00012717153003904969,-9.038452117238194e-05,23442.0,18836.0,22841.0,30364.0,0.08441465348005295,0.06434506922960281,0.08169906586408615,0.11778546124696732,0.0,0.0,0.0,0.0,23783.0,18897.0,22776.0,30065.0,0.34281206130981445,0.03234694419338179,0.02999434952463029,0.07735434708575657,-0.09870794415473938,0.06103680282831192,0.09664501249790192
306,5,-0.0003180641506332904,-0.0003210549184586853,0.00085151829989627,0.007542731706053019,-0.010164627805352211,-0.0201787780970335,0.03402355685830116,-0.016536829993128777,0.002223595743998885,-0.9592469334602356,0.11647117882966995,-0.10559654235839844,0.0,0.0,0.0,0.012227414175868034,0.006077765021473169,-0.0,0.0,0.0,0.0,-0.00010504824604140595,-0.00012717153003904969,-9.038452117238194e-05,23442.0,18836.0,22841.0,30364.0,0.08441465348005295,0.06434506922960281,0.08169906586408615,0.11778546124696732,0.0,0.0,0.0,0.0,23783.0,18897.0,22776.0,30065.0,0.33906519412994385,0.030872300291463574,0.03169556195802942,0.0769061570032549,-0.023849444463849068,0.03198821470141411,0.13933095335960388
311,5,-0.0004138552467338741,-0.00031320727430284023,0.00042212248081341386,-0.011147935874760151,-0.004148059990257025,0.054061781615018845,0.026501011103391647,-0.016642358154058456,0.001773576601408422,-0.9318036437034607,-0.09869073331356049,-0.01356247067451477,0.0,0.0,0.0,0.0030091889202594757,-0.013144906610250473,-0.0,0.0,0.0,0.0,0.0022287345491349697,0.0012932971585541964,2.833523103618063e-05,22948.0,18916.0,25563.0,28243.0,0.08218436688184738,0.06467954069375992,0.09423071891069412,0.1071496233344078,0.0,0.0,0.0,0.0,20117.0,20370.0,27076.0,26174.0,0.33906441926956177,0.01327614802810168,0.03495875806503669,0.07999083273573314,0.051583584398031235,0.007872728630900383,-0.08664920181035995
317,5,-0.000357231154339388,-0.000234874794841744,0.0009074889239855111,0.0045829941518604755,-0.012210963293910027,-0.05173276364803314,0.026501011103391647,-0.016642358154058456,0.001773576601408422,-0.9318036437034607,-0.09869073331356049,-0.01356247067451477,0.0,0.0,0.0,0.015481477603316307,0.002945115091279149,-0.0,0.0,0.0,0.0,0.0022287345491349697,0.0012932971585541964,2.833523103618063e-05,22948.0,18916.0,25563.0,28243.0,0.08218436688184738,0.06467954069375992,0.09423071891069412,0.1071496233344078,0.0,0.0,0.0,0.0,20117.0,20370.0,27076.0,26174.0,0.3390757143497467,0.023003541751307338,0.030786117030698935,0.07596839353647633,-0.011556665413081646,0.04050115868449211,0.23959946632385254
322,5,-0.00033660302869975567,-0.00020878398208878934,0.0008051929180510342,0.004262832924723625,-0.0073160030879080296,-0.0011983924778178334,0.014925288036465645,-0.014234070666134357,0.001309158280491829,-1.0018644332885742,-0.29469534754753113,-0.04636335372924805,0.0,0.0,0.0,0.008029947988688946,0.002622653264552355,-0.0,0.0,0.0,0.0,0.002658307086676359,-0.0010437591699883342,-3.9890208427095786e-05,17720.0,21420.0,28151.0,26219.0,0.05973941832780838,0.07539719343185425,0.10670118033885956,0.0973418802022934,0.0,0.0,0.0,0.0,17926.0,22582.0,28022.0,25061.0,0.3390457034111023,0.02054626669481641,0.02608391162648481,0.07723533490105874,-0.01029131468385458,0.021006615832448006,0.08990270644426346
327,5,-0.0007251866045407951,-0.0002701331686694175,0.0012108336668461561,-0.05312284827232361,0.006394087336957455,-0.05714922398328781,0.014925288036465645,-0.014234070666134357,0.001309158280491829,-1.0018644332885742,-0.29469534754753113,-0.04636335372924805,0.0,0.0,0.0,-0.012090655043721199,-0.05217554047703743,-0.0,0.0,0.0,0.0,0.002658307086676359,-0.0010437591699883342,-3.9890208427095786e-05,17720.0,21420.0,28151.0,26219.0,0.05973941832780838,0.07539719343185425,0.10670118033885956,0.0973418802022934,0.0,0.0,0.0,0.0,17926.0,22582.0,28022.0,25061.0,0.3672884702682495,0.0030986706317095458,0.033717826079760586,0.07285326736946171,0.22168265283107758,-0.03426334634423256,0.26680904626846313
332,5,-0.0006178707699291408,-0.0003270278684794903,0.0007023422513157129,-0.0009126394288614392,0.009883481077849865,0.05404403433203697,0.0067655243910849094,-0.01136401854455471,0.001119541353546083,-0.9967929124832153,-0.3038073480129242,0.037230588495731354,0.0,0.0,0.0,-0.018588632345199585,-0.003154993988573551,-0.0,0.0,0.0,0.0,0.002678823657333851,-0.0015878899721428752,4.0693001210456714e-05,18105.0,21479.0,29324.0,24565.0,0.061317551881074905,0.07565487176179886,0.11252590268850327,0.08956683427095413,0.0,0.0,0.0,0.0,19695.0,19946.0,29216.0,24681.0,0.3390938639640808,-0.005336825526130775,0.020277590188211937,0.07408835830092375,0.012381473556160927,-0.04863124340772629,-0.07059185206890106
337,5,-0.000660357007291168,-0.00020839368517044932,0.0011478620581328869,-0.006221867632120848,-0.013643740676343441,-0.04615955799818039,0.0067655243910849094,-0.01136401854455471,0.001119541353546083,-0.9967929124832153,-0.3038073480129242,0.037230588495731354,0.0,0.0,0.0,0.01761872135102749,-0.008678143844008446,-0.0,0.0,0.0,0.0,0.002678823657333851,-0.0015878899721428752,4.0693001210456714e-05,18105.0,21479.0,29324.0,24565.0,0.061317551881074905,0.07565487176179886,0.11252590268850327,0.08956683427095413,0.0,0.0,0.0,0.0,19695.0,19946.0,29216.0,24681.0,0.3390989899635315,-0.0021994022661750256,0.03151752279275819,0.07296285276828487,0.03405389189720154,0.04609443247318268,0.23928755521774292
342,5,-0.0006848133634775877,-0.0001991293247556314,0.0011464444687590003,-0.005290447734296322,-0.00539013184607029,-0.013649415224790573,-0.003742275759577751,-0.009277552366256714,0.001790195470675826,-0.7612781524658203,-0.06263824552297592,0.031020209193229675,0.0,0.0,0.0,0.0049978215247392654,-0.007815290242433548,-0.0,0.0,0.0,0.0,0.0024543930776417255,-0.0003330409817863256,0.00014448600995820016,20759.0,19240.0,27962.0,25673.0,0.07251732796430588,0.06603769212961197,0.10577061027288437,0.09475002437829971,0.0,0.0,0.0,0.0,21531.0,19358.0,27000.0,25846.0,0.3390481770038605,-0.008615576735657007,0.03408752222131052,0.07080400480313351,0.0306691937148571,0.013074350543320179,0.1459541767835617
347,5,-0.0007560351514257491,-0.000248615542659536,0.0011868767905980349,-0.011558185331523418,0.005311029031872749,-0.009755335748195648,-0.003742275759577751,-0.009277552366256714,0.001790195470675826,-0.7612781524658203,-0.06263824552297592,0.031020209193229675,0.0,0.0,0.0,-0.011498954147100449,-0.014363454654812813,-0.0,0.0,0.0,0.0,0.0024543930776417255,-0.0003330409817863256,0.00014448600995820016,20759.0,19240.0,27962.0,25673.0,0.07251732796430588,0.06603769212961197,0.10577061027288437,0.09475002437829971,0.0,0.0,0.0,0.0,21531.0,19358.0,27000.0,25846.0,0.3390910029411316,-0.024492758411636367,0.053086768681985905,0.07361792175094187,0.05636758357286453,-0.030085453763604164,0.13906395435333252
352,5,-0.0005738644395023584,-0.0001647102617425844,0.0009666866390034556,0.022036446258425713,-0.01015342865139246,0.027900010347366333,-0.00862740445882082,-0.009130851365625858,0.001934391213580966,-0.5234102606773376,0.09617147594690323,0.026268739253282547,0.0,0.0,0.0,0.012306892313063145,0.020099077373743057,-0.0,0.0,0.0,0.0,0.001924488809891045,0.001392650417983532,0.00015809577598702163,22741.0,24231.0,28767.0,24286.0,0.08125393837690353,0.08802670985460281,0.1097441092133522,0.0882812961935997,0.0,0.0,0.0,0.0,23884.0,23280.0,28442.0,24455.0,0.339127779006958,-0.020776611996453552,0.04067149102883999,0.07074660940255337,-0.07887940108776093,0.03220205754041672,0.027205174788832664
357,5,-0.0006745094433426857,-1.18652051241952e-05,0.0008402265957556665,-0.007479366846382618,-0.02444433607161045,0.02607441134750843,-0.00862740445882082,-0.009130851365625858,0.001934391213580966,-0.5234102606773376,0.09617147594690323,0.026268739253282547,0.0,0.0,0.0,0.03448549658060074,-0.010182278230786324,-0.0,0.0,0.0,0.0,0.001924488809891045,0.001392650417983532,0.00015809577598702163,22741.0,24231.0,28767.0,24286.0,0.08125393837690353,0.08802670985460281,0.1097441092133522,0.0882812961935997,0.0,0.0,0.0,0.0,23884.0,23280.0,28442.0,24455.0,0.33925288915634155,-0.02712853796030803,0.04427485427542094,0.06923742182025912,0.03995798900723457,0.09023461490869522,0.034355487674474716
362,5,-0.0005647658254019916,-0.0003625905665103346,0.000683173188008368,0.013120297342538834,0.04176824912428856,0.029809799045324326,-0.013915454968810081,-0.011237646453082561,0.002462915610522032,-0.35870933532714844,0.28057265281677246,0.04003457725048065,0.0,0.0,0.0,-0.06406032294034958,0.010374201461672783,-0.0,0.0,0.0,0.0,0.000760168069973588,0.0017226791242137551,5.223399421083741e-05,24196.0,17332.0,25340.0,26751.0,0.08786416053771973,0.05816115811467171,0.09318338334560394,0.09989029169082642,0.0,0.0,0.0,0.0,24733.0,16951.0,24429.0,27434.0,0.35804522037506104,-0.03184727232780861,0.04762330852393379,0.07554299730297956,-0.04290217161178589,-0.17672353982925415,0.023860352113842964
367,5,-0.0006744484999217093,-0.00011992090730927885,0.0012751942267641425,-0.011419489979743958,-0.02144327573478222,-0.07394000887870789,-0.013915454968810081,-0.011237646453082561,0.002462915610522032,-0.35870933532714844,0.28057265281677246,0.04003457725048065,0.0,0.0,0.0,0.029614079743623734,-0.014284574426710606,-0.0,0.0,0.0,0.0,0.000760168069973588,0.0017226791242137551,5.223399421083741e-05,24196.0,17332.0,25340.0,26751.0,0.08786416053771973,0.05816115811467171,0.09318338334560394,0.09989029169082642,0.0,0.0,0.0,0.0,24733.0,16951.0,24429.0,27434.0,0.3392169177532196,-0.009461012197083746,0.03718289551326983,0.07328946368175242,0.05605783313512802,0.07748816907405853,0.34617167711257935
372,5,-0.0008741789497435093,-0.00015831817290745676,0.0015751831233501434,-0.03138810768723488,-0.0010573645122349262,-0.06418044120073318,-0.016305895522236824,-0.01359070185571909,0.002552460879087448,-0.2082996815443039,0.267095148563385,-0.042233459651470184,0.0,0.0,0.0,-0.001611226238310337,-0.034143637865781784,-0.0,0.0,0.0,0.0,0.0019809002988040447,0.0011333863949403167,-6.033781755832024e-05,21699.0,19944.0,24341.0,27822.0,0.07661965489387512,0.0690179169178009,0.08853121101856232,0.10508422553539276,0.0,0.0,0.0,0.0,24428.0,20888.0,22057.0,26541.0,0.3475780487060547,0.003278128259172958,0.02876021175288159,0.07405684051431934,0.1373293697834015,-0.004321190994232893,0.3260866701602936
378,5,-0.0010810891399160028,-0.0003717042272910476,0.0012268946738913655,-0.03838386759161949,0.029556838795542717,0.0295062568038702,-0.016305895522236824,-0.01359070185571909,0.002552460879087448,-0.2082996815443039,0.267095148563385,-0.042233459651470184,0.0,0.0,0.0,-0.045604631304740906,-0.03960439935326576,-0.0,0.0,0.0,0.0,0.0019809002988040447,0.0011333863949403167,-6.033781755832024e-05,21699.0,19944.0,24341.0,27822.0,0.07661965489387512,0.0690179169178009,0.08853121101856232,0.10508422553539276,0.0,0.0,0.0,0.0,24428.0,20888.0,22057.0,26541.0,0.36429762840270996,-0.009550334304196698,0.060824240364395765,0.06967265348699996,0.1667710840702057,-0.1280980110168457,0.04467659443616867
383,5,-0.0009275245247408748,-0.00019187114958185703,0.0007164424750953913,0.009983895346522331,-0.016309579834342003,0.08031518012285233,-0.016305895522236824,-0.01359070185571909,0.002552460879087448,-0.2082996815443039,0.267095148563385,-0.042233459651470184,0.0,0.0,0.0,0.02154078707098961,0.006971349939703941,-0.0,0.0,0.0,0.0,0.0019809002988040447,0.0011333863949403167,-6.033781755832024e-05,21699.0,19944.0,24341.0,27822.0,0.07661965489387512,0.0690179169178009,0.08853121101856232,0.10508422553539276,0.0,0.0,0.0,0.0,24428.0,20888.0,22057.0,26541.0,0.3391205072402954,-0.004215182086620905,0.06798285354519067,0.07355196259126358,-0.027356021106243134,0.05635594204068184,-0.11165978014469147
388,5,-0.0014598998241126537,-0.00032985088182613254,0.0012741590617224574,-0.07153736799955368,0.014424287714064121,-0.053985774517059326,-0.018308501690626144,-0.016680771484971046,0.0011799378553405404,-0.015212046913802624,-0.022798022255301476,-0.04641014710068703,0.0,0.0,0.0,-0.022376149892807007,-0.06699105352163315,-0.0,0.0,0.0,0.0,0.0015791842015460134,0.0003192381118424237,-6.169483094708994e-05,20990.0,21664.0,25131.0,26152.0,0.07352108508348465,0.07646843045949936,0.09220539778470993,0.09702212363481522,0.0,0.0,0.0,0.0,21869.0,20090.0,24239.0,27637.0,0.38601988554000854,-0.00487251286487547,0.08687358431154606,0.07554367757499032,0.30220261216163635,-0.06746524572372437,0.30230942368507385
393,5,-0.0011761051137000322,-0.0003684071125462651,0.001494204974733293,0.01827004924416542,0.009725160896778107,-0.0470021590590477,-0.018308501690626144,-0.016680771484971046,0.0011799378553405404,-0.015212046913802624,-0.022798022255301476,-0.04641014710068703,0.0,0.0,0.0,-0.018720470368862152,0.014875240623950958,-0.0,0.0,0.0,0.0,0.0015791842015460134,0.0003192381118424237,-6.169483094708994e-05,20990.0,21664.0,25131.0,26152.0,0.07352108508348465,0.07646843045949936,0.09220539778470993,0.09702212363481522,0.0,0.0,0.0,0.0,21869.0,20090.0,24239.0,27637.0,0.33913055062294006,-0.0020333947825906516,0.05738553584995196,0.07407679527282783,-0.05837475135922432,-0.048980712890625,0.28855645656585693
398,5,-0.001000415999442339,-0.000264517409959808,0.0009343540295958519,0.030077485367655754,-0.011627010069787502,0.0642784833908081,-0.018576107919216156,-0.015880391001701355,0.0009860049467533827,-0.05583294853568077,-0.13120882213115692,0.002530683297663927,0.0,0.0,0.0,0.014001179486513138,0.026865309104323387,-0.0,0.0,0.0,0.0,0.0013327434426173568,0.0003121768240816891,2.7550728191272356e-05,22026.0,21197.0,25445.0,25292.0,0.07806310802698135,0.07442069798707962,0.09367813915014267,0.09295853227376938,0.0,0.0,0.0,0.0,21202.0,21601.0,25422.0,25729.0,0.3419901132583618,-0.017196357465769554,0.06132233262191319,0.06615958381458674,-0.10631556063890457,0.0369439423084259,-0.04824337363243103
403,5,-0.001169272349216044,-0.0002803036477416754,0.0012724747648462653,-0.014616643078625202,-0.0012780302204191685,-0.028053348883986473,-0.018576107919216156,-0.015880391001701355,0.0009860049467533827,-0.05583294853568077,-0.13120882213115692,0.002530683297663927,0.0,0.0,0.0,0.013979402370750904,0.02680899389088154,-0.0,0.0,0.0,0.0,0.0013327434426173568,0.0003121768240816891,2.7550728191272356e-05,22026.0,21197.0,25445.0,25292.0,0.07806310802698135,0.07442069798707962,0.09367813915014267,0.09295853227376938,0.0,0.0,0.0,0.0,21202.0,21601.0,25422.0,25729.0,0.339093953371048,-0.01410278919848265,0.054588628397611944,0.07331273065756523,0.07371653616428375,-0.004610737785696983,0.23665881156921387
408,5,-0.0010713920928537846,-0.0004939400241710246,0.0011499616084620357,0.009318243712186813,0.02952568605542183,0.008735829964280128,-0.018824176862835884,-0.015089746564626694,0.0011310045374557376,-0.06066988781094551,-0.12896226346492767,0.026081528514623642,0.0,0.0,0.0,-0.048377715051174164,0.00555892800912261,-0.0,0.0,0.0,0.0,7.458651816705242e-05,0.0004273028753232211,7.348426879616454e-05,24480.0,22282.0,23794.0,23511.0,0.08917643874883652,0.07920298725366592,0.08601891249418259,0.08473215252161026,0.0,0.0,0.0,0.0,22255.0,21004.0,25507.0,25193.0,0.3463800251483917,-0.014213569585439187,0.060147483171158964,0.07274767892747454,-0.022259710356593132,-0.12919193506240845,0.12922228872776031
413,5,-0.001148760668002069,-0.00030837469967082143,0.0015144329518079758,-0.00803612731397152,-0.017121441662311554,-0.0484052412211895,-0.018824176862835884,-0.015089746564626694,0.0011310045374557376,-0.06066988781094551,-0.12896226346492767,0.026081528514623642,0.0,0.0,0.0,0.02231733314692974,-0.012201590463519096,-0.0,0.0,0.0,0.0,7.458651816705242e-05,0.0004273028753232211,7.348426879616454e-05,24480.0,22282.0,23794.0,23511.0,0.08917643874883652,0.07920298725366592,0.08601891249418259,0.08473215252161026,0.0,0.0,0.0,0.0,22255.0,21004.0,25507.0,25193.0,0.339143306016922,-0.006860561242487532,0.055529989469717704,0.07360644051446216,0.047883715480566025,0.05839018523693085,0.3096381723880768
418,5,-0.001040530507452786,-0.00025855089188553393,0.0013957966584712267,0.012741386890411377,-0.012111768126487732,0.002087509958073497,-0.019208313897252083,-0.013984251767396927,0.0015225989045575261,-0.02082112245261669,-0.05538127198815346,0.02382032200694084,0.0,0.0,0.0,0.022282900288701057,-0.012287060730159283,-0.0,0.0,0.0,0.0,0.0006080784951336682,-0.00046077711158432066,9.708957804832608e-05,22969.0,22487.0,25605.0,22968.0,0.0822775736451149,0.08011544495820999,0.09443046897649765,0.08227070420980453,0.0,0.0,0.0,0.0,24598.0,22145.0,23915.0,23404.0,0.33908432722091675,-0.007732863750328901,0.05287210617726855,0.07295396528242365,-0.03554050251841545,0.03856048732995987,0.16190509498119354
423,5,-0.0010908558033406734,-0.0003083943447563797,0.0013848989037796855,-0.003223132574930787,0.0033445556182414293,0.0021519369911402464,-0.019208313897252083,-0.013984251767396927,0.0015225989045575261,-0.02082112245261669,-0.05538127198815346,0.02382032200694084,0.0,0.0,0.0,-0.00903712585568428,-0.007373431697487831,-0.0,0.0,0.0,0.0,0.0006080784951336682,-0.00046077711158432066,9.708957804832608e-05,22969.0,22487.0,25605.0,22968.0,0.0822775736451149,0.08011544495820999,0.09443046897649765,0.08227070420980453,0.0,0.0,0.0,0.0,24598.0,22145.0,23915.0,23404.0,0.33905667066574097,-0.00496504359259804,0.05432741239181419,0.07385386671289776,0.028933869674801826,-0.023642050102353096,0.16681721806526184
428,5,-0.0007311272784136236,-6.886648043291643e-05,0.0007132347673177719,0.04939505457878113,-0.0325305350124836,0.09467856585979462,-0.019289067015051842,-0.013909545727074146,0.0017422885866835713,0.03248389810323715,0.026892831549048424,0.03802410885691643,0.0,0.0,0.0,0.042895082384347916,0.04329065978527069,-0.0,0.0,0.0,0.0,0.0005582908052019775,-7.339899639191572e-06,0.00010845650103874505,23149.0,20350.0,25764.0,24683.0,0.08308974653482437,0.07075607031583786,0.09518102556467056,0.09011649340391159,0.0,0.0,0.0,0.0,22574.0,20753.0,25874.0,24754.0,0.3664378523826599,-0.0003101425048307291,0.04711507732954598,0.07197620971163833,-0.18337726593017578,0.12120529264211655,-0.11576492339372635
433,5,-0.0003148573450744152,0.00010943641973426566,0.0005865597049705684,0.07309630513191223,-0.03472156822681427,0.04613807797431946,-0.019289067015051842,-0.013909545727074146,0.0017422885866835713,0.03248389810323715,0.026892831549048424,0.03802410885691643,0.0,0.0,0.0,0.04289338365197182,0.04325369372963905,-0.0,0.0,0.0,0.0,0.0005582908052019775,-7.339899639191572e-06,0.00010845650103874505,23149.0,20350.0,25764.0,24683.0,0.08308974653482437,0.07075607031583786,0.09518102556467056,0.09011649340391159,0.0,0.0,0.0,0.0,22574.0,20753.0,25874.0,24754.0,0.366402804851532,0.003938246132048253,0.03654942604361185,0.07803480634090543,-0.2805052399635315,0.13102306425571442,0.03009294904768467
438,5,-0.0007501090876758099,-0.00014389069110620767,0.0012043380411341786,-0.039006348699331284,0.025049325078725815,-0.07264754176139832,-0.018916010856628418,-0.014287184923887253,0.0019355547847226262,0.04335019737482071,0.051416076719760895,0.008209114894270897,0.0,0.0,0.0,-0.039185456931591034,-0.04069988802075386,-0.0,0.0,0.0,0.0,0.0013171976897865534,0.00033739543869160116,5.773984594270587e-05,22939.0,20620.0,25165.0,25242.0,0.08214372396469116,0.07191529870033264,0.09236297011375427,0.09272134304046631,0.0,0.0,0.0,0.0,24038.0,22178.0,23895.0,23942.0,0.3625286817550659,-0.011096592432546308,0.04291028128128491,0.0731118227091921,0.17059734463691711,-0.10955411940813065,0.3975803852081299
443,5,-0.000699428899679333,-0.00010719849524321035,0.0011654336703941226,-0.004606679081916809,0.002377890981733799,-0.016347650438547134,-0.018916010856628418,-0.014287184923887253,0.0019355547847226262,0.04335019737482071,0.051416076719760895,0.008209114894270897,0.0,0.0,0.0,-0.007141588721424341,-0.008378347381949425,-0.0,0.0,0.0,0.0,0.0013171976897865534,0.00033739543869160116,5.773984594270587e-05,22939.0,20620.0,25165.0,25242.0,0.08214372396469116,0.07191529870033264,0.09236297011375427,0.09272134304046631,0.0,0.0,0.0,0.0,24038.0,22178.0,23895.0,23942.0,0.339054137468338,-0.011025540203891071,0.042659192432763934,0.07357076766411733,0.032878801226615906,-0.018683407455682755,0.23179756104946136
448,5,-0.0007773962570354342,-0.00011011168680852279,0.0013381392927840352,-0.012297431007027626,0.001121214241720736,-0.029083075001835823,-0.018836593255400658,-0.014505010098218918,0.0018949642544612288,0.03185955807566643,0.04257383570075035,-0.014518260955810547,0.0,0.0,0.0,-0.005238460376858711,-0.01638883724808693,-0.0,0.0,0.0,0.0,0.00029735814314335585,0.00045617218711413443,2.976561154355295e-05,24061.0,22208.0,23410.0,24370.0,0.0872441753745079,0.07887371629476547,0.08427134901285172,0.08866763859987259,0.0,0.0,0.0,0.0,27085.0,19569.0,25463.0,31614.0,0.33908379077911377,-0.010423410124426338,0.042467829953967265,0.07398884562126846,0.0643155574798584,-0.013705709017813206,0.2768860161304474
