timestamp,dt,pos_x,pos_y,pos_z,vel_x,vel_y,vel_z,roll,pitch,yaw,agv_x,agv_y,agv_z,x_ref,y_ref,z_ref,roll_ref,pitch_ref,yaw_ref,x_vel_ref,y_vel_ref,z_vel_ref,x_torque,y_torque,z_torque,w0,w1,w2,w3,u0,u1,u2,u3,m0req,m1req,m2req,m3req,thrust0,thrust1,thrust2,thrust3,thrust_ref,roll_vicon,pitch_vicon,yaw_vicon,acc_x,acc_y,acc_z
5,5,0.0,0.0,0.0,0.0,-0.0,-0.0,-0.016638124361634254,0.4908038079738617,0.005257804878056049,-0.0019882197957485914,0.0019335633842274547,-0.003097136504948139,0.0,0.0,0.0,-0.0,-0.0,-0.0,0.0,0.0,0.0,0.0004796593857463449,-0.004999999888241291,0.00015859431005083025,0.0,0.0,0.0,0.0,0.0,0.0,0.0,0.0,0.0,0.0,0.0,0.0,0.0,0.0,0.0,0.0,0.3390336036682129,0.0,0.0,0.0,0.0,0.0,0.0
26,21,0.0,0.0,0.0,0.0,-0.0,-0.0,-0.016638124361634254,0.4908038079738617,0.005257804878056049,-0.0019882197957485914,0.0019335633842274547,-0.003097136504948139,0.0,0.0,0.0,-0.0,-0.0,-0.0,0.0,0.0,0.0,0.0004796593857463449,-0.004999999888241291,0.00015859431005083025,0.0,0.0,0.0,0.0,0.0,0.0,0.0,0.0,0.0,0.0,0.0,0.0,0.0,0.0,0.0,0.0,0.3390336036682129,0.0,0.0,0.0,0.0,0.0,0.0
31,5,0.0,0.0,0.0,0.0,-0.0,-0.0,-0.016638124361634254,0.4908038079738617,0.005257804878056049,-0.0019882197957485914,0.0019335633842274547,-0.003097136504948139,0.0,0.0,0.0,-0.0,-0.0,-0.0,0.0,0.0,0.0,0.0004796593857463449,-0.004999999888241291,0.00015859431005083025,0.0,0.0,0.0,0.0,0.0,0.0,0.0,0.0,0.0,0.0,0.0,0.0,0.0,0.0,0.0,0.0,0.3390336036682129,0.0,0.0,0.0,0.0,0.0,0.0
36,5,0.0,0.0,0.0,0.0,-0.0,-0.0,-0.01665792241692543,0.49082309007644653,0.005271959584206343,-0.0017622513696551323,0.0009747500298544765,-0.002792136976495385,0.0,0.0,0.0,-0.0,-0.0,-0.0,0.0,0.0,0.0,0.00047267807531170547,-0.004999999888241291,0.00016318177222274244,0.0,0.0,0.0,0.0,0.0,0.0,0.0,0.0,0.0,0.0,0.0,0.0,0.0,0.0,0.0,0.0,0.3390336036682129,0.0,0.0,0.0,0.0,0.0,0.0
43,7,0.0,0.0,0.0,0.0,-0.0,-0.0,-0.016664715483784676,0.49082911014556885,0.005278168711811304,0.002027777023613453,0.0023515906650573015,0.0052984911017119884,0.0,0.0,0.0,-0.0,-0.0,-0.0,0.0,0.0,0.0,0.0004934591124765575,-0.004999999888241291,0.00019428889208938926,17145.0,28067.0,31611.0,15568.0,0.05740457773208618,0.1062857061624527,0.12420670688152313,0.051136620342731476,0.0,0.0,0.0,0.0,17418.0,27854.0,31812.0,15285.0,0.3390336036682129,0.0,0.0,0.0,0.0,0.0,0.0
56,12,0.0,0.0,0.0,0.0,-0.0,-0.0,-0.016664715483784676,0.49082911014556885,0.005278168711811304,0.002027777023613453,0.0023515906650573015,0.0052984911017119884,0.0,0.0,0.0,-0.0,-0.0,-0.0,0.0,0.0,0.0,0.0004934591124765575,-0.004999999888241291,0.00019428889208938926,17145.0,28067.0,31611.0,15568.0,0.05740457773208618,0.1062857061624527,0.12420670688152313,0.051136620342731476,0.0,0.0,0.0,0.0,17418.0,27854.0,31812.0,15285.0,0.3390336036682129,0.0,0.0,0.0,0.0,0.0,0.0
61,5,0.0,0.0,0.0,0.0,-0.0,-0.0,-0.016664715483784676,0.49082911014556885,0.005278168711811304,0.002027777023613453,0.0023515906650573015,0.0052984911017119884,0.0,0.0,0.0,-0.0,-0.0,-0.0,0.0,0.0,0.0,0.0004934591124765575,-0.004999999888241291,0.00019428889208938926,17145.0,28067.0,31611.0,15568.0,0.05740457773208618,0.1062857061624527,0.12420670688152313,0.051136620342731476,0.0,0.0,0.0,0.0,17418.0,27854.0,31812.0,15285.0,0.3390336036682129,0.0,0.0,0.0,0.0,0.0,0.0
66,5,0.0,0.0,0.0,0.0,-0.0,-0.0,-0.016831370070576668,0.4910382032394409,0.005516549572348595,-0.005884880665689707,-0.04755977913737297,0.00015775726933497936,0.0,0.0,0.0,-0.0,-0.0,-0.0,0.0,0.0,0.0,0.0005068183527328074,-0.004999999888241291,-6.335824764391873e-06,15552.0,29269.0,30453.0,17161.0,0.05107336491346359,0.11225071549415588,0.11824169754981995,0.057467833161354065,0.0,0.0,0.0,0.0,16581.0,28465.0,31232.0,16143.0,0.3390336036682129,0.0,0.0,0.0,0.0,0.0,0.0
74,8,0.0,0.0,0.0,0.0,-0.0,-0.0,-0.016612965613603592,0.49145761132240295,0.004897571634501219,-0.01990409381687641,-0.011061698198318481,-0.07679615914821625,0.0,0.0,0.0,-0.0,-0.0,-0.0,0.0,0.0,0.0,0.0005068183527328074,-0.004999999888241291,-6.335824764391873e-06,15552.0,29269.0,30453.0,17161.0,0.05107336491346359,0.11225071549415588,0.11824169754981995,0.057467833161354065,0.0,0.0,0.0,0.0,16995.0,28129.0,31552.0,15723.0,0.3390336036682129,0.0,0.0,0.0,0.0,0.0,0.0
80,6,0.0,0.0,0.0,0.0,-0.0,-0.0,-0.016612965613603592,0.49145761132240295,0.004897571634501219,-0.01990409381687641,-0.011061698198318481,-0.07679615914821625,0.0,0.0,0.0,-0.0,-0.0,-0.0,0.0,0.0,0.0,0.0005068183527328074,-0.004999999888241291,-6.335824764391873e-06,15552.0,29269.0,30453.0,17161.0,0.05107336491346359,0.11225071549415588,0.11824169754981995,0.057467833161354065,0.0,0.0,0.0,0.0,16995.0,28129.0,31552.0,15723.0,0.3390336036682129,0.0,0.0,0.0,0.0,0.0,0.0
85,5,0.0,0.0,0.0,0.0,-0.0,-0.0,-0.016612965613603592,0.49145761132240295,0.004897571634501219,-0.01990409381687641,-0.011061698198318481,-0.07679615914821625,0.0,0.0,0.0,-0.0,-0.0,-0.0,0.0,0.0,0.0,0.0005068183527328074,-0.004999999888241291,-6.335824764391873e-06,15552.0,29269.0,30453.0,17161.0,0.05107336491346359,0.11225071549415588,0.11824169754981995,0.057467833161354065,0.0,0.0,0.0,0.0,16995.0,28129.0,31552.0,15723.0,0.3390336036682129,0.0,0.0,0.0,0.0,0.0,0.0
90,5,0.0,0.0,0.0,0.0,-0.0,-0.0,-0.016667233780026436,0.49122560024261475,0.005118075292557478,0.043497003614902496,0.05781864374876022,0.048526883125305176,0.0,0.0,0.0,-0.0,-0.0,-0.0,0.0,0.0,0.0,0.0004575854982249439,-0.004999999888241291,0.0001478375488659367,16672.0,28433.0,31264.0,16051.0,0.055505115538835526,0.10808736085891724,0.1224050521850586,0.05303608253598213,0.0,0.0,0.0,0.0,17689.0,27770.0,31891.0,15000.0,0.3390336036682129,0.0,0.0,0.0,0.0,0.0,0.0
96,5,0.0,0.0,0.0,0.0,-0.0,-0.0,-0.016572223976254463,0.4905068576335907,0.005252090282738209,-0.0064800092950463295,0.07151471823453903,-0.02837970480322838,0.0,0.0,0.0,-0.0,-0.0,-0.0,0.0,0.0,0.0,0.0005202051252126694,-0.004999999888241291,0.0001388135860906914,16672.0,28433.0,31264.0,16051.0,0.055505115538835526,0.10808736085891724,0.1224050521850586,0.05303608253598213,0.0,0.0,0.0,0.0,16280.0,28655.0,31051.0,16445.0,0.3390336036682129,0.0,0.0,0.0,0.0,0.0,0.0
101,5,0.0,0.0,0.0,0.0,-0.0,-0.0,-0.016572223976254463,0.4905068576335907,0.005252090282738209,-0.0064800092950463295,0.07151471823453903,-0.02837970480322838,0.0,0.0,0.0,-0.0,-0.0,-0.0,0.0,0.0,0.0,0.0005202051252126694,-0.004999999888241291,0.0001388135860906914,16672.0,28433.0,31264.0,16051.0,0.055505115538835526,0.10808736085891724,0.1224050521850586,0.05303608253598213,0.0,0.0,0.0,0.0,16280.0,28655.0,31051.0,16445.0,0.3390336036682129,0.0,0.0,0.0,0.0,0.0,0.0
106,5,0.0,0.0,0.0,0.0,-0.0,-0.0,-0.016572223976254463,0.4905068576335907,0.005252090282738209,-0.0064800092950463295,0.07151471823453903,-0.02837970480322838,0.0,0.0,0.0,-0.0,-0.0,-0.0,0.0,0.0,0.0,0.0005202051252126694,-0.004999999888241291,0.0001388135860906914,16672.0,28433.0,31264.0,16051.0,0.055505115538835526,0.10808736085891724,0.1224050521850586,0.05303608253598213,0.0,0.0,0.0,0.0,16280.0,28655.0,31051.0,16445.0,0.3390336036682129,0.0,0.0,0.0,0.0,0.0,0.0
111,5,0.0,0.0,0.0,0.0,-0.0,-0.0,-0.01671145297586918,0.4900367558002472,0.004991430323570967,-0.006673070136457682,-0.009788873605430126,0.01977483369410038,0.0,0.0,0.0,-0.0,-0.0,-0.0,0.0,0.0,0.0,0.00044400294427759945,-0.004999999888241291,0.0002124559978256002,17765.0,27624.0,32027.0,14920.0,0.05992221459746361,0.10411683470010757,0.12637558579444885,0.04861898347735405,0.0,0.0,0.0,0.0,17506.0,27870.0,31797.0,15192.0,0.3390336036682129,0.0,0.0,0.0,0.0,0.0,0.0
116,5,0.0,0.0,0.0,0.0,-0.0,-0.0,-0.01671145297586918,0.4900367558002472,0.004991430323570967,-0.006673070136457682,-0.009788873605430126,0.01977483369410038,0.0,0.0,0.0,-0.0,-0.0,-0.0,0.0,0.0,0.0,0.00044400294427759945,-0.004999999888241291,0.0002124559978256002,17765.0,27624.0,32027.0,14920.0,0.05992221459746361,0.10411683470010757,0.12637558579444885,0.04861898347735405,0.0,0.0,0.0,0.0,17506.0,27870.0,31797.0,15192.0,0.3390336036682129,0.0,0.0,0.0,0.0,0.0,0.0
121,5,0.0,0.0,0.0,0.0,-0.0,-0.0,-0.0165784303098917,0.49056658148765564,0.0052715265192091465,-0.017008112743496895,0.029567798599600792,-0.008402316831052303,0.0,0.0,0.0,-0.0,-0.0,-0.0,0.0,0.0,0.0,0.0004806077922694385,-0.004999999888241291,0.00011202253517694771,16800.0,28313.0,31377.0,15922.0,0.05601435527205467,0.10749899595975876,0.12299341708421707,0.052526842802762985,0.0,0.0,0.0,0.0,16951.0,28170.0,31514.0,15767.0,0.3390336036682129,0.0,0.0,0.0,0.0,0.0,0.0
126,5,0.0,0.0,0.0,0.0,-0.0,-0.0,-0.0165784303098917,0.49056658148765564,0.0052715265192091465,-0.017008112743496895,0.029567798599600792,-0.008402316831052303,0.0,0.0,0.0,-0.0,-0.0,-0.0,0.0,0.0,0.0,0.0004806077922694385,-0.004999999888241291,0.00011202253517694771,16800.0,28313.0,31377.0,15922.0,0.05601435527205467,0.10749899595975876,0.12299341708421707,0.052526842802762985,0.0,0.0,0.0,0.0,16951.0,28170.0,31514.0,15767.0,0.3390336036682129,0.0,0.0,0.0,0.0,0.0,0.0
131,5,0.0,0.0,0.0,0.0,-0.0,-0.0,-0.016636922955513,0.4897478222846985,0.005059984512627125,-0.020249852910637856,0.18528516590595245,0.024762194603681564,0.0,0.0,0.0,-0.0,-0.0,-0.0,0.0,0.0,0.0,0.0005082432180643082,-0.004999999888241291,0.00011523667490109801,17024.0,28083.0,31596.0,15693.0,0.056915152817964554,0.10636444389820099,0.12412796914577484,0.051626045256853104,0.0,0.0,0.0,0.0,17427.0,27874.0,31793.0,15275.0,0.3390336036682129,0.0,0.0,0.0,0.0,0.0,0.0
136,5,0.0,0.0,0.0,0.0,-0.0,-0.0,-0.016636922955513,0.4897478222846985,0.005059984512627125,-0.020249852910637856,0.18528516590595245,0.024762194603681564,0.0,0.0,0.0,-0.0,-0.0,-0.0,0.0,0.0,0.0,0.0005082432180643082,-0.004999999888241291,0.00011523667490109801,17024.0,28083.0,31596.0,15693.0,0.056915152817964554,0.10636444389820099,0.12412796914577484,0.051626045256853104,0.0,0.0,0.0,0.0,17427.0,27874.0,31793.0,15275.0,0.3390336036682129,0.0,0.0,0.0,0.0,0.0,0.0
141,5,0.0,0.0,0.0,0.0,-0.0,-0.0,-0.016513068228960037,0.4873598515987396,0.0052181207574903965,0.00700004119426012,0.23944684863090515,0.0329330749809742,0.0,0.0,0.0,-0.0,-0.0,-0.0,0.0,0.0,0.0,0.00039934483356773853,-0.004999999888241291,0.00013993310858495533,17337.0,28027.0,31649.0,15369.0,0.05817903205752373,0.10608791559934616,0.12440449744462967,0.05036216601729393,0.0,0.0,0.0,0.0,17686.0,27584.0,32064.0,15003.0,0.3390336036682129,0.0,0.0,0.0,0.0,0.0,0.0
146,5,0.0,0.0,0.0,0.0,-0.0,-0.0,-0.016513068228960037,0.4873598515987396,0.0052181207574903965,0.00700004119426012,0.23944684863090515,0.0329330749809742,0.0,0.0,0.0,-0.0,-0.0,-0.0,0.0,0.0,0.0,0.00039934483356773853,-0.004999999888241291,0.00013993310858495533,17337.0,28027.0,31649.0,15369.0,0.05817903205752373,0.10608791559934616,0.12440449744462967,0.05036216601729393,0.0,0.0,0.0,0.0,17686.0,27584.0,32064.0,15003.0,0.3390336036682129,0.0,0.0,0.0,0.0,0.0,0.0
151,5,0.0,0.0,0.0,0.0,-0.0,-0.0,-0.016513068228960037,0.4873598515987396,0.0052181207574903965,0.00700004119426012,0.23944684863090515,0.0329330749809742,0.0,0.0,0.0,-0.0,-0.0,-0.0,0.0,0.0,0.0,0.00039934483356773853,-0.004999999888241291,0.00013993310858495533,17337.0,28027.0,31649.0,15369.0,0.05817903205752373,0.10608791559934616,0.12440449744462967,0.05036216601729393,0.0,0.0,0.0,0.0,17686.0,27584.0,32064.0,15003.0,0.3390336036682129,0.0,0.0,0.0,0.0,0.0,0.0
157,5,0.0,0.0,0.0,0.0,-0.0,-0.0,-0.016979394480586052,0.48477405309677124,0.005520794540643692,-0.035794105380773544,0.32862329483032227,-0.011306673288345337,0.0,0.0,0.0,-0.0,-0.0,-0.0,0.0,0.0,0.0,0.0005932312924414873,-0.004999999888241291,0.00022285313752945513,17239.0,27726.0,31932.0,15471.0,0.05778217688202858,0.10461513698101044,0.1258772760629654,0.05075902119278908,0.0,0.0,0.0,0.0,16641.0,28667.0,31039.0,16083.0,0.3390336036682129,0.0,0.0,0.0,0.0,0.0,0.0
162,5,0.0,0.0,0.0,0.0,-0.0,-0.0,-0.016979394480586052,0.48477405309677124,0.005520794540643692,-0.035794105380773544,0.32862329483032227,-0.011306673288345337,0.0,0.0,0.0,-0.0,-0.0,-0.0,0.0,0.0,0.0,0.0005932312924414873,-0.004999999888241291,0.00022285313752945513,17239.0,27726.0,31932.0,15471.0,0.05778217688202858,0.10461513698101044,0.1258772760629654,0.05075902119278908,0.0,0.0,0.0,0.0,16641.0,28667.0,31039.0,16083.0,0.3390336036682129,0.0,0.0,0.0,0.0,0.0,0.0
167,5,0.0,0.0,0.0,0.0,-0.0,-0.0,-0.01658506691455841,0.47822558879852295,0.0052996608428657055,0.017085816711187363,0.6871092319488525,0.018671629950404167,0.0,0.0,0.0,-0.0,-0.0,-0.0,0.0,0.0,0.0,0.0004329764924477786,-0.004999999888241291,0.0001653542130952701,17292.0,28054.0,31623.0,15415.0,0.05799974873661995,0.10622422397136688,0.12426818907260895,0.05054144933819771,0.0,0.0,0.0,0.0,17714.0,27356.0,32276.0,14973.0,0.3390336036682129,0.0,0.0,0.0,0.0,0.0,0.0
172,5,0.0,0.0,0.0,0.0,-0.0,-0.0,-0.01658506691455841,0.47822558879852295,0.0052996608428657055,0.017085816711187363,0.6871092319488525,0.018671629950404167,0.0,0.0,0.0,-0.0,-0.0,-0.0,0.0,0.0,0.0,0.0004329764924477786,-0.004999999888241291,0.0001653542130952701,17292.0,28054.0,31623.0,15415.0,0.05799974873661995,0.10622422397136688,0.12426818907260895,0.05054144933819771,0.0,0.0,0.0,0.0,17714.0,27356.0,32276.0,14973.0,0.3390336036682129,0.0,0.0,0.0,0.0,0.0,0.0
177,5,0.0,0.0,0.0,0.0,-0.0,-0.0,-0.017023343592882156,0.4722661077976227,0.0054632979445159435,0.019079921767115593,0.8649724721908569,0.03154216334223747,0.0,0.0,0.0,-0.0,-0.0,-0.0,0.0,0.0,0.0,0.0005057885427959263,-0.004999999888241291,0.0002427634462947026,17584.0,27696.0,31959.0,15111.0,0.05918198823928833,0.10446934401988983,0.126023069024086,0.04935920983552933,0.0,0.0,0.0,0.0,17348.0,27991.0,31683.0,15357.0,0.3390336036682129,0.0,0.0,0.0,0.0,0.0,0.0
182,5,0.0,0.0,0.0,0.0,-0.0,-0.0,-0.017023343592882156,0.4722661077976227,0.0054632979445159435,0.019079921767115593,0.8649724721908569,0.03154216334223747,0.0,0.0,0.0,-0.0,-0.0,-0.0,0.0,0.0,0.0,0.0005057885427959263,-0.004999999888241291,0.0002427634462947026,17584.0,27696.0,31959.0,15111.0,0.05918198823928833,0.10446934401988983,0.126023069024086,0.04935920983552933,0.0,0.0,0.0,0.0,17348.0,27991.0,31683.0,15357.0,0.3390336036682129,0.0,0.0,0.0,0.0,0.0,0.0
187,5,0.0,0.0,0.0,0.0,-0.0,-0.0,-0.017045659944415092,0.4596891403198242,0.005663801915943623,-0.05065087601542473,1.138018012046814,0.03728513419628143,0.0,0.0,0.0,-0.0,-0.0,-0.0,0.0,0.0,0.0,0.0005394235486164689,-0.004437804687768221,0.00028797032427974045,19925.0,25621.0,31357.0,15967.0,0.06893537193536758,0.09450580924749374,0.12288922816514969,0.052703194320201874,0.0,0.0,0.0,0.0,17875.0,27360.0,32272.0,14802.0,0.3390336036682129,0.0,0.0,0.0,0.0,0.0,0.0
192,5,0.0,0.0,0.0,0.0,-0.0,-0.0,-0.017045659944415092,0.4596891403198242,0.005663801915943623,-0.05065087601542473,1.138018012046814,0.03728513419628143,0.0,0.0,0.0,-0.0,-0.0,-0.0,0.0,0.0,0.0,0.0005394235486164689,-0.004437804687768221,0.00028797032427974045,19925.0,25621.0,31357.0,15967.0,0.06893537193536758,0.09450580924749374,0.12288922816514969,0.052703194320201874,0.0,0.0,0.0,0.0,17875.0,27360.0,32272.0,14802.0,0.3390336036682129,0.0,0.0,0.0,0.0,0.0,0.0
197,5,0.0,0.0,0.0,0.0,-0.0,-0.0,-0.0174325592815876,0.44803011417388916,0.005989559460431337,0.02195403352379799,1.6138520240783691,0.07009850442409515,0.0,0.0,0.0,-0.0,-0.0,-0.0,0.0,0.0,0.0,0.00047365963109768927,-0.0023915041238069534,0.00023879155924078077,21956.0,23650.0,28976.0,19022.0,0.07775595784187317,0.0853651911020279,0.11078788340091705,0.06512457132339478,0.0,0.0,0.0,0.0,19574.0,26091.0,30488.0,16905.0,0.3390336036682129,0.0,0.0,0.0,0.0,0.0,0.0
202,5,0.0,0.0,0.0,0.0,-0.0,-0.0,-0.0174325592815876,0.44803011417388916,0.005989559460431337,0.02195403352379799,1.6138520240783691,0.07009850442409515,0.0,0.0,0.0,-0.0,-0.0,-0.0,0.0,0.0,0.0,0.00047365963109768927,-0.0023915041238069534,0.00023879155924078077,21956.0,23650.0,28976.0,19022.0,0.07775595784187317,0.0853651911020279,0.11078788340091705,0.06512457132339478,0.0,0.0,0.0,0.0,19574.0,26091.0,30488.0,16905.0,0.3390336036682129,0.0,0.0,0.0,0.0,0.0,0.0
208,5,0.0,0.0,0.0,0.0,-0.0,-0.0,-0.017427649348974228,0.40912818908691406,0.006394131109118462,0.06481164693832397,2.3040318489074707,0.01490329671651125,0.0,0.0,0.0,-0.0,-0.0,-0.0,0.0,0.0,0.0,0.0004459745832718909,0.0008994474192149937,0.0002606896450743079,26155.0,19579.0,24754.0,23368.0,0.09703615307807922,0.06746864318847656,0.09044754505157471,0.0840812623500824,0.0,0.0,0.0,0.0,24249.0,21175.0,28088.0,20223.0,0.3390336036682129,0.0,0.0,0.0,0.0,0.0,0.0
213,5,0.0,0.0,0.0,0.0,-0.0,-0.0,-0.017427649348974228,0.40912818908691406,0.006394131109118462,0.06481164693832397,2.3040318489074707,0.01490329671651125,0.0,0.0,0.0,-0.0,-0.0,-0.0,0.0,0.0,0.0,0.0004459745832718909,0.0008994474192149937,0.0002606896450743079,26155.0,19579.0,24754.0,23368.0,0.09703615307807922,0.06746864318847656,0.09044754505157471,0.0840812623500824,0.0,0.0,0.0,0.0,24249.0,21175.0,28088.0,20223.0,0.3390336036682129,0.0,0.0,0.0,0.0,0.0,0.0
218,5,0.0,0.0,0.0,0.0,-0.0,-0.0,-0.01699267327785492,0.3791312873363495,0.006263440009206533,0.0017820323118939996,2.6745238304138184,0.047161590307950974,0.0,0.0,0.0,-0.0,-0.0,-0.0,0.0,0.0,0.0,0.0004714871465694159,0.0030822185799479485,0.0002436645154375583,29121.0,15810.0,21820.0,26417.0,0.11150804162025452,0.05208441987633705,0.07715381681919098,0.09828732907772064,0.0,0.0,0.0,0.0,27068.0,18434.0,23784.0,24435.0,0.3390336036682129,0.0,0.0,0.0,0.0,0.0,0.0
223,5,0.0,0.0,0.0,0.0,-0.0,-0.0,-0.01699267327785492,0.3791312873363495,0.006263440009206533,0.0017820323118939996,2.6745238304138184,0.047161590307950974,0.0,0.0,0.0,-0.0,-0.0,-0.0,0.0,0.0,0.0,0.0004714871465694159,0.0030822185799479485,0.0002436645154375583,29121.0,15810.0,21820.0,26417.0,0.11150804162025452,0.05208441987633705,0.07715381681919098,0.09828732907772064,0.0,0.0,0.0,0.0,27068.0,18434.0,23784.0,24435.0,0.3390336036682129,0.0,0.0,0.0,0.0,0.0,0.0
228,5,0.0,0.0,0.0,0.0,-0.0,-0.0,-0.017124075442552567,0.35663631558418274,0.006246679928153753,0.027994347736239433,2.9283971786499023,0.04854609817266464,0.0,0.0,0.0,-0.0,-0.0,-0.0,0.0,0.0,0.0,0.00046229379950091243,0.004999999888241291,0.0002896850055549294,31320.0,12933.0,19570.0,28374.0,0.12269532680511475,0.041112132370471954,0.0674290657043457,0.10779708623886108,0.0,0.0,0.0,0.0,29635.0,14790.0,20645.0,27763.0,0.3390336036682129,0.0,0.0,0.0,0.0,0.0,0.0
233,5,0.0,0.0,0.0,0.0,-0.0,-0.0,-0.017124075442552567,0.35663631558418274,0.006246679928153753,0.027994347736239433,2.9283971786499023,0.04854609817266464,0.0,0.0,0.0,-0.0,-0.0,-0.0,0.0,0.0,0.0,0.00046229379950091243,0.004999999888241291,0.0002896850055549294,31320.0,12933.0,19570.0,28374.0,0.12269532680511475,0.041112132370471954,0.0674290657043457,0.10779708623886108,0.0,0.0,0.0,0.0,29635.0,14790.0,20645.0,27763.0,0.3390336036682129,0.0,0.0,0.0,0.0,0.0,0.0
238,5,0.0,0.0,0.0,0.0,-0.0,-0.0,-0.016353126615285873,0.319277822971344,0.005533677060157061,0.022856760770082474,3.203781843185425,-0.019829554483294487,0.0,0.0,0.0,-0.0,-0.0,-0.0,0.0,0.0,0.0,0.00038676135591231287,0.004999999888241291,0.0001925123215187341,30710.0,13965.0,18649.0,29006.0,0.11955737322568893,0.04497465118765831,0.06356655061244965,0.1109350398182869,0.0,0.0,0.0,0.0,30795.0,13833.0,18769.0,28919.0,0.3390336036682129,0.0,0.0,0.0,0.0,0.0,0.0
243,5,0.0,0.0,0.0,0.0,-0.0,-0.0,-0.016353126615285873,0.319277822971344,0.005533677060157061,0.022856760770082474,3.203781843185425,-0.019829554483294487,0.0,0.0,0.0,-0.0,-0.0,-0.0,0.0,0.0,0.0,0.00038676135591231287,0.004999999888241291,0.0001925123215187341,30710.0,13965.0,18649.0,29006.0,0.11955737322568893,0.04497465118765831,0.06356655061244965,0.1109350398182869,0.0,0.0,0.0,0.0,30795.0,13833.0,18769.0,28919.0,0.3390336036682129,0.0,0.0,0.0,0.0,0.0,0.0
248,5,0.0,0.0,0.0,0.0,-0.0,-0.0,-0.01641317456960678,0.2927413284778595,0.005160405766218901,-0.04282880574464798,3.454204559326172,0.017312072217464447,0.0,0.0,0.0,-0.0,-0.0,-0.0,0.0,0.0,0.0,0.000525175011716783,0.004999999888241291,0.00020038515503983945,30607.0,13645.0,18938.0,29112.0,0.1190250813961029,0.04376865178346634,0.06477254629135132,0.11146733164787292,0.0,0.0,0.0,0.0,30028.0,14605.0,18060.0,29700.0,0.3390336036682129,0.0,0.0,0.0,0.0,0.0,0.0
253,5,0.0,0.0,0.0,0.0,-0.0,-0.0,-0.01641317456960678,0.2927413284778595,0.005160405766218901,-0.04282880574464798,3.454204559326172,0.017312072217464447,0.0,0.0,0.0,-0.0,-0.0,-0.0,0.0,0.0,0.0,0.000525175011716783,0.004999999888241291,0.00020038515503983945,30607.0,13645.0,18938.0,29112.0,0.1190250813961029,0.04376865178346634,0.06477254629135132,0.11146733164787292,0.0,0.0,0.0,0.0,30028.0,14605.0,18060.0,29700.0,0.3390336036682129,0.0,0.0,0.0,0.0,0.0,0.0
258,5,0.0,0.0,0.0,0.0,-0.0,-0.0,-0.01641317456960678,0.2927413284778595,0.005160405766218901,-0.04282880574464798,3.454204559326172,0.017312072217464447,0.0,0.0,0.0,-0.0,-0.0,-0.0,0.0,0.0,0.0,0.000525175011716783,0.004999999888241291,0.00020038515503983945,30607.0,13645.0,18938.0,29112.0,0.1190250813961029,0.04376865178346634,0.06477254629135132,0.11146733164787292,0.0,0.0,0.0,0.0,30028.0,14605.0,18060.0,29700.0,0.3390336036682129,0.0,0.0,0.0,0.0,0.0,0.0
263,5,0.0,0.0,0.0,0.0,-0.0,-0.0,-0.016433430835604668,0.2515896260738373,0.004634465090930462,-0.03106396459043026,3.4258649349212646,-0.00034944951767101884,0.0,0.0,0.0,-0.0,-0.0,-0.0,0.0,0.0,0.0,0.0004675060336012393,0.004999999888241291,0.00015549937961623073,30284.0,14269.0,18371.0,29441.0,0.11737989634275436,0.04612639173865318,0.062414806336164474,0.11311251670122147,0.0,0.0,0.0,0.0,30548.0,13950.0,18663.0,29172.0,0.3390336036682129,0.0,0.0,0.0,0.0,0.0,0.0
268,5,0.0,0.0,0.0,0.0,-0.0,-0.0,-0.016433430835604668,0.2515896260738373,0.004634465090930462,-0.03106396459043026,3.4258649349212646,-0.00034944951767101884,0.0,0.0,0.0,-0.0,-0.0,-0.0,0.0,0.0,0.0,0.0004675060336012393,0.004999999888241291,0.00015549937961623073,30284.0,14269.0,18371.0,29441.0,0.11737989634275436,0.04612639173865318,0.062414806336164474,0.11311251670122147,0.0,0.0,0.0,0.0,30548.0,13950.0,18663.0,29172.0,0.3390336036682129,0.0,0.0,0.0,0.0,0.0,0.0
274,5,0.0,0.0,0.0,0.0,-0.0,-0.0,-0.01649843156337738,0.2235720008611679,0.004549858160316944,0.0008470640168525279,3.4940080642700195,0.0696054995059967,0.0,0.0,0.0,-0.0,-0.0,-0.0,0.0,0.0,0.0,0.0005092588835395873,0.004999999888241291,0.0001912139996420592,30931.0,13367.0,19187.0,28778.0,0.12069033831357956,0.04272490367293358,0.06581629812717438,0.10980207473039627,0.0,0.0,0.0,0.0,30697.0,13718.0,18873.0,29020.0,0.3390336036682129,0.0,0.0,0.0,0.0,0.0,0.0
279,5,0.0,0.0,0.0,0.0,-0.0,-0.0,-0.01649843156337738,0.2235720008611679,0.004549858160316944,0.0008470640168525279,3.4940080642700195,0.0696054995059967,0.0,0.0,0.0,-0.0,-0.0,-0.0,0.0,0.0,0.0,0.0005092588835395873,0.004999999888241291,0.0001912139996420592,30931.0,13367.0,19187.0,28778.0,0.12069033831357956,0.04272490367293358,0.06581629812717438,0.10980207473039627,0.0,0.0,0.0,0.0,30697.0,13718.0,18873.0,29020.0,0.3390336036682129,0.0,0.0,0.0,0.0,0.0,0.0
284,5,0.0,0.0,0.0,0.0,-0.0,-0.0,-0.01659460738301277,0.18139976263046265,0.0044328393414616585,-0.007021709810942411,3.6004953384399414,0.040928445756435394,0.0,0.0,0.0,-0.0,-0.0,-0.0,0.0,0.0,0.0,0.0004687612527050078,0.004999999888241291,0.0002148379571735859,30817.0,13621.0,18960.0,28896.0,0.12010346353054047,0.0436784066259861,0.06486278772354126,0.11038894951343536,0.0,0.0,0.0,0.0,30387.0,13975.0,18641.0,29337.0,0.3390336036682129,0.0,0.0,0.0,0.0,0.0,0.0
289,5,0.0,0.0,0.0,0.0,-0.0,-0.0,-0.01659460738301277,0.18139976263046265,0.0044328393414616585,-0.007021709810942411,3.6004953384399414,0.040928445756435394,0.0,0.0,0.0,-0.0,-0.0,-0.0,0.0,0.0,0.0,0.0004687612527050078,0.004999999888241291,0.0002148379571735859,30817.0,13621.0,18960.0,28896.0,0.12010346353054047,0.0436784066259861,0.06486278772354126,0.11038894951343536,0.0,0.0,0.0,0.0,30387.0,13975.0,18641.0,29337.0,0.3390336036682129,0.0,0.0,0.0,0.0,0.0,0.0
294,5,0.0,0.0,0.0,0.0,-0.0,-0.0,-0.016896851360797882,0.1540430337190628,0.003932593390345573,-0.05841231718659401,3.3777174949645996,-0.03422912210226059,0.0,0.0,0.0,-0.0,-0.0,-0.0,0.0,0.0,0.0,0.0006038287538103759,0.004999999888241291,0.000102467522083316,29784.0,14634.0,18033.0,29944.0,0.11484108120203018,0.04751988872885704,0.06102130934596062,0.11565133184194565,0.0,0.0,0.0,0.0,29636.0,14793.0,17884.0,30091.0,0.3390336036682129,0.0,0.0,0.0,0.0,0.0,0.0
299,5,0.0,0.0,0.0,0.0,-0.0,-0.0,-0.016896851360797882,0.1540430337190628,0.003932593390345573,-0.05841231718659401,3.3777174949645996,-0.03422912210226059,0.0,0.0,0.0,-0.0,-0.0,-0.0,0.0,0.0,0.0,0.0006038287538103759,0.004999999888241291,0.000102467522083316,29784.0,14634.0,18033.0,29944.0,0.11484108120203018,0.04751988872885704,0.06102130934596062,0.11565133184194565,0.0,0.0,0.0,0.0,29636.0,14793.0,17884.0,30091.0,0.3390336036682129,0.0,0.0,0.0,0.0,0.0,0.0
304,5,0.0,0.0,0.0,0.0,-0.0,-0.0,-0.017287088558077812,0.11434006690979004,0.00311849731951952,-0.028603270649909973,3.2567152976989746,0.01699959672987461,0.0,0.0,0.0,-0.0,-0.0,-0.0,0.0,0.0,0.0,0.0005361643270589411,0.004999999888241291,9.286008571507409e-05,30018.0,14451.0,18203.0,29710.0,0.11602458357810974,0.046821463853120804,0.061719734221696854,0.11446782946586609,0.0,0.0,0.0,0.0,30219.0,14242.0,18396.0,29507.0,0.3390336036682129,0.0,0.0,0.0,0.0,0.0,0.0
309,5,0.0,0.0,0.0,0.0,-0.0,-0.0,-0.017287088558077812,0.11434006690979004,0.00311849731951952,-0.028603270649909973,3.2567152976989746,0.01699959672987461,0.0,0.0,0.0,-0.0,-0.0,-0.0,0.0,0.0,0.0,0.0005361643270589411,0.004999999888241291,9.286008571507409e-05,30018.0,14451.0,18203.0,29710.0,0.11602458357810974,0.046821463853120804,0.061719734221696854,0.11446782946586609,0.0,0.0,0.0,0.0,30219.0,14242.0,18396.0,29507.0,0.3390336036682129,0.0,0.0,0.0,0.0,0.0,0.0
314,5,0.0,0.0,0.0,0.0,-0.0,-0.0,-0.01761738769710064,0.08925922960042953,0.003037021728232503,-0.0394916832447052,2.986461877822876,0.06167824938893318,0.0,0.0,0.0,-0.0,-0.0,-0.0,0.0,0.0,0.0,0.000579946325160563,0.004999999888241291,0.00018230927526019514,30557.0,13634.0,18949.0,29163.0,0.11877282708883286,0.043725334107875824,0.06481586396694183,0.11171958595514297,0.0,0.0,0.0,0.0,30464.0,13653.0,18932.0,29258.0,0.3390336036682129,0.0,0.0,0.0,0.0,0.0,0.0
319,5,0.0,0.0,0.0,0.0,-0.0,-0.0,-0.01761738769710064,0.08925922960042953,0.003037021728232503,-0.0394916832447052,2.986461877822876,0.06167824938893318,0.0,0.0,0.0,-0.0,-0.0,-0.0,0.0,0.0,0.0,0.000579946325160563,0.004999999888241291,0.00018230927526019514,30557.0,13634.0,18949.0,29163.0,0.11877282708883286,0.043725334107875824,0.06481586396694183,0.11171958595514297,0.0,0.0,0.0,0.0,30464.0,13653.0,18932.0,29258.0,0.3390336036682129,0.0,0.0,0.0,0.0,0.0,0.0
324,5,0.0,0.0,0.0,0.0,-0.0,-0.0,-0.018099823966622353,0.05459136888384819,0.003047951264306903,-0.029771169647574425,2.8524303436279297,0.035374369472265244,0.0,0.0,0.0,-0.0,-0.0,-0.0,0.0,0.0,0.0,0.0005925947334617376,0.004999999888241291,0.00015228301344905049,30188.0,14087.0,18538.0,29538.0,0.11689048260450363,0.045434288680553436,0.06310690939426422,0.1136019304394722,0.0,0.0,0.0,0.0,30293.0,13995.0,18622.0,29432.0,0.3390336036682129,0.0,0.0,0.0,0.0,0.0,0.0
329,5,0.0,0.0,0.0,0.0,-0.0,-0.0,-0.018099823966622353,0.05459136888384819,0.003047951264306903,-0.029771169647574425,2.8524303436279297,0.035374369472265244,0.0,0.0,0.0,-0.0,-0.0,-0.0,0.0,0.0,0.0,0.0005925947334617376,0.004999999888241291,0.00015228301344905049,30188.0,14087.0,18538.0,29538.0,0.11689048260450363,0.045434288680553436,0.06310690939426422,0.1136019304394722,0.0,0.0,0.0,0.0,30293.0,13995.0,18622.0,29432.0,0.3390336036682129,0.0,0.0,0.0,0.0,0.0,0.0
335,5,0.0,0.0,0.0,0.0,-0.0,-0.0,-0.018341131508350372,0.03380171209573746,0.0029763064812868834,-0.038309141993522644,2.460153818130493,0.022044578567147255,0.0,0.0,0.0,-0.0,-0.0,-0.0,0.0,0.0,0.0,0.0005961572169326246,0.004999999888241291,0.00013650429900735617,30321.0,13925.0,18686.0,29404.0,0.11756639182567596,0.044822487980127335,0.06371871381998062,0.11292602121829987,0.0,0.0,0.0,0.0,30279.0,13916.0,18694.0,29446.0,0.3390336036682129,0.0,0.0,0.0,0.0,0.0,0.0
340,5,0.0,0.0,0.0,0.0,-0.0,-0.0,-0.018341131508350372,0.03380171209573746,0.0029763064812868834,-0.038309141993522644,2.460153818130493,0.022044578567147255,0.0,0.0,0.0,-0.0,-0.0,-0.0,0.0,0.0,0.0,0.0005961572169326246,0.004999999888241291,0.00013650429900735617,30321.0,13925.0,18686.0,29404.0,0.11756639182567596,0.044822487980127335,0.06371871381998062,0.11292602121829987,0.0,0.0,0.0,0.0,30279.0,13916.0,18694.0,29446.0,0.3390336036682129,0.0,0.0,0.0,0.0,0.0,0.0
345,5,0.0,0.0,0.0,0.0,-0.0,-0.0,-0.018773283809423447,0.006221318151801825,0.0029171353671699762,-0.03628004714846611,2.166442632675171,0.054879967123270035,0.0,0.0,0.0,-0.0,-0.0,-0.0,0.0,0.0,0.0,0.0005788462585769594,0.004999999888241291,0.00017430329171475023,30373.0,13843.0,18760.0,29350.0,0.1178332194685936,0.0445113442838192,0.06402985751628876,0.11265919357538223,0.0,0.0,0.0,0.0,30356.0,13855.0,18749.0,29368.0,0.3390336036682129,0.0,0.0,0.0,0.0,0.0,0.0
350,5,0.0,0.0,0.0,0.0,-0.0,-0.0,-0.018773283809423447,0.006221318151801825,0.0029171353671699762,-0.03628004714846611,2.166442632675171,0.054879967123270035,0.0,0.0,0.0,-0.0,-0.0,-0.0,0.0,0.0,0.0,0.0005788462585769594,0.004999999888241291,0.00017430329171475023,30373.0,13843.0,18760.0,29350.0,0.1178332194685936,0.0445113442838192,0.06402985751628876,0.11265919357538223,0.0,0.0,0.0,0.0,30356.0,13855.0,18749.0,29368.0,0.3390336036682129,0.0,0.0,0.0,0.0,0.0,0.0
355,5,0.0,0.0,0.0,0.0,-0.0,-0.0,-0.018773283809423447,0.006221318151801825,0.0029171353671699762,-0.03628004714846611,2.166442632675171,0.054879967123270035,0.0,0.0,0.0,-0.0,-0.0,-0.0,0.0,0.0,0.0,0.0005788462585769594,0.004999999888241291,0.00017430329171475023,30373.0,13843.0,18760.0,29350.0,0.1178332194685936,0.0445113442838192,0.06402985751628876,0.11265919357538223,0.0,0.0,0.0,0.0,30356.0,13855.0,18749.0,29368.0,0.3390336036682129,0.0,0.0,0.0,0.0,0.0,0.0
360,5,0.0,0.0,0.0,0.0,-0.0,-0.0,-0.01900004781782627,-0.008929971605539322,0.0030258786864578724,-0.03383035957813263,1.6587926149368286,0.03679851070046425,0.0,0.0,0.0,-0.0,-0.0,-0.0,0.0,0.0,0.0,0.0005949612823314965,0.004999999888241291,0.00010050088167190552,30010.0,14315.0,18329.0,29718.0,0.11598344147205353,0.04630320519208908,0.06223799288272858,0.1145089715719223,0.0,0.0,0.0,0.0,30275.0,13947.0,18666.0,29451.0,0.3390336036682129,0.0,0.0,0.0,0.0,0.0,0.0
365,5,0.0,0.0,0.0,0.0,-0.0,-0.0,-0.01900004781782627,-0.008929971605539322,0.0030258786864578724,-0.03383035957813263,1.6587926149368286,0.03679851070046425,0.0,0.0,0.0,-0.0,-0.0,-0.0,0.0,0.0,0.0,0.0005949612823314965,0.004999999888241291,0.00010050088167190552,30010.0,14315.0,18329.0,29718.0,0.11598344147205353,0.04630320519208908,0.06223799288272858,0.1145089715719223,0.0,0.0,0.0,0.0,30275.0,13947.0,18666.0,29451.0,0.3390336036682129,0.0,0.0,0.0,0.0,0.0,0.0
370,5,0.0,0.0,0.0,0.0,-0.0,-0.0,-0.019599344581365585,-0.034502457827329636,0.002946116728708148,-0.0003326987207401544,0.8186251521110535,0.007324092090129852,0.0,0.0,0.0,-0.0,-0.0,-0.0,0.0,0.0,0.0,0.0005594687536358833,0.004999999888241291,0.0001227472530445084,30043.0,14418.0,18234.0,29685.0,0.1161508560180664,0.04669300466775894,0.061848193407058716,0.11434155702590942,0.0,0.0,0.0,0.0,29876.0,14522.0,18137.0,29852.0,0.3390336036682129,0.0,0.0,0.0,0.0,0.0,0.0
375,5,0.0,0.0,0.0,0.0,-0.0,-0.0,-0.019599344581365585,-0.034502457827329636,0.002946116728708148,-0.0003326987207401544,0.8186251521110535,0.007324092090129852,0.0,0.0,0.0,-0.0,-0.0,-0.0,0.0,0.0,0.0,0.0005594687536358833,0.004999999888241291,0.0001227472530445084,30043.0,14418.0,18234.0,29685.0,0.1161508560180664,0.04669300466775894,0.061848193407058716,0.11434155702590942,0.0,0.0,0.0,0.0,29876.0,14522.0,18137.0,29852.0,0.3390336036682129,0.0,0.0,0.0,0.0,0.0,0.0
380,5,0.0,0.0,0.0,0.0,-0.0,-0.0,-0.019778307527303696,-0.041118476539850235,0.0029407839756458998,-0.009952856227755547,0.44233405590057373,0.020723866298794746,0.0,0.0,0.0,-0.0,-0.0,-0.0,0.0,0.0,0.0,0.0005965684540569782,0.0034279944375157356,9.102797775994986e-05,28204.0,16627.0,20226.0,28116.0,0.10695791989564896,0.05532470718026161,0.0702240839600563,0.10652688890695572,0.0,0.0,0.0,0.0,29899.0,14518.0,18141.0,29829.0,0.3390336036682129,0.0,0.0,0.0,0.0,0.0,0.0
385,5,0.0,0.0,0.0,0.0,-0.0,-0.0,-0.019778307527303696,-0.041118476539850235,0.0029407839756458998,-0.009952856227755547,0.44233405590057373,0.020723866298794746,0.0,0.0,0.0,-0.0,-0.0,-0.0,0.0,0.0,0.0,0.0005965684540569782,0.0034279944375157356,9.102797775994986e-05,28204.0,16627.0,20226.0,28116.0,0.10695791989564896,0.05532470718026161,0.0702240839600563,0.10652688890695572,0.0,0.0,0.0,0.0,29899.0,14518.0,18141.0,29829.0,0.3390336036682129,0.0,0.0,0.0,0.0,0.0,0.0
390,5,0.0,0.0,0.0,0.0,-0.0,-0.0,-0.019802460446953773,-0.04175360128283501,0.003062971169129014,0.02306283637881279,-0.15415401756763458,0.010352633893489838,0.0,0.0,0.0,-0.0,-0.0,-0.0,0.0,0.0,0.0,0.0005352074513211846,0.001368445809930563,0.00014130561612546444,25080.0,20429.0,24091.0,24354.0,0.09196507930755615,0.07109235227108002,0.08738315105438232,0.0885930210351944,0.0,0.0,0.0,0.0,26249.0,18921.0,22477.0,26100.0,0.3390336036682129,0.0,0.0,0.0,0.0,0.0,0.0
395,5,0.0,0.0,0.0,0.0,-0.0,-0.0,-0.019802460446953773,-0.04175360128283501,0.003062971169129014,0.02306283637881279,-0.15415401756763458,0.010352633893489838,0.0,0.0,0.0,-0.0,-0.0,-0.0,0.0,0.0,0.0,0.0005352074513211846,0.001368445809930563,0.00014130561612546444,25080.0,20429.0,24091.0,24354.0,0.09196507930755615,0.07109235227108002,0.08738315105438232,0.0885930210351944,0.0,0.0,0.0,0.0,26249.0,18921.0,22477.0,26100.0,0.3390336036682129,0.0,0.0,0.0,0.0,0.0,0.0
401,5,0.0,0.0,0.0,0.0,-0.0,-0.0,-0.019594233483076096,-0.036887381225824356,0.0028493590652942657,-0.004914392717182636,-0.5406981110572815,-0.041521068662405014,0.0,0.0,0.0,-0.0,-0.0,-0.0,0.0,0.0,0.0,0.0005466378061100841,-0.0018573105335235596,6.0043585108360276e-06,20419.0,25000.0,26610.0,21826.0,0.07105185836553574,0.09159208089113235,0.09921007603406906,0.07717958837747574,0.0,0.0,0.0,0.0,18408.0,26824.0,28428.0,19743.0,0.3390336036682129,0.0,0.0,0.0,0.0,0.0,0.0
406,5,0.0,0.0,0.0,0.0,-0.0,-0.0,-0.019594233483076096,-0.036887381225824356,0.0028493590652942657,-0.004914392717182636,-0.5406981110572815,-0.041521068662405014,0.0,0.0,0.0,-0.0,-0.0,-0.0,0.0,0.0,0.0,0.0005466378061100841,-0.0018573105335235596,6.0043585108360276e-06,20419.0,25000.0,26610.0,21826.0,0.07105185836553574,0.09159208089113235,0.09921007603406906,0.07717958837747574,0.0,0.0,0.0,0.0,18408.0,26824.0,28428.0,19743.0,0.3390336036682129,0.0,0.0,0.0,0.0,0.0,0.0
411,5,0.0,0.0,0.0,0.0,-0.0,-0.0,-0.019542600959539413,-0.030094336718320847,0.002706036204472184,0.014438106678426266,-1.0174094438552856,-0.04277818277478218,0.0,0.0,0.0,-0.0,-0.0,-0.0,0.0,0.0,0.0,0.0005238876910880208,-0.004233142361044884,5.343490556697361e-05,16917.0,28165.0,30031.0,17707.0,0.05648699775338173,0.10676941275596619,0.1160905659198761,0.059686627238988876,0.0,0.0,0.0,0.0,15589.0,29159.0,30561.0,17125.0,0.3390336036682129,0.0,0.0,0.0,0.0,0.0,0.0
416,5,0.0,0.0,0.0,0.0,-0.0,-0.0,-0.019542600959539413,-0.030094336718320847,0.002706036204472184,0.014438106678426266,-1.0174094438552856,-0.04277818277478218,0.0,0.0,0.0,-0.0,-0.0,-0.0,0.0,0.0,0.0,0.0005238876910880208,-0.004233142361044884,5.343490556697361e-05,16917.0,28165.0,30031.0,17707.0,0.05648699775338173,0.10676941275596619,0.1160905659198761,0.059686627238988876,0.0,0.0,0.0,0.0,15589.0,29159.0,30561.0,17125.0,0.3390336036682129,0.0,0.0,0.0,0.0,0.0,0.0
421,5,0.0,0.0,0.0,0.0,-0.0,-0.0,-0.01937907375395298,-0.015007547102868557,0.002468514023348689,0.029184015467762947,-1.3372031450271606,-0.02791711688041687,0.0,0.0,0.0,-0.0,-0.0,-0.0,0.0,0.0,0.0,0.0005240575410425663,-0.004999999888241291,-5.268188942864072e-06,15720.0,29121.0,30598.0,16998.0,0.05173129588365555,0.11151210963726044,0.1189803034067154,0.05680990219116211,0.0,0.0,0.0,0.0,15420.0,29212.0,30509.0,17288.0,0.3390336036682129,0.0,0.0,0.0,0.0,0.0,0.0
426,5,0.0,0.0,0.0,0.0,-0.0,-0.0,-0.01937907375395298,-0.015007547102868557,0.002468514023348689,0.029184015467762947,-1.3372031450271606,-0.02791711688041687,0.0,0.0,0.0,-0.0,-0.0,-0.0,0.0,0.0,0.0,0.0005240575410425663,-0.004999999888241291,-5.268188942864072e-06,15720.0,29121.0,30598.0,16998.0,0.05173129588365555,0.11151210963726044,0.1189803034067154,0.05680990219116211,0.0,0.0,0.0,0.0,15420.0,29212.0,30509.0,17288.0,0.3390336036682129,0.0,0.0,0.0,0.0,0.0,0.0
431,5,0.0,0.0,0.0,0.0,-0.0,-0.0,-0.01937907375395298,-0.015007547102868557,0.002468514023348689,0.029184015467762947,-1.3372031450271606,-0.02791711688041687,0.0,0.0,0.0,-0.0,-0.0,-0.0,0.0,0.0,0.0,0.0005240575410425663,-0.004999999888241291,-5.268188942864072e-06,15720.0,29121.0,30598.0,16998.0,0.05173129588365555,0.11151210963726044,0.1189803034067154,0.05680990219116211,0.0,0.0,0.0,0.0,15420.0,29212.0,30509.0,17288.0,0.3390336036682129,0.0,0.0,0.0,0.0,0.0,0.0
436,5,0.0,0.0,0.0,0.0,-0.0,-0.0,-0.019460881128907204,-0.002059158170595765,0.002494838321581483,0.008904014714062214,-1.6802403926849365,-0.016080841422080994,0.0,0.0,0.0,-0.0,-0.0,-0.0,0.0,0.0,0.0,0.0005666051874868572,-0.004999999888241291,5.773540397058241e-05,15965.0,28829.0,30882.0,16757.0,0.05269589275121689,0.11005407571792603,0.1204383373260498,0.05584530532360077,0.0,0.0,0.0,0.0,16554.0,28474.0,31224.0,16171.0,0.3390336036682129,0.0,0.0,0.0,0.0,0.0,0.0
441,5,0.0,0.0,0.0,0.0,-0.0,-0.0,-0.019460881128907204,-0.002059158170595765,0.002494838321581483,0.008904014714062214,-1.6802403926849365,-0.016080841422080994,0.0,0.0,0.0,-0.0,-0.0,-0.0,0.0,0.0,0.0,0.0005666051874868572,-0.004999999888241291,5.773540397058241e-05,15965.0,28829.0,30882.0,16757.0,0.05269589275121689,0.11005407571792603,0.1204383373260498,0.05584530532360077,0.0,0.0,0.0,0.0,16554.0,28474.0,31224.0,16171.0,0.3390336036682129,0.0,0.0,0.0,0.0,0.0,0.0
446,5,0.0,0.0,0.0,0.0,-0.0,-0.0,-0.01898084580898285,0.019073426723480225,0.0030726762488484383,0.06162405386567116,-1.8407052755355835,0.02509303018450737,0.0,0.0,0.0,-0.0,-0.0,-0.0,0.0,0.0,0.0,0.00047437252942472696,-0.004999999888241291,0.00012536541908048093,16892.0,28318.0,31373.0,15828.0,0.056385401636362076,0.10751941800117493,0.1229729950428009,0.05215579643845558,0.0,0.0,0.0,0.0,16764.0,28340.0,31352.0,15958.0,0.3390336036682129,0.0,0.0,0.0,0.0,0.0,0.0
451,5,0.0,0.0,0.0,0.0,-0.0,-0.0,-0.01898084580898285,0.019073426723480225,0.0030726762488484383,0.06162405386567116,-1.8407052755355835,0.02509303018450737,0.0,0.0,0.0,-0.0,-0.0,-0.0,0.0,0.0,0.0,0.00047437252942472696,-0.004999999888241291,0.00012536541908048093,16892.0,28318.0,31373.0,15828.0,0.056385401636362076,0.10751941800117493,0.1229729950428009,0.05215579643845558,0.0,0.0,0.0,0.0,16764.0,28340.0,31352.0,15958.0,0.3390336036682129,0.0,0.0,0.0,0.0,0.0,0.0
456,5,0.0,0.0,0.0,0.0,-0.0,-0.0,-0.01885666884481907,0.034244176000356674,0.003508226480334997,0.02293100766837597,-1.9509375095367432,0.023958425968885422,0.0,0.0,0.0,-0.0,-0.0,-0.0,0.0,0.0,0.0,0.0005147121846675873,-0.004999999888241291,0.00014781717618461698,16799.0,28230.0,31457.0,15923.0,0.05601112172007561,0.10708696395158768,0.12340544909238815,0.05253007635474205,0.0,0.0,0.0,0.0,16881.0,28203.0,31482.0,15839.0,0.3390336036682129,0.0,0.0,0.0,0.0,0.0,0.0
461,5,0.0,0.0,0.0,0.0,-0.0,-0.0,-0.01885666884481907,0.034244176000356674,0.003508226480334997,0.02293100766837597,-1.9509375095367432,0.023958425968885422,0.0,0.0,0.0,-0.0,-0.0,-0.0,0.0,0.0,0.0,0.0005147121846675873,-0.004999999888241291,0.00014781717618461698,16799.0,28230.0,31457.0,15923.0,0.05601112172007561,0.10708696395158768,0.12340544909238815,0.05253007635474205,0.0,0.0,0.0,0.0,16881.0,28203.0,31482.0,15839.0,0.3390336036682129,0.0,0.0,0.0,0.0,0.0,0.0
467,5,0.0,0.0,0.0,0.0,-0.0,-0.0,-0.01859898492693901,0.05701819434762001,0.004227077588438988,0.0083790123462677,-1.9715029001235962,0.0217579435557127,0.0,0.0,0.0,-0.0,-0.0,-0.0,0.0,0.0,0.0,0.0004371578397694975,-0.004999999888241291,0.00020271878747735173,17580.0,27808.0,31855.0,15114.0,0.059169139713048935,0.10501647740602493,0.1254759281873703,0.04937205836176872,0.0,0.0,0.0,0.0,17265.0,28038.0,31639.0,15444.0,0.3390336036682129,0.0,0.0,0.0,0.0,0.0,0.0
472,5,0.0,0.0,0.0,0.0,-0.0,-0.0,-0.01859898492693901,0.05701819434762001,0.004227077588438988,0.0083790123462677,-1.9715029001235962,0.0217579435557127,0.0,0.0,0.0,-0.0,-0.0,-0.0,0.0,0.0,0.0,0.0004371578397694975,-0.004999999888241291,0.00020271878747735173,17580.0,27808.0,31855.0,15114.0,0.059169139713048935,0.10501647740602493,0.1254759281873703,0.04937205836176872,0.0,0.0,0.0,0.0,17265.0,28038.0,31639.0,15444.0,0.3390336036682129,0.0,0.0,0.0,0.0,0.0,0.0
477,5,0.0,0.0,0.0,0.0,-0.0,-0.0,-0.01834994927048683,0.07201926410198212,0.0047537493519485,0.022670798003673553,-1.8923720121383667,0.03903445228934288,0.0,0.0,0.0,-0.0,-0.0,-0.0,0.0,0.0,0.0,0.00037610920844599605,-0.004999999888241291,0.00020818007760681212,17601.0,27909.0,31760.0,15093.0,0.05925348401069641,0.10551013052463531,0.12498228251934052,0.049287714064121246,0.0,0.0,0.0,0.0,17928.0,27592.0,32056.0,14746.0,0.3390336036682129,0.0,0.0,0.0,0.0,0.0,0.0
482,5,0.0,0.0,0.0,0.0,-0.0,-0.0,-0.01834994927048683,0.07201926410198212,0.0047537493519485,0.022670798003673553,-1.8923720121383667,0.03903445228934288,0.0,0.0,0.0,-0.0,-0.0,-0.0,0.0,0.0,0.0,0.00037610920844599605,-0.004999999888241291,0.00020818007760681212,17601.0,27909.0,31760.0,15093.0,0.05925348401069641,0.10551013052463531,0.12498228251934052,0.049287714064121246,0.0,0.0,0.0,0.0,17928.0,27592.0,32056.0,14746.0,0.3390336036682129,0.0,0.0,0.0,0.0,0.0,0.0
487,5,0.0,0.0,0.0,0.0,-0.0,-0.0,-0.017732586711645126,0.09366410225629807,0.005558689124882221,0.0690666064620018,-1.7713546752929688,0.01580062322318554,0.0,0.0,0.0,-0.0,-0.0,-0.0,0.0,0.0,0.0,0.0004939574864692986,-0.004999999888241291,0.00017800169007387012,17268.0,27926.0,31744.0,15441.0,0.05790051817893982,0.10559241473674774,0.12489999830722809,0.05064067989587784,0.0,0.0,0.0,0.0,17546.0,27923.0,31746.0,15151.0,0.3390336036682129,0.0,0.0,0.0,0.0,0.0,0.0
492,5,0.0,0.0,0.0,0.0,-0.0,-0.0,-0.017732586711645126,0.09366410225629807,0.005558689124882221,0.0690666064620018,-1.7713546752929688,0.01580062322318554,0.0,0.0,0.0,-0.0,-0.0,-0.0,0.0,0.0,0.0,0.0004939574864692986,-0.004999999888241291,0.00017800169007387012,17268.0,27926.0,31744.0,15441.0,0.05790051817893982,0.10559241473674774,0.12489999830722809,0.05064067989587784,0.0,0.0,0.0,0.0,17546.0,27923.0,31746.0,15151.0,0.3390336036682129,0.0,0.0,0.0,0.0,0.0,0.0
497,5,0.0,0.0,0.0,0.0,-0.0,-0.0,-0.0178315881639719,0.12592270970344543,0.005921695381402969,-0.012500864453613758,-1.475142478942871,-0.028480831533670425,0.0,0.0,0.0,-0.0,-0.0,-0.0,0.0,0.0,0.0,0.0005769083509221673,-0.004999999888241291,0.00016430990945082158,16943.0,28012.0,31663.0,15776.0,0.056589674204587936,0.10601728409528732,0.12447512894868851,0.05195152387022972,0.0,0.0,0.0,0.0,16995.0,28027.0,31649.0,15722.0,0.3390336036682129,0.0,0.0,0.0,0.0,0.0,0.0
502,5,0.0,0.0,0.0,0.0,-0.0,-0.0,-0.0178315881639719,0.12592270970344543,0.005921695381402969,-0.012500864453613758,-1.475142478942871,-0.028480831533670425,0.0,0.0,0.0,-0.0,-0.0,-0.0,0.0,0.0,0.0,0.0005769083509221673,-0.004999999888241291,0.00016430990945082158,16943.0,28012.0,31663.0,15776.0,0.056589674204587936,0.10601728409528732,0.12447512894868851,0.05195152387022972,0.0,0.0,0.0,0.0,16995.0,28027.0,31649.0,15722.0,0.3390336036682129,0.0,0.0,0.0,0.0,0.0,0.0
507,5,0.0,0.0,0.0,0.0,-0.0,-0.0,-0.01762606017291546,0.13671961426734924,0.005874793976545334,0.06294229626655579,-1.2045656442642212,-0.04454074427485466,0.0,0.0,0.0,-0.0,-0.0,-0.0,0.0,0.0,0.0,0.0004441570781636983,-0.004999999888241291,0.00012588390382006764,16861.0,28383.0,31311.0,15860.0,0.05625949054956436,0.10784077644348145,0.12265163660049438,0.052281707525253296,0.0,0.0,0.0,0.0,16893.0,28191.0,31493.0,15827.0,0.3390336036682129,0.0,0.0,0.0,0.0,0.0,0.0
512,5,0.0,0.0,0.0,0.0,-0.0,-0.0,-0.01762606017291546,0.13671961426734924,0.005874793976545334,0.06294229626655579,-1.2045656442642212,-0.04454074427485466,0.0,0.0,0.0,-0.0,-0.0,-0.0,0.0,0.0,0.0,0.0004441570781636983,-0.004999999888241291,0.00012588390382006764,16861.0,28383.0,31311.0,15860.0,0.05625949054956436,0.10784077644348145,0.12265163660049438,0.052281707525253296,0.0,0.0,0.0,0.0,16893.0,28191.0,31493.0,15827.0,0.3390336036682129,0.0,0.0,0.0,0.0,0.0,0.0
517,5,0.0,0.0,0.0,0.0,-0.0,-0.0,-0.01762606017291546,0.13671961426734924,0.005874793976545334,0.06294229626655579,-1.2045656442642212,-0.04454074427485466,0.0,0.0,0.0,-0.0,-0.0,-0.0,0.0,0.0,0.0,0.0004441570781636983,-0.004999999888241291,0.00012588390382006764,16861.0,28383.0,31311.0,15860.0,0.05625949054956436,0.10784077644348145,0.12265163660049438,0.052281707525253296,0.0,0.0,0.0,0.0,16893.0,28191.0,31493.0,15827.0,0.3390336036682129,0.0,0.0,0.0,0.0,0.0,0.0
522,5,0.0,0.0,0.0,0.0,-0.0,-0.0,-0.0168293584138155,0.1496904045343399,0.0053816549479961395,0.08680812269449234,-0.9610030055046082,-0.06280162930488586,0.0,0.0,0.0,-0.0,-0.0,-0.0,0.0,0.0,0.0,0.000416090915678069,-0.004999999888241291,5.614638212136924e-05,16349.0,28987.0,30729.0,16376.0,0.05421603471040726,0.11084021627902985,0.11965219676494598,0.0543251633644104,0.0,0.0,0.0,0.0,16599.0,28663.0,31042.0,16125.0,0.3390336036682129,0.0,0.0,0.0,0.0,0.0,0.0
527,5,0.0,0.0,0.0,0.0,-0.0,-0.0,-0.0168293584138155,0.1496904045343399,0.0053816549479961395,0.08680812269449234,-0.9610030055046082,-0.06280162930488586,0.0,0.0,0.0,-0.0,-0.0,-0.0,0.0,0.0,0.0,0.000416090915678069,-0.004999999888241291,5.614638212136924e-05,16349.0,28987.0,30729.0,16376.0,0.05421603471040726,0.11084021627902985,0.11965219676494598,0.0543251633644104,0.0,0.0,0.0,0.0,16599.0,28663.0,31042.0,16125.0,0.3390336036682129,0.0,0.0,0.0,0.0,0.0,0.0
532,5,0.0,0.0,0.0,0.0,-0.0,-0.0,-0.016242792829871178,0.15598523616790771,0.005361495073884726,0.0734882578253746,-0.7455042600631714,0.009228574112057686,0.0,0.0,0.0,-0.0,-0.0,-0.0,0.0,0.0,0.0,0.00035123666748404503,-0.004999999888241291,0.0001637187524465844,17351.0,28211.0,31474.0,15354.0,0.05823782458901405,0.1069956123828888,0.12349680066108704,0.050303373485803604,0.0,0.0,0.0,0.0,16692.0,28601.0,31102.0,16031.0,0.3390336036682129,0.0,0.0,0.0,0.0,0.0,0.0
538,5,0.0,0.0,0.0,0.0,-0.0,-0.0,-0.016242792829871178,0.15598523616790771,0.005361495073884726,0.0734882578253746,-0.7455042600631714,0.009228574112057686,0.0,0.0,0.0,-0.0,-0.0,-0.0,0.0,0.0,0.0,0.00035123666748404503,-0.004999999888241291,0.0001637187524465844,17351.0,28211.0,31474.0,15354.0,0.05823782458901405,0.1069956123828888,0.12349680066108704,0.050303373485803604,0.0,0.0,0.0,0.0,16692.0,28601.0,31102.0,16031.0,0.3390336036682129,0.0,0.0,0.0,0.0,0.0,0.0
543,5,0.0,0.0,0.0,0.0,-0.0,-0.0,-0.015891550108790398,0.16267861425876617,0.005830499343574047,0.019641302525997162,-0.4559136927127838,0.026612795889377594,0.0,0.0,0.0,-0.0,-0.0,-0.0,0.0,0.0,0.0,0.00036355110933072865,-0.004999999888241291,0.0002136355178663507,17855.0,27713.0,31944.0,14824.0,0.06028999388217926,0.10455147176980972,0.1259409487247467,0.0482512041926384,0.0,0.0,0.0,0.0,17476.0,28024.0,31652.0,15224.0,0.3390336036682129,0.0,0.0,0.0,0.0,0.0,0.0
548,5,0.0,0.0,0.0,0.0,-0.0,-0.0,-0.015891550108790398,0.16267861425876617,0.005830499343574047,0.019641302525997162,-0.4559136927127838,0.026612795889377594,0.0,0.0,0.0,-0.0,-0.0,-0.0,0.0,0.0,0.0,0.00036355110933072865,-0.004999999888241291,0.0002136355178663507,17855.0,27713.0,31944.0,14824.0,0.06028999388217926,0.10455147176980972,0.1259409487247467,0.0482512041926384,0.0,0.0,0.0,0.0,17476.0,28024.0,31652.0,15224.0,0.3390336036682129,0.0,0.0,0.0,0.0,0.0,0.0
553,5,0.0,0.0,0.0,0.0,-0.0,-0.0,-0.015628216788172722,0.164448544383049,0.006077064201235771,0.04283703863620758,-0.12248379737138748,0.05923086404800415,0.0,0.0,0.0,-0.0,-0.0,-0.0,0.0,0.0,0.0,0.00038308172952383757,-0.004999999888241291,0.00024396258231718093,18037.0,27561.0,32086.0,14629.0,0.0610378198325634,0.10380726307630539,0.12668514251708984,0.04750337824225426,0.0,0.0,0.0,0.0,18500.0,26849.0,32657.0,14245.0,0.3390336036682129,0.0,0.0,0.0,0.0,0.0,0.0
558,5,0.0,0.0,0.0,0.0,-0.0,-0.0,-0.015628216788172722,0.164448544383049,0.006077064201235771,0.04283703863620758,-0.12248379737138748,0.05923086404800415,0.0,0.0,0.0,-0.0,-0.0,-0.0,0.0,0.0,0.0,0.00038308172952383757,-0.004999999888241291,0.00024396258231718093,18037.0,27561.0,32086.0,14629.0,0.0610378198325634,0.10380726307630539,0.12668514251708984,0.04750337824225426,0.0,0.0,0.0,0.0,18500.0,26849.0,32657.0,14245.0,0.3390336036682129,0.0,0.0,0.0,0.0,0.0,0.0
563,5,0.0,0.0,0.0,0.0,-0.0,-0.0,-0.015756642445921898,0.16313430666923523,0.0067153386771678925,-0.02576732076704502,0.2648036479949951,0.03767867758870125,0.0,0.0,0.0,-0.0,-0.0,-0.0,0.0,0.0,0.0,0.000511444581206888,-0.0039758640341460705,0.0003041233867406845,20126.0,25400.0,31006.0,16469.0,0.06979668140411377,0.09346646070480347,0.12107524275779724,0.05469522252678871,0.0,0.0,0.0,0.0,21080.0,24516.0,29889.0,17883.0,0.3390336036682129,0.0,0.0,0.0,0.0,0.0,0.0
568,5,0.0,0.0,0.0,0.0,-0.0,-0.0,-0.015756642445921898,0.16313430666923523,0.0067153386771678925,-0.02576732076704502,0.2648036479949951,0.03767867758870125,0.0,0.0,0.0,-0.0,-0.0,-0.0,0.0,0.0,0.0,0.000511444581206888,-0.0039758640341460705,0.0003041233867406845,20126.0,25400.0,31006.0,16469.0,0.06979668140411377,0.09346646070480347,0.12107524275779724,0.05469522252678871,0.0,0.0,0.0,0.0,21080.0,24516.0,29889.0,17883.0,0.3390336036682129,0.0,0.0,0.0,0.0,0.0,0.0
573,5,0.0,0.0,0.0,0.0,-0.0,-0.0,-0.01603967323899269,0.15945734083652496,0.006863440852612257,0.004582056775689125,0.5832552313804626,0.021140368655323982,0.0,0.0,0.0,-0.0,-0.0,-0.0,0.0,0.0,0.0,0.0005126888281665742,-0.0017935073701664805,0.00022812494717072695,22786.0,22939.0,27896.0,20173.0,0.08145327121019363,0.08214085549116135,0.10544482618570328,0.06999465078115463,0.0,0.0,0.0,0.0,23889.0,21519.0,27202.0,21258.0,0.3390336036682129,0.0,0.0,0.0,0.0,0.0,0.0
578,5,0.0,0.0,0.0,0.0,-0.0,-0.0,-0.01603967323899269,0.15945734083652496,0.006863440852612257,0.004582056775689125,0.5832552313804626,0.021140368655323982,0.0,0.0,0.0,-0.0,-0.0,-0.0,0.0,0.0,0.0,0.0005126888281665742,-0.0017935073701664805,0.00022812494717072695,22786.0,22939.0,27896.0,20173.0,0.08145327121019363,0.08214085549116135,0.10544482618570328,0.06999465078115463,0.0,0.0,0.0,0.0,23889.0,21519.0,27202.0,21258.0,0.3390336036682129,0.0,0.0,0.0,0.0,0.0,0.0
583,5,0.0,0.0,0.0,0.0,-0.0,-0.0,-0.01671721786260605,0.14961542189121246,0.006766159553080797,-0.055207133293151855,0.9822944402694702,-0.016385074704885483,0.0,0.0,0.0,-0.0,-0.0,-0.0,0.0,0.0,0.0,0.0004768393118865788,0.002838306361809373,0.00017180836584884673,25492.0,19949.0,24600.0,23870.0,0.0938994511961937,0.0690385028719902,0.08972973376512527,0.08636591583490372,0.0,0.0,0.0,0.0,26644.0,18764.0,23501.0,24857.0,0.3390336036682129,0.0,0.0,0.0,0.0,0.0,0.0
588,5,0.0,0.0,0.0,0.0,-0.0,-0.0,-0.01671721786260605,0.14961542189121246,0.006766159553080797,-0.055207133293151855,0.9822944402694702,-0.016385074704885483,0.0,0.0,0.0,-0.0,-0.0,-0.0,0.0,0.0,0.0,0.0004768393118865788,0.002838306361809373,0.00017180836584884673,25492.0,19949.0,24600.0,23870.0,0.0938994511961937,0.0690385028719902,0.08972973376512527,0.08636591583490372,0.0,0.0,0.0,0.0,26644.0,18764.0,23501.0,24857.0,0.3390336036682129,0.0,0.0,0.0,0.0,0.0,0.0
593,5,0.0,0.0,0.0,0.0,-0.0,-0.0,-0.01671721786260605,0.14961542189121246,0.006766159553080797,-0.055207133293151855,0.9822944402694702,-0.016385074704885483,0.0,0.0,0.0,-0.0,-0.0,-0.0,0.0,0.0,0.0,0.0004768393118865788,0.002838306361809373,0.00017180836584884673,25492.0,19949.0,24600.0,23870.0,0.0938994511961937,0.0690385028719902,0.08972973376512527,0.08636591583490372,0.0,0.0,0.0,0.0,26644.0,18764.0,23501.0,24857.0,0.3390336036682129,0.0,0.0,0.0,0.0,0.0,0.0
598,5,0.0,0.0,0.0,0.0,-0.0,-0.0,-0.016738398000597954,0.14028780162334442,0.006505193654447794,-0.022728821262717247,1.2304843664169312,-0.001165861962363124,0.0,0.0,0.0,-0.0,-0.0,-0.0,0.0,0.0,0.0,0.0004764355253428221,0.004999999888241291,0.00010506016405997798,28052.0,17198.0,21838.0,26351.0,0.10621416568756104,0.057617709040641785,0.07723274827003479,0.09796898066997528,0.0,0.0,0.0,0.0,29654.0,15261.0,19592.0,28290.0,0.3390336036682129,0.0,0.0,0.0,0.0,0.0,0.0
603,5,0.0,0.0,0.0,0.0,-0.0,-0.0,-0.016738398000597954,0.14028780162334442,0.006505193654447794,-0.022728821262717247,1.2304843664169312,-0.001165861962363124,0.0,0.0,0.0,-0.0,-0.0,-0.0,0.0,0.0,0.0,0.0004764355253428221,0.004999999888241291,0.00010506016405997798,28052.0,17198.0,21838.0,26351.0,0.10621416568756104,0.057617709040641785,0.07723274827003479,0.09796898066997528,0.0,0.0,0.0,0.0,29654.0,15261.0,19592.0,28290.0,0.3390336036682129,0.0,0.0,0.0,0.0,0.0,0.0
608,5,0.0,0.0,0.0,0.0,-0.0,-0.0,-0.01663726195693016,0.1283678114414215,0.006085507571697235,-0.030270462855696678,1.563145637512207,-0.05719437077641487,0.0,0.0,0.0,-0.0,-0.0,-0.0,0.0,0.0,0.0,0.00048728391993790865,0.004999999888241291,0.00016092589066829532,30455.0,14083.0,18541.0,29267.0,0.11825048923492432,0.04542159289121628,0.06311960518360138,0.11224192380905151,0.0,0.0,0.0,0.0,30130.0,14430.0,18223.0,29597.0,0.3390336036682129,0.0,0.0,0.0,0.0,0.0,0.0
614,5,0.0,0.0,0.0,0.0,-0.0,-0.0,-0.01663726195693016,0.1283678114414215,0.006085507571697235,-0.030270462855696678,1.563145637512207,-0.05719437077641487,0.0,0.0,0.0,-0.0,-0.0,-0.0,0.0,0.0,0.0,0.00048728391993790865,0.004999999888241291,0.00016092589066829532,30455.0,14083.0,18541.0,29267.0,0.11825048923492432,0.04542159289121628,0.06311960518360138,0.11224192380905151,0.0,0.0,0.0,0.0,30130.0,14430.0,18223.0,29597.0,0.3390336036682129,0.0,0.0,0.0,0.0,0.0,0.0
619,5,0.0,0.0,0.0,0.0,-0.0,-0.0,-0.016910996288061142,0.09441318362951279,0.005251461174339056,0.00862470269203186,1.8007627725601196,0.004475895315408707,0.0,0.0,0.0,-0.0,-0.0,-0.0,0.0,0.0,0.0,0.000532140547875315,0.004999999888241291,0.0001747213100316003,30536.0,13875.0,18731.0,29185.0,0.11866313964128494,0.044633131474256516,0.06390807032585144,0.11182927340269089,0.0,0.0,0.0,0.0,30722.0,13719.0,18872.0,28994.0,0.3390336036682129,0.0,0.0,0.0,0.0,0.0,0.0
624,5,0.0,0.0,0.0,0.0,-0.0,-0.0,-0.016910996288061142,0.09441318362951279,0.005251461174339056,0.00862470269203186,1.8007627725601196,0.004475895315408707,0.0,0.0,0.0,-0.0,-0.0,-0.0,0.0,0.0,0.0,0.000532140547875315,0.004999999888241291,0.0001747213100316003,30536.0,13875.0,18731.0,29185.0,0.11866313964128494,0.044633131474256516,0.06390807032585144,0.11182927340269089,0.0,0.0,0.0,0.0,30722.0,13719.0,18872.0,28994.0,0.3390336036682129,0.0,0.0,0.0,0.0,0.0,0.0
629,5,0.0,0.0,0.0,0.0,-0.0,-0.0,-0.01674036495387554,0.07295124977827072,0.005272748414427042,0.03243715316057205,1.76181960105896,0.05928993597626686,0.0,0.0,0.0,-0.0,-0.0,-0.0,0.0,0.0,0.0,0.00047838021419011056,0.004999999888241291,0.00022999054635874927,31135.0,13245.0,19295.0,28566.0,0.12174353748559952,0.04227180778980255,0.0662693902850151,0.10874887555837631,0.0,0.0,0.0,0.0,30780.0,13582.0,18995.0,28934.0,0.3390336036682129,0.0,0.0,0.0,0.0,0.0,0.0
634,5,0.0,0.0,0.0,0.0,-0.0,-0.0,-0.01674036495387554,0.07295124977827072,0.005272748414427042,0.03243715316057205,1.76181960105896,0.05928993597626686,0.0,0.0,0.0,-0.0,-0.0,-0.0,0.0,0.0,0.0,0.00047838021419011056,0.004999999888241291,0.00022999054635874927,31135.0,13245.0,19295.0,28566.0,0.12174353748559952,0.04227180778980255,0.0662693902850151,0.10874887555837631,0.0,0.0,0.0,0.0,30780.0,13582.0,18995.0,28934.0,0.3390336036682129,0.0,0.0,0.0,0.0,0.0,0.0
639,5,0.0,0.0,0.0,0.0,-0.0,-0.0,-0.01695517636835575,0.0593140684068203,0.005740465596318245,-0.011924972757697105,1.7007383108139038,0.11243279278278351,0.0,0.0,0.0,-0.0,-0.0,-0.0,0.0,0.0,0.0,0.0005343626835383475,0.004999999888241291,0.0003348476893734187,31774.0,12095.0,20290.0,27894.0,0.1250576376914978,0.0380420945584774,0.07049910724163055,0.10543478280305862,0.0,0.0,0.0,0.0,31382.0,12742.0,19736.0,28309.0,0.3390336036682129,0.0,0.0,0.0,0.0,0.0,0.0
644,5,0.0,0.0,0.0,0.0,-0.0,-0.0,-0.01695517636835575,0.0593140684068203,0.005740465596318245,-0.011924972757697105,1.7007383108139038,0.11243279278278351,0.0,0.0,0.0,-0.0,-0.0,-0.0,0.0,0.0,0.0,0.0005343626835383475,0.004999999888241291,0.0003348476893734187,31774.0,12095.0,20290.0,27894.0,0.1250576376914978,0.0380420945584774,0.07049910724163055,0.10543478280305862,0.0,0.0,0.0,0.0,31382.0,12742.0,19736.0,28309.0,0.3390336036682129,0.0,0.0,0.0,0.0,0.0,0.0
649,5,0.0,0.0,0.0,0.0,-0.0,-0.0,-0.01745511032640934,0.03991997614502907,0.006664015352725983,-0.04523616284132004,1.6009341478347778,0.09412374347448349,0.0,0.0,0.0,-0.0,-0.0,-0.0,0.0,0.0,0.0,0.0005760377389378846,0.004999999888241291,0.0003460274019744247,31735.0,11962.0,20403.0,27936.0,0.12485166639089584,0.03755977377295494,0.07098142057657242,0.10564074665307999,0.0,0.0,0.0,0.0,31725.0,12116.0,20273.0,27946.0,0.3390336036682129,0.0,0.0,0.0,0.0,0.0,0.0
654,5,0.0,0.0,0.0,0.0,-0.0,-0.0,-0.01745511032640934,0.03991997614502907,0.006664015352725983,-0.04523616284132004,1.6009341478347778,0.09412374347448349,0.0,0.0,0.0,-0.0,-0.0,-0.0,0.0,0.0,0.0,0.0005760377389378846,0.004999999888241291,0.0003460274019744247,31735.0,11962.0,20403.0,27936.0,0.12485166639089584,0.03755977377295494,0.07098142057657242,0.10564074665307999,0.0,0.0,0.0,0.0,31725.0,12116.0,20273.0,27946.0,0.3390336036682129,0.0,0.0,0.0,0.0,0.0,0.0
659,5,0.0,0.0,0.0,0.0,-0.0,-0.0,-0.017884301021695137,0.028685439378023148,0.006702865473926067,-0.05394233018159866,1.4001773595809937,-0.02875198796391487,0.0,0.0,0.0,-0.0,-0.0,-0.0,0.0,0.0,0.0,0.000585711735766381,0.004999999888241291,0.00018919188005384058,30393.0,13848.0,18755.0,29331.0,0.11793199926614761,0.04453236609697342,0.06400883197784424,0.11256041377782822,0.0,0.0,0.0,0.0,30211.0,14080.0,18545.0,29515.0,0.3390336036682129,0.0,0.0,0.0,0.0,0.0,0.0
664,5,0.0,0.0,0.0,0.0,-0.0,-0.0,-0.017884301021695137,0.028685439378023148,0.006702865473926067,-0.05394233018159866,1.4001773595809937,-0.02875198796391487,0.0,0.0,0.0,-0.0,-0.0,-0.0,0.0,0.0,0.0,0.000585711735766381,0.004999999888241291,0.00018919188005384058,30393.0,13848.0,18755.0,29331.0,0.11793199926614761,0.04453236609697342,0.06400883197784424,0.11256041377782822,0.0,0.0,0.0,0.0,30211.0,14080.0,18545.0,29515.0,0.3390336036682129,0.0,0.0,0.0,0.0,0.0,0.0
669,5,0.0,0.0,0.0,0.0,-0.0,-0.0,-0.018311941996216774,0.01345975324511528,0.006007581017911434,-0.010509304702281952,1.1707870960235596,-0.037053681910037994,0.0,0.0,0.0,-0.0,-0.0,-0.0,0.0,0.0,0.0,0.0005587474443018436,0.004999999888241291,0.00013801762543153018,30195.0,14284.0,18358.0,29531.0,0.11692731827497482,0.04618341848254204,0.06235777959227562,0.11356509476900101,0.0,0.0,0.0,0.0,30189.0,14250.0,18389.0,29537.0,0.3390336036682129,0.0,0.0,0.0,0.0,0.0,0.0
675,5,0.0,0.0,0.0,0.0,-0.0,-0.0,-0.018311941996216774,0.01345975324511528,0.006007581017911434,-0.010509304702281952,1.1707870960235596,-0.037053681910037994,0.0,0.0,0.0,-0.0,-0.0,-0.0,0.0,0.0,0.0,0.0005587474443018436,0.004999999888241291,0.00013801762543153018,30195.0,14284.0,18358.0,29531.0,0.11692731827497482,0.04618341848254204,0.06235777959227562,0.11356509476900101,0.0,0.0,0.0,0.0,30189.0,14250.0,18389.0,29537.0,0.3390336036682129,0.0,0.0,0.0,0.0,0.0,0.0
680,5,0.0,0.0,0.0,0.0,-0.0,-0.0,-0.01843218319118023,0.005941526498645544,0.0056246621534228325,0.02799551747739315,0.8767744302749634,-0.0075210100039839745,0.0,0.0,0.0,-0.0,-0.0,-0.0,0.0,0.0,0.0,0.0005202608881518245,0.00452007632702589,0.00013098375347908586,30052.0,14620.0,18927.0,28947.0,0.11619976162910461,0.047466568648815155,0.06472621858119965,0.11064104735851288,0.0,0.0,0.0,0.0,28607.0,16321.0,20452.0,27761.0,0.3390336036682129,0.0,0.0,0.0,0.0,0.0,0.0
685,5,0.0,0.0,0.0,0.0,-0.0,-0.0,-0.01843218319118023,0.005941526498645544,0.0056246621534228325,0.02799551747739315,0.8767744302749634,-0.0075210100039839745,0.0,0.0,0.0,-0.0,-0.0,-0.0,0.0,0.0,0.0,0.0005202608881518245,0.00452007632702589,0.00013098375347908586,30052.0,14620.0,18927.0,28947.0,0.11619976162910461,0.047466568648815155,0.06472621858119965,0.11064104735851288,0.0,0.0,0.0,0.0,28607.0,16321.0,20452.0,27761.0,0.3390336036682129,0.0,0.0,0.0,0.0,0.0,0.0
