timestamp,dt,pos_x,pos_y,pos_z,vel_x,vel_y,vel_z,roll,pitch,yaw,agv_x,agv_y,agv_z,x_ref,y_ref,z_ref,roll_ref,pitch_ref,yaw_ref,x_vel_ref,y_vel_ref,z_vel_ref,x_torque,y_torque,z_torque,w0,w1,w2,w3,u0,u1,u2,u3,m0req,m1req,m2req,m3req,thrust0,thrust1,thrust2,thrust3,thrust_ref,roll_vicon,pitch_vicon,yaw_vicon,acc_x,acc_y,acc_z
5,5,0.0,0.0,0.0,0.0022770226933062077,0.0021118365693837404,-0.0038887308910489082,-0.016101239249110222,0.4977075159549713,-0.003133348887786269,-0.001368050230666995,0.0029041748493909836,0.002913870383054018,0.0,0.0,0.0,-0.002152729546651244,0.002321119885891676,-0.0,0.0,0.0,0.0,0.0004538074426818639,-0.004999999888241291,-8.568447083234787e-05,0.0,0.0,0.0,0.0,0.0,0.0,0.0,0.0,0.0,0.0,0.0,0.0,0.0,0.0,0.0,0.0,0.339035302400589,-0.106115021745961,-0.5907243801499134,-0.015988464382757868,-0.00910809077322483,-0.008447346277534962,0.011666192673146725
26,21,0.0,0.0,0.0,-0.005535172298550606,-0.00527274189516902,0.0024123359471559525,-0.016101239249110222,0.4977075159549713,-0.003133348887786269,-0.001368050230666995,0.0029041748493909836,0.002913870383054018,0.0,0.0,0.0,0.005374726839363575,-0.005642317701131105,-0.0,0.0,0.0,0.0,0.0004538074426818639,-0.004999999888241291,-8.568447083234787e-05,0.0,0.0,0.0,0.0,0.0,0.0,0.0,0.0,0.0,0.0,0.0,0.0,0.0,0.0,0.0,0.0,0.33904388546943665,-0.10571822406040149,-0.5914858994584278,-0.01648891553351249,0.022140689194202423,0.02109096758067608,-0.007237007841467857
31,5,0.0,0.0,0.0,-1.2571816796480562e-06,-0.0007045992533676326,-0.0004597203223966062,-0.016097292304039,0.49773696064949036,-0.0031163962557911873,0.0009535722783766687,-0.0020764695946127176,-0.0017777151660993695,0.0,0.0,0.0,0.0007182458066381514,-1.2815307854907587e-06,-0.0,0.0,0.0,0.0,0.00045507855247706175,-0.004999999888241291,-9.945885540219024e-05,0.0,0.0,0.0,0.0,0.0,0.0,0.0,0.0,0.0,0.0,0.0,0.0,0.0,0.0,0.0,0.0,0.33903369307518005,-0.10451599950211912,-0.589728047765185,-0.015487091802012931,5.028726718592225e-06,0.0028183970134705305,0.0013791609089821577
36,5,0.0,0.0,0.0,0.0033023490104824305,0.005475974641740322,0.00034154189052060246,-0.016097292304039,0.49773696064949036,-0.0031163962557911873,0.0009535722783766687,-0.0020764695946127176,-0.0017777151660993695,0.0,0.0,0.0,-0.005581943783909082,0.0033662961795926094,-0.0,0.0,0.0,0.0,0.00045507855247706175,-0.004999999888241291,-9.945885540219024e-05,0.0,0.0,0.0,0.0,0.0,0.0,0.0,0.0,0.0,0.0,0.0,0.0,0.0,0.0,0.0,0.0,0.3390408158302307,-0.10535235229286101,-0.5904660732378426,-0.016004450375696873,-0.013209396041929722,-0.02190389856696129,-0.0010246257297694683
42,6,0.0,0.0,0.0,-0.0013352337991818786,-0.0018296141643077135,0.0004821305628865957,-0.0161204282194376,0.4977364242076874,-0.0031066634692251682,-0.0047734323889017105,0.0014297061134129763,0.002664725761860609,0.0,0.0,0.0,0.0018650462152436376,-0.0013610937166959047,-0.0,0.0,0.0,0.0,0.0006975324940867722,-0.004999999888241291,-6.0121881688246503e-05,14394.0,29653.0,30075.0,18257.0,0.0466022826731205,0.11418035626411438,0.11631719768047333,0.061944056302309036,0.0,0.0,0.0,0.0,14378.0,29667.0,30061.0,18272.0,0.3390344977378845,-0.10490126486595591,-0.5898783871423716,-0.015762604709954164,0.005340935196727514,0.007318456657230854,-0.0014463916886597872
54,11,0.0,0.0,0.0,-0.010055331513285637,-0.012012926861643791,0.006128706503659487,-0.0161204282194376,0.4977364242076874,-0.0031066634692251682,-0.0047734323889017105,0.0014297061134129763,0.002664725761860609,0.0,0.0,0.0,0.012244338169693947,-0.010249723680317402,-0.0,0.0,0.0,0.0,0.0006975324940867722,-0.004999999888241291,-6.0121881688246503e-05,14394.0,29653.0,30075.0,18257.0,0.0466022826731205,0.11418035626411438,0.11631719768047333,0.061944056302309036,0.0,0.0,0.0,0.0,14378.0,29667.0,30061.0,18272.0,0.33907681703567505,-0.10612906562865144,-0.5841896895952556,-0.014097186978797924,0.04022132605314255,0.048051707446575165,-0.018386119976639748
59,5,0.0,0.0,0.0,0.03658987954258919,0.044569458812475204,-0.008890803903341293,-0.0161204282194376,0.4977364242076874,-0.0031066634692251682,-0.0047734323889017105,0.0014297061134129763,0.002664725761860609,0.0,0.0,0.0,-0.054323624819517136,0.03433264046907425,-0.0,0.0,0.0,0.0,0.0006975324940867722,-0.004999999888241291,-6.0121881688246503e-05,14394.0,29653.0,30075.0,18257.0,0.0466022826731205,0.11418035626411438,0.11631719768047333,0.061944056302309036,0.0,0.0,0.0,0.0,14378.0,29667.0,30061.0,18272.0,0.36893847584724426,-0.13472325014224984,-0.5966263953318659,-0.025858606509287625,-0.14635951817035675,-0.17827783524990082,0.02667241171002388
64,5,-0.00020843120000790805,0.0004509584396146238,-6.505838973680511e-05,-0.0033150219824165106,-0.045167598873376846,0.0014092924538999796,-0.016357937827706337,0.4982977509498596,-0.002746131969615817,-0.0034482215996831656,-0.05316162109375,-0.0031027942895889282,0.0,0.0,0.0,0.05754511058330536,-0.00350880715996027,-0.0,0.0,0.0,0.0,0.00037548772525042295,-0.004999999888241291,-5.9284328017383814e-05,15097.0,29955.0,29774.0,17597.0,0.049306049942970276,0.11570606380701065,0.11478995531797409,0.05923875421285629,0.0,0.0,0.0,0.0,15500.0,29613.0,30115.0,17211.0,0.3583631217479706,-0.10657848407839891,-0.5894856947116078,-0.0053712042698291175,0.014529851265251637,0.18341763317584991,-0.005278570577502251
69,5,-0.00021889650088269264,0.0003671299200505018,1.8221176105726045e-06,-0.0024596480652689934,-0.0018142880871891975,-0.008940483443439007,-0.016357937827706337,0.4982977509498596,-0.002746131969615817,-0.0034482215996831656,-0.05316162109375,-0.0031027942895889282,0.0,0.0,0.0,0.003175345016643405,-0.002857307670637965,-0.0,0.0,0.0,0.0,0.00037548772525042295,-0.004999999888241291,-5.9284328017383814e-05,15097.0,29955.0,29774.0,17597.0,0.049306049942970276,0.11570606380701065,0.11478995531797409,0.05923875421285629,0.0,0.0,0.0,0.0,15500.0,29613.0,30115.0,17211.0,0.3390367031097412,-0.12414547049961284,-0.5939797159971143,-0.012394734949944593,0.011212105862796307,0.009584714658558369,0.02665799856185913
74,5,-0.00021889650088269264,0.0003671299200505018,1.8221176105726045e-06,-0.0024596480652689934,-0.0018142880871891975,-0.008940483443439007,-0.016357937827706337,0.4982977509498596,-0.002746131969615817,-0.0034482215996831656,-0.05316162109375,-0.0031027942895889282,0.0,0.0,0.0,0.003198453690856695,-0.002868018113076687,-0.0,0.0,0.0,0.0,0.00037548772525042295,-0.004999999888241291,-5.9284328017383814e-05,15097.0,29955.0,29774.0,17597.0,0.049306049942970276,0.11570606380701065,0.11478995531797409,0.05923875421285629,0.0,0.0,0.0,0.0,15500.0,29613.0,30115.0,17211.0,0.3390367329120636,-0.12414547049961284,-0.5939797159971143,-0.012394734949944593,0.01125413365662098,0.00965520367026329,0.026662372052669525
79,5,-0.0004627186863217503,0.0009267539135180414,-0.000508898519910872,-0.04521750286221504,-0.06663789600133896,0.05964653193950653,-0.016174940392374992,0.4986708462238312,-0.0033027620520442724,-0.018748361617326736,-0.018386509269475937,-0.057274989783763885,0.0,0.0,0.0,0.0783313736319542,-0.0407102070748806,-0.0,0.0,0.0,0.0,0.0006223999080248177,-0.004999999888241291,-0.0002150848595192656,13371.0,30624.0,29095.0,19184.0,0.04274100437760353,0.11911305785179138,0.11137980222702026,0.06580063700675964,0.0,0.0,0.0,0.0,18641.0,33738.0,28818.0,17774.0,0.39159590005874634,-0.053369865863674384,-0.5627480759631908,0.001544164293638215,0.18389765918254852,0.27259132266044617,-0.18817965686321259
84,5,-0.00033669747062958777,0.0008243961492553353,-0.00044493310269899666,0.004077719058841467,-0.005661285016685724,0.008938799612224102,-0.016264742240309715,0.4985441267490387,-0.00321543519385159,0.02890288084745407,0.03176407888531685,0.033618856221437454,0.0,0.0,0.0,0.009341247379779816,0.0035641591530293226,-0.0,0.0,0.0,0.0,-0.0012884066672995687,-0.004999999888241291,-7.411119440803304e-05,19569.0,33282.0,29307.0,16814.0,0.06742336601018906,0.13300375640392303,0.11244108527898788,0.05607026442885399,0.0,0.0,0.0,0.0,15313.0,29374.0,30350.0,17391.0,0.3390505611896515,-0.05645288898666666,-0.5655813939113499,0.0002201585114331441,-0.013985146768391132,0.02819850854575634,-0.03596154600381851
94,10,-0.00033669747062958777,0.0008243961492553353,-0.00044493310269899666,0.004077719058841467,-0.005661285016685724,0.008938799612224102,-0.01612284407019615,0.49792784452438354,-0.0028659815434366465,0.01612153835594654,0.0732918307185173,0.01969623751938343,0.0,0.0,0.0,0.009544983506202698,0.0035001495853066444,-0.0,0.0,0.0,0.0,0.000568578892853111,-0.004999999888241291,-3.409793498576619e-05,15036.0,29492.0,30234.0,17655.0,0.04906973987817764,0.11337165534496307,0.11712232232093811,0.05947302281856537,0.0,0.0,0.0,0.0,15313.0,29374.0,30350.0,17391.0,0.33905112743377686,-0.05645288898666666,-0.5655813939113499,0.0002201585114331441,-0.013733970001339912,0.02881350927054882,-0.040110547095537186
101,7,-0.00026589498156681657,0.0005752729484811425,-0.0003428388445172459,-0.00043865584302693605,0.00273917056620121,-0.0008012804901227355,-0.01612284407019615,0.49792784452438354,-0.0028659815434366465,0.01612153835594654,0.0732918307185173,0.01969623751938343,0.0,0.0,0.0,-0.0020794677548110485,-0.0009963081683963537,-0.0,0.0,0.0,0.0,0.000568578892853111,-0.004999999888241291,-3.409793498576619e-05,15036.0,29492.0,30234.0,17655.0,0.04906973987817764,0.11337165534496307,0.11712232232093811,0.05947302281856537,0.0,0.0,0.0,0.0,15313.0,29374.0,30350.0,17391.0,0.3390344977378845,-0.08440911034851226,-0.5823199739016292,-0.005487910302274275,0.00391004653647542,-0.006275651045143604,-0.009412871673703194
106,5,-0.0002639113226905465,0.0005363026284612715,-0.0002694122667890042,0.00014611608639825135,0.006277597043663263,-0.010520103387534618,-0.01612284407019615,0.49792784452438354,-0.0028659815434366465,0.01612153835594654,0.0732918307185173,0.01969623751938343,0.0,0.0,0.0,-0.006789711769670248,-0.0004172268963884562,-0.0,0.0,0.0,0.0,0.000568578892853111,-0.004999999888241291,-3.409793498576619e-05,15036.0,29492.0,30234.0,17655.0,0.04906973987817764,0.11337165534496307,0.11712232232093811,0.05947302281856537,0.0,0.0,0.0,0.0,15313.0,29374.0,30350.0,17391.0,0.33904144167900085,-0.08666978319483898,-0.5852598019374593,-0.006003582172992149,0.0016377262072637677,-0.020493600517511368,0.01959301345050335
111,5,-0.00026463932590559125,0.0004980879602953792,-0.0002904847206082195,-5.80866435484495e-05,0.007233329117298126,-0.0002058870013570413,-0.016235068440437317,0.49771732091903687,-0.0028752489015460014,-0.014402905479073524,-0.035577598959207535,-0.02908562682569027,0.0,0.0,0.0,-0.008079731836915016,-0.0006464079488068819,-0.0,0.0,0.0,0.0,0.0008710511610843241,-0.004999999888241291,-8.985441672848538e-05,13937.0,29618.0,30111.0,18677.0,0.044868942350149155,0.11400248855352402,0.11649837344884872,0.06368070840835571,0.0,0.0,0.0,0.0,13481.0,29978.0,29751.0,19087.0,0.3390447497367859,-0.08768064736101688,-0.5877164969663957,-0.007083905851115719,0.002536505227908492,-0.02438867837190628,-0.012659501284360886
117,5,-0.0002647072251420468,0.0004753404064103961,-0.0002563763700891286,-2.69329575530719e-05,0.005354659166187048,-0.004836933221668005,-0.016235068440437317,0.49771732091903687,-0.0028752489015460014,-0.014402905479073524,-0.035577598959207535,-0.02908562682569027,0.0,0.0,0.0,-0.0055896020494401455,-0.000633503426797688,-0.0,0.0,0.0,0.0,0.0008710511610843241,-0.004999999888241291,-8.985441672848538e-05,13937.0,29618.0,30111.0,18677.0,0.044868942350149155,0.11400248855352402,0.11649837344884872,0.06368070840835571,0.0,0.0,0.0,0.0,13481.0,29978.0,29751.0,19087.0,0.3390389680862427,-0.08728667647498353,-0.5896127540741216,-0.006838008828481993,0.0024858678225427866,-0.01687210611999035,0.0007375340210273862
122,5,-0.0002897608501370996,0.00028816249687224627,-9.302085527451709e-05,-0.003515588818117976,0.027811305597424507,-0.024320853874087334,-0.01630546525120735,0.49805665016174316,-0.0029481188394129276,-0.005277507938444614,-0.0271835345774889,-0.009733392857015133,0.0,0.0,0.0,-0.03545565903186798,-0.004223382566124201,-0.0,0.0,0.0,0.0,0.0003360843111295253,-0.004999999888241291,-1.596489892108366e-05,14227.0,29417.0,30309.0,18412.0,0.04596704617142677,0.11299434304237366,0.1175067126750946,0.06258279830217361,0.0,0.0,0.0,0.0,13530.0,30006.0,29723.0,19044.0,0.34125030040740967,-0.10685215628219771,-0.5965159970627147,-0.012293815475711501,0.0166709553450346,-0.10767970234155655,0.060688141733407974
127,5,-0.0003138069005217403,0.00028517935425043106,-7.028110849205405e-05,-0.004421122372150421,0.008761031553149223,-0.0104798199608922,-0.01630546525120735,0.49805665016174316,-0.0029481188394129276,-0.005277507938444614,-0.0271835345774889,-0.009733392857015133,0.0,0.0,0.0,-0.010410407558083534,-0.005226810462772846,-0.0,0.0,0.0,0.0,0.0003360843111295253,-0.004999999888241291,-1.596489892108366e-05,14227.0,29417.0,30309.0,18412.0,0.04596704617142677,0.11299434304237366,0.1175067126750946,0.06258279830217361,0.0,0.0,0.0,0.0,13530.0,30006.0,29723.0,19044.0,0.3390566110610962,-0.10516874049195506,-0.5956918085098826,-0.011544049231156102,0.02051081880927086,-0.03142394497990608,0.019218238070607185
132,5,-0.0004225953889545053,0.00047709577484056354,-0.00017266100621782243,-0.016556723043322563,-0.02423998899757862,0.011189239099621773,-0.016316363587975502,0.49789026379585266,-0.0029504720587283373,-0.015212533064186573,0.04873485490679741,0.030203893780708313,0.0,0.0,0.0,0.03320549055933952,-0.017514962702989578,-0.0,0.0,0.0,0.0,0.00037133603473193944,-0.004999999888241291,-3.6688292311737314e-05,15651.0,29582.0,30145.0,17065.0,0.051463887095451355,0.11382327228784561,0.1166730597615242,0.057081229984760284,0.0,0.0,0.0,0.0,14701.0,30380.0,29345.0,17971.0,0.34450462460517883,-0.08419740501911194,-0.5866399753271097,-0.008007276446337211,0.06979572772979736,0.10181377828121185,-0.04758181422948837
137,5,-0.0002791857987176627,0.00036461628042161465,-0.00015421712305396795,0.015110322274267673,0.008475128561258316,0.0007746287155896425,-0.016316363587975502,0.49789026379585266,-0.0029504720587283373,-0.015212533064186573,0.04873485490679741,0.030203893780708313,0.0,0.0,0.0,-0.00980749074369669,0.01468594092875719,-0.0,0.0,0.0,0.0,0.00037133603473193944,-0.004999999888241291,-3.6688292311737314e-05,15651.0,29582.0,30145.0,17065.0,0.051463887095451355,0.11382327228784561,0.1166730597615242,0.057081229984760284,0.0,0.0,0.0,0.0,14701.0,30380.0,29345.0,17971.0,0.33908647298812866,-0.11120054405737499,-0.5864794114852664,-0.008773923189356036,-0.05763121694326401,-0.029606560245156288,-0.016582701355218887
142,5,-0.00026347796665504575,0.00041288440115749836,-0.00018543691840022802,0.006732195150107145,-0.004214996472001076,0.00460315914824605,-0.016338501125574112,0.4973011612892151,-0.002959316596388817,-0.008002222515642643,0.052088163793087006,0.01186835952103138,0.0,0.0,0.0,0.007140565197914839,0.006148954387754202,-0.0,0.0,0.0,0.0,0.00019671661721076816,-0.004999999888241291,-6.58414646750316e-05,15313.0,30244.0,29484.0,17394.0,0.050141848623752594,0.11717289686203003,0.11333100497722626,0.05841083824634552,0.0,0.0,0.0,0.0,14718.0,30286.0,29439.0,17955.0,0.3390486538410187,-0.10046863131712798,-0.5826059344047783,-0.005751703339393787,-0.024128800258040428,0.021554145961999893,-0.02912266179919243
147,5,-0.00031506261439062655,0.0005059080431237817,-0.0001785005151759833,-0.005202191881835461,-0.014287805184721947,0.00040985108353197575,-0.016338501125574112,0.4973011612892151,-0.002959316596388817,-0.008002222515642643,0.052088163793087006,0.01186835952103138,0.0,0.0,0.0,0.020711267367005348,-0.006114664021879435,-0.0,0.0,0.0,0.0,0.00019671661721076816,-0.004999999888241291,-6.58414646750316e-05,15313.0,30244.0,29484.0,17394.0,0.050141848623752594,0.11717289686203003,0.11333100497722626,0.05841083824634552,0.0,0.0,0.0,0.0,14718.0,30286.0,29439.0,17955.0,0.33911266922950745,-0.10139513111592352,-0.5828763474374793,-0.00584120913093614,0.023994870483875275,0.06252363324165344,-0.01711055263876915
152,5,-0.00033935828832909465,0.00035280853626318276,-0.00017559865955263376,-0.004962052218616009,0.01714758761227131,-0.00028330422355793417,-0.016344726085662842,0.49676498770713806,-0.002946845954284072,0.011706199496984482,0.055153101682662964,-0.0032853297889232635,0.0,0.0,0.0,-0.021197300404310226,-0.005930684506893158,-0.0,0.0,0.0,0.0,0.00021434389054775238,-0.004999999888241291,-0.00013373434194363654,14935.0,30488.0,29239.0,17756.0,0.0486806221306324,0.11842048168182373,0.1120983362197876,0.059886980801820755,0.0,0.0,0.0,0.0,15119.0,30388.0,29338.0,17578.0,0.3391157388687134,-0.11477135194033482,-0.5867433602632119,-0.009570574785480842,0.023272279649972916,-0.0639900341629982,-0.015638796612620354
157,5,-0.00029909342993050814,0.00042052139178849757,-0.00014742200437467545,0.004148463252931833,-0.004335526842623949,-0.004029723349958658,-0.016344726085662842,0.49676498770713806,-0.002946845954284072,0.011706199496984482,0.055153101682662964,-0.0032853297889232635,0.0,0.0,0.0,0.00743833277374506,0.0033923829905688763,-0.0,0.0,0.0,0.0,0.00021434389054775238,-0.004999999888241291,-0.00013373434194363654,14935.0,30488.0,29239.0,17756.0,0.0486806221306324,0.11842048168182373,0.1120983362197876,0.059886980801820755,0.0,0.0,0.0,0.0,15119.0,30388.0,29338.0,17578.0,0.3390449285507202,-0.10519165588474602,-0.5845596963517825,-0.007460625646745754,-0.013311163522303104,0.022453535348176956,-0.004624491091817617
162,5,-0.0004046821850351989,0.0003556390875019133,-0.00023479222727473825,-0.013537885621190071,0.007782868109643459,0.011022915132343769,-0.016455261036753654,0.49439284205436707,-0.0034175775945186615,-0.015002160333096981,0.18211624026298523,-0.034045975655317307,0.0,0.0,0.0,-0.008708147332072258,-0.014819080010056496,-0.0,0.0,0.0,0.0,0.0012154600117355585,-0.004999999888241291,-0.0001293636014452204,13046.0,29404.0,30328.0,19480.0,0.04153229668736458,0.1129286140203476,0.11760342121124268,0.06704851984977722,0.0,0.0,0.0,0.0,14892.0,30303.0,29427.0,17797.0,0.3390837013721466,-0.1049242638076658,-0.5818839226604962,-0.0101641045105308,0.058155134320259094,-0.026287775486707687,-0.051633916795253754
168,5,-0.00041573852649889886,0.000513178703840822,-0.00026561037520878017,-0.005609254352748394,-0.019720686599612236,0.007621414493769407,-0.016455261036753654,0.49439284205436707,-0.0034175775945186615,-0.015002160333096981,0.18211624026298523,-0.034045975655317307,0.0,0.0,0.0,0.02808120846748352,-0.00678531639277935,-0.0,0.0,0.0,0.0,0.0012154600117355585,-0.004999999888241291,-0.0001293636014452204,13046.0,29404.0,30328.0,19480.0,0.04153229668736458,0.1129286140203476,0.11760342121124268,0.06704851984977722,0.0,0.0,0.0,0.0,14892.0,30303.0,29427.0,17797.0,0.33917513489723206,-0.09664588373704915,-0.5781598005631063,-0.00903441076844742,0.026625990867614746,0.08477718383073807,-0.042756859213113785
173,5,-0.00040563815855421126,0.0005653257830999792,-0.00027172520640306175,-0.0002687223313841969,-0.01321680098772049,0.0031425028573721647,-0.016574637964367867,0.49227175116539,-0.0036130936350673437,-0.030064357444643974,0.33167412877082825,-0.04703877493739128,0.0,0.0,0.0,0.019619004800915718,-0.0013567126588895917,-0.0,0.0,0.0,0.0,0.0008960685809142888,-0.004999999888241291,-0.00016057169705163687,13303.0,30063.0,29665.0,19246.0,0.042485881596803665,0.11625693738460541,0.11424115300178528,0.06606099009513855,0.0,0.0,0.0,0.0,12931.0,29489.0,30245.0,19580.0,0.3390991687774658,-0.09275062701154878,-0.5781105042435593,-0.00885525361333181,0.005323743913322687,0.05922376364469528,-0.030375296249985695
178,5,-0.00043623318197205663,0.0007512210286222398,-0.0002972383808810264,-0.004363921005278826,-0.02999037131667137,0.004514592234045267,-0.016574637964367867,0.49227175116539,-0.0036130936350673437,-0.030064357444643974,0.33167412877082825,-0.04703877493739128,0.0,0.0,0.0,0.041454851627349854,-0.005455848295241594,-0.0,0.0,0.0,0.0,0.0008960685809142888,-0.004999999888241291,-0.00016057169705163687,13303.0,30063.0,29665.0,19246.0,0.042485881596803665,0.11625693738460541,0.11424115300178528,0.06606099009513855,0.0,0.0,0.0,0.0,12931.0,29489.0,30245.0,19580.0,0.34590524435043335,-0.07646247599704727,-0.5673504447240326,-0.0018505886307556396,0.02182379551231861,0.12759962677955627,-0.03587285429239273
183,5,-0.0005440828390419483,0.0008119014091789722,-0.00021842618298251182,-0.016408128663897514,-0.017492368817329407,-0.009679329581558704,-0.016521621495485306,0.48695945739746094,-0.004702843725681305,-0.05840848386287689,0.5091233849525452,-0.08335816860198975,0.0,0.0,0.0,0.025788765400648117,-0.018009468913078308,-0.0,0.0,0.0,0.0,0.0007843839703127742,-0.004999999888241291,-0.00023659324506297708,11448.0,29882.0,29860.0,20848.0,0.035708360373973846,0.11533516645431519,0.11522819101810455,0.07290378212928772,0.0,0.0,0.0,0.0,12715.0,30566.0,29155.0,19761.0,0.34043797850608826,-0.07289254877237626,-0.5618822056695942,-0.0022929133196670473,0.07093554735183716,0.07815072685480118,0.007010751869529486
188,5,-0.0005114911473356187,0.0007107464480213821,-0.0002031643525697291,-0.00035960148670710623,0.00891399011015892,-0.005040454212576151,-0.016521621495485306,0.48695945739746094,-0.004702843725681305,-0.05840848386287689,0.5091233849525452,-0.08335816860198975,0.0,0.0,0.0,-0.0092375623062253,-0.0017019815277308226,-0.0,0.0,0.0,0.0,0.0007843839703127742,-0.004999999888241291,-0.00023659324506297708,11448.0,29882.0,29860.0,20848.0,0.035708360373973846,0.11533516645431519,0.11522819101810455,0.07290378212928772,0.0,0.0,0.0,0.0,12715.0,30566.0,29155.0,19761.0,0.3390485644340515,-0.08325240313702063,-0.5676709635086263,-0.004180486585447128,0.006679604761302471,-0.02788231521844864,-0.007347844075411558
193,5,-0.0005476681981235743,0.0007030813721939921,-0.00014024357369635254,-0.005172667093575001,0.0037473030388355255,-0.010321046225726604,-0.01682933419942856,0.4816301465034485,-0.005685741081833839,-0.04339146241545677,0.7727109789848328,-0.08606698364019394,0.0,0.0,0.0,-0.002336448058485985,-0.006702123209834099,-0.0,0.0,0.0,0.0,0.0017093268688768148,-0.004999999888241291,-0.0003378244291525334,10261.0,30018.0,30390.0,22569.0,0.03151858225464821,0.1160285621881485,0.11792095750570297,0.08047972619533539,0.0,0.0,0.0,0.0,9975.0,30468.0,29940.0,22790.0,0.33904212713241577,-0.0851028381936712,-0.5674492239365818,-0.006168606984764195,0.026300620287656784,-0.00705123832449317,0.00869232788681984
198,5,-0.0007253052317537367,0.000750696926843375,-7.13723711669445e-05,-0.026420986279845238,-0.005541984457522631,-0.012738281860947609,-0.01682933419942856,0.4816301465034485,-0.005685741081833839,-0.04339146241545677,0.7727109789848328,-0.08606698364019394,0.0,0.0,0.0,0.01002377737313509,-0.028357915580272675,-0.0,0.0,0.0,0.0,0.0017093268688768148,-0.004999999888241291,-0.0003378244291525334,10261.0,30018.0,30390.0,22569.0,0.03151858225464821,0.1160285621881485,0.11792095750570297,0.08047972619533539,0.0,0.0,0.0,0.0,9975.0,30468.0,29940.0,22790.0,0.3428933024406433,-0.07987799286963378,-0.5594706029469265,-0.007224818609647751,0.11252254247665405,0.03059990704059601,0.01646164432168007
203,5,-0.0007957484922371805,0.0006977072916924953,0.00012419774429872632,-0.017788352444767952,0.005755953956395388,-0.031201299279928207,-0.016937820240855217,0.4706045687198639,-0.0076573989354074,-0.14161208271980286,0.9664435982704163,-0.14734406769275665,0.0,0.0,0.0,-0.004876956809312105,-0.020026618614792824,-0.0,0.0,0.0,0.0,0.0021730230655521154,-0.004999999888241291,-0.00048020228859968483,8274.0,31004.0,29396.0,24061.0,0.024754583835601807,0.12106405198574066,0.11288546025753021,0.08724372088909149,0.0,0.0,0.0,0.0,11296.0,32279.0,27354.0,20958.0,0.33910563588142395,-0.07717350988104582,-0.5564051216901652,-0.005463854126326965,0.0785965546965599,-0.014722533524036407,0.07458076626062393
208,5,-0.0009170219418592751,0.0007115243934094906,0.00017700465105008334,-0.022314785048365593,-0.00020761252380907536,-0.016753358766436577,-0.016937820240855217,0.4706045687198639,-0.0076573989354074,-0.14161208271980286,0.9664435982704163,-0.14734406769275665,0.0,0.0,0.0,0.00311977113597095,-0.024883905425667763,-0.0,0.0,0.0,0.0,0.0021730230655521154,-0.004999999888241291,-0.00048020228859968483,8274.0,31004.0,29396.0,24061.0,0.024754583835601807,0.12106405198574066,0.11288546025753021,0.08724372088909149,0.0,0.0,0.0,0.0,11296.0,32279.0,27354.0,20958.0,0.33914023637771606,-0.077927638586915,-0.5512249967829312,-0.007119600129152397,0.097666434943676,0.009421266615390778,0.03249386325478554
213,5,-0.0010698259575292468,0.0007628999301232398,0.00042405069689266384,-0.02808699756860733,-0.0072548543103039265,-0.03961244970560074,-0.016937820240855217,0.4706045687198639,-0.0076573989354074,-0.14161208271980286,0.9664435982704163,-0.14734406769275665,0.0,0.0,0.0,0.012398763559758663,-0.030508968979120255,-0.0,0.0,0.0,0.0,0.0021730230655521154,-0.004999999888241291,-0.00048020228859968483,8274.0,31004.0,29396.0,24061.0,0.024754583835601807,0.12106405198574066,0.11288546025753021,0.08724372088909149,0.0,0.0,0.0,0.0,11296.0,32279.0,27354.0,20958.0,0.34541404247283936,-0.0733150882794507,-0.5428807227956702,-0.00472599485319282,0.12194385379552841,0.03812920302152634,0.10543791949748993
218,5,-0.0011698874877765775,0.000725823687389493,0.0005463451961986721,-0.022434713318943977,0.0030142173636704683,-0.029004963114857674,-0.01716557890176773,0.46098992228507996,-0.009448086842894554,-0.1257702112197876,1.3023933172225952,-0.23793034255504608,0.0,0.0,0.0,-0.0009879531571641564,-0.025524690747261047,-0.0,0.0,0.0,0.0,0.0005149706266820431,-0.004999999888241291,-0.0006339419051073492,8786.0,33994.0,25445.0,22925.0,0.026468025520443916,0.13682261109352112,0.09367719292640686,0.08208056539297104,0.0,0.0,0.0,0.0,8804.0,33518.0,25992.0,22918.0,0.3391979932785034,-0.07515602954159466,-0.5392139132411322,-0.00655026472305216,0.10019652545452118,-0.0029835435561835766,0.07674934715032578
224,5,-0.0015773233026266098,0.000653533439617604,0.0005405105766840279,-0.06377142667770386,0.011024902574717999,-0.007884642109274864,-0.01716557890176773,0.46098992228507996,-0.009448086842894554,-0.1257702112197876,1.3023933172225952,-0.23793034255504608,0.0,0.0,0.0,-0.01048912014812231,-0.06139213964343071,-0.0,0.0,0.0,0.0,0.0005149706266820431,-0.004999999888241291,-0.0006339419051073492,8786.0,33994.0,25445.0,22925.0,0.026468025520443916,0.13682261109352112,0.09367719292640686,0.08208056539297104,0.0,0.0,0.0,0.0,8804.0,33518.0,25992.0,22918.0,0.3778156638145447,-0.07304180753189153,-0.519526826444109,-0.013152542189061905,0.26827892661094666,-0.03528016805648804,0.01499438751488924
229,5,-0.0015886053442955017,0.0004160067474003881,0.0009652148000895977,-0.008122415281832218,0.04029509797692299,-0.02974562905728817,-0.01750827208161354,0.4432820975780487,-0.01269075833261013,-0.13893049955368042,1.6030100584030151,-0.25472134351730347,0.0,0.0,0.0,-0.04892321303486824,-0.011309727095067501,-0.0,0.0,0.0,0.0,0.0007523764506913722,-0.004999999888241291,-0.0007194773061200976,7524.0,34286.0,25115.0,23853.0,0.022285861894488335,0.1384003758430481,0.09212758392095566,0.0862908884882927,0.0,0.0,0.0,0.0,6684.0,34054.0,26050.0,25122.0,0.3529515862464905,-0.10068396038314763,-0.5181308006905165,-0.018106854876357974,0.046144962310791016,-0.15362367033958435,0.08865824341773987
234,5,-0.0015886053442955017,0.0004160067474003881,0.0009652148000895977,-0.008122415281832218,0.04029509797692299,-0.02974562905728817,-0.01750827208161354,0.4432820975780487,-0.01269075833261013,-0.13893049955368042,1.6030100584030151,-0.25472134351730347,0.0,0.0,0.0,-0.048889871686697006,-0.011406170204281807,-0.0,0.0,0.0,0.0,0.0007523764506913722,-0.004999999888241291,-0.0007194773061200976,7524.0,34286.0,25115.0,23853.0,0.022285861894488335,0.1384003758430481,0.09212758392095566,0.0862908884882927,0.0,0.0,0.0,0.0,6684.0,34054.0,26050.0,25122.0,0.3529547452926636,-0.10068396038314763,-0.5181308006905165,-0.018106854876357974,0.04653893783688545,-0.15352050960063934,0.09165041148662567
239,5,-0.0017628950299695134,0.0004528845311142504,0.0010268400656059384,-0.026837287470698357,0.006925641559064388,-0.01755121722817421,-0.017913391813635826,0.4287370443344116,-0.015112468972802162,-0.17559117078781128,1.8925868272781372,-0.27375832200050354,0.0,0.0,0.0,-0.006426451727747917,-0.030799128115177155,-0.0,0.0,0.0,0.0,0.0013940514763817191,-0.004242174793034792,-0.0008891865727491677,6258.0,34124.0,24191.0,27155.0,0.018217921257019043,0.1375233381986618,0.0878409892320633,0.10183855891227722,0.0,0.0,0.0,0.0,9665.0,36829.0,24477.0,28168.0,0.344649076461792,-0.10133845410123819,-0.506606399770918,-0.018884362456640838,0.1228388324379921,-0.019718095660209656,0.05898679792881012
244,5,-0.002195116598159075,0.00043993271538056433,0.0011999502312391996,-0.04219035059213638,0.0044406079687178135,-0.015587843954563141,-0.017913391813635826,0.4287370443344116,-0.015112468972802162,-0.17559117078781128,1.8925868272781372,-0.27375832200050354,0.0,0.0,0.0,-0.0030484755989164114,-0.04509960860013962,-0.0,0.0,0.0,0.0,0.0013940514763817191,-0.004242174793034792,-0.0008891865727491677,6258.0,34124.0,24191.0,27155.0,0.018217921257019043,0.1375233381986618,0.0878409892320633,0.10183855891227722,0.0,0.0,0.0,0.0,9665.0,36829.0,24477.0,28168.0,0.3589266836643219,-0.11052620683542153,-0.4701321999848073,-0.017785344027041294,0.18729040026664734,-0.00974159687757492,0.05893653258681297
249,5,-0.002195116598159075,0.00043993271538056433,0.0011999502312391996,-0.04219035059213638,0.0044406079687178135,-0.015587843954563141,-0.018294284120202065,0.4027484059333801,-0.01970498263835907,-0.20991075038909912,2.3035390377044678,-0.32018616795539856,0.0,0.0,0.0,-0.0030135929118841887,-0.045214470475912094,-0.0,0.0,0.0,0.0,0.000659220211673528,-0.0030375588685274124,-0.0011069710599258542,10614.0,36032.0,21369.0,31172.0,0.03275325894355774,0.14797618985176086,0.07517150044441223,0.12193223834037781,0.0,0.0,0.0,0.0,14324.0,34047.0,14477.0,31300.0,0.35904866456985474,-0.11052620683542153,-0.4701321999848073,-0.017785344027041294,0.18783478438854218,-0.009632493369281292,0.06265638023614883
254,5,-0.00256483256816864,0.0005902913981117308,0.001412137527950108,-0.038870956748723984,-0.015984492376446724,-0.021304668858647346,-0.018294284120202065,0.4027484059333801,-0.01970498263835907,-0.20991075038909912,2.3035390377044678,-0.32018616795539856,0.0,0.0,0.0,0.022808585315942764,-0.042587656527757645,-0.0,0.0,0.0,0.0,0.000659220211673528,-0.0030375588685274124,-0.0011069710599258542,10614.0,36032.0,21369.0,31172.0,0.03275325894355774,0.14797618985176086,0.07517150044441223,0.12193223834037781,0.0,0.0,0.0,0.0,14324.0,34047.0,14477.0,31300.0,0.3599250316619873,-0.1055167973684321,-0.4404334591248964,-0.020014991703052643,0.17731697857379913,0.07307888567447662,0.08669012039899826
259,5,-0.0027851248160004616,0.0006899668369442225,0.001516125281341374,-0.04250221326947212,-0.018749913200736046,-0.020949695259332657,-0.018407166004180908,0.3824155330657959,-0.023413559421896935,-0.17169970273971558,2.771994113922119,-0.40041396021842957,0.0,0.0,0.0,0.026167666539549828,-0.0459785982966423,-0.0,0.0,0.0,0.0,0.0009942323667928576,0.002805736381560564,-0.0015714114997535944,15853.0,33189.0,7735.0,35533.0,0.052255045622587204,0.13251273334026337,0.022974815219640732,0.14521312713623047,0.0,0.0,0.0,0.0,15821.0,33033.0,4905.0,37309.0,0.3644300401210785,-0.09780746520242838,-0.42394101967197434,-0.020658431918034882,0.19380585849285126,0.0848865956068039,0.09160314500331879
264,5,-0.0030218372121453285,0.0007855177391320467,0.001578346244059503,-0.045890383422374725,-0.019002094864845276,-0.01499584224075079,-0.018407166004180908,0.3824155330657959,-0.023413559421896935,-0.17169970273971558,2.771994113922119,-0.40041396021842957,0.0,0.0,0.0,0.026459073647856712,-0.04923408105969429,-0.0,0.0,0.0,0.0,0.0009942323667928576,0.002805736381560564,-0.0015714114997535944,15853.0,33189.0,7735.0,35533.0,0.052255045622587204,0.13251273334026337,0.022974815219640732,0.14521312713623047,0.0,0.0,0.0,0.0,15821.0,33033.0,4905.0,37309.0,0.36786264181137085,-0.09681949701076396,-0.4090073737996461,-0.023874686815606793,0.2094704657793045,0.0866401195526123,0.07937800139188766
269,5,-0.0032402286306023598,0.0009155466104857624,0.001697744708508253,-0.04434191435575485,-0.023904671892523766,-0.02121453918516636,-0.018764030188322067,0.34725475311279297,-0.029989151284098625,-0.22735416889190674,3.111941337585449,-0.4823727607727051,0.0,0.0,0.0,0.03264755383133888,-0.048121657222509384,-0.0,0.0,0.0,0.0,0.0017859127838164568,0.004999999888241291,-0.0018649017438292503,13594.0,31612.0,5976.0,40545.0,0.043576765805482864,0.12421353161334991,0.01732729747891426,0.17385925352573395,0.0,0.0,0.0,0.0,13803.0,31543.0,1567.0,42651.0,0.3690224289894104,-0.09632515222894932,-0.39606106497173005,-0.025710720505922397,0.20534974336624146,0.1072293296456337,0.10480581223964691
275,5,-0.0035522335674613714,0.0009065615013241768,0.0018230563728138804,-0.05698326230049133,-0.005913487635552883,-0.023907987400889397,-0.018764030188322067,0.34725475311279297,-0.029989151284098625,-0.22735416889190674,3.111941337585449,-0.4823727607727051,0.0,0.0,0.0,0.010596796870231628,-0.059517618268728256,-0.0,0.0,0.0,0.0,0.0017859127838164568,0.004999999888241291,-0.0018649017438292503,13594.0,31612.0,5976.0,40545.0,0.043576765805482864,0.12421353161334991,0.01732729747891426,0.17385925352573395,0.0,0.0,0.0,0.0,13803.0,31543.0,1567.0,42651.0,0.3756324052810669,-0.10347693822998894,-0.3789246752107493,-0.027262685142825035,0.2585913836956024,0.03543772175908089,0.12003197520971298
280,5,-0.0038038063794374466,0.0010094470344483852,0.0019721800927072763,-0.052315179258584976,-0.016178017482161522,-0.028049713000655174,-0.01917893998324871,0.32114866375923157,-0.03462083265185356,-0.2225067913532257,3.2271246910095215,-0.5061034560203552,0.0,0.0,0.0,0.023221256211400032,-0.05600094422698021,-0.0,0.0,0.0,0.0,0.001748221111483872,0.004999999888241291,-0.0018521586898714304,13511.0,30646.0,1394.0,45108.0,0.043266527354717255,0.11922657489776611,0.0037868544459342957,0.20169810950756073,0.0,0.0,0.0,0.0,12045.0,31129.0,0.0,45334.0,0.37415239214897156,-0.09727123519504888,-0.36075491778328866,-0.02752370335343862,0.24232465028762817,0.07734201848506927,0.1404440850019455
285,5,-0.004227364435791969,0.0007875794544816017,0.0020351752173155546,-0.07499267160892487,0.026208048686385155,-0.017234236001968384,-0.01917893998324871,0.32114866375923157,-0.03462083265185356,-0.2225067913532257,3.2271246910095215,-0.5061034560203552,0.0,0.0,0.0,-0.026475276798009872,-0.07354820519685745,-0.0,0.0,0.0,0.0,0.001748221111483872,0.004999999888241291,-0.0018521586898714304,13511.0,30646.0,1394.0,45108.0,0.043266527354717255,0.11922657489776611,0.0037868544459342957,0.20169810950756073,0.0,0.0,0.0,0.0,12045.0,31129.0,0.0,45334.0,0.3958298861980438,-0.110780985206316,-0.341534351186731,-0.028588494272798245,0.3365378975868225,-0.0932808443903923,0.11516125500202179
290,5,-0.004406673368066549,0.0007172886980697513,0.002444847021251917,-0.04760108143091202,0.017703121528029442,-0.06252432614564896,-0.01940115913748741,0.2796283960342407,-0.04093990847468376,-0.17676304280757904,3.598064422607422,-0.3762305676937103,0.0,0.0,0.0,-0.018057631328701973,-0.05350637435913086,-0.0,0.0,0.0,0.0,0.0014045690186321735,0.004999999888241291,-0.0018202349310740829,14698.0,31287.0,1611.0,45014.0,0.047768108546733856,0.12252873182296753,0.00439075380563736,0.2011025846004486,0.0,0.0,0.0,0.0,13181.0,30566.0,1542.0,45304.0,0.3701041042804718,-0.1011932795027258,-0.3206149722374901,-0.026714430678218753,0.22906269133090973,-0.05949414521455765,0.26330259442329407
295,5,-0.004828807432204485,0.0007017626194283366,0.0027291409205645323,-0.07337907701730728,0.00748458644375205,-0.05855845659971237,-0.01940115913748741,0.2796283960342407,-0.04093990847468376,-0.17676304280757904,3.598064422607422,-0.3762305676937103,0.0,0.0,0.0,-0.005299875512719154,-0.07392696291208267,-0.0,0.0,0.0,0.0,0.0014045690186321735,0.004999999888241291,-0.0018202349310740829,14698.0,31287.0,1611.0,45014.0,0.047768108546733856,0.12252873182296753,0.00439075380563736,0.2011025846004486,0.0,0.0,0.0,0.0,13181.0,30566.0,1542.0,45304.0,0.39282113313674927,-0.1018552910746488,-0.29266020917210767,-0.030353841821801477,0.3358011841773987,-0.018535304814577103,0.2632555365562439
300,5,-0.00514570064842701,0.0008780218777246773,0.0030169200617820024,-0.06637875735759735,-0.022430917248129845,-0.057856619358062744,-0.02002757601439953,0.251613587141037,-0.04391288012266159,-0.2277716100215912,3.51153564453125,-0.2812198996543884,0.0,0.0,0.0,0.029424652457237244,-0.06881575286388397,-0.0,0.0,0.0,0.0,0.00019869121024385095,0.004999999888241291,-0.002103339182212949,15396.0,35634.0,0.0,46186.0,0.05046626180410385,0.14577186107635498,-0.008739732205867767,0.20851710438728333,0.0,0.0,0.0,0.0,13267.0,31984.0,287.0,45871.0,0.3908320367336273,-0.09156425177495192,-0.26972370387941513,-0.03403501447361667,0.31090909242630005,0.1023600623011589,0.27400246262550354
305,5,-0.005333034321665764,0.0011885513085871935,0.003167668590322137,-0.04614037647843361,-0.05020339414477348,-0.038461752235889435,-0.02002757601439953,0.251613587141037,-0.04391288012266159,-0.2277716100215912,3.51153564453125,-0.2812198996543884,0.0,0.0,0.0,0.06235554814338684,-0.05177655816078186,-0.0,0.0,0.0,0.0,0.00019869121024385095,0.004999999888241291,-0.002103339182212949,15396.0,35634.0,0.0,46186.0,0.05046626180410385,0.14577186107635498,-0.008739732205867767,0.20851710438728333,0.0,0.0,0.0,0.0,13267.0,31984.0,287.0,45871.0,0.3887005150318146,-0.07446672975174608,-0.2511428322386564,-0.03607099287319905,0.2323877066373825,0.21553802490234375,0.2276691347360611
310,5,-0.0055556814186275005,0.0012566352961584926,0.003386549651622772,-0.04501268267631531,-0.02459278516471386,-0.04218188300728798,-0.02002757601439953,0.251613587141037,-0.04391288012266159,-0.2277716100215912,3.51153564453125,-0.2812198996543884,0.0,0.0,0.0,0.034112878143787384,-0.05319472402334213,-0.0,0.0,0.0,0.0,0.00019869121024385095,0.004999999888241291,-0.002103339182212949,15396.0,35634.0,0.0,46186.0,0.05046626180410385,0.14577186107635498,-0.008739732205867767,0.20851710438728333,0.0,0.0,0.0,0.0,13267.0,31984.0,287.0,45871.0,0.3748185932636261,-0.07302849682853038,-0.23723947145985638,-0.03894394620961274,0.2305362969636917,0.11379912495613098,0.2519434690475464
315,5,-0.00562156829982996,0.0014380721841007471,0.0035129969473928213,-0.022727930918335915,-0.03277899697422981,-0.030357206240296364,-0.022037848830223083,0.18074966967105865,-0.05217320844531059,-0.15695637464523315,3.578294515609741,-0.23994188010692596,0.0,0.0,0.0,0.0455535389482975,-0.03393283486366272,-0.0,0.0,0.0,0.0,0.0008458200027234852,0.004999999888241291,-0.002097337506711483,14239.0,34615.0,0.0,46654.0,0.04601280391216278,0.14018964767456055,-0.004620090126991272,0.21150797605514526,0.0,0.0,0.0,0.0,15238.0,35899.0,0.0,46282.0,0.3650189936161041,-0.06781116724522429,-0.2261155887566702,-0.03918002800518164,0.14319303631782532,0.14795035123825073,0.22904324531555176
320,5,-0.005942864343523979,0.0014412332093343139,0.0035883798263967037,-0.05179988592863083,-0.010276234708726406,-0.019660761579871178,-0.022037848830223083,0.18074966967105865,-0.05217320844531059,-0.15695637464523315,3.578294515609741,-0.23994188010692596,0.0,0.0,0.0,0.01735253445804119,-0.06019454821944237,-0.0,0.0,0.0,0.0,0.0008458200027234852,0.004999999888241291,-0.002097337506711483,14239.0,34615.0,0.0,46654.0,0.04601280391216278,0.14018964767456055,-0.004620090126991272,0.21150797605514526,0.0,0.0,0.0,0.0,15238.0,35899.0,0.0,46282.0,0.37751561403274536,-0.07548756204422014,-0.20236835932838268,-0.04105113022346413,0.26281529664993286,0.05831780284643173,0.20906654000282288
325,5,-0.005960877984762192,0.0015298629878088832,0.0037746052257716656,-0.01806182973086834,-0.015491046011447906,-0.031969763338565826,-0.023329146206378937,0.13908636569976807,-0.055933646857738495,-0.13250696659088135,3.449136257171631,-0.26469188928604126,0.0,0.0,0.0,0.02437646873295307,-0.03032691963016987,-0.0,0.0,0.0,0.0,0.0021699543576687574,0.004999999888241291,-0.0021430999040603638,9791.0,32930.0,0.0,47739.0,0.029889948666095734,0.13113607466220856,-0.00469101220369339,0.218506321310997,0.0,0.0,0.0,0.0,14401.0,34328.0,0.0,46558.0,0.3690168559551239,-0.07175620012553217,-0.1981589471041008,-0.04156787673995394,0.12948071956634521,0.08007525652647018,0.26018935441970825
331,5,-0.005969235207885504,0.0017827849369496107,0.0040330239571630955,-0.00658854516223073,-0.040056388825178146,-0.04576954245567322,-0.023329146206378937,0.13908636569976807,-0.055933646857738495,-0.13250696659088135,3.449136257171631,-0.26469188928604126,0.0,0.0,0.0,0.054859042167663574,-0.019946737214922905,-0.0,0.0,0.0,0.0,0.0021699543576687574,0.004999999888241291,-0.0021430999040603638,9791.0,32930.0,0.0,47739.0,0.029889948666095734,0.13113607466220856,-0.00469101220369339,0.218506321310997,0.0,0.0,0.0,0.0,14401.0,34328.0,0.0,46558.0,0.3693666160106659,-0.05997070990743401,-0.18444762867688155,-0.04150946055504024,0.08515184372663498,0.18024426698684692,0.3174687325954437
336,5,-0.0060766940005123615,0.0018753674812614918,0.004236854147166014,-0.017020825296640396,-0.02497847005724907,-0.04226713627576828,-0.023783741518855095,0.11297149211168289,-0.05843807011842728,-0.09056615084409714,3.2297897338867188,-0.24811410903930664,0.0,0.0,0.0,0.03652374446392059,-0.029980026185512543,-0.0,0.0,0.0,0.0,0.0015973163535818458,0.004999999888241291,-0.0022708347532898188,9713.0,34540.0,0.0,47990.0,0.029620394110679626,0.13977918028831482,-0.01196908950805664,0.22014090418815613,0.0,0.0,0.0,0.0,9479.0,33398.0,0.0,47904.0,0.37202128767967224,-0.05628541134205859,-0.16913655263237562,-0.041370788177149675,0.12899479269981384,0.12092719972133636,0.32243579626083374
341,5,-0.006176731549203396,0.0017293536802753806,0.004341454245150089,-0.019111482426524162,0.012948396615684032,-0.027324097231030464,-0.023783741518855095,0.11297149211168289,-0.05843807011842728,-0.09056615084409714,3.2297897338867188,-0.24811410903930664,0.0,0.0,0.0,-0.009423922747373581,-0.03241204097867012,-0.0,0.0,0.0,0.0,0.0015973163535818458,0.004999999888241291,-0.0022708347532898188,9713.0,34540.0,0.0,47990.0,0.029620394110679626,0.13977918028831482,-0.01196908950805664,0.22014090418815613,0.0,0.0,0.0,0.0,9479.0,33398.0,0.0,47904.0,0.3718178868293762,-0.06468869134328897,-0.16510837895821096,-0.039165746681924886,0.13945291936397552,-0.031195592135190964,0.2922092378139496
346,5,-0.006222103256732225,0.0017776456661522388,0.004509314429014921,-0.012085518799722195,-0.00287636904977262,-0.03169768303632736,-0.024402709677815437,0.07664366066455841,-0.062468521296978,-0.08201444894075394,2.967841148376465,-0.26054009795188904,0.0,0.0,0.0,0.009795468300580978,-0.025979937985539436,-0.0,0.0,0.0,0.0,0.0028369498904794455,0.004999999888241291,-0.0024156607687473297,5423.0,33621.0,0.0,49498.0,0.015603087842464447,0.13481706380844116,-0.01110876351594925,0.23005641996860504,0.0,0.0,0.0,0.0,4089.0,34501.0,0.0,50107.0,0.37636756896972656,-0.06056998492516344,-0.15802538541303102,-0.03504808369401555,0.11316565424203873,0.03282575309276581,0.32142332196235657
351,5,-0.006377744022756815,0.0018003995064646006,0.004603526089340448,-0.025415336713194847,-0.004048439208418131,-0.02269892208278179,-0.024402709677815437,0.07664366066455841,-0.062468521296978,-0.08201444894075394,2.967841148376465,-0.26054009795188904,0.0,0.0,0.0,0.01136218011379242,-0.03878007456660271,-0.0,0.0,0.0,0.0,0.0028369498904794455,0.004999999888241291,-0.0024156607687473297,5423.0,33621.0,0.0,49498.0,0.015603087842464447,0.13481706380844116,-0.01110876351594925,0.23005641996860504,0.0,0.0,0.0,0.0,4089.0,34501.0,0.0,50107.0,0.37652990221977234,-0.06065213069648234,-0.14038955091809197,-0.039917433447802124,0.1689624786376953,0.0380915030837059,0.30982381105422974
356,5,-0.006599617190659046,0.0017015330959111452,0.004711161367595196,-0.038686830550432205,0.0126267671585083,-0.021878615021705627,-0.024715499952435493,0.054961223155260086,-0.06512025743722916,-0.08692147582769394,2.5651721954345703,-0.22988997399806976,0.0,0.0,0.0,-0.008502964861690998,-0.05121314153075218,-0.0,0.0,0.0,0.0,0.002836652100086212,0.004999999888241291,-0.0025395755656063557,8203.0,36805.0,0.0,48331.0,0.024520263075828552,0.15229611098766327,-0.027362093329429626,0.22236497700214386,0.0,0.0,0.0,0.0,7732.0,37109.0,0.0,48568.0,0.3797714114189148,-0.06442211991642491,-0.13074982685323125,-0.04042586177389397,0.22500096261501312,-0.02874581143260002,0.32360169291496277
361,5,-0.006760186981409788,0.0019489675760269165,0.005117838736623526,-0.03408585116267204,-0.030852800235152245,-0.06349842995405197,-0.024715499952435493,0.054961223155260086,-0.06512025743722916,-0.08692147582769394,2.5651721954345703,-0.22988997399806976,0.0,0.0,0.0,0.04349084943532944,-0.04761570692062378,-0.0,0.0,0.0,0.0,0.002836652100086212,0.004999999888241291,-0.0025395755656063557,8203.0,36805.0,0.0,48331.0,0.024520263075828552,0.15229611098766327,-0.027362093329429626,0.22236497700214386,0.0,0.0,0.0,0.0,7732.0,37109.0,0.0,48568.0,0.3800494968891144,-0.05420782990223216,-0.12289106583061742,-0.04255494555157706,0.2091711014509201,0.14707273244857788,0.46894049644470215
366,5,-0.0067064231261610985,0.002075477968901396,0.004842509049922228,-0.002698804484680295,-0.026967279613018036,0.01949663646519184,-0.025546109303832054,0.026910439133644104,-0.06857196986675262,-0.07086458802223206,2.2095046043395996,-0.23262740671634674,0.0,0.0,0.0,0.03889838233590126,-0.019159696996212006,-0.0,0.0,0.0,0.0,0.0007716560503467917,0.004999999888241291,-0.002597697079181671,7315.0,37332.0,0.0,48776.0,0.021602682769298553,0.15526330471038818,-0.030329279601573944,0.22528254985809326,0.0,0.0,0.0,0.0,5304.0,37453.0,0.0,50091.0,0.3835738003253937,-0.052819597182966256,-0.10688238675537264,-0.04299993766400811,0.0850035697221756,0.13278160989284515,0.23192588984966278
371,5,-0.006926425267010927,0.002112793968990445,0.004998878575861454,-0.03160996735095978,-0.013314424082636833,-0.016042783856391907,-0.025546109303832054,0.026910439133644104,-0.06857196986675262,-0.07086458802223206,2.2095046043395996,-0.23262740671634674,0.0,0.0,0.0,0.023100269958376884,-0.045876093208789825,-0.0,0.0,0.0,0.0,0.0007716560503467917,0.004999999888241291,-0.002597697079181671,7315.0,37332.0,0.0,48776.0,0.021602682769298553,0.15526330471038818,-0.030329279601573944,0.22528254985809326,0.0,0.0,0.0,0.0,5304.0,37453.0,0.0,50091.0,0.3837192952632904,-0.05384071275857679,-0.09357932200608195,-0.04614575441079156,0.20363274216651917,0.07890903204679489,0.3559131920337677
376,5,-0.0069476584903895855,0.002253301441669464,0.005079925525933504,-0.012455604039132595,-0.023665381595492363,-0.01615936867892742,-0.025683317333459854,0.011319348588585854,-0.07094883173704147,-0.04726005718111992,1.8361268043518066,-0.21792206168174744,0.0,0.0,0.0,0.035388316959142685,-0.02883709967136383,-0.0,0.0,0.0,0.0,0.0013035746524110436,0.004999999888241291,-0.0027549571823328733,4823.0,37825.0,0.0,50312.0,0.013761945068836212,0.15806683897972107,-0.030776090919971466,0.23548001050949097,0.0,0.0,0.0,0.0,2409.0,36913.0,0.0,51627.0,0.38633814454078674,-0.04874699747829573,-0.08801726196059427,-0.045701810072881106,0.128846675157547,0.12167621403932571,0.3728542625904083
381,5,-0.007040311116725206,0.002342968015000224,0.005196838174015284,-0.01670808158814907,-0.01965295523405075,-0.02121557481586933,-0.025683317333459854,0.011319348588585854,-0.07094883173704147,-0.04726005718111992,1.8361268043518066,-0.21792206168174744,0.0,0.0,0.0,0.031039753928780556,-0.03315746784210205,-0.0,0.0,0.0,0.0,0.0013035746524110436,0.004999999888241291,-0.0027549571823328733,4823.0,37825.0,0.0,50312.0,0.013761945068836212,0.15806683897972107,-0.030776090919971466,0.23548001050949097,0.0,0.0,0.0,0.0,2409.0,36913.0,0.0,51627.0,0.38633406162261963,-0.04021727247077499,-0.08168728161750194,-0.0520421109970714,0.14816369116306305,0.10673269629478455,0.4057841897010803
387,5,-0.0068538314662873745,0.0028607931453734636,0.005046398378908634,0.021094735711812973,-0.07839139550924301,0.014696907252073288,-0.026310546323657036,-0.0069244131445884705,-0.07409419864416122,-0.051108770072460175,1.348144769668579,-0.21531489491462708,0.0,0.0,0.0,0.0983288437128067,0.0005311793647706509,-0.0,0.0,0.0,0.0,0.0024744956754148006,0.003838702104985714,-0.0028471178375184536,0.0,39018.0,0.0,50537.0,-0.005339041352272034,0.16491904854774475,-0.016514092683792114,0.2369888871908188,0.0,0.0,0.0,0.0,0.0,40918.0,0.0,49394.0,0.39567744731903076,-0.02703288707618108,-0.0770911192443608,-0.0509557937042947,-0.00240713101811707,0.3453812301158905,0.31202274560928345
392,5,-0.0070400545373559,0.0025214781053364277,0.005243377760052681,-0.019742805510759354,0.023986691609025,-0.023168055340647697,-0.026310546323657036,-0.0069244131445884705,-0.07409419864416122,-0.051108770072460175,1.348144769668579,-0.21531489491462708,0.0,0.0,0.0,-0.0188588947057724,-0.036309316754341125,-0.0,0.0,0.0,0.0,0.0024744956754148006,0.003838702104985714,-0.0028471178375184536,0.0,39018.0,0.0,50537.0,-0.005339041352272034,0.16491904854774475,-0.016514092683792114,0.2369888871908188,0.0,0.0,0.0,0.0,0.0,40918.0,0.0,49394.0,0.38986462354660034,-0.04912659829014124,-0.06753666989954013,-0.04711091096586767,0.16377420723438263,-0.06545249372720718,0.4443521499633789
397,5,-0.007083030883222818,0.002608007751405239,0.005362188443541527,-0.011939536780118942,-0.004918131977319717,-0.023583918809890747,-0.02626626007258892,-0.01544272806495428,-0.07591497153043747,0.01713891327381134,0.8542878031730652,-0.1646176129579544,0.0,0.0,0.0,0.014710814692080021,-0.029682116582989693,-0.0,0.0,0.0,0.0,0.0016578389331698418,0.0014249912928789854,-0.0028879214078187943,0.0,42678.0,0.0,47857.0,-0.015073642134666443,0.18666353821754456,-0.007138118147850037,0.21927320957183838,0.0,0.0,0.0,0.0,0.0,43137.0,0.0,47826.0,0.39183884859085083,-0.04763866709262377,-0.06374040729681298,-0.04936599268300832,0.13457916676998138,0.05131669342517853,0.4637733995914459
402,5,-0.007148608565330505,0.0026905115228146315,0.005453961435705423,-0.012762758880853653,-0.01302596740424633,-0.019923416897654533,-0.02626626007258892,-0.01544272806495428,-0.07591497153043747,0.01713891327381134,0.8542878031730652,-0.1646176129579544,0.0,0.0,0.0,0.024332497268915176,-0.030881866812705994,-0.0,0.0,0.0,0.0,0.0016578389331698418,0.0014249912928789854,-0.0028879214078187943,0.0,42678.0,0.0,47857.0,-0.015073642134666443,0.18666353821754456,-0.007138118147850037,0.21927320957183838,0.0,0.0,0.0,0.0,0.0,43137.0,0.0,47826.0,0.39192676544189453,-0.044551582027844205,-0.060126071004387174,-0.05091351531400594,0.14003655314445496,0.08489538729190826,0.47092992067337036
407,5,-0.007114491891115904,0.00263773649930954,0.00546102924272418,0.0009475206607021391,0.0034807093907147646,-0.00696646748110652,-0.026783842593431473,-0.021697813645005226,-0.07837409526109695,-0.010800667107105255,0.3938140273094177,-0.21482305228710175,0.0,0.0,0.0,0.005511127412319183,-0.01913941651582718,-0.0,0.0,0.0,0.0,0.00038470447179861367,-0.003813348477706313,-0.003000000026077032,0.0,45590.0,2169.0,46781.0,-0.03666859120130539,0.204731285572052,0.005957834422588348,0.21231916546821594,0.0,0.0,0.0,0.0,0.0,47900.0,397.0,44720.0,0.3917015492916107,-0.04723386992295173,-0.06263583214678237,-0.051834498367997466,0.08677774667739868,0.01922444812953472,0.449209064245224
412,5,-0.007412014529109001,0.002535876352339983,0.005026788916438818,-0.04136887565255165,0.01530463807284832,0.058703649789094925,-0.026783842593431473,-0.021697813645005226,-0.07837409526109695,-0.010800667107105255,0.3938140273094177,-0.21482305228710175,0.0,0.0,0.0,-0.007971355691552162,-0.05679512396454811,-0.0,0.0,0.0,0.0,0.00038470447179861367,-0.003813348477706313,-0.003000000026077032,0.0,45590.0,2169.0,46781.0,-0.03666859120130539,0.204731285572052,0.005957834422588348,0.21231916546821594,0.0,0.0,0.0,0.0,0.0,47900.0,397.0,44720.0,0.3950900733470917,-0.05084927106158049,-0.05853906537590951,-0.050641014928749804,0.2595798075199127,-0.02803395316004753,0.2624560594558716
417,5,-0.007177123799920082,0.0026263082399964333,0.005452411249279976,0.02047404833137989,-0.008069086819887161,-0.04197601228952408,-0.026783842593431473,-0.021697813645005226,-0.07837409526109695,-0.010800667107105255,0.3938140273094177,-0.21482305228710175,0.0,0.0,0.0,0.018971292302012444,-0.0027678427286446095,-0.0,0.0,0.0,0.0,0.00038470447179861367,-0.003813348477706313,-0.003000000026077032,0.0,45590.0,2169.0,46781.0,-0.03666859120130539,0.204731285572052,0.005957834422588348,0.21231916546821594,0.0,0.0,0.0,0.0,0.0,47900.0,397.0,44720.0,0.39451301097869873,-0.051577702644090805,-0.07980779647911035,-0.04741543686566688,0.012636018916964531,0.06663279980421066,0.5864837169647217
422,5,-0.007098567672073841,0.002654789946973324,0.005080157890915871,0.017140068113803864,-0.006408150307834148,0.03952266275882721,-0.026887400075793266,-0.022444743663072586,-0.08001086860895157,0.01334309857338667,-0.012228350155055523,-0.1999230682849884,0.0,0.0,0.0,0.017227333039045334,-0.0059347255155444145,-0.0,0.0,0.0,0.0,0.001931943348608911,-0.004999999888241291,-0.003000000026077032,0.0,49623.0,4128.0,42886.0,-0.04060911387205124,0.2308816909790039,0.011662684381008148,0.187933087348938,0.0,0.0,0.0,0.0,0.0,50203.0,5622.0,42250.0,0.3963810205459595,-0.05253810296011974,-0.07611517399907826,-0.046258177426991,0.027222799137234688,0.060790371149778366,0.3527425229549408
427,5,-0.007158548105508089,0.0026726743672043085,0.005108605604618788,-0.003255257150158286,-0.004426287487149239,0.007874123752117157,-0.026887400075793266,-0.022444743663072586,-0.08001086860895157,0.01334309857338667,-0.012228350155055523,-0.1999230682849884,0.0,0.0,0.0,0.01518930308520794,-0.024168502539396286,-0.0,0.0,0.0,0.0,0.001931943348608911,-0.004999999888241291,-0.003000000026077032,0.0,49623.0,4128.0,42886.0,-0.04060911387205124,0.2308816909790039,0.011662684381008148,0.187933087348938,0.0,0.0,0.0,0.0,0.0,50203.0,5622.0,42250.0,0.39647674560546875,-0.053678691129755804,-0.07711097376384383,-0.04786182308086974,0.11088207364082336,0.053612757474184036,0.4634837508201599
432,5,-0.0071853939443826675,0.002671400085091591,0.005107999313622713,-0.004735026974231005,-0.001149468240328133,0.0024471126962453127,-0.02716105803847313,-0.018835021182894707,-0.0816534236073494,-0.04197486862540245,-0.44166281819343567,-0.12103163450956345,0.0,0.0,0.0,0.01160458941012621,-0.025754686444997787,-0.0,0.0,0.0,0.0,0.0016145831905305386,-0.004999999888241291,-0.002904471941292286,0.0,49273.0,9350.0,43433.0,-0.05629337206482887,0.2285628318786621,0.028379417955875397,0.1912844181060791,0.0,0.0,0.0,0.0,0.0,49270.0,9357.0,43437.0,0.39835551381111145,-0.05565234290164524,-0.08097309152665855,-0.04867758476287304,0.11873771250247955,0.041160646826028824,0.495592325925827
437,5,-0.007325673475861549,0.0026708319783210754,0.0049278694204986095,-0.021059609949588776,-0.00026530379545874894,0.025952327996492386,-0.02716105803847313,-0.018835021182894707,-0.0816534236073494,-0.04197486862540245,-0.44166281819343567,-0.12103163450956345,0.0,0.0,0.0,0.010787978768348694,-0.04047597944736481,-0.0,0.0,0.0,0.0,0.0016145831905305386,-0.004999999888241291,-0.002904471941292286,0.0,49273.0,9350.0,43433.0,-0.05629337206482887,0.2285628318786621,0.028379417955875397,0.1912844181060791,0.0,0.0,0.0,0.0,0.0,49270.0,9357.0,43437.0,0.3985462486743927,-0.04550520272978531,-0.07577078675883028,-0.051174758979233584,0.1866605430841446,0.0382830873131752,0.43819600343704224
442,5,-0.007366898935288191,0.0027671419084072113,0.0049162679351866245,-0.012089483439922333,-0.013562998734414577,0.00940990261733532,-0.02701384760439396,-0.01397591270506382,-0.0817328542470932,0.007997071370482445,-0.7037748098373413,0.009775775484740734,0.0,0.0,0.0,0.02612677589058876,-0.03314099833369255,-0.0,0.0,0.0,0.0,0.0014948493335396051,-0.004999999888241291,-0.002867838367819786,0.0,49046.0,10442.0,42289.0,-0.04703638330101967,0.22706589102745056,0.03214864432811737,0.18429970741271973,0.0,0.0,0.0,0.0,0.0,49084.0,10088.0,42616.0,0.3986424505710602,-0.04471946809410386,-0.08140792572346837,-0.050980512233932324,0.15282966196537018,0.09270913153886795,0.5028018951416016
448,5,-0.007272383663803339,0.0026980543043464422,0.004823259077966213,0.009605307132005692,0.005603378638625145,0.015844210982322693,-0.02701384760439396,-0.01397591270506382,-0.0817328542470932,0.007997071370482445,-0.7037748098373413,0.009775775484740734,0.0,0.0,0.0,0.004603581503033638,-0.014606828801333904,-0.0,0.0,0.0,0.0,0.0014948493335396051,-0.004999999888241291,-0.002867838367819786,0.0,49046.0,10442.0,42289.0,-0.04703638330101967,0.22706589102745056,0.03214864432811737,0.18429970741271973,0.0,0.0,0.0,0.0,0.0,49084.0,10088.0,42616.0,0.3983342945575714,-0.05289727306698968,-0.0871746597881907,-0.05107564457144452,0.06733949482440948,0.016326144337654114,0.4975854158401489
453,5,-0.0070910220965743065,0.0028755536768585443,0.004837986081838608,0.028272241353988647,-0.023168889805674553,0.0026914963964372873,-0.02671048790216446,0.004081033635884523,-0.08047112077474594,0.0441804938018322,-1.008423089981079,0.05607017129659653,0.0,0.0,0.0,0.03767238184809685,0.001446233713068068,-0.0,0.0,0.0,0.0,0.001359008951112628,-0.004999999888241291,-0.0028456728905439377,0.0,49142.0,10557.0,42083.0,-0.044757064431905746,0.22769761085510254,0.03255239129066467,0.1830558478832245,0.0,0.0,0.0,0.0,0.0,48795.0,10913.0,42125.0,0.39712461829185486,-0.043435199897888986,-0.10033856055389477,-0.05089669722360801,-0.006628494709730148,0.13314500451087952,0.5520970821380615
458,5,-0.007217561826109886,0.002982305595651269,0.004855894949287176,-0.00923391804099083,-0.021895959973335266,-0.001699827378615737,-0.02671048790216446,0.004081033635884523,-0.08047112077474594,0.0441804938018322,-1.008423089981079,0.05607017129659653,0.0,0.0,0.0,0.03660019859671593,-0.03176070377230644,-0.0,0.0,0.0,0.0,0.001359008951112628,-0.004999999888241291,-0.0028456728905439377,0.0,49142.0,10557.0,42083.0,-0.044757064431905746,0.22769761085510254,0.03255239129066467,0.1830558478832245,0.0,0.0,0.0,0.0,0.0,48795.0,10913.0,42125.0,0.39730873703956604,-0.04256670799095686,-0.10196725399767555,-0.05408953968348901,0.14592863619327545,0.12941311299800873,0.5806593298912048
463,5,-0.0071442206390202045,0.002826960990205407,0.004797577392309904,0.007497576531022787,0.015179460868239403,0.007654519751667976,-0.026383420452475548,0.012798800133168697,-0.0797424241900444,0.03158377483487129,-1.1136658191680908,0.08856254816055298,0.0,0.0,0.0,-0.005409589968621731,-0.017532415688037872,-0.0,0.0,0.0,0.0,0.0011233182158321142,-0.004999999888241291,-0.0028305319137871265,0.0,49227.0,10366.0,41760.0,-0.04291542246937752,0.22825941443443298,0.031883932650089264,0.1811075508594513,0.0,0.0,0.0,0.0,0.0,49198.0,10452.0,42067.0,0.39607444405555725,-0.055863429610691635,-0.11324629658320151,-0.050359992297555195,0.08038100600242615,-0.019070034846663475,0.5670132040977478
468,5,-0.007183816283941269,0.0027742322999984026,0.004729828797280788,-0.003294103778898716,0.011935851536691189,0.01178118959069252,-0.026383420452475548,0.012798800133168697,-0.0797424241900444,0.03158377483487129,-1.1136658191680908,0.08856254816055298,0.0,0.0,0.0,-0.0016336622647941113,-0.027358882129192352,-0.0,0.0,0.0,0.0,0.0011233182158321142,-0.004999999888241291,-0.0028305319137871265,0.0,49227.0,10366.0,41760.0,-0.04291542246937752,0.22825941443443298,0.031883932650089264,0.1811075508594513,0.0,0.0,0.0,0.0,0.0,49198.0,10452.0,42067.0,0.39615657925605774,-0.0681363754376478,-0.1287699564009977,-0.046762454816609074,0.1254429966211319,-0.005756430793553591,0.5675248503684998
