timestamp,dt,pos_x,pos_y,pos_z,vel_x,vel_y,vel_z,roll,pitch,yaw,agv_x,agv_y,agv_z,x_ref,y_ref,z_ref,roll_ref,pitch_ref,yaw_ref,x_vel_ref,y_vel_ref,z_vel_ref,x_torque,y_torque,z_torque,w0,w1,w2,w3,u0,u1,u2,u3,m0req,m1req,m2req,m3req,thrust0,thrust1,thrust2,thrust3,thrust_ref,roll_vicon,pitch_vicon,yaw_vicon,acc_x,acc_y,acc_z
5,5,0.0,0.0,0.0,0.0,-0.0,-0.0,-0.020213007926940918,0.4606458842754364,0.006758979056030512,-0.0037721600383520126,0.00011007123976014555,-0.0017840065993368626,0.0,0.0,0.0,-0.0,-0.0,-0.0,0.0,0.0,0.0,0.0005825194530189037,-0.004999999888241291,0.00020262622274458408,0.0,0.0,0.0,0.0,0.0,0.0,0.0,0.0,0.0,0.0,0.0,0.0,0.0,0.0,0.0,0.0,0.3390336036682129,0.0,0.0,0.0,0.0,0.0,0.0
23,18,0.0,0.0,0.0,0.0,-0.0,-0.0,-0.020213007926940918,0.4606458842754364,0.006758979056030512,-0.0037721600383520126,0.00011007123976014555,-0.0017840065993368626,0.0,0.0,0.0,-0.0,-0.0,-0.0,0.0,0.0,0.0,0.0005825194530189037,-0.004999999888241291,0.00020262622274458408,0.0,0.0,0.0,0.0,0.0,0.0,0.0,0.0,0.0,0.0,0.0,0.0,0.0,0.0,0.0,0.0,0.3390336036682129,0.0,0.0,0.0,0.0,0.0,0.0
28,5,0.0,0.0,0.0,0.0,-0.0,-0.0,-0.02024107053875923,0.46066156029701233,0.0067475177347660065,0.0067759850062429905,-0.0029909778386354446,-0.001351278042420745,0.0,0.0,0.0,-0.0,-0.0,-0.0,0.0,0.0,0.0,0.0005767475231550634,-0.004999999888241291,0.00020156858954578638,0.0,0.0,0.0,0.0,0.0,0.0,0.0,0.0,0.0,0.0,0.0,0.0,0.0,0.0,0.0,0.0,0.3390336036682129,0.0,0.0,0.0,0.0,0.0,0.0
42,14,0.0,0.0,0.0,0.0,-0.0,-0.0,-0.02024107053875923,0.46066156029701233,0.0067475177347660065,0.0067759850062429905,-0.0029909778386354446,-0.001351278042420745,0.0,0.0,0.0,-0.0,-0.0,-0.0,0.0,0.0,0.0,0.0005767475231550634,-0.004999999888241291,0.00020156858954578638,0.0,0.0,0.0,0.0,0.0,0.0,0.0,0.0,0.0,0.0,0.0,0.0,0.0,0.0,0.0,0.0,0.3390336036682129,0.0,0.0,0.0,0.0,0.0,0.0
47,5,0.0,0.0,0.0,0.0,-0.0,-0.0,-0.02024107053875923,0.46066156029701233,0.0067475177347660065,0.0067759850062429905,-0.0029909778386354446,-0.001351278042420745,0.0,0.0,0.0,-0.0,-0.0,-0.0,0.0,0.0,0.0,0.0005767475231550634,-0.004999999888241291,0.00020156858954578638,0.0,0.0,0.0,0.0,0.0,0.0,0.0,0.0,0.0,0.0,0.0,0.0,0.0,0.0,0.0,0.0,0.3390336036682129,0.0,0.0,0.0,0.0,0.0,0.0
53,5,0.0,0.0,0.0,0.0,-0.0,-0.0,-0.02022811770439148,0.46067535877227783,0.006724310573190451,0.00014927686424925923,-0.0013788178330287337,-0.0023956310469657183,0.0,0.0,0.0,-0.0,-0.0,-0.0,0.0,0.0,0.0,0.0005713426508009434,-0.004999999888241291,0.0002576849365141243,17299.0,27681.0,31974.0,15409.0,0.0580248199403286,0.10439249128103256,0.12609991431236267,0.05051637813448906,0.0,0.0,0.0,0.0,17386.0,27625.0,32026.0,15318.0,0.3390336036682129,0.0,0.0,0.0,0.0,0.0,0.0
58,5,0.0,0.0,0.0,0.0,-0.0,-0.0,-0.02022811770439148,0.46067535877227783,0.006724310573190451,0.00014927686424925923,-0.0013788178330287337,-0.0023956310469657183,0.0,0.0,0.0,-0.0,-0.0,-0.0,0.0,0.0,0.0,0.0005713426508009434,-0.004999999888241291,0.0002576849365141243,17299.0,27681.0,31974.0,15409.0,0.0580248199403286,0.10439249128103256,0.12609991431236267,0.05051637813448906,0.0,0.0,0.0,0.0,17386.0,27625.0,32026.0,15318.0,0.3390336036682129,0.0,0.0,0.0,0.0,0.0,0.0
63,5,0.0,0.0,0.0,0.0,-0.0,-0.0,-0.020289350301027298,0.4606539309024811,0.006912067998200655,0.005032023414969444,-0.014188418164849281,0.034522198140621185,0.0,0.0,0.0,-0.0,-0.0,-0.0,0.0,0.0,0.0,0.000584519817493856,-0.004999999888241291,9.044682519743219e-05,15988.0,28714.0,30994.0,16735.0,0.05278676003217697,0.10948026180267334,0.12101215124130249,0.055754438042640686,0.0,0.0,0.0,0.0,17813.0,27285.0,32342.0,14869.0,0.3390336036682129,0.0,0.0,0.0,0.0,0.0,0.0
68,5,0.0,0.0,0.0,0.0,-0.0,-0.0,-0.020289350301027298,0.4606539309024811,0.006912067998200655,0.005032023414969444,-0.014188418164849281,0.034522198140621185,0.0,0.0,0.0,-0.0,-0.0,-0.0,0.0,0.0,0.0,0.000584519817493856,-0.004999999888241291,9.044682519743219e-05,15988.0,28714.0,30994.0,16735.0,0.05278676003217697,0.10948026180267334,0.12101215124130249,0.055754438042640686,0.0,0.0,0.0,0.0,17813.0,27285.0,32342.0,14869.0,0.3390336036682129,0.0,0.0,0.0,0.0,0.0,0.0
73,5,0.0,0.0,0.0,0.0,-0.0,-0.0,-0.020289350301027298,0.4606539309024811,0.006912067998200655,0.005032023414969444,-0.014188418164849281,0.034522198140621185,0.0,0.0,0.0,-0.0,-0.0,-0.0,0.0,0.0,0.0,0.000584519817493856,-0.004999999888241291,9.044682519743219e-05,15988.0,28714.0,30994.0,16735.0,0.05278676003217697,0.10948026180267334,0.12101215124130249,0.055754438042640686,0.0,0.0,0.0,0.0,17813.0,27285.0,32342.0,14869.0,0.3390336036682129,0.0,0.0,0.0,0.0,0.0,0.0
78,5,0.0,0.0,0.0,0.0,-0.0,-0.0,-0.020213233307003975,0.46088629961013794,0.0061197178438305855,-0.021602332592010498,0.06251709163188934,0.05265023559331894,0.0,0.0,0.0,-0.0,-0.0,-0.0,0.0,0.0,0.0,0.0006539087044075131,-0.004999999888241291,0.0002433529298286885,17628.0,27225.0,32396.0,15064.0,0.05936368554830551,0.10217862576246262,0.12831377983093262,0.049177512526512146,0.0,0.0,0.0,0.0,15392.0,29101.0,30618.0,17315.0,0.3390336036682129,0.0,0.0,0.0,0.0,0.0,0.0
83,5,0.0,0.0,0.0,0.0,-0.0,-0.0,-0.020213233307003975,0.46088629961013794,0.0061197178438305855,-0.021602332592010498,0.06251709163188934,0.05265023559331894,0.0,0.0,0.0,-0.0,-0.0,-0.0,0.0,0.0,0.0,0.0006539087044075131,-0.004999999888241291,0.0002433529298286885,17628.0,27225.0,32396.0,15064.0,0.05936368554830551,0.10217862576246262,0.12831377983093262,0.049177512526512146,0.0,0.0,0.0,0.0,15392.0,29101.0,30618.0,17315.0,0.3390336036682129,0.0,0.0,0.0,0.0,0.0,0.0
88,5,0.0,0.0,0.0,0.0,-0.0,-0.0,-0.020040465518832207,0.45922374725341797,0.006845830474048853,0.05945794656872749,0.15873579680919647,0.05259272828698158,0.0,0.0,0.0,-0.0,-0.0,-0.0,0.0,0.0,0.0,0.0004489254206418991,-0.004999999888241291,0.00029286695644259453,18342.0,27105.0,32507.0,14301.0,0.062291692942380905,0.10159695893526077,0.12889544665813446,0.04624950513243675,0.0,0.0,0.0,0.0,17916.0,27252.0,32371.0,14759.0,0.3390336036682129,0.0,0.0,0.0,0.0,0.0,0.0
93,5,0.0,0.0,0.0,0.0,-0.0,-0.0,-0.020040465518832207,0.45922374725341797,0.006845830474048853,0.05945794656872749,0.15873579680919647,0.05259272828698158,0.0,0.0,0.0,-0.0,-0.0,-0.0,0.0,0.0,0.0,0.0004489254206418991,-0.004999999888241291,0.00029286695644259453,18342.0,27105.0,32507.0,14301.0,0.062291692942380905,0.10159695893526077,0.12889544665813446,0.04624950513243675,0.0,0.0,0.0,0.0,17916.0,27252.0,32371.0,14759.0,0.3390336036682129,0.0,0.0,0.0,0.0,0.0,0.0
99,5,0.0,0.0,0.0,0.0,-0.0,-0.0,-0.020413754507899284,0.4579107165336609,0.00670386478304863,-0.06022410839796066,0.14392909407615662,-0.03954631835222244,0.0,0.0,0.0,-0.0,-0.0,-0.0,0.0,0.0,0.0,0.000706116552464664,-0.004999999888241291,0.00015004375018179417,16687.0,27875.0,31792.0,16036.0,0.055563658475875854,0.10534197092056274,0.12515044212341309,0.0529775395989418,0.0,0.0,0.0,0.0,16466.0,28251.0,31436.0,16259.0,0.3390336036682129,0.0,0.0,0.0,0.0,0.0,0.0
104,5,0.0,0.0,0.0,0.0,-0.0,-0.0,-0.020413754507899284,0.4579107165336609,0.00670386478304863,-0.06022410839796066,0.14392909407615662,-0.03954631835222244,0.0,0.0,0.0,-0.0,-0.0,-0.0,0.0,0.0,0.0,0.000706116552464664,-0.004999999888241291,0.00015004375018179417,16687.0,27875.0,31792.0,16036.0,0.055563658475875854,0.10534197092056274,0.12515044212341309,0.0529775395989418,0.0,0.0,0.0,0.0,16466.0,28251.0,31436.0,16259.0,0.3390336036682129,0.0,0.0,0.0,0.0,0.0,0.0
109,5,0.0,0.0,0.0,0.0,-0.0,-0.0,-0.020014647394418716,0.4565562605857849,0.0061879768036305904,0.01265084557235241,0.10027538985013962,0.023424597457051277,0.0,0.0,0.0,-0.0,-0.0,-0.0,0.0,0.0,0.0,0.000522717135027051,-0.004999999888241291,0.00012330469326116145,17129.0,27931.0,31739.0,15584.0,0.05733928829431534,0.1056196466088295,0.12487276643514633,0.05120190978050232,0.0,0.0,0.0,0.0,18250.0,26887.0,32706.0,14400.0,0.3390336036682129,0.0,0.0,0.0,0.0,0.0,0.0
114,5,0.0,0.0,0.0,0.0,-0.0,-0.0,-0.020014647394418716,0.4565562605857849,0.0061879768036305904,0.01265084557235241,0.10027538985013962,0.023424597457051277,0.0,0.0,0.0,-0.0,-0.0,-0.0,0.0,0.0,0.0,0.000522717135027051,-0.004999999888241291,0.00012330469326116145,17129.0,27931.0,31739.0,15584.0,0.05733928829431534,0.1056196466088295,0.12487276643514633,0.05120190978050232,0.0,0.0,0.0,0.0,18250.0,26887.0,32706.0,14400.0,0.3390336036682129,0.0,0.0,0.0,0.0,0.0,0.0
119,5,0.0,0.0,0.0,0.0,-0.0,-0.0,-0.020121779292821884,0.45590364933013916,0.006580644752830267,0.019216615706682205,0.1250506192445755,0.028186649084091187,0.0,0.0,0.0,-0.0,-0.0,-0.0,0.0,0.0,0.0,0.0005541194113902748,-0.004999999888241291,0.00022644978889729828,17623.0,27481.0,32160.0,15070.0,0.0593414381146431,0.10341780632734299,0.12707459926605225,0.04919975996017456,0.0,0.0,0.0,0.0,18123.0,27080.0,32530.0,14538.0,0.3390336036682129,0.0,0.0,0.0,0.0,0.0,0.0
124,5,0.0,0.0,0.0,0.0,-0.0,-0.0,-0.020121779292821884,0.45590364933013916,0.006580644752830267,0.019216615706682205,0.1250506192445755,0.028186649084091187,0.0,0.0,0.0,-0.0,-0.0,-0.0,0.0,0.0,0.0,0.0005541194113902748,-0.004999999888241291,0.00022644978889729828,17623.0,27481.0,32160.0,15070.0,0.0593414381146431,0.10341780632734299,0.12707459926605225,0.04919975996017456,0.0,0.0,0.0,0.0,18123.0,27080.0,32530.0,14538.0,0.3390336036682129,0.0,0.0,0.0,0.0,0.0,0.0
129,5,0.0,0.0,0.0,0.0,-0.0,-0.0,-0.020084304735064507,0.4541366398334503,0.006305229384452105,-0.04224995896220207,0.20346125960350037,-0.06407834589481354,0.0,0.0,0.0,-0.0,-0.0,-0.0,0.0,0.0,0.0,0.0005933267530053854,-0.004999999888241291,6.31425718893297e-05,16038.0,28622.0,31082.0,16685.0,0.05298430845141411,0.10902614146471024,0.1214662715792656,0.05555688962340355,0.0,0.0,0.0,0.0,16596.0,28048.0,31629.0,16128.0,0.3390336036682129,0.0,0.0,0.0,0.0,0.0,0.0
134,5,0.0,0.0,0.0,0.0,-0.0,-0.0,-0.020084304735064507,0.4541366398334503,0.006305229384452105,-0.04224995896220207,0.20346125960350037,-0.06407834589481354,0.0,0.0,0.0,-0.0,-0.0,-0.0,0.0,0.0,0.0,0.0005933267530053854,-0.004999999888241291,6.31425718893297e-05,16038.0,28622.0,31082.0,16685.0,0.05298430845141411,0.10902614146471024,0.1214662715792656,0.05555688962340355,0.0,0.0,0.0,0.0,16596.0,28048.0,31629.0,16128.0,0.3390336036682129,0.0,0.0,0.0,0.0,0.0,0.0
139,5,0.0,0.0,0.0,0.0,-0.0,-0.0,-0.020107803866267204,0.45237743854522705,0.006146534811705351,0.03218735381960869,0.2630229592323303,-0.033551089465618134,0.0,0.0,0.0,-0.0,-0.0,-0.0,0.0,0.0,0.0,0.0005241031176410615,-0.004999999888241291,0.00010403161286376417,16535.0,28449.0,31248.0,16190.0,0.05495662987232208,0.10816868394613266,0.12232372909784317,0.053584568202495575,0.0,0.0,0.0,0.0,17143.0,27927.0,31743.0,15569.0,0.3390336036682129,0.0,0.0,0.0,0.0,0.0,0.0
144,5,0.0,0.0,0.0,0.0,-0.0,-0.0,-0.020107803866267204,0.45237743854522705,0.006146534811705351,0.03218735381960869,0.2630229592323303,-0.033551089465618134,0.0,0.0,0.0,-0.0,-0.0,-0.0,0.0,0.0,0.0,0.0005241031176410615,-0.004999999888241291,0.00010403161286376417,16535.0,28449.0,31248.0,16190.0,0.05495662987232208,0.10816868394613266,0.12232372909784317,0.053584568202495575,0.0,0.0,0.0,0.0,17143.0,27927.0,31743.0,15569.0,0.3390336036682129,0.0,0.0,0.0,0.0,0.0,0.0
149,5,0.0,0.0,0.0,0.0,-0.0,-0.0,-0.020107803866267204,0.45237743854522705,0.006146534811705351,0.03218735381960869,0.2630229592323303,-0.033551089465618134,0.0,0.0,0.0,-0.0,-0.0,-0.0,0.0,0.0,0.0,0.0005241031176410615,-0.004999999888241291,0.00010403161286376417,16535.0,28449.0,31248.0,16190.0,0.05495662987232208,0.10816868394613266,0.12232372909784317,0.053584568202495575,0.0,0.0,0.0,0.0,17143.0,27927.0,31743.0,15569.0,0.3390336036682129,0.0,0.0,0.0,0.0,0.0,0.0
154,5,0.0,0.0,0.0,0.0,-0.0,-0.0,-0.02037382870912552,0.44913968443870544,0.00661105290055275,-0.046429168432950974,0.26469701528549194,0.05998286232352257,0.0,0.0,0.0,-0.0,-0.0,-0.0,0.0,0.0,0.0,0.0006375607918016613,-0.004999999888241291,0.00027377510559745133,17997.0,26912.0,32684.0,14672.0,0.060873642563819885,0.10066168010234833,0.1298307329416275,0.04766755551099777,0.0,0.0,0.0,0.0,18017.0,26926.0,32671.0,14651.0,0.3390336036682129,0.0,0.0,0.0,0.0,0.0,0.0
159,5,0.0,0.0,0.0,0.0,-0.0,-0.0,-0.02037382870912552,0.44913968443870544,0.00661105290055275,-0.046429168432950974,0.26469701528549194,0.05998286232352257,0.0,0.0,0.0,-0.0,-0.0,-0.0,0.0,0.0,0.0,0.0006375607918016613,-0.004999999888241291,0.00027377510559745133,17997.0,26912.0,32684.0,14672.0,0.060873642563819885,0.10066168010234833,0.1298307329416275,0.04766755551099777,0.0,0.0,0.0,0.0,18017.0,26926.0,32671.0,14651.0,0.3390336036682129,0.0,0.0,0.0,0.0,0.0,0.0
164,5,0.0,0.0,0.0,0.0,-0.0,-0.0,-0.02019442245364189,0.4457605481147766,0.006553878542035818,0.02545316144824028,0.47694486379623413,0.009452602826058865,0.0,0.0,0.0,-0.0,-0.0,-0.0,0.0,0.0,0.0,0.000677678151987493,-0.004999999888241291,0.00023753430286888033,17486.0,27640.0,32012.0,15213.0,0.05878575146198273,0.1041923388838768,0.12630008161067963,0.04975544661283493,0.0,0.0,0.0,0.0,17307.0,27736.0,31922.0,15401.0,0.3390336036682129,0.0,0.0,0.0,0.0,0.0,0.0
170,5,0.0,0.0,0.0,0.0,-0.0,-0.0,-0.02019442245364189,0.4457605481147766,0.006553878542035818,0.02545316144824028,0.47694486379623413,0.009452602826058865,0.0,0.0,0.0,-0.0,-0.0,-0.0,0.0,0.0,0.0,0.000677678151987493,-0.004999999888241291,0.00023753430286888033,17486.0,27640.0,32012.0,15213.0,0.05878575146198273,0.1041923388838768,0.12630008161067963,0.04975544661283493,0.0,0.0,0.0,0.0,17307.0,27736.0,31922.0,15401.0,0.3390336036682129,0.0,0.0,0.0,0.0,0.0,0.0
175,5,0.0,0.0,0.0,0.0,-0.0,-0.0,-0.020367493852972984,0.44136375188827515,0.006552644539624453,-0.025928625836968422,0.6527645587921143,0.0010103436652570963,0.0,0.0,0.0,-0.0,-0.0,-0.0,0.0,0.0,0.0,0.0005260677426122129,-0.004999999888241291,0.0002474623324815184,17383.0,27412.0,32224.0,15321.0,0.05836714059114456,0.10308486223220825,0.12740755081176758,0.050174057483673096,0.0,0.0,0.0,0.0,17398.0,27642.0,32010.0,15305.0,0.3390336036682129,0.0,0.0,0.0,0.0,0.0,0.0
180,5,0.0,0.0,0.0,0.0,-0.0,-0.0,-0.020367493852972984,0.44136375188827515,0.006552644539624453,-0.025928625836968422,0.6527645587921143,0.0010103436652570963,0.0,0.0,0.0,-0.0,-0.0,-0.0,0.0,0.0,0.0,0.0005260677426122129,-0.004999999888241291,0.0002474623324815184,17383.0,27412.0,32224.0,15321.0,0.05836714059114456,0.10308486223220825,0.12740755081176758,0.050174057483673096,0.0,0.0,0.0,0.0,17398.0,27642.0,32010.0,15305.0,0.3390336036682129,0.0,0.0,0.0,0.0,0.0,0.0
185,5,0.0,0.0,0.0,0.0,-0.0,-0.0,-0.020475275814533234,0.42280876636505127,0.006814863532781601,-0.044227246195077896,1.2294628620147705,0.05834081768989563,0.0,0.0,0.0,-0.0,-0.0,-0.0,0.0,0.0,0.0,0.0006434830138459802,-0.004999999888241291,0.00031445486820302904,18249.0,26700.0,32877.0,14402.0,0.06190931797027588,0.09964169561862946,0.13085071742534637,0.04663188010454178,0.0,0.0,0.0,0.0,17831.0,27218.0,32403.0,14850.0,0.3390336036682129,0.0,0.0,0.0,0.0,0.0,0.0
190,5,0.0,0.0,0.0,0.0,-0.0,-0.0,-0.020475275814533234,0.42280876636505127,0.006814863532781601,-0.044227246195077896,1.2294628620147705,0.05834081768989563,0.0,0.0,0.0,-0.0,-0.0,-0.0,0.0,0.0,0.0,0.0006434830138459802,-0.004999999888241291,0.00031445486820302904,18249.0,26700.0,32877.0,14402.0,0.06190931797027588,0.09964169561862946,0.13085071742534637,0.04663188010454178,0.0,0.0,0.0,0.0,17831.0,27218.0,32403.0,14850.0,0.3390336036682129,0.0,0.0,0.0,0.0,0.0,0.0
195,5,0.0,0.0,0.0,0.0,-0.0,-0.0,-0.020394805818796158,0.40565407276153564,0.006909987423568964,-0.0005414438201114535,1.641942024230957,0.05559425801038742,0.0,0.0,0.0,-0.0,-0.0,-0.0,0.0,0.0,0.0,0.0005937098176218569,-0.0033824611455202103,0.00023982813581824303,20931.0,24435.0,30110.0,17860.0,0.07326139509677887,0.08896671235561371,0.11649410426616669,0.060311395674943924,0.0,0.0,0.0,0.0,18585.0,26438.0,32268.0,15201.0,0.3390336036682129,0.0,0.0,0.0,0.0,0.0,0.0
200,5,0.0,0.0,0.0,0.0,-0.0,-0.0,-0.020394805818796158,0.40565407276153564,0.006909987423568964,-0.0005414438201114535,1.641942024230957,0.05559425801038742,0.0,0.0,0.0,-0.0,-0.0,-0.0,0.0,0.0,0.0,0.0005937098176218569,-0.0033824611455202103,0.00023982813581824303,20931.0,24435.0,30110.0,17860.0,0.07326139509677887,0.08896671235561371,0.11649410426616669,0.060311395674943924,0.0,0.0,0.0,0.0,18585.0,26438.0,32268.0,15201.0,0.3390336036682129,0.0,0.0,0.0,0.0,0.0,0.0
205,5,0.0,0.0,0.0,0.0,-0.0,-0.0,-0.020813731476664543,0.39119502902030945,0.007151096127927303,-0.03546956926584244,1.8950892686843872,0.05081920325756073,0.0,0.0,0.0,-0.0,-0.0,-0.0,0.0,0.0,0.0,0.0006452607340179384,-0.0003425411996431649,0.0003357982786837965,24329.0,20874.0,27666.0,20922.0,0.08847624808549881,0.0730152502655983,0.10431919246912003,0.07322291284799576,0.0,0.0,0.0,0.0,21942.0,23304.0,29547.0,18731.0,0.3390336036682129,0.0,0.0,0.0,0.0,0.0,0.0
210,5,0.0,0.0,0.0,0.0,-0.0,-0.0,-0.020813731476664543,0.39119502902030945,0.007151096127927303,-0.03546956926584244,1.8950892686843872,0.05081920325756073,0.0,0.0,0.0,-0.0,-0.0,-0.0,0.0,0.0,0.0,0.0006452607340179384,-0.0003425411996431649,0.0003357982786837965,24329.0,20874.0,27666.0,20922.0,0.08847624808549881,0.0730152502655983,0.10431919246912003,0.07322291284799576,0.0,0.0,0.0,0.0,21942.0,23304.0,29547.0,18731.0,0.3390336036682129,0.0,0.0,0.0,0.0,0.0,0.0
215,5,0.0,0.0,0.0,0.0,-0.0,-0.0,-0.021063929423689842,0.36542749404907227,0.007217529229819775,-0.005218339152634144,2.358668088912964,0.09833076596260071,0.0,0.0,0.0,-0.0,-0.0,-0.0,0.0,0.0,0.0,0.0006073542172089219,0.0021117061842232943,0.00030179868917912245,28836.0,15741.0,23724.0,24966.0,0.1100863367319107,0.0518156923353672,0.08569999039173126,0.09143158793449402,0.0,0.0,0.0,0.0,28764.0,15650.0,23988.0,24859.0,0.3390336036682129,0.0,0.0,0.0,0.0,0.0,0.0
220,5,0.0,0.0,0.0,0.0,-0.0,-0.0,-0.021063929423689842,0.36542749404907227,0.007217529229819775,-0.005218339152634144,2.358668088912964,0.09833076596260071,0.0,0.0,0.0,-0.0,-0.0,-0.0,0.0,0.0,0.0,0.0006073542172089219,0.0021117061842232943,0.00030179868917912245,28836.0,15741.0,23724.0,24966.0,0.1100863367319107,0.0518156923353672,0.08569999039173126,0.09143158793449402,0.0,0.0,0.0,0.0,28764.0,15650.0,23988.0,24859.0,0.3390336036682129,0.0,0.0,0.0,0.0,0.0,0.0
225,5,0.0,0.0,0.0,0.0,-0.0,-0.0,-0.021063929423689842,0.36542749404907227,0.007217529229819775,-0.005218339152634144,2.358668088912964,0.09833076596260071,0.0,0.0,0.0,-0.0,-0.0,-0.0,0.0,0.0,0.0,0.0006073542172089219,0.0021117061842232943,0.00030179868917912245,28836.0,15741.0,23724.0,24966.0,0.1100863367319107,0.0518156923353672,0.08569999039173126,0.09143158793449402,0.0,0.0,0.0,0.0,28764.0,15650.0,23988.0,24859.0,0.3390336036682129,0.0,0.0,0.0,0.0,0.0,0.0
230,5,0.0,0.0,0.0,0.0,-0.0,-0.0,-0.021542206406593323,0.34536007046699524,0.0073392693884670734,-0.042734213173389435,2.680701971054077,0.09078662842512131,0.0,0.0,0.0,-0.0,-0.0,-0.0,0.0,0.0,0.0,0.0007107954588718712,0.004555636551231146,0.00029081120737828314,30994.0,12558.0,20722.0,27995.0,0.1210116595029831,0.03973300755023956,0.07235628366470337,0.10593265295028687,0.0,0.0,0.0,0.0,32057.0,11194.0,21040.0,27591.0,0.3390336036682129,0.0,0.0,0.0,0.0,0.0,0.0
235,5,0.0,0.0,0.0,0.0,-0.0,-0.0,-0.021542206406593323,0.34536007046699524,0.0073392693884670734,-0.042734213173389435,2.680701971054077,0.09078662842512131,0.0,0.0,0.0,-0.0,-0.0,-0.0,0.0,0.0,0.0,0.0007107954588718712,0.004555636551231146,0.00029081120737828314,30994.0,12558.0,20722.0,27995.0,0.1210116595029831,0.03973300755023956,0.07235628366470337,0.10593265295028687,0.0,0.0,0.0,0.0,32057.0,11194.0,21040.0,27591.0,0.3390336036682129,0.0,0.0,0.0,0.0,0.0,0.0
240,5,0.0,0.0,0.0,0.0,-0.0,-0.0,-0.02189161255955696,0.31141045689582825,0.0074478029273450375,-0.0383269339799881,2.889718532562256,0.045569971203804016,0.0,0.0,0.0,-0.0,-0.0,-0.0,0.0,0.0,0.0,0.0006332761258818209,0.004999999888241291,0.0002907174057327211,31178.0,12490.0,19953.0,28522.0,0.12196265161037445,0.039484903216362,0.06905629485845566,0.10852976143360138,0.0,0.0,0.0,0.0,31550.0,11697.0,20625.0,28132.0,0.3390336036682129,0.0,0.0,0.0,0.0,0.0,0.0
245,5,0.0,0.0,0.0,0.0,-0.0,-0.0,-0.02189161255955696,0.31141045689582825,0.0074478029273450375,-0.0383269339799881,2.889718532562256,0.045569971203804016,0.0,0.0,0.0,-0.0,-0.0,-0.0,0.0,0.0,0.0,0.0006332761258818209,0.004999999888241291,0.0002907174057327211,31178.0,12490.0,19953.0,28522.0,0.12196265161037445,0.039484903216362,0.06905629485845566,0.10852976143360138,0.0,0.0,0.0,0.0,31550.0,11697.0,20625.0,28132.0,0.3390336036682129,0.0,0.0,0.0,0.0,0.0,0.0
250,5,0.0,0.0,0.0,0.0,-0.0,-0.0,-0.022540735080838203,0.28670936822891235,0.007595805451273918,-0.06518315523862839,3.239231824874878,0.0749460980296135,0.0,0.0,0.0,-0.0,-0.0,-0.0,0.0,0.0,0.0,0.0007869030814617872,0.004999999888241291,0.0003309288586024195,31423.0,11719.0,20606.0,28265.0,0.12323031574487686,0.03668408840894699,0.07185710966587067,0.10726209729909897,0.0,0.0,0.0,0.0,31330.0,12151.0,20243.0,28363.0,0.3390336036682129,0.0,0.0,0.0,0.0,0.0,0.0
256,5,0.0,0.0,0.0,0.0,-0.0,-0.0,-0.022540735080838203,0.28670936822891235,0.007595805451273918,-0.06518315523862839,3.239231824874878,0.0749460980296135,0.0,0.0,0.0,-0.0,-0.0,-0.0,0.0,0.0,0.0,0.0007869030814617872,0.004999999888241291,0.0003309288586024195,31423.0,11719.0,20606.0,28265.0,0.12323031574487686,0.03668408840894699,0.07185710966587067,0.10726209729909897,0.0,0.0,0.0,0.0,31330.0,12151.0,20243.0,28363.0,0.3390336036682129,0.0,0.0,0.0,0.0,0.0,0.0
261,5,0.0,0.0,0.0,0.0,-0.0,-0.0,-0.022735973820090294,0.24743571877479553,0.0070793842896819115,-0.013926506973803043,3.3605897426605225,0.01815033331513405,0.0,0.0,0.0,-0.0,-0.0,-0.0,0.0,0.0,0.0,0.0006407345063053071,0.004999999888241291,0.00020740223408211023,30603.0,13322.0,19227.0,29116.0,0.11900541931390762,0.04255969449877739,0.06598150730133057,0.1114869937300682,0.0,0.0,0.0,0.0,31173.0,12374.0,20053.0,28527.0,0.3390336036682129,0.0,0.0,0.0,0.0,0.0,0.0
266,5,0.0,0.0,0.0,0.0,-0.0,-0.0,-0.022735973820090294,0.24743571877479553,0.0070793842896819115,-0.013926506973803043,3.3605897426605225,0.01815033331513405,0.0,0.0,0.0,-0.0,-0.0,-0.0,0.0,0.0,0.0,0.0006407345063053071,0.004999999888241291,0.00020740223408211023,30603.0,13322.0,19227.0,29116.0,0.11900541931390762,0.04255969449877739,0.06598150730133057,0.1114869937300682,0.0,0.0,0.0,0.0,31173.0,12374.0,20053.0,28527.0,0.3390336036682129,0.0,0.0,0.0,0.0,0.0,0.0
271,5,0.0,0.0,0.0,0.0,-0.0,-0.0,-0.023058008402585983,0.22071139514446259,0.0065903435461223125,-0.032296061515808105,3.43074631690979,0.026799777522683144,0.0,0.0,0.0,-0.0,-0.0,-0.0,0.0,0.0,0.0,0.0007699221605435014,0.004999999888241291,0.00023943858104757965,30889.0,12631.0,19832.0,28822.0,0.12047182023525238,0.03999895229935646,0.0685422420501709,0.11002059280872345,0.0,0.0,0.0,0.0,30054.0,13859.0,18746.0,29674.0,0.3390336036682129,0.0,0.0,0.0,0.0,0.0,0.0
276,5,0.0,0.0,0.0,0.0,-0.0,-0.0,-0.023058008402585983,0.22071139514446259,0.0065903435461223125,-0.032296061515808105,3.43074631690979,0.026799777522683144,0.0,0.0,0.0,-0.0,-0.0,-0.0,0.0,0.0,0.0,0.0007699221605435014,0.004999999888241291,0.00023943858104757965,30889.0,12631.0,19832.0,28822.0,0.12047182023525238,0.03999895229935646,0.0685422420501709,0.11002059280872345,0.0,0.0,0.0,0.0,30054.0,13859.0,18746.0,29674.0,0.3390336036682129,0.0,0.0,0.0,0.0,0.0,0.0
281,5,0.0,0.0,0.0,0.0,-0.0,-0.0,-0.023128043860197067,0.17997722327709198,0.0056141153909265995,-0.016428865492343903,3.4358069896698,-0.008039291016757488,0.0,0.0,0.0,-0.0,-0.0,-0.0,0.0,0.0,0.0,0.0007352247484959662,0.004999999888241291,0.0001665014133322984,30153.0,13867.0,18739.0,29574.0,0.11670966446399689,0.044601503759622574,0.06393969804048538,0.11378274857997894,0.0,0.0,0.0,0.0,30628.0,13060.0,19458.0,29090.0,0.3390336036682129,0.0,0.0,0.0,0.0,0.0,0.0
286,5,0.0,0.0,0.0,0.0,-0.0,-0.0,-0.023128043860197067,0.17997722327709198,0.0056141153909265995,-0.016428865492343903,3.4358069896698,-0.008039291016757488,0.0,0.0,0.0,-0.0,-0.0,-0.0,0.0,0.0,0.0,0.0007352247484959662,0.004999999888241291,0.0001665014133322984,30153.0,13867.0,18739.0,29574.0,0.11670966446399689,0.044601503759622574,0.06393969804048538,0.11378274857997894,0.0,0.0,0.0,0.0,30628.0,13060.0,19458.0,29090.0,0.3390336036682129,0.0,0.0,0.0,0.0,0.0,0.0
291,5,0.0,0.0,0.0,0.0,-0.0,-0.0,-0.02324264496564865,0.15327903628349304,0.005155246704816818,-0.02377774380147457,3.1975269317626953,0.012562544085085392,0.0,0.0,0.0,-0.0,-0.0,-0.0,0.0,0.0,0.0,0.0007456316379830241,0.004999999888241291,0.00013567093992605805,30278.0,13513.0,19057.0,29447.0,0.11734966188669205,0.04327137768268585,0.0652698203921318,0.11314275115728378,0.0,0.0,0.0,0.0,30105.0,13788.0,18810.0,29622.0,0.3390336036682129,0.0,0.0,0.0,0.0,0.0,0.0
296,5,0.0,0.0,0.0,0.0,-0.0,-0.0,-0.02324264496564865,0.15327903628349304,0.005155246704816818,-0.02377774380147457,3.1975269317626953,0.012562544085085392,0.0,0.0,0.0,-0.0,-0.0,-0.0,0.0,0.0,0.0,0.0007456316379830241,0.004999999888241291,0.00013567093992605805,30278.0,13513.0,19057.0,29447.0,0.11734966188669205,0.04327137768268585,0.0652698203921318,0.11314275115728378,0.0,0.0,0.0,0.0,30105.0,13788.0,18810.0,29622.0,0.3390336036682129,0.0,0.0,0.0,0.0,0.0,0.0
301,5,0.0,0.0,0.0,0.0,-0.0,-0.0,-0.023614944890141487,0.11494418233633041,0.004252580460160971,-0.06563880294561386,3.164240598678589,-0.0026497100479900837,0.0,0.0,0.0,-0.0,-0.0,-0.0,0.0,0.0,0.0,0.0007753819809295237,0.004999999888241291,0.00020193737873341888,30663.0,12836.0,19654.0,29055.0,0.11931180953979492,0.0407550223171711,0.06778617203235626,0.11118060350418091,0.0,0.0,0.0,0.0,29911.0,13917.0,18693.0,29817.0,0.3390336036682129,0.0,0.0,0.0,0.0,0.0,0.0
306,5,0.0,0.0,0.0,0.0,-0.0,-0.0,-0.023614944890141487,0.11494418233633041,0.004252580460160971,-0.06563880294561386,3.164240598678589,-0.0026497100479900837,0.0,0.0,0.0,-0.0,-0.0,-0.0,0.0,0.0,0.0,0.0007753819809295237,0.004999999888241291,0.00020193737873341888,30663.0,12836.0,19654.0,29055.0,0.11931180953979492,0.0407550223171711,0.06778617203235626,0.11118060350418091,0.0,0.0,0.0,0.0,29911.0,13917.0,18693.0,29817.0,0.3390336036682129,0.0,0.0,0.0,0.0,0.0,0.0
311,5,0.0,0.0,0.0,0.0,-0.0,-0.0,-0.023614944890141487,0.11494418233633041,0.004252580460160971,-0.06563880294561386,3.164240598678589,-0.0026497100479900837,0.0,0.0,0.0,-0.0,-0.0,-0.0,0.0,0.0,0.0,0.0007753819809295237,0.004999999888241291,0.00020193737873341888,30663.0,12836.0,19654.0,29055.0,0.11931180953979492,0.0407550223171711,0.06778617203235626,0.11118060350418091,0.0,0.0,0.0,0.0,29911.0,13917.0,18693.0,29817.0,0.3390336036682129,0.0,0.0,0.0,0.0,0.0,0.0
316,5,0.0,0.0,0.0,0.0,-0.0,-0.0,-0.02402588725090027,0.09046526253223419,0.003828588640317321,-0.044526614248752594,2.9068470001220703,0.08587998151779175,0.0,0.0,0.0,-0.0,-0.0,-0.0,0.0,0.0,0.0,0.000808536889962852,0.004999999888241291,0.00022129480203147978,30340.0,13155.0,19375.0,29385.0,0.11766179651021957,0.04193663224577904,0.06660456955432892,0.11283061653375626,0.0,0.0,0.0,0.0,30619.0,12788.0,19696.0,29099.0,0.3390336036682129,0.0,0.0,0.0,0.0,0.0,0.0
321,5,0.0,0.0,0.0,0.0,-0.0,-0.0,-0.02402588725090027,0.09046526253223419,0.003828588640317321,-0.044526614248752594,2.9068470001220703,0.08587998151779175,0.0,0.0,0.0,-0.0,-0.0,-0.0,0.0,0.0,0.0,0.000808536889962852,0.004999999888241291,0.00022129480203147978,30340.0,13155.0,19375.0,29385.0,0.11766179651021957,0.04193663224577904,0.06660456955432892,0.11283061653375626,0.0,0.0,0.0,0.0,30619.0,12788.0,19696.0,29099.0,0.3390336036682129,0.0,0.0,0.0,0.0,0.0,0.0
327,5,0.0,0.0,0.0,0.0,-0.0,-0.0,-0.024999381974339485,0.03591075912117958,0.003997792489826679,-0.028545228764414787,2.3842341899871826,0.06419938802719116,0.0,0.0,0.0,-0.0,-0.0,-0.0,0.0,0.0,0.0,0.0008003425900824368,0.004999999888241291,0.0002468481834512204,30713.0,12723.0,19752.0,29003.0,0.11957263946533203,0.040339890867471695,0.06820130348205566,0.1109197735786438,0.0,0.0,0.0,0.0,30807.0,12615.0,19846.0,28907.0,0.3390336036682129,0.0,0.0,0.0,0.0,0.0,0.0
332,5,0.0,0.0,0.0,0.0,-0.0,-0.0,-0.024999381974339485,0.03591075912117958,0.003997792489826679,-0.028545228764414787,2.3842341899871826,0.06419938802719116,0.0,0.0,0.0,-0.0,-0.0,-0.0,0.0,0.0,0.0,0.0008003425900824368,0.004999999888241291,0.0002468481834512204,30713.0,12723.0,19752.0,29003.0,0.11957263946533203,0.040339890867471695,0.06820130348205566,0.1109197735786438,0.0,0.0,0.0,0.0,30807.0,12615.0,19846.0,28907.0,0.3390336036682129,0.0,0.0,0.0,0.0,0.0,0.0
337,5,0.0,0.0,0.0,0.0,-0.0,-0.0,-0.025478960946202278,0.008895080536603928,0.00398567458614707,-0.04849601536989212,2.057239055633545,0.05348175764083862,0.0,0.0,0.0,-0.0,-0.0,-0.0,0.0,0.0,0.0,0.0008020008099265397,0.004999999888241291,0.00020570408378262073,30358.0,13110.0,19415.0,29366.0,0.11775384098291397,0.041768237948417664,0.0667729601264,0.11273857206106186,0.0,0.0,0.0,0.0,30318.0,13270.0,19273.0,29407.0,0.3390336036682129,0.0,0.0,0.0,0.0,0.0,0.0
342,5,0.0,0.0,0.0,0.0,-0.0,-0.0,-0.025478960946202278,0.008895080536603928,0.00398567458614707,-0.04849601536989212,2.057239055633545,0.05348175764083862,0.0,0.0,0.0,-0.0,-0.0,-0.0,0.0,0.0,0.0,0.0008020008099265397,0.004999999888241291,0.00020570408378262073,30358.0,13110.0,19415.0,29366.0,0.11775384098291397,0.041768237948417664,0.0667729601264,0.11273857206106186,0.0,0.0,0.0,0.0,30318.0,13270.0,19273.0,29407.0,0.3390336036682129,0.0,0.0,0.0,0.0,0.0,0.0
347,5,0.0,0.0,0.0,0.0,-0.0,-0.0,-0.0257362499833107,-0.006698944140225649,0.0040224166586995125,-0.007671868894249201,1.6764090061187744,0.04858884960412979,0.0,0.0,0.0,-0.0,-0.0,-0.0,0.0,0.0,0.0,0.000788148317951709,0.004999999888241291,0.0001999222586164251,30456.0,13130.0,19396.0,29267.0,0.1182534471154213,0.04184513911604881,0.06669606268405914,0.11223896592855453,0.0,0.0,0.0,0.0,30144.0,13570.0,19006.0,29583.0,0.3390336036682129,0.0,0.0,0.0,0.0,0.0,0.0
352,5,0.0,0.0,0.0,0.0,-0.0,-0.0,-0.0257362499833107,-0.006698944140225649,0.0040224166586995125,-0.007671868894249201,1.6764090061187744,0.04858884960412979,0.0,0.0,0.0,-0.0,-0.0,-0.0,0.0,0.0,0.0,0.000788148317951709,0.004999999888241291,0.0001999222586164251,30456.0,13130.0,19396.0,29267.0,0.1182534471154213,0.04184513911604881,0.06669606268405914,0.11223896592855453,0.0,0.0,0.0,0.0,30144.0,13570.0,19006.0,29583.0,0.3390336036682129,0.0,0.0,0.0,0.0,0.0,0.0
357,5,0.0,0.0,0.0,0.0,-0.0,-0.0,-0.02595461905002594,-0.024411266669631004,0.003976163454353809,-0.044765766710042953,1.29226553440094,0.019322799518704414,0.0,0.0,0.0,-0.0,-0.0,-0.0,0.0,0.0,0.0,0.000768330181017518,0.004999999888241291,0.00017750337428878993,30049.0,13569.0,19007.0,29679.0,0.11618217080831528,0.043482761830091476,0.06505843251943588,0.11431024223566055,0.0,0.0,0.0,0.0,30279.0,13385.0,19171.0,29446.0,0.3390336036682129,0.0,0.0,0.0,0.0,0.0,0.0
362,5,0.0,0.0,0.0,0.0,-0.0,-0.0,-0.02595461905002594,-0.024411266669631004,0.003976163454353809,-0.044765766710042953,1.29226553440094,0.019322799518704414,0.0,0.0,0.0,-0.0,-0.0,-0.0,0.0,0.0,0.0,0.000768330181017518,0.004999999888241291,0.00017750337428878993,30049.0,13569.0,19007.0,29679.0,0.11618217080831528,0.043482761830091476,0.06505843251943588,0.11431024223566055,0.0,0.0,0.0,0.0,30279.0,13385.0,19171.0,29446.0,0.3390336036682129,0.0,0.0,0.0,0.0,0.0,0.0
367,5,0.0,0.0,0.0,0.0,-0.0,-0.0,-0.026091834530234337,-0.03286821022629738,0.003960985224694014,-0.020023956894874573,0.9091875553131104,0.019221054390072823,0.0,0.0,0.0,-0.0,-0.0,-0.0,0.0,0.0,0.0,0.0007573311449959874,0.004999999888241291,0.00014619922148995101,30086.0,13648.0,18936.0,29641.0,0.11636954545974731,0.04377945140004158,0.06476174294948578,0.11412286758422852,0.0,0.0,0.0,0.0,29203.0,14828.0,19333.0,29303.0,0.3390336036682129,0.0,0.0,0.0,0.0,0.0,0.0
372,5,0.0,0.0,0.0,0.0,-0.0,-0.0,-0.026091834530234337,-0.03286821022629738,0.003960985224694014,-0.020023956894874573,0.9091875553131104,0.019221054390072823,0.0,0.0,0.0,-0.0,-0.0,-0.0,0.0,0.0,0.0,0.0007573311449959874,0.004999999888241291,0.00014619922148995101,30086.0,13648.0,18936.0,29641.0,0.11636954545974731,0.04377945140004158,0.06476174294948578,0.11412286758422852,0.0,0.0,0.0,0.0,29203.0,14828.0,19333.0,29303.0,0.3390336036682129,0.0,0.0,0.0,0.0,0.0,0.0
377,5,0.0,0.0,0.0,0.0,-0.0,-0.0,-0.026091834530234337,-0.03286821022629738,0.003960985224694014,-0.020023956894874573,0.9091875553131104,0.019221054390072823,0.0,0.0,0.0,-0.0,-0.0,-0.0,0.0,0.0,0.0,0.0007573311449959874,0.004999999888241291,0.00014619922148995101,27101.0,17481.0,21098.0,27744.0,0.1015763133764267,0.058765918016433716,0.07398848235607147,0.104702889919281,0.0,0.0,0.0,0.0,26475.0,18186.0,21395.0,27505.0,0.3390336036682129,0.0,0.0,0.0,0.0,0.0,0.0
382,5,0.0,0.0,0.0,0.0,-0.0,-0.0,-0.026329856365919113,-0.03988529369235039,0.0036879710387438536,-0.022568807005882263,0.35037440061569214,-0.036418601870536804,0.0,0.0,0.0,-0.0,-0.0,-0.0,0.0,0.0,0.0,0.0007213845965452492,0.003154642414301634,0.00010582183313090354,27101.0,17481.0,21098.0,27744.0,0.1015763133764267,0.058765918016433716,0.07398848235607147,0.104702889919281,0.0,0.0,0.0,0.0,26475.0,18186.0,21395.0,27505.0,0.3390336036682129,0.0,0.0,0.0,0.0,0.0,0.0
388,5,0.0,0.0,0.0,0.0,-0.0,-0.0,-0.026329856365919113,-0.03988529369235039,0.0036879710387438536,-0.022568807005882263,0.35037440061569214,-0.036418601870536804,0.0,0.0,0.0,-0.0,-0.0,-0.0,0.0,0.0,0.0,0.0007213845965452492,0.003154642414301634,0.00010582183313090354,27101.0,17481.0,21098.0,27744.0,0.1015763133764267,0.058765918016433716,0.07398848235607147,0.104702889919281,0.0,0.0,0.0,0.0,26475.0,18186.0,21395.0,27505.0,0.3390336036682129,0.0,0.0,0.0,0.0,0.0,0.0
393,5,0.0,0.0,0.0,0.0,-0.0,-0.0,-0.02629733830690384,-0.0406375490128994,0.003460131585597992,0.02019643224775791,-0.13488344848155975,-0.01850893907248974,0.0,0.0,0.0,-0.0,-0.0,-0.0,0.0,0.0,0.0,0.0007395970169454813,0.0007984606781974435,5.977498221909627e-05,23885.0,21137.0,24348.0,24631.0,0.08643855899572372,0.07415897399187088,0.08856374770402908,0.0898723229765892,0.0,0.0,0.0,0.0,22714.0,22441.0,25093.0,23783.0,0.3390336036682129,0.0,0.0,0.0,0.0,0.0,0.0
398,5,0.0,0.0,0.0,0.0,-0.0,-0.0,-0.02629733830690384,-0.0406375490128994,0.003460131585597992,0.02019643224775791,-0.13488344848155975,-0.01850893907248974,0.0,0.0,0.0,-0.0,-0.0,-0.0,0.0,0.0,0.0,0.0007395970169454813,0.0007984606781974435,5.977498221909627e-05,23885.0,21137.0,24348.0,24631.0,0.08643855899572372,0.07415897399187088,0.08856374770402908,0.0898723229765892,0.0,0.0,0.0,0.0,22714.0,22441.0,25093.0,23783.0,0.3390336036682129,0.0,0.0,0.0,0.0,0.0,0.0
403,5,0.0,0.0,0.0,0.0,-0.0,-0.0,-0.026166703552007675,-0.035612937062978745,0.0029482075478881598,-0.0023650918155908585,-0.7806898951530457,-0.08805396407842636,0.0,0.0,0.0,-0.0,-0.0,-0.0,0.0,0.0,0.0,0.0007046854589134455,-0.004520462825894356,-6.92497196723707e-05,18561.0,26222.0,27791.0,20996.0,0.06320004910230637,0.097356878221035,0.10493283718824387,0.07354383915662766,0.0,0.0,0.0,0.0,17816.0,26858.0,27451.0,21382.0,0.3390336036682129,0.0,0.0,0.0,0.0,0.0,0.0
408,5,0.0,0.0,0.0,0.0,-0.0,-0.0,-0.026166703552007675,-0.035612937062978745,0.0029482075478881598,-0.0023650918155908585,-0.7806898951530457,-0.08805396407842636,0.0,0.0,0.0,-0.0,-0.0,-0.0,0.0,0.0,0.0,0.0007046854589134455,-0.004520462825894356,-6.92497196723707e-05,18561.0,26222.0,27791.0,20996.0,0.06320004910230637,0.097356878221035,0.10493283718824387,0.07354383915662766,0.0,0.0,0.0,0.0,17816.0,26858.0,27451.0,21382.0,0.3390336036682129,0.0,0.0,0.0,0.0,0.0,0.0
413,5,0.0,0.0,0.0,0.0,-0.0,-0.0,-0.026037724688649178,-0.028880547732114792,0.0023731638211756945,0.025934457778930664,-1.0442785024642944,-0.06082076206803322,0.0,0.0,0.0,-0.0,-0.0,-0.0,0.0,0.0,0.0,0.0006748153828084469,-0.004999999888241291,-1.9994235117337666e-05,15608.0,28735.0,29795.0,18574.0,0.05129436030983925,0.10958614200353622,0.11489873379468918,0.06325436383485794,0.0,0.0,0.0,0.0,15112.0,29228.0,30493.0,17582.0,0.3390336036682129,0.0,0.0,0.0,0.0,0.0,0.0
418,5,0.0,0.0,0.0,0.0,-0.0,-0.0,-0.026037724688649178,-0.028880547732114792,0.0023731638211756945,0.025934457778930664,-1.0442785024642944,-0.06082076206803322,0.0,0.0,0.0,-0.0,-0.0,-0.0,0.0,0.0,0.0,0.0006748153828084469,-0.004999999888241291,-1.9994235117337666e-05,15608.0,28735.0,29795.0,18574.0,0.05129436030983925,0.10958614200353622,0.11489873379468918,0.06325436383485794,0.0,0.0,0.0,0.0,15112.0,29228.0,30493.0,17582.0,0.3390336036682129,0.0,0.0,0.0,0.0,0.0,0.0
423,5,0.0,0.0,0.0,0.0,-0.0,-0.0,-0.02570268139243126,-0.013686803169548512,0.0021021892316639423,0.01950506679713726,-1.4723317623138428,-0.057738784700632095,0.0,0.0,0.0,-0.0,-0.0,-0.0,0.0,0.0,0.0,0.0006992850103415549,-0.004999999888241291,-2.5989571440732107e-05,15420.0,28973.0,30743.0,17288.0,0.05056026950478554,0.1107703298330307,0.11972208321094513,0.05798092857003212,0.0,0.0,0.0,0.0,14840.0,29264.0,30458.0,17840.0,0.3390336036682129,0.0,0.0,0.0,0.0,0.0,0.0
428,5,0.0,0.0,0.0,0.0,-0.0,-0.0,-0.02570268139243126,-0.013686803169548512,0.0021021892316639423,0.01950506679713726,-1.4723317623138428,-0.057738784700632095,0.0,0.0,0.0,-0.0,-0.0,-0.0,0.0,0.0,0.0,0.0006992850103415549,-0.004999999888241291,-2.5989571440732107e-05,15420.0,28973.0,30743.0,17288.0,0.05056026950478554,0.1107703298330307,0.11972208321094513,0.05798092857003212,0.0,0.0,0.0,0.0,14840.0,29264.0,30458.0,17840.0,0.3390336036682129,0.0,0.0,0.0,0.0,0.0,0.0
433,5,0.0,0.0,0.0,0.0,-0.0,-0.0,-0.025550423189997673,-0.0009298651129938662,0.001964208437129855,0.040102146565914154,-1.6288938522338867,-0.01625955104827881,0.0,0.0,0.0,-0.0,-0.0,-0.0,0.0,0.0,0.0,0.0006729555898346007,-0.004999999888241291,1.234025512530934e-05,15440.0,28986.0,30730.0,17269.0,0.0506361722946167,0.11083348095417023,0.1196589320898056,0.05790502578020096,0.0,0.0,0.0,0.0,15297.0,29016.0,30700.0,17406.0,0.3390336036682129,0.0,0.0,0.0,0.0,0.0,0.0
438,5,0.0,0.0,0.0,0.0,-0.0,-0.0,-0.025550423189997673,-0.0009298651129938662,0.001964208437129855,0.040102146565914154,-1.6288938522338867,-0.01625955104827881,0.0,0.0,0.0,-0.0,-0.0,-0.0,0.0,0.0,0.0,0.0006729555898346007,-0.004999999888241291,1.234025512530934e-05,15440.0,28986.0,30730.0,17269.0,0.0506361722946167,0.11083348095417023,0.1196589320898056,0.05790502578020096,0.0,0.0,0.0,0.0,15297.0,29016.0,30700.0,17406.0,0.3390336036682129,0.0,0.0,0.0,0.0,0.0,0.0
443,5,0.0,0.0,0.0,0.0,-0.0,-0.0,-0.024882029742002487,0.035898204892873764,0.002549333730712533,0.06259313970804214,-1.965523362159729,-0.006738153751939535,0.0,0.0,0.0,-0.0,-0.0,-0.0,0.0,0.0,0.0,0.0006540123140439391,-0.004999999888241291,7.892080611782148e-05,16050.0,28590.0,31113.0,16674.0,0.053031522780656815,0.10886691510677338,0.12162549793720245,0.05550967529416084,0.0,0.0,0.0,0.0,15872.0,28586.0,31117.0,16848.0,0.3390336036682129,0.0,0.0,0.0,0.0,0.0,0.0
448,5,0.0,0.0,0.0,0.0,-0.0,-0.0,-0.024882029742002487,0.035898204892873764,0.002549333730712533,0.06259313970804214,-1.965523362159729,-0.006738153751939535,0.0,0.0,0.0,-0.0,-0.0,-0.0,0.0,0.0,0.0,0.0006540123140439391,-0.004999999888241291,7.892080611782148e-05,16050.0,28590.0,31113.0,16674.0,0.053031522780656815,0.10886691510677338,0.12162549793720245,0.05550967529416084,0.0,0.0,0.0,0.0,15872.0,28586.0,31117.0,16848.0,0.3390336036682129,0.0,0.0,0.0,0.0,0.0,0.0
453,5,0.0,0.0,0.0,0.0,-0.0,-0.0,-0.02437400072813034,0.05956544727087021,0.003339600982144475,0.0470891147851944,-1.9607056379318237,0.03304766118526459,0.0,0.0,0.0,-0.0,-0.0,-0.0,0.0,0.0,0.0,0.0006534918793477118,-0.004999999888241291,0.0001452630531275645,16861.0,27907.0,31762.0,15859.0,0.05626075342297554,0.10549922287464142,0.12499319016933441,0.05228044465184212,0.0,0.0,0.0,0.0,16371.0,28272.0,31416.0,16355.0,0.3390336036682129,0.0,0.0,0.0,0.0,0.0,0.0
458,5,0.0,0.0,0.0,0.0,-0.0,-0.0,-0.02437400072813034,0.05956544727087021,0.003339600982144475,0.0470891147851944,-1.9607056379318237,0.03304766118526459,0.0,0.0,0.0,-0.0,-0.0,-0.0,0.0,0.0,0.0,0.0006534918793477118,-0.004999999888241291,0.0001452630531275645,16861.0,27907.0,31762.0,15859.0,0.05626075342297554,0.10549922287464142,0.12499319016933441,0.05228044465184212,0.0,0.0,0.0,0.0,16371.0,28272.0,31416.0,16355.0,0.3390336036682129,0.0,0.0,0.0,0.0,0.0,0.0
463,5,0.0,0.0,0.0,0.0,-0.0,-0.0,-0.02437400072813034,0.05956544727087021,0.003339600982144475,0.0470891147851944,-1.9607056379318237,0.03304766118526459,0.0,0.0,0.0,-0.0,-0.0,-0.0,0.0,0.0,0.0,0.0006534918793477118,-0.004999999888241291,0.0001452630531275645,16861.0,27907.0,31762.0,15859.0,0.05626075342297554,0.10549922287464142,0.12499319016933441,0.05228044465184212,0.0,0.0,0.0,0.0,16371.0,28272.0,31416.0,16355.0,0.3390336036682129,0.0,0.0,0.0,0.0,0.0,0.0
469,5,0.0,0.0,0.0,0.0,-0.0,-0.0,-0.024117564782500267,0.0751432254910469,0.004079745151102543,0.04911566525697708,-1.9819374084472656,0.02577456645667553,0.0,0.0,0.0,-0.0,-0.0,-0.0,0.0,0.0,0.0,0.0006163804791867733,-0.004999999888241291,0.00018176190496888012,17115.0,27754.0,31906.0,15599.0,0.05728120356798172,0.10475096851587296,0.12574143707752228,0.05125999450683594,0.0,0.0,0.0,0.0,17012.0,27777.0,31884.0,15705.0,0.3390336036682129,0.0,0.0,0.0,0.0,0.0,0.0
474,5,0.0,0.0,0.0,0.0,-0.0,-0.0,-0.024117564782500267,0.0751432254910469,0.004079745151102543,0.04911566525697708,-1.9819374084472656,0.02577456645667553,0.0,0.0,0.0,-0.0,-0.0,-0.0,0.0,0.0,0.0,0.0006163804791867733,-0.004999999888241291,0.00018176190496888012,17115.0,27754.0,31906.0,15599.0,0.05728120356798172,0.10475096851587296,0.12574143707752228,0.05125999450683594,0.0,0.0,0.0,0.0,17012.0,27777.0,31884.0,15705.0,0.3390336036682129,0.0,0.0,0.0,0.0,0.0,0.0
479,5,0.0,0.0,0.0,0.0,-0.0,-0.0,-0.023506592959165573,0.09778816252946854,0.0045827352441847324,0.04816487431526184,-1.8556462526321411,-0.006026037503033876,0.0,0.0,0.0,-0.0,-0.0,-0.0,0.0,0.0,0.0,0.000599306367803365,-0.004999999888241291,0.00010063670197268948,16534.0,28281.0,31408.0,16190.0,0.05495436117053032,0.10733781009912491,0.12315460294485092,0.05358683690428734,0.0,0.0,0.0,0.0,16525.0,28201.0,31484.0,16200.0,0.3390336036682129,0.0,0.0,0.0,0.0,0.0,0.0
484,5,0.0,0.0,0.0,0.0,-0.0,-0.0,-0.023506592959165573,0.09778816252946854,0.0045827352441847324,0.04816487431526184,-1.8556462526321411,-0.006026037503033876,0.0,0.0,0.0,-0.0,-0.0,-0.0,0.0,0.0,0.0,0.000599306367803365,-0.004999999888241291,0.00010063670197268948,16534.0,28281.0,31408.0,16190.0,0.05495436117053032,0.10733781009912491,0.12315460294485092,0.05358683690428734,0.0,0.0,0.0,0.0,16525.0,28201.0,31484.0,16200.0,0.3390336036682129,0.0,0.0,0.0,0.0,0.0,0.0
489,5,0.0,0.0,0.0,0.0,-0.0,-0.0,-0.023388616740703583,0.11207081377506256,0.004814809188246727,0.02749699354171753,-1.6167947053909302,-0.027732107788324356,0.0,0.0,0.0,-0.0,-0.0,-0.0,0.0,0.0,0.0,0.000661844911519438,-0.004999999888241291,0.00010417595331091434,16249.0,28395.0,31300.0,16477.0,0.053817346692085266,0.10790016502141953,0.1225922480225563,0.05472385138273239,0.0,0.0,0.0,0.0,16292.0,28300.0,31390.0,16434.0,0.3390336036682129,0.0,0.0,0.0,0.0,0.0,0.0
494,5,0.0,0.0,0.0,0.0,-0.0,-0.0,-0.023388616740703583,0.11207081377506256,0.004814809188246727,0.02749699354171753,-1.6167947053909302,-0.027732107788324356,0.0,0.0,0.0,-0.0,-0.0,-0.0,0.0,0.0,0.0,0.000661844911519438,-0.004999999888241291,0.00010417595331091434,16249.0,28395.0,31300.0,16477.0,0.053817346692085266,0.10790016502141953,0.1225922480225563,0.05472385138273239,0.0,0.0,0.0,0.0,16292.0,28300.0,31390.0,16434.0,0.3390336036682129,0.0,0.0,0.0,0.0,0.0,0.0
499,5,0.0,0.0,0.0,0.0,-0.0,-0.0,-0.023116810247302055,0.13117119669914246,0.004752861335873604,0.03362687677145004,-1.4918344020843506,-0.04498759284615517,0.0,0.0,0.0,-0.0,-0.0,-0.0,0.0,0.0,0.0,0.0006271719466894865,-0.004999999888241291,8.045727736316621e-05,16043.0,28618.0,31086.0,16680.0,0.053005650639534,0.10900642722845078,0.12148598581552505,0.05553554743528366,0.0,0.0,0.0,0.0,16459.0,28367.0,31326.0,16266.0,0.3390336036682129,0.0,0.0,0.0,0.0,0.0,0.0
504,5,0.0,0.0,0.0,0.0,-0.0,-0.0,-0.023116810247302055,0.13117119669914246,0.004752861335873604,0.03362687677145004,-1.4918344020843506,-0.04498759284615517,0.0,0.0,0.0,-0.0,-0.0,-0.0,0.0,0.0,0.0,0.0006271719466894865,-0.004999999888241291,8.045727736316621e-05,16043.0,28618.0,31086.0,16680.0,0.053005650639534,0.10900642722845078,0.12148598581552505,0.05553554743528366,0.0,0.0,0.0,0.0,16459.0,28367.0,31326.0,16266.0,0.3390336036682129,0.0,0.0,0.0,0.0,0.0,0.0
509,5,0.0,0.0,0.0,0.0,-0.0,-0.0,-0.02253728359937668,0.14229334890842438,0.0047655426897108555,0.057422835379838943,-1.4068812131881714,-0.05083834379911423,0.0,0.0,0.0,-0.0,-0.0,-0.0,0.0,0.0,0.0,0.0005100840935483575,-0.004999999888241291,8.19692577351816e-05,16232.0,28685.0,31021.0,16493.0,0.05375269427895546,0.10933679342269897,0.12115561962127686,0.0547885037958622,0.0,0.0,0.0,0.0,15897.0,28972.0,30744.0,16824.0,0.3390336036682129,0.0,0.0,0.0,0.0,0.0,0.0
514,5,0.0,0.0,0.0,0.0,-0.0,-0.0,-0.02253728359937668,0.14229334890842438,0.0047655426897108555,0.057422835379838943,-1.4068812131881714,-0.05083834379911423,0.0,0.0,0.0,-0.0,-0.0,-0.0,0.0,0.0,0.0,0.0005100840935483575,-0.004999999888241291,8.19692577351816e-05,16232.0,28685.0,31021.0,16493.0,0.05375269427895546,0.10933679342269897,0.12115561962127686,0.0547885037958622,0.0,0.0,0.0,0.0,15897.0,28972.0,30744.0,16824.0,0.3390336036682129,0.0,0.0,0.0,0.0,0.0,0.0
519,5,0.0,0.0,0.0,0.0,-0.0,-0.0,-0.02183711528778076,0.15722371637821198,0.00425537396222353,0.06616445630788803,-1.097269058227539,-0.08422519266605377,0.0,0.0,0.0,-0.0,-0.0,-0.0,0.0,0.0,0.0,0.0005262585473246872,-0.004999999888241291,-6.176477427288773e-07,15483.0,29268.0,30454.0,17227.0,0.05080507695674896,0.11224829405546188,0.11824411898851395,0.057736121118068695,0.0,0.0,0.0,0.0,16000.0,28941.0,30774.0,16723.0,0.3390336036682129,0.0,0.0,0.0,0.0,0.0,0.0
524,5,0.0,0.0,0.0,0.0,-0.0,-0.0,-0.02183711528778076,0.15722371637821198,0.00425537396222353,0.06616445630788803,-1.097269058227539,-0.08422519266605377,0.0,0.0,0.0,-0.0,-0.0,-0.0,0.0,0.0,0.0,0.0005262585473246872,-0.004999999888241291,-6.176477427288773e-07,15483.0,29268.0,30454.0,17227.0,0.05080507695674896,0.11224829405546188,0.11824411898851395,0.057736121118068695,0.0,0.0,0.0,0.0,16000.0,28941.0,30774.0,16723.0,0.3390336036682129,0.0,0.0,0.0,0.0,0.0,0.0
529,5,0.0,0.0,0.0,0.0,-0.0,-0.0,-0.020899014547467232,0.16544711589813232,0.0042165531776845455,0.14050441980361938,-0.8865635395050049,-0.008249053731560707,0.0,0.0,0.0,-0.0,-0.0,-0.0,0.0,0.0,0.0,0.0003640220675151795,-0.004999999888241291,0.0001279333228012547,16900.0,28510.0,31190.0,15819.0,0.056417953222990036,0.10847001522779465,0.12202239781618118,0.05212324485182762,0.0,0.0,0.0,0.0,17103.0,28463.0,31235.0,15611.0,0.3390336036682129,0.0,0.0,0.0,0.0,0.0,0.0
534,5,0.0,0.0,0.0,0.0,-0.0,-0.0,-0.020899014547467232,0.16544711589813232,0.0042165531776845455,0.14050441980361938,-0.8865635395050049,-0.008249053731560707,0.0,0.0,0.0,-0.0,-0.0,-0.0,0.0,0.0,0.0,0.0003640220675151795,-0.004999999888241291,0.0001279333228012547,16900.0,28510.0,31190.0,15819.0,0.056417953222990036,0.10847001522779465,0.12202239781618118,0.05212324485182762,0.0,0.0,0.0,0.0,17103.0,28463.0,31235.0,15611.0,0.3390336036682129,0.0,0.0,0.0,0.0,0.0,0.0
539,5,0.0,0.0,0.0,0.0,-0.0,-0.0,-0.020899014547467232,0.16544711589813232,0.0042165531776845455,0.14050441980361938,-0.8865635395050049,-0.008249053731560707,0.0,0.0,0.0,-0.0,-0.0,-0.0,0.0,0.0,0.0,0.0003640220675151795,-0.004999999888241291,0.0001279333228012547,16900.0,28510.0,31190.0,15819.0,0.056417953222990036,0.10847001522779465,0.12202239781618118,0.05212324485182762,0.0,0.0,0.0,0.0,17103.0,28463.0,31235.0,15611.0,0.3390336036682129,0.0,0.0,0.0,0.0,0.0,0.0
544,5,0.0,0.0,0.0,0.0,-0.0,-0.0,-0.019525427371263504,0.17482031881809235,0.004234194755554199,0.08264928311109543,-0.7273135781288147,-0.022235071286559105,0.0,0.0,0.0,-0.0,-0.0,-0.0,0.0,0.0,0.0,0.0004072040901519358,-0.004999999888241291,0.0001990824384847656,16567.0,28656.0,31049.0,16158.0,0.055083248764276505,0.1091935783624649,0.12129883468151093,0.05345794931054115,0.0,0.0,0.0,0.0,16574.0,28605.0,31098.0,16151.0,0.3390336036682129,0.0,0.0,0.0,0.0,0.0,0.0
550,5,0.0,0.0,0.0,0.0,-0.0,-0.0,-0.019525427371263504,0.17482031881809235,0.004234194755554199,0.08264928311109543,-0.7273135781288147,-0.022235071286559105,0.0,0.0,0.0,-0.0,-0.0,-0.0,0.0,0.0,0.0,0.0004072040901519358,-0.004999999888241291,0.0001990824384847656,16567.0,28656.0,31049.0,16158.0,0.055083248764276505,0.1091935783624649,0.12129883468151093,0.05345794931054115,0.0,0.0,0.0,0.0,16574.0,28605.0,31098.0,16151.0,0.3390336036682129,0.0,0.0,0.0,0.0,0.0,0.0
555,5,0.0,0.0,0.0,0.0,-0.0,-0.0,-0.019049447029829025,0.1788707673549652,0.00444940198212862,0.10737344622612,-0.23912329971790314,0.0519576333463192,0.0,0.0,0.0,-0.0,-0.0,-0.0,0.0,0.0,0.0,0.0004793235275428742,-0.004999999888241291,0.00015826482558622956,17643.0,27898.0,31770.0,15049.0,0.0594232901930809,0.10545787960290909,0.12503452599048615,0.049117907881736755,0.0,0.0,0.0,0.0,17959.0,27500.0,32142.0,14713.0,0.3390336036682129,0.0,0.0,0.0,0.0,0.0,0.0
560,5,0.0,0.0,0.0,0.0,-0.0,-0.0,-0.019049447029829025,0.1788707673549652,0.00444940198212862,0.10737344622612,-0.23912329971790314,0.0519576333463192,0.0,0.0,0.0,-0.0,-0.0,-0.0,0.0,0.0,0.0,0.0004793235275428742,-0.004999999888241291,0.00015826482558622956,17643.0,27898.0,31770.0,15049.0,0.0594232901930809,0.10545787960290909,0.12503452599048615,0.049117907881736755,0.0,0.0,0.0,0.0,17959.0,27500.0,32142.0,14713.0,0.3390336036682129,0.0,0.0,0.0,0.0,0.0,0.0
565,5,0.0,0.0,0.0,0.0,-0.0,-0.0,-0.018481450155377388,0.18033505976200104,0.004815802909433842,0.02894030325114727,-0.015862997621297836,-0.0036539314314723015,0.0,0.0,0.0,-0.0,-0.0,-0.0,0.0,0.0,0.0,0.0003481288440525532,-0.0026872928719967604,0.0001894603337859735,20796.0,25134.0,29157.0,18379.0,0.07267844676971436,0.09221900999546051,0.1116904765367508,0.06244566664099693,0.0,0.0,0.0,0.0,18239.0,27101.0,30610.0,16932.0,0.3390336036682129,0.0,0.0,0.0,0.0,0.0,0.0
570,5,0.0,0.0,0.0,0.0,-0.0,-0.0,-0.018481450155377388,0.18033505976200104,0.004815802909433842,0.02894030325114727,-0.015862997621297836,-0.0036539314314723015,0.0,0.0,0.0,-0.0,-0.0,-0.0,0.0,0.0,0.0,0.0003481288440525532,-0.0026872928719967604,0.0001894603337859735,20796.0,25134.0,29157.0,18379.0,0.07267844676971436,0.09221900999546051,0.1116904765367508,0.06244566664099693,0.0,0.0,0.0,0.0,18239.0,27101.0,30610.0,16932.0,0.3390336036682129,0.0,0.0,0.0,0.0,0.0,0.0
575,5,0.0,0.0,0.0,0.0,-0.0,-0.0,-0.01728922873735428,0.17079822719097137,0.0047503262758255005,0.024169137701392174,0.7939210534095764,-0.03238802030682564,0.0,0.0,0.0,-0.0,-0.0,-0.0,0.0,0.0,0.0,0.00042019758257083595,-0.0010348615469411016,0.00010063966328743845,22954.0,22854.0,25533.0,22679.0,0.0822109654545784,0.08175767213106155,0.09408964961767197,0.08097531646490097,0.0,0.0,0.0,0.0,21287.0,24686.0,28246.0,19450.0,0.3390336036682129,0.0,0.0,0.0,0.0,0.0,0.0
580,5,0.0,0.0,0.0,0.0,-0.0,-0.0,-0.01728922873735428,0.17079822719097137,0.0047503262758255005,0.024169137701392174,0.7939210534095764,-0.03238802030682564,0.0,0.0,0.0,-0.0,-0.0,-0.0,0.0,0.0,0.0,0.00042019758257083595,-0.0010348615469411016,0.00010063966328743845,22954.0,22854.0,25533.0,22679.0,0.0822109654545784,0.08175767213106155,0.09408964961767197,0.08097531646490097,0.0,0.0,0.0,0.0,21287.0,24686.0,28246.0,19450.0,0.3390336036682129,0.0,0.0,0.0,0.0,0.0,0.0
585,5,0.0,0.0,0.0,0.0,-0.0,-0.0,-0.016565298661589622,0.16289091110229492,0.004428494721651077,0.06178172677755356,1.16096830368042,-0.0359337292611599,0.0,0.0,0.0,-0.0,-0.0,-0.0,0.0,0.0,0.0,0.0003721790271811187,0.0013544604880735278,0.00010049798584077507,25584.0,20261.0,22960.0,25107.0,0.09433038532733917,0.07037436962127686,0.08223813772201538,0.09209071099758148,0.0,0.0,0.0,0.0,23866.0,22155.0,24813.0,23202.0,0.3390336036682129,0.0,0.0,0.0,0.0,0.0,0.0
590,5,0.0,0.0,0.0,0.0,-0.0,-0.0,-0.016565298661589622,0.16289091110229492,0.004428494721651077,0.06178172677755356,1.16096830368042,-0.0359337292611599,0.0,0.0,0.0,-0.0,-0.0,-0.0,0.0,0.0,0.0,0.0003721790271811187,0.0013544604880735278,0.00010049798584077507,25584.0,20261.0,22960.0,25107.0,0.09433038532733917,0.07037436962127686,0.08223813772201538,0.09209071099758148,0.0,0.0,0.0,0.0,23866.0,22155.0,24813.0,23202.0,0.3390336036682129,0.0,0.0,0.0,0.0,0.0,0.0
595,5,0.0,0.0,0.0,0.0,-0.0,-0.0,-0.015715526416897774,0.14674080908298492,0.0036824592389166355,0.06796154379844666,1.5235099792480469,-0.037428099662065506,0.0,0.0,0.0,-0.0,-0.0,-0.0,0.0,0.0,0.0,0.00037962020724080503,0.003544809063896537,5.821597369504161e-05,28856.0,16602.0,18534.0,28926.0,0.1101885512471199,0.05522382631897926,0.0630868524312973,0.11053436249494553,0.0,0.0,0.0,0.0,26393.0,19364.0,21052.0,26881.0,0.3390336036682129,0.0,0.0,0.0,0.0,0.0,0.0
600,5,0.0,0.0,0.0,0.0,-0.0,-0.0,-0.015715526416897774,0.14674080908298492,0.0036824592389166355,0.06796154379844666,1.5235099792480469,-0.037428099662065506,0.0,0.0,0.0,-0.0,-0.0,-0.0,0.0,0.0,0.0,0.00037962020724080503,0.003544809063896537,5.821597369504161e-05,28856.0,16602.0,18534.0,28926.0,0.1101885512471199,0.05522382631897926,0.0630868524312973,0.11053436249494553,0.0,0.0,0.0,0.0,26393.0,19364.0,21052.0,26881.0,0.3390336036682129,0.0,0.0,0.0,0.0,0.0,0.0
605,5,0.0,0.0,0.0,0.0,-0.0,-0.0,-0.01518259383738041,0.1343860775232315,0.0029696538113057613,0.008693847805261612,1.707107424736023,-0.08921130746603012,0.0,0.0,0.0,-0.0,-0.0,-0.0,0.0,0.0,0.0,0.0003561977355275303,0.004881968721747398,-2.5385466869920492e-05,29044.0,16249.0,16476.0,30673.0,0.11112643778324127,0.053819671273231506,0.05472152680158615,0.11936597526073456,0.0,0.0,0.0,0.0,28796.0,16292.0,16433.0,30914.0,0.3390336036682129,0.0,0.0,0.0,0.0,0.0,0.0
610,5,0.0,0.0,0.0,0.0,-0.0,-0.0,-0.01518259383738041,0.1343860775232315,0.0029696538113057613,0.008693847805261612,1.707107424736023,-0.08921130746603012,0.0,0.0,0.0,-0.0,-0.0,-0.0,0.0,0.0,0.0,0.0003561977355275303,0.004881968721747398,-2.5385466869920492e-05,29044.0,16249.0,16476.0,30673.0,0.11112643778324127,0.053819671273231506,0.05472152680158615,0.11936597526073456,0.0,0.0,0.0,0.0,28796.0,16292.0,16433.0,30914.0,0.3390336036682129,0.0,0.0,0.0,0.0,0.0,0.0
615,5,0.0,0.0,0.0,0.0,-0.0,-0.0,-0.01518259383738041,0.1343860775232315,0.0029696538113057613,0.008693847805261612,1.707107424736023,-0.08921130746603012,0.0,0.0,0.0,-0.0,-0.0,-0.0,0.0,0.0,0.0,0.0003561977355275303,0.004881968721747398,-2.5385466869920492e-05,29044.0,16249.0,16476.0,30673.0,0.11112643778324127,0.053819671273231506,0.05472152680158615,0.11936597526073456,0.0,0.0,0.0,0.0,28796.0,16292.0,16433.0,30914.0,0.3390336036682129,0.0,0.0,0.0,0.0,0.0,0.0
621,5,0.0,0.0,0.0,0.0,-0.0,-0.0,-0.015322261489927769,0.1135195791721344,0.0019489431288093328,-0.019394608214497566,1.8228892087936401,-0.025325363501906395,0.0,0.0,0.0,-0.0,-0.0,-0.0,0.0,0.0,0.0,0.0004913596785627306,0.004999999888241291,-9.605812920199241e-06,29435.0,15468.0,17242.0,30290.0,0.11308601498603821,0.05074538663029671,0.05779581144452095,0.11740639805793762,0.0,0.0,0.0,0.0,29438.0,15607.0,17107.0,30287.0,0.3390336036682129,0.0,0.0,0.0,0.0,0.0,0.0
626,5,0.0,0.0,0.0,0.0,-0.0,-0.0,-0.015322261489927769,0.1135195791721344,0.0019489431288093328,-0.019394608214497566,1.8228892087936401,-0.025325363501906395,0.0,0.0,0.0,-0.0,-0.0,-0.0,0.0,0.0,0.0,0.0004913596785627306,0.004999999888241291,-9.605812920199241e-06,29435.0,15468.0,17242.0,30290.0,0.11308601498603821,0.05074538663029671,0.05779581144452095,0.11740639805793762,0.0,0.0,0.0,0.0,29438.0,15607.0,17107.0,30287.0,0.3390336036682129,0.0,0.0,0.0,0.0,0.0,0.0
631,5,0.0,0.0,0.0,0.0,-0.0,-0.0,-0.015161554329097271,0.09889741241931915,0.0014963496942073107,-0.013509462587535381,1.7740697860717773,-0.023214055225253105,0.0,0.0,0.0,-0.0,-0.0,-0.0,0.0,0.0,0.0,0.0004070694849360734,0.004999999888241291,-6.268930519581772e-06,29310.0,15797.0,16922.0,30413.0,0.11245513707399368,0.052034892141819,0.05650630593299866,0.11803727596998215,0.0,0.0,0.0,0.0,29311.0,15616.0,17098.0,30412.0,0.3390336036682129,0.0,0.0,0.0,0.0,0.0,0.0
636,5,0.0,0.0,0.0,0.0,-0.0,-0.0,-0.015161554329097271,0.09889741241931915,0.0014963496942073107,-0.013509462587535381,1.7740697860717773,-0.023214055225253105,0.0,0.0,0.0,-0.0,-0.0,-0.0,0.0,0.0,0.0,0.0004070694849360734,0.004999999888241291,-6.268930519581772e-06,29310.0,15797.0,16922.0,30413.0,0.11245513707399368,0.052034892141819,0.05650630593299866,0.11803727596998215,0.0,0.0,0.0,0.0,29311.0,15616.0,17098.0,30412.0,0.3390336036682129,0.0,0.0,0.0,0.0,0.0,0.0
641,5,0.0,0.0,0.0,0.0,-0.0,-0.0,-0.015545522794127464,0.0780094712972641,0.0009844558080658317,-0.04100152850151062,1.774058222770691,-0.006704408209770918,0.0,0.0,0.0,-0.0,-0.0,-0.0,0.0,0.0,0.0,0.0004646633460652083,0.004999999888241291,2.4775999918347225e-06,29388.0,15389.0,17318.0,30336.0,0.1128501370549202,0.05043969303369522,0.058101505041122437,0.11764227598905563,0.0,0.0,0.0,0.0,29653.0,15101.0,17593.0,30074.0,0.3390336036682129,0.0,0.0,0.0,0.0,0.0,0.0
646,5,0.0,0.0,0.0,0.0,-0.0,-0.0,-0.015545522794127464,0.0780094712972641,0.0009844558080658317,-0.04100152850151062,1.774058222770691,-0.006704408209770918,0.0,0.0,0.0,-0.0,-0.0,-0.0,0.0,0.0,0.0,0.0004646633460652083,0.004999999888241291,2.4775999918347225e-06,29388.0,15389.0,17318.0,30336.0,0.1128501370549202,0.05043969303369522,0.058101505041122437,0.11764227598905563,0.0,0.0,0.0,0.0,29653.0,15101.0,17593.0,30074.0,0.3390336036682129,0.0,0.0,0.0,0.0,0.0,0.0
651,5,0.0,0.0,0.0,0.0,-0.0,-0.0,-0.01553347148001194,0.06465590745210648,0.0008599056163802743,-0.017573164775967598,1.630110502243042,0.009720283560454845,0.0,0.0,0.0,-0.0,-0.0,-0.0,0.0,0.0,0.0,0.0004595947975758463,0.004999999888241291,5.4024276323616505e-05,29601.0,15279.0,17423.0,30125.0,0.11392054706811905,0.050012629479169846,0.05852856859564781,0.11657186597585678,0.0,0.0,0.0,0.0,29809.0,14987.0,17701.0,29919.0,0.3390336036682129,0.0,0.0,0.0,0.0,0.0,0.0
656,5,0.0,0.0,0.0,0.0,-0.0,-0.0,-0.01553347148001194,0.06465590745210648,0.0008599056163802743,-0.017573164775967598,1.630110502243042,0.009720283560454845,0.0,0.0,0.0,-0.0,-0.0,-0.0,0.0,0.0,0.0,0.0004595947975758463,0.004999999888241291,5.4024276323616505e-05,29601.0,15279.0,17423.0,30125.0,0.11392054706811905,0.050012629479169846,0.05852856859564781,0.11657186597585678,0.0,0.0,0.0,0.0,29809.0,14987.0,17701.0,29919.0,0.3390336036682129,0.0,0.0,0.0,0.0,0.0,0.0
661,5,0.0,0.0,0.0,0.0,-0.0,-0.0,-0.015542790293693542,0.04709034785628319,0.0007819468737579882,0.019680121913552284,1.442014455795288,0.01172041054815054,0.0,0.0,0.0,-0.0,-0.0,-0.0,0.0,0.0,0.0,0.0004098944482393563,0.004999999888241291,9.745832358021289e-05,29771.0,15216.0,17484.0,29956.0,0.11477868258953094,0.049765635281801224,0.058775562793016434,0.11571373045444489,0.0,0.0,0.0,0.0,29827.0,15121.0,17574.0,29901.0,0.3390336036682129,0.0,0.0,0.0,0.0,0.0,0.0
666,5,0.0,0.0,0.0,0.0,-0.0,-0.0,-0.015542790293693542,0.04709034785628319,0.0007819468737579882,0.019680121913552284,1.442014455795288,0.01172041054815054,0.0,0.0,0.0,-0.0,-0.0,-0.0,0.0,0.0,0.0,0.0004098944482393563,0.004999999888241291,9.745832358021289e-05,29771.0,15216.0,17484.0,29956.0,0.11477868258953094,0.049765635281801224,0.058775562793016434,0.11571373045444489,0.0,0.0,0.0,0.0,29827.0,15121.0,17574.0,29901.0,0.3390336036682129,0.0,0.0,0.0,0.0,0.0,0.0
671,5,0.0,0.0,0.0,0.0,-0.0,-0.0,-0.015346553176641464,0.037185437977313995,0.000926939828786999,0.02181181311607361,1.1601611375808716,0.037040404975414276,0.0,0.0,0.0,-0.0,-0.0,-0.0,0.0,0.0,0.0,0.00045668784878216684,0.00404359819367528,0.00017468964506406337,30104.0,14803.0,17875.0,29623.0,0.11646522581577301,0.048169925808906555,0.0603712722659111,0.11402718722820282,0.0,0.0,0.0,0.0,30098.0,14678.0,17992.0,29629.0,0.3390336036682129,0.0,0.0,0.0,0.0,0.0,0.0
676,5,0.0,0.0,0.0,0.0,-0.0,-0.0,-0.015346553176641464,0.037185437977313995,0.000926939828786999,0.02181181311607361,1.1601611375808716,0.037040404975414276,0.0,0.0,0.0,-0.0,-0.0,-0.0,0.0,0.0,0.0,0.00045668784878216684,0.00404359819367528,0.00017468964506406337,30104.0,14803.0,17875.0,29623.0,0.11646522581577301,0.048169925808906555,0.0603712722659111,0.11402718722820282,0.0,0.0,0.0,0.0,30098.0,14678.0,17992.0,29629.0,0.3390336036682129,0.0,0.0,0.0,0.0,0.0,0.0
