timestamp,dt,pos_x,pos_y,pos_z,vel_x,vel_y,vel_z,roll,pitch,yaw,agv_x,agv_y,agv_z,x_ref,y_ref,z_ref,roll_ref,pitch_ref,yaw_ref,x_vel_ref,y_vel_ref,z_vel_ref,x_torque,y_torque,z_torque,w0,w1,w2,w3,u0,u1,u2,u3,m0req,m1req,m2req,m3req,thrust0,thrust1,thrust2,thrust3,thrust_ref,roll_vicon,pitch_vicon,yaw_vicon,acc_x,acc_y,acc_z
5,5,0.0,0.0,0.0,0.0021789392922073603,0.0045456537045538425,-0.008706260472536087,-0.025848587974905968,0.0210872795432806,0.08892632275819778,0.0005800318322144449,0.1702222377061844,0.07916643470525742,0.0,0.0,0.0,-0.0036228434182703495,0.0017366026295349002,-0.0,0.0,0.0,0.0,0.000737160793505609,5.503570719156414e-05,0.0027586703654378653,0.0,0.0,0.0,0.0,0.0,0.0,0.0,0.0,0.0,0.0,0.0,0.0,0.0,0.0,0.0,0.0,0.40653014183044434,-0.06947141596168062,-0.013462567297366671,0.07603402594792821,-0.008171021938323975,-0.01704620197415352,0.02611878141760826
27,22,0.0,0.0,0.0,0.002903236309066415,-0.0028982891235500574,-0.0005401608068495989,-0.025848587974905968,0.0210872795432806,0.08892632275819778,0.0005800318322144449,0.1702222377061844,0.07916643470525742,0.0,0.0,0.0,0.002309912582859397,0.0023138616234064102,-0.0,0.0,0.0,0.0,0.000737160793505609,5.503570719156414e-05,0.0027586703654378653,0.0,0.0,0.0,0.0,0.0,0.0,0.0,0.0,0.0,0.0,0.0,0.0,0.0,0.0,0.0,0.0,0.406529039144516,-0.06887568752775465,-0.010795228077957684,0.07668391403561224,-0.01088713575154543,0.010868583805859089,0.0016204824205487967
32,5,0.0,0.0,0.0,0.0033804490230977535,-0.0015407042810693383,0.005198910366743803,-0.02572527527809143,0.019328685477375984,0.08963964879512787,0.0037245196290314198,0.01974957436323166,0.016369489952921867,0.0,0.0,0.0,0.0012254661414772272,0.002688791835680604,-0.0,0.0,0.0,0.0,0.0007126668351702392,-0.0003673268074635416,0.0027290417347103357,0.0,0.0,0.0,0.0,0.0,0.0,0.0,0.0,0.0,0.0,0.0,0.0,0.0,0.0,0.0,0.0,0.40734565258026123,-0.06887186727461644,-0.011296110333116316,0.07710518305572447,-0.012676684185862541,0.005777641199529171,-0.015596730634570122
37,5,0.0,0.0,0.0,0.008776303380727768,-0.0037988910917192698,0.013051983900368214,-0.02572527527809143,0.019328685477375984,0.08963964879512787,0.0037245196290314198,0.01974957436323166,0.016369489952921867,0.0,0.0,0.0,0.0030215426813811064,0.006980529520660639,-0.0,0.0,0.0,0.0,0.0009015669347718358,-0.0007681903662160039,0.002695695264264941,43516.0,170.0,46831.0,610.0,0.19179733097553253,0.0004536658525466919,0.21263864636421204,0.0016393959522247314,0.0,0.0,0.0,0.0,0.0,0.0,0.0,0.0,0.4073556661605835,-0.06344371997736123,-0.008705378672067129,0.07767967913255798,-0.032911136746406555,0.014245841652154922,-0.039155952632427216
45,7,0.0,0.0,0.0,-0.0010379237355664372,0.0007570036686956882,-0.001967454794794321,-0.02572527527809143,0.019328685477375984,0.08963964879512787,0.0037245196290314198,0.01974957436323166,0.016369489952921867,0.0,0.0,0.0,-0.0006021179724484682,-0.0008255610009655356,-0.0,0.0,0.0,0.0,0.0009015669347718358,-0.0007681903662160039,0.002695695264264941,43516.0,170.0,46831.0,610.0,0.19179733097553253,0.0004536658525466919,0.21263864636421204,0.0016393959522247314,0.0,0.0,0.0,0.0,0.0,0.0,0.0,0.0,0.40734410285949707,-0.06679412087186984,-0.01071999682216389,0.07717915163175003,0.00389221403747797,-0.0028387638740241528,0.005902364384382963
50,5,-1.976213388843462e-05,-1.571500615682453e-05,1.0358085091866087e-05,-0.0035274375695735216,0.0024568785447627306,-0.0017871338641270995,-0.025623470544815063,0.020252397283911705,0.08895798027515411,-0.0008274345891550183,-0.08358105272054672,-0.11859777569770813,0.0,0.0,0.0,-0.0019753852393478155,-0.002833036473020911,-0.0,0.0,0.0,0.0,0.0009470484801568091,-0.0009024720638990402,0.0025697958189994097,42503.0,2366.0,46159.0,2498.0,0.18559885025024414,0.0065177008509635925,0.208344966173172,0.006894148886203766,0.0,0.0,0.0,0.0,43408.0,378.0,46987.0,278.0,0.4065655469894409,-0.06824973837029788,-0.011981513213834087,0.07607096159254087,0.013331177644431591,-0.009295429103076458,0.005555874668061733
57,8,-0.00015330257883761078,4.735550101031549e-05,0.00011507575982250273,-0.019753893837332726,-0.008092807605862617,-0.015196614898741245,-0.025623470544815063,0.020252397283911705,0.08895798027515411,-0.0008274345891550183,-0.08358105272054672,-0.11859777569770813,0.0,0.0,0.0,0.006498018279671669,-0.01590491086244583,-0.0,0.0,0.0,0.0,0.0009470484801568091,-0.0009024720638990402,0.0025697958189994097,42503.0,2366.0,46159.0,2498.0,0.18559885025024414,0.0065177008509635925,0.208344966173172,0.006894148886203766,0.0,0.0,0.0,0.0,43408.0,378.0,46987.0,278.0,0.40662312507629395,-0.06673092454578175,-0.01055574135261847,0.07689881798404805,0.07484854757785797,0.030581388622522354,0.04736083745956421
62,5,-0.00018428276234772056,6.201772339409217e-05,0.00011732164421118796,-0.010263393633067608,-0.004480552859604359,-0.004873407538980246,-0.025657985359430313,0.021078016608953476,0.08856545388698578,0.0009124184725806117,-0.13478922843933105,-0.057989154011011124,0.0,0.0,0.0,0.0036412645131349564,-0.008390095084905624,-0.0,0.0,0.0,0.0,0.0009657812770456076,-0.0012344742426648736,0.002676490694284439,42711.0,2567.0,47332.0,0.0,0.18686369061470032,0.007092617452144623,0.2158687710762024,-0.002478756010532379,0.0,0.0,0.0,0.0,42213.0,3665.0,46934.0,0.0,0.40613052248954773,-0.06382254769295534,-0.009967432377539767,0.07609065235233721,0.03943762555718422,0.017116034403443336,0.016718458384275436
67,5,-0.00023919429804664105,0.00011560572602320462,0.00010192554327659309,-0.005152951925992966,-0.006612964440137148,0.005486184265464544,-0.025657985359430313,0.021078016608953476,0.08856545388698578,0.0009124184725806117,-0.13478922843933105,-0.057989154011011124,0.0,0.0,0.0,0.0054015107452869415,-0.0043767280876636505,-0.0,0.0,0.0,0.0,0.0009657812770456076,-0.0012344742426648736,0.002676490694284439,42711.0,2567.0,47332.0,0.0,0.18686369061470032,0.007092617452144623,0.2158687710762024,-0.002478756010532379,0.0,0.0,0.0,0.0,42213.0,3665.0,46934.0,0.0,0.4061233401298523,-0.06030030131349511,-0.011652591103543159,0.07631726007137009,0.020572809502482414,0.025389859452843666,-0.014352195896208286
72,5,-0.00033372369944117963,5.040824180468917e-05,0.00010232438944512978,-0.01478000357747078,0.007143758237361908,0.0015900168800726533,-0.025635026395320892,0.02263706922531128,0.0872356966137886,-0.0031925442162901163,-0.15771283209323883,-0.10867097973823547,0.0,0.0,0.0,-0.005662551615387201,-0.012205890379846096,-0.0,0.0,0.0,0.0,0.0007925558602437377,-0.0017075220821425319,0.0025281428825110197,41822.0,4385.0,46813.0,336.0,0.18148376047611237,0.012435957789421082,0.21252591907978058,0.0009006708860397339,0.0,0.0,0.0,0.0,41248.0,4210.0,48018.0,0.0,0.4046270549297333,-0.06644579180322525,-0.015835267157634718,0.07415915787467488,0.05716059356927872,-0.026518551632761955,-0.002568436786532402
78,5,-0.00033372369944117963,5.040824180468917e-05,0.00010232438944512978,-0.01478000357747078,0.007143758237361908,0.0015900168800726533,-0.025635026395320892,0.02263706922531128,0.0872356966137886,-0.0031925442162901163,-0.15771283209323883,-0.10867097973823547,0.0,0.0,0.0,-0.005661437287926674,-0.012213265523314476,-0.0,0.0,0.0,0.0,0.0007925558602437377,-0.0017075220821425319,0.0025281428825110197,41822.0,4385.0,46813.0,336.0,0.18148376047611237,0.012435957789421082,0.21252591907978058,0.0009006708860397339,0.0,0.0,0.0,0.0,41248.0,4210.0,48018.0,0.0,0.40462711453437805,-0.06644579180322525,-0.015835267157634718,0.07415915787467488,0.057195134460926056,-0.02651333436369896,-0.0023919271770864725
83,5,-0.00038852004217915237,5.722046262235381e-05,8.793665620032698e-05,-0.0019743305165320635,-0.0014627039199694991,0.0020944513380527496,-0.02567523904144764,0.024026351049542427,0.08652889728546143,0.0064882817678153515,-0.17120350897312164,-0.14858581125736237,0.0,0.0,0.0,0.0012442049337550998,-0.0020500202663242817,-0.0,0.0,0.0,0.0,0.001075482927262783,-0.0023873625323176384,0.002561508445069194,40789.0,5211.0,47550.0,0.0,0.17530807852745056,0.014948412775993347,0.21727736294269562,-0.0009106993675231934,0.0,0.0,0.0,0.0,40560.0,5592.0,47008.0,840.0,0.40378203988075256,-0.0641543079270399,-0.018359795503695486,0.0739000236528892,0.009580557234585285,0.005814670119434595,-0.0035621332935988903
90,8,-0.00044126383727416396,3.150178963551298e-05,0.00011185119365109131,-0.007976430468261242,0.0031618031207472086,-0.002719699637964368,-0.02567523904144764,0.024026351049542427,0.08652889728546143,0.0064882817678153515,-0.17120350897312164,-0.14858581125736237,0.0,0.0,0.0,0.0012442233273759484,-0.00205014506354928,-0.0,0.0,0.0,0.0,0.001075482927262783,-0.0023873625323176384,0.002561508445069194,40789.0,5211.0,47550.0,0.0,0.17530807852745056,0.014948412775993347,0.21727736294269562,-0.0009106993675231934,0.0,0.0,0.0,0.0,40560.0,5592.0,47008.0,840.0,0.40378203988075256,-0.06100563693606576,-0.017332752925151757,0.07341074217256897,0.009581140242516994,0.00581475580111146,-0.0035599349066615105
95,5,-0.0005230318056419492,3.87377331207972e-05,5.495723235071637e-05,-0.01384044624865055,-6.449092325055972e-05,0.007149245124310255,-0.025772733613848686,0.026546036824584007,0.08513353765010834,0.004324064590036869,-0.21768681704998016,-0.08144351840019226,0.0,0.0,0.0,0.00010399697202956304,-0.011776883155107498,-0.0,0.0,0.0,0.0,0.0010886222589761019,-0.002342600841075182,0.0026075360365211964,41348.0,4045.0,47976.0,0.0,0.17863722145557404,0.01141628623008728,0.22004778683185577,-0.003977954387664795,0.0,0.0,0.0,0.0,40897.0,6150.0,47925.0,0.0,0.4022105634212494,-0.06511948265948843,-0.021556411824586202,0.07215358495683617,0.054823435842990875,0.000484186370158568,-0.018931183964014053
100,5,-0.0005779775092378259,2.161477277695667e-05,5.106689059175551e-05,-0.011844533495604992,0.0023778670001775026,0.0026894211769104004,-0.02574026770889759,0.028521668165922165,0.08392049372196198,0.013212139718234539,-0.2614583671092987,-0.19524982571601868,0.0,0.0,0.0,-0.001886929152533412,-0.010288264602422714,-0.0,0.0,0.0,0.0,0.000680531607940793,-0.0026843391824513674,0.002435200149193406,39977.0,7936.0,46871.0,0.0,0.17051070928573608,0.02363523095846176,0.21289807558059692,-0.00241687148809433,0.0,0.0,0.0,0.0,39641.0,8381.0,47445.0,0.0,0.4008151888847351,-0.06324866896419902,-0.020162896198407266,0.0710705305114995,0.047727860510349274,-0.008753548376262188,-0.005423066671937704
106,5,-0.0006610852433368564,6.168817344587296e-05,1.8132896002498455e-05,-0.01518843974918127,-0.0048969159834086895,0.005417585372924805,-0.02574026770889759,0.028521668165922165,0.08392049372196198,0.013212139718234539,-0.2614583671092987,-0.19524982571601868,0.0,0.0,0.0,0.004036844242364168,-0.013083706609904766,-0.0,0.0,0.0,0.0,0.000680531607940793,-0.0026843391824513674,0.002435200149193406,39977.0,7936.0,46871.0,0.0,0.17051070928573608,0.02363523095846176,0.21289807558059692,-0.00241687148809433,0.0,0.0,0.0,0.0,39641.0,8381.0,47445.0,0.0,0.40083083510398865,-0.06373290629731641,-0.02188366232036589,0.07056985560908804,0.060697294771671295,0.018727954477071762,-0.014083612710237503
111,5,-0.0007320255972445011,6.08890550211072e-05,6.335506623145193e-05,-0.014488181099295616,-0.00135719811078161,-0.004705827683210373,-0.02574026770889759,0.028521668165922165,0.08392049372196198,0.013212139718234539,-0.2614583671092987,-0.19524982571601868,0.0,0.0,0.0,0.0011782700894400477,-0.012633738107979298,-0.0,0.0,0.0,0.0,0.000680531607940793,-0.0026843391824513674,0.002435200149193406,39977.0,7936.0,46871.0,0.0,0.17051070928573608,0.02363523095846176,0.21289807558059692,-0.00241687148809433,0.0,0.0,0.0,0.0,39641.0,8381.0,47445.0,0.0,0.40082553029060364,-0.06123474772008202,-0.019451896526252743,0.06941887474745727,0.058609738945961,0.005466302391141653,0.01713225059211254
116,5,-0.0007972936728037894,7.194450154202059e-05,6.188634142745286e-05,-0.013483983464539051,-0.0019549219869077206,-0.0012061267625540495,-0.02564777433872223,0.0317079983651638,0.08210434764623642,-0.003006814979016781,-0.28230175375938416,-0.1650756448507309,0.0,0.0,0.0,0.0016836330760270357,-0.011972167529165745,-0.0,0.0,0.0,0.0,0.0008242871845141053,-0.0030894186347723007,0.002504242118448019,39778.0,7575.0,47746.0,0.0,0.16934622824192047,0.022450193762779236,0.21854771673679352,-0.00655229389667511,0.0,0.0,0.0,0.0,40067.0,7251.0,46596.0,83.0,0.3987422287464142,-0.06160101728701572,-0.020684030507703392,0.06891981614927084,0.05525221303105354,0.007770191878080368,0.006722102873027325
121,5,-0.0009820414707064629,0.00035619246773421764,0.00031288922764360905,-0.029909895732998848,-0.040381189435720444,-0.03550224006175995,-0.02564777433872223,0.0317079983651638,0.08210434764623642,-0.003006814979016781,-0.28230175375938416,-0.1650756448507309,0.0,0.0,0.0,0.03319652006030083,-0.025534452870488167,-0.0,0.0,0.0,0.0,0.0008242871845141053,-0.0030894186347723007,0.002504242118448019,39778.0,7575.0,47746.0,0.0,0.16934622824192047,0.022450193762779236,0.21854771673679352,-0.00655229389667511,0.0,0.0,0.0,0.0,40067.0,7251.0,46596.0,83.0,0.39906296133995056,-0.0517694348469603,-0.00830559524760681,0.062403325773501515,0.11786181479692459,0.153299942612648,0.11351980268955231
126,5,-0.0009880737634375691,0.00017418553761672229,0.00011503485438879579,-0.009817486628890038,0.013366611674427986,0.01704893819987774,-0.025329899042844772,0.033443521708250046,0.08042699843645096,0.05089246481657028,-0.1503170132637024,-0.18652160465717316,0.0,0.0,0.0,-0.010644062422215939,-0.009243794716894627,-0.0,0.0,0.0,0.0,0.0009071974782273173,-0.0025491206906735897,0.0023897362407296896,39388.0,7405.0,46524.0,442.0,0.16707122325897217,0.021895714104175568,0.21067485213279724,0.0011837705969810486,0.0,0.0,0.0,0.0,39610.0,8028.0,46891.0,0.0,0.39875268936157227,-0.055617448100608036,-0.015530745774617315,0.06501534970095849,0.04266035929322243,-0.049123216420412064,-0.04650130495429039
131,5,-0.0010231634369120002,0.00023994511866476387,0.00012901431182399392,-0.007857793010771275,-0.005196358077228069,0.0031575581524521112,-0.025329899042844772,0.033443521708250046,0.08042699843645096,0.05089246481657028,-0.1503170132637024,-0.18652160465717316,0.0,0.0,0.0,0.004537725821137428,-0.00775575777515769,-0.0,0.0,0.0,0.0,0.0009071974782273173,-0.0025491206906735897,0.0023897362407296896,39388.0,7405.0,46524.0,442.0,0.16707122325897217,0.021895714104175568,0.21067485213279724,0.0011837705969810486,0.0,0.0,0.0,0.0,39610.0,8028.0,46891.0,0.0,0.39680787920951843,-0.05662687114067637,-0.01604379684540883,0.0636388489465169,0.0356205552816391,0.020840628072619438,-0.004357246682047844
136,5,-0.0010790671221911907,0.0002448998566251248,8.036054350668564e-05,-0.010183854959905148,-0.0022525705862790346,0.007758794352412224,-0.025329899042844772,0.033443521708250046,0.08042699843645096,0.05089246481657028,-0.1503170132637024,-0.18652160465717316,0.0,0.0,0.0,0.002144923433661461,-0.009739224798977375,-0.0,0.0,0.0,0.0,0.0009071974782273173,-0.0025491206906735897,0.0023897362407296896,39388.0,7405.0,46524.0,442.0,0.16707122325897217,0.021895714104175568,0.21067485213279724,0.0011837705969810486,0.0,0.0,0.0,0.0,39610.0,8028.0,46891.0,0.0,0.3968116044998169,-0.0589417055544432,-0.01739040028224233,0.06274215476433308,0.04473040625452995,0.009851408191025257,-0.018667420372366905
141,5,-0.0011113869259133935,0.00024154385027941316,9.599214536137879e-05,-0.007579936180263758,-0.0002059298858512193,0.00013921421486884356,-0.025069812312722206,0.03553888946771622,0.07826368510723114,-0.018246594816446304,-0.14750541746616364,-0.20467214286327362,0.0,0.0,0.0,0.0004802942567039281,-0.007727987598627806,-0.0,0.0,0.0,0.0,0.0019785799086093903,-0.002774030202999711,0.0024299088399857283,38618.0,4529.0,47923.0,1429.0,0.16260862350463867,0.012869268655776978,0.2197023183107376,0.0038831084966659546,0.0,0.0,0.0,0.0,39366.0,7322.0,46273.0,1178.0,0.394325852394104,-0.05681453488870809,-0.016719055638224834,0.0622391966395244,0.03527151048183441,0.002192404353991151,0.004605769645422697
146,5,-0.0012366491137072444,0.00018459849525243044,0.00018891545187216252,-0.01981068029999733,0.007910571061074734,-0.012967498041689396,-0.025069812312722206,0.03553888946771622,0.07826368510723114,-0.018246594816446304,-0.14750541746616364,-0.20467214286327362,0.0,0.0,0.0,-0.006244024261832237,-0.017941825091838837,-0.0,0.0,0.0,0.0,0.0019785799086093903,-0.002774030202999711,0.0024299088399857283,38618.0,4529.0,47923.0,1429.0,0.16260862350463867,0.012869268655776978,0.2197023183107376,0.0038831084966659546,0.0,0.0,0.0,0.0,39366.0,7322.0,46273.0,1178.0,0.3943852186203003,-0.06265195925081765,-0.012859313550905145,0.0606165176816596,0.08189389854669571,-0.028501281514763832,0.0455162338912487
152,5,-0.001277751987800002,0.00020514801144599915,0.00019714879454113543,-0.011697601526975632,-0.0005037623341195285,-0.0050429170951247215,-0.025093335658311844,0.0362372100353241,0.07696051895618439,0.004690425470471382,-0.05460503324866295,-0.12109248340129852,0.0,0.0,0.0,0.0007012982969172299,-0.011413570493459702,-0.0,0.0,0.0,0.0,0.0009407518082298338,-0.0017329161055386066,0.002502208575606346,41088.0,3518.0,46264.0,322.0,0.17708517611026764,0.00985291600227356,0.20901109278202057,0.000862419605255127,0.0,0.0,0.0,0.0,39112.0,3695.0,47931.0,1280.0,0.39284709095954895,-0.06341399773235398,-0.013056333898438483,0.06021595319463786,0.05189647153019905,0.003188999369740486,0.022430701181292534
157,5,-0.0012906724587082863,0.00017364619998261333,0.00019629225425887853,-0.005318161100149155,0.004259124863892794,-0.0013929597334936261,-0.025117237120866776,0.03590385988354683,0.07555323094129562,-0.0037252388428896666,0.09520561248064041,0.007020391058176756,0.0,0.0,0.0,-0.0032680504955351353,-0.006239011418074369,-0.0,0.0,0.0,0.0,0.0006970659596845508,-0.0016848936211317778,0.0026547412853688,42268.0,1637.0,46800.0,0.0,0.1841747760772705,0.004463233053684235,0.21244201064109802,-0.00669475644826889,0.0,0.0,0.0,0.0,41429.0,2578.0,46491.0,38.0,0.39121922850608826,-0.0641511114712338,-0.012671544510393738,0.06038627334742889,0.028251849114894867,-0.014797447249293327,0.012014040723443031
162,5,-0.0012941670138388872,0.0001453933073207736,0.0002317597100045532,-0.002084680600091815,0.005233143921941519,-0.005383331794291735,-0.025117237120866776,0.03590385988354683,0.07555323094129562,-0.0037252388428896666,0.09520561248064041,0.007020391058176756,0.0,0.0,0.0,-0.004103724379092455,-0.0035816419404000044,-0.0,0.0,0.0,0.0,0.0006970659596845508,-0.0016848936211317778,0.0026547412853688,42268.0,1637.0,46800.0,0.0,0.1841747760772705,0.004463233053684235,0.21244201064109802,-0.00669475644826889,0.0,0.0,0.0,0.0,41429.0,2578.0,46491.0,38.0,0.39121532440185547,-0.06470197894087462,-0.013094404143355201,0.06080518199505634,0.016217343509197235,-0.01858142763376236,0.02470453269779682
167,5,-0.001272049848921597,0.00011061862460337579,0.00019949820125475526,0.0024709950666874647,0.00643839780241251,0.002901611151173711,-0.025117237120866776,0.03590385988354683,0.07555323094129562,-0.0037252388428896666,0.09520561248064041,0.007020391058176756,0.0,0.0,0.0,-0.005135997664183378,0.00017720123287290335,-0.0,0.0,0.0,0.0,0.0006970659596845508,-0.0016848936211317778,0.0026547412853688,42268.0,1637.0,46800.0,0.0,0.1841747760772705,0.004463233053684235,0.21244201064109802,-0.00669475644826889,0.0,0.0,0.0,0.0,41429.0,2578.0,46491.0,38.0,0.3912146985530853,-0.06827387303232207,-0.01503768861359185,0.062010444032207374,-0.000800439331214875,-0.02325526252388954,-0.00010857827146537602
172,5,-0.001281686476431787,6.309799937298521e-05,0.00022337204427458346,-0.0006078268634155393,0.008584407158195972,-0.002471855143085122,-0.025324810296297073,0.034587521106004715,0.07577753812074661,-0.010652340017259121,0.13582517206668854,0.03947199881076813,0.0,0.0,0.0,-0.006958425510674715,-0.002413344569504261,-0.0,0.0,0.0,0.0,0.0008477595401927829,-0.0010151983005926013,0.0027418676763772964,43227.0,0.0,46797.0,0.0,0.19001775979995728,-0.003935664892196655,0.21242134273052216,-0.005672380328178406,0.0,0.0,0.0,0.0,42543.0,931.0,46947.0,0.0,0.3914770781993866,-0.06838814686423139,-0.014673759717643646,0.06293796709024159,0.010936475358903408,-0.03152816742658615,0.016745777800679207
177,5,-0.001250399393029511,8.801636431599036e-05,0.00023700926976744086,0.004197846632450819,-0.0009132482227869332,-0.002650766633450985,-0.025324810296297073,0.034587521106004715,0.07577753812074661,-0.010652340017259121,0.13582517206668854,0.03947199881076813,0.0,0.0,0.0,0.000931996910367161,0.0015536999562755227,-0.0,0.0,0.0,0.0,0.0008477595401927829,-0.0010151983005926013,0.0027418676763772964,43227.0,0.0,46797.0,0.0,0.19001775979995728,-0.003935664892196655,0.21242134273052216,-0.005672380328178406,0.0,0.0,0.0,0.0,42543.0,931.0,46947.0,0.0,0.3914670944213867,-0.06904344043818844,-0.014707888028889261,0.06282004096864288,-0.007037729490548372,0.004222887102514505,0.018081052228808403
182,5,-0.0012057289713993669,9.067902283277363e-05,0.00020050900639034808,0.007513214834034443,-0.0006467471248470247,0.004314807243645191,-0.025338761508464813,0.033547885715961456,0.07625246047973633,0.012304376810789108,0.12256752699613571,0.055506933480501175,0.0,0.0,0.0,0.000717503426130861,0.004283200483769178,-0.0,0.0,0.0,0.0,0.0007542145322076976,-0.0006727133877575397,0.00285888509824872,44115.0,0.0,46931.0,0.0,0.1954965591430664,-0.008858956396579742,0.2132868766784668,-0.00870976597070694,0.0,0.0,0.0,0.0,43948.0,0.0,46945.0,0.0,0.39201411604881287,-0.06573426722772549,-0.014889476771537484,0.06349654334420633,-0.019431866705417633,0.0032555926591157913,-0.0025633033365011215
187,5,-0.0011743776267394423,4.135511699132621e-05,0.00015529137453995645,0.006643146742135286,0.0067113228142261505,0.0076249102130532265,-0.025338761508464813,0.033547885715961456,0.07625246047973633,0.012304376810789108,0.12256752699613571,0.055506933480501175,0.0,0.0,0.0,-0.005416230298578739,0.003571148030459881,-0.0,0.0,0.0,0.0,0.0007542145322076976,-0.0006727133877575397,0.00285888509824872,44115.0,0.0,46931.0,0.0,0.1954965591430664,-0.008858956396579742,0.2132868766784668,-0.00870976597070694,0.0,0.0,0.0,0.0,43948.0,0.0,46945.0,0.0,0.3920186758041382,-0.06801985961469238,-0.016977803623044067,0.06415208134179283,-0.016201168298721313,-0.024574626237154007,-0.012829390354454517
192,5,-0.00111095339525491,0.00015307373541872948,0.00013120556832291186,0.01087233703583479,-0.013627208769321442,0.0056594861671328545,-0.025708584114909172,0.032305773347616196,0.07669741660356522,-0.05608518794178963,0.09898757189512253,0.03352786973118782,0.0,0.0,0.0,0.01150251179933548,0.0070943646132946014,-0.0,0.0,0.0,0.0,0.0008418928482569754,-0.0008705096552148461,0.0028565460816025734,43677.0,0.0,47400.0,0.0,0.19278541207313538,-0.009998045861721039,0.21630528569221497,-0.007625587284564972,0.0,0.0,0.0,0.0,43948.0,0.0,46945.0,0.0,0.39255592226982117,-0.060529090723345245,-0.014958896535459752,0.06385165064916573,-0.032228972762823105,0.05226041004061699,-0.006970432121306658
197,5,-0.001063260599039495,6.180576019687578e-05,0.00011155792890349403,0.009938699193298817,0.008689353242516518,0.004448514897376299,-0.025708584114909172,0.032305773347616196,0.07669741660356522,-0.05608518794178963,0.09898757189512253,0.03352786973118782,0.0,0.0,0.0,-0.007012851070612669,0.00633792020380497,-0.0,0.0,0.0,0.0,0.0008418928482569754,-0.0008705096552148461,0.0028565460816025734,43677.0,0.0,47400.0,0.0,0.19278541207313538,-0.009998045861721039,0.21630528569221497,-0.007625587284564972,0.0,0.0,0.0,0.0,43948.0,0.0,46945.0,0.0,0.39253759384155273,-0.06922416734135817,-0.019991122482026582,0.06437363258052323,-0.02879391424357891,-0.03186094015836716,-0.003297484014183283
202,5,-0.0009362042765133083,-5.914851135457866e-05,0.00010602805559756234,0.010654493235051632,0.01464744471013546,-0.0010565273696556687,-0.026386167854070663,0.03186932951211929,0.07695399224758148,-0.09906613081693649,0.04981066286563873,0.0606641061604023,0.0,0.0,0.0,-0.012052930891513824,0.007037712261080742,-0.0,0.0,0.0,0.0,0.0012233149027451873,-0.0011866646818816662,0.002909042639657855,43877.0,0.0,48029.0,0.0,0.19401895999908447,-0.010532647371292114,0.22039180994033813,-0.011859476566314697,0.0,0.0,0.0,0.0,44011.0,0.0,48386.0,0.0,0.39285221695899963,-0.07484313462480656,-0.021844127381475707,0.06668611492832355,-0.03199578449130058,-0.05480223521590233,0.013340662233531475
207,5,-0.0009362042765133083,-5.914851135457866e-05,0.00010602805559756234,0.010654493235051632,0.01464744471013546,-0.0010565273696556687,-0.026386167854070663,0.03186932951211929,0.07695399224758148,-0.09906613081693649,0.04981066286563873,0.0606641061604023,0.0,0.0,0.0,-0.012055040337145329,0.007004354149103165,-0.0,0.0,0.0,0.0,0.0012233149027451873,-0.0011866646818816662,0.002909042639657855,43877.0,0.0,48029.0,0.0,0.19401895999908447,-0.010532647371292114,0.22039180994033813,-0.011859476566314697,0.0,0.0,0.0,0.0,44011.0,0.0,48386.0,0.0,0.39285212755203247,-0.07484313462480656,-0.021844127381475707,0.06668611492832355,-0.0318441167473793,-0.05481182038784027,0.013626937754452229
212,5,-0.0009056166745722294,2.360947291890625e-06,0.0001869062689365819,0.007478615734726191,-0.004217090550810099,-0.011639908887445927,-0.02736806310713291,0.031714823096990585,0.07748770713806152,-0.05721868947148323,0.011953298933804035,0.019287163391709328,0.0,0.0,0.0,0.0035701189190149307,0.004396339878439903,-0.0,0.0,0.0,0.0,0.0010002371855080128,-0.0013465892989188433,0.0029275917913764715,43653.0,0.0,48190.0,0.0,0.1926400363445282,-0.008657984435558319,0.22144460678100586,-0.013407997786998749,0.0,0.0,0.0,0.0,43913.0,0.0,48023.0,0.0,0.39282023906707764,-0.07373778532522865,-0.020558658290650175,0.0664855424042334,-0.01998654380440712,0.01623162440955639,0.04678717255592346
217,5,-0.0008831036975607276,-9.3636090241489e-06,0.00014056490908842534,0.005395404528826475,0.00037631060695275664,0.0029958183877170086,-0.02736806310713291,0.031714823096990585,0.07748770713806152,-0.05721868947148323,0.011953298933804035,0.019287163391709328,0.0,0.0,0.0,-0.0002310379350092262,0.0026673937682062387,-0.0,0.0,0.0,0.0,0.0010002371855080128,-0.0013465892989188433,0.0029275917913764715,43653.0,0.0,48190.0,0.0,0.1926400363445282,-0.008657984435558319,0.22144460678100586,-0.013407997786998749,0.0,0.0,0.0,0.0,43913.0,0.0,48023.0,0.0,0.39342665672302246,-0.07468883966674855,-0.019942875732572585,0.0660118292713139,-0.012144769541919231,-0.0010520565556362271,0.0026639134157449007
223,5,-0.0007803267799317837,-7.140015804907307e-05,5.9671041526598856e-05,0.01600738614797592,0.008798010647296906,0.012223886325955391,-0.02736806310713291,0.031714823096990585,0.07748770713806152,-0.05721868947148323,0.011953298933804035,0.019287163391709328,0.0,0.0,0.0,-0.007234375458210707,0.01149789709597826,-0.0,0.0,0.0,0.0,0.0010002371855080128,-0.0013465892989188433,0.0029275917913764715,43653.0,0.0,48190.0,0.0,0.1926400363445282,-0.008657984435558319,0.22144460678100586,-0.013407997786998749,0.0,0.0,0.0,0.0,43913.0,0.0,48023.0,0.0,0.39346155524253845,-0.07255280311624843,-0.023875163021888118,0.07015524543379383,-0.05235719308257103,-0.032944824546575546,-0.02598121203482151
228,5,-0.0008735363953746855,9.921854143613018e-06,0.00015294950571842492,-0.0082471314817667,-0.008745678700506687,-0.00939181912690401,-0.027671415358781815,0.03151494264602661,0.0778631940484047,-0.03962425887584686,0.038075946271419525,0.0708284005522728,0.0,0.0,0.0,0.0072916108183562756,-0.008603204041719437,-0.0,0.0,0.0,0.0,0.000895278702955693,-0.0011893160408362746,0.003000000026077032,44459.0,0.0,48354.0,0.0,0.19763630628585815,-0.01228485256433487,0.22251304984092712,-0.015326984226703644,0.0,0.0,0.0,0.0,44043.0,0.0,48769.0,0.0,0.39388036727905273,-0.0753569388522622,-0.020034961180877563,0.06764837953152845,0.03921876475214958,0.033240705728530884,0.04053214192390442
233,5,-0.0008064646390266716,3.223965541110374e-05,0.00023668506764806807,0.004794362001121044,-0.005136130377650261,-0.012397908605635166,-0.027671415358781815,0.03151494264602661,0.0778631940484047,-0.03962425887584686,0.038075946271419525,0.0708284005522728,0.0,0.0,0.0,0.004347316455096006,0.002180477837100625,-0.0,0.0,0.0,0.0,0.000895278702955693,-0.0011893160408362746,0.003000000026077032,44459.0,0.0,48354.0,0.0,0.19763630628585815,-0.01228485256433487,0.22251304984092712,-0.015326984226703644,0.0,0.0,0.0,0.0,44043.0,0.0,48769.0,0.0,0.39385998249053955,-0.07511249250344795,-0.018447319472064544,0.06734040581803458,-0.009938538074493408,0.01981750875711441,0.05105534940958023
238,5,-0.0007543599349446595,3.9819533412810415e-05,0.0002517077955417335,0.008732971735298634,-0.0026020221412181854,-0.0058225528337061405,-0.028475111350417137,0.03088124468922615,0.07840795814990997,-0.06719023734331131,0.05799036845564842,0.024248190224170685,0.0,0.0,0.0,0.0022687818855047226,0.005438356194645166,-0.0,0.0,0.0,0.0,0.0013318969868123531,-0.001154609490185976,0.003000000026077032,44032.0,0.0,48780.0,0.0,0.194979727268219,-0.01478627324104309,0.22531099617481232,-0.012684211134910583,0.0,0.0,0.0,0.0,44752.0,0.0,48145.0,0.0,0.39448612928390503,-0.07527074716035219,-0.019454891579358768,0.0675806707100997,-0.024830324575304985,0.010358822531998158,0.032273124903440475
243,5,-0.0007671018829569221,0.00013150623999536037,0.00032317990553565323,0.0008360208594240248,-0.013616746291518211,-0.011752864345908165,-0.028475111350417137,0.03088124468922615,0.07840795814990997,-0.06719023734331131,0.05799036845564842,0.024248190224170685,0.0,0.0,0.0,0.01141715981066227,-0.0010780588490888476,-0.0,0.0,0.0,0.0,0.0013318969868123531,-0.001154609490185976,0.003000000026077032,44032.0,0.0,48780.0,0.0,0.194979727268219,-0.01478627324104309,0.22531099617481232,-0.012684211134910583,0.0,0.0,0.0,0.0,44752.0,0.0,48145.0,0.0,0.39450523257255554,-0.07300987357405468,-0.017860167098177386,0.06750846562483975,0.004923280794173479,0.052130188792943954,0.05160599574446678
248,5,-0.0007335110567510128,0.0002564899332355708,0.0004548141441773623,0.004953518509864807,-0.021582741290330887,-0.021954651921987534,-0.029180971905589104,0.03032338246703148,0.07857371866703033,-0.08419226109981537,0.06506334990262985,0.02916082926094532,0.0,0.0,0.0,0.01809561625123024,0.002303407061845064,-0.0,0.0,0.0,0.0,0.0014988441253080964,-0.0010033950675278902,0.003000000026077032,44671.0,0.0,48222.0,0.0,0.19895806908607483,-0.015149049460887909,0.2216532826423645,-0.012000791728496552,0.0,0.0,0.0,0.0,44616.0,0.0,48275.0,0.0,0.39473482966423035,-0.06902314664134551,-0.013898320398733335,0.06405618421338748,-0.01052182074636221,0.08266875147819519,0.08557789027690887
253,5,-0.0007338999421335757,0.0002459713723510504,0.00034308581962250173,0.0014316102024167776,-0.005002221558243036,0.009055569767951965,-0.029180971905589104,0.03032338246703148,0.07857371866703033,-0.08419226109981537,0.06506334990262985,0.02916082926094532,0.0,0.0,0.0,0.0044774990528821945,-0.0005969639751128852,-0.0,0.0,0.0,0.0,0.0014988441253080964,-0.0010033950675278902,0.003000000026077032,44671.0,0.0,48222.0,0.0,0.19895806908607483,-0.015149049460887909,0.2216532826423645,-0.012000791728496552,0.0,0.0,0.0,0.0,44616.0,0.0,48275.0,0.0,0.3946731686592102,-0.07008284524949472,-0.01750200893185551,0.06627593936985823,0.0027268899139016867,0.020453043282032013,-0.008724956773221493
258,5,-0.0006539299502037466,0.00012491423694882542,0.00020309460524003953,0.011625288054347038,0.015447329729795456,0.022315440699458122,-0.030448488891124725,0.029361974447965622,0.07873747497797012,-0.10852354019880295,0.08321771770715714,0.002675167517736554,0.0,0.0,0.0,-0.012428326532244682,0.007832251489162445,-0.0,0.0,0.0,0.0,0.0018039630958810449,-0.001269055064767599,0.003000000026077032,44023.0,0.0,48868.0,0.0,0.1949225664138794,-0.01650046557188034,0.22588804364204407,-0.010450147092342377,0.0,0.0,0.0,0.0,44008.0,0.0,48882.0,0.0,0.39489930868148804,-0.07222275440397775,-0.019410776601168512,0.06747511519505658,-0.03579393029212952,-0.05680318549275398,-0.04979152977466583
263,5,-0.0006597118335776031,0.00015145206998568028,0.00022216861543711275,0.0026781163178384304,0.0009189035627059639,0.004024270456284285,-0.030448488891124725,0.029361974447965622,0.07873747497797012,-0.10852354019880295,0.08321771770715714,0.002675167517736554,0.0,0.0,0.0,-0.0004748019855469465,0.0004625803849194199,-0.0,0.0,0.0,0.0,0.0018039630958810449,-0.001269055064767599,0.003000000026077032,44023.0,0.0,48868.0,0.0,0.1949225664138794,-0.01650046557188034,0.22588804364204407,-0.010450147092342377,0.0,0.0,0.0,0.0,44008.0,0.0,48882.0,0.0,0.3948568105697632,-0.07132710013269367,-0.019692480026687324,0.06746118193536622,-0.002113049617037177,-0.002169666113331914,0.005887412000447512
268,5,-0.0006537250592373312,0.00016655877698212862,0.0002271719422424212,0.0016415840946137905,-0.0018392687197774649,0.0005068150348961353,-0.03134211152791977,0.028875522315502167,0.07880774885416031,-0.08585258573293686,0.06610894948244095,0.0321248359978199,0.0,0.0,0.0,0.0018093124963343143,-0.0004018796025775373,-0.0,0.0,0.0,0.0,0.0014094292419031262,-0.0010912433499470353,0.003000000026077032,44137.0,0.0,48821.0,0.0,0.19563540816307068,-0.015193760395050049,0.2255817949771881,-0.011350244283676147,0.0,0.0,0.0,0.0,43662.0,0.0,49254.0,0.0,0.3949378728866577,-0.07064522948436007,-0.01866985176625318,0.06755508330232698,0.0018379853572696447,0.008270686492323875,0.01704297959804535
273,5,-0.0006715820636600256,0.000183770403964445,0.0002515341329853982,-0.002007506089285016,-0.002961407182738185,-0.0032586599700152874,-0.03134211152791977,0.028875522315502167,0.07880774885416031,-0.08585258573293686,0.06610894948244095,0.0321248359978199,0.0,0.0,0.0,0.0027549632359296083,-0.0034393812529742718,-0.0,0.0,0.0,0.0,0.0014094292419031262,-0.0010912433499470353,0.003000000026077032,44137.0,0.0,48821.0,0.0,0.19563540816307068,-0.015193760395050049,0.2255817949771881,-0.011350244283676147,0.0,0.0,0.0,0.0,43662.0,0.0,49254.0,0.0,0.3949410319328308,-0.07024369595463503,-0.017248596681532058,0.06658656365376507,0.015722593292593956,0.012593408115208149,0.029356341809034348
278,5,-0.0006253216415643692,0.0001579380768816918,0.00023936756770126522,0.0058742123655974865,0.0027281034272164106,0.0007257206016220152,-0.03191866725683212,0.027826298028230667,0.0791870504617691,0.0003884352627210319,0.09602256864309311,0.031271446496248245,0.0,0.0,0.0,-0.0019337760750204325,0.003055812092497945,-0.0,0.0,0.0,0.0,0.001112581929191947,-0.0007981402450241148,0.003000000026077032,44710.0,0.0,48291.0,0.0,0.19920358061790466,-0.015315540134906769,0.22210544347763062,-0.011136658489704132,0.0,0.0,0.0,0.0,44373.0,0.0,48599.0,0.0,0.39537423849105835,-0.06883592338976804,-0.01691378186618981,0.06716446168698668,-0.01398362498730421,-0.0088491290807724,0.017729755491018295
283,5,-0.0006785967852920294,0.00020554900402203202,0.00026176110259257257,-0.0056962622329592705,-0.005847098305821419,-0.0029173805378377438,-0.03191866725683212,0.027826298028230667,0.0791870504617691,0.0003884352627210319,0.09602256864309311,0.031271446496248245,0.0,0.0,0.0,0.005150600802153349,-0.006505019497126341,-0.0,0.0,0.0,0.0,0.001112581929191947,-0.0007981402450241148,0.003000000026077032,44710.0,0.0,48291.0,0.0,0.19920358061790466,-0.015315540134906769,0.22210544347763062,-0.011136658489704132,0.0,0.0,0.0,0.0,44373.0,0.0,48599.0,0.0,0.3953852653503418,-0.06995574412628583,-0.016710455490276842,0.06634629918706572,0.029767785221338272,0.023570168763399124,0.029605908319354057
288,5,-0.0007121935486793518,0.0003195597673766315,0.00032279413426294923,-0.006412426009774208,-0.017715638503432274,-0.009419837966561317,-0.031679667532444,0.02676396444439888,0.0793251246213913,0.03364935144782066,0.135245680809021,0.015646204352378845,0.0,0.0,0.0,0.01500018686056137,-0.007146221119910479,-0.0,0.0,0.0,0.0,0.0013064865488559008,-0.0007620626711286604,0.003000000026077032,44463.0,0.0,48534.0,0.0,0.1976589560508728,-0.016416527330875397,0.2236921787261963,-0.009993545711040497,0.0,0.0,0.0,0.0,44812.0,0.0,48194.0,0.0,0.3955844044685364,-0.0598228731375134,-0.005848263430882247,0.0648598289826778,0.03271624818444252,0.06867660582065582,0.050643473863601685
293,5,-0.0006806522724218667,0.00024268189736176282,0.00029811132117174566,0.00249205669388175,0.005448212847113609,0.0006296423962339759,-0.031679667532444,0.02676396444439888,0.0793251246213913,0.03364935144782066,0.135245680809021,0.015646204352378845,0.0,0.0,0.0,-0.004047543741762638,0.00016103846428450197,-0.0,0.0,0.0,0.0,0.0013064865488559008,-0.0007620626711286604,0.003000000026077032,44463.0,0.0,48534.0,0.0,0.1976589560508728,-0.016416527330875397,0.2236921787261963,-0.009993545711040497,0.0,0.0,0.0,0.0,44812.0,0.0,48194.0,0.0,0.3955330550670624,-0.06918584400243374,-0.01385641259950115,0.06517242284299311,-0.0007372165564447641,-0.018529316410422325,0.020849842578172684
299,5,-0.0006570873665623367,0.00034544101799838245,0.00036843662383034825,0.004046703688800335,-0.012751813046634197,-0.009656648151576519,-0.032054077833890915,0.024172214791178703,0.07927802205085754,-0.10138604044914246,0.06521490961313248,-0.032526254653930664,0.0,0.0,0.0,0.01098067220300436,0.001439145766198635,-0.0,0.0,0.0,0.0,0.0015873025404289365,-0.0012234057066962123,0.003000000026077032,43718.0,0.0,49269.0,0.0,0.19303810596466064,-0.01505153626203537,0.22853514552116394,-0.011136405169963837,0.0,0.0,0.0,0.0,44338.0,0.0,48652.0,0.0,0.3955000936985016,-0.06626544971763851,-0.013420673520326967,0.06441182963303983,-0.006587271578609943,0.05027091130614281,0.0534948855638504
304,5,-0.0006371569470502436,0.00040234086918644607,0.00035534310154616833,0.004004267044365406,-0.011791521683335304,-0.0010639008833095431,-0.032054077833890915,0.024172214791178703,0.07927802205085754,-0.10138604044914246,0.06521490961313248,-0.032526254653930664,0.0,0.0,0.0,0.010270006023347378,0.0014038932276889682,-0.0,0.0,0.0,0.0,0.0015873025404289365,-0.0012234057066962123,0.003000000026077032,43718.0,0.0,49269.0,0.0,0.19303810596466064,-0.01505153626203537,0.22853514552116394,-0.011136405169963837,0.0,0.0,0.0,0.0,44338.0,0.0,48652.0,0.0,0.39549708366394043,-0.06400336150771996,-0.013917283347476368,0.06393547123815199,-0.0064259981736540794,0.04701025411486626,0.028470318764448166
309,5,-0.0006109238602221012,0.0004789631348103285,0.0003736123035196215,0.004873914178460836,-0.014264574274420738,-0.002876860788092017,-0.032054077833890915,0.024172214791178703,0.07927802205085754,-0.10138604044914246,0.06521490961313248,-0.032526254653930664,0.0,0.0,0.0,0.012388650327920914,0.002130629261955619,-0.0,0.0,0.0,0.0,0.0015873025404289365,-0.0012234057066962123,0.003000000026077032,43718.0,0.0,49269.0,0.0,0.19303810596466064,-0.01505153626203537,0.22853514552116394,-0.011136405169963837,0.0,0.0,0.0,0.0,44338.0,0.0,48652.0,0.0,0.3955070972442627,-0.061689603071550504,-0.01253134769780168,0.062179569192255424,-0.009751556441187859,0.056709904223680496,0.03480645641684532
314,5,-0.0006332775228656828,0.000628417416010052,0.0003902381577063352,-0.0016673371428623796,-0.025202970951795578,-0.0031906762160360813,-0.03347643464803696,0.023707572370767593,0.07877718657255173,-0.11864957213401794,0.024535778909921646,-0.04242819920182228,0.0,0.0,0.0,0.021561378613114357,-0.0032809805124998093,-0.0,0.0,0.0,0.0,0.0019476283341646194,-0.0012817856622859836,0.003000000026077032,43389.0,0.0,49587.0,0.0,0.19101077318191528,-0.01691945642232895,0.23064684867858887,-0.009184114634990692,0.0,0.0,0.0,0.0,43561.0,0.0,49415.0,0.0,0.39499613642692566,-0.048003036647059655,-0.003936771889764788,0.061987965376712716,0.01499619334936142,0.09856483340263367,0.037082649767398834
319,5,-0.0006096651195548475,0.0006334231584332883,0.0004948144778609276,0.0028055354487150908,-0.008261698298156261,-0.01559788454324007,-0.03347643464803696,0.023707572370767593,0.07877718657255173,-0.11864957213401794,0.024535778909921646,-0.04242819920182228,0.0,0.0,0.0,0.007685666438192129,0.00039956378168426454,-0.0,0.0,0.0,0.0,0.0019476283341646194,-0.0012817856622859836,0.003000000026077032,43389.0,0.0,49587.0,0.0,0.19101077318191528,-0.01691945642232895,0.23064684867858887,-0.009184114634990692,0.0,0.0,0.0,0.0,43561.0,0.0,49415.0,0.0,0.3949138820171356,-0.056505898883698225,-0.010762031656797013,0.059584340856170516,-0.0018253426533192396,0.035129960626363754,0.07663407921791077
324,5,-0.0006189116393215954,0.000559369451366365,0.00042294495506212115,-0.0004528544668573886,0.007889008149504662,0.005382363684475422,-0.034289274364709854,0.02355685457587242,0.07839898020029068,-0.08136340230703354,0.010415841825306416,-0.05845075100660324,0.0,0.0,0.0,-0.005624203011393547,-0.0023145978339016438,-0.0,0.0,0.0,0.0,0.0019099978962913156,-0.0014030802994966507,0.003000000026077032,43297.0,0.0,49669.0,0.0,0.19044625759124756,-0.01641193777322769,0.23118790984153748,-0.009715117514133453,0.0,0.0,0.0,0.0,43381.0,0.0,49590.0,0.0,0.3944762945175171,-0.05914225322085862,-0.012708621102964284,0.061139271539516496,0.010568506084382534,-0.02567743882536888,0.014266286045312881
329,5,-0.0006204977980814874,0.0006468764040619135,0.0005266779917292297,-0.0003579171607270837,-0.009884272702038288,-0.012907917611300945,-0.034289274364709854,0.02355685457587242,0.07839898020029068,-0.08136340230703354,0.010415841825306416,-0.05845075100660324,0.0,0.0,0.0,0.009080948308110237,-0.0022511696442961693,-0.0,0.0,0.0,0.0,0.0019099978962913156,-0.0014030802994966507,0.003000000026077032,43297.0,0.0,49669.0,0.0,0.19044625759124756,-0.01641193777322769,0.23118790984153748,-0.009715117514133453,0.0,0.0,0.0,0.0,43381.0,0.0,49590.0,0.0,0.39448627829551697,-0.05495340383224115,-0.010095000015374217,0.05925144127886855,0.010277987457811832,0.04146231338381767,0.07135646790266037
334,5,-0.0006278346409089863,0.0006881916197016835,0.00047246034955605865,-0.0011345315724611282,-0.008749405853450298,0.0037180958315730095,-0.034543316811323166,0.023267721757292747,0.07781121879816055,0.008996383287012577,0.02430863492190838,-0.03878980129957199,0.0,0.0,0.0,0.00822688452899456,-0.0029198015108704567,-0.0,0.0,0.0,0.0,0.0017697304720059037,-0.0013786210911348462,0.003000000026077032,43540.0,0.0,49444.0,0.0,0.1919395923614502,-0.015515998005867004,0.22969456017017365,-0.01061105728149414,0.0,0.0,0.0,0.0,43653.0,0.0,49293.0,0.0,0.39381080865859985,-0.0572005889638722,-0.010511756435865216,0.05758411014684043,0.013308914378285408,0.03749871253967285,0.021819790825247765
339,5,-0.0007626776350662112,0.0007460157503373921,0.0005073252832517028,-0.019218379631638527,-0.010720203630626202,-0.003765658475458622,-0.034543316811323166,0.023267721757292747,0.07781121879816055,0.008996383287012577,0.02430863492190838,-0.03878980129957199,0.0,0.0,0.0,0.009932358749210835,-0.01796487718820572,-0.0,0.0,0.0,0.0,0.0017697304720059037,-0.0013786210911348462,0.003000000026077032,43540.0,0.0,49444.0,0.0,0.1919395923614502,-0.015515998005867004,0.22969456017017365,-0.01061105728149414,0.0,0.0,0.0,0.0,43653.0,0.0,49293.0,0.0,0.3938787877559662,-0.04770523848547661,-0.003927333107430377,0.059395699062857646,0.08189065754413605,0.045279838144779205,0.04595504328608513
344,5,-0.0006604664376936853,0.0006412900402210653,0.0005021645920351148,0.008544054813683033,0.011445535346865654,-0.0004072037700098008,-0.03429749980568886,0.02311490848660469,0.07748003304004669,0.05332398787140846,0.03194394335150719,-0.04519283398985863,0.0,0.0,0.0,-0.008404004387557507,0.004969937261193991,-0.0,0.0,0.0,0.0,0.0014969160547479987,-0.0014280043542385101,0.003000000026077032,43729.0,0.0,49223.0,0.0,0.1931082308292389,-0.013786561787128448,0.2282293140888214,-0.01263708621263504,0.0,0.0,0.0,0.0,43621.0,0.0,49291.0,0.0,0.39343520998954773,-0.05591446066050472,-0.010520498228527665,0.05852800019528551,-0.02263045497238636,-0.038268428295850754,0.03690531104803085
349,5,-0.0006833086954429746,0.0006457401905208826,0.0005574896349571645,-0.0006347039015963674,0.0028106451500207186,-0.007867664098739624,-0.03429749980568886,0.02311490848660469,0.07748003304004669,0.05332398787140846,0.03194394335150719,-0.04519283398985863,0.0,0.0,0.0,-0.0012676144251599908,-0.0026354279834777117,-0.0,0.0,0.0,0.0,0.0014969160547479987,-0.0014280043542385101,0.003000000026077032,43729.0,0.0,49223.0,0.0,0.1931082308292389,-0.013786561787128448,0.2282293140888214,-0.01263708621263504,0.0,0.0,0.0,0.0,43621.0,0.0,49291.0,0.0,0.3934181332588196,-0.05427539671647007,-0.009588510075041837,0.05858624124136192,0.012001292780041695,-0.00577104976400733,0.061351023614406586
354,5,-0.0006399007397703826,0.0006806405144743621,0.00045708584366366267,0.005886705592274666,-0.004042849875986576,0.011696229688823223,-0.03366599231958389,0.022795524448156357,0.07708056271076202,0.05052923411130905,0.030856097117066383,-0.017062652856111526,0.0,0.0,0.0,0.004441910423338413,0.0027634159196168184,-0.0,0.0,0.0,0.0,0.0015082829631865025,-0.0014483460690826178,0.003000000026077032,43622.0,0.0,49290.0,0.0,0.19244542717933655,-0.013642430305480957,0.22867833077907562,-0.012995019555091858,0.0,0.0,0.0,0.0,43097.0,0.0,49731.0,0.0,0.39296430349349976,-0.053188981886144494,-0.008558560153549612,0.05949915375628454,-0.012568422593176365,0.020202619954943657,0.0025258036330342293
359,5,-0.0007089290884323418,0.0006564421346411109,0.0005659738671965897,-0.007897958159446716,0.0021749185398221016,-0.011735454201698303,-0.03366599231958389,0.022795524448156357,0.07708056271076202,0.05052923411130905,0.030856097117066383,-0.017062652856111526,0.0,0.0,0.0,-0.0006886304472573102,-0.00869933981448412,-0.0,0.0,0.0,0.0,0.0015082829631865025,-0.0014483460690826178,0.003000000026077032,43622.0,0.0,49290.0,0.0,0.19244542717933655,-0.013642430305480957,0.22867833077907562,-0.012995019555091858,0.0,0.0,0.0,0.0,43097.0,0.0,49731.0,0.0,0.3929738700389862,-0.054081692086175887,-0.009201892922062905,0.058527859010463215,0.03956783935427666,-0.003131119068711996,0.0756388008594513
364,5,-0.0007133545586839318,0.0007093613967299461,0.0005779452621936798,-0.002988955471664667,-0.006756227929145098,-0.0051966337487101555,-0.03325549513101578,0.02238825336098671,0.07702101022005081,0.058724697679281235,0.05332190543413162,0.012939433567225933,0.0,0.0,0.0,0.006757778115570545,-0.004682701081037521,-0.0,0.0,0.0,0.0,0.001550063374452293,-0.001853453228250146,0.003000000026077032,43158.0,0.0,49674.0,0.0,0.18959805369377136,-0.011515609920024872,0.231222003698349,-0.015425540506839752,0.0,0.0,0.0,0.0,44068.0,0.0,48791.0,0.0,0.39290398359298706,-0.05414928019445184,-0.009766391090097188,0.05852493661125621,0.021295087411999702,0.03073182702064514,0.057720378041267395
369,5,-0.0006891184020787477,0.0006613675504922867,0.0004682322032749653,0.0024963803589344025,0.004692273214459419,0.013800839893519878,-0.03325549513101578,0.02238825336098671,0.07702101022005081,0.058724697679281235,0.05332190543413162,0.012939433567225933,0.0,0.0,0.0,-0.0027084604371339083,-0.0001603607670404017,-0.0,0.0,0.0,0.0,0.001550063374452293,-0.001853453228250146,0.003000000026077032,43158.0,0.0,49674.0,0.0,0.18959805369377136,-0.011515609920024872,0.231222003698349,-0.015425540506839752,0.0,0.0,0.0,0.0,44068.0,0.0,48791.0,0.0,0.39289215207099915,-0.05901975674750699,-0.012484813725298279,0.05757241936364101,0.0007302496233023703,-0.012315344996750355,0.0007275929092429578
375,6,-0.0007123356917873025,0.0006806140881963074,0.0005903245764784515,-0.002501510316506028,-0.0012868341291323304,-0.012952682562172413,-0.032304827123880386,0.021606983616948128,0.07708129286766052,0.09711131453514099,0.08255839347839355,-0.004402574151754379,0.0,0.0,0.0,0.0022675697691738605,-0.004332288634032011,-0.0,0.0,0.0,0.0,0.0010716216638684273,-0.0012005468597635627,0.003000000026077032,44275.0,0.0,48596.0,0.0,0.19649147987365723,-0.012793436646461487,0.22409820556640625,-0.014378085732460022,0.0,0.0,0.0,0.0,44102.0,0.0,48726.0,0.0,0.3929644525051117,-0.05373750696799236,-0.009445016322227582,0.058035036148163986,0.019705068320035934,0.010314371436834335,0.08420690149068832
380,5,-0.0008527574827894568,0.0007263598963618279,0.0006356964586302638,-0.02040950208902359,-0.006790462415665388,-0.01023787073791027,-0.032304827123880386,0.021606983616948128,0.07708129286766052,0.09711131453514099,0.08255839347839355,-0.004402574151754379,0.0,0.0,0.0,0.006878267973661423,-0.019275525584816933,-0.0,0.0,0.0,0.0,0.0010716216638684273,-0.0012005468597635627,0.003000000026077032,44275.0,0.0,48596.0,0.0,0.19649147987365723,-0.012793436646461487,0.22409820556640625,-0.014378085732460022,0.0,0.0,0.0,0.0,44102.0,0.0,48726.0,0.0,0.39304205775260925,-0.046674022919996526,-0.003085814054746661,0.05853631504570285,0.08768002688884735,0.03129075467586517,0.07832327485084534
385,5,-0.0007468629628419876,0.0006192605360411108,0.000628356821835041,0.008702377788722515,0.012956774793565273,-0.0020438048522919416,-0.03134641796350479,0.020900437608361244,0.07711897790431976,0.13972167670726776,0.09863608330488205,0.01136840134859085,0.0,0.0,0.0,-0.00949789211153984,0.004816767293959856,-0.0,0.0,0.0,0.0,0.0008915014914236963,-0.001082227099686861,0.003000000026077032,44267.0,0.0,48569.0,0.0,0.19644112884998322,-0.011733055114746094,0.22392643988132477,-0.015660583972930908,0.0,0.0,0.0,0.0,44359.0,0.0,48482.0,0.0,0.3930251896381378,-0.05234724703602936,-0.008656462190806073,0.059699481972105506,-0.02190881408751011,-0.043203409761190414,0.055026762187480927
390,5,-0.0007492277072742581,0.0006567503442056477,0.0006313356570899487,0.0022796541452407837,-0.001361540169455111,-0.0010301806032657623,-0.03134641796350479,0.020900437608361244,0.07711897790431976,0.13972167670726776,0.09863608330488205,0.01136840134859085,0.0,0.0,0.0,0.0023745622020214796,-0.0005131252692081034,-0.0,0.0,0.0,0.0,0.0008915014914236963,-0.001082227099686861,0.003000000026077032,44267.0,0.0,48569.0,0.0,0.19644112884998322,-0.011733055114746094,0.22392643988132477,-0.015660583972930908,0.0,0.0,0.0,0.0,44359.0,0.0,48482.0,0.0,0.39300405979156494,-0.051612256308241886,-0.007760257087094968,0.05842829817608416,0.0023351486306637526,0.010802047327160835,0.05409194156527519
395,5,-0.0008657969301566482,0.0008147397893480957,0.0006514266133308411,-0.015635795891284943,-0.02252698689699173,-0.003121792571619153,-0.02984730899333954,0.01978474296629429,0.07728493213653564,0.10517718642950058,0.07559666782617569,0.011550219729542732,0.0,0.0,0.0,0.019996944814920425,-0.015418598428368568,-0.0,0.0,0.0,0.0,0.0013476406456902623,-0.0020037395879626274,0.003000000026077032,44496.0,0.0,48346.0,0.0,0.1978645622730255,-0.012523286044597626,0.22246211767196655,-0.014911256730556488,0.0,0.0,0.0,0.0,44362.0,0.0,48474.0,0.0,0.39331838488578796,-0.04061465587696371,-0.00043880884494162524,0.059006670761097786,0.07017450779676437,0.0910271629691124,0.06169556826353073
401,5,-0.0007699125562794507,0.0006607696413993835,0.0006075190030969679,0.008733072318136692,0.014797723852097988,0.005210528150200844,-0.02984730899333954,0.01978474296629429,0.07728493213653564,0.10517718642950058,0.07559666782617569,0.011550219729542732,0.0,0.0,0.0,-0.010895799845457077,0.00473698228597641,-0.0,0.0,0.0,0.0,0.0013476406456902623,-0.0020037395879626274,0.003000000026077032,44496.0,0.0,48346.0,0.0,0.1978645622730255,-0.012523286044597626,0.22246211767196655,-0.014911256730556488,0.0,0.0,0.0,0.0,44362.0,0.0,48474.0,0.0,0.3932207524776459,-0.05220368145316271,-0.008481480868926406,0.05873528761587286,-0.021557433530688286,-0.049587611109018326,0.03768154978752136
406,5,-0.0007101023802533746,0.0005318227922543883,0.00042005471186712384,0.010993347503244877,0.022491877898573875,0.027808159589767456,-0.02937440015375614,0.019484052434563637,0.07724985480308533,0.042295679450035095,0.025901516899466515,-0.011191880330443382,0.0,0.0,0.0,-0.017354875802993774,0.0066389902494847775,-0.0,0.0,0.0,0.0,0.0011081743286922574,-0.001522756414487958,0.003000000026077032,43186.0,0.0,49586.0,0.0,0.18976561725139618,-0.009679138660430908,0.2306361049413681,-0.017680346965789795,0.0,0.0,0.0,0.0,43107.0,0.0,49658.0,0.0,0.3932206928730011,-0.0573784556867743,-0.011951344747343518,0.06077329209655781,-0.03021037019789219,-0.0789809450507164,-0.031327441334724426
411,5,-0.0007197037921287119,0.0006602381472475827,0.00038168218452483416,0.0019538088236004114,-0.011230585165321827,0.013714604079723358,-0.02937440015375614,0.019484052434563637,0.07724985480308533,0.042295679450035095,0.025901516899466515,-0.011191880330443382,0.0,0.0,0.0,0.010591144673526287,-0.0008430163725279272,-0.0,0.0,0.0,0.0,0.0011081743286922574,-0.001522756414487958,0.003000000026077032,43186.0,0.0,49586.0,0.0,0.18976561725139618,-0.009679138660430908,0.2306361049413681,-0.017680346965789795,0.0,0.0,0.0,0.0,43107.0,0.0,49658.0,0.0,0.39317500591278076,-0.0497118195913348,-0.006402897564025436,0.060704290271891385,0.00383712537586689,0.048196543008089066,0.011373347602784634
416,5,-0.000736846006475389,0.0005449159070849419,0.0005272383568808436,-0.001813771901652217,0.012775935232639313,-0.016263486817479134,-0.02937440015375614,0.019484052434563637,0.07724985480308533,0.042295679450035095,0.025901516899466515,-0.011191880330443382,0.0,0.0,0.0,-0.009296431206166744,-0.003991168923676014,-0.0,0.0,0.0,0.0,0.0011081743286922574,-0.001522756414487958,0.003000000026077032,43186.0,0.0,49586.0,0.0,0.18976561725139618,-0.009679138660430908,0.2306361049413681,-0.017680346965789795,0.0,0.0,0.0,0.0,43107.0,0.0,49658.0,0.0,0.393172949552536,-0.053130166578291574,-0.008892759735784607,0.060839363015394506,0.01816253550350666,-0.04230303317308426,0.10448471456766129
421,5,-0.000705231330357492,0.0004826243675779551,0.00047569317393936217,0.0038819212932139635,0.012553596869111061,0.002337284153327346,-0.02847185544669628,0.019396759569644928,0.07685552537441254,0.10742297023534775,0.01347727607935667,-0.04113427549600601,0.0,0.0,0.0,-0.009175965562462807,0.0007161492831073701,-0.0,0.0,0.0,0.0,0.000502477225381881,-0.0013622671831399202,0.003000000026077032,44658.0,0.0,48217.0,0.0,0.1988750547170639,-0.00839252769947052,0.22161585092544556,-0.018877774477005005,0.0,0.0,0.0,0.0,43942.0,0.0,48878.0,0.0,0.39271777868270874,-0.05515597231504083,-0.00976717072659762,0.061120697784483716,-0.003253950271755457,-0.041706621646881104,0.04910482093691826
426,5,-0.0006880853325128555,0.0006598507752642035,0.0004985844134353101,0.0035650196950882673,-0.021045619621872902,-0.00250359158962965,-0.02847185544669628,0.019396759569644928,0.07685552537441254,0.10742297023534775,0.01347727607935667,-0.04113427549600601,0.0,0.0,0.0,0.018754197284579277,0.0004495832254178822,-0.0,0.0,0.0,0.0,0.000502477225381881,-0.0013622671831399202,0.003000000026077032,44658.0,0.0,48217.0,0.0,0.1988750547170639,-0.00839252769947052,0.22161585092544556,-0.018877774477005005,0.0,0.0,0.0,0.0,43942.0,0.0,48878.0,0.0,0.39277026057243347,-0.04586285141515146,-0.0035956047189450533,0.05883810835750637,-0.0020423922687768936,0.08525166660547256,0.06519687175750732
431,5,-0.0007069618441164494,0.0004843866918236017,0.00048366081318818033,-0.0015732086030766368,0.018251284956932068,0.001338226837106049,-0.027417920529842377,0.019343754276633263,0.07645463943481445,0.15396691858768463,0.03633175045251846,-0.04450085759162903,0.0,0.0,0.0,-0.01385315041989088,-0.003836782416328788,-0.0,0.0,0.0,0.0,0.0004599523381330073,-0.0015428569167852402,0.003000000026077032,44490.0,0.0,48373.0,0.0,0.19782647490501404,-0.006956614553928375,0.22264060378074646,-0.020337514579296112,0.0,0.0,0.0,0.0,44899.0,0.0,47985.0,0.0,0.39228251576423645,-0.05345466593467362,-0.009432862597013411,0.06107334600603812,0.017418455332517624,-0.06289554387331009,0.05463095381855965
436,5,-0.0007098215282894671,0.0005867818254046142,0.0005266713560558856,-0.0008723193313926458,-0.00885993055999279,-0.005620003677904606,-0.027417920529842377,0.019343754276633263,0.07645463943481445,0.15396691858768463,0.03633175045251846,-0.04450085759162903,0.0,0.0,0.0,0.008672417141497135,-0.003288802457973361,-0.0,0.0,0.0,0.0,0.0004599523381330073,-0.0015428569167852402,0.003000000026077032,44490.0,0.0,48373.0,0.0,0.19782647490501404,-0.006956614553928375,0.22264060378074646,-0.020337514579296112,0.0,0.0,0.0,0.0,44899.0,0.0,47985.0,0.0,0.3922588527202606,-0.051157751449011926,-0.007614632153915061,0.058527389683007566,0.014931749552488327,0.03937344625592232,0.07762113958597183
441,5,-0.0006726906867697835,0.0005175467813387513,0.0003970097750425339,0.004936627112329006,0.007034928537905216,0.016466617584228516,-0.02437756396830082,0.01860567182302475,0.07572711259126663,0.13010907173156738,0.01732897199690342,-0.012383521534502506,0.0,0.0,0.0,-0.004525788128376007,0.0015332541661337018,-0.0,0.0,0.0,0.0,0.0013924180530011654,-0.0014502706471830606,0.003000000026077032,43679.0,0.0,49107.0,0.0,0.1927994042634964,-0.013394966721534729,0.22746634483337402,-0.014100492000579834,0.0,0.0,0.0,0.0,44521.0,0.0,48344.0,0.0,0.391413152217865,-0.046835053395056885,-0.004678347116759514,0.061652365860204124,-0.006944933906197548,-0.020502081140875816,0.010555381886661053
446,5,-0.0006285497802309692,0.00047663127770647407,0.0003454356046859175,0.007660713046789169,0.007838647812604904,0.012160370126366615,-0.02437756396830082,0.01860567182302475,0.07572711259126663,0.13010907173156738,0.01732897199690342,-0.012383521534502506,0.0,0.0,0.0,-0.005215961020439863,0.0038105195853859186,-0.0,0.0,0.0,0.0,0.0013924180530011654,-0.0014502706471830606,0.003000000026077032,43679.0,0.0,49107.0,0.0,0.1927994042634964,-0.013394966721534729,0.22746634483337402,-0.014100492000579834,0.0,0.0,0.0,0.0,44521.0,0.0,48344.0,0.0,0.39141684770584106,-0.056562265491750675,-0.01245088776966472,0.05979191722148449,-0.017261531203985214,-0.02362898178398609,0.023859307169914246
451,5,-0.0006544095231220126,0.00043712896876968443,0.00037805738975293934,-0.0013221503468230367,0.007881914265453815,-0.0009189396514557302,-0.023096583783626556,0.018512209877371788,0.07561139017343521,0.10982085019350052,0.0085817351937294,-0.01689421758055687,0.0,0.0,0.0,-0.00528474897146225,-0.0036718447227030993,-0.0,0.0,0.0,0.0,0.0011227438226342201,-0.001672584330663085,0.003000000026077032,43695.0,0.0,49054.0,0.0,0.1928974986076355,-0.01045515388250351,0.2271125614643097,-0.01729600876569748,0.0,0.0,0.0,0.0,43570.0,0.0,49209.0,0.0,0.3912842571735382,-0.05372900711234815,-0.011524330322021869,0.06147167869595013,0.016629589721560478,-0.023932555690407753,0.06429129838943481
456,5,-0.0006285809213295579,0.0005248052766546607,0.00036369584267959,0.0032193623483181,-0.009910105727612972,0.0017349353292956948,-0.023096583783626556,0.018512209877371788,0.07561139017343521,0.10982085019350052,0.0085817351937294,-0.01689421758055687,0.0,0.0,0.0,0.009565701708197594,8.799693023320287e-05,-0.0,0.0,0.0,0.0,0.0011227438226342201,-0.001672584330663085,0.003000000026077032,43695.0,0.0,49054.0,0.0,0.1928974986076355,-0.01045515388250351,0.2271125614643097,-0.01729600876569748,0.0,0.0,0.0,0.0,43570.0,0.0,49209.0,0.0,0.39129406213760376,-0.04239196300097388,-0.003468218234210138,0.06287445426219015,-0.0003975652507506311,0.04332191124558449,0.057392220944166183
462,5,-0.0006156837916933,0.00040576470200903714,0.0003324694116599858,0.002771401545032859,0.013692649081349373,0.004892182070761919,-0.02204042859375477,0.018411260098218918,0.07536575943231583,0.13702762126922607,0.02754407934844494,-0.02963082492351532,0.0,0.0,0.0,-0.010107328183948994,-0.0002803502429742366,-0.0,0.0,0.0,0.0,0.0005486817681230605,-0.0013896706514060497,0.003000000026077032,44514.0,0.0,48216.0,0.0,0.1979752779006958,-0.008958108723163605,0.22161373496055603,-0.019214071333408356,0.0,0.0,0.0,0.0,43712.0,0.0,49038.0,0.0,0.39101478457450867,-0.05267738202960915,-0.012013243704114747,0.06260764648088907,0.0012686977861449122,-0.04574128985404968,0.04794229567050934
