timestamp,dt,pos_x,pos_y,pos_z,vel_x,vel_y,vel_z,roll,pitch,yaw,agv_x,agv_y,agv_z,x_ref,y_ref,z_ref,roll_ref,pitch_ref,yaw_ref,x_vel_ref,y_vel_ref,z_vel_ref,x_torque,y_torque,z_torque,w0,w1,w2,w3,u0,u1,u2,u3,m0req,m1req,m2req,m3req,thrust0,thrust1,thrust2,thrust3,thrust_ref,roll_vicon,pitch_vicon,yaw_vicon,acc_x,acc_y,acc_z
5,5,0.0,0.0,0.0,-0.015466483309864998,-0.00373643497005105,-0.022570732980966568,-0.025194410234689713,0.4203341007232666,0.005246307700872421,-0.0035516030620783567,0.004591737408190966,5.465415233629756e-05,0.0,0.0,0.0,0.003570346860215068,-0.014779584482312202,-0.0,0.0,0.0,0.0,0.0010504728415980935,-0.004999999888241291,0.00016318536654580384,0.0,0.0,0.0,0.0,0.0,0.0,0.0,0.0,0.0,0.0,0.0,0.0,0.0,0.0,0.0,0.0,0.3390727937221527,-0.09474047686520004,-0.48612109006285253,-0.0510496213326842,0.05799931287765503,0.014011630788445473,0.06771220266819
27,22,0.0,0.0,0.0,-0.006894363090395927,0.0040031131356954575,-0.015726609155535698,-0.025194410234689713,0.4203341007232666,0.005246307700872421,-0.0035516030620783567,0.004591737408190966,5.465415233629756e-05,0.0,0.0,0.0,-0.0038255031686276197,-0.006588554475456476,-0.0,0.0,0.0,0.0,0.0010504728415980935,-0.004999999888241291,0.00016318536654580384,0.0,0.0,0.0,0.0,0.0,0.0,0.0,0.0,0.0,0.0,0.0,0.0,0.0,0.0,0.0,0.0,0.33904343843460083,-0.09735738928394494,-0.48771989858583187,-0.05258462074004758,0.02585386112332344,-0.015011673793196678,0.047179825603961945
33,5,0.0,0.0,0.0,0.0010665516601875424,-0.0031597979832440615,0.006917597725987434,-0.025207091122865677,0.42032715678215027,0.005258443299680948,-0.0017015794292092323,0.005615695379674435,-0.00040537482709623873,0.0,0.0,0.0,0.0030196737498044968,0.0010192577028647065,-0.0,0.0,0.0,0.0,0.001185279106721282,-0.004999999888241291,0.00016094892635010183,0.0,0.0,0.0,0.0,0.0,0.0,0.0,0.0,0.0,0.0,0.0,0.0,0.0,0.0,0.0,0.0,0.3390353322029114,-0.09508874844840616,-0.4860041024086927,-0.05133427911640362,-0.003999568521976471,0.011849242262542248,-0.020752793177962303
41,9,0.0,0.0,0.0,0.0025742158759385347,-0.0020637453999370337,0.007708221208304167,-0.025226810947060585,0.42032328248023987,0.005255460739135742,-0.002851480385288596,-0.00018106811330653727,0.0013361339224502444,0.0,0.0,0.0,0.001972225261852145,0.0024600636679679155,-0.0,0.0,0.0,0.0,0.0011902032420039177,-0.004999999888241291,0.00015989069652277976,0.0,0.0,0.0,0.0,0.0,0.0,0.0,0.0,0.0,0.0,0.0,0.0,0.0,0.0,0.0,0.0,0.3390352725982666,-0.09482056074728752,-0.4851392154625292,-0.0515100063208591,-0.009653309360146523,0.007739045191556215,-0.023124663159251213
46,5,0.0,0.0,0.0,0.03952677547931671,0.003983391914516687,0.0271048191934824,-0.025226810947060585,0.42032328248023987,0.005255460739135742,-0.002851480385288596,-0.00018106811330653727,0.0013361339224502444,0.0,0.0,0.0,-0.003934497479349375,0.035499971359968185,-0.0,0.0,0.0,0.0,0.0011902032420039177,-0.004999999888241291,0.00015989069652277976,0.0,0.0,0.0,0.0,0.0,0.0,0.0,0.0,0.0,0.0,0.0,0.0,0.0,0.0,0.0,0.0,0.36083027720451355,-0.11716897251383299,-0.5023439465455286,-0.0636448010214945,-0.14822541177272797,-0.014937719330191612,-0.08131445944309235
51,5,1.1737123713828623e-05,4.139704105909914e-05,9.933560249919537e-06,0.01350122969597578,-0.00460056820884347,0.006740747019648552,-0.02526307851076126,0.42032867670059204,0.005329477600753307,0.0023736702278256416,-0.0025607526767998934,0.01458679884672165,0.0,0.0,0.0,0.004899661056697369,0.012918297201395035,-0.0,0.0,0.0,0.0,0.0008740852936170995,-0.004999999888241291,0.00016786172636784613,16653.0,27486.0,32156.0,16072.0,0.05542784556746483,0.10344613343477249,0.1270512044429779,0.0531182698905468,0.0,0.0,0.0,0.0,16945.0,27264.0,32361.0,15774.0,0.3390659689903259,-0.1153395024592665,-0.5015465126580297,-0.06423045785455174,-0.05069423466920853,0.017480062320828438,-0.020072244107723236
56,5,5.0268958148080856e-05,5.251705260889139e-06,-0.00010802075848914683,0.00944482535123825,0.0036801763344556093,0.018535828217864037,-0.02526307851076126,0.42032867670059204,0.005329477600753307,0.0023736702278256416,-0.0025607526767998934,0.01458679884672165,0.0,0.0,0.0,-0.0038578456733375788,0.009098733775317669,-0.0,0.0,0.0,0.0,0.0008740852936170995,-0.004999999888241291,0.00016786172636784613,16653.0,27486.0,32156.0,16072.0,0.05542784556746483,0.10344613343477249,0.1270512044429779,0.0531182698905468,0.0,0.0,0.0,0.0,16945.0,27264.0,32361.0,15774.0,0.33905014395713806,-0.11412678998224983,-0.501764915924848,-0.06268407371481687,-0.035704489797353745,-0.01376260630786419,-0.057464323937892914
61,5,-0.00013333535753190517,0.0004627297748811543,8.301470370497555e-05,-0.02287115529179573,-0.06294287741184235,-0.021184217184782028,-0.025349192321300507,0.42029809951782227,0.0055861216969788074,0.008713766932487488,-0.008109364658594131,-0.004420831333845854,0.0,0.0,0.0,0.055955421179533005,-0.01845625229179859,-0.0,0.0,0.0,0.0,0.0009530576644465327,-0.004999999888241291,-7.883351645432413e-05,16307.0,27107.0,32505.0,16418.0,0.05405072122812271,0.10160449892282486,0.12888877093791962,0.05449134111404419,0.0,0.0,0.0,0.0,15655.0,27610.0,32040.0,17060.0,0.40557414293289185,-0.08838370705538312,-0.48675750557830927,-0.061797531564525554,0.0864960253238678,0.23861725628376007,0.0645693689584732
66,5,7.494051533285528e-05,0.0001468044938519597,0.00013076281175017357,0.022297274321317673,0.025346675887703896,-0.013040000572800636,-0.025349192321300507,0.42029809951782227,0.0055861216969788074,0.008713766932487488,-0.008109364658594131,-0.004420831333845854,0.0,0.0,0.0,-0.025517180562019348,0.020701399073004723,-0.0,0.0,0.0,0.0,0.0009530576644465327,-0.004999999888241291,-7.883351645432413e-05,16307.0,27107.0,32505.0,16418.0,0.05405072122812271,0.10160449892282486,0.12888877093791962,0.05449134111404419,0.0,0.0,0.0,0.0,15655.0,27610.0,32040.0,17060.0,0.3508378565311432,-0.11019682249179068,-0.49963904126269304,-0.06463769624772786,-0.08402721583843231,-0.09418228268623352,0.040968701243400574
72,5,-6.605373346246779e-05,0.0003284462436567992,0.00030850115581415594,-0.013050012290477753,-0.017825843766331673,-0.02879536896944046,-0.025349192321300507,0.42029809951782227,0.0055861216969788074,0.008713766932487488,-0.008109364658594131,-0.004420831333845854,0.0,0.0,0.0,0.019264817237854004,-0.012562653981149197,-0.0,0.0,0.0,0.0,0.0008600992732681334,-0.004999999888241291,0.0001783359912224114,15560.0,30299.0,31559.0,19783.0,0.051106955856084824,0.11745525151491165,0.12393549829721451,0.06833257526159286,0.0,0.0,0.0,0.0,16402.0,29558.0,32277.0,18996.0,0.33912327885627747,-0.09997801338436091,-0.4920859490605729,-0.06237977562236236,0.049298543483018875,0.06873580068349838,0.09123988449573517
77,5,0.00010074236342916265,4.906269896309823e-05,0.00015890636132098734,0.01943645067512989,0.033765941858291626,0.012304660864174366,-0.024958975613117218,0.4204785227775574,0.0043469262309372425,-0.04207348823547363,0.0062029724940657616,-0.12170057743787766,0.0,0.0,0.0,-0.03337609022855759,0.017656324431300163,-0.0,0.0,0.0,0.0,0.0008600992732681334,-0.004999999888241291,0.0001783359912224114,15560.0,30299.0,31559.0,19783.0,0.051106955856084824,0.11745525151491165,0.12393549829721451,0.06833257526159286,0.0,0.0,0.0,0.0,16402.0,29558.0,32277.0,18996.0,0.3595851957798004,-0.11520344295792839,-0.5025226204989236,-0.06345562488973087,-0.07343865931034088,-0.12624727189540863,-0.03394537791609764
82,5,9.787488670554012e-05,0.00014168171037454158,0.00022999144857749343,0.005429488141089678,-0.0028368772473186255,-0.006260512862354517,-0.025207052007317543,0.41985249519348145,0.004409665707498789,0.03778306022286415,0.10004614293575287,0.04652205854654312,0.0,0.0,0.0,0.00323671055957675,0.005331980995833874,-0.0,0.0,0.0,0.0,0.0008600992732681334,-0.004999999888241291,0.0001783359912224114,16925.0,27422.0,32216.0,15796.0,0.05651967227458954,0.10313282907009125,0.12736786901950836,0.0520298108458519,0.0,0.0,0.0,0.0,16402.0,29558.0,32277.0,18996.0,0.33904018998146057,-0.11210892468477943,-0.4996791801905905,-0.0632594581045054,-0.020923038944602013,0.011546638794243336,0.023656001314520836
87,5,9.28006847971119e-05,0.00012472218077164143,0.0002057953824987635,0.0009184579248540103,0.001523270271718502,0.0015092960093170404,-0.025207052007317543,0.41985249519348145,0.004409665707498789,0.03778306022286415,0.10004614293575287,0.04652205854654312,0.0,0.0,0.0,-0.0013694637455046177,0.001016075606457889,-0.0,0.0,0.0,0.0,0.0008600992732681334,-0.004999999888241291,0.0001783359912224114,16925.0,27422.0,32216.0,15796.0,0.05651967227458954,0.10313282907009125,0.12736786901950836,0.0520298108458519,0.0,0.0,0.0,0.0,16402.0,29558.0,32277.0,18996.0,0.3390340805053711,-0.11069271957811859,-0.4971012859432036,-0.06271049702824424,-0.003987082280218601,-0.004885255824774504,0.0003071363898925483
93,7,0.00012172725837444887,-0.00016229835455305874,-0.00037302778218872845,0.012142677791416645,0.08079215884208679,0.06572644412517548,-0.025207052007317543,0.41985249519348145,0.004409665707498789,0.03778306022286415,0.10004614293575287,0.04652205854654312,0.0,0.0,0.0,-0.0675995722413063,0.009371074847877026,-0.0,0.0,0.0,0.0,0.0008600992732681334,-0.004999999888241291,0.0001783359912224114,16925.0,27422.0,32216.0,15796.0,0.05651967227458954,0.10313282907009125,0.12736786901950836,0.0520298108458519,0.0,0.0,0.0,0.0,16402.0,29558.0,32277.0,18996.0,0.4274214804172516,-0.11504224230580043,-0.4972191140819687,-0.05302400030534927,-0.04625222086906433,-0.3037022352218628,-0.20048032701015472
99,5,0.00011214734695386142,-0.00016497184697072953,-0.0004435171140357852,0.0023016154300421476,0.024611936882138252,0.029586438089609146,-0.025207052007317543,0.41985249519348145,0.004409665707498789,0.03778306022286415,0.10004614293575287,0.04652205854654312,0.0,0.0,0.0,-0.02609178237617016,0.002378454664722085,-0.0,0.0,0.0,0.0,0.0017222746973857284,-0.004999999888241291,0.0002887942537199706,16925.0,27422.0,32216.0,15796.0,0.05651967227458954,0.10313282907009125,0.12736786901950836,0.0520298108458519,0.0,0.0,0.0,0.0,17549.0,27180.0,32440.0,15149.0,0.33914998173713684,-0.11529928990252959,-0.4961104263965465,-0.05370178544659555,-0.009333242662250996,-0.09309447556734085,-0.09537746757268906
104,5,0.0001263664453290403,-0.00014288572128862143,-0.00041382198105566204,0.0026811580173671246,0.004291522782295942,0.004718614276498556,-0.025207052007317543,0.41985249519348145,0.004409665707498789,0.03778306022286415,0.10004614293575287,0.04652205854654312,0.0,0.0,0.0,-0.004702090751379728,0.002761669224128127,-0.0,0.0,0.0,0.0,0.0017222746973857284,-0.004999999888241291,0.0002887942537199706,16925.0,27422.0,32216.0,15796.0,0.05651967227458954,0.10313282907009125,0.12736786901950836,0.0520298108458519,0.0,0.0,0.0,0.0,17549.0,27180.0,32440.0,15149.0,0.3390386402606964,-0.11609334784973611,-0.49633950088221584,-0.0545811170722942,-0.010837006382644176,-0.016774022951722145,-0.020452719181776047
109,5,0.0001263664453290403,-0.00014288572128862143,-0.00041382198105566204,0.0026811580173671246,0.004291522782295942,0.004718614276498556,-0.02526676282286644,0.4183174669742584,0.00542449951171875,0.002559836721047759,0.12179837375879288,0.08366749435663223,0.0,0.0,0.0,-0.004709240514785051,0.0027674175798892975,-0.0,0.0,0.0,0.0,0.001187724294140935,-0.004999999888241291,0.00010221557022305205,15199.0,27926.0,31744.0,17500.0,0.04970209300518036,0.1055954322218895,0.12490027397871017,0.05884239822626114,0.0,0.0,0.0,0.0,16051.0,25382.0,34056.0,16684.0,0.3390386700630188,-0.11609334784973611,-0.49633950088221584,-0.0545811170722942,-0.010859373956918716,-0.016799312084913254,-0.021673493087291718
114,5,0.00011372490553185344,-0.00016747757035773247,-0.00033197851735167205,-0.0016557606868445873,0.002050156472250819,-0.007304022554308176,-0.02526676282286644,0.4183174669742584,0.00542449951171875,0.002559836721047759,0.12179837375879288,0.08366749435663223,0.0,0.0,0.0,-0.002398671582341194,-0.001388777163811028,-0.0,0.0,0.0,0.0,0.001187724294140935,-0.004999999888241291,0.00010221557022305205,15199.0,27926.0,31744.0,17500.0,0.04970209300518036,0.1055954322218895,0.12490027397871017,0.05884239822626114,0.0,0.0,0.0,0.0,16051.0,25382.0,34056.0,16684.0,0.33903491497039795,-0.11717241068280405,-0.4969844756320385,-0.05588647874732079,0.005449394695460796,-0.008556989021599293,0.01430397666990757
119,5,8.32115692901425e-05,-0.00021426673629321158,-0.0002691862464416772,-0.004768595099449158,0.007165530696511269,-0.010982123203575611,-0.025172336027026176,0.41625040769577026,0.004674725234508514,-0.03356301411986351,0.11919897794723511,-0.03486425802111626,0.0,0.0,0.0,-0.007857241667807102,-0.004400716628879309,-0.0,0.0,0.0,0.0,0.001244220300577581,-0.004999999888241291,0.00010415329597890377,24679.0,35260.0,32899.0,18425.0,0.09009832888841629,0.1437148153781891,0.13097207248210907,0.0626373365521431,0.0,0.0,0.0,0.0,24567.0,35354.0,32803.0,18550.0,0.3390473425388336,-0.1160620915758842,-0.4955263579168934,-0.05575178487727001,0.017268523573875427,-0.02802967093884945,0.025215812027454376
124,5,-1.714091922622174e-05,-0.0003581299679353833,6.166697130538523e-05,-0.015479926019906998,0.022290512919425964,-0.04961409047245979,-0.025172336027026176,0.41625040769577026,0.004674725234508514,-0.03356301411986351,0.11919897794723511,-0.03486425802111626,0.0,0.0,0.0,-0.023879509419202805,-0.014707130379974842,-0.0,0.0,0.0,0.0,0.001244220300577581,-0.004999999888241291,0.00010415329597890377,24679.0,35260.0,32899.0,18425.0,0.09009832888841629,0.1437148153781891,0.13097207248210907,0.0626373365521431,0.0,0.0,0.0,0.0,24567.0,35354.0,32803.0,18550.0,0.34066957235336304,-0.09557555571515236,-0.4826903398949089,-0.050176155450976354,0.05797065421938896,-0.0855853483080864,0.14514216780662537
129,5,6.852296064607799e-05,-0.00045061923447065055,4.5225962821859866e-05,0.007348965387791395,0.019635651260614395,-0.012582484632730484,-0.025193260982632637,0.41483020782470703,0.004967018496245146,0.05365626513957977,0.16510453820228577,0.07336576282978058,0.0,0.0,0.0,-0.02135595865547657,0.007162613328546286,-0.0,0.0,0.0,0.0,0.000972567533608526,-0.004999999888241291,0.000218186920392327,17099.0,26798.0,32788.0,15616.0,0.057218629866838455,0.10011322796344757,0.13038170337677002,0.05132508650422096,0.0,0.0,0.0,0.0,17280.0,27366.0,32267.0,15429.0,0.3391196131706238,-0.10348344866917458,-0.4862548636203161,-0.054238612102318326,-0.028106678277254105,-0.07619473338127136,0.03395942971110344
134,5,-9.297434007748961e-05,-0.00039226707303896546,0.00017740033217705786,-0.020404933020472527,-0.002278609201312065,-0.022279156371951103,-0.025193260982632637,0.41483020782470703,0.004967018496245146,0.05365626513957977,0.16510453820228577,0.07336576282978058,0.0,0.0,0.0,0.001743040862493217,-0.019581172615289688,-0.0,0.0,0.0,0.0,0.000972567533608526,-0.004999999888241291,0.000218186920392327,17099.0,26798.0,32788.0,15616.0,0.057218629866838455,0.10011322796344757,0.13038170337677002,0.05132508650422096,0.0,0.0,0.0,0.0,17280.0,27366.0,32267.0,15429.0,0.33909910917282104,-0.09086556528395867,-0.47714027584502805,-0.05205994123731774,0.07684648782014847,0.0062185111455619335,0.06519000232219696
139,5,-1.2667606824834365e-05,-0.00040890343370847404,0.00015341736434493214,0.005121462978422642,0.0016455098520964384,-0.003326131496578455,-0.02537001110613346,0.40976792573928833,0.004995104856789112,0.03297020122408867,0.3467022180557251,-0.009711320511996746,0.0,0.0,0.0,-0.0024293307214975357,0.004918730817735195,-0.0,0.0,0.0,0.0,0.0008654743432998657,-0.004999999888241291,0.00010067343100672588,16230.0,27898.0,31770.0,16495.0,0.053743571043014526,0.10545672476291656,0.1250363439321518,0.05479828268289566,0.0,0.0,0.0,0.0,16523.0,27088.0,32523.0,16202.0,0.3390386998653412,-0.09786700648311701,-0.48104119168374443,-0.05563374954533676,-0.019301237538456917,-0.008666817098855972,0.008558040484786034
145,5,-1.9845050701405853e-05,-0.00047127908328548074,0.00031262385891750455,0.0005315965972840786,0.009226242080330849,-0.02328674867749214,-0.02537001110613346,0.40976792573928833,0.004995104856789112,0.03297020122408867,0.3467022180557251,-0.009711320511996746,0.0,0.0,0.0,-0.010517717339098454,0.0005217036232352257,-0.0,0.0,0.0,0.0,0.0008654743432998657,-0.004999999888241291,0.00010067343100672588,16230.0,27898.0,31770.0,16495.0,0.053743571043014526,0.10545672476291656,0.1250363439321518,0.05479828268289566,0.0,0.0,0.0,0.0,16523.0,27088.0,32523.0,16202.0,0.3390524089336395,-0.1044518925357839,-0.48313626807269433,-0.057465319617638407,-0.002047165296971798,-0.03752071410417557,0.07135771214962006
150,5,-7.708693010499701e-05,-0.00043126262607984245,0.0003848884953185916,-0.007854384370148182,-0.0028344308957457542,-0.017103075981140137,-0.025508085265755653,0.40499791502952576,0.004809834994375706,-0.06858499348163605,0.4381789565086365,0.009851115755736828,0.0,0.0,0.0,0.0021961091551929712,-0.0075735244899988174,-0.0,0.0,0.0,0.0,0.00019289995543658733,-0.004999999888241291,0.0001833650894695893,17754.0,28319.0,31531.0,15144.0,0.05987571179866791,0.10752534121274948,0.12378927320241928,0.04948768764734268,0.0,0.0,0.0,0.0,15756.0,27274.0,32357.0,16971.0,0.33904415369033813,-0.10105222731427517,-0.4798272828410427,-0.056771184980855184,0.029719078913331032,0.007834355346858501,0.05491631478071213
155,5,-0.0003935311397071928,-0.00019279100524727255,0.0004093862371519208,-0.04665850102901459,-0.0342363566160202,-0.00856060441583395,-0.025508085265755653,0.40499791502952576,0.004809834994375706,-0.06858499348163605,0.4381789565086365,0.009851115755736828,0.0,0.0,0.0,0.03087804466485977,-0.03919755667448044,-0.0,0.0,0.0,0.0,0.00019289995543658733,-0.004999999888241291,0.0001833650894695893,17754.0,28319.0,31531.0,15144.0,0.05987571179866791,0.10752534121274948,0.12378927320241928,0.04948768764734268,0.0,0.0,0.0,0.0,15756.0,27274.0,32357.0,16971.0,0.39041319489479065,-0.08336878502210845,-0.462809901261397,-0.06014453549042947,0.17699164152145386,0.12681591510772705,0.03096621111035347
160,5,-0.0003658213245216757,-0.00027255757595412433,0.000589601753745228,-0.010118178091943264,0.0008964118314906955,-0.027798356488347054,-0.025466984137892723,0.4006839692592621,0.004844533279538155,0.04837094619870186,0.611322820186615,0.01246645301580429,0.0,0.0,0.0,-0.0015144026838243008,-0.010162044316530228,-0.0,0.0,0.0,0.0,0.0010532463202252984,-0.004999999888241291,0.00017698538431432098,16380.0,27376.0,32263.0,16353.0,0.05434099957346916,0.10291018337011337,0.12761500477790833,0.054232966154813766,0.0,0.0,0.0,0.0,17352.0,27820.0,31845.0,15355.0,0.3390514850616455,-0.08476138354993155,-0.4626360420199368,-0.06149187471043238,0.03987778723239899,-0.0054029785096645355,0.09252653270959854
165,5,-0.0003697155334521085,-0.0005502760177478194,0.0008132659131661057,-0.0035806435626000166,0.039149507880210876,-0.03965248912572861,-0.025466984137892723,0.4006839692592621,0.004844533279538155,0.04837094619870186,0.611322820186615,0.01246645301580429,0.0,0.0,0.0,-0.0395243763923645,-0.0036936025135219097,-0.0,0.0,0.0,0.0,0.0010532463202252984,-0.004999999888241291,0.00017698538431432098,16380.0,27376.0,32263.0,16353.0,0.05434099957346916,0.10291018337011337,0.12761500477790833,0.054232966154813766,0.0,0.0,0.0,0.0,17352.0,27820.0,31845.0,15355.0,0.36186307668685913,-0.10864057850197624,-0.4679471581288294,-0.0637449489477983,0.01545754075050354,-0.15043556690216064,0.13344497978687286
170,5,-0.00020615794346667826,-0.00028202522662468255,0.0007290869252756238,0.02182387001812458,-0.025810260325670242,-0.00011068395542679355,-0.025872111320495605,0.3916606605052948,0.0047177220694720745,-0.08161542564630508,0.8366484642028809,-0.000996923423372209,0.0,0.0,0.0,0.02567957155406475,0.01991782709956169,-0.0,0.0,0.0,0.0,0.0008032122277654707,-0.004999999888241291,0.00012426884495653212,16344.0,27843.0,31824.0,16383.0,0.054197557270526886,0.10518573224544525,0.12531611323356628,0.05435307323932648,0.0,0.0,0.0,0.0,16232.0,27905.0,31765.0,16496.0,0.34997713565826416,-0.08937475249833954,-0.4660434185134425,-0.06194121941430742,-0.08064813166856766,0.0945485308766365,0.0158073827624321
175,5,-0.0002729007392190397,2.2552561858901754e-05,0.00015303264081012458,-0.002796831075102091,-0.05038397014141083,0.08061439543962479,-0.025872111320495605,0.3916606605052948,0.0047177220694720745,-0.08161542564630508,0.8366484642028809,-0.000996923423372209,0.0,0.0,0.0,0.04736124724149704,-0.0027635942678898573,-0.0,0.0,0.0,0.0,0.0008032122277654707,-0.004999999888241291,0.00012426884495653212,16344.0,27843.0,31824.0,16383.0,0.054197557270526886,0.10518573224544525,0.12531611323356628,0.05435307323932648,0.0,0.0,0.0,0.0,16232.0,27905.0,31765.0,16496.0,0.3781110644340515,-0.07630171952179036,-0.43870079487212144,-0.05356358815854079,0.012080700136721134,0.1883290410041809,-0.23301808536052704
180,5,-0.00040386294131167233,-0.0003588733961805701,0.00036168910446576774,-0.01917375810444355,0.03828444331884384,-0.005027586128562689,-0.025872111320495605,0.3916606605052948,0.0047177220694720745,-0.08161542564630508,0.8366484642028809,-0.000996923423372209,0.0,0.0,0.0,-0.03784612938761711,-0.01747523434460163,-0.0,0.0,0.0,0.0,0.0008032122277654707,-0.004999999888241291,0.00012426884495653212,16344.0,27843.0,31824.0,16383.0,0.054197557270526886,0.10518573224544525,0.12531611323356628,0.05435307323932648,0.0,0.0,0.0,0.0,16232.0,27905.0,31765.0,16496.0,0.3674411475658417,-0.11704622336875707,-0.44200039485145476,-0.05237048779959842,0.07426152378320694,-0.14627264440059662,0.027484286576509476
185,5,-0.00031386627233587205,0.00017821941582951695,0.00048537360271438956,0.006847405806183815,-0.06370765715837479,-0.018824107944965363,-0.025747768580913544,0.383665531873703,0.004165429621934891,-0.032035015523433685,1.0982561111450195,-0.05464896187186241,0.0,0.0,0.0,0.05685679242014885,0.005137463100254536,-0.0,0.0,0.0,0.0,-0.0003093016566708684,-0.002918911399319768,5.125698953634128e-05,16478.0,29131.0,35427.0,22351.0,0.0547277107834816,0.11155914515256882,0.14462889730930328,0.07950911670923233,0.0,0.0,0.0,0.0,16130.0,29299.0,35273.0,22660.0,0.3999484181404114,-0.07888438221015562,-0.43177037654342393,-0.05259503233167971,-0.023742951452732086,0.23909172415733337,0.0717872902750969
190,5,-0.00030975815025158226,0.00013460501213558018,0.0005678673041984439,0.0026293599512428045,-0.013006281107664108,-0.017196353524923325,-0.025747768580913544,0.383665531873703,0.004165429621934891,-0.032035015523433685,1.0982561111450195,-0.05464896187186241,0.0,0.0,0.0,0.013665740378201008,0.0020117750391364098,-0.0,0.0,0.0,0.0,-0.0003093016566708684,-0.002918911399319768,5.125698953634128e-05,16478.0,29131.0,35427.0,22351.0,0.0547277107834816,0.11155914515256882,0.14462889730930328,0.07950911670923233,0.0,0.0,0.0,0.0,16130.0,29299.0,35273.0,22660.0,0.33906593918800354,-0.08277820457762308,-0.4234332363302558,-0.053757343023428994,-0.007894216105341911,0.04875202849507332,0.06952887773513794
195,5,-0.00035880383802577853,0.00022455600264947861,0.0006623388035222888,-0.006077589467167854,-0.016495024785399437,-0.018384909257292747,-0.02603394351899624,0.3677908480167389,0.003247817512601614,-0.05495448783040047,1.5014793872833252,-0.026416808366775513,0.0,0.0,0.0,0.017478888854384422,-0.006394411437213421,-0.0,0.0,0.0,0.0,-0.0005361182847991586,1.1345261555106845e-05,-8.311755664180964e-05,22448.0,27861.0,27888.0,20472.0,0.07993882149457932,0.10527630895376205,0.1054084524512291,0.07127981632947922,0.0,0.0,0.0,0.0,23223.0,27128.0,26835.0,21667.0,0.33909234404563904,-0.09019201785943358,-0.4164482900330748,-0.055710548149050576,0.025092551484704018,0.06235882267355919,0.07652752101421356
200,5,-0.0008643025066703558,-0.00024925050092861056,0.0010496972827240825,-0.0725930854678154,0.0613844059407711,-0.059745658189058304,-0.02603394351899624,0.3677908480167389,0.003247817512601614,-0.05495448783040047,1.5014793872833252,-0.026416808366775513,0.0,0.0,0.0,-0.049192894250154495,-0.05347171798348427,-0.0,0.0,0.0,0.0,-0.0005361182847991586,1.1345261555106845e-05,-8.311755664180964e-05,22448.0,27861.0,27888.0,20472.0,0.07993882149457932,0.10527630895376205,0.1054084524512291,0.07127981632947922,0.0,0.0,0.0,0.0,23223.0,27128.0,26835.0,21667.0,0.44894954562187195,-0.10473323012920299,-0.3961768471365856,-0.04965149783892783,0.27738136053085327,-0.23225130140781403,0.20870114862918854
206,5,-0.0008797817281447351,-9.832724026637152e-05,0.0010753523092716932,-0.023945018649101257,-0.002713936846703291,-0.021515406668186188,-0.02596035972237587,0.354682594537735,0.0021272890735417604,-0.029727410525083542,1.698505163192749,-0.08070623129606247,0.0,0.0,0.0,0.002495991764590144,-0.024251161143183708,-0.0,0.0,0.0,0.0,0.0020058678928762674,0.003010938409715891,-0.00013986980775371194,24660.0,26708.0,24210.0,24620.0,0.0900079533457756,0.09968315809965134,0.08793023973703384,0.08982206135988235,0.0,0.0,0.0,0.0,26813.0,24147.0,23044.0,26148.0,0.3391343653202057,-0.09436035488270368,-0.3861833706060399,-0.05059740932522306,0.09518153220415115,0.008906369097530842,0.0973362922668457
211,5,-0.0007932385778985918,-0.000125837919767946,0.0011830213479697704,0.00493253068998456,0.0030373139306902885,-0.02152828685939312,-0.02596035972237587,0.354682594537735,0.0021272890735417604,-0.029727410525083542,1.698505163192749,-0.08070623129606247,0.0,0.0,0.0,-0.0035975121427327394,0.003414156148210168,-0.0,0.0,0.0,0.0,0.0020058678928762674,0.003010938409715891,-0.00013986980775371194,24660.0,26708.0,24210.0,24620.0,0.0900079533457756,0.09968315809965134,0.08793023973703384,0.08982206135988235,0.0,0.0,0.0,0.0,26813.0,24147.0,23044.0,26148.0,0.33903777599334717,-0.09972534086316287,-0.3870383017540302,-0.05107329538439451,-0.013396010734140873,-0.012833615764975548,0.10287738591432571
216,5,-0.0007914501475170255,-0.00014762359205633402,0.0013629382010549307,0.0017301383195444942,0.0039611877873539925,-0.031646836549043655,-0.026458315551280975,0.3307271897792816,0.0004660051199607551,-0.09619491547346115,2.2091262340545654,-0.10703311860561371,0.0,0.0,0.0,-0.004609883297234774,0.0003132326528429985,-0.0,0.0,0.0,0.0,-0.0007834345451556146,0.0038104145787656307,-0.00022785247710999101,32441.0,28057.0,20153.0,35360.0,0.1285492479801178,0.1062365472316742,0.06990946829319,0.14426344633102417,0.0,0.0,0.0,0.0,24780.0,17008.0,19597.0,31591.0,0.3390372097492218,-0.09949120486907623,-0.38264738116358354,-0.05350670968385289,-0.0012279378715902567,-0.01644502952694893,0.1401675045490265
221,5,-0.0008457063231617212,-2.8443921110010706e-05,0.0017648049397394061,-0.007076817099004984,-0.015496796928346157,-0.06575540453195572,-0.026458315551280975,0.3307271897792816,0.0004660051199607551,-0.09619491547346115,2.2091262340545654,-0.10703311860561371,0.0,0.0,0.0,0.0160183385014534,-0.008222147822380066,-0.0,0.0,0.0,0.0,-0.0007834345451556146,0.0038104145787656307,-0.00022785247710999101,32441.0,28057.0,20153.0,35360.0,0.1285492479801178,0.1062365472316742,0.06990946829319,0.14426344633102417,0.0,0.0,0.0,0.0,24780.0,17008.0,19597.0,31591.0,0.3390885591506958,-0.09395093034885435,-0.3754856727487523,-0.055109002699561156,0.032264433801174164,0.05714775249361992,0.25338584184646606
226,5,-0.0009465683833695948,-2.1842184651177377e-05,0.0017564184963703156,-0.01624373346567154,-0.0055732824839651585,-0.0185525082051754,-0.026768822222948074,0.282175213098526,-0.004468035418540239,-0.11792328208684921,2.6103577613830566,-0.2105918824672699,0.0,0.0,0.0,0.005595858674496412,-0.017166854813694954,-0.0,0.0,0.0,0.0,0.0013751775259152055,0.004999999888241291,-0.0004456819733604789,24835.0,18437.0,14199.0,34520.0,0.09082471579313278,0.06268471479415894,0.04585855454206467,0.1396697759628296,0.0,0.0,0.0,0.0,33629.0,26616.0,18816.0,36502.0,0.33908888697624207,-0.09611010156092427,-0.3605397064596224,-0.055759974878184945,0.06737077981233597,0.0199650339782238,0.11773909628391266
231,5,-0.001119627500884235,5.106013486511074e-05,0.0016104360111057758,-0.029101401567459106,-0.011878308840095997,0.014871789142489433,-0.026768822222948074,0.282175213098526,-0.004468035418540239,-0.11792328208684921,2.6103577613830566,-0.2105918824672699,0.0,0.0,0.0,0.011943756602704525,-0.02880885638296604,-0.0,0.0,0.0,0.0,0.0013751775259152055,0.004999999888241291,-0.0004456819733604789,24835.0,18437.0,14199.0,34520.0,0.09082471579313278,0.06268471479415894,0.04585855454206467,0.1396697759628296,0.0,0.0,0.0,0.0,33629.0,26616.0,18816.0,36502.0,0.3501751720905304,-0.09513703042918036,-0.3395743743497637,-0.05268982614355245,0.11673647910356522,0.04400540143251419,0.021376369521021843
236,5,-0.001167488400824368,-2.5339397325296886e-05,0.001675686682574451,-0.015430949628353119,0.007132441736757755,-0.004673549439758062,-0.02676534280180931,0.26037469506263733,-0.007104982156306505,-0.055489953607320786,2.8235387802124023,-0.24490369856357574,0.0,0.0,0.0,-0.007762817665934563,-0.016800273209810257,-0.0,0.0,0.0,0.0,0.0019184290431439877,0.004999999888241291,-0.0006054356344975531,22467.0,19319.0,13225.0,36484.0,0.0800255760550499,0.06637051701545715,0.04219818860292435,0.15049433708190918,0.0,0.0,0.0,0.0,24815.0,18742.0,13864.0,34537.0,0.3390916585922241,-0.09715902349048498,-0.3254479376719431,-0.05411359288151385,0.06593222916126251,-0.02769649401307106,0.08570656180381775
241,5,-0.001336048124358058,5.95073688600678e-05,0.001992533216252923,-0.028227640315890312,-0.009738815017044544,-0.04576057195663452,-0.02676534280180931,0.26037469506263733,-0.007104982156306505,-0.055489953607320786,2.8235387802124023,-0.24490369856357574,0.0,0.0,0.0,0.009831395000219345,-0.028552303090691566,-0.0,0.0,0.0,0.0,0.0019184290431439877,0.004999999888241291,-0.0006054356344975531,22467.0,19319.0,13225.0,36484.0,0.0800255760550499,0.06637051701545715,0.04219818860292435,0.15049433708190918,0.0,0.0,0.0,0.0,24815.0,18742.0,13864.0,34537.0,0.34833192825317383,-0.09309848939297231,-0.3080932103597472,-0.05632555336720268,0.11509282886981964,0.03603243827819824,0.21960899233818054
246,5,-0.001539610675536096,9.777461673365906e-05,0.0022209587041288614,-0.036967046558856964,-0.008279058150947094,-0.04570774734020233,-0.02702716924250126,0.22625672817230225,-0.01132077258080244,-0.13632452487945557,2.855506658554077,-0.271651953458786,0.0,0.0,0.0,0.008074034936726093,-0.03559195622801781,-0.0,0.0,0.0,0.0,0.001838958472944796,0.004999999888241291,-0.0006852500373497605,22564.0,20621.0,13229.0,37396.0,0.08045931160449982,0.07191995531320572,0.04221361503005028,0.15562547743320465,0.0,0.0,0.0,0.0,22408.0,19556.0,12956.0,36531.0,0.36230891942977905,-0.08876121490189133,-0.29080097101058716,-0.06078487716370646,0.14921458065509796,0.030779166147112846,0.2285727560520172
251,5,-0.0012243904639035463,0.00021134861162863672,0.0023557620588690042,0.03304070979356766,-0.01838407665491104,-0.032584790140390396,-0.02702716924250126,0.22625672817230225,-0.01132077258080244,-0.13632452487945557,2.855506658554077,-0.271651953458786,0.0,0.0,0.0,0.018595010042190552,0.02799871936440468,-0.0,0.0,0.0,0.0,0.001838958472944796,0.004999999888241291,-0.0006852500373497605,22564.0,20621.0,13229.0,37396.0,0.08045931160449982,0.07191995531320572,0.04221361503005028,0.15562547743320465,0.0,0.0,0.0,0.0,22408.0,19556.0,12956.0,36531.0,0.35430318117141724,-0.08336789427783961,-0.2872927861748609,-0.05632975932331616,-0.11478038132190704,0.06931565701961517,0.19773909449577332
256,5,-0.001414419850334525,0.00043370405910536647,0.002583741443231702,-0.016691898927092552,-0.036644987761974335,-0.041692573577165604,-0.02710627391934395,0.20344078540802002,-0.014135672710835934,-0.06288357824087143,2.794065475463867,-0.2587592899799347,0.0,0.0,0.0,0.03627855330705643,-0.017313700169324875,-0.0,0.0,0.0,0.0,0.0017666749190539122,0.004999999888241291,-0.0008292911224998534,21637.0,22053.0,11260.0,37959.0,0.07634654641151428,0.07818285375833511,0.03503934666514397,0.15882687270641327,0.0,0.0,0.0,0.0,21809.0,21173.0,12581.0,37985.0,0.36438944935798645,-0.08380778822775702,-0.27510337385144795,-0.059203223309535494,0.072970449924469,0.1390538513660431,0.23515425622463226
261,5,-0.0019793815445154905,0.00021290493896231055,0.0026876796036958694,-0.08410219848155975,0.019918382167816162,-0.027059100568294525,-0.02710627391934395,0.20344078540802002,-0.014135672710835934,-0.06288357824087143,2.794065475463867,-0.2587592899799347,0.0,0.0,0.0,-0.016053834930062294,-0.06478390097618103,-0.0,0.0,0.0,0.0,0.0017666749190539122,0.004999999888241291,-0.0008292911224998534,21637.0,22053.0,11260.0,37959.0,0.07634654641151428,0.07818285375833511,0.03503934666514397,0.15882687270641327,0.0,0.0,0.0,0.0,21809.0,21173.0,12581.0,37985.0,0.4392877519130707,-0.0971154473821328,-0.24534371313904288,-0.06345382696007476,0.3291111886501312,-0.07419870048761368,0.2002437710762024
266,5,-0.0019990778528153896,0.0003914761182386428,0.0026821536011993885,-0.027988143265247345,-0.019024452194571495,-0.007344086188822985,-0.027737759053707123,0.16984640061855316,-0.018531344830989838,-0.1251043826341629,2.843766927719116,-0.3043760657310486,0.0,0.0,0.0,0.0194109994918108,-0.028862500563263893,-0.0,0.0,0.0,0.0,0.0022281876299530268,0.004999999888241291,-0.0009889585198834538,19651.0,22946.0,10961.0,39946.0,0.06777065992355347,0.08217115700244904,0.03397691249847412,0.17032861709594727,0.0,0.0,0.0,0.0,19710.0,23316.0,10485.0,39903.0,0.3567517101764679,-0.07712689511649713,-0.23028245739542988,-0.0681584352942475,0.11913631856441498,0.07285691797733307,0.14880968630313873
271,5,-0.0022470352705568075,0.0006168113322928548,0.002954354975372553,-0.043110501021146774,-0.03725426644086838,-0.04031141847372055,-0.027737759053707123,0.16984640061855316,-0.018531344830989838,-0.1251043826341629,2.843766927719116,-0.3043760657310486,0.0,0.0,0.0,0.03433587774634361,-0.03890785947442055,-0.0,0.0,0.0,0.0,0.0022281876299530268,0.004999999888241291,-0.0009889585198834538,19651.0,22946.0,10961.0,39946.0,0.06777065992355347,0.08217115700244904,0.03397691249847412,0.17032861709594727,0.0,0.0,0.0,0.0,19710.0,23316.0,10485.0,39903.0,0.3946084678173065,-0.08001276663306382,-0.21915970529415862,-0.07155639113014768,0.1775548905134201,0.14252661168575287,0.2595263123512268
277,5,-0.0023461580276489258,0.0005244319909252226,0.003230216447263956,-0.026810310781002045,0.0017568267649039626,-0.050714049488306046,-0.027737759053707123,0.16984640061855316,-0.018531344830989838,-0.1251043826341629,2.843766927719116,-0.3043760657310486,0.0,0.0,0.0,-0.0011413166066631675,-0.02923346683382988,-0.0,0.0,0.0,0.0,0.0022281876299530268,0.004999999888241291,-0.0009889585198834538,19651.0,22946.0,10961.0,39946.0,0.06777065992355347,0.08217115700244904,0.03397691249847412,0.17032861709594727,0.0,0.0,0.0,0.0,19710.0,23316.0,10485.0,39903.0,0.34692615270614624,-0.08421759654044171,-0.210312161823973,-0.07324129142144668,0.1173657774925232,-0.004166166298091412,0.3034604489803314
282,5,-0.0022825729101896286,0.0006003789021633565,0.003177764592692256,0.0008588002528995275,-0.010105515830218792,-0.007870931178331375,-0.027665020897984505,0.14890006184577942,-0.021790755912661552,-0.04190618917346001,2.521242141723633,-0.35309329628944397,0.0,0.0,0.0,0.011444120667874813,-0.0034814877435564995,-0.0,0.0,0.0,0.0,0.0019274778896942735,0.004999999888241291,-0.0011671304237097502,25023.0,31162.0,11766.0,43057.0,0.09170104563236237,0.1218777745962143,0.0368519090116024,0.1889798492193222,0.0,0.0,0.0,0.0,24476.0,31773.0,10878.0,43472.0,0.3390578627586365,-0.06037578929642986,-0.20095796634418442,-0.06725069373878063,0.013661413453519344,0.040826018899679184,0.1834285706281662
287,5,-0.0025082079228013754,0.00021356942306738347,0.003449826966971159,-0.03133124113082886,0.05112167075276375,-0.04045002534985542,-0.027665020897984505,0.14890006184577942,-0.021790755912661552,-0.04190618917346001,2.521242141723633,-0.35309329628944397,0.0,0.0,0.0,-0.04564254730939865,-0.02962213195860386,-0.0,0.0,0.0,0.0,0.0019274778896942735,0.004999999888241291,-0.0011671304237097502,25023.0,31162.0,11766.0,43057.0,0.09170104563236237,0.1218777745962143,0.0368519090116024,0.1889798492193222,0.0,0.0,0.0,0.0,24476.0,31773.0,10878.0,43472.0,0.39743465185165405,-0.0867929463525604,-0.19745550573046847,-0.06610129343298764,0.13609816133975983,-0.190776988863945,0.2964552044868469
292,5,-0.002665420761331916,0.00024328996369149536,0.0035169159527868032,-0.03140919655561447,0.011175626888871193,-0.021527469158172607,-0.027675457298755646,0.1199871227145195,-0.026972878724336624,-0.060933467000722885,2.3437817096710205,-0.3556906580924988,0.0,0.0,0.0,-0.010811343789100647,-0.03319499269127846,-0.0,0.0,0.0,0.0,0.000658240751363337,0.004999999888241291,-0.0013420372270047665,23967.0,31849.0,10765.0,43852.0,0.08681303262710571,0.12544584274291992,0.03328384459018707,0.19386787712574005,0.0,0.0,0.0,0.0,16821.0,27376.0,3426.0,41299.0,0.3584817945957184,-0.08527325518530542,-0.18628822135395612,-0.06722856030887148,0.13769583404064178,-0.04077828675508499,0.25078797340393066
297,5,-0.0028074709698557854,0.00015098726726137102,0.0035877269692718983,-0.02930976077914238,0.016275065019726753,-0.016371792182326317,-0.027675457298755646,0.1199871227145195,-0.026972878724336624,-0.060933467000722885,2.3437817096710205,-0.3556906580924988,0.0,0.0,0.0,-0.015991458669304848,-0.03157171234488487,-0.0,0.0,0.0,0.0,0.000658240751363337,0.004999999888241291,-0.0013420372270047665,23967.0,31849.0,10765.0,43852.0,0.08681303262710571,0.12544584274291992,0.03328384459018707,0.19386787712574005,0.0,0.0,0.0,0.0,16821.0,27376.0,3426.0,41299.0,0.3587908446788788,-0.08246897217951582,-0.17527813562845543,-0.06958598830595568,0.13107264041900635,-0.06036655977368355,0.24667538702487946
302,5,-0.0030310123693197966,0.0004742788150906563,0.003761177882552147,-0.04008873179554939,-0.04037829861044884,-0.02919463999569416,-0.02754558064043522,0.10284675657749176,-0.03066687472164631,-0.011041621677577496,2.0569024085998535,-0.4185197055339813,0.0,0.0,0.0,0.03691669926047325,-0.037797920405864716,-0.0,0.0,0.0,0.0,0.0010065707610920072,0.004999999888241291,-0.0015477745328098536,15285.0,29017.0,560.0,42307.0,0.0500338114798069,0.11099149286746979,0.0015029534697532654,0.18441185355186462,0.0,0.0,0.0,0.0,21152.0,33566.0,1192.0,42483.0,0.3963010013103485,-0.06835599721968838,-0.16009478446207678,-0.07654925645280097,0.17321276664733887,0.15388938784599304,0.29816311597824097
307,5,-0.0030434569343924522,0.0005664328346028924,0.003777099074795842,-0.0137688759714365,-0.025015046820044518,-0.01098738145083189,-0.02754558064043522,0.10284675657749176,-0.03066687472164631,-0.011041621677577496,2.0569024085998535,-0.4185197055339813,0.0,0.0,0.0,0.026365991681814194,-0.018590908497571945,-0.0,0.0,0.0,0.0,0.0010065707610920072,0.004999999888241291,-0.0015477745328098536,15285.0,29017.0,560.0,42307.0,0.0500338114798069,0.11099149286746979,0.0015029534697532654,0.18441185355186462,0.0,0.0,0.0,0.0,21152.0,33566.0,1192.0,42483.0,0.3492274880409241,-0.06569350660396167,-0.1565901174411662,-0.07842119814728869,0.0751182958483696,0.09686839580535889,0.2548768222332001
312,5,-0.0033235237933695316,0.0005345040117390454,0.0039015135262161493,-0.04333999752998352,-0.0030344866681843996,-0.02071421779692173,-0.02664302848279476,0.08131065964698792,-0.03640309348702431,0.04637729004025459,1.641309142112732,-0.436069518327713,0.0,0.0,0.0,0.003611163003370166,-0.04300182685256004,-0.0,0.0,0.0,0.0,-0.0009884795872494578,0.004999999888241291,-0.0017565377056598663,20105.0,34748.0,0.0,43223.0,0.0697062537074089,0.14090941846370697,-0.0031580477952957153,0.18999633193016052,0.0,0.0,0.0,0.0,15468.0,32328.0,0.0,43168.0,0.3779965043067932,-0.06842372608480775,-0.14536455188640257,-0.0819483455039593,0.1880720555782318,0.014362405054271221,0.29669761657714844
317,5,-0.0033875510562211275,0.0005674480344168842,0.004017822444438934,-0.021965837106108665,-0.005522505845874548,-0.022497504949569702,-0.02664302848279476,0.08131065964698792,-0.03640309348702431,0.04637729004025459,1.641309142112732,-0.436069518327713,0.0,0.0,0.0,0.006148872897028923,-0.025391414761543274,-0.0,0.0,0.0,0.0,-0.0009884795872494578,0.004999999888241291,-0.0017565377056598663,20105.0,34748.0,0.0,43223.0,0.0697062537074089,0.14090941846370697,-0.0031580477952957153,0.18999633193016052,0.0,0.0,0.0,0.0,15468.0,32328.0,0.0,43168.0,0.37048327922821045,-0.07002647424002141,-0.1475618532807231,-0.08201671958884052,0.10886465013027191,0.023969225585460663,0.3154078423976898
322,5,-0.0035497553180903196,0.0005406007985584438,0.004115211311727762,-0.029298333451151848,0.0021018628031015396,-0.02038368582725525,-0.02509360760450363,0.07031600177288055,-0.04052291437983513,0.17212426662445068,1.2395812273025513,-0.4978557229042053,0.0,0.0,0.0,-0.0011385749094188213,-0.030535705387592316,-0.0,0.0,0.0,0.0,0.0016906479140743613,0.0033134897239506245,-0.0019160817610099912,13806.0,34063.0,0.0,44201.0,0.04437334090471268,0.13719753921031952,-0.018747452646493912,0.1960279643535614,0.0,0.0,0.0,0.0,13701.0,34372.0,0.0,43880.0,0.39005693793296814,-0.07367429600521795,-0.1426881567603901,-0.08395143022914044,0.1378387212753296,-0.004672051873058081,0.32208576798439026
328,5,-0.003723870264366269,0.0004763216129504144,0.004035059362649918,-0.03316561505198479,0.009629642590880394,0.005106109194457531,-0.02509360760450363,0.07031600177288055,-0.04052291437983513,0.17212426662445068,1.2395812273025513,-0.4978557229042053,0.0,0.0,0.0,-0.008079350925981998,-0.03409257531166077,-0.0,0.0,0.0,0.0,0.0016906479140743613,0.0033134897239506245,-0.0019160817610099912,13806.0,34063.0,0.0,44201.0,0.04437334090471268,0.13719753921031952,-0.018747452646493912,0.1960279643535614,0.0,0.0,0.0,0.0,13701.0,34372.0,0.0,43880.0,0.39011427760124207,-0.0800489616524155,-0.13578333473829673,-0.08427505575133194,0.1539059281349182,-0.03316241502761841,0.25614044070243835
333,5,-0.003707027528434992,0.0006077533471398056,0.004062151536345482,-0.007591682951897383,-0.015511549077928066,-0.0022610225714743137,-0.023664291948080063,0.062429871410131454,-0.043963268399238586,0.11794900894165039,0.8035680651664734,-0.23883946239948273,0.0,0.0,0.0,0.014500968158245087,-0.01246753428131342,-0.0,0.0,0.0,0.0,0.0006716338102705777,-0.0001895381137728691,-0.0018617463065311313,9232.0,31995.0,4666.0,41881.0,0.027975834906101227,0.12620893120765686,0.013284243643283844,0.18183541297912598,0.0,0.0,0.0,0.0,7616.0,32788.0,7302.0,40699.0,0.4058666229248047,-0.07262024237561601,-0.14096823993943838,-0.08373715974232868,0.058564506471157074,0.06192411482334137,0.2904528081417084
338,5,-0.003996884450316429,0.0007261455175466835,0.0036665184888988733,-0.04285745322704315,-0.021228371188044548,0.054710306227207184,-0.023664291948080063,0.062429871410131454,-0.043963268399238586,0.11794900894165039,0.8035680651664734,-0.23883946239948273,0.0,0.0,0.0,0.019681870937347412,-0.041075900197029114,-0.0,0.0,0.0,0.0,0.0006716338102705777,-0.0001895381137728691,-0.0018617463065311313,9232.0,31995.0,4666.0,41881.0,0.027975834906101227,0.12620893120765686,0.013284243643283844,0.18183541297912598,0.0,0.0,0.0,0.0,7616.0,32788.0,7302.0,40699.0,0.406213641166687,-0.07030123767937187,-0.123449822351546,-0.07711410141189687,0.19302856922149658,0.08411563187837601,0.12496845424175262
343,5,-0.003860642435029149,0.0006786214653402567,0.004025668371468782,0.006216638255864382,0.00028486328665167093,-0.03386791795492172,-0.022069083526730537,0.056707996875047684,-0.04669785872101784,0.16352540254592896,0.2109205722808838,-0.2844112813472748,0.0,0.0,0.0,0.0007513018790632486,-0.0018483871826902032,-0.0,0.0,0.0,0.0,-0.00025988617562688887,-0.004279935732483864,-0.0020848391577601433,0.0,45254.0,14320.0,35521.0,-0.003967814147472382,0.20261378586292267,0.046321503818035126,0.14514809846878052,0.0,0.0,0.0,0.0,0.0,41254.0,10372.0,38413.0,0.4181978106498718,-0.06953987848932762,-0.14688971235259224,-0.08509696182146304,0.008952443487942219,0.003306918079033494,0.40683290362358093
348,5,-0.003910250961780548,0.0005908191087655723,0.003980476874858141,-0.005080212373286486,0.012377787381410599,-0.0038335605058819056,-0.022069083526730537,0.056707996875047684,-0.04669785872101784,0.16352540254592896,0.2109205722808838,-0.2844112813472748,0.0,0.0,0.0,-0.009637245908379555,-0.010793033987283707,-0.0,0.0,0.0,0.0,-0.00025988617562688887,-0.004279935732483864,-0.0020848391577601433,0.0,45254.0,14320.0,35521.0,-0.003967814147472382,0.20261378586292267,0.046321503818035126,0.14514809846878052,0.0,0.0,0.0,0.0,0.0,41254.0,10372.0,38413.0,0.4182407557964325,-0.0758566677951586,-0.15328411969059924,-0.08570751093064032,0.05224879831075668,-0.04240867868065834,0.3275228440761566
353,5,-0.004005292430520058,0.0007367053767666221,0.0038942082319408655,-0.014829850755631924,-0.01671074703335762,0.01092754676938057,-0.016512099653482437,0.06276348978281021,-0.05080904811620712,0.3512921631336212,-0.6642850637435913,-0.046891141682863235,0.0,0.0,0.0,0.014712744392454624,-0.017815588042140007,-0.0,0.0,0.0,0.0,0.0005411584861576557,-0.004999999888241291,-0.0017701279139146209,1023.0,43986.0,20030.0,34465.0,0.00276309996843338,0.1946984827518463,0.0693851187825203,0.13936927914619446,0.0,0.0,0.0,0.0,0.0,45216.0,16209.0,33843.0,0.4365498423576355,-0.06806320924388205,-0.1581719156208937,-0.08676660333427011,0.09000160545110703,0.06757716834545135,0.2932855486869812
358,5,-0.004143713507801294,0.000746638688724488,0.0038863839581608772,-0.02382791042327881,-0.006403887178748846,0.004373676143586636,-0.016512099653482437,0.06276348978281021,-0.05080904811620712,0.3512921631336212,-0.6642850637435913,-0.046891141682863235,0.0,0.0,0.0,0.006336974911391735,-0.024781158193945885,-0.0,0.0,0.0,0.0,0.0005411584861576557,-0.004999999888241291,-0.0017701279139146209,1023.0,43986.0,20030.0,34465.0,0.00276309996843338,0.1946984827518463,0.0693851187825203,0.13936927914619446,0.0,0.0,0.0,0.0,0.0,45216.0,16209.0,33843.0,0.43657612800598145,-0.06555630666163033,-0.1627838215392754,-0.08638269986161361,0.12520919740200043,0.029110413044691086,0.3242197632789612
363,5,-0.004324668552726507,0.0007359178853221238,0.003707773284986615,-0.03248210251331329,-0.0004202535201329738,0.026317588984966278,-0.016512099653482437,0.06276348978281021,-0.05080904811620712,0.3512921631336212,-0.6642850637435913,-0.046891141682863235,0.0,0.0,0.0,0.001468079281039536,-0.031544096767902374,-0.0,0.0,0.0,0.0,0.0005411584861576557,-0.004999999888241291,-0.0017701279139146209,1023.0,43986.0,20030.0,34465.0,0.00276309996843338,0.1946984827518463,0.0693851187825203,0.13936927914619446,0.0,0.0,0.0,0.0,0.0,45216.0,16209.0,33843.0,0.4366510212421417,-0.06578209537079749,-0.16282152585486112,-0.08519953404872546,0.15939192473888397,0.006744928192347288,0.26715582609176636
368,5,-0.004359339829534292,0.0010573278414085507,0.0040751611813902855,-0.014598619192838669,-0.045123472809791565,-0.04353903606534004,-0.013922270387411118,0.06976582109928131,-0.05170274153351784,0.327691912651062,-1.0619244575500488,-0.19081564247608185,0.0,0.0,0.0,0.038026534020900726,-0.01830071210861206,-0.0,0.0,0.0,0.0,-0.0008209443767555058,-0.004999999888241291,-0.0019653616473078728,1869.0,47043.0,16819.0,35136.0,0.005113266408443451,0.2140047401189804,0.056091487407684326,0.1430317461490631,0.0,0.0,0.0,0.0,364.0,44138.0,19809.0,34793.0,0.44072431325912476,-0.051580745944287285,-0.1700612590437065,-0.09123649114025797,0.09328532963991165,0.17628291249275208,0.49322956800460815
373,5,-0.004388265311717987,0.0010849839309230447,0.003822714788839221,-0.008429115638136864,-0.017408885061740875,0.02228078991174698,-0.013922270387411118,0.06976582109928131,-0.05170274153351784,0.327691912651062,-1.0619244575500488,-0.19081564247608185,0.0,0.0,0.0,0.015685468912124634,-0.013939796946942806,-0.0,0.0,0.0,0.0,-0.0008209443767555058,-0.004999999888241291,-0.0019653616473078728,1869.0,47043.0,16819.0,35136.0,0.005113266408443451,0.2140047401189804,0.056091487407684326,0.1430317461490631,0.0,0.0,0.0,0.0,364.0,44138.0,19809.0,34793.0,0.4404289126396179,-0.045628716896275644,-0.16611637888712413,-0.08625953099121374,0.07104786485433578,0.07268469035625458,0.3034704923629761
378,5,-0.004518828354775906,0.0010421790648251772,0.004208320751786232,-0.020807599648833275,0.0007700202986598015,-0.047300584614276886,-0.010185285471379757,0.08378253877162933,-0.0531836599111557,0.2776951491832733,-1.2411903142929077,-0.0393664576113224,0.0,0.0,0.0,0.0009500408195890486,-0.023000890389084816,-0.0,0.0,0.0,0.0,-0.0003471346863079816,-0.004999999888241291,-0.001869590487331152,4036.0,46666.0,19638.0,35668.0,0.011389128863811493,0.21158243715763092,0.06771872937679291,0.14596083760261536,0.0,0.0,0.0,0.0,742.0,47451.0,16157.0,35702.0,0.4468591511249542,-0.048102803291014934,-0.17941257584822132,-0.09118689594991854,0.11894962191581726,0.004466901533305645,0.5291231274604797
383,5,-0.004581344313919544,0.0007276278338395059,0.003755344543606043,-0.00456043379381299,0.04249135032296181,0.0500318706035614,-0.010185285471379757,0.08378253877162933,-0.0531836599111557,0.2776951491832733,-1.2411903142929077,-0.0393664576113224,0.0,0.0,0.0,-0.03265155106782913,-0.011442403309047222,-0.0,0.0,0.0,0.0,-0.0003471346863079816,-0.004999999888241291,-0.001869590487331152,4036.0,46666.0,19638.0,35668.0,0.011389128863811493,0.21158243715763092,0.06771872937679291,0.14596083760261536,0.0,0.0,0.0,0.0,742.0,47451.0,16157.0,35702.0,0.44700825214385986,-0.06126777506270187,-0.19703781080827673,-0.08807971700016799,0.059166792780160904,-0.15353554487228394,0.24270036816596985
389,5,-0.004636900965124369,0.0007341274176724255,0.0036518273409456015,-0.009146046824753284,0.011837461963295937,0.02950196899473667,-0.008473527617752552,0.09425479173660278,-0.052964795380830765,0.12546393275260925,-1.310551404953003,0.024818671867251396,0.0,0.0,0.0,-0.008189951069653034,-0.015012496151030064,-0.0,0.0,0.0,0.0,0.00043819897109642625,-0.004999999888241291,-0.0017662588506937027,3830.0,45340.0,22019.0,36119.0,0.010776922106742859,0.2031581848859787,0.0780320018529892,0.14846204221248627,0.0,0.0,0.0,0.0,4795.0,46127.0,20444.0,35253.0,0.4458628296852112,-0.0610387033185914,-0.20567984131755998,-0.08812102864402535,0.07747267931699753,-0.03841998428106308,0.313713937997818
394,5,-0.004636900965124369,0.0007341274176724255,0.0036518273409456015,-0.009146046824753284,0.011837461963295937,0.02950196899473667,-0.008473527617752552,0.09425479173660278,-0.052964795380830765,0.12546393275260925,-1.310551404953003,0.024818671867251396,0.0,0.0,0.0,-0.008163643069565296,-0.015163440257310867,-0.0,0.0,0.0,0.0,0.00043819897109642625,-0.004999999888241291,-0.0017662588506937027,3830.0,45340.0,22019.0,36119.0,0.010776922106742859,0.2031581848859787,0.0780320018529892,0.14846204221248627,0.0,0.0,0.0,0.0,4795.0,46127.0,20444.0,35253.0,0.4458637535572052,-0.0610387033185914,-0.20567984131755998,-0.08812102864402535,0.0782516822218895,-0.0382966473698616,0.3239390552043915
399,5,-0.004949665162712336,0.0009021944715641439,0.0028141431976109743,-0.019019756466150284,-0.0009543120977468789,0.05206885561347008,-0.008004806004464626,0.11051978915929794,-0.05222802981734276,-0.015821512788534164,-1.4091236591339111,0.09804834425449371,0.0,0.0,0.0,0.0023017381317913532,-0.022988341748714447,-0.0,0.0,0.0,0.0,0.0009418608387932181,-0.004999999888241291,-0.0016909190453588963,8461.0,46464.0,21145.0,34055.0,0.025376759469509125,0.21028809249401093,0.07419168949127197,0.1371518075466156,0.0,0.0,0.0,0.0,9300.0,46080.0,21703.0,33528.0,0.44273069500923157,-0.05963534868865702,-0.20158317628624936,-0.08052204248185102,0.11779354512691498,0.010723669081926346,0.25397613644599915
404,5,-0.005047373939305544,0.0009324139100499451,0.002869832329452038,-0.019385142251849174,-0.004517011810094118,0.007824152708053589,-0.008004806004464626,0.11051978915929794,-0.05222802981734276,-0.015821512788534164,-1.4091236591339111,0.09804834425449371,0.0,0.0,0.0,0.005239339079707861,-0.023530101403594017,-0.0,0.0,0.0,0.0,0.0009418608387932181,-0.004999999888241291,-0.0016909190453588963,8461.0,46464.0,21145.0,34055.0,0.025376759469509125,0.21028809249401093,0.07419168949127197,0.1371518075466156,0.0,0.0,0.0,0.0,9300.0,46080.0,21703.0,33528.0,0.44274118542671204,-0.060432782590986854,-0.20885708466066036,-0.08000473774669382,0.12056297063827515,0.02440716326236725,0.3957121670246124
409,5,-0.005047373939305544,0.0009324139100499451,0.002869832329452038,-0.019385142251849174,-0.004517011810094118,0.007824152708053589,-0.008075462654232979,0.12155869603157043,-0.05127602070569992,0.009660719893872738,-1.3448201417922974,0.0640622079372406,0.0,0.0,0.0,0.005323902703821659,-0.02392509952187538,-0.0,0.0,0.0,0.0,-0.0010332911042496562,-0.004999999888241291,-0.0016650654142722487,8360.0,46588.0,20961.0,34117.0,0.025041133165359497,0.21108537912368774,0.07339441776275635,0.13748744130134583,0.0,0.0,0.0,0.0,5459.0,45931.0,21788.0,35719.0,0.43860509991645813,-0.060432782590986854,-0.20885708466066036,-0.08000473774669382,0.12144121527671814,0.024569403380155563,0.40403467416763306
414,5,-0.005154085345566273,0.0009476807317696512,0.002858512569218874,-0.020755145698785782,-0.003492457326501608,0.003932009916752577,-0.008075462654232979,0.12155869603157043,-0.05127602070569992,0.009660719893872738,-1.3448201417922974,0.0640622079372406,0.0,0.0,0.0,0.004544295836240053,-0.025223957374691963,-0.0,0.0,0.0,0.0,-0.0010332911042496562,-0.004999999888241291,-0.0016650654142722487,8360.0,46588.0,20961.0,34117.0,0.025041133165359497,0.21108537912368774,0.07339441776275635,0.13748744130134583,0.0,0.0,0.0,0.0,5459.0,45931.0,21788.0,35719.0,0.43861740827560425,-0.058490958200604695,-0.2134851417677274,-0.07953239353609516,0.12803679704666138,0.020972201600670815,0.42379122972488403
419,5,-0.005310488399118185,0.0007568406872451305,0.002746925223618746,-0.01579349860548973,0.02231408655643463,0.014105498790740967,-0.008044382557272911,0.13775534927845,-0.050720684230327606,-0.010792951099574566,-1.3493658304214478,0.06358576565980911,0.0,0.0,0.0,-0.01670999266207218,-0.02202462963759899,-0.0,0.0,0.0,0.0,-7.868190004955977e-05,-0.004999999888241291,-0.0017351409187540412,6072.0,45769.0,22020.0,35372.0,0.017630353569984436,0.20586781203746796,0.07803988456726074,0.1443261206150055,0.0,0.0,0.0,0.0,5459.0,45931.0,21788.0,35719.0,0.43621325492858887,-0.06703818978091963,-0.2274782842626722,-0.08153982536015587,0.11117265373468399,-0.07669048011302948,0.3997381329536438
424,5,-0.005373891908675432,0.0007423987262882292,0.0026561596896499395,-0.013614543713629246,0.008716100826859474,0.01693880558013916,-0.008044382557272911,0.13775534927845,-0.050720684230327606,-0.010792951099574566,-1.3493658304214478,0.06358576565980911,0.0,0.0,0.0,-0.005588979460299015,-0.02065528929233551,-0.0,0.0,0.0,0.0,-7.868190004955977e-05,-0.004999999888241291,-0.0017351409187540412,6072.0,45769.0,22020.0,35372.0,0.017630353569984436,0.20586781203746796,0.07803988456726074,0.1443261206150055,0.0,0.0,0.0,0.0,5459.0,45931.0,21788.0,35719.0,0.43614640831947327,-0.0726760693609573,-0.2387209742085283,-0.08047667593149514,0.10426672548055649,-0.0256469938904047,0.39776504039764404
429,5,-0.005505552049726248,0.0007523057865910232,0.002637122990563512,-0.022516807541251183,0.0012278383364900947,0.007746777031570673,-0.00812967587262392,0.14751482009887695,-0.04941738769412041,-0.014799220487475395,-1.1927136182785034,0.18469958007335663,0.0,0.0,0.0,0.0005776764592155814,-0.02796214632689953,-0.0,0.0,0.0,0.0,0.0004942586529068649,-0.004999999888241291,-0.00146651198156178,7452.0,43659.0,24587.0,34276.0,0.022048749029636383,0.1926756203174591,0.08967111259698868,0.13834676146507263,0.0,0.0,0.0,0.0,6799.0,43473.0,24389.0,34284.0,0.4304840564727783,-0.0744388168237737,-0.24361924180631528,-0.08202078992130717,0.13930194079875946,0.002616587793454528,0.4326906204223633
434,5,-0.005713676568120718,0.000542971130926162,0.002590616000816226,-0.03589243069291115,0.029675206169486046,0.008835028856992722,-0.00812967587262392,0.14751482009887695,-0.04941738769412041,-0.014799220487475395,-1.1927136182785034,0.18469958007335663,0.0,0.0,0.0,-0.02318735420703888,-0.03844886273145676,-0.0,0.0,0.0,0.0,0.0004942586529068649,-0.004999999888241291,-0.00146651198156178,7452.0,43659.0,24587.0,34276.0,0.022048749029636383,0.1926756203174591,0.08967111259698868,0.13834676146507263,0.0,0.0,0.0,0.0,6799.0,43473.0,24389.0,34284.0,0.430749773979187,-0.07977356745456002,-0.24553394410635845,-0.08199390374035771,0.19159777462482452,-0.10507854074239731,0.436633825302124
439,5,-0.005765080917626619,0.0007366875070147216,0.0024424903094768524,-0.017964353784918785,-0.01821773126721382,0.023388104513287544,-0.008977284654974937,0.160810649394989,-0.04729820042848587,-0.06322672963142395,-1.0413110256195068,0.16420651972293854,0.0,0.0,0.0,0.017081625759601593,-0.025781193748116493,-0.0,0.0,0.0,0.0,0.0006481051677837968,-0.004999999888241291,-0.0015078672440722585,6779.0,43377.0,24517.0,34296.0,0.019876480102539062,0.19093647599220276,0.08934853971004486,0.1384573131799698,0.0,0.0,0.0,0.0,6963.0,43326.0,24585.0,34188.0,0.4210922122001648,-0.07734400915618303,-0.25874173348192003,-0.08013208973543938,0.12561890482902527,0.07567832618951797,0.3980600833892822
444,5,-0.005852777510881424,0.0008424002444371581,0.00259721209295094,-0.01766684092581272,-0.020265106111764908,-0.01464460976421833,-0.008977284654974937,0.160810649394989,-0.04729820042848587,-0.06322672963142395,-1.0413110256195068,0.16420651972293854,0.0,0.0,0.0,0.018974492326378822,-0.02585715986788273,-0.0,0.0,0.0,0.0,0.0006481051677837968,-0.004999999888241291,-0.0015078672440722585,6779.0,43377.0,24517.0,34296.0,0.019876480102539062,0.19093647599220276,0.08934853971004486,0.1384573131799698,0.0,0.0,0.0,0.0,6963.0,43326.0,24585.0,34188.0,0.4211074113845825,-0.08212408651302498,-0.2656609386270993,-0.082974309304802,0.12598921358585358,0.08406621962785721,0.521577775478363
449,5,-0.006031799130141735,0.0006643433589488268,0.0024926455225795507,-0.03036307916045189,0.01884843222796917,0.010245940648019314,-0.008977284654974937,0.160810649394989,-0.04729820042848587,-0.06322672963142395,-1.0413110256195068,0.16420651972293854,0.0,0.0,0.0,-0.014314807020127773,-0.03603953495621681,-0.0,0.0,0.0,0.0,0.0006481051677837968,-0.004999999888241291,-0.0015078672440722585,6779.0,43377.0,24517.0,34296.0,0.019876480102539062,0.19093647599220276,0.08934853971004486,0.1384573131799698,0.0,0.0,0.0,0.0,6963.0,43326.0,24585.0,34188.0,0.4212075173854828,-0.08933925693519339,-0.2698442344181993,-0.08330649061270765,0.17563983798027039,-0.06343883275985718,0.4531135559082031
454,5,-0.0061013903468847275,0.0007672849460504949,0.0025129050482064486,-0.018851691856980324,-0.008757289499044418,0.00023743063502479345,-0.00936140213161707,0.1682015061378479,-0.04561186581850052,0.026775281876325607,-0.7659249901771545,0.2311348170042038,0.0,0.0,0.0,0.00936960056424141,-0.027979936450719833,-0.0,0.0,0.0,0.0,0.00014190429646987468,-0.004999999888241291,-0.0013278319966048002,9341.0,42988.0,24764.0,32480.0,0.028345849364995956,0.1885569840669632,0.09049248695373535,0.12875241041183472,0.0,0.0,0.0,0.0,10343.0,42578.0,25300.0,31820.0,0.41347694396972656,-0.0859863894570758,-0.27786575734736024,-0.08076942861201483,0.13388694822788239,0.04076332971453667,0.49055004119873047
459,5,-0.0062201134860515594,0.0009636853355914354,0.0027075724210590124,-0.02227677032351494,-0.030123239383101463,-0.027182187885046005,-0.00936140213161707,0.1682015061378479,-0.04561186581850052,0.026775281876325607,-0.7659249901771545,0.2311348170042038,0.0,0.0,0.0,0.028057923540472984,-0.03102096915245056,-0.0,0.0,0.0,0.0,0.00014190429646987468,-0.004999999888241291,-0.0013278319966048002,9341.0,42988.0,24764.0,32480.0,0.028345849364995956,0.1885569840669632,0.09049248695373535,0.12875241041183472,0.0,0.0,0.0,0.0,10343.0,42578.0,25300.0,31820.0,0.4136587381362915,-0.0834160620988835,-0.27732499024853335,-0.08225167655917534,0.1484466791152954,0.12210112065076828,0.5830455422401428
