timestamp,dt,pos_x,pos_y,pos_z,vel_x,vel_y,vel_z,roll,pitch,yaw,agv_x,agv_y,agv_z,x_ref,y_ref,z_ref,roll_ref,pitch_ref,yaw_ref,x_vel_ref,y_vel_ref,z_vel_ref,x_torque,y_torque,z_torque,w0,w1,w2,w3,u0,u1,u2,u3,m0req,m1req,m2req,m3req,thrust0,thrust1,thrust2,thrust3,thrust_ref,roll_vicon,pitch_vicon,yaw_vicon,acc_x,acc_y,acc_z
5,5,0.0,0.0,0.0,0.0003848305204883218,-8.168464410118759e-05,0.002621111925691366,-0.014857284724712372,0.49174150824546814,0.004239065106958151,0.0007091877632774413,0.004293492995202541,-0.001931572798639536,0.0,0.0,0.0,8.326670649694279e-05,0.00039228389505296946,-0.0,0.0,0.0,0.0,0.0004885132657364011,-0.004999999888241291,0.00012872423394583166,0.0,0.0,0.0,0.0,0.0,0.0,0.0,0.0,0.0,0.0,0.0,0.0,0.0,0.0,0.0,0.0,0.3390336334705353,-0.09529689026662037,-0.5804348155637093,-0.04345413867733,-0.0015393220819532871,0.00032673857640475035,-0.007863335311412811
28,23,0.0,0.0,0.0,-0.0009173882426694036,9.67510204645805e-05,0.0020238040015101433,-0.014857284724712372,0.49174150824546814,0.004239065106958151,0.0007091877632774413,0.004293492995202541,-0.001931572798639536,0.0,0.0,0.0,-9.862484876066446e-05,-0.0009351559565402567,-0.0,0.0,0.0,0.0,0.0004885132657364011,-0.004999999888241291,0.00012872423394583166,0.0,0.0,0.0,0.0,0.0,0.0,0.0,0.0,0.0,0.0,0.0,0.0,0.0,0.0,0.0,0.0,0.33903375267982483,-0.09496378191171372,-0.5800939592263727,-0.04340868853862247,0.003669552970677614,-0.000387004081858322,-0.00607141200453043
33,5,0.0,0.0,0.0,0.0010399160673841834,-0.0004060652863699943,-0.0026393940206617117,-0.014817310497164726,0.49177271127700806,0.004218788351863623,0.0021307237911969423,-0.0037214537151157856,-0.002666147192940116,0.0,0.0,0.0,0.0004139296943321824,0.001060056732967496,-0.0,0.0,0.0,0.0,0.00048216176219284534,-0.004999999888241291,0.0001260857388842851,0.0,0.0,0.0,0.0,0.0,0.0,0.0,0.0,0.0,0.0,0.0,0.0,0.0,0.0,0.0,0.0,0.3390338122844696,-0.09567928615988612,-0.5808501745584043,-0.043679551624906124,-0.004159664269536734,0.0016242611454799771,0.007918181829154491
44,11,0.0,0.0,0.0,-0.0021613778080791235,-0.00043867857311852276,-0.001964730443432927,-0.014817310497164726,0.49177271127700806,0.004218788351863623,0.0021307237911969423,-0.0037214537151157856,-0.002666147192940116,0.0,0.0,0.0,0.00044717377750203013,-0.0022032358683645725,-0.0,0.0,0.0,0.0,0.0005004162667319179,-0.004999999888241291,0.000129927575471811,0.0,0.0,0.0,0.0,0.0,0.0,0.0,0.0,0.0,0.0,0.0,0.0,0.0,0.0,0.0,0.0,0.33903446793556213,-0.0968209640364421,-0.5812352069924427,-0.044156582936039517,0.008645511232316494,0.001754714292474091,0.005894191563129425
49,5,0.0002005782735068351,5.785276516689919e-05,-2.6295394491171464e-05,0.028149910271167755,-0.008432680740952492,0.003037708578631282,-0.014817310497164726,0.49177271127700806,0.004218788351863623,0.0021307237911969423,-0.0037214537151157856,-0.002666147192940116,0.0,0.0,0.0,0.01115015335381031,0.028648020699620247,-0.0,0.0,0.0,0.0,0.0005004162667319179,-0.004999999888241291,0.000129927575471811,0.0,0.0,0.0,0.0,0.0,0.0,0.0,0.0,0.0,0.0,0.0,0.0,0.0,0.0,0.0,0.0,0.34339651465415955,-0.10414314517657611,-0.5868561272277061,-0.04839203359639561,-0.11383921653032303,0.03408825397491455,-0.009566721506416798
54,5,0.00022785244800616056,-1.322479874943383e-06,-2.920455881394446e-05,0.012263358570635319,0.005754730198532343,0.0013185954885557294,-0.014874153770506382,0.49174413084983826,0.004271918907761574,0.002894100733101368,0.00690914923325181,0.004860179498791695,0.0,0.0,0.0,-0.007623817306011915,0.012859953567385674,-0.0,0.0,0.0,0.0,0.00048239569878205657,-0.004999999888241291,0.00013504053640644997,16891.0,28270.0,31419.0,15829.0,0.05638198181986809,0.10728416591882706,0.12320832163095474,0.05215929076075554,0.0,0.0,0.0,0.0,16774.0,28330.0,31361.0,15948.0,0.33907148241996765,-0.09708104341081589,-0.5830204092688942,-0.04614597550643996,-0.05046524107456207,-0.023014366626739502,-0.004467042628675699
59,5,0.00035380353801883757,-0.000313773489324376,-0.00021885223395656794,0.021312156692147255,0.04546956345438957,0.026946254074573517,-0.01482644584029913,0.4917154908180237,0.00430138036608696,0.0011410631705075502,-0.006656910292804241,-0.008240751922130585,0.0,0.0,0.0,-0.05696600303053856,0.02088959328830242,-0.0,0.0,0.0,0.0,0.0004900486092083156,-0.004999999888241291,0.0001286934275412932,16763.0,28338.0,31354.0,15959.0,0.055867020040750504,0.107618048787117,0.12287446856498718,0.05267428234219551,0.0,0.0,0.0,0.0,16159.0,28386.0,31728.0,17110.0,0.3628142178058624,-0.12561848435728565,-0.5898169352628735,-0.055470628391276984,-0.087572380900383,-0.1838303655385971,-0.08500894904136658
65,6,0.0003455076948739588,0.00023831702128518373,-0.0002464943390805274,0.005232229828834534,-0.06365180760622025,0.011953771114349365,-0.01482644584029913,0.4917154908180237,0.00430138036608696,0.0011410631705075502,-0.006656910292804241,-0.008240751922130585,0.0,0.0,0.0,0.07677972316741943,0.005372184328734875,-0.0,0.0,0.0,0.0,0.0004900486092083156,-0.004999999888241291,0.0001286934275412932,16763.0,28338.0,31354.0,15959.0,0.055867020040750504,0.107618048787117,0.12287446856498718,0.05267428234219551,0.0,0.0,0.0,0.0,16159.0,28386.0,31728.0,17110.0,0.3751763105392456,-0.08512574887271303,-0.5643047804565724,-0.044019371875967286,-0.02325958013534546,0.2560056447982788,-0.040950752794742584
71,5,0.00010070754797197878,0.000105067461845465,-7.522853593400214e-06,-0.03270234912633896,-0.00044060315121896565,-0.02986987680196762,-0.01482644584029913,0.4917154908180237,0.00430138036608696,0.0011410631705075502,-0.006656910292804241,-0.008240751922130585,0.0,0.0,0.0,0.0007743634632788599,-0.03245742246508598,-0.0,0.0,0.0,0.0,0.0004900486092083156,-0.004999999888241291,0.0001286934275412932,16763.0,28338.0,31354.0,15959.0,0.055867020040750504,0.107618048787117,0.12287446856498718,0.05267428234219551,0.0,0.0,0.0,0.0,16159.0,28386.0,31728.0,17110.0,0.3458937406539917,-0.08996440819135675,-0.5764304934736747,-0.047640670432311925,0.1299171894788742,0.002384681487455964,0.08788884431123734
76,5,8.775976311881095e-05,0.0004784387710969895,0.00037752112257294357,-0.011623394675552845,-0.05240416154265404,-0.06286711990833282,-0.014776919037103653,0.49204540252685547,0.0038908738642930984,-0.01180291548371315,-0.01145834382623434,-0.011182783171534538,0.0,0.0,0.0,0.06529521942138672,-0.010802225209772587,-0.0,0.0,0.0,0.0,0.0008933933568187058,-0.004999999888241291,4.291895675123669e-05,15923.0,28481.0,31638.0,17340.0,0.05253148823976517,0.10832587629556656,0.12434855848550797,0.058191731572151184,0.0,0.0,0.0,0.0,21185.0,31517.0,30536.0,14252.0,0.36600956320762634,-0.08407622746693588,-0.5815198340493,-0.03802419492412117,0.04566201940178871,0.2124992460012436,0.1926691234111786
81,5,0.00012087765207979828,0.00014566691243089736,-7.643897697562352e-05,0.0011494857026264071,0.03086680918931961,0.04469427838921547,-0.014776919037103653,0.49204540252685547,0.0038908738642930984,-0.01180291548371315,-0.01145834382623434,-0.011182783171534538,0.0,0.0,0.0,-0.03996860980987549,0.0014182862360030413,-0.0,0.0,0.0,0.0,0.0008933933568187058,-0.004999999888241291,4.291895675123669e-05,15923.0,28481.0,31638.0,17340.0,0.05253148823976517,0.10832587629556656,0.12434855848550797,0.058191731572151184,0.0,0.0,0.0,0.0,21185.0,31517.0,30536.0,14252.0,0.3443514108657837,-0.09539574643337342,-0.5887848353287992,-0.03873649799857107,-0.00564837409183383,-0.1224764734506607,-0.13581471145153046
86,5,8.149354835040867e-05,0.00018358250963501632,-4.6748362365178764e-05,-0.005168928764760494,0.003951860126107931,0.009251597337424755,-0.014759899117052555,0.49167731404304504,0.004127319902181625,0.022625768557190895,0.05372954532504082,0.009811374358832836,0.0,0.0,0.0,-0.004816001281142235,-0.00505240261554718,-0.0,0.0,0.0,0.0,-0.0014466646825894713,-0.004999999888241291,0.00015639695629943162,21236.0,31659.0,30391.0,14194.0,0.07458961755037308,0.12445598840713501,0.11792553216218948,0.04584069177508354,0.0,0.0,0.0,0.0,21099.0,31747.0,30301.0,14351.0,0.3390418589115143,-0.09643396026812867,-0.588604335891007,-0.03915020763490983,0.019825631752610207,-0.014536799862980843,-0.029319195076823235
96,10,-5.683948256773874e-05,-1.3324007340997923e-05,0.00011310561967547983,-0.02984222024679184,0.03753630444407463,-0.044709380716085434,-0.014688747003674507,0.4915482699871063,0.004233381245285273,-0.0074874525889754295,-0.034480392932891846,0.017767300829291344,0.0,0.0,0.0,-0.0468275360763073,-0.028674783185124397,-0.0,0.0,0.0,0.0,0.0026330011896789074,-0.004999999888241291,0.00015337571676354855,15466.0,26786.0,35299.0,20474.0,0.0507405623793602,0.1000557392835617,0.14392444491386414,0.07128840684890747,0.0,0.0,0.0,0.0,15430.0,26751.0,35329.0,20507.0,0.36002543568611145,-0.11134790635124359,-0.5859822174560485,-0.044365571121963474,0.1193394735455513,-0.1499992311000824,0.13520865142345428
103,7,0.00027494580717757344,0.0008125179447233677,0.0005165428156033158,0.037497274577617645,-0.10435697436332703,-0.06989402323961258,-0.014688747003674507,0.4915482699871063,0.004233381245285273,-0.0074874525889754295,-0.034480392932891846,0.017767300829291344,0.0,0.0,0.0,0.11349550634622574,0.03149382025003433,-0.0,0.0,0.0,0.0,0.0026330011896789074,-0.004999999888241291,0.00015337571676354855,15466.0,26786.0,35299.0,20474.0,0.0507405623793602,0.1000557392835617,0.14392444491386414,0.07128840684890747,0.0,0.0,0.0,0.0,15430.0,26751.0,35329.0,20507.0,0.41979536414146423,-0.049238977072495554,-0.6077342988763156,-0.01690956622462993,-0.15201130509376526,0.42253541946411133,0.21686862409114838
108,5,-1.4660281522083096e-06,0.00021172546257730573,0.00017639157886151224,-0.02744847536087036,0.052803851664066315,0.02665296569466591,-0.014688747003674507,0.4915482699871063,0.004233381245285273,-0.0074874525889754295,-0.034480392932891846,0.017767300829291344,0.0,0.0,0.0,-0.06362985819578171,-0.025571651756763458,-0.0,0.0,0.0,0.0,0.0026330011896789074,-0.004999999888241291,0.00015337571676354855,15466.0,26786.0,35299.0,20474.0,0.0507405623793602,0.1000557392835617,0.14392444491386414,0.07128840684890747,0.0,0.0,0.0,0.0,15430.0,26751.0,35329.0,20507.0,0.37031784653663635,-0.10362666390412645,-0.5834825235576131,-0.03788347954171413,0.10936858505010605,-0.20952937006950378,-0.0764150619506836
113,5,0.00011544567678356543,0.0004680135753005743,0.0004998124786652625,0.008133096620440483,-0.020039182156324387,-0.0372830368578434,-0.014823609963059425,0.49200570583343506,0.004199125338345766,-0.013501675799489021,0.006217723246663809,-0.04395661503076553,0.0,0.0,0.0,0.027635641396045685,0.008577588945627213,-0.0,0.0,0.0,0.0,-0.0011030014138668776,-0.004999999888241291,0.00018912246741820127,16478.0,28902.0,30812.0,16248.0,0.054729245603084564,0.11041786521673203,0.1200786754488945,0.05381608009338379,0.0,0.0,0.0,0.0,16176.0,29165.0,30556.0,16549.0,0.33917558193206787,-0.07541092787455188,-0.6072213544657606,-0.029283268713384096,-0.03365928307175636,0.08343275636434555,0.12079401314258575
118,5,8.041740511544049e-05,0.0005122230504639447,0.0005355089087970555,-0.0024640290066599846,-0.012201078236103058,-0.01618240773677826,-0.014823609963059425,0.49200570583343506,0.004199125338345766,-0.013501675799489021,0.006217723246663809,-0.04395661503076553,0.0,0.0,0.0,0.01738513633608818,-0.002269749529659748,-0.0,0.0,0.0,0.0,-0.0011030014138668776,-0.004999999888241291,0.00018912246741820127,16478.0,28902.0,30812.0,16248.0,0.054729245603084564,0.11041786521673203,0.1200786754488945,0.05381608009338379,0.0,0.0,0.0,0.0,16176.0,29165.0,30556.0,16549.0,0.33908572793006897,-0.07430967596405022,-0.6055536035494171,-0.029223269527094475,0.008906512521207333,0.05247962847352028,0.059816185384988785
123,5,8.288391109090298e-05,0.0005194780533201993,0.0005655524437315762,-0.00039389802259393036,-0.00467602489516139,-0.009060817770659924,-0.014729891903698444,0.4917028546333313,0.004202879033982754,0.023481860756874084,0.021149512380361557,0.044337838888168335,0.0,0.0,0.0,0.007478757761418819,-0.00014968810137361288,-0.0,0.0,0.0,0.0,-0.0016008217353373766,-0.004999999888241291,0.00017045596905518323,22050.0,32057.0,30719.0,14239.0,0.07817181199789047,0.1265343725681305,0.11959990113973618,0.046011246740818024,0.0,0.0,0.0,0.0,20720.0,31005.0,30780.0,14416.0,0.3390430808067322,-0.07519239512409187,-0.6063802868141844,-0.02995387284087242,0.0005873761256225407,0.022574592381715775,0.04088495299220085
128,5,6.895620754221454e-05,0.0004981330130249262,0.0005894263158552349,-0.0020680478774011135,0.001585496007464826,-0.006060590501874685,-0.014729891903698444,0.4917028546333313,0.004202879033982754,0.023481860756874084,0.021149512380361557,0.044337838888168335,0.0,0.0,0.0,-0.0008113383082672954,-0.0018714455654844642,-0.0,0.0,0.0,0.0,-0.0016008217353373766,-0.004999999888241291,0.00017045596905518323,22050.0,32057.0,30719.0,14239.0,0.07817181199789047,0.1265343725681305,0.11959990113973618,0.046011246740818024,0.0,0.0,0.0,0.0,20720.0,31005.0,30780.0,14416.0,0.3390343189239502,-0.0761375502065911,-0.6045019180761343,-0.030155746562835973,0.0073435609228909016,-0.0024489981587976217,0.034293703734874725
133,5,8.689436799613759e-05,0.0003077058354392648,0.0004364540218375623,0.0018909283680841327,0.02713545598089695,0.019597945734858513,-0.014731977134943008,0.49129518866539,0.004291630815714598,-0.004073531832545996,0.07396145910024643,0.014612076804041862,0.0,0.0,0.0,-0.03485589846968651,0.0021879191044718027,-0.0,0.0,0.0,0.0,0.0010603255359455943,-0.004999999888241291,0.000187203535460867,16378.0,27231.0,32396.0,16354.0,0.05433075502514839,0.10220372676849365,0.1283147633075714,0.0542365200817585,0.0,0.0,0.0,0.0,21604.0,32524.0,30239.0,14753.0,0.3405803143978119,-0.08800107258898923,-0.6083317685429334,-0.03376191474591235,-0.008619316853582859,-0.10565230250358582,-0.04291732236742973
138,5,9.947289800038561e-05,0.0002276248560519889,0.00046105418005026877,0.002328272210434079,0.01935197226703167,0.0024353584740310907,-0.014731977134943008,0.49129518866539,0.004291630815714598,-0.004073531832545996,0.07396145910024643,0.014612076804041862,0.0,0.0,0.0,-0.02481960691511631,0.0026668375357985497,-0.0,0.0,0.0,0.0,0.0010603255359455943,-0.004999999888241291,0.000187203535460867,16378.0,27231.0,32396.0,16354.0,0.05433075502514839,0.10220372676849365,0.1283147633075714,0.0542365200817585,0.0,0.0,0.0,0.0,21604.0,32524.0,30239.0,14753.0,0.33913925290107727,-0.0926796544959991,-0.6066489343345198,-0.034814248656747517,-0.010464894585311413,-0.07492594420909882,0.01023912150412798
143,5,-1.4081998415349517e-05,0.00015310772869270295,0.00023273400438483804,-0.015199203975498676,0.01623798906803131,0.03269543498754501,-0.014759899117052555,0.4914209842681885,0.004368338268250227,-0.004023722838610411,-0.05318639427423477,0.009180351160466671,0.0,0.0,0.0,-0.020819850265979767,-0.015365790575742722,-0.0,0.0,0.0,0.0,0.0005459368694573641,-0.004999999888241291,0.0001538923243060708,16824.0,28230.0,31457.0,15897.0,0.05611324682831764,0.10708659887313843,0.12340615689754486,0.052428293973207474,0.0,0.0,0.0,0.0,15449.0,28033.0,31648.0,17266.0,0.3391471207141876,-0.08718816007617193,-0.5932434336122339,-0.03881574801706532,0.060300134122371674,-0.06285640597343445,-0.08243279159069061
148,5,-3.701690002344549e-05,8.352604345418513e-05,0.0001015448578982614,-0.007770647294819355,0.01461283303797245,0.0281751099973917,-0.014759899117052555,0.4914209842681885,0.004368338268250227,-0.004023722838610411,-0.05318639427423477,0.009180351160466671,0.0,0.0,0.0,-0.018792130053043365,-0.007830535061657429,-0.0,0.0,0.0,0.0,0.0005459368694573641,-0.004999999888241291,0.0001538923243060708,16824.0,28230.0,31457.0,15897.0,0.05611324682831764,0.10708659887313843,0.12340615689754486,0.052428293973207474,0.0,0.0,0.0,0.0,15449.0,28033.0,31648.0,17266.0,0.3391038775444031,-0.08897307443326684,-0.5900111284829583,-0.040343515036693915,0.030727721750736237,-0.05672884359955788,-0.06999673694372177
153,5,-4.248208279022947e-05,4.875245213042945e-05,-6.82889367453754e-05,0.0046681188978254795,0.010351816192269325,0.02395431138575077,-0.014657865278422832,0.49134477972984314,0.004226296674460173,0.05270446091890335,0.05347098037600517,-0.020139766857028008,0.0,0.0,0.0,-0.013208084739744663,0.004837908782064915,-0.0,0.0,0.0,0.0,-0.00035172514617443085,-0.004999999888241291,0.00013829990348313004,18016.0,29551.0,30185.0,14666.0,0.060952238738536835,0.11366824805736542,0.11687697470188141,0.04764176905155182,0.0,0.0,0.0,0.0,16521.0,28765.0,30944.0,16204.0,0.33906713128089905,-0.08979329423844976,-0.5763633065905646,-0.04694781478944939,-0.01898401789367199,-0.03986983373761177,-0.059529855847358704
158,5,-4.248208279022947e-05,4.875245213042945e-05,-6.82889367453754e-05,0.0046681188978254795,0.010351816192269325,0.02395431138575077,-0.014657865278422832,0.49134477972984314,0.004226296674460173,0.05270446091890335,0.05347098037600517,-0.020139766857028008,0.0,0.0,0.0,-0.013203336857259274,0.004834725987166166,-0.0,0.0,0.0,0.0,-0.00035172514617443085,-0.004999999888241291,0.00013829990348313004,18016.0,29551.0,30185.0,14666.0,0.060952238738536835,0.11366824805736542,0.11687697470188141,0.04764176905155182,0.0,0.0,0.0,0.0,16521.0,28765.0,30944.0,16204.0,0.33906713128089905,-0.08979329423844976,-0.5763633065905646,-0.04694781478944939,-0.018971526995301247,-0.03985550254583359,-0.05978081747889519
164,5,7.26608486729674e-05,-1.858348332461901e-05,4.6369976189453155e-05,0.009325211867690086,0.024543868377804756,-0.009371895343065262,-0.014792390167713165,0.4908052384853363,0.004382074810564518,-0.03219841793179512,0.045003682374954224,0.008066941983997822,0.0,0.0,0.0,-0.03204163908958435,0.009727255441248417,-0.0,0.0,0.0,0.0,-0.00013663549907505512,-0.004999999888241291,0.00015146384248510003,17905.0,28881.0,30839.0,14780.0,0.06049554795026779,0.11031243205070496,0.12021510303020477,0.048080772161483765,0.0,0.0,0.0,0.0,18092.0,29486.0,30250.0,14585.0,0.34018176794052124,-0.09564346931445873,-0.5861362902939546,-0.03890585949185336,-0.03827875107526779,-0.09701382368803024,0.04167471081018448
169,5,5.867694653716171e-06,0.0001463101798435673,-5.49157994100824e-05,-0.0065534780733287334,-0.01572195068001747,0.01136843953281641,-0.014792390167713165,0.4908052384853363,0.004382074810564518,-0.03219841793179512,0.045003682374954224,0.008066941983997822,0.0,0.0,0.0,0.02154328115284443,-0.006528710946440697,-0.0,0.0,0.0,0.0,-0.00013663549907505512,-0.004999999888241291,0.00015146384248510003,17905.0,28881.0,30839.0,14780.0,0.06049554795026779,0.11031243205070496,0.12021510303020477,0.048080772161483765,0.0,0.0,0.0,0.0,18092.0,29486.0,30250.0,14585.0,0.3391195237636566,-0.08193943383193268,-0.578762935838742,-0.03649788979605132,0.025619026273489,0.0650349035859108,-0.021928055211901665
174,5,6.31717630312778e-05,-6.663681415375322e-05,7.940521754790097e-05,0.006056525744497776,0.025095991790294647,-0.01539441104978323,-0.014700807631015778,0.49065232276916504,0.004269338678568602,0.010012133046984673,-0.010809144005179405,0.004150385968387127,0.0,0.0,0.0,-0.03289114683866501,0.006402421742677689,-0.0,0.0,0.0,0.0,-2.800046968332026e-05,-0.004999999888241291,0.00011944297148147598,17535.0,28923.0,30795.0,15166.0,0.05898543447256088,0.11051943898200989,0.11998972296714783,0.04957251250743866,0.0,0.0,0.0,0.0,17443.0,29065.0,30660.0,15268.0,0.3398061692714691,-0.10191470418835617,-0.5852851549032235,-0.039980140988600525,-0.02516668662428856,-0.09947443008422852,0.06018982082605362
179,5,2.802973540383391e-05,-1.691153011051938e-05,1.7306190329691162e-06,-0.0031029258389025927,0.0005672585102729499,0.00625612074509263,-0.014700807631015778,0.49065232276916504,0.004269338678568602,0.010012133046984673,-0.010809144005179405,0.004150385968387127,0.0,0.0,0.0,-0.00035691537777893245,-0.0029731239192187786,-0.0,0.0,0.0,0.0,-2.800046968332026e-05,-0.004999999888241291,0.00011944297148147598,17535.0,28923.0,30795.0,15166.0,0.05898543447256088,0.11051943898200989,0.11998972296714783,0.04957251250743866,0.0,0.0,0.0,0.0,17443.0,29065.0,30660.0,15268.0,0.33903512358665466,-0.09601133557006163,-0.5828620915458914,-0.039205453561593384,0.011666572652757168,-0.0010773401008918881,-0.005686604883521795
184,5,2.802973540383391e-05,-1.691153011051938e-05,1.7306190329691162e-06,-0.0031029258389025927,0.0005672585102729499,0.00625612074509263,-0.015001342631876469,0.49033769965171814,0.0042365905828773975,0.015925543382763863,0.09719881415367126,-0.044709209352731705,0.0,0.0,0.0,-0.0003585401573218405,-0.00297105242498219,-0.0,0.0,0.0,0.0,0.00015370515757240355,-0.004999999888241291,6.897914863657206e-05,15004.0,27931.0,31748.0,17696.0,0.048945751041173935,0.1056169793009758,0.12491842359304428,0.05963843688368797,0.0,0.0,0.0,0.0,17797.0,28547.0,31157.0,14890.0,0.33903512358665466,-0.09601133557006163,-0.5828620915458914,-0.039205453561593384,0.011658387258648872,-0.001082278206013143,-0.005680288188159466
189,5,-1.5275321857188828e-05,1.1534550139913335e-05,-4.116061973036267e-05,-0.006993585731834173,-0.003812273731455207,0.007881609722971916,-0.015001342631876469,0.49033769965171814,0.0042365905828773975,0.015925543382763863,0.09719881415367126,-0.044709209352731705,0.0,0.0,0.0,0.0054998756386339664,-0.007001106161624193,-0.0,0.0,0.0,0.0,0.00015370515757240355,-0.004999999888241291,6.897914863657206e-05,15004.0,27931.0,31748.0,17696.0,0.048945751041173935,0.1056169793009758,0.12491842359304428,0.05963843688368797,0.0,0.0,0.0,0.0,17797.0,28547.0,31157.0,14890.0,0.33904704451560974,-0.09250928785453778,-0.5792653272884258,-0.03849766956639957,0.027472790330648422,0.016601668670773506,-0.011195908300578594
194,5,-4.101707600057125e-05,6.084799679229036e-05,-2.709723776206374e-05,-0.011772861704230309,-0.011725086718797684,0.0017980954144150019,-0.015063448809087276,0.48872095346450806,0.004307078197598457,-0.04074222594499588,0.2060147523880005,0.03621724247932434,0.0,0.0,0.0,0.016083166003227234,-0.011913031339645386,-0.0,0.0,0.0,0.0,0.0012332235928624868,-0.004999999888241291,0.000197181201656349,17330.0,27749.0,31910.0,15376.0,0.05815291032195091,0.10472669452428818,0.12576648592948914,0.05038904771208763,0.0,0.0,0.0,0.0,17140.0,27883.0,31785.0,15573.0,0.33910152316093445,-0.09223333211735066,-0.5773516315272439,-0.03849466142353706,0.04674902930855751,0.048552460968494415,0.007111936341971159
199,5,-5.01305767102167e-05,0.00016912991122808307,-0.00016741589934099466,-0.00480774836614728,-0.018676992505788803,0.020184041932225227,-0.015063448809087276,0.48872095346450806,0.004307078197598457,-0.04074222594499588,0.2060147523880005,0.03621724247932434,0.0,0.0,0.0,0.02551521547138691,-0.004830478224903345,-0.0,0.0,0.0,0.0,0.0012332235928624868,-0.004999999888241291,0.000197181201656349,17330.0,27749.0,31910.0,15376.0,0.05815291032195091,0.10472669452428818,0.12576648592948914,0.05038904771208763,0.0,0.0,0.0,0.0,17140.0,27883.0,31785.0,15573.0,0.3391479551792145,-0.08830963826866728,-0.5677909671955643,-0.03426233326635707,0.018955042585730553,0.077027827501297,-0.050258081406354904
204,5,-5.8818241086555645e-05,0.00011761626228690147,-2.3688031433266588e-05,-0.002658597659319639,0.0016088115517050028,-0.014066689647734165,-0.015063448809087276,0.48872095346450806,0.004307078197598457,-0.04074222594499588,0.2060147523880005,0.03621724247932434,0.0,0.0,0.0,-0.0014490566682070494,-0.0026568847242742777,-0.0,0.0,0.0,0.0,0.0012332235928624868,-0.004999999888241291,0.000197181201656349,17330.0,27749.0,31910.0,15376.0,0.05815291032195091,0.10472669452428818,0.12576648592948914,0.05038904771208763,0.0,0.0,0.0,0.0,17140.0,27883.0,31785.0,15573.0,0.33903515338897705,-0.08892908037503855,-0.5702526420850744,-0.036911016586643926,0.010425640270113945,-0.0043739392422139645,0.05402940884232521
209,5,-4.909070776193403e-05,0.0001365099014947191,-1.2571173101605382e-05,0.0005642755422741175,-0.0021624655928462744,-0.005776367150247097,-0.015248257666826248,0.48569029569625854,0.004304295405745506,-0.011502759531140327,0.49561649560928345,0.006698590237647295,0.0,0.0,0.0,0.003597099566832185,0.0006390545750036836,-0.0,0.0,0.0,0.0,0.0006029483629390597,-0.004999999888241291,0.00012451867223717272,16790.0,28129.0,31552.0,15932.0,0.05597469210624695,0.10659114271402359,0.12390203028917313,0.052567265927791595,0.0,0.0,0.0,0.0,16378.0,28160.0,31525.0,16349.0,0.33903586864471436,-0.08379511379216677,-0.564082850790668,-0.03465460171989767,-0.002507552271708846,0.010858009569346905,0.029241658747196198
214,5,-4.909070776193403e-05,0.0001365099014947191,-1.2571173101605382e-05,0.0005642755422741175,-0.0021624655928462744,-0.005776367150247097,-0.015248257666826248,0.48569029569625854,0.004304295405745506,-0.011502759531140327,0.49561649560928345,0.006698590237647295,0.0,0.0,0.0,0.0036103958263993263,0.0006353765493258834,-0.0,0.0,0.0,0.0,0.0006029483629390597,-0.004999999888241291,0.00012451867223717272,16790.0,28129.0,31552.0,15932.0,0.05597469210624695,0.10659114271402359,0.12390203028917313,0.052567265927791595,0.0,0.0,0.0,0.0,16378.0,28160.0,31525.0,16349.0,0.33903586864471436,-0.08379511379216677,-0.564082850790668,-0.03465460171989767,-0.002493217820301652,0.010897871106863022,0.029195774346590042
219,5,2.930737252881954e-07,0.0001608333841431886,0.00015132801490835845,0.006575995124876499,-0.0040390994399785995,-0.015413704328238964,-0.015569958835840225,0.4779316186904907,0.004325758200138807,-0.0480826310813427,0.7053827047348022,0.019263040274381638,0.0,0.0,0.0,0.006158348172903061,0.0068354825489223,-0.0,0.0,0.0,0.0,0.00076361617539078,-0.004999999888241291,0.00014150964852888137,16484.0,27804.0,31859.0,16243.0,0.05475406348705292,0.10499827563762665,0.1255008578300476,0.053793855011463165,0.0,0.0,0.0,0.0,17360.0,27867.0,31800.0,15345.0,0.33904793858528137,-0.08612597240406064,-0.5600328885953775,-0.03282281650918858,-0.026822851970791817,0.018589632585644722,0.060545917600393295
225,5,-8.456192153971642e-05,0.00013384915655478835,0.00018646409444045275,-0.00990690104663372,0.0025660619139671326,-0.009543160907924175,-0.015569958835840225,0.4779316186904907,0.004325758200138807,-0.0480826310813427,0.7053827047348022,0.019263040274381638,0.0,0.0,0.0,-0.002632456598803401,-0.010096016339957714,-0.0,0.0,0.0,0.0,0.00076361617539078,-0.004999999888241291,0.00014150964852888137,16484.0,27804.0,31859.0,16243.0,0.05475406348705292,0.10499827563762665,0.1255008578300476,0.053793855011463165,0.0,0.0,0.0,0.0,17360.0,27867.0,31800.0,15345.0,0.3390520513057709,-0.0907204651178316,-0.5521022468628852,-0.03502390247883657,0.0396181158721447,-0.007946385070681572,0.04401164874434471
230,5,-4.9940053941099904e-06,0.0003084251075051725,3.1988332921173424e-05,0.008167438209056854,-0.02367081493139267,0.01876365765929222,-0.015592939220368862,0.47022002935409546,0.004419568460434675,-0.036233700811862946,1.0402610301971436,0.003255675081163645,0.0,0.0,0.0,-0.0026196863036602736,-0.010102222673594952,-0.0,0.0,0.0,0.0,0.00045654841233044863,-0.004999999888241291,0.0001795372081687674,17087.0,28068.0,31610.0,15628.0,0.05717112123966217,0.10628961026668549,0.12420357763767242,0.05137085169553757,0.0,0.0,0.0,0.0,16574.0,27915.0,31755.0,16151.0,0.3400121331214905,-0.09052739988805993,-0.5337294224749598,-0.03029271307816952,-0.03313228487968445,0.09808774292469025,-0.04255387559533119
235,5,-6.340512481983751e-05,0.00035075328196398914,0.00015773095947224647,-0.0057273246347904205,-0.013027189299464226,-0.011974871158599854,-0.015592939220368862,0.47022002935409546,0.004419568460434675,-0.036233700811862946,1.0402610301971436,0.003255675081163645,0.0,0.0,0.0,0.018498774617910385,-0.0058099678717553616,-0.0,0.0,0.0,0.0,0.00045654841233044863,-0.004999999888241291,0.0001795372081687674,17087.0,28068.0,31610.0,15628.0,0.05717112123966217,0.10628961026668549,0.12420357763767242,0.05137085169553757,0.0,0.0,0.0,0.0,16574.0,27915.0,31755.0,16151.0,0.33909735083580017,-0.09015583314941351,-0.5260013605882227,-0.03026965395467005,0.02279856987297535,0.055842552334070206,0.05164856091141701
240,5,4.741210796055384e-05,0.0003813537769019604,0.00021985637431498617,0.013796214945614338,-0.00819222442805767,-0.012290019541978836,-0.016033442690968513,0.4553200602531433,0.004406476393342018,-0.03796323761343956,1.4327583312988281,0.02812454104423523,0.0,0.0,0.0,0.012187276035547256,0.014255383051931858,-0.0,0.0,0.0,0.0,0.0007262486615218222,-0.004999999888241291,0.0001919276110129431,17081.0,27522.0,32122.0,15634.0,0.05714617297053337,0.10361727327108383,0.12687626481056213,0.05139615759253502,0.0,0.0,0.0,0.0,16645.0,28223.0,31465.0,16081.0,0.33909323811531067,-0.09588189979745168,-0.526821547018028,-0.030733698759394246,-0.05594191327691078,0.036791641265153885,0.05412048473954201
245,5,-2.7726329790311866e-05,0.0004463823279365897,0.00033474285737611353,-0.0063805170357227325,-0.011561662890017033,-0.019771113991737366,-0.016033442690968513,0.4553200602531433,0.004406476393342018,-0.03796323761343956,1.4327583312988281,0.02812454104423523,0.0,0.0,0.0,0.016819395124912262,-0.00642242981120944,-0.0,0.0,0.0,0.0,0.0007262486615218222,-0.004999999888241291,0.0001919276110129431,17081.0,27522.0,32122.0,15634.0,0.05714617297053337,0.10361727327108383,0.12687626481056213,0.05139615759253502,0.0,0.0,0.0,0.0,16645.0,28223.0,31465.0,16081.0,0.3390885591506958,-0.09445978099671595,-0.5154674255169622,-0.031055843487390346,0.025202015414834023,0.05077347159385681,0.07911177724599838
250,5,-4.110466397833079e-05,0.0005026189028285444,0.0004611614567693323,-0.0037871215026825666,-0.011341617442667484,-0.023629937320947647,-0.016273347660899162,0.4426388144493103,0.004439583048224449,-0.027742639183998108,1.7908258438110352,0.077836774289608,0.0,0.0,0.0,0.01668393798172474,-0.0038014438468962908,-0.0,0.0,0.0,0.0,0.0005120352143421769,-0.004999999888241291,0.0002216432330897078,17939.0,27308.0,32201.0,14901.0,0.06063537299633026,0.10257761925458908,0.12728966772556305,0.04854937642812729,0.0,0.0,0.0,0.0,19105.0,26131.0,30692.0,17094.0,0.3390832543373108,-0.09311437574700861,-0.5050947961473716,-0.030936052172797875,0.014917019754648209,0.05036395415663719,0.09383776038885117
255,5,-1.750048431858886e-05,0.0005424115806818008,0.0006700839730910957,0.002168448409065604,-0.008973467163741589,-0.036338139325380325,-0.016273347660899162,0.4426388144493103,0.004439583048224449,-0.027742639183998108,1.7908258438110352,0.077836774289608,0.0,0.0,0.0,0.013674624264240265,0.0023024543188512325,-0.0,0.0,0.0,0.0,0.0005120352143421769,-0.004999999888241291,0.0002216432330897078,17939.0,27308.0,32201.0,14901.0,0.06063537299633026,0.10257761925458908,0.12728966772556305,0.04854937642812729,0.0,0.0,0.0,0.0,19105.0,26131.0,30692.0,17094.0,0.33906620740890503,-0.08599343962668451,-0.4910348966605618,-0.028461865214879156,-0.009034812450408936,0.04127904400229454,0.1368129551410675
260,5,-0.00016301147115882486,0.000579648301936686,0.0008800498326309025,-0.019721003249287605,-0.007905176840722561,-0.040296658873558044,-0.016863804310560226,0.4184325039386749,0.004630306735634804,-0.04484811797738075,2.1556448936462402,0.07739228010177612,0.0,0.0,0.0,0.012383813038468361,-0.020232073962688446,-0.0,0.0,0.0,0.0,0.0012272987514734268,0.0010188431479036808,0.00022795182303525507,20895.0,22699.0,29641.0,20362.0,0.07310743629932404,0.08106483519077301,0.11412055790424347,0.07080461084842682,0.0,0.0,0.0,0.0,23089.0,20372.0,28072.0,22263.0,0.3391290009021759,-0.08251776696929379,-0.4705807909609786,-0.029076086641498113,0.07940182089805603,0.03739000856876373,0.15432780981063843
265,5,-9.424883501196746e-06,0.0006663175881840289,0.0010716647375375032,0.015585821121931076,-0.014505252242088318,-0.038915082812309265,-0.016863804310560226,0.4184325039386749,0.004630306735634804,-0.04484811797738075,2.1556448936462402,0.07739228010177612,0.0,0.0,0.0,0.02135797217488289,0.01597706973552704,-0.0,0.0,0.0,0.0,0.0012272987514734268,0.0010188431479036808,0.00022795182303525507,20895.0,22699.0,29641.0,20362.0,0.07310743629932404,0.08106483519077301,0.11412055790424347,0.07080461084842682,0.0,0.0,0.0,0.0,23089.0,20372.0,28072.0,22263.0,0.3391542136669159,-0.07697318261608307,-0.4619207245301055,-0.0257541546030672,-0.06269935518503189,0.06448224931955338,0.15632306039333344
270,5,-0.00014377248589880764,0.0006531283142976463,0.0013057513860985637,-0.014132918789982796,-0.0025050819385796785,-0.044446658343076706,-0.0172304455190897,0.39942848682403564,0.004662139806896448,-0.04848013445734978,2.5241363048553467,0.06719724833965302,0.0,0.0,0.0,0.005497873295098543,-0.01452107634395361,-0.0,0.0,0.0,0.0,0.00119528837967664,0.0039388518780469894,0.00023967558809090406,29245.0,13457.0,21817.0,28158.0,0.11213035881519318,0.043060868978500366,0.077140673995018,0.10673445463180542,0.0,0.0,0.0,0.0,27271.0,15596.0,23796.0,26652.0,0.3390744626522064,-0.07314207914431274,-0.4428738839668991,-0.025163801569457946,0.05698499456048012,0.016598274931311607,0.18037916719913483
275,5,-0.00013369476073421538,0.0007940608775243163,0.001456025755032897,-0.002828992437571287,-0.020482078194618225,-0.03437240794301033,-0.0172304455190897,0.39942848682403564,0.004662139806896448,-0.04848013445734978,2.5241363048553467,0.06719724833965302,0.0,0.0,0.0,0.029662037268280983,-0.0029949459712952375,-0.0,0.0,0.0,0.0,0.00119528837967664,0.0039388518780469894,0.00023967558809090406,29245.0,13457.0,21817.0,28158.0,0.11213035881519318,0.043060868978500366,0.077140673995018,0.10673445463180542,0.0,0.0,0.0,0.0,27271.0,15596.0,23796.0,26652.0,0.33918431401252747,-0.05739081906867528,-0.42156014308881135,-0.019092819636252877,0.011752470396459103,0.08955125510692596,0.15738365054130554
280,5,-0.0001740303123369813,0.0008932306664064527,0.0016828706720843911,-0.006495676003396511,-0.02002839557826519,-0.04207000508904457,-0.017926650121808052,0.3663375675678253,0.004781880881637335,-0.046833284199237823,2.8564999103546143,0.08171742409467697,0.0,0.0,0.0,0.02933393232524395,-0.006804126314818859,-0.0,0.0,0.0,0.0,0.0015056573320180178,0.004999999888241291,0.00025329337222501636,30117.0,11260.0,21000.0,29622.0,0.11652685701847076,0.03503931313753128,0.07356235384941101,0.1140260249376297,0.0,0.0,0.0,0.0,30366.0,11798.0,20544.0,29361.0,0.3391873836517334,-0.05304338927551677,-0.40570399783733113,-0.01721040894870084,0.02669980376958847,0.08856042474508286,0.18912647664546967
285,5,0.0001016917813103646,0.0006588760297745466,0.0012701180530712008,0.03665238991379738,0.026801126077771187,0.04516436904668808,-0.017926650121808052,0.3663375675678253,0.004781880881637335,-0.046833284199237823,2.8564999103546143,0.08171742409467697,0.0,0.0,0.0,-0.03145163133740425,0.0357348769903183,-0.0,0.0,0.0,0.0,0.0015056573320180178,0.004999999888241291,0.00025329337222501636,30117.0,11260.0,21000.0,29622.0,0.11652685701847076,0.03503931313753128,0.07356235384941101,0.1140260249376297,0.0,0.0,0.0,0.0,30366.0,11798.0,20544.0,29361.0,0.35686737298965454,-0.06086809716041035,-0.4012356134782009,-0.009878206559903563,-0.14749528467655182,-0.09989938884973526,-0.07254131138324738
291,5,-8.73747922014445e-05,0.0006095157586969435,0.001487133908085525,-0.015473603270947933,0.01495078019797802,-0.016832919791340828,-0.019161157310009003,0.30307888984680176,0.005240400321781635,-0.04287990555167198,3.36527943611145,0.10837365686893463,0.0,0.0,0.0,-0.0174335278570652,-0.015829067677259445,-0.0,0.0,0.0,0.0,0.0017903009429574013,0.004999999888241291,0.00030071038054302335,30038.0,10364.0,21726.0,29704.0,0.11613045632839203,0.031877048313617706,0.07673981785774231,0.11443762481212616,0.0,0.0,0.0,0.0,30119.0,11357.0,20920.0,29620.0,0.3391276001930237,-0.0709449636112046,-0.3822253829089309,-0.013831295716049899,0.06211862713098526,-0.052630964666604996,0.12065400928258896
296,5,-8.619143045507371e-05,0.0006213148008100688,0.0016321963630616665,-0.004476410336792469,0.0028333691880106926,-0.025358621031045914,-0.019161157310009003,0.30307888984680176,0.005240400321781635,-0.04287990555167198,3.36527943611145,0.10837365686893463,0.0,0.0,0.0,-0.0012953684199601412,-0.004624995868653059,-0.0,0.0,0.0,0.0,0.0017903009429574013,0.004999999888241291,0.00030071038054302335,30038.0,10364.0,21726.0,29704.0,0.11613045632839203,0.031877048313617706,0.07673981785774231,0.11443762481212616,0.0,0.0,0.0,0.0,30119.0,11357.0,20920.0,29620.0,0.3390375077724457,-0.06976711516079116,-0.3655771818494175,-0.013253902389798023,0.01814861409366131,-0.003910062834620476,0.15391670167446136
301,5,-0.00017730136460158974,0.00024956537527032197,0.0019675965886563063,-0.014098313637077808,0.05289492756128311,-0.05456361547112465,-0.019161157310009003,0.30307888984680176,0.005240400321781635,-0.04287990555167198,3.36527943611145,0.10837365686893463,0.0,0.0,0.0,-0.06349297612905502,-0.013561079278588295,-0.0,0.0,0.0,0.0,0.0017903009429574013,0.004999999888241291,0.00030071038054302335,30038.0,10364.0,21726.0,29704.0,0.11613045632839203,0.031877048313617706,0.07673981785774231,0.11443762481212616,0.0,0.0,0.0,0.0,30119.0,11357.0,20920.0,29620.0,0.36522966623306274,-0.09496578279555616,-0.351561014568415,-0.013339286702320603,0.05720806494355202,-0.20620734989643097,0.25248777866363525
306,5,-0.00011562210420379415,0.000237761894823052,0.0021225465461611748,0.004405603278428316,0.01752096600830555,-0.038062091916799545,-0.01966159977018833,0.27614155411720276,0.005254700314253569,-0.0675596073269844,3.3781466484069824,0.0510350838303566,0.0,0.0,0.0,-0.021439727395772934,0.004366604145616293,-0.0,0.0,0.0,0.0,-0.00023623292509000748,0.004999999888241291,0.00029080023523420095,32945.0,15264.0,19586.0,28453.0,0.13121099770069122,0.04995196312665939,0.06749877333641052,0.10819096118211746,0.0,0.0,0.0,0.0,30009.0,10441.0,21665.0,29733.0,0.3391147553920746,-0.08242440994026305,-0.3317857894336768,-0.01008541713126377,-0.01713443174958229,-0.0647210106253624,0.21136943995952606
311,5,-0.0001605754514457658,0.00020632693485822529,0.0023579660337418318,-0.004971787799149752,0.009657183662056923,-0.04437735304236412,-0.01966159977018833,0.27614155411720276,0.005254700314253569,-0.0675596073269844,3.3781466484069824,0.0510350838303566,0.0,0.0,0.0,-0.011059597134590149,-0.0052698939107358456,-0.0,0.0,0.0,0.0,-0.00023623292509000748,0.004999999888241291,0.00029080023523420095,32945.0,15264.0,19586.0,28453.0,0.13121099770069122,0.04995196312665939,0.06749877333641052,0.10819096118211746,0.0,0.0,0.0,0.0,30009.0,10441.0,21665.0,29733.0,0.339059054851532,-0.081469144565054,-0.31265177293279706,-0.008199048797987907,0.020679255947470665,-0.03338423743844032,0.24171172082424164
316,5,-0.000192173189134337,0.00020200476865284145,0.0025024008937180042,-0.005915219895541668,0.0035022597294300795,-0.033534057438373566,-0.020598091185092926,0.23516494035720825,0.005168435629457235,-0.07065314799547195,3.382600784301758,0.05703318491578102,0.0,0.0,0.0,-0.0028922175988554955,-0.006291844416409731,-0.0,0.0,0.0,0.0,-0.0011858365032821894,0.004999999888241291,0.0002839447697624564,34396.0,17359.0,18602.0,27721.0,0.13899920880794525,0.05826946720480919,0.06336966902017593,0.10459114611148834,0.0,0.0,0.0,0.0,32492.0,15643.0,19236.0,28936.0,0.33904173970222473,-0.08924736412135033,-0.29794688885797704,-0.009789901016545371,0.02468952350318432,-0.008730234578251839,0.21995854377746582
321,5,-0.00016246108862105757,0.0006639132625423372,0.002714383415877819,0.002385128755122423,-0.06361651420593262,-0.03973779454827309,-0.020598091185092926,0.23516494035720825,0.005168435629457235,-0.07065314799547195,3.382600784301758,0.05703318491578102,0.0,0.0,0.0,0.07848264276981354,0.001987466122955084,-0.0,0.0,0.0,0.0,-0.0011858365032821894,0.004999999888241291,0.0002839447697624564,34396.0,17359.0,18602.0,27721.0,0.13899920880794525,0.05826946720480919,0.06336966902017593,0.10459114611148834,0.0,0.0,0.0,0.0,32492.0,15643.0,19236.0,28936.0,0.3764876425266266,-0.0592576134270718,-0.27310334278037485,-0.009517033879529386,-0.008633379824459553,0.26257795095443726,0.2510189712047577
326,5,-0.00026792840799316764,0.0006986409425735474,0.0028585761319845915,-0.014049887657165527,-0.02394682727754116,-0.03210832551121712,-0.02117648907005787,0.20770861208438873,0.005335852038115263,-0.07746823877096176,3.3632421493530273,0.10884413123130798,0.0,0.0,0.0,0.03410104662179947,-0.014539754949510098,-0.0,0.0,0.0,0.0,0.000471692270366475,0.004999999888241291,0.00027047822368331254,31390.0,12631.0,19835.0,28302.0,0.12306129932403564,0.040000684559345245,0.06855322420597076,0.10744382441043854,0.0,0.0,0.0,0.0,34572.0,17252.0,18706.0,27526.0,0.34355369210243225,-0.0581764871064629,-0.2511782458147659,-0.011368902140419206,0.057779550552368164,0.10426970571279526,0.23857952654361725
331,5,-9.784800204215571e-05,0.00026280857855454087,0.0031220593955367804,0.019596291705965996,0.05383247882127762,-0.046520132571458817,-0.02117648907005787,0.20770861208438873,0.005335852038115263,-0.07746823877096176,3.3632421493530273,0.10884413123130798,0.0,0.0,0.0,-0.06407361477613449,0.018328089267015457,-0.0,0.0,0.0,0.0,0.000471692270366475,0.004999999888241291,0.00027047822368331254,31390.0,12631.0,19835.0,28302.0,0.12306129932403564,0.040000684559345245,0.06855322420597076,0.10744382441043854,0.0,0.0,0.0,0.0,34572.0,17252.0,18706.0,27526.0,0.36734452843666077,-0.08648495112243405,-0.2502557486831079,-0.006805503384340149,-0.07776061445474625,-0.2092929184436798,0.2944924533367157
336,5,-8.684863132657483e-05,0.0003352424828335643,0.0032779243774712086,0.007418799679726362,0.006008997559547424,-0.03577713295817375,-0.022191505879163742,0.1675078421831131,0.005257815588265657,-0.07912121713161469,3.395542860031128,0.040974538773298264,0.0,0.0,0.0,-0.005797148682177067,0.007413828745484352,-0.0,0.0,0.0,0.0,0.0034976834431290627,0.004999999888241291,0.00027682053041644394,29377.0,10618.0,25621.0,33921.0,0.11279407888650894,0.03276684880256653,0.09450563043355942,0.13642962276935577,0.0,0.0,0.0,0.0,29279.0,10775.0,25504.0,34012.0,0.3390486240386963,-0.08706270272238247,-0.23795168750518494,-0.0077462116798766275,-0.029092224314808846,-0.017498396337032318,0.2743656635284424
341,5,2.4963675969047472e-05,0.0004808650119230151,0.003487879643216729,0.017879363149404526,-0.01858445443212986,-0.040126875042915344,-0.022191505879163742,0.1675078421831131,0.005257815588265657,-0.07912121713161469,3.395542860031128,0.040974538773298264,0.0,0.0,0.0,0.02695239521563053,0.01813545823097229,-0.0,0.0,0.0,0.0,0.0034976834431290627,0.004999999888241291,0.00027682053041644394,29377.0,10618.0,25621.0,33921.0,0.11279407888650894,0.03276684880256653,0.09450563043355942,0.13642962276935577,0.0,0.0,0.0,0.0,29279.0,10775.0,25504.0,34012.0,0.34116131067276,-0.07881095527547258,-0.22657839591977427,-0.00918333432990764,-0.07158026844263077,0.08184829354286194,0.302621066570282
346,5,0.00023411419533658773,0.0007397925946861506,0.0035461096558719873,0.03464487940073013,-0.041825201362371445,-0.020190278068184853,-0.02262941375374794,0.14160902798175812,0.005201293155550957,-0.04921606183052063,3.1181445121765137,0.10908644646406174,0.0,0.0,0.0,0.05395695939660072,0.032928042113780975,-0.0,0.0,0.0,0.0,0.0034596805926412344,0.004999999888241291,0.0002518979017622769,34723.0,17170.0,19038.0,27573.0,0.14077535271644592,0.05750340595841408,0.0651904046535492,0.10386968404054642,0.0,0.0,0.0,0.0,34918.0,16938.0,19260.0,27355.0,0.3676949441432953,-0.054909854673990836,-0.2062535061653933,-0.007761222351533275,-0.13990359008312225,0.17647980153560638,0.25406262278556824
351,5,0.00011017841461580247,0.0005118516855873168,0.0037618002388626337,-0.006957544479519129,0.019364170730113983,-0.036253754049539566,-0.02262941375374794,0.14160902798175812,0.005201293155550957,-0.04921606183052063,3.1181445121765137,0.10908644646406174,0.0,0.0,0.0,-0.023010022938251495,-0.006929647643119097,-0.0,0.0,0.0,0.0,0.0034596805926412344,0.004999999888241291,0.0002518979017622769,34723.0,17170.0,19038.0,27573.0,0.14077535271644592,0.05750340595841408,0.0651904046535492,0.10386968404054642,0.0,0.0,0.0,0.0,34918.0,16938.0,19260.0,27355.0,0.33913150429725647,-0.0731248342369517,-0.19340619843418727,-0.006177376865169008,0.02719215303659439,-0.06946276873350143,0.31649214029312134
357,5,-0.00012391165364533663,0.00036676970194093883,0.0035250207874923944,-0.03485987335443497,0.026120729744434357,0.022272977977991104,-0.02337554097175598,0.10469846427440643,0.005223289597779512,-0.07495039701461792,3.1106414794921875,0.01984061300754547,0.0,0.0,0.0,-0.030751768499612808,-0.03412366658449173,-0.0,0.0,0.0,0.0,-0.001153253368102014,0.004999999888241291,0.0002594466204755008,34147.0,17829.0,18394.0,28211.0,0.13765183091163635,0.06018507480621338,0.0625087320804596,0.1069931834936142,0.0,0.0,0.0,0.0,29212.0,11397.0,21119.0,30718.0,0.3551511764526367,-0.05945737017147211,-0.15409554179341903,-0.01869923536038374,0.14017364382743835,-0.09720725566148758,0.15136703848838806
362,5,0.00014449923764914274,0.0005972390645183623,0.004195949994027615,0.02711956389248371,-0.024429496377706528,-0.08724821358919144,-0.02337554097175598,0.10469846427440643,0.005223289597779512,-0.07495039701461792,3.1106414794921875,0.01984061300754547,0.0,0.0,0.0,-0.030724195763468742,-0.03413151949644089,-0.0,0.0,0.0,0.0,-0.001153253368102014,0.004999999888241291,0.0002594466204755008,34147.0,17829.0,18394.0,28211.0,0.13765183091163635,0.06018507480621338,0.0625087320804596,0.1069931834936142,0.0,0.0,0.0,0.0,29212.0,11397.0,21119.0,30718.0,0.3510969877243042,-0.06355931344734582,-0.1668240497225522,-0.005432985403575822,-0.1093251183629036,0.10646568238735199,0.5006744861602783
367,5,0.00018152390839532018,0.0006448217900469899,0.004332215059548616,0.01331932283937931,-0.013990426436066628,-0.04525155574083328,-0.02388344332575798,0.08240806311368942,0.004963984712958336,-0.03763027861714363,2.7996771335601807,0.06755056977272034,0.0,0.0,0.0,0.021576715633273125,0.01385783776640892,-0.0,0.0,0.0,0.0,0.0018821570556610823,0.004999999888241291,0.00022733531659469008,29618.0,11011.0,21434.0,30319.0,0.11400441080331802,0.03415318951010704,0.07545701414346695,0.11755701154470444,0.0,0.0,0.0,0.0,31447.0,13675.0,18924.0,28249.0,0.33914509415626526,-0.062032566811464414,-0.15620690672968665,-0.004560361630244573,-0.054382000118494034,0.06514201313257217,0.38963788747787476
372,5,0.00014865028788335621,0.0008083387510851026,0.004728137981146574,-0.0006065106717869639,-0.02708950638771057,-0.06900466233491898,-0.02388344332575798,0.08240806311368942,0.004963984712958336,-0.03763027861714363,2.7996771335601807,0.06755056977272034,0.0,0.0,0.0,0.03883661329746246,-0.00036914582597091794,-0.0,0.0,0.0,0.0,0.0018821570556610823,0.004999999888241291,0.00022733531659469008,29618.0,11011.0,21434.0,30319.0,0.11400441080331802,0.03415318951010704,0.07545701414346695,0.11755701154470444,0.0,0.0,0.0,0.0,31447.0,13675.0,18924.0,28249.0,0.3434668481349945,-0.04754347876766908,-0.15412095877637286,-0.003221237211222257,0.0014663628535345197,0.11870546638965607,0.48244190216064453
377,5,0.00042588627547957003,0.0009307112777605653,0.004718251060694456,0.03863108530640602,-0.025259001180529594,-0.019317248836159706,-0.024416064843535423,0.051413603127002716,0.00494002178311348,-0.053753599524497986,2.3749799728393555,0.03926301375031471,0.0,0.0,0.0,0.03502659499645233,0.037725407630205154,-0.0,0.0,0.0,0.0,0.0001641785493120551,0.004999999888241291,0.0002354807365918532,31223.0,13999.0,18630.0,28485.0,0.12219472229480743,0.04510258138179779,0.0634874477982521,0.10834652185440063,0.0,0.0,0.0,0.0,29646.0,11693.0,22010.0,31261.0,0.3602963387966156,-0.04343852225831555,-0.14787507374613332,-0.00521361342072597,-0.15718480944633484,0.11231540888547897,0.3476516902446747
382,5,0.00028884728089906275,0.000857930164784193,0.004725380800664425,-0.0075961328111588955,0.002611654344946146,-0.0067933304235339165,-0.024416064843535423,0.051413603127002716,0.00494002178311348,-0.053753599524497986,2.3749799728393555,0.03926301375031471,0.0,0.0,0.0,0.00020759178732987493,-0.007247889880090952,-0.0,0.0,0.0,0.0,0.0001641785493120551,0.004999999888241291,0.0002354807365918532,31223.0,13999.0,18630.0,28485.0,0.12219472229480743,0.04510258138179779,0.0634874477982521,0.10834652185440063,0.0,0.0,0.0,0.0,29646.0,11693.0,22010.0,31261.0,0.3390425145626068,-0.04577588783958034,-0.13511725125747415,-0.0015199894380393192,0.02844121865928173,0.0006266242708079517,0.3248138129711151
387,5,0.00024446003953926265,0.0008135208045132458,0.004909800365567207,-0.008493054658174515,0.007000804878771305,-0.027856748551130295,-0.024873333051800728,0.03314543515443802,0.004788720048964024,-0.05524379387497902,2.037942886352539,0.037558481097221375,0.0,0.0,0.0,-0.005612789187580347,-0.008208252489566803,-0.0,0.0,0.0,0.0,0.0020663493778556585,0.004999999888241291,0.00022885171347297728,29619.0,11563.0,22115.0,31287.0,0.11401106417179108,0.03612338751554489,0.07846041023731232,0.1225239485502243,0.0,0.0,0.0,0.0,29394.0,11998.0,21761.0,31505.0,0.3390503525733948,-0.05486761366391626,-0.12552428654073655,-0.0028175738590558845,0.03220990672707558,-0.016942664980888367,0.40826350450515747
392,5,0.0003075153799727559,0.0008470051106996834,0.004976560361683369,0.006279829423874617,-0.0025875638239085674,-0.017703421413898468,-0.024873333051800728,0.03314543515443802,0.004788720048964024,-0.05524379387497902,2.037942886352539,0.037558481097221375,0.0,0.0,0.0,0.007239954080432653,0.006965499371290207,-0.0,0.0,0.0,0.0,0.0020663493778556585,0.004999999888241291,0.00022885171347297728,29619.0,11563.0,22115.0,31287.0,0.11401106417179108,0.03612338751554489,0.07846041023731232,0.1225239485502243,0.0,0.0,0.0,0.0,29394.0,11998.0,21761.0,31505.0,0.3390507102012634,-0.051969565435078954,-0.11812080404453203,-0.002370432951775893,-0.027333062142133713,0.021854279562830925,0.39709725975990295
397,5,0.0005555398529395461,0.0009706694399937987,0.004880854394286871,0.03660737723112106,-0.01808926835656166,0.00808780174702406,-0.024873333051800728,0.03314543515443802,0.004788720048964024,-0.05524379387497902,2.037942886352539,0.037558481097221375,0.0,0.0,0.0,0.02680913917720318,0.03652314469218254,-0.0,0.0,0.0,0.0,0.0020663493778556585,0.004999999888241291,0.00022885171347297728,29619.0,11563.0,22115.0,31287.0,0.11401106417179108,0.03612338751554489,0.07846041023731232,0.1225239485502243,0.0,0.0,0.0,0.0,29394.0,11998.0,21761.0,31505.0,0.35557615756988525,-0.044109612052245936,-0.11211821163529734,-0.0041554667762777105,-0.1502223014831543,0.08485235273838043,0.3365744650363922
402,5,0.0006594712613150477,0.0010843019699677825,0.005090304650366306,0.025532610714435577,-0.021335329860448837,-0.026896707713603973,-0.025150204077363014,0.017523081973195076,0.004655555821955204,-0.028708195313811302,1.905740737915039,0.026071546599268913,0.0,0.0,0.0,0.03175025433301926,0.026392534375190735,-0.0,0.0,0.0,0.0,0.0009146180236712098,0.004999999888241291,0.00018916868430096656,28787.0,11263.0,21496.0,31356.0,0.10984266549348831,0.03504768759012222,0.07572973519563675,0.12288597226142883,0.0,0.0,0.0,0.0,28844.0,11142.0,21594.0,31302.0,0.3494511842727661,-0.0367522738544527,-0.10962640657420586,-0.00675393187987363,-0.10668036341667175,0.09875158220529556,0.45931756496429443
407,5,0.0007050518179312348,0.0010981358354911208,0.005138765089213848,0.014041061513125896,-0.008337350562214851,-0.014853444881737232,-0.025150204077363014,0.017523081973195076,0.004655555821955204,-0.028708195313811302,1.905740737915039,0.026071546599268913,0.0,0.0,0.0,0.015605174005031586,0.015582656487822533,-0.0,0.0,0.0,0.0,0.0009146180236712098,0.004999999888241291,0.00018916868430096656,28787.0,11263.0,21496.0,31356.0,0.10984266549348831,0.03504768759012222,0.07572973519563675,0.12288597226142883,0.0,0.0,0.0,0.0,28844.0,11142.0,21594.0,31302.0,0.33911606669425964,-0.034796211139005585,-0.10440133609213113,-0.007830904353344471,-0.06115270033478737,0.04711379483342171,0.43982428312301636
412,5,0.0006886926130391657,0.001077187480404973,0.005089750979095697,0.0019220311660319567,0.0004315625410526991,0.0024059265851974487,-0.025514677166938782,-0.002286704024299979,0.004538233391940594,-0.013040421530604362,1.4909436702728271,0.03847143426537514,0.0,0.0,0.0,0.004056338686496019,0.003259745193645358,-0.0,0.0,0.0,0.0,0.0018054782412946224,0.004999999888241291,0.000162629978149198,30257.0,13037.0,19479.0,29469.0,0.11723975092172623,0.04150012880563736,0.06704549491405487,0.11325708776712418,0.0,0.0,0.0,0.0,29898.0,13202.0,19335.0,29831.0,0.3390381932258606,-0.0362675322529983,-0.10099314378887675,-0.0040686461009972925,-0.012791285291314125,0.012244006618857384,0.4067073464393616
417,5,0.0006576933665201068,0.0008744134102016687,0.004820182919502258,-0.0037632882595062256,0.028517842292785645,0.0384613573551178,-0.025514677166938782,-0.002286704024299979,0.004538233391940594,-0.013040421530604362,1.4909436702728271,0.03847143426537514,0.0,0.0,0.0,-0.03342222794890404,-0.002529687946662307,-0.0,0.0,0.0,0.0,0.0018054782412946224,0.004999999888241291,0.000162629978149198,30257.0,13037.0,19479.0,29469.0,0.11723975092172623,0.04150012880563736,0.06704549491405487,0.11325708776712418,0.0,0.0,0.0,0.0,29898.0,13202.0,19335.0,29831.0,0.33955731987953186,-0.035461704984775765,-0.08872371552485886,-0.008630312838723973,0.009936266578733921,-0.10100537538528442,0.3129478991031647
423,5,0.0004116857307963073,0.0009342576959170401,0.004693981260061264,-0.03557005152106285,0.0001771487295627594,0.029206575825810432,-0.025775521993637085,-0.0119852339848876,0.004500873852521181,-0.006935026030987501,1.0148228406906128,0.008922149427235126,0.0,0.0,0.0,0.00417436333373189,-0.03439197689294815,-0.0,0.0,0.0,0.0,0.001419319654814899,0.004999999888241291,0.00016263860743492842,29061.0,12859.0,20131.0,30259.0,0.11120902746915817,0.040840018540620804,0.06981635838747025,0.11725083738565445,0.0,0.0,0.0,0.0,30038.0,12754.0,21640.0,31309.0,0.34795936942100525,-0.03778303610265968,-0.07148483700215337,0.0029899879741185453,0.13847772777080536,0.012933681719005108,0.3537523150444031
428,5,0.0005863963742740452,0.001243237522430718,0.0048278504982590675,0.01378847099840641,-0.04320402443408966,-0.009979705326259136,-0.025775521993637085,-0.0119852339848876,0.004500873852521181,-0.006935026030987501,1.0148228406906128,0.008922149427235126,0.0,0.0,0.0,0.004246955271810293,-0.03436916321516037,-0.0,0.0,0.0,0.0,0.001419319654814899,0.004999999888241291,0.00016263860743492842,29061.0,12859.0,20131.0,30259.0,0.11120902746915817,0.040840018540620804,0.06981635838747025,0.11725083738565445,0.0,0.0,0.0,0.0,30038.0,12754.0,21640.0,31309.0,0.3615255057811737,-0.0175439945136268,-0.07536870437284082,-0.00020068252197568545,-0.060103774070739746,0.1885370910167694,0.4874044954776764
433,5,-4.933730451739393e-05,0.00016777680139057338,0.004343773238360882,-0.08486617356538773,0.1376032829284668,0.06477690488100052,-0.02593262493610382,-0.02169683389365673,0.004461743403226137,-0.01544725801795721,0.5358235239982605,0.007768105715513229,0.0,0.0,0.0,-0.1316271275281906,-0.0635722428560257,-0.0,0.0,0.0,0.0,-0.0002614707627799362,0.0024135333951562643,0.00014389828720595688,27126.0,20308.0,21722.0,24775.0,0.1016988605260849,0.07057607173919678,0.07672147452831268,0.09054523706436157,0.0,0.0,0.0,0.0,28578.0,13765.0,20483.0,29769.0,0.4639478921890259,-0.07433125072576675,-0.04453053412971179,-0.0017722723915022892,0.33818739652633667,-0.5408437252044678,0.2705863416194916
438,5,0.00013362313620746136,0.0006619283813051879,0.004730978049337864,0.00015461012662854046,-0.02790023200213909,-0.03477555140852928,-0.02593262493610382,-0.02169683389365673,0.004461743403226137,-0.01544725801795721,0.5358235239982605,0.007768105715513229,0.0,0.0,0.0,0.040481675416231155,0.0007479964988306165,-0.0,0.0,0.0,0.0,-0.0002614707627799362,0.0024135333951562643,0.00014389828720595688,27126.0,20308.0,21722.0,24775.0,0.1016988605260849,0.07057607173919678,0.07672147452831268,0.09054523706436157,0.0,0.0,0.0,0.0,28578.0,13765.0,20483.0,29769.0,0.34471723437309265,-0.05200055720495425,-0.05051865886523186,-0.010909473151691825,-0.0029818981420248747,0.12417919188737869,0.5886454582214355
443,5,0.00015082093887031078,0.0007320011500269175,0.004726208280771971,0.0024540750309824944,-0.018180256709456444,-0.009764926508069038,-0.02606131136417389,-0.02374822460114956,0.004338936880230904,0.011808495968580246,-0.306684285402298,-0.0004018980835098773,0.0,0.0,0.0,0.04052963852882385,0.0007560292142443359,-0.0,0.0,0.0,0.0,0.00273827463388443,3.092088445555419e-05,0.00012977774895261973,22053.0,19956.0,29352.0,27114.0,0.07818636298179626,0.0690675675868988,0.11266627907752991,0.10163840651512146,0.0,0.0,0.0,0.0,26240.0,21409.0,22683.0,23737.0,0.33917251229286194,-0.04806339315118835,-0.05534275957949888,-0.007759721481692985,-0.012315583415329456,0.08588137477636337,0.5279713869094849
448,5,0.00021604268113151193,0.0007859873003326356,0.004710923880338669,0.00986726675182581,-0.013012138195335865,-0.0007896455936133862,-0.02606131136417389,-0.02374822460114956,0.004338936880230904,0.011808495968580246,-0.306684285402298,-0.0004018980835098773,0.0,0.0,0.0,0.021778728812932968,0.010805971920490265,-0.0,0.0,0.0,0.0,0.00273827463388443,3.092088445555419e-05,0.00012977774895261973,22053.0,19956.0,29352.0,27114.0,0.07818636298179626,0.0690675675868988,0.11266627907752991,0.10163840651512146,0.0,0.0,0.0,0.0,26240.0,21409.0,22683.0,23737.0,0.3391338288784027,-0.04900308894305283,-0.060623837163896147,-0.009770136097302675,-0.042404282838106155,0.06574824452400208,0.5181843042373657
453,5,0.00017157741240225732,0.0008114043739624321,0.004712462425231934,-0.0032649580389261246,-0.007462030742317438,-0.000452337582828477,-0.02604036033153534,-0.018943024799227715,0.004385022912174463,-0.0072633023373782635,-0.8183733820915222,-0.038961123675107956,0.0,0.0,0.0,0.014553575776517391,-0.002631974406540394,-0.0,0.0,0.0,0.0,0.0021786063443869352,-0.0037438080180436373,0.0001133843106799759,15724.0,25459.0,32349.0,20449.0,0.05174901336431503,0.09374431520700455,0.1280653476715088,0.07117820531129837,0.0,0.0,0.0,0.0,19745.0,22275.0,31250.0,25063.0,0.3390706777572632,-0.04933670950799579,-0.06481672146786659,-0.01041914663623913,0.01032754871994257,0.04393301531672478,0.5346259474754333
458,5,0.00019854753918480128,0.0007984181866049767,0.004642692394554615,0.002796330489218235,-0.0004205499426461756,0.00963213387876749,-0.02604036033153534,-0.018943024799227715,0.004385022912174463,-0.0072633023373782635,-0.8183733820915222,-0.038961123675107956,0.0,0.0,0.0,0.00527670793235302,0.0036008688621222973,-0.0,0.0,0.0,0.0,0.0021786063443869352,-0.0037438080180436373,0.0001133843106799759,15724.0,25459.0,32349.0,20449.0,0.05174901336431503,0.09374431520700455,0.1280653476715088,0.07117820531129837,0.0,0.0,0.0,0.0,19745.0,22275.0,31250.0,25063.0,0.33904051780700684,-0.05572571745279552,-0.07590277188351346,-0.0068784968887626525,-0.014130267314612865,0.01592932641506195,0.5207602977752686
463,5,0.0002334035816602409,0.0007429636898450553,0.00457620108500123,0.0057187448255717754,0.007637470494955778,0.012198429554700851,-0.025994954630732536,-0.006720815785229206,0.0043031745590269566,0.026798449456691742,-1.2321211099624634,-0.009897047653794289,0.0,0.0,0.0,-0.0054328348487615585,0.0066481949761509895,-0.0,0.0,0.0,0.0,0.0015525175258517265,-0.004999999888241291,7.861605990910903e-05,14977.0,27259.0,32374.0,17723.0,0.048839494585990906,0.10234349966049194,0.1281992346048355,0.05975202098488808,0.0,0.0,0.0,0.0,14811.0,26183.0,32456.0,20346.0,0.33904609084129333,-0.05686099260777947,-0.08374493562811672,-0.006947497714507453,-0.026088368147611618,-0.01639777608215809,0.5293547511100769
