timestamp,dt,pos_x,pos_y,pos_z,vel_x,vel_y,vel_z,roll,pitch,yaw,agv_x,agv_y,agv_z,x_ref,y_ref,z_ref,roll_ref,pitch_ref,yaw_ref,x_vel_ref,y_vel_ref,z_vel_ref,x_torque,y_torque,z_torque,w0,w1,w2,w3,u0,u1,u2,u3,m0req,m1req,m2req,m3req,thrust0,thrust1,thrust2,thrust3,thrust_ref,roll_vicon,pitch_vicon,yaw_vicon,acc_x,acc_y,acc_z
5,5,0.0,0.0,0.0,0.004067093599587679,-0.003949664067476988,0.005303448066115379,-0.08654239773750305,0.0022159109357744455,0.0017814233433455229,0.0005571341025643051,-0.0017472902545705438,-0.0012481188168749213,0.0,0.0,0.0,0.00402610469609499,0.004145841114223003,-0.0,0.0,0.0,0.0,0.0028527257964015007,-5.768524351879023e-05,5.2579911425709724e-05,0.0,0.0,0.0,0.0,0.0,0.0,0.0,0.0,0.0,0.0,0.0,0.0,0.0,0.0,0.0,0.0,0.33903926610946655,-0.10795155244652103,0.00166238413854196,0.1229192624240844,-0.016268374398350716,0.01579865626990795,-0.015910344198346138
24,19,0.0,0.0,0.0,0.00042459083488211036,-0.0005651244428008795,0.0009991435799747705,-0.08657539635896683,0.0021906679030507803,0.001785367727279663,0.002056990284472704,-0.002175880130380392,-0.004139316733926535,0.0,0.0,0.0,0.0005760696367360651,0.00043281426769681275,-0.0,0.0,0.0,0.0,0.0029701809398829937,6.507353100460023e-05,5.2373074140632525e-05,0.0,0.0,0.0,0.0,0.0,0.0,0.0,0.0,0.0,0.0,0.0,0.0,0.0,0.0,0.0,0.0,0.33903369307518005,-0.10994896840893675,0.0014535279921150238,0.12262577720137306,-0.0016983633395284414,0.002260497771203518,-0.0029974307399243116
29,5,0.0,0.0,0.0,0.0024919777642935514,-0.0034702743869274855,0.017194349318742752,-0.08657539635896683,0.0021906679030507803,0.001785367727279663,0.002056990284472704,-0.002175880130380392,-0.004139316733926535,0.0,0.0,0.0,0.0035374604631215334,0.0025402368046343327,-0.0,0.0,0.0,0.0,0.0029701809398829937,6.507353100460023e-05,5.2373074140632525e-05,0.0,0.0,0.0,0.0,0.0,0.0,0.0,0.0,0.0,0.0,0.0,0.0,0.0,0.0,0.0,0.0,0.33903682231903076,-0.10573129120795471,0.0015514392620917274,0.12348782470195244,-0.009967911057174206,0.013881097547709942,-0.051583047956228256
35,5,0.0,0.0,0.0,0.0024919777642935514,-0.0034702743869274855,0.017194349318742752,-0.08657539635896683,0.0021906679030507803,0.001785367727279663,0.002056990284472704,-0.002175880130380392,-0.004139316733926535,0.0,0.0,0.0,0.0035374604631215334,0.0025402368046343327,-0.0,0.0,0.0,0.0,0.0029701809398829937,6.507353100460023e-05,5.2373074140632525e-05,0.0,0.0,0.0,0.0,0.0,0.0,0.0,0.0,0.0,0.0,0.0,0.0,0.0,0.0,0.0,0.0,0.33903682231903076,-0.10573129120795471,0.0015514392620917274,0.12348782470195244,-0.009967911057174206,0.013881097547709942,-0.051583047956228256
40,5,0.0,0.0,0.0,-0.0028993019368499517,0.0002783582895062864,-0.005780154839158058,-0.08657539635896683,0.0021906679030507803,0.001785367727279663,0.002056990284472704,-0.002175880130380392,-0.004139316733926535,0.0,0.0,0.0,-0.000283748289803043,-0.0029554469510912895,-0.0,0.0,0.0,0.0,0.0028613638132810593,-4.6941469918238e-05,6.302567635430023e-05,20012.0,19066.0,27777.0,26682.0,0.06930740177631378,0.06530764698982239,0.10486415028572083,0.09955449402332306,0.0,0.0,0.0,0.0,0.0,0.0,0.0,0.0,0.3390350937843323,-0.10957857650647652,0.0027086728569061065,0.12240163804241502,0.011597207747399807,-0.0011134331580251455,0.017340464517474174
45,5,0.00014268362428992987,0.00028205825947225094,-0.0001014762747217901,0.01910591684281826,-0.039404649287462234,0.01247263140976429,-0.08656184375286102,0.0021764030680060387,0.0019404311897233129,0.008553431369364262,-0.0058616893365979195,0.0408606119453907,0.0,0.0,0.0,0.05793416500091553,0.018746057525277138,-0.0,0.0,0.0,0.0,0.002944535342976451,-2.695797593332827e-05,0.00010619160457281396,20426.0,18413.0,28252.0,26393.0,0.07107912749052048,0.06258689612150192,0.10719690471887589,0.09817389398813248,0.0,0.0,0.0,0.0,19946.0,19138.0,27724.0,26731.0,0.35689443349838257,-0.08796881414144121,-0.007747477292437079,0.12793940832417736,-0.07730060070753098,0.1593521237373352,-0.0391252338886261
50,5,0.00012783441343344748,0.0003436822444200516,6.0961072449572384e-05,0.0036528855562210083,-0.020448753610253334,-0.018999438732862473,-0.08656184375286102,0.0021764030680060387,0.0019404311897233129,0.008553431369364262,-0.0058616893365979195,0.0408606119453907,0.0,0.0,0.0,0.032103270292282104,0.003934193402528763,-0.0,0.0,0.0,0.0,0.002944535342976451,-2.695797593332827e-05,0.00010619160457281396,20426.0,18413.0,28252.0,26393.0,0.07107912749052048,0.06258689612150192,0.10719690471887589,0.09817389398813248,0.0,0.0,0.0,0.0,19946.0,19138.0,27724.0,26731.0,0.33921101689338684,-0.08211263658668586,-0.004164515774696781,0.12853068503753773,-0.015438110567629337,0.08399631828069687,0.05783126503229141
56,6,0.00013920660421717912,0.0003812037466559559,0.00012357310333754867,0.0026879722718149424,-0.01138763315975666,-0.0144655155017972,-0.08653585612773895,0.002362492959946394,0.001914066495373845,-0.017409808933734894,-0.005512664094567299,-0.04665536805987358,0.0,0.0,0.0,0.018349558115005493,0.002970696659758687,-0.0,0.0,0.0,0.0,0.0029576686210930347,-7.976285996846855e-05,3.15025718009565e-05,18635.0,17014.0,29963.0,30943.0,0.06350871175527573,0.05687651410698891,0.11574762314558029,0.12075225263834,0.0,0.0,0.0,0.0,18193.0,17266.0,29484.0,31569.0,0.3390921950340271,-0.08108275322588539,-0.0029264779026077123,0.1278978656695964,-0.011657326482236385,0.048005811870098114,0.0452578142285347
61,5,0.0008270946564152837,0.00046460673911496997,-0.0006980160833336413,0.09711071848869324,-0.015092710964381695,0.11068283021450043,-0.08653585612773895,0.002362492959946394,0.001914066495373845,-0.017409808933734894,-0.005512664094567299,-0.04665536805987358,0.0,0.0,0.0,0.020192306488752365,0.08362298458814621,-0.0,0.0,0.0,0.0,0.0029576686210930347,-7.976285996846855e-05,3.15025718009565e-05,18635.0,17014.0,29963.0,30943.0,0.06350871175527573,0.05687651410698891,0.11574762314558029,0.12075225263834,0.0,0.0,0.0,0.0,18193.0,17266.0,29484.0,31569.0,0.4071396589279175,-0.08796867002005798,-0.03978071237502386,0.1123395442786946,-0.3935143053531647,0.0634252279996872,-0.3421536087989807
67,6,0.0005383637035265565,0.00046413461677730083,-0.00030755429179407656,-0.011289115063846111,-0.004461715463548899,-0.021459802985191345,-0.08653585612773895,0.002362492959946394,0.001914066495373845,-0.017409808933734894,-0.005512664094567299,-0.04665536805987358,0.0,0.0,0.0,0.00802545715123415,-0.01061231829226017,-0.0,0.0,0.0,0.0,0.0029576686210930347,-7.976285996846855e-05,3.15025718009565e-05,18635.0,17014.0,29963.0,30943.0,0.06350871175527573,0.05687651410698891,0.11574762314558029,0.12075225263834,0.0,0.0,0.0,0.0,18193.0,17266.0,29484.0,31569.0,0.3390636146068573,-0.08045897129777546,-0.015795416238942397,0.1255866731402789,0.04164322465658188,0.020996907725930214,0.058300990611314774
72,5,9.653806046117097e-06,1.0827597179741133e-05,-0.0006829549092799425,-0.07740612328052521,0.06212446838617325,0.046118151396512985,-0.08674223721027374,0.0020321588963270187,0.0018312089378014207,-0.0035676180850714445,0.05614035949110985,0.051648013293743134,0.0,0.0,0.0,-0.07907112687826157,-0.06583341956138611,-0.0,0.0,0.0,0.0,0.0048213223926723,0.0009128074743784964,0.00011798075138358399,19796.0,16010.0,29122.0,28096.0,0.06838925927877426,0.05287471413612366,0.11151637881994247,0.10643073171377182,0.0,0.0,0.0,0.0,18193.0,17266.0,29484.0,31569.0,0.40726906061172485,-0.11783295119484627,-0.004289325343990578,0.12596576517008187,0.3091300427913666,-0.24793493747711182,-0.1525992900133133
77,5,-8.12262951512821e-05,5.349052662495524e-05,-0.0005414216429926455,-0.03594505041837692,0.01266453042626381,-0.005979213863611221,-0.08674223721027374,0.0020321588963270187,0.0018312089378014207,-0.0035676180850714445,0.05614035949110985,0.051648013293743134,0.0,0.0,0.0,-0.01840607263147831,-0.035421837121248245,-0.0,0.0,0.0,0.0,0.0048213223926723,0.0009128074743784964,0.00011798075138358399,19796.0,16010.0,29122.0,28096.0,0.06838925927877426,0.05287471413612366,0.11151637881994247,0.10643073171377182,0.0,0.0,0.0,0.0,18193.0,17266.0,29484.0,31569.0,0.350960910320282,-0.1094296734980018,0.0024675048438378188,0.12896138539598595,0.14383089542388916,-0.04983817785978317,0.005211758892983198
82,5,-0.00033221289049834013,4.956452903570607e-05,-0.000555823149625212,-0.07979942113161087,-0.031320035457611084,-0.06668739020824432,-0.08645688742399216,0.00216641160659492,0.0012894606916233897,0.022339070215821266,-0.05155745521187782,-0.07472702860832214,0.0,0.0,0.0,0.041403498500585556,-0.07029684633016586,-0.0,0.0,0.0,0.0,0.0038217196706682444,-0.0001511013542767614,-0.00010625206050463021,16950.0,19293.0,27974.0,28919.0,0.05661816895008087,0.06626129895448685,0.1058303639292717,0.1105012372136116,0.0,0.0,0.0,0.0,25724.0,19313.0,28505.0,34102.0,0.39491915702819824,-0.11472121503751923,0.01240755358657759,0.13034547308711167,0.3207753002643585,0.12608934938907623,0.18549491465091705
87,5,-0.000496373453643173,0.00024316772760357708,-0.0005614073015749454,-0.04692230001091957,-0.03650045767426491,-0.019224433228373528,-0.08642120659351349,0.002269221469759941,0.0015877003315836191,-0.015052133239805698,0.013675764203071594,0.0038675148971378803,0.0,0.0,0.0,0.051695436239242554,-0.04435686022043228,-0.0,0.0,0.0,0.0,0.0035201427526772022,0.002655358985066414,0.00011515896039782092,26796.0,17891.0,28829.0,33949.0,0.10010602325201035,0.06043865531682968,0.11005426198244095,0.13658340275287628,0.0,0.0,0.0,0.0,19269.0,22795.0,28401.0,25805.0,0.371367484331131,-0.0999610315342315,0.029748026699653103,0.13485233501553706,0.19033905863761902,0.14799344539642334,0.04135160520672798
92,5,-0.00037596968468278646,0.00012965951464138925,-0.0004989196313545108,0.0027798365335911512,0.004941013175994158,-0.014515608549118042,-0.08642120659351349,0.002269221469759941,0.0015877003315836191,-0.015052133239805698,0.013675764203071594,0.0038675148971378803,0.0,0.0,0.0,-0.007036698050796986,0.0023186912294477224,-0.0,0.0,0.0,0.0,0.0035201427526772022,0.002655358985066414,0.00011515896039782092,26796.0,17891.0,28829.0,33949.0,0.10010602325201035,0.06043865531682968,0.11005426198244095,0.13658340275287628,0.0,0.0,0.0,0.0,19269.0,22795.0,28401.0,25805.0,0.33904290199279785,-0.11047423264108236,0.01655482547376334,0.13228532947840296,-0.009097808972001076,-0.018407927826046944,0.026822881773114204
97,5,-0.0003410352219361812,0.00020069464517291635,-0.0005144846509210765,0.005724775139242411,-0.008462614379823208,-0.0021755804773420095,-0.08642120659351349,0.002269221469759941,0.0015877003315836191,-0.015052133239805698,0.013675764203071594,0.0038675148971378803,0.0,0.0,0.0,0.013634930364787579,0.0053467415273189545,-0.0,0.0,0.0,0.0,0.0035201427526772022,0.002655358985066414,0.00011515896039782092,26796.0,17891.0,28829.0,33949.0,0.10010602325201035,0.06043865531682968,0.11005426198244095,0.13658340275287628,0.0,0.0,0.0,0.0,19269.0,22795.0,28401.0,25805.0,0.3390699625015259,-0.10700643418439822,0.01588685972882802,0.13288310078937862,-0.02098081447184086,0.03567047044634819,-0.012204177677631378
102,5,-0.0003410352219361812,0.00020069464517291635,-0.0005144846509210765,0.005724775139242411,-0.008462614379823208,-0.0021755804773420095,-0.0865936204791069,0.002358083613216877,0.0015123961493372917,-0.015090840868651867,-0.004383702762424946,0.054059986025094986,0.0,0.0,0.0,0.01365641038864851,0.005322407465428114,-0.0,0.0,0.0,0.0,0.0022979394998401403,-0.0013459870824590325,6.0866303101647645e-05,20026.0,22042.0,29509.0,24659.0,0.06936541944742203,0.07813660055398941,0.11345621198415756,0.09000297635793686,0.0,0.0,0.0,0.0,17954.0,19969.0,33774.0,27990.0,0.33907002210617065,-0.10700643418439822,0.01588685972882802,0.13288310078937862,-0.020884642377495766,0.035727065056562424,-0.014017736539244652
107,5,-0.00021579746680799872,0.000323598476825282,-0.00045608289656229317,0.012373578734695911,-0.014874733984470367,-0.011272305622696877,-0.0865936204791069,0.002358083613216877,0.0015123961493372917,-0.015090840868651867,-0.004383702762424946,0.054059986025094986,0.0,0.0,0.0,0.023761415854096413,0.012266836129128933,-0.0,0.0,0.0,0.0,0.0022979394998401403,-0.0013459870824590325,6.0866303101647645e-05,20026.0,22042.0,29509.0,24659.0,0.06936541944742203,0.07813660055398941,0.11345621198415756,0.09000297635793686,0.0,0.0,0.0,0.0,17954.0,19969.0,33774.0,27990.0,0.33915483951568604,-0.10061607702931447,0.014014520320758844,0.13059177346245124,-0.04813704639673233,0.06217039003968239,0.012355069629848003
112,5,-0.0001470618008170277,0.0005680635222233832,-0.0007626880542375147,0.013335066847503185,-0.03868752717971802,0.0395430363714695,-0.08648469299077988,0.00240683788433671,0.0015550252282992005,0.03782584145665169,-0.0006601475761272013,-0.01725037582218647,0.0,0.0,0.0,0.05815676599740982,0.012771411798894405,-0.0,0.0,0.0,0.0,0.003306186990812421,4.5931195927551016e-05,7.444324000971392e-05,16727.0,21353.0,32869.0,28765.0,0.05572253838181496,0.07510033994913101,0.13080942630767822,0.1097349151968956,0.0,0.0,0.0,0.0,19712.0,18418.0,27632.0,27656.0,0.3546884059906006,-0.07870970695949409,0.018027749762017094,0.12854479180455686,-0.05233900994062424,0.15897361934185028,-0.14619137346744537
118,5,-0.0002418364310869947,0.00043966571683995426,-0.000324060907587409,-0.009267927147448063,0.0063694315031170845,-0.04954489320516586,-0.08648469299077988,0.00240683788433671,0.0015550252282992005,0.03782584145665169,-0.0006601475761272013,-0.01725037582218647,0.0,0.0,0.0,-0.008365906774997711,-0.009856428019702435,-0.0,0.0,0.0,0.0,0.003306186990812421,4.5931195927551016e-05,7.444324000971392e-05,16727.0,21353.0,32869.0,28765.0,0.05572253838181496,0.07510033994913101,0.13080942630767822,0.1097349151968956,0.0,0.0,0.0,0.0,19712.0,18418.0,27632.0,27656.0,0.3390619456768036,-0.0901099193058155,0.02004521642631146,0.1269765435298235,0.0386783592402935,-0.021885624155402184,0.12533946335315704
123,5,-0.0002263494534417987,0.000429538224125281,-0.0002425304555799812,-0.0006122009363025427,0.003328678896650672,-0.026277730241417885,-0.0863308385014534,0.0022590605076402426,0.0016602346440777183,-0.005182390101253986,-0.00537155894562602,0.03347348794341087,0.0,0.0,0.0,-0.0036914183292537928,-0.0010275609092786908,-0.0,0.0,0.0,0.0,0.003306186990812421,4.5931195927551016e-05,7.444324000971392e-05,19741.0,18044.0,28436.0,27136.0,0.06815338879823685,0.061064962297677994,0.10810571163892746,0.10174592584371567,0.0,0.0,0.0,0.0,20033.0,17881.0,28003.0,27457.0,0.33903607726097107,-0.08877075155571103,0.021490194282466922,0.12673017697353514,0.004032602999359369,-0.009655915200710297,0.05559027940034866
128,5,-0.00018204556545242667,0.00042058477993123233,-0.0002254050923511386,0.006018884479999542,0.002252088161185384,-0.010280869901180267,-0.0863308385014534,0.0022590605076402426,0.0016602346440777183,-0.005182390101253986,-0.00537155894562602,0.03347348794341087,0.0,0.0,0.0,-0.0020188114140182734,0.00578315882012248,-0.0,0.0,0.0,0.0,0.003306186990812421,4.5931195927551016e-05,7.444324000971392e-05,19741.0,18044.0,28436.0,27136.0,0.06815338879823685,0.061064962297677994,0.10810571163892746,0.10174592584371567,0.0,0.0,0.0,0.0,20033.0,17881.0,28003.0,27457.0,0.33903995156288147,-0.08847579140596219,0.017936588584844055,0.126663064613798,-0.022693367674946785,-0.005281302146613598,0.006996024865657091
133,5,-0.0006598216714337468,0.0005582889425568283,-0.0003080252790823579,-0.06508298963308334,-0.018602954223752022,0.008482566103339195,-0.08634912222623825,0.0021178056485950947,0.0013379044830799103,-0.04001016169786453,-0.018880004063248634,0.014088273979723454,0.0,0.0,0.0,-0.0019757249392569065,0.005770725663751364,-0.0,0.0,0.0,0.0,0.0036730796564370394,0.00029351795092225075,-3.385781747056171e-05,18813.0,17851.0,28078.0,28474.0,0.06424890458583832,0.06027306243777275,0.10633885860443115,0.10829409956932068,0.0,0.0,0.0,0.0,19569.0,16957.0,29038.0,27598.0,0.3390399217605591,-0.08574340527408353,0.06163115473338593,0.12980314034901322,-0.02264457941055298,-0.005168585572391748,0.006240917835384607
138,5,-5.305650847731158e-05,0.0005827851709909737,-0.0005961242713965476,0.06542222201824188,-0.009010359644889832,0.04287862777709961,-0.08634912222623825,0.0021178056485950947,0.0013379044830799103,-0.04001016169786453,-0.018880004063248634,0.014088273979723454,0.0,0.0,0.0,0.014114860445261002,0.05993407219648361,-0.0,0.0,0.0,0.0,0.0036730796564370394,0.00029351795092225075,-3.385781747056171e-05,18813.0,17851.0,28078.0,28474.0,0.06424890458583832,0.06027306243777275,0.10633885860443115,0.10829409956932068,0.0,0.0,0.0,0.0,19569.0,16957.0,29038.0,27598.0,0.3763447403907776,-0.08590640044231793,0.0320289009424552,0.13285126668571554,-0.26088109612464905,0.040985193103551865,-0.15972094237804413
143,5,-0.0003563587961252779,0.0005199528532102704,-0.0004944900283589959,-0.022835655137896538,0.006093418691307306,-0.0013652037596330047,-0.08642580360174179,0.0024714504834264517,0.001472198055125773,0.03793929144740105,0.0178418830037117,-0.02460179477930069,0.0,0.0,0.0,-0.007516751531511545,-0.023946478962898254,-0.0,0.0,0.0,0.0,0.002801209455356002,0.00015403506404254586,0.000116706381959375,19571.0,20561.0,27500.0,26032.0,0.06743567436933517,0.07166098803281784,0.1035115048289299,0.0964537188410759,0.0,0.0,0.0,0.0,19723.0,20493.0,26966.0,26501.0,0.3391404151916504,-0.07782225059426515,0.05120432169136351,0.13435701505247435,0.09398394823074341,-0.019669625908136368,-0.027218420058488846
148,5,-0.0003051087260246277,4.6085569920251146e-05,-0.0010580042144283652,0.00032431381987407804,0.06816943734884262,0.07848243415355682,-0.08642580360174179,0.0024714504834264517,0.001472198055125773,0.03793929144740105,0.0178418830037117,-0.02460179477930069,0.0,0.0,0.0,-0.09290295094251633,-0.00026082349359057844,-0.0,0.0,0.0,0.0,0.002801209455356002,0.00015403506404254586,0.000116706381959375,19571.0,20561.0,27500.0,26032.0,0.06743567436933517,0.07166098803281784,0.1035115048289299,0.0964537188410759,0.0,0.0,0.0,0.0,19723.0,20493.0,26966.0,26501.0,0.37873488664627075,-0.10581466864821133,0.021670226308123253,0.1458965908917203,0.0011383907403796911,-0.2706691324710846,-0.2769959270954132
153,5,-0.0002552180376369506,0.00010093540186062455,-0.0010573067702353,0.007081992924213409,0.012771856039762497,0.023447083309292793,-0.08646060526371002,0.002513681538403034,0.001574742142111063,0.0036609405651688576,0.010306577198207378,0.0034829324577003717,0.0,0.0,0.0,-0.018629567697644234,0.006656184326857328,-0.0,0.0,0.0,0.0,0.003261188743636012,0.0022032354027032852,6.418795237550512e-05,24340.0,17672.0,27676.0,31553.0,0.08852680772542953,0.059543903917074203,0.10437098890542984,0.1239045038819313,0.0,0.0,0.0,0.0,20083.0,19330.0,27047.0,27126.0,0.3390999436378479,-0.1045170576481061,0.019344201710633998,0.1442599324394724,-0.026119252666831017,-0.04873853549361229,-0.11502695083618164
158,5,-0.000248129537794739,0.00015594068099744618,-0.0010234126821160316,0.0031169867143034935,-0.003869181964546442,0.0022889564279466867,-0.08646060526371002,0.002513681538403034,0.001574742142111063,0.0036609405651688576,0.010306577198207378,0.0034829324577003717,0.0,0.0,0.0,0.0069512720219790936,0.0026065835263580084,-0.0,0.0,0.0,0.0,0.003261188743636012,0.0022032354027032852,6.418795237550512e-05,24340.0,17672.0,27676.0,31553.0,0.08852680772542953,0.059543903917074203,0.10437098890542984,0.1239045038819313,0.0,0.0,0.0,0.0,20083.0,19330.0,27047.0,27126.0,0.33904293179512024,-0.10374734340151603,0.017626652770773812,0.14199014467272075,-0.010227760300040245,0.018185030668973923,-0.05487604811787605
163,5,6.827003380749375e-05,-1.036245703289751e-05,-0.0005835009505972266,0.045231036841869354,0.02212168462574482,-0.060900963842868805,-0.08626893162727356,0.0022507274989038706,0.0014662046451121569,-0.0018306986894458532,-0.021016685292124748,0.009657243266701698,0.0,0.0,0.0,-0.031069358810782433,0.04312852770090103,-0.0,0.0,0.0,0.0,-0.0001882256765384227,-0.00043534065480344,7.370648381765932e-05,26086.0,25683.0,26810.0,24019.0,0.09670714288949966,0.09479891508817673,0.10017410665750504,0.08705281466245651,0.0,0.0,0.0,0.0,24038.0,17909.0,27906.0,31418.0,0.3619091212749481,-0.11406626027465518,-0.007461394700676357,0.12433143486266755,-0.18051202595233917,-0.08673198521137238,0.1376446932554245
168,5,0.00019806726777460426,-0.00020939222304150462,-0.0007067893166095018,0.03174092248082161,0.03450067341327667,-0.0010099145583808422,-0.08626893162727356,0.0022507274989038706,0.0014662046451121569,-0.0018306986894458532,-0.021016685292124748,0.009657243266701698,0.0,0.0,0.0,-0.049642808735370636,0.030679618939757347,-0.0,0.0,0.0,0.0,-0.0001882256765384227,-0.00043534065480344,7.370648381765932e-05,26086.0,25683.0,26810.0,24019.0,0.09670714288949966,0.09479891508817673,0.10017410665750504,0.08705281466245651,0.0,0.0,0.0,0.0,24038.0,17909.0,27906.0,31418.0,0.35913312435150146,-0.12639881789339358,-0.01717893570620747,0.12181768853914177,-0.12734684348106384,-0.1374453455209732,-0.04559069126844406
173,5,0.00019806726777460426,-0.00020939222304150462,-0.0007067893166095018,0.03174092248082161,0.03450067341327667,-0.0010099145583808422,-0.08626893162727356,0.0022507274989038706,0.0014662046451121569,-0.0018306986894458532,-0.021016685292124748,0.009657243266701698,0.0,0.0,0.0,-0.04965892434120178,0.03068982996046543,-0.0,0.0,0.0,0.0,-0.0001882256765384227,-0.00043534065480344,7.370648381765932e-05,26086.0,25683.0,26810.0,24019.0,0.09670714288949966,0.09479891508817673,0.10017410665750504,0.08705281466245651,0.0,0.0,0.0,0.0,24038.0,17909.0,27906.0,31418.0,0.35914909839630127,-0.12639881789339358,-0.01717893570620747,0.12181768853914177,-0.12739478051662445,-0.1374960094690323,-0.047728728502988815
178,5,0.00017021196254063398,-0.0001566199352964759,-0.0005594432586804032,0.007008017506450415,0.00509654451161623,-0.014670650474727154,-0.08622752130031586,0.002534596249461174,0.0015071111265569925,-0.036710064858198166,-0.014817582443356514,0.02970358170568943,0.0,0.0,0.0,-0.007496790494769812,0.007222846616059542,-0.0,0.0,0.0,0.0,0.0030973872635513544,0.00015400222036987543,4.790385355590843e-05,19825.0,18424.0,28400.0,26769.0,0.06850975751876831,0.06263165175914764,0.10792876780033112,0.09997278451919556,0.0,0.0,0.0,0.0,26355.0,25433.0,26089.0,24743.0,0.3390519618988037,-0.12226587106896165,-0.01409460130243484,0.12258567639710465,-0.028342943638563156,-0.019612278789281845,-0.00662429491057992
183,5,6.622345972573385e-05,5.716790838050656e-05,-0.00032114036730490625,-0.012455985881388187,-0.028401333838701248,-0.037763599306344986,-0.08622752130031586,0.002534596249461174,0.0015071111265569925,-0.036710064858198166,-0.014817582443356514,0.02970358170568943,0.0,0.0,0.0,0.04343753680586815,-0.012549254111945629,-0.0,0.0,0.0,0.0,0.0030973872635513544,0.00015400222036987543,4.790385355590843e-05,19825.0,18424.0,28400.0,26769.0,0.06850975751876831,0.06263165175914764,0.10792876780033112,0.09997278451919556,0.0,0.0,0.0,0.0,26355.0,25433.0,26089.0,24743.0,0.34518590569496155,-0.11676873511937354,-0.00993961757249495,0.12182644614067392,0.05008812993764877,0.11561793833971024,0.06421095877885818
189,5,3.145878145005554e-05,3.360148548381403e-05,-0.0002679654280655086,-0.00860385037958622,-0.005221100524067879,-0.018773574382066727,-0.086374931037426,0.002744031371548772,0.0015630369307473302,-0.0016458304598927498,-0.027706103399395943,0.00040660344529896975,0.0,0.0,0.0,0.008703453466296196,-0.00888669304549694,-0.0,0.0,0.0,0.0,0.0012106645153835416,0.0007362965261563659,1.8504284525988623e-05,24168.0,21791.0,25643.0,26728.0,0.08773720264434814,0.07702533900737762,0.09460875391960144,0.09977807104587555,0.0,0.0,0.0,0.0,19362.0,18888.0,28785.0,26377.0,0.33905982971191406,-0.11319757295948206,-0.00936578249613653,0.12420527186219142,0.034872300922870636,0.022769387811422348,0.0070589762181043625
194,5,-8.736351446714252e-05,0.00017989949265029281,-0.00014959262625779957,-0.019216276705265045,-0.02204805240035057,-0.022204263135790825,-0.086374931037426,0.002744031371548772,0.0015630369307473302,-0.0016458304598927498,-0.027706103399395943,0.00040660344529896975,0.0,0.0,0.0,0.03431206941604614,-0.019625753164291382,-0.0,0.0,0.0,0.0,0.0012106645153835416,0.0007362965261563659,1.8504284525988623e-05,24168.0,21791.0,25643.0,26728.0,0.08773720264434814,0.07702533900737762,0.09460875391960144,0.09977807104587555,0.0,0.0,0.0,0.0,19362.0,18888.0,28785.0,26377.0,0.34372860193252563,-0.10355047733128903,-0.00076489615877137,0.1243582683181196,0.07802712917327881,0.09096605330705643,0.018183454871177673
199,5,3.6340476071927696e-05,-7.46712539694272e-05,-0.0005203645559959114,0.01155367586761713,0.0290254894644022,0.04524678736925125,-0.08627137541770935,0.0028231374453753233,0.0014775017043575644,0.004225658718496561,0.012996441684663296,0.013525495305657387,0.0,0.0,0.0,-0.04320363700389862,0.011486575938761234,-0.0,0.0,0.0,0.0,0.004268771503120661,-0.0004252881626598537,6.739194213878363e-05,17993.0,17697.0,30220.0,28341.0,0.060855042189359665,0.05964459851384163,0.11705128103494644,0.10763519257307053,0.0,0.0,0.0,0.0,24685.0,21330.0,24936.0,27339.0,0.344642698764801,-0.11671363081937995,-0.010687192144411446,0.12374908672629983,-0.04577534645795822,-0.11481526494026184,-0.19022266566753387
204,5,0.0002697609306778759,0.00013640425459016114,-0.0007039792253635824,0.03614496812224388,-0.02084292471408844,0.03928009048104286,-0.08627137541770935,0.0028231374453753233,0.0014775017043575644,0.004225658718496561,0.012996441684663296,0.013525495305657387,0.0,0.0,0.0,0.03138911724090576,0.03546677157282829,-0.0,0.0,0.0,0.0,0.004268771503120661,-0.0004252881626598537,6.739194213878363e-05,17993.0,17697.0,30220.0,28341.0,0.060855042189359665,0.05964459851384163,0.11705128103494644,0.10763519257307053,0.0,0.0,0.0,0.0,24685.0,21330.0,24936.0,27339.0,0.3548247814178467,-0.09999532119752903,-0.03436337381317368,0.1335224262764199,-0.14555154740810394,0.08590876311063766,-0.1766432374715805
209,5,0.0002101256395690143,7.543450919911265e-05,-0.0005221880855970085,0.0024945491459220648,0.0022828869987279177,-0.013666734099388123,-0.08609914779663086,0.0026999779511243105,0.001450674026273191,0.014658655971288681,0.037151869386434555,0.003802667837589979,0.0,0.0,0.0,-0.0026482802350074053,0.0027157047297805548,-0.0,0.0,0.0,0.0,0.003968048375099897,-0.0007307120831683278,5.4060063121141866e-05,17831.0,18578.0,30084.0,27582.0,0.060191452503204346,0.06327039748430252,0.11635918915271759,0.10391029715538025,0.0,0.0,0.0,0.0,17446.0,18337.0,30295.0,28182.0,0.3390360474586487,-0.10010226550691954,-0.031420109023882654,0.13599485974934833,-0.010656451806426048,-0.006927933543920517,-0.017174197360873222
214,5,0.000304115645121783,0.0004381491453386843,-0.0005389039870351553,0.013906965032219887,-0.05009518191218376,-0.001759792328812182,-0.08609914779663086,0.0026999779511243105,0.001450674026273191,0.014658655971288681,0.037151869386434555,0.003802667837589979,0.0,0.0,0.0,0.07282059639692307,0.013507445342838764,-0.0,0.0,0.0,0.0,0.003968048375099897,-0.0007307120831683278,5.4060063121141866e-05,17831.0,18578.0,30084.0,27582.0,0.060191452503204346,0.06327039748430252,0.11635918915271759,0.10391029715538025,0.0,0.0,0.0,0.0,17446.0,18337.0,30295.0,28182.0,0.3651387095451355,-0.07791540094106923,-0.02989460491534253,0.13173736046929593,-0.05693197622895241,0.2047848403453827,-0.05505300313234329
219,5,0.0002861481625586748,5.282691563479602e-05,-0.0006961291655898094,0.0016566418344154954,0.03891655430197716,0.021483587101101875,-0.08603353053331375,0.0026175742968916893,0.0013024273794144392,0.009631549939513206,-0.0392293706536293,-0.018161125481128693,0.0,0.0,0.0,-0.05663806200027466,0.0019436889560893178,-0.0,0.0,0.0,0.0,0.004033201839774847,-0.0006123818457126617,7.65393633628264e-06,16956.0,19275.0,29926.0,27875.0,0.0566437803208828,0.0661836713552475,0.11555910110473633,0.10534478724002838,0.0,0.0,0.0,0.0,20496.0,17412.0,28346.0,30270.0,0.3515697717666626,-0.10107411884576713,-0.031560048357564895,0.13418793052197014,-0.007896366529166698,-0.15347032248973846,-0.12878349423408508
224,5,2.2527876353706233e-05,0.00011406593694118783,-0.00035642285365611315,-0.03640984743833542,0.003101503709331155,-0.041113805025815964,-0.08603353053331375,0.0026175742968916893,0.0013024273794144392,0.009631549939513206,-0.0392293706536293,-0.018161125481128693,0.0,0.0,0.0,-0.003644142299890518,-0.03606438636779785,-0.0,0.0,0.0,0.0,0.004033201839774847,-0.0006123818457126617,7.65393633628264e-06,16956.0,19275.0,29926.0,27875.0,0.0566437803208828,0.0661836713552475,0.11555910110473633,0.10534478724002838,0.0,0.0,0.0,0.0,20496.0,17412.0,28346.0,30270.0,0.34957101941108704,-0.09724289023570225,-0.02405863120410531,0.1359783323674682,0.14588245749473572,-0.009829097427427769,0.061980247497558594
229,5,0.00013153874897398055,-0.00016422403859905899,-0.0006672310992144048,0.004338568542152643,0.03989104926586151,0.03117900900542736,-0.08580368757247925,0.003029255662113428,0.0011739680776372552,0.02180567942559719,-0.03884980455040932,-0.027702515944838524,0.0,0.0,0.0,-0.05832000449299812,0.004357921425253153,-0.0,0.0,0.0,0.0,0.0038925909902900457,0.0009018607088364661,3.1313084036810324e-05,20365.0,17561.0,28285.0,30321.0,0.07081850618124008,0.05908956006169319,0.10735694319009781,0.11756593734025955,0.0,0.0,0.0,0.0,18348.0,17608.0,30889.0,31394.0,0.35293591022491455,-0.11508251033866478,-0.024005938518497826,0.13710547351014227,-0.017771640792489052,-0.15863141417503357,-0.16067849099636078
234,5,0.0001509643770987168,9.566795779392123e-05,-0.0003858668205793947,0.00402115797623992,-0.024417566135525703,-0.03003728948533535,-0.08580368757247925,0.003029255662113428,0.0011739680776372552,0.02180567942559719,-0.03884980455040932,-0.027702515944838524,0.0,0.0,0.0,0.0382276326417923,0.004239048808813095,-0.0,0.0,0.0,0.0,0.0038925909902900457,0.0009018607088364661,3.1313084036810324e-05,20365.0,17561.0,28285.0,30321.0,0.07081850618124008,0.05908956006169319,0.10735694319009781,0.11756593734025955,0.0,0.0,0.0,0.0,18348.0,17608.0,30889.0,31394.0,0.33961933851242065,-0.0988362140916633,-0.026813905225638802,0.1316186570020028,-0.016650842502713203,0.10012492537498474,0.025190986692905426
239,5,6.85307604726404e-05,-2.6518926460994408e-05,-0.00044171963236294687,-0.010334359481930733,0.00978089403361082,-0.0011917968513444066,-0.08550316095352173,0.003128660377115011,0.001045720768161118,0.047296542674303055,0.03668154403567314,-0.006906084716320038,0.0,0.0,0.0,-0.014287716709077358,-0.010506737977266312,-0.0,0.0,0.0,0.0,0.004999999888241291,0.0002638649311847985,1.1366415492375381e-05,18810.0,17135.0,30773.0,31509.0,0.06423632800579071,0.057364288717508316,0.11987696588039398,0.12367486953735352,0.0,0.0,0.0,0.0,18916.0,21799.0,29151.0,25973.0,0.3390869200229645,-0.10637456952859484,-0.024311942274788518,0.13206770352000713,0.04122995585203171,-0.03737986087799072,-0.06335611641407013
244,5,0.00018835590162780136,-0.00014709251991007477,-0.0006901388987898827,0.013675210997462273,0.019814571365714073,0.034421157091856,-0.08550316095352173,0.003128660377115011,0.001045720768161118,0.047296542674303055,0.03668154403567314,-0.006906084716320038,0.0,0.0,0.0,-0.02990388683974743,0.014155115932226181,-0.0,0.0,0.0,0.0,0.004999999888241291,0.0002638649311847985,1.1366415492375381e-05,18810.0,17135.0,30773.0,31509.0,0.06423632800579071,0.057364288717508316,0.11987696588039398,0.12367486953735352,0.0,0.0,0.0,0.0,18916.0,21799.0,29151.0,25973.0,0.33921924233436584,-0.11116353400407389,-0.026447677945908167,0.12879423470489676,-0.055548761039972305,-0.0782470628619194,-0.17558668553829193
249,5,-0.0001867377432063222,0.00011967904720222577,-8.117264951579273e-05,-0.04841054603457451,-0.03140364959836006,-0.07492892444133759,-0.08486881852149963,0.00290227634832263,0.0008248709491454065,0.0492958202958107,0.03356907516717911,-0.017533011734485626,0.0,0.0,0.0,0.04498765990138054,-0.045652322471141815,-0.0,0.0,0.0,0.0,0.002713438356295228,-0.001140832551755011,-2.5359297069371678e-05,18673.0,22037.0,28831.0,26300.0,0.06366551667451859,0.07811462134122849,0.11006274074316025,0.09772718697786331,0.0,0.0,0.0,0.0,17696.0,17769.0,28793.0,28852.0,0.3695359528064728,-0.09541468590436718,-0.005059457694712872,0.12869884813883228,0.19499170780181885,0.12818479537963867,0.15910746157169342
255,5,-4.7910239118209574e-06,-8.87722271727398e-05,-0.0003939514863304794,0.010949377901852131,0.019762083888053894,0.021310359239578247,-0.08486881852149963,0.00290227634832263,0.0008248709491454065,0.0492958202958107,0.03356907516717911,-0.017533011734485626,0.0,0.0,0.0,-0.02969653531908989,0.011083947494626045,-0.0,0.0,0.0,0.0,0.002713438356295228,-0.001140832551755011,-2.5359297069371678e-05,18673.0,22037.0,28831.0,26300.0,0.06366551667451859,0.07811462134122849,0.11006274074316025,0.09772718697786331,0.0,0.0,0.0,0.0,17696.0,17769.0,28793.0,28852.0,0.33920398354530334,-0.10972478053853899,-0.017373917611040332,0.12847846558206727,-0.04349518194794655,-0.07770124077796936,-0.13459280133247375
260,5,-2.830299490597099e-05,-0.00014923789422027767,-0.0008701996994204819,-6.862704140075948e-06,0.014393817633390427,0.07306785136461258,-0.08440978825092316,0.0029530220199376345,0.000688786618411541,0.05946936085820198,-0.036266908049583435,-0.008464894257485867,0.0,0.0,0.0,-0.021641407161951065,-0.00012041437003063038,-0.0,0.0,0.0,0.0,0.004062272142618895,-8.848960533214267e-06,1.1902480764547363e-05,17665.0,17932.0,29072.0,28464.0,0.05951470881700516,0.06060376763343811,0.11126361042261124,0.10824159532785416,0.0,0.0,0.0,0.0,21485.0,20530.0,25419.0,26453.0,0.3391129970550537,-0.11849583429994816,-0.004026124943561216,0.13180968694453726,0.0004725059843622148,-0.0566178523004055,-0.2985261380672455
265,5,5.807853085570969e-05,-1.320928549830569e-05,-0.0002706966770347208,0.012091354466974735,-0.01472585927695036,-0.06201006472110748,-0.08440978825092316,0.0029530220199376345,0.000688786618411541,0.05946936085820198,-0.036266908049583435,-0.008464894257485867,0.0,0.0,0.0,0.023174501955509186,0.012341616675257683,-0.0,0.0,0.0,0.0,0.004062272142618895,-8.848960533214267e-06,1.1902480764547363e-05,17665.0,17932.0,29072.0,28464.0,0.05951470881700516,0.06060376763343811,0.11126361042261124,0.10824159532785416,0.0,0.0,0.0,0.0,21485.0,20530.0,25419.0,26453.0,0.33915048837661743,-0.10950177016490892,-0.012039853756507382,0.12387046501308939,-0.04843096435070038,0.06063393875956535,0.1125403568148613
270,5,-7.674232620047405e-06,-7.890078268246725e-05,-0.0003498764126561582,-0.005577980540692806,0.004779051523655653,-0.007517857011407614,-0.08372436463832855,0.003303908510133624,0.00046631591976620257,0.04235808923840523,-0.05878301337361336,-0.04510897025465965,0.0,0.0,0.0,-0.006798045244067907,-0.005765564739704132,-0.0,0.0,0.0,0.0,0.0016663610003888607,6.990908877924085e-05,-3.473756441962905e-05,20713.0,21765.0,25277.0,26169.0,0.07231710851192474,0.07691246271133423,0.09288662672042847,0.09710322320461273,0.0,0.0,0.0,0.0,21116.0,21347.0,25484.0,25983.0,0.33904707431793213,-0.11110587842228217,-0.016028942092838703,0.12773520872613575,0.022624341771006584,-0.01778426207602024,-0.05312669277191162
275,5,4.7095572881517e-06,-2.4483781089656986e-05,-0.0004888412659056485,6.033644967828877e-05,-0.0061846645548939705,0.017199724912643433,-0.08372436463832855,0.003303908510133624,0.00046631591976620257,0.04235808923840523,-0.05878301337361336,-0.04510897025465965,0.0,0.0,0.0,0.01008178386837244,2.7299020644022676e-07,-0.0,0.0,0.0,0.0,0.0016663610003888607,6.990908877924085e-05,-3.473756441962905e-05,20713.0,21765.0,25277.0,26169.0,0.07231710851192474,0.07691246271133423,0.09288662672042847,0.09710322320461273,0.0,0.0,0.0,0.0,21116.0,21347.0,25484.0,25983.0,0.339050829410553,-0.10282316364648837,-0.016666788173214583,0.12782330921569268,-1.0712135463109007e-06,0.026374343782663345,-0.13066360354423523
280,5,-5.5366479500662535e-05,-2.1861604182049632e-05,-0.0003250834415666759,-0.008392543531954288,-0.002222504001110792,-0.017766177654266357,-0.08372436463832855,0.003303908510133624,0.00046631591976620257,0.04235808923840523,-0.05878301337361336,-0.04510897025465965,0.0,0.0,0.0,0.004026677459478378,-0.008707759901881218,-0.0,0.0,0.0,0.0,0.0016663610003888607,6.990908877924085e-05,-3.473756441962905e-05,20713.0,21765.0,25277.0,26169.0,0.07231710851192474,0.07691246271133423,0.09288662672042847,0.09710322320461273,0.0,0.0,0.0,0.0,21116.0,21347.0,25484.0,25983.0,0.33904919028282166,-0.110145730454275,-0.015324754223628735,0.1258570516593365,0.03417022153735161,0.010534169152379036,-0.025105897337198257
285,5,-2.8672440748778172e-05,-4.5783079258399084e-05,-0.0004989219596609473,0.0012194020673632622,0.0026822553481906652,0.01900753751397133,-0.08373402804136276,0.004047012887895107,0.0003487451176624745,-0.04479381442070007,-0.1715974062681198,-0.016987131908535957,0.0,0.0,0.0,-0.003530179150402546,0.0011268523521721363,-0.0,0.0,0.0,0.0,0.001837104675360024,-0.00038908221176825464,-3.033941175090149e-05,19985.0,21959.0,26497.0,25423.0,0.0691925510764122,0.07776985317468643,0.09866819530725479,0.09357347339391708,0.0,0.0,0.0,0.0,19523.0,22221.0,26751.0,25334.0,0.33903592824935913,-0.11674991714496859,-0.020044385461419748,0.12487009618095833,-0.0044217705726623535,-0.00923497136682272,-0.13923856616020203
290,5,-0.00014155835378915071,0.0001194468786707148,-1.069784403284757e-07,-0.015438207425177097,-0.022327518090605736,-0.06413183361291885,-0.08373402804136276,0.004047012887895107,0.0003487451176624745,-0.04479381442070007,-0.1715974062681198,-0.016987131908535957,0.0,0.0,0.0,0.03481646999716759,-0.01590895466506481,-0.0,0.0,0.0,0.0,0.001837104675360024,-0.00038908221176825464,-3.033941175090149e-05,19985.0,21959.0,26497.0,25423.0,0.0691925510764122,0.07776985317468643,0.09866819530725479,0.09357347339391708,0.0,0.0,0.0,0.0,19523.0,22221.0,26751.0,25334.0,0.3417966365814209,-0.09873327076058476,-0.005439987611166641,0.12568911036894742,0.06289497762918472,0.09178321808576584,0.11589059978723526
295,5,-0.00011794273450504988,0.00011455630738055333,-8.174434333341196e-05,-0.0013252748176455498,-0.006013575010001659,-0.007810319308191538,-0.08429769426584244,0.006011268123984337,8.878738299245015e-05,-0.05428403615951538,-0.16746897995471954,-0.05319497734308243,0.0,0.0,0.0,0.01014020573347807,-0.0016146646812558174,-0.0,0.0,0.0,0.0,0.0030215538572520018,-0.0008835287299007177,-4.5706310629611835e-05,16774.0,20038.0,28653.0,27731.0,0.05591287463903427,0.06942058354616165,0.10917789489030838,0.10463913530111313,0.0,0.0,0.0,0.0,17225.0,19702.0,28126.0,28183.0,0.3390514850616455,-0.09795516062475841,-0.007975351209548771,0.12636884483524946,0.006336185149848461,0.026527445763349533,-0.0543069988489151
300,5,-5.3435491281561553e-05,0.00033182723564095795,-0.0002768801641650498,0.008633431047201157,-0.03222200274467468,0.024975918233394623,-0.08429769426584244,0.006011268123984337,8.878738299245015e-05,-0.05428403615951538,-0.16746897995471954,-0.05319497734308243,0.0,0.0,0.0,0.04950256273150444,0.008421887643635273,-0.0,0.0,0.0,0.0,0.0030215538572520018,-0.0008835287299007177,-4.5706310629611835e-05,16774.0,20038.0,28653.0,27731.0,0.05591287463903427,0.06942058354616165,0.10917789489030838,0.10463913530111313,0.0,0.0,0.0,0.0,17225.0,19702.0,28126.0,28183.0,0.3477133512496948,-0.09282245288017792,-0.02635212081578688,0.13026470761871314,-0.03385163098573685,0.13269953429698944,-0.15590575337409973
305,5,-0.0002591536904219538,0.00031182297971099615,-0.00017882455722428858,-0.026210518553853035,-0.006866005714982748,-0.006235009524971247,-0.08457393199205399,0.006875006947666407,-3.206391920684837e-05,-0.02667568065226078,-0.049732107669115067,-0.029262017458677292,0.0,0.0,0.0,0.011847961694002151,-0.027003813534975052,-0.0,0.0,0.0,0.0,0.0038971833419054747,-0.0005995227256789804,-3.678172288346104e-05,17867.0,20794.0,27879.0,26915.0,0.06033938005566597,0.07266745716333389,0.10536269098520279,0.1006796583533287,0.0,0.0,0.0,0.0,17501.0,21257.0,28393.0,26280.0,0.3416910171508789,-0.09636035112542408,-0.00876018427707185,0.12979141813031062,0.10677357017993927,0.03123628720641136,-0.061634361743927
310,5,-0.0007245804299600422,0.0005045286961831152,-0.00031785445753484964,-0.07302290201187134,-0.029038606211543083,0.017593681812286377,-0.08457393199205399,0.006875006947666407,-3.206391920684837e-05,-0.02667568065226078,-0.049732107669115067,-0.029262017458677292,0.0,0.0,0.0,0.040345653891563416,-0.06597103178501129,-0.0,0.0,0.0,0.0,0.0038971833419054747,-0.0005995227256789804,-3.678172288346104e-05,17867.0,20794.0,27879.0,26915.0,0.06033938005566597,0.07266745716333389,0.10536269098520279,0.1006796583533287,0.0,0.0,0.0,0.0,17501.0,21257.0,28393.0,26280.0,0.3894127905368805,-0.08630478091720788,0.04114507690444329,0.12240118776443351,0.2968815863132477,0.12115930020809174,-0.135756254196167
315,5,0.0005803735111840069,0.0006085544009692967,-0.0006096745491959155,-0.07302290201187134,-0.029038606211543083,0.017593681812286377,-0.0847274512052536,0.007320462726056576,-0.0003756292862817645,-0.012127149850130081,0.010609048418700695,-0.022873615846037865,0.0,0.0,0.0,0.04075731709599495,-0.06452444940805435,-0.0,0.0,0.0,0.0,0.004181623458862305,0.0008104224689304829,-3.287646541139111e-05,19559.0,16888.0,27458.0,30925.0,0.06738092005252838,0.05637039244174957,0.10330751538276672,0.12065818905830383,0.0,0.0,0.0,0.0,16663.0,19359.0,28797.0,28797.0,0.38786348700523376,-0.08146777676169853,-0.03915600422623263,0.11262928478015649,0.2892182171344757,0.12190739810466766,-0.1411322057247162
320,5,0.00018416944658383727,0.000394240312743932,-0.000589804258197546,-0.07737544178962708,0.021292390301823616,0.00249626487493515,-0.0847274512052536,0.007320462726056576,-0.0003756292862817645,-0.012127149850130081,0.010609048418700695,-0.022873615846037865,0.0,0.0,0.0,-0.026846101507544518,-0.06868363916873932,-0.0,0.0,0.0,0.0,0.004181623458862305,0.0008104224689304829,-3.287646541139111e-05,19559.0,16888.0,27458.0,30925.0,0.06738092005252838,0.05637039244174957,0.10330751538276672,0.12065818905830383,0.0,0.0,0.0,0.0,16663.0,19359.0,28797.0,28797.0,0.3889826238155365,-0.09256018086261791,-0.01779261127426408,0.1078493117475765,0.3088671565055847,-0.08055569976568222,-0.09739941358566284
325,5,0.00042882541310973465,0.0005704091163352132,-0.0005136346444487572,0.011039204895496368,-0.018275920301675797,-0.009914861992001534,-0.08437766879796982,0.006631046533584595,-0.0005665937205776572,0.17891688644886017,0.2135200947523117,-0.01601376384496689,0.0,0.0,0.0,0.030144786462187767,0.011800636537373066,-0.0,0.0,0.0,0.0,0.0031061796471476555,-0.0005849851877428591,-4.349265145719983e-05,21363.0,23161.0,30162.0,29693.0,0.07514727115631104,0.08314312994480133,0.11675547063350677,0.11438316106796265,0.0,0.0,0.0,0.0,20032.0,17297.0,27369.0,30294.0,0.3392113149166107,-0.07962146864279417,-0.030605247850435,0.1122383615048953,-0.046307846903800964,0.078874871134758,-0.06085710600018501
330,5,0.00036943654413335025,0.0005765900714322925,-0.0003668829158414155,-0.005002680700272322,-0.00634810421615839,-0.02351970225572586,-0.08437766879796982,0.006631046533584595,-0.0005665937205776572,0.17891688644886017,0.2135200947523117,-0.01601376384496689,0.0,0.0,0.0,0.011990613304078579,-0.004610168281942606,-0.0,0.0,0.0,0.0,0.0031061796471476555,-0.0005849851877428591,-4.349265145719983e-05,21363.0,23161.0,30162.0,29693.0,0.07514727115631104,0.08314312994480133,0.11675547063350677,0.11438316106796265,0.0,0.0,0.0,0.0,20032.0,17297.0,27369.0,30294.0,0.33906158804893494,-0.07759008032327987,-0.019911287102407207,0.114293625292916,0.018089691177010536,0.03136959671974182,-0.01972341351211071
336,5,0.00020922182011418045,0.000495564250741154,-0.00020589405903592706,-0.02393086440861225,0.009439179673790932,-0.02959435246884823,-0.07703810930252075,0.0011539263650774956,-0.0013024287763983011,0.5244962573051453,0.4405059218406677,-0.039818037301301956,0.0,0.0,0.0,-0.012264326214790344,-0.024117261171340942,-0.0,0.0,0.0,0.0,0.0006287662545219064,-0.0004110866575501859,-7.415482104988769e-05,24727.0,26194.0,26215.0,27624.0,0.09031900763511658,0.09722112119197845,0.09732016921043396,0.10411550104618073,0.0,0.0,0.0,0.0,20603.0,23329.0,30293.0,30063.0,0.33915773034095764,-0.08078604906583912,-0.00016459738781364879,0.11472169945734156,0.09465448558330536,-0.03209352493286133,-0.0004403179627843201
341,5,0.0002230464160675183,0.0005413930048234761,-0.00018467873451299965,-0.00524381548166275,-0.0035842708311975002,-0.011848450638353825,-0.07703810930252075,0.0011539263650774956,-0.0013024287763983011,0.5244962573051453,0.4405059218406677,-0.039818037301301956,0.0,0.0,0.0,0.007807005196809769,-0.005035839509218931,-0.0,0.0,0.0,0.0,0.0006287662545219064,-0.0004110866575501859,-7.415482104988769e-05,24727.0,26194.0,26215.0,27624.0,0.09031900763511658,0.09722112119197845,0.09732016921043396,0.10411550104618073,0.0,0.0,0.0,0.0,20603.0,23329.0,30293.0,30063.0,0.33904823660850525,-0.07378968270390543,0.0026743083345771032,0.11814184386278284,0.019760800525546074,0.020423568785190582,-0.054123036563396454
346,5,0.00016559458163101226,0.0005661507602781057,-0.0001602972042746842,-0.009616401977837086,-0.004541363101452589,-0.006967948749661446,-0.06912989169359207,-0.002557639731094241,-0.0020694511476904154,0.7907549738883972,0.2212631106376648,-0.01749739982187748,0.0,0.0,0.0,0.009388203732669353,-0.009564033709466457,-0.0,0.0,0.0,0.0,0.0009836556855589151,0.0013567074202001095,-0.00011935045768041164,23531.0,21389.0,21788.0,27182.0,0.08482220023870468,0.0752599760890007,0.07701068371534348,0.10196881741285324,0.0,0.0,0.0,0.0,24292.0,27360.0,26257.0,26840.0,0.3390640616416931,-0.07093207515404165,0.00988227802573989,0.1172508135827192,0.037530411034822464,0.02456098422408104,-0.06907908618450165
351,5,0.00012574021820910275,0.0005540247075259686,-0.00010448596731293947,-0.008464531973004341,0.00033523800084367394,-0.009903958067297935,-0.06912989169359207,-0.002557639731094241,-0.0020694511476904154,0.7907549738883972,0.2212631106376648,-0.01749739982187748,0.0,0.0,0.0,0.001967452699318528,-0.00843864306807518,-0.0,0.0,0.0,0.0,0.0009836556855589151,0.0013567074202001095,-0.00011935045768041164,23531.0,21389.0,21788.0,27182.0,0.08482220023870468,0.0752599760890007,0.07701068371534348,0.10196881741285324,0.0,0.0,0.0,0.0,24292.0,27360.0,26257.0,26840.0,0.33904632925987244,-0.06772311865145969,0.01574964433106365,0.11876358828695258,0.03311377018690109,0.005148150492459536,-0.060016002506017685
356,5,0.00012388365576043725,0.0005697699962183833,-4.809800157090649e-05,-0.002799278823658824,-0.0021037713158875704,-0.010865502990782261,-0.06264099478721619,-0.0032148966565728188,-0.0021556210704147816,0.905173122882843,0.0659496858716011,-0.027519896626472473,0.0,0.0,0.0,0.005795707926154137,-0.0026572176720947027,-0.0,0.0,0.0,0.0,0.0002630332310218364,-4.421390622155741e-05,-8.927012095227838e-05,22785.0,23683.0,22635.0,24940.0,0.08144896477460861,0.08551336079835892,0.08077447861433029,0.09131152182817459,0.0,0.0,0.0,0.0,22635.0,22096.0,23148.0,26111.0,0.33904048800468445,-0.06365958015997136,0.019213192000269254,0.12084211640462789,0.01042694691568613,0.015161700546741486,-0.056662485003471375
361,5,0.00024140696041285992,0.0006578215979970992,-0.0003364745352882892,0.015613478608429432,-0.012958354316651821,0.03711306303739548,-0.06264099478721619,-0.0032148966565728188,-0.0021556210704147816,0.905173122882843,0.0659496858716011,-0.027519896626472473,0.0,0.0,0.0,0.02265363186597824,0.01629980280995369,-0.0,0.0,0.0,0.0,0.0002630332310218364,-4.421390622155741e-05,-8.927012095227838e-05,22785.0,23683.0,22635.0,24940.0,0.08144896477460861,0.08551336079835892,0.08077447861433029,0.09131152182817459,0.0,0.0,0.0,0.0,22635.0,22096.0,23148.0,26111.0,0.33916565775871277,-0.047212068116452365,0.018516094889842072,0.1240864950322931,-0.06396657228469849,0.05927559360861778,-0.20513543486595154
366,5,0.0003045637859031558,0.000659414567053318,-0.00035486556589603424,0.01352599821984768,-0.004110524896532297,0.013708665035665035,-0.050615668296813965,-0.002305425237864256,-0.002563673537224531,1.0900319814682007,-0.1935230791568756,-0.03973603993654251,0.0,0.0,0.0,0.00920812040567398,0.014287737198174,-0.0,0.0,0.0,0.0,-0.0006701899110339582,-0.0012688084971159697,-0.00013411040708888322,21874.0,27414.0,22897.0,21696.0,0.07739380747079849,0.10309336334466934,0.0819530263543129,0.0766061320900917,0.0,0.0,0.0,0.0,21730.0,25454.0,23130.0,23695.0,0.3390825688838959,-0.041733012071479815,0.016744551184059178,0.12398675319835355,-0.0560695081949234,0.024092523381114006,-0.1364719718694687
371,5,0.00013269780902191997,0.000704485981259495,-0.0006063301698304713,-0.020003436133265495,-0.007543153129518032,0.039317645132541656,-0.050615668296813965,-0.002305425237864256,-0.002563673537224531,1.0900319814682007,-0.1935230791568756,-0.03973603993654251,0.0,0.0,0.0,0.01463365089148283,-0.020127523690462112,-0.0,0.0,0.0,0.0,-0.0006701899110339582,-0.0012688084971159697,-0.00013411040708888322,21874.0,27414.0,22897.0,21696.0,0.07739380747079849,0.10309336334466934,0.0819530263543129,0.0766061320900917,0.0,0.0,0.0,0.0,21730.0,25454.0,23130.0,23695.0,0.33913859724998474,-0.026125418826919624,0.022444491413256645,0.12227486390526784,0.07899080961942673,0.03829200938344002,-0.21845193207263947
376,5,0.00016372626123484224,0.0006732659530825913,-0.0005582762532867491,-0.0016570475418120623,0.002107859356328845,0.005067745689302683,-0.04130807891488075,-0.0004070056602358818,-0.0027279392816126347,1.2829581499099731,-0.1496986448764801,-0.015480498783290386,0.0,0.0,0.0,-0.00011134137457702309,-0.0013708884362131357,-0.0,0.0,0.0,0.0,-0.0014606458134949207,-0.0016967306146398187,-0.0001021465941448696,23155.0,27956.0,22274.0,20412.0,0.08311733603477478,0.10574008524417877,0.07916703820228577,0.07102186977863312,0.0,0.0,0.0,0.0,22736.0,27170.0,22330.0,21697.0,0.33903393149375916,-0.021012648312505332,0.018558840668314088,0.12159218935099217,0.005379369482398033,-0.00029126930166967213,-0.11721643060445786
381,5,0.00018416404782328755,0.0006681301747448742,-0.0005156020633876324,0.002364176558330655,0.001351361395791173,-0.004454061854630709,-0.04130807891488075,-0.0004070056602358818,-0.0027279392816126347,1.2829581499099731,-0.1496986448764801,-0.015480498783290386,0.0,0.0,0.0,0.0011082155397161841,0.002771613420918584,-0.0,0.0,0.0,0.0,-0.0014606458134949207,-0.0016967306146398187,-0.0001021465941448696,23155.0,27956.0,22274.0,20412.0,0.08311733603477478,0.10574008524417877,0.07916703820228577,0.07102186977863312,0.0,0.0,0.0,0.0,22736.0,27170.0,22330.0,21697.0,0.33903512358665466,-0.014239546798735242,0.014494920144925238,0.12160810872628622,-0.010875838808715343,0.0028991035651415586,-0.09002931416034698
386,5,0.00017007275891955942,0.0006655371398665011,-0.0004675343807321042,-0.0012635283637791872,0.0007684406591579318,-0.008065695874392986,-0.04130807891488075,-0.0004070056602358818,-0.0027279392816126347,1.2829581499099731,-0.1496986448764801,-0.015480498783290386,0.0,0.0,0.0,0.0020676450803875923,-0.0009343101410195231,-0.0,0.0,0.0,0.0,-0.0014606458134949207,-0.0016967306146398187,-0.0001021465941448696,23155.0,27956.0,22274.0,20412.0,0.08311733603477478,0.10574008524417877,0.07916703820228577,0.07102186977863312,0.0,0.0,0.0,0.0,22736.0,27170.0,22330.0,21697.0,0.33903446793556213,-0.0082175923618402,0.013486442316286146,0.12200137476225192,0.00366589380428195,0.005410296376794577,-0.08034933358430862
391,5,0.0001640917907934636,0.000654361501801759,-0.00041921279625967145,-0.0012163935462012887,0.0017951199552044272,-0.009184733033180237,-0.025794822722673416,0.0011633782414719462,-0.002832133788615465,1.3052321672439575,-0.05382051318883896,-0.007376236375421286,0.0,0.0,0.0,0.0005489665782079101,-0.0008823305834084749,-0.0,0.0,0.0,0.0,-0.0013535675825551152,-0.0004814155399799347,-0.00010629188182065263,23372.0,28322.0,22036.0,20030.0,0.08410083502531052,0.10754349082708359,0.07810919731855392,0.06938537210226059,0.0,0.0,0.0,0.0,23473.0,28149.0,21624.0,20546.0,0.3390337824821472,-0.0034365803363832115,0.013961008719544156,0.12202789520308044,0.0034619381185621023,0.0014374059392139316,-0.07802630215883255
396,5,0.00015974872803781182,0.0006085563218221068,-0.00036171716055832803,-0.0009729476878419518,0.006951258983463049,-0.01080480869859457,-0.025794822722673416,0.0011633782414719462,-0.002832133788615465,1.3052321672439575,-0.05382051318883896,-0.007376236375421286,0.0,0.0,0.0,-0.0073671345598995686,-0.0006286088027991354,-0.0,0.0,0.0,0.0,-0.0013535675825551152,-0.0004814155399799347,-0.00010629188182065263,23372.0,28322.0,22036.0,20030.0,0.08410083502531052,0.10754349082708359,0.07810919731855392,0.06938537210226059,0.0,0.0,0.0,0.0,23473.0,28149.0,21624.0,20546.0,0.33904287219047546,-0.0003045533567801895,0.013215689851721085,0.1223942095119125,0.0024663417134433985,-0.0192713662981987,-0.07382658123970032
401,5,0.00018015137175098062,0.0005780587089248002,-0.00029366734088398516,0.002564486814662814,0.006355040706694126,-0.012768418528139591,-0.015520282089710236,0.0014519018586724997,-0.002970596542581916,1.3263545036315918,0.11812882870435715,-0.02204146981239319,0.0,0.0,0.0,-0.006457591895014048,0.003020455362275243,-0.0,0.0,0.0,0.0,-0.002159802010282874,-0.0005697624874301255,-0.00012052176316501573,25229.0,27614.0,19560.0,21334.0,0.09266278147697449,0.10406921803951263,0.0673871636390686,0.0750197321176529,0.0,0.0,0.0,0.0,23473.0,28149.0,21624.0,20546.0,0.33904221653938293,0.0035219264080923545,0.012114631644986822,0.12279472036233818,-0.01185266301035881,-0.016892084851861,-0.06822676211595535
406,5,0.00019764139142353088,0.0005561527796089649,-0.00023359409533441067,0.0032179479021579027,0.004973346833139658,-0.012240777723491192,-0.015520282089710236,0.0014519018586724997,-0.002970596542581916,1.3263545036315918,0.11812882870435715,-0.02204146981239319,0.0,0.0,0.0,-0.0043285139836370945,0.003727208124473691,-0.0,0.0,0.0,0.0,-0.002159802010282874,-0.0005697624874301255,-0.00012052176316501573,25229.0,27614.0,19560.0,21334.0,0.09266278147697449,0.10406921803951263,0.0673871636390686,0.0750197321176529,0.0,0.0,0.0,0.0,23473.0,28149.0,21624.0,20546.0,0.3390391170978546,0.006784908502966467,0.011766832918564183,0.12319707501650963,-0.01462563220411539,-0.011323502287268639,-0.07000382989645004
411,5,5.9409980167401955e-05,0.000594260694924742,-0.00024717525229789317,-0.01838701218366623,-0.003843105398118496,-0.001770873088389635,-5.966643584542908e-05,0.00034543254878371954,-0.0030718096531927586,1.2696287631988525,0.15950071811676025,-0.005579541437327862,0.0,0.0,0.0,0.009300117380917072,-0.01849094033241272,-0.0,0.0,0.0,0.0,-0.0028022793121635914,0.00022759979765396565,-7.639785326318815e-05,27501.0,27297.0,17715.0,20933.0,0.10351807624101639,0.10252780467271805,0.05971672013401985,0.07327186316251755,0.0,0.0,0.0,0.0,26125.0,27711.0,18888.0,20879.0,0.3391062319278717,0.01667616329734604,0.01768018667170267,0.11976762530782355,0.07256659865379333,0.02433476783335209,-0.10247708112001419
417,5,5.7991383073385805e-05,0.0006738881929777563,0.00010916752216871828,-0.005714707542210817,-0.012300780974328518,-0.05041924864053726,-5.966643584542908e-05,0.00034543254878371954,-0.0030718096531927586,1.2696287631988525,0.15950071811676025,-0.005579541437327862,0.0,0.0,0.0,0.02248355932533741,-0.005572847556322813,-0.0,0.0,0.0,0.0,-0.0028022793121635914,0.00022759979765396565,-7.639785326318815e-05,27501.0,27297.0,17715.0,20933.0,0.10351807624101639,0.10252780467271805,0.05971672013401985,0.07327186316251755,0.0,0.0,0.0,0.0,26125.0,27711.0,18888.0,20879.0,0.3391245901584625,0.013264668614460389,0.01695260291562925,0.12112751085565777,0.021867964416742325,0.05882365629076958,0.04793355241417885
422,5,8.180209988495335e-05,0.00014428682334255427,-0.00014868656580802053,0.0016190885799005628,0.0704539567232132,0.020973797887563705,0.009249166585505009,-7.385760545730591e-05,-0.003047601319849491,1.1053035259246826,0.09613965451717377,0.018551776185631752,0.0,0.0,0.0,-0.09419045597314835,0.0017427471466362476,-0.0,0.0,0.0,0.0,-0.0032226834446191788,0.000402776146074757,-7.435072620864958e-05,27760.0,27620.0,17860.0,20140.0,0.10478150844573975,0.10409857332706451,0.0603102408349514,0.06985251605510712,0.0,0.0,0.0,0.0,27327.0,27880.0,17603.0,20580.0,0.3798148036003113,-0.0014638576243498752,0.003941706933241326,0.1279491825780625,-0.007627161685377359,-0.27517929673194885,-0.16973426938056946
427,5,7.380174065474421e-05,9.823829168453813e-05,-4.945536784362048e-05,-0.0006343240384012461,0.027582980692386627,-0.007600228767842054,0.009249166585505009,-7.385760545730591e-05,-0.003047601319849491,1.1053035259246826,0.09613965451717377,0.018551776185631752,0.0,0.0,0.0,-0.03961934894323349,-0.0003596812312025577,-0.0,0.0,0.0,0.0,-0.0032226834446191788,0.000402776146074757,-7.435072620864958e-05,27760.0,27620.0,17860.0,20140.0,0.10478150844573975,0.10409857332706451,0.0603102408349514,0.06985251605510712,0.0,0.0,0.0,0.0,27327.0,27880.0,17603.0,20580.0,0.3401809334754944,0.0005146552825853597,0.0038132978711500187,0.12737112794974853,0.0014149066992104053,-0.10393733531236649,-0.08296234160661697
432,5,0.00016395346028730273,8.362983498955145e-05,-0.00010713821393437684,0.012430942617356777,0.010320077650249004,0.005795529577881098,0.021403539925813675,-0.0012466131011024117,-0.002883221721276641,0.9522011280059814,0.09095881879329681,0.009848551824688911,0.0,0.0,0.0,-0.013358335942029953,0.013099645264446735,-0.0,0.0,0.0,0.0,-0.002944677136838436,0.0005404761177487671,-9.316545038018376e-05,27767.0,27316.0,17418.0,20892.0,0.1048174500465393,0.10261988639831543,0.05850715935230255,0.07309462130069733,0.0,0.0,0.0,0.0,27703.0,27507.0,17444.0,20728.0,0.3390929400920868,0.0012200945914038414,-0.0020174202417626384,0.1263077967671961,-0.05140627548098564,-0.0349491611123085,-0.12417538464069366
437,5,-0.0002905615256167948,5.3060542995808646e-05,5.099834015709348e-05,-0.05990281328558922,0.007375724148005247,-0.020400458946824074,0.021403539925813675,-0.0012466131011024117,-0.002883221721276641,0.9522011280059814,0.09095881879329681,0.009848551824688911,0.0,0.0,0.0,-0.008144823834300041,-0.05602855980396271,-0.0,0.0,0.0,0.0,-0.002944677136838436,0.0005404761177487671,-9.316545038018376e-05,27767.0,27316.0,17418.0,20892.0,0.1048174500465393,0.10261988639831543,0.05850715935230255,0.07309462130069733,0.0,0.0,0.0,0.0,27703.0,27507.0,17444.0,20728.0,0.37124279141426086,0.008155377114325357,0.030728135385162916,0.13124033501939608,0.24060912430286407,-0.023330530151724815,-0.04360387474298477
442,5,4.4216762034920976e-05,5.0342536269454286e-05,-7.991520396899432e-05,0.02889811433851719,0.002593238139525056,0.012207758612930775,0.021403539925813675,-0.0012466131011024117,-0.002883221721276641,0.9522011280059814,0.09095881879329681,0.009848551824688911,0.0,0.0,0.0,-0.0015890031354501843,0.029368674382567406,-0.0,0.0,0.0,0.0,-0.001992048230022192,-0.0003164524387102574,-8.317460014950484e-05,25313.0,26937.0,20344.0,21229.0,0.09305503219366074,0.1007835790514946,0.07072713226079941,0.07455899566411972,0.0,0.0,0.0,0.0,26959.0,27647.0,18305.0,20588.0,0.3428870439529419,0.01380200043870963,0.009518425639231491,0.12795905843832536,-0.11653570085763931,-0.0042039742693305016,-0.14325304329395294
447,5,-4.0284219721797854e-05,-4.4984539272263646e-05,-8.097187674138695e-05,-0.0031607032287865877,0.014123762026429176,0.00381026160903275,0.021403539925813675,-0.0012466131011024117,-0.002883221721276641,0.9522011280059814,0.09095881879329681,0.009848551824688911,0.0,0.0,0.0,-0.019450850784778595,-0.0031081619672477245,-0.0,0.0,0.0,0.0,-0.001992048230022192,-0.0003164524387102574,-8.317460014950484e-05,25313.0,26937.0,20344.0,21229.0,0.09305503219366074,0.1007835790514946,0.07072713226079941,0.07455899566411972,0.0,0.0,0.0,0.0,26959.0,27647.0,18305.0,20588.0,0.33909937739372253,0.016639749499434225,0.01165796291300724,0.12946242446723424,0.012196547351777554,-0.0508866123855114,-0.11831825971603394
