timestamp,dt,pos_x,pos_y,pos_z,vel_x,vel_y,vel_z,roll,pitch,yaw,agv_x,agv_y,agv_z,x_ref,y_ref,z_ref,roll_ref,pitch_ref,yaw_ref,x_vel_ref,y_vel_ref,z_vel_ref,x_torque,y_torque,z_torque,w0,w1,w2,w3,u0,u1,u2,u3,m0req,m1req,m2req,m3req,thrust0,thrust1,thrust2,thrust3,thrust_ref,roll_vicon,pitch_vicon,yaw_vicon,acc_x,acc_y,acc_z
5,5,0.0,0.0,0.0,0.00017721512995194644,-0.005004805512726307,-0.000615976401604712,0.0356382355093956,0.004847224336117506,0.009873023256659508,0.006164489779621363,-0.20533965528011322,-0.033187296241521835,0.0,0.0,0.0,0.005101694259792566,0.0001806474319892004,-0.0,0.0,0.0,0.0,-0.0010106300469487906,-0.0013373709516599774,0.0002470829931553453,0.0,0.0,0.0,0.0,0.0,0.0,0.0,0.0,0.0,0.0,0.0,0.0,0.0,0.0,0.0,0.0,0.33903801441192627,0.014166439149970738,0.017828431663582858,0.04785786342642817,-0.0007088605198077857,0.020019222050905228,0.001847929204814136
29,23,0.0,0.0,0.0,-0.00024908233899623156,-0.006193786393851042,0.00715675251558423,0.0356382355093956,0.004847224336117506,0.009873023256659508,0.006164489779621363,-0.20533965528011322,-0.033187296241521835,0.0,0.0,0.0,0.006313663441687822,-0.0002539065608289093,-0.0,0.0,0.0,0.0,-0.0010106300469487906,-0.0013373709516599774,0.0002470829931553453,0.0,0.0,0.0,0.0,0.0,0.0,0.0,0.0,0.0,0.0,0.0,0.0,0.0,0.0,0.0,0.0,0.3390403687953949,0.013431354052835074,0.014670075315223526,0.04826010683396178,0.0009963293559849262,0.024775145575404167,-0.02147025801241398
34,5,0.0,0.0,0.0,8.24665476102382e-05,0.0015226040268316865,-0.00025806689518503845,0.035699523985385895,0.006375278811901808,0.00952437985688448,0.0021438125986605883,-0.18887098133563995,-0.042838696390390396,0.0,0.0,0.0,-0.0015520926099270582,8.406375854974613e-05,-0.0,0.0,0.0,0.0,-0.0010144802508875728,-0.0013201747788116336,0.0002217157161794603,0.0,0.0,0.0,0.0,0.0,0.0,0.0,0.0,0.0,0.0,0.0,0.0,0.0,0.0,0.0,0.0,0.3390340209007263,0.01017743680169962,0.013756357404768146,0.04889438544733379,-0.0003298661904409528,-0.006090416107326746,0.0007742006564512849
39,5,0.0,0.0,0.0,-0.0015793484635651112,-0.00460478849709034,0.006168284919112921,0.035699523985385895,0.006375278811901808,0.00952437985688448,0.0021438125986605883,-0.18887098133563995,-0.042838696390390396,0.0,0.0,0.0,0.004693933296948671,-0.0016099358908832073,-0.0,0.0,0.0,0.0,-0.0010094220051541924,-0.001314976834692061,0.00018074686522595584,0.0,0.0,0.0,0.0,0.0,0.0,0.0,0.0,0.0,0.0,0.0,0.0,0.0,0.0,0.0,0.0,0.33903777599334717,0.009768929103221514,0.013809935053820032,0.04973835653547936,0.006317393854260445,0.01841915398836136,-0.018504854291677475
45,6,0.0,0.0,0.0,-0.00015534099657088518,0.0002381452068220824,0.004181967582553625,0.035699523985385895,0.006375278811901808,0.00952437985688448,0.0021438125986605883,-0.18887098133563995,-0.042838696390390396,0.0,0.0,0.0,-0.00024275759642478079,-0.00015834963414818048,-0.0,0.0,0.0,0.0,-0.0010094220051541924,-0.001314976834692061,0.00018074686522595584,0.0,0.0,0.0,0.0,0.0,0.0,0.0,0.0,0.0,0.0,0.0,0.0,0.0,0.0,0.0,0.0,0.3390336036682129,0.011532626568396936,0.014296921358952854,0.04989033329403203,0.0006213639862835407,-0.0009525808272883296,-0.012545902281999588
52,7,0.0,0.0,0.0,-0.006698632147163153,-0.003711443394422531,-0.015540395863354206,0.035699523985385895,0.006375278811901808,0.00952437985688448,0.0021438125986605883,-0.18887098133563995,-0.042838696390390396,0.0,0.0,0.0,0.003783220425248146,-0.006828265264630318,-0.0,0.0,0.0,0.0,-0.0010094220051541924,-0.001314976834692061,0.00018074686522595584,0.0,0.0,0.0,0.0,0.0,0.0,0.0,0.0,0.0,0.0,0.0,0.0,0.0,0.0,0.0,0.0,0.3390439450740814,0.0058306130200629375,0.009545749969451992,0.04812541399878665,0.02679452858865261,0.014845773577690125,0.04662118852138519
57,5,0.00012270963634364307,0.0004779810842592269,0.0001421522902091965,0.01014535129070282,-0.06010618805885315,-0.011373385787010193,0.035781994462013245,0.009928010404109955,0.008342880755662918,0.00366478250361979,-0.19010140001773834,-0.051878560334444046,0.0,0.0,0.0,0.003783220425248146,-0.006828265264630318,-0.0,0.0,0.0,0.0,-0.0009843449806794524,-0.0014115561498329043,0.00016463734209537506,24276.0,25355.0,25459.0,18708.0,0.08823217451572418,0.09325215220451355,0.09374336898326874,0.06381267309188843,0.0,0.0,0.0,0.0,24437.0,25207.0,25324.0,18848.0,0.3390439450740814,0.011391831112557827,0.010279652972198176,0.04884627910017123,-0.041317909955978394,0.24329359829425812,0.03625599667429924
62,5,-0.0001062726805685088,0.00045794551260769367,0.00023970195616129786,-0.029013918712735176,-0.015226876363158226,-0.01706896908581257,0.035781994462013245,0.009928010404109955,0.008342880755662918,0.00366478250361979,-0.19010140001773834,-0.051878560334444046,0.0,0.0,0.0,0.023854393512010574,-0.02909291349351406,-0.0,0.0,0.0,0.0,-0.0009843449806794524,-0.0014115561498329043,0.00016463734209537506,24276.0,25355.0,25459.0,18708.0,0.08823217451572418,0.09325215220451355,0.09374336898326874,0.06381267309188843,0.0,0.0,0.0,0.0,24437.0,25207.0,25324.0,18848.0,0.34663262963294983,0.012212499797575462,0.027545291285882473,0.046292214900780226,0.1166699081659317,0.06378992646932602,0.05536804720759392
67,5,-0.0007481247885152698,0.0003695653867907822,0.0007257599500007927,-0.09856347739696503,0.007805155590176582,-0.0731688067317009,0.03578604757785797,0.012212137691676617,0.007368876598775387,-0.006078761070966721,-0.20380598306655884,-0.08459164202213287,0.0,0.0,0.0,-0.009156165644526482,-0.08467371016740799,-0.0,0.0,0.0,0.0,-0.0010236476082354784,-0.0015865094028413296,9.032031812239438e-05,23363.0,26316.0,25010.0,19121.0,0.08405998349189758,0.09780289232730865,0.0916372537612915,0.06553764641284943,0.0,0.0,0.0,0.0,23029.0,26737.0,25060.0,18945.0,0.4073755145072937,0.02329369541035644,0.05810402736173407,0.04652262980539783,0.3987439274787903,-0.02877925895154476,0.2315821498632431
72,5,-0.0007481247885152698,0.0003695653867907822,0.0007257599500007927,-0.09856347739696503,0.007805155590176582,-0.0731688067317009,0.03578604757785797,0.012212137691676617,0.007368876598775387,-0.006078761070966721,-0.20380598306655884,-0.08459164202213287,0.0,0.0,0.0,-0.00913263764232397,-0.0846979171037674,-0.0,0.0,0.0,0.0,-0.0010236476082354784,-0.0015865094028413296,9.032031812239438e-05,23363.0,26316.0,25010.0,19121.0,0.08405998349189758,0.09780289232730865,0.0916372537612915,0.06553764641284943,0.0,0.0,0.0,0.0,23029.0,26737.0,25060.0,18945.0,0.4074074923992157,0.02329369541035644,0.05810402736173407,0.04652262980539783,0.39888906478881836,-0.028707562014460564,0.23334212601184845
77,5,-0.0006373868091031909,0.0003794404910877347,0.0006853343220427632,-0.014065718278288841,0.0009590343106538057,-0.016291053965687752,0.035867054015398026,0.013689324259757996,0.006412150803953409,0.007820716127753258,-0.1529468297958374,-0.143910214304924,0.0,0.0,0.0,-0.0004393498820718378,-0.015403563156723976,-0.0,0.0,0.0,0.0,-0.001073499326594174,-0.0015975604765117168,-4.1395967855351046e-05,22438.0,27331.0,23818.0,20249.0,0.07989739626646042,0.10269186645746231,0.08613141626119614,0.07032326608896255,0.0,0.0,0.0,0.0,23029.0,26737.0,25060.0,18945.0,0.33907386660575867,0.020031411902644722,0.05177176743258558,0.04626520392677615,0.06044836342334747,-0.00114947569090873,0.06481382995843887
82,5,-0.0005617012502625585,0.0005735848098993301,0.0005607670755125582,0.008881724439561367,-0.029788028448820114,0.01189079787582159,0.035867054015398026,0.013689324259757996,0.006412150803953409,0.007820716127753258,-0.1529468297958374,-0.143910214304924,0.0,0.0,0.0,0.046205073595047,0.007933374494314194,-0.0,0.0,0.0,0.0,-0.001073499326594174,-0.0015975604765117168,-4.1395967855351046e-05,22438.0,27331.0,23818.0,20249.0,0.07989739626646042,0.10269186645746231,0.08613141626119614,0.07032326608896255,0.0,0.0,0.0,0.0,23029.0,26737.0,25060.0,18945.0,0.3454538583755493,0.0019055235261378146,0.0303273445085384,0.04522180286302505,-0.031684767454862595,0.12307005375623703,-0.020112747326493263
87,5,-0.0006836054963059723,0.0003944429918192327,0.000656919670291245,-0.014402082189917564,0.016143446788191795,-0.009894127026200294,0.03582412749528885,0.014933979138731956,0.005656973458826542,0.0072176107205450535,-0.07518498599529266,-0.03751157596707344,0.0,0.0,0.0,-0.023533640429377556,-0.015889378264546394,-0.0,0.0,0.0,0.0,-0.0003990677068941295,-0.0020279393065720797,0.00015690286818426102,22925.0,25980.0,27068.0,19454.0,0.08207790553569794,0.09620444476604462,0.10141618549823761,0.0669391006231308,0.0,0.0,0.0,0.0,24832.0,32959.0,30033.0,19993.0,0.33917030692100525,0.021025151287081222,0.051484328658152355,0.046109077639319644,0.062356531620025635,-0.06157603859901428,0.04883888363838196
92,5,-0.0005463067209348083,0.0003387507749721408,0.0005851374007761478,0.014901206828653812,0.01263994351029396,0.007081283256411552,0.035869114100933075,0.015184061601758003,0.00515179056674242,0.0017878927756100893,-0.028835628181695938,0.002666644984856248,0.0,0.0,0.0,-0.018248919397592545,0.014126102440059185,-0.0,0.0,0.0,0.0,-0.0014946326846256852,-0.0035249635111540556,0.00010905389353865758,25637.0,32211.0,30684.0,19250.0,0.09458354860544205,0.12733833491802216,0.11942199617624283,0.06608078628778458,0.0,0.0,0.0,0.0,24197.0,22645.0,26468.0,22068.0,0.3391239047050476,0.026258010014008522,0.04653514679405327,0.047600727969389627,-0.055433422327041626,-0.04774561524391174,5.99930172029417e-05
99,6,-0.0005973490769974887,0.000714347988832742,0.00042201823089271784,-0.002675570547580719,-0.04879162460565567,0.024961067363619804,0.035869114100933075,0.015184061601758003,0.00515179056674242,0.0017878927756100893,-0.028835628181695938,0.002666644984856248,0.0,0.0,0.0,0.07172650098800659,-0.0036281233187764883,-0.0,0.0,0.0,0.0,-0.0014946326846256852,-0.0035249635111540556,0.00010905389353865758,25637.0,32211.0,30684.0,19250.0,0.09458354860544205,0.12733833491802216,0.11942199617624283,0.06608078628778458,0.0,0.0,0.0,0.0,24197.0,22645.0,26468.0,22068.0,0.3624533414840698,0.004015316954071145,0.021899036652668426,0.04286675404868803,0.015181033872067928,0.20023491978645325,-0.056011516600847244
104,5,-0.0006076238350942731,0.0005921117844991386,0.0005065236473456025,-0.0022411353420466185,0.002475576475262642,-0.004342436324805021,0.035869114100933075,0.015184061601758003,0.00515179056674242,0.0017878927756100893,-0.028835628181695938,0.002666644984856248,0.0,0.0,0.0,-0.0020598142873495817,-0.0034800004214048386,-0.0,0.0,0.0,0.0,-0.0014946326846256852,-0.0035249635111540556,0.00010905389353865758,25637.0,32211.0,30684.0,19250.0,0.09458354860544205,0.12733833491802216,0.11942199617624283,0.06608078628778458,0.0,0.0,0.0,0.0,24197.0,22645.0,26468.0,22068.0,0.33903637528419495,0.031717346348512906,0.04236457915945573,0.04398589001000505,0.013655576854944229,-0.005388510413467884,0.03450649604201317
109,5,-0.0005284821381792426,0.0005277873133309186,0.0005043744458816946,0.01040750090032816,0.009748101234436035,-0.0010018430184572935,0.03587236627936363,0.015068587847054005,0.005161320324987173,-0.0042935386300086975,0.06767158955335617,-0.002299981191754341,0.0,0.0,0.0,-0.013260041363537312,0.009488883428275585,-0.0,0.0,0.0,0.0,-0.0017421324737370014,0.0005426214775070548,0.0001497600896982476,24570.0,22243.0,25573.0,23035.0,0.08958955109119415,0.07902833819389343,0.09427885711193085,0.08257508277893066,0.0,0.0,0.0,0.0,27664.0,23982.0,21977.0,20193.0,0.3390786647796631,0.03145868222780254,0.0399140473464302,0.04504439253907119,-0.03723549470305443,-0.0346907339990139,0.026313843205571175
114,5,-0.0005621348391287029,0.0005199348670430481,0.0002644805936142802,-0.0015891344519332051,0.004023777320981026,0.03328458592295647,0.03587236627936363,0.015068587847054005,0.005161320324987173,-0.0042935386300086975,0.06767158955335617,-0.002299981191754341,0.0,0.0,0.0,-0.004468478262424469,-0.0028298029210418463,-0.0,0.0,0.0,0.0,-0.0017421324737370014,0.0005426214775070548,0.0001497600896982476,24570.0,22243.0,25573.0,23035.0,0.08958955109119415,0.07902833819389343,0.09427885711193085,0.08257508277893066,0.0,0.0,0.0,0.0,27664.0,23982.0,21977.0,20193.0,0.33903834223747253,0.027003338330639018,0.0463339557539686,0.04323578014952928,0.011104176752269268,-0.011689620092511177,-0.07834670692682266
119,5,-0.0006421495927497745,0.0006808366742916405,0.00045475162914954126,-0.011678799986839294,-0.02131912112236023,-0.01665256917476654,0.03578988090157509,0.014321832917630672,0.005176786798983812,-0.008815744891762733,0.10182597488164902,0.014300502836704254,0.0,0.0,0.0,0.034594710916280746,-0.013238396495580673,-0.0,0.0,0.0,0.0,-0.0011790388962253928,2.9366610760916956e-05,0.00011942828859901056,27775.0,23779.0,21724.0,20544.0,0.10485288500785828,0.0859529972076416,0.07672901451587677,0.07158909738063812,0.0,0.0,0.0,0.0,28563.0,23098.0,22035.0,20041.0,0.34031397104263306,0.03274669320306947,0.040302097059811116,0.04539033481087159,0.05211092531681061,0.09080328792333603,0.07531828433275223
124,5,-0.0006641041254624724,0.0007185828872025013,0.00045242885244078934,-0.006577275227755308,-0.011680211871862411,-0.004670581314712763,0.03578988090157509,0.014321832917630672,0.005176786798983812,-0.008815744891762733,0.10182597488164902,0.014300502836704254,0.0,0.0,0.0,0.02011748030781746,-0.008151098154485226,-0.0,0.0,0.0,0.0,-0.0011790388962253928,2.9366610760916956e-05,0.00011942828859901056,27775.0,23779.0,21724.0,20544.0,0.10485288500785828,0.0859529972076416,0.07672901451587677,0.07158909738063812,0.0,0.0,0.0,0.0,28563.0,23098.0,22035.0,20041.0,0.3391134738922119,0.033393458409750304,0.03990913249738865,0.046250469914167126,0.03198561817407608,0.05263223499059677,0.040656138211488724
129,5,-0.0005028675659559667,0.0005744160735048354,0.00024148175725713372,0.020599935203790665,0.016679296270012856,0.02813141979277134,0.03578988090157509,0.014321832917630672,0.005176786798983812,-0.008815744891762733,0.10182597488164902,0.014300502836704254,0.0,0.0,0.0,-0.023487426340579987,0.019746679812669754,-0.0,0.0,0.0,0.0,-0.0011790388962253928,2.9366610760916956e-05,0.00011942828859901056,27775.0,23779.0,21724.0,20544.0,0.10485288500785828,0.0859529972076416,0.07672901451587677,0.07158909738063812,0.0,0.0,0.0,0.0,28563.0,23098.0,22035.0,20041.0,0.3391932547092438,0.016835921652684254,0.036150611330431716,0.04173799618044042,-0.07749604433774948,-0.061460111290216446,-0.05926194041967392
134,5,-0.0006201041396707296,0.0006465566693805158,0.00042096810648217797,-0.010233140550553799,-0.005095896311104298,-0.016688663512468338,0.035631634294986725,0.013055135495960712,0.005297140218317509,-0.04685862362384796,0.10117453336715698,-0.04674917086958885,0.0,0.0,0.0,0.010028986260294914,-0.011896415613591671,-0.0,0.0,0.0,0.0,-0.0013816580176353455,0.0003095242427662015,0.00018950174853671342,27064.0,23468.0,22957.0,20381.0,0.10139571875333786,0.08453237265348434,0.08222299069166183,0.07088723033666611,0.0,0.0,0.0,0.0,26423.0,23679.0,22724.0,21111.0,0.33907464146614075,0.03101228197860593,0.038679060613862774,0.04627653519283334,0.046684976667165756,0.026239367201924324,0.07877340167760849
139,5,-0.0006876399274915457,0.0007566467975266278,0.0004224051663186401,-0.012524955905973911,-0.016941387206315994,-0.005207787733525038,0.035631634294986725,0.013055135495960712,0.005297140218317509,-0.04685862362384796,0.10117453336715698,-0.04674917086958885,0.0,0.0,0.0,0.028462177142500877,-0.014382614754140377,-0.0,0.0,0.0,0.0,-0.0013816580176353455,0.0003095242427662015,0.00018950174853671342,27064.0,23468.0,22957.0,20381.0,0.10139571875333786,0.08453237265348434,0.08222299069166183,0.07088723033666611,0.0,0.0,0.0,0.0,26423.0,23679.0,22724.0,21111.0,0.3392060399055481,0.030778441849226585,0.03985971655366523,0.04680982395407299,0.05644264817237854,0.07447520643472672,0.04592054337263107
144,5,-0.0006263800314627588,0.0007891651475802064,0.0003402290167286992,0.0048188986256718636,-0.00963498279452324,0.00994232576340437,0.03548220917582512,0.010420757345855236,0.005190487951040268,-0.024778667837381363,0.10071614384651184,-0.013211344368755817,0.0,0.0,0.0,0.017457209527492523,0.003337342292070389,-0.0,0.0,0.0,0.0,-0.0019314249511808157,0.0010736375115811825,8.917571540223435e-05,28081.0,23877.0,20465.0,21373.0,0.10635380446910858,0.08639821410179138,0.07124951481819153,0.0751916915178299,0.0,0.0,0.0,0.0,26833.0,23493.0,22622.0,20960.0,0.3390871584415436,0.03195137973943304,0.03532568163726839,0.04813587081786046,-0.013095779344439507,0.04567037522792816,0.0008048556046560407
149,5,-0.0006252171006053686,0.0005965052405372262,0.00043731220648624003,0.0016084802336990833,0.024081891402602196,-0.010608949698507786,0.03548220917582512,0.010420757345855236,0.005190487951040268,-0.024778667837381363,0.10071614384651184,-0.013211344368755817,0.0,0.0,0.0,-0.034444041550159454,1.960500048880931e-05,-0.0,0.0,0.0,0.0,-0.0019314249511808157,0.0010736375115811825,8.917571540223435e-05,28081.0,23877.0,20465.0,21373.0,0.10635380446910858,0.08639821410179138,0.07124951481819153,0.0751916915178299,0.0,0.0,0.0,0.0,26833.0,23493.0,22622.0,20960.0,0.3392347991466522,0.02958405883544024,0.040126421675501046,0.048280010118394674,-7.567959255538881e-05,-0.09012025594711304,0.06517863273620605
155,5,-0.0007143336697481573,0.000617498648352921,0.00034947373205795884,-0.011993777006864548,0.00428549200296402,0.009114702232182026,0.035493556410074234,0.00965519156306982,0.005329075735062361,-0.03420202434062958,0.05957086384296417,-0.01347209233790636,0.0,0.0,0.0,-0.004064725711941719,-0.014028424397110939,-0.0,0.0,0.0,0.0,-0.00021526188356801867,-0.0003598482580855489,0.00017036809003911912,24471.0,23037.0,25134.0,21392.0,0.08913420140743256,0.08258116245269775,0.0922185480594635,0.075272336602211,0.0,0.0,0.0,0.0,28673.0,23311.0,21138.0,20623.0,0.33906975388526917,0.028542617774311843,0.043164245910227404,0.04924425024617968,0.05505257472395897,-0.01063316036015749,0.0062884371727705
160,5,-0.0006688595749437809,0.00040660848026163876,-7.862518395995721e-05,0.0027682441286742687,0.030810266733169556,0.06266825646162033,0.035493556410074234,0.00965519156306982,0.005329075735062361,-0.03420202434062958,0.05957086384296417,-0.01347209233790636,0.0,0.0,0.0,-0.003996276296675205,-0.014081206172704697,-0.0,0.0,0.0,0.0,-0.00021526188356801867,-0.0003598482580855489,0.00017036809003911912,24471.0,23037.0,25134.0,21392.0,0.08913420140743256,0.08258116245269775,0.0922185480594635,0.075272336602211,0.0,0.0,0.0,0.0,28673.0,23311.0,21138.0,20623.0,0.3390699326992035,0.0027639925553987195,0.017498652934975278,0.04849756025970459,-0.004061287734657526,-0.11781894415616989,-0.15953756868839264
165,5,-0.0007554972544312477,0.0005451787146739662,3.746840593521483e-05,-0.011298805475234985,-0.010156754404306412,0.0025473744608461857,0.035411033779382706,0.009202362038195133,0.005097100976854563,-0.0017554989317432046,0.01960011199116707,-0.02915376052260399,0.0,0.0,0.0,-0.04446755722165108,0.000983252888545394,-0.0,0.0,0.0,0.0,-0.002264195354655385,-0.000297058024443686,0.0001422568311681971,27099.0,25869.0,21815.0,18959.0,0.10156857222318649,0.09567687660455704,0.07713102549314499,0.06485811620950699,0.0,0.0,0.0,0.0,24185.0,23418.0,24504.0,21966.0,0.3391190469264984,0.014244689032601697,0.01743755996464228,0.05074837631005254,0.05288609862327576,0.046977609395980835,0.0223354734480381
170,5,-0.0008072918863035738,0.00045992821105755866,7.606353756273165e-05,-0.01064088474959135,0.008888048119843006,-0.004639106336981058,0.035411033779382706,0.009202362038195133,0.005097100976854563,-0.0017554989317432046,0.01960011199116707,-0.02915376052260399,0.0,0.0,0.0,-0.011295855976641178,-0.012942041270434856,-0.0,0.0,0.0,0.0,-0.002264195354655385,-0.000297058024443686,0.0001422568311681971,27099.0,25869.0,21815.0,18959.0,0.10156857222318649,0.09567687660455704,0.07713102549314499,0.06485811620950699,0.0,0.0,0.0,0.0,24185.0,23418.0,24504.0,21966.0,0.33908364176750183,0.011356405666893589,0.01926554727585342,0.05124482346988158,0.05078740417957306,-0.029552992433309555,0.04461250454187393
175,5,-0.000861020409502089,0.00047384281060658395,8.481065015075728e-05,-0.010714264586567879,0.0007183702546171844,-0.002616327488794923,0.03549400717020035,0.009211228229105473,0.005175283178687096,-0.011026519350707531,0.04733932018280029,-0.012421411462128162,0.0,0.0,0.0,0.0012791058979928493,-0.013160430826246738,-0.0,0.0,0.0,0.0,-0.0025968190748244524,-0.00011703910422511399,0.00015500748122576624,28186.0,26052.0,21337.0,18970.0,0.10687118768692017,0.09654803574085236,0.07503105700016022,0.06490528583526611,0.0,0.0,0.0,0.0,28023.0,26079.0,22579.0,17805.0,0.33906322717666626,0.01204896082061023,0.020024686011960433,0.050810999552358474,0.05164623260498047,0.0033473793882876635,0.038962140679359436
180,5,-0.001121907727792859,0.00048408511793240905,0.0003378581313882023,-0.039738498628139496,-0.001218411955051124,-0.036211542785167694,0.03549400717020035,0.009211228229105473,0.005175283178687096,-0.011026519350707531,0.04733932018280029,-0.012421411462128162,0.0,0.0,0.0,0.004123631864786148,-0.04128655046224594,-0.0,0.0,0.0,0.0,-0.0025968190748244524,-0.00011703910422511399,0.00015500748122576624,28186.0,26052.0,21337.0,18970.0,0.10687118768692017,0.09654803574085236,0.07503105700016022,0.06490528583526611,0.0,0.0,0.0,0.0,28023.0,26079.0,22579.0,17805.0,0.3549378216266632,0.012050749031393587,0.03381290688935092,0.045980289399884924,0.16955870389938354,0.011293397285044193,0.14386358857154846
185,5,-0.0008600657456554472,0.00045083966688252985,-5.046743535785936e-05,0.024736324325203896,0.004288837313652039,0.043502114713191986,0.035299088805913925,0.00903573352843523,0.005497610196471214,0.0001243738952325657,0.01501416228711605,0.023209014907479286,0.0,0.0,0.0,-0.004133488517254591,0.02283908799290657,-0.0,0.0,0.0,0.0,-0.0015828697942197323,-0.0004786497447639704,0.00023520186368841678,26663.0,24452.0,23973.0,18688.0,0.09946674108505249,0.0890454649925232,0.08684174716472626,0.06372971832752228,0.0,0.0,0.0,0.0,25681.0,25281.0,23912.0,18952.0,0.3391249477863312,0.0028702094018551224,0.014348488064043126,0.05092674501194577,-0.0896361693739891,-0.010816054418683052,-0.10007306188344955
190,5,-0.0005548300687223673,0.00033822626573964953,-0.00019847294606734067,0.05015389621257782,0.017052527517080307,0.03377140685915947,0.035299088805913925,0.00903573352843523,0.005497610196471214,0.0001243738952325657,0.01501416228711605,0.023209014907479286,0.0,0.0,0.0,-0.022323768585920334,0.04601198807358742,-0.0,0.0,0.0,0.0,-0.0015828697942197323,-0.0004786497447639704,0.00023520186368841678,26663.0,24452.0,23973.0,18688.0,0.09946674108505249,0.0890454649925232,0.08684174716472626,0.06372971832752228,0.0,0.0,0.0,0.0,25681.0,25281.0,23912.0,18952.0,0.3624229431152344,0.001588498868042828,-0.003043387647191226,0.05110303095760568,-0.19288967549800873,-0.0624162033200264,-0.0732913613319397
195,5,-0.0008751928107813001,0.00043946810183115304,-7.716013351455331e-05,-0.029804619029164314,-0.009058096446096897,-0.006852372549474239,0.035339996218681335,0.009061140939593315,0.005620007868856192,-0.02672502212226391,-0.0007068495033308864,-0.008642764762043953,0.0,0.0,0.0,0.015944048762321472,-0.0321066714823246,-0.0,0.0,0.0,0.0,-0.0015282328240573406,-0.000588166352827102,0.00020517986558843404,25046.0,26285.0,26552.0,19369.0,0.09180471301078796,0.0976559966802597,0.09893302619457245,0.06657958030700684,0.0,0.0,0.0,0.0,24800.0,26777.0,26630.0,18992.0,0.347262978553772,-0.0010118054901087615,0.009149425545154723,0.05131772243700231,0.12900783121585846,0.04271911084651947,0.049791570752859116
200,5,-0.00069635413819924,0.000374002440366894,-5.2233463065931574e-05,0.01609603688120842,0.0064477636478841305,-0.005545445252209902,0.035339996218681335,0.009061140939593315,0.005620007868856192,-0.02672502212226391,-0.0007068495033308864,-0.008642764762043953,0.0,0.0,0.0,-0.007487695664167404,0.014131329022347927,-0.0,0.0,0.0,0.0,-0.0015282328240573406,-0.000588166352827102,0.00020517986558843404,25046.0,26285.0,26552.0,19369.0,0.09180471301078796,0.0976559966802597,0.09893302619457245,0.06657958030700684,0.0,0.0,0.0,0.0,24800.0,26777.0,26630.0,18992.0,0.339076966047287,0.0058438688610690966,0.007518297471247221,0.051688363987862584,-0.05545363202691078,-0.01958918198943138,0.04601047933101654
205,5,-0.0007962253876030445,0.00041766566573642194,0.0001766868808772415,-0.009153170511126518,-0.004178520757704973,-0.0337124839425087,0.035477206110954285,0.00914944987744093,0.005424458999186754,0.04932456463575363,0.005599630996584892,-0.044838011264801025,0.0,0.0,0.0,0.008900044485926628,-0.011809030547738075,-0.0,0.0,0.0,0.0,-0.0010357204591855407,-0.001627479214221239,0.00012419182166922837,24439.0,27112.0,25995.0,19725.0,0.08898485451936722,0.1016298159956932,0.09627414494752884,0.06808450073003769,0.0,0.0,0.0,0.0,29746.0,25197.0,21024.0,22811.0,0.3390706777572632,0.007221475668625454,0.013317483886415403,0.047748308423298295,0.04634078964591026,0.023284412920475006,0.13377714157104492
210,5,-0.0009223209926858544,0.0002696555166039616,0.0005527299363166094,-0.020399335771799088,0.01946786232292652,-0.06275977194309235,0.035477206110954285,0.00914944987744093,0.005424458999186754,0.04932456463575363,0.005599630996584892,-0.044838011264801025,0.0,0.0,0.0,-0.027231866493821144,-0.023259665817022324,-0.0,0.0,0.0,0.0,-0.0010357204591855407,-0.001627479214221239,0.00012419182166922837,24439.0,27112.0,25995.0,19725.0,0.08898485451936722,0.1016298159956932,0.09627414494752884,0.06808450073003769,0.0,0.0,0.0,0.0,29746.0,25197.0,21024.0,22811.0,0.3430710434913635,-0.0001521417877521445,0.02351674628565173,0.048179229631216305,0.09231527894735336,-0.07206811010837555,0.22723275423049927
215,5,-0.00146119121927768,0.0005303684738464653,0.0006989518296904862,-0.0815616250038147,-0.030659453943371773,-0.03929899260401726,0.0360616035759449,0.009012020193040371,0.005148622673004866,0.08501305431127548,0.0076702362857759,-0.06645038723945618,0.0,0.0,0.0,0.04222698137164116,-0.07376379519701004,-0.0,0.0,0.0,0.0,-0.0021952346432954073,0.0015215447638183832,7.357891445280984e-05,29772.0,25344.0,20271.0,23350.0,0.11478123068809509,0.09320136904716492,0.07041631639003754,0.08399985730648041,0.0,0.0,0.0,0.0,26591.0,24455.0,22157.0,20697.0,0.39945411682128906,0.02447134387427118,0.05349336664753475,0.04105304229468284,0.34042301774024963,0.1300717294216156,0.16072307527065277
221,5,-0.0008133109658956528,0.00030370225431397557,0.0002947225875686854,0.06623474508523941,0.022535432130098343,0.04480239748954773,0.0360616035759449,0.009012020193040371,0.005148622673004866,0.08501305431127548,0.0076702362857759,-0.06645038723945618,0.0,0.0,0.0,-0.028843538835644722,0.05829509347677231,-0.0,0.0,0.0,0.0,-0.0021952346432954073,0.0015215447638183832,7.357891445280984e-05,29772.0,25344.0,20271.0,23350.0,0.11478123068809509,0.09320136904716492,0.07041631639003754,0.08399985730648041,0.0,0.0,0.0,0.0,26591.0,24455.0,22157.0,20697.0,0.3772549033164978,0.0031544707522748513,0.012398451128670636,0.04712581886957926,-0.2542867064476013,-0.08393596857786179,-0.09548326581716537
226,5,-0.0007934779278002679,0.0003144056536257267,0.0004986585699953139,0.02264704741537571,0.005262154620140791,-0.015110323205590248,0.03629298508167267,0.009215504862368107,0.004581791814416647,-0.015128090977668762,-0.049553439021110535,-0.04301488399505615,0.0,0.0,0.0,-0.005619553383439779,0.020347589626908302,-0.0,0.0,0.0,0.0,-0.0013915320159867406,-8.179723226930946e-05,5.013420377508737e-05,25521.0,25141.0,22371.0,20914.0,0.09403657913208008,0.09225159883499146,0.07959729433059692,0.07319122552871704,0.0,0.0,0.0,0.0,25490.0,27394.0,23049.0,18650.0,0.3391091525554657,-0.002338804977326541,0.02527058574685507,0.04100569558220972,-0.07985496520996094,-0.014703864231705666,0.08823550492525101
231,5,-0.001082220464013517,0.0003583656216505915,0.00013472913997247815,-0.03362983465194702,-0.004575748462229967,0.04641702398657799,0.03629298508167267,0.009215504862368107,0.004581791814416647,-0.015128090977668762,-0.049553439021110535,-0.04301488399505615,0.0,0.0,0.0,0.009251683950424194,-0.03632266819477081,-0.0,0.0,0.0,0.0,-0.0013915320159867406,-8.179723226930946e-05,5.013420377508737e-05,25521.0,25141.0,22371.0,20914.0,0.09403657913208008,0.09225159883499146,0.07959729433059692,0.07319122552871704,0.0,0.0,0.0,0.0,25490.0,27394.0,23049.0,18650.0,0.35028234124183655,0.004386576721269624,0.019685035064949664,0.047592308412686433,0.1472204625606537,0.025004658848047256,-0.0999695435166359
236,5,-0.0009018671698868275,0.0001488813868490979,0.00010820601164596155,0.015160505659878254,0.02795506827533245,0.017638346180319786,0.03615649789571762,0.009667699225246906,0.003963320050388575,-0.026183290407061577,-0.05884033069014549,-0.07683990150690079,0.0,0.0,0.0,-0.04016923904418945,0.012286481447517872,-0.0,0.0,0.0,0.0,-0.0020602624863386154,-0.001630736980587244,-2.1870528144063428e-05,24252.0,28491.0,23061.0,18731.0,0.0881212055683136,0.10837718844413757,0.08269047737121582,0.06390613317489624,0.0,0.0,0.0,0.0,29615.0,26879.0,20393.0,25040.0,0.34311342239379883,-0.00821506081878042,0.0044824519256307935,0.047693597879334595,-0.04874993488192558,-0.10628658533096313,-0.013606904074549675
241,5,-0.000805164163466543,0.00016844009223859757,7.2199368332803715e-06,0.018086567521095276,0.0056483023799955845,0.019429555162787437,0.03615649789571762,0.009667699225246906,0.003963320050388575,-0.026183290407061577,-0.05884033069014549,-0.07683990150690079,0.0,0.0,0.0,-0.0064611309207975864,0.015495216473937035,-0.0,0.0,0.0,0.0,-0.0020602624863386154,-0.001630736980587244,-2.1870528144063428e-05,24252.0,28491.0,23061.0,18731.0,0.0881212055683136,0.10837718844413757,0.08269047737121582,0.06390613317489624,0.0,0.0,0.0,0.0,29615.0,26879.0,20393.0,25040.0,0.33908137679100037,-0.005148614526689257,0.001930222592050185,0.047536493138696616,-0.06080648675560951,-0.016904115676879883,-0.02016691491007805
246,5,-0.000935083138756454,0.00025694273062981665,0.0002150523941963911,-0.012762680649757385,-0.010695879347622395,-0.023267677053809166,0.03615649789571762,0.009667699225246906,0.003963320050388575,-0.026183290407061577,-0.05884033069014549,-0.07683990150690079,0.0,0.0,0.0,0.018748169764876366,-0.016208644956350327,-0.0,0.0,0.0,0.0,-0.0020602624863386154,-0.001630736980587244,-2.1870528144063428e-05,24252.0,28491.0,23061.0,18731.0,0.0881212055683136,0.10837718844413757,0.08269047737121582,0.06390613317489624,0.0,0.0,0.0,0.0,29615.0,26879.0,20393.0,25040.0,0.3391377329826355,-0.0027030120467536694,0.00649488248076865,0.048261684706944856,0.06360829621553421,0.049054209142923355,0.111099973320961
251,5,-0.0008047290612012148,0.0002174225664930418,7.336554699577391e-05,0.0144207663834095,0.002324060071259737,0.01285585481673479,0.035858526825904846,0.010408229194581509,0.0029270052909851074,-0.03783947974443436,-0.04731130227446556,-0.0796019434928894,0.0,0.0,0.0,-0.0012182232458144426,0.011628526262938976,-0.0,0.0,0.0,0.0,-0.002105326158925891,0.0013412701664492488,-7.2787270255503245e-06,29870.0,26553.0,20672.0,24843.0,0.11527730524539948,0.09893539547920227,0.0721418559551239,0.09085790812969208,0.0,0.0,0.0,0.0,28772.0,27397.0,20910.0,24928.0,0.3390567898750305,-0.008133920351962856,0.0028841737540008542,0.045506686793929704,-0.045632392168045044,-0.0031870880629867315,0.0013785185292363167
256,5,-0.0008934459765441716,0.00024856114760041237,0.00018064810137730092,-0.008094138465821743,-0.0036621836479753256,-0.011162801645696163,0.035858526825904846,0.010408229194581509,0.0029270052909851074,-0.03783947974443436,-0.04731130227446556,-0.0796019434928894,0.0,0.0,0.0,0.00803088117390871,-0.01151890680193901,-0.0,0.0,0.0,0.0,-0.002105326158925891,0.0013412701664492488,-7.2787270255503245e-06,29870.0,26553.0,20672.0,24843.0,0.11527730524539948,0.09893539547920227,0.0721418559551239,0.09085790812969208,0.0,0.0,0.0,0.0,28772.0,27397.0,20910.0,24928.0,0.3390670418739319,-0.004011561583925074,0.006808293428954443,0.04716998231566094,0.045202188193798065,0.0210103802382946,0.07533761858940125
261,5,-0.0008976258686743677,8.011103636818007e-05,-8.145422907546163e-05,-0.003013428533449769,0.02248436212539673,0.03334548696875572,0.03505241498351097,0.011071356944739819,0.0022264826111495495,-0.13995906710624695,-0.03183805197477341,-0.07307980209589005,0.0,0.0,0.0,-0.03230128064751625,-0.006414014846086502,-0.0,0.0,0.0,0.0,0.00012818159302696586,-0.0017291030380874872,-3.2805295631987974e-05,26103.0,27057.0,20411.0,21088.0,0.09678737074136734,0.10136423259973526,0.07101758569478989,0.07394471019506454,0.0,0.0,0.0,0.0,21146.0,26015.0,25579.0,21161.0,0.33921751379966736,-0.005451106054027419,0.0038062440786754467,0.0524934407245605,0.025170734152197838,-0.0845147892832756,-0.06149173155426979
266,5,-0.0009214962483383715,0.00038301898166537285,0.0002553525264374912,-0.004245884716510773,-0.03566180169582367,-0.037149298936128616,0.03505241498351097,0.011071356944739819,0.0022264826111495495,-0.13995906710624695,-0.03183805197477341,-0.07307980209589005,0.0,0.0,0.0,0.05534887686371803,-0.007511336822062731,-0.0,0.0,0.0,0.0,0.00012818159302696586,-0.0017291030380874872,-3.2805295631987974e-05,26103.0,27057.0,20411.0,21088.0,0.09678737074136734,0.10136423259973526,0.07101758569478989,0.07394471019506454,0.0,0.0,0.0,0.0,21146.0,26015.0,25579.0,21161.0,0.3513997197151184,-0.0018754921416005864,0.007744746984012412,0.04589937713044433,0.03050248697400093,0.14991280436515808,0.1547851711511612
271,5,-0.0012118875747546554,0.0006838981644250453,0.00035346121876500547,-0.041928548365831375,-0.052821628749370575,-0.024880006909370422,0.032527949661016464,0.01204721350222826,0.00156551250256598,-0.2799917161464691,-0.1263134777545929,-0.036946091800928116,0.0,0.0,0.0,0.07492811232805252,-0.04155832901597023,-0.0,0.0,0.0,0.0,4.210610131849535e-05,-0.0013115471228957176,1.1052852642023936e-05,21643.0,25061.0,25396.0,21869.0,0.07637596130371094,0.091875359416008,0.09344451129436493,0.0773712694644928,0.0,0.0,0.0,0.0,21865.0,24720.0,25117.0,22318.0,0.3820648491382599,0.017959835085286452,0.030232121599434572,0.04740649887338449,0.1832069307565689,0.22045539319515228,0.12025278061628342
276,5,-0.001334263477474451,0.00047211424680426717,0.000375914154574275,-0.02971118874847889,0.013803258538246155,-0.010607413947582245,0.032527949661016464,0.01204721350222826,0.00156551250256598,-0.2799917161464691,-0.1263134777545929,-0.036946091800928116,0.0,0.0,0.0,-0.017511634156107903,-0.033530205488204956,-0.0,0.0,0.0,0.0,4.210610131849535e-05,-0.0013115471228957176,1.1052852642023936e-05,21643.0,25061.0,25396.0,21869.0,0.07637596130371094,0.091875359416008,0.09344451129436493,0.0773712694644928,0.0,0.0,0.0,0.0,21865.0,24720.0,25117.0,22318.0,0.34895241260528564,0.0044032443815231375,0.029305740167098665,0.04523316133405809,0.13537836074829102,-0.04714464023709297,0.07888800650835037
281,5,-0.0011806449620053172,0.0006806481978856027,0.00019405130296945572,0.012593227438628674,-0.025053774937987328,0.022278575226664543,0.0300535187125206,0.012711425311863422,0.0012705296976491809,-0.38549110293388367,-0.08325120061635971,-0.03326975926756859,0.0,0.0,0.0,0.04149702936410904,0.008688374422490597,-0.0,0.0,0.0,0.0,0.0019022802589461207,-0.0009167256066575646,6.1430828282027505e-06,20474.0,22803.0,27687.0,25550.0,0.07128548622131348,0.0815291553735733,0.10442659258842468,0.09417103230953217,0.0,0.0,0.0,0.0,21092.0,25113.0,25414.0,22338.0,0.3426722586154938,0.009704720583181885,0.021330814221471938,0.0481594515785004,-0.03442898392677307,0.10965481400489807,-0.02134590409696102
286,5,-0.001227320171892643,0.0005892859189771116,7.190971518866718e-05,-0.0027565485797822475,0.005274590104818344,0.023783395066857338,0.0300535187125206,0.012711425311863422,0.0012705296976491809,-0.38549110293388367,-0.08325120061635971,-0.03326975926756859,0.0,0.0,0.0,-0.004601530730724335,-0.007019758690148592,-0.0,0.0,0.0,0.0,0.0019022802589461207,-0.0009167256066575646,6.1430828282027505e-06,20474.0,22803.0,27687.0,25550.0,0.07128548622131348,0.0815291553735733,0.10442659258842468,0.09417103230953217,0.0,0.0,0.0,0.0,21092.0,25113.0,25414.0,22338.0,0.33904555439949036,0.006861043742399347,0.01946402641635443,0.048548640282050595,0.02754843980073929,-0.012036759406328201,-0.027105655521154404
292,5,-0.0012405039742588997,0.0007841431070119143,0.00021280387591104954,-0.0014214073307812214,-0.007891454733908176,-0.0027300610672682524,0.02219613641500473,0.014467348344624043,0.0006987539236433804,-0.3545092046260834,-0.0731140524148941,-0.019460270181298256,0.0,0.0,0.0,0.016041574999690056,-0.005769685842096806,-0.0,0.0,0.0,0.0,-0.00035736095742322505,-0.002174051944166422,-4.529162833932787e-05,21458.0,27533.0,26104.0,20859.0,0.07556301355361938,0.10367412865161896,0.09679540991783142,0.07295273244380951,0.0,0.0,0.0,0.0,19663.0,23311.0,28428.0,25024.0,0.33908286690711975,-0.0005054828404342774,0.016046345104948394,0.04866633118991706,0.02264297939836979,0.04196862503886223,0.054819364100694656
297,5,-0.0012405039742588997,0.0007841431070119143,0.00021280387591104954,-0.0014214073307812214,-0.007891454733908176,-0.0027300610672682524,0.02219613641500473,0.014467348344624043,0.0006987539236433804,-0.3545092046260834,-0.0731140524148941,-0.019460270181298256,0.0,0.0,0.0,0.016133274883031845,-0.005866419058293104,-0.0,0.0,0.0,0.0,-0.00035736095742322505,-0.002174051944166422,-4.529162833932787e-05,21458.0,27533.0,26104.0,20859.0,0.07556301355361938,0.10367412865161896,0.09679540991783142,0.07295273244380951,0.0,0.0,0.0,0.0,19663.0,23311.0,28428.0,25024.0,0.33908355236053467,-0.0005054828404342774,0.016046345104948394,0.04866633118991706,0.023022573441267014,0.04220857098698616,0.055633340030908585
302,5,-0.0012160721234977245,0.0007770570809952915,0.00014906897558830678,0.0029940474778413773,-0.0013753903331235051,0.008103868924081326,0.01832127943634987,0.014991368167102337,0.00046467804349958897,-0.3082093298435211,0.008481127209961414,-0.01983972266316414,0.0,0.0,0.0,0.006242579314857721,-0.0014210352674126625,-0.0,0.0,0.0,0.0,-1.8785007341648452e-05,-0.0011194614926353097,1.0419665130712019e-07,22319.0,24727.0,24529.0,22451.0,0.07936625927686691,0.09032223373651505,0.08940126746892929,0.07995585352182388,0.0,0.0,0.0,0.0,21745.0,27284.0,25792.0,21190.0,0.3390405476093292,-0.002750229857371634,0.015365970951394884,0.047865675097504355,0.005578578449785709,0.016332251951098442,0.022948021069169044
307,5,-0.0015651016728952527,0.0006155517185106874,0.0004669494810514152,-0.04796592891216278,0.022198135033249855,-0.0420721098780632,0.01832127943634987,0.014991368167102337,0.00046467804349958897,-0.3082093298435211,0.008481127209961414,-0.01983972266316414,0.0,0.0,0.0,-0.027742816135287285,-0.049820657819509506,-0.0,0.0,0.0,0.0,-1.8785007341648452e-05,-0.0011194614926353097,1.0419665130712019e-07,22319.0,24727.0,24529.0,22451.0,0.07936625927686691,0.09032223373651505,0.08940126746892929,0.07995585352182388,0.0,0.0,0.0,0.0,21745.0,27284.0,25792.0,21190.0,0.367740660905838,-0.019554640096751445,0.02686597353318329,0.04501014963435639,0.21188028156757355,-0.07869905978441238,0.1788349598646164
312,5,-0.0010822900803759694,0.0007541547529399395,3.651693623396568e-05,0.05320384353399277,-0.01274498924612999,0.047638922929763794,0.01605585403740406,0.015473621897399426,0.0003472902171779424,-0.30063170194625854,-0.05057022348046303,-0.014888674952089787,0.0,0.0,0.0,0.022163784131407738,0.046527717262506485,-0.0,0.0,0.0,0.0,0.0006387883331626654,-0.001039957976900041,-2.7730618967325427e-05,20683.0,24415.0,25915.0,22935.0,0.07218896597623825,0.08887430280447006,0.09589532762765884,0.08212549239397049,0.0,0.0,0.0,0.0,21902.0,25228.0,25217.0,21618.0,0.36292245984077454,-0.004209689380138555,0.011040640449197905,0.048330973962597445,-0.19532078504562378,0.06205512955784798,-0.09538514912128448
317,5,-0.0011388882994651794,0.0007822224288247526,0.0001539067307021469,0.005804013926535845,-0.00910679716616869,-0.01216480415314436,0.01605585403740406,0.015473621897399426,0.0003472902171779424,-0.30063170194625854,-0.05057022348046303,-0.014888674952089787,0.0,0.0,0.0,0.018292276188731194,0.0013041156344115734,-0.0,0.0,0.0,0.0,0.0006387883331626654,-0.001039957976900041,-2.7730618967325427e-05,20683.0,24415.0,25915.0,22935.0,0.07218896597623825,0.08887430280447006,0.09589532762765884,0.08212549239397049,0.0,0.0,0.0,0.0,21902.0,25228.0,25217.0,21618.0,0.33909061551094055,-0.007749437049795306,0.013427108219076169,0.0453941514323503,-0.005115074571222067,0.04785657301545143,0.08591384440660477
322,5,-0.0010866730008274317,0.0007757986895740032,0.000216618602280505,0.009051344357430935,-0.0018327146535739303,-0.012429102323949337,0.01605585403740406,0.015473621897399426,0.0003472902171779424,-0.30063170194625854,-0.05057022348046303,-0.014888674952089787,0.0,0.0,0.0,0.007242585998028517,0.004610033240169287,-0.0,0.0,0.0,0.0,0.0006387883331626654,-0.001039957976900041,-2.7730618967325427e-05,20683.0,24415.0,25915.0,22935.0,0.07218896597623825,0.08887430280447006,0.09589532762765884,0.08212549239397049,0.0,0.0,0.0,0.0,21902.0,25228.0,25217.0,21618.0,0.33904609084129333,-0.00691031694507248,0.016209594579288965,0.044920315831470325,-0.01808772422373295,0.018948504701256752,0.08821003139019012
327,5,-0.0010318353306502104,0.0006297290092334151,-7.2715070018603e-06,0.010392677038908005,0.019899941980838776,0.027615884318947792,0.012729762122035027,0.01534624956548214,-9.467818745179102e-05,-0.2810777723789215,-0.0013836376601830125,-0.05028245225548744,0.0,0.0,0.0,-0.026229701936244965,0.005977052729576826,-0.0,0.0,0.0,0.0,0.0006813303916715086,-0.0002446681319270283,-6.260570808080956e-05,22957.0,28940.0,25957.0,22209.0,0.08222351968288422,0.11060672998428345,0.09609684348106384,0.07887767255306244,0.0,0.0,0.0,0.0,23137.0,28815.0,25972.0,22152.0,0.3391563296318054,-0.019019308203591042,0.008783155951085158,0.04504209553338075,-0.02345423400402069,-0.06862512230873108,-0.034482333809137344
332,5,-0.0009982286719605327,0.00089025660417974,0.0004388511006254703,0.007822743616998196,-0.030503876507282257,-0.05417240038514137,0.012729762122035027,0.01534624956548214,-9.467818745179102e-05,-0.2810777723789215,-0.0013836376601830125,-0.05028245225548744,0.0,0.0,0.0,0.05031568929553032,0.0032552191987633705,-0.0,0.0,0.0,0.0,0.0006813303916715086,-0.0002446681319270283,-6.260570808080956e-05,22957.0,28940.0,25957.0,22209.0,0.08222351968288422,0.11060672998428345,0.09609684348106384,0.07887767255306244,0.0,0.0,0.0,0.0,23137.0,28815.0,25972.0,22152.0,0.34736526012420654,-0.007971418131806924,0.01885299991596538,0.04298295435001143,-0.013068788684904575,0.13474202156066895,0.21756957471370697
337,5,-0.001000536372885108,0.0009882681770250201,0.0005172665696591139,0.0020237434655427933,-0.022872790694236755,-0.027229882776737213,0.010874353349208832,0.014909843914210796,-0.0003722927940543741,-0.2112686187028885,0.05248326435685158,-0.01622544787824154,0.0,0.0,0.0,0.03999187797307968,-0.0026373357977718115,-0.0,0.0,0.0,0.0,-0.0007390708778984845,-0.001875537447631359,-5.8594065194483846e-05,23295.0,28752.0,26077.0,21947.0,0.0837491974234581,0.10967294126749039,0.09666753560304642,0.07771509140729904,0.0,0.0,0.0,0.0,23038.0,23040.0,23428.0,24552.0,0.340542197227478,-1.4085676251574749e-05,0.025827143679072358,0.04352443465734397,0.010388633236289024,0.10502711683511734,0.13928458094596863
342,5,-0.0009528250666335225,0.0009235938778147101,0.0005866689025424421,0.007286702282726765,0.002192568965256214,-0.017885291948914528,0.010874353349208832,0.014909843914210796,-0.0003722927940543741,-0.2112686187028885,0.05248326435685158,-0.01622544787824154,0.0,0.0,0.0,0.0017676946008577943,0.0027267064433544874,-0.0,0.0,0.0,0.0,-0.0007390708778984845,-0.001875537447631359,-5.8594065194483846e-05,23295.0,28752.0,26077.0,21947.0,0.0837491974234581,0.10967294126749039,0.09666753560304642,0.07771509140729904,0.0,0.0,0.0,0.0,23038.0,23040.0,23428.0,24552.0,0.33903539180755615,-0.004100707566942486,0.024394403654090093,0.04113290588666284,-0.010697716847062111,0.004626155830919743,0.1139281690120697
347,5,-0.0010557245695963502,0.0008649789378978312,0.0008781139040365815,-0.012219920754432678,0.008863860741257668,-0.04616789147257805,0.008849112316966057,0.013942010700702667,-0.0003078238805755973,-0.11371707916259766,0.13327684998512268,0.0133852269500494,0.0,0.0,0.0,-0.008459585718810558,-0.01738673634827137,-0.0,0.0,0.0,0.0,0.0003124613722320646,0.00026020145742222667,1.881061507447157e-05,23883.0,22487.0,23306.0,24379.0,0.08642566949129105,0.08011365681886673,0.08379804342985153,0.08870872110128403,0.0,0.0,0.0,0.0,22437.0,20930.0,26303.0,26040.0,0.3390969932079315,-0.013755258175224293,0.03141031022792662,0.03971579758082369,0.06823454052209854,-0.02213212661445141,0.20538417994976044
353,5,-0.0007362102041952312,0.0005580225843004882,-0.00018459664715919644,0.04106603190302849,0.04563305154442787,0.1349291056394577,0.008849112316966057,0.013942010700702667,-0.0003078238805755973,-0.11371707916259766,0.13327684998512268,0.0133852269500494,0.0,0.0,0.0,-0.06025739386677742,0.03448565676808357,-0.0,0.0,0.0,0.0,0.0003124613722320646,0.00026020145742222667,1.881061507447157e-05,23883.0,22487.0,23306.0,24379.0,0.08642566949129105,0.08011365681886673,0.08379804342985153,0.08870872110128403,0.0,0.0,0.0,0.0,22437.0,20930.0,26303.0,26040.0,0.3678055703639984,-0.023495560118031243,-0.0014251810905963752,0.05049236226845053,-0.1465102732181549,-0.170792356133461,-0.350607693195343
358,5,-0.0008919849642552435,0.0006959484308026731,9.942108363247826e-07,-0.009488650597631931,-0.0056197079829871655,0.014496012590825558,0.007902245968580246,0.012999765574932098,3.53912400896661e-05,-0.10207385569810867,0.18156376481056213,0.04113132506608963,0.0,0.0,0.0,0.013447470031678677,-0.014480046927928925,-0.0,0.0,0.0,0.0,0.0016818526200950146,0.0002314847952220589,8.724860526854172e-05,22953.0,20401.0,26319.0,26017.0,0.08220407366752625,0.07097303867340088,0.09781968593597412,0.0963793396949768,0.0,0.0,0.0,0.0,24818.0,22003.0,23935.0,23276.0,0.33909979462623596,-0.02434905252595363,0.007754901692004447,0.047024899891572644,0.05682367458939552,0.03518321365118027,0.012926360592246056
363,5,-0.000848822295665741,0.0006737736403010786,0.00010053670121124014,0.003196175443008542,0.001418564235791564,-0.00958714447915554,0.007902245968580246,0.012999765574932098,3.53912400896661e-05,-0.10207385569810867,0.18156376481056213,0.04113132506608963,0.0,0.0,0.0,0.0027162341866642237,-0.0015526601346209645,-0.0,0.0,0.0,0.0,0.0016818526200950146,0.0002314847952220589,8.724860526854172e-05,22953.0,20401.0,26319.0,26017.0,0.08220407366752625,0.07097303867340088,0.09781968593597412,0.0963793396949768,0.0,0.0,0.0,0.0,24818.0,22003.0,23935.0,23276.0,0.3390352725982666,-0.018875182773691095,0.011718946481802264,0.04949357151495713,0.006094340700656176,0.007107032462954521,0.0866851657629013
368,5,-0.0009389093611389399,0.0007462702924385667,-9.0488383648335e-06,-0.011653339490294456,-0.009723963215947151,0.012465831823647022,0.0066662984900176525,0.01100102998316288,0.0008097023237496614,-0.10892711579799652,0.12586186826229095,0.0890791043639183,0.0,0.0,0.0,0.019993986934423447,-0.01689143478870392,-0.0,0.0,0.0,0.0,7.017316966084763e-05,0.0006823540315963328,0.000131791879539378,25192.0,21567.0,24342.0,22900.0,0.09249036014080048,0.07604213058948517,0.08853848278522491,0.0819644182920456,0.0,0.0,0.0,0.0,30965.0,23873.0,21064.0,23941.0,0.3391497731208801,-0.020494105528619938,0.015178999541870955,0.047847196250355266,0.06629016995429993,0.0523163266479969,0.01924828067421913
373,5,-0.0008678099256940186,0.0008060684776864946,9.070921805687249e-05,0.006457923445850611,-0.011288939975202084,-0.010226378217339516,0.0066662984900176525,0.01100102998316288,0.0008097023237496614,-0.10892711579799652,0.12586186826229095,0.0890791043639183,0.0,0.0,0.0,0.022610943764448166,0.00160699849948287,-0.0,0.0,0.0,0.0,7.017316966084763e-05,0.0006823540315963328,0.000131791879539378,25192.0,21567.0,24342.0,22900.0,0.09249036014080048,0.07604213058948517,0.08853848278522491,0.0819644182920456,0.0,0.0,0.0,0.0,30965.0,23873.0,21064.0,23941.0,0.3391207158565521,-0.022971214848337414,0.012349060088827279,0.048231619081871055,-0.00630413182079792,0.0591563954949379,0.08879777789115906
378,5,-0.0008617088315077126,0.0008610777440480888,0.00011781871580751613,0.002791524864733219,-0.011087975464761257,-0.0068632434122264385,0.005767556373029947,0.009656142443418503,0.001417081686668098,-0.09011843055486679,0.13004155457019806,0.072897769510746,0.0,0.0,0.0,0.022523660212755203,-0.002188295591622591,-0.0,0.0,0.0,0.0,-0.0019033020362257957,0.0021045124158263206,0.00015005444583948702,31017.0,23846.0,21207.0,23774.0,0.1211322620511055,0.08625917881727219,0.07446251064538956,0.0859275683760643,0.0,0.0,0.0,0.0,25649.0,20939.0,23770.0,23613.0,0.33912041783332825,-0.023219918145038945,0.013166589621388702,0.04761679056941375,0.008586885407567024,0.05892646685242653,0.07946015149354935
383,5,-0.00082286266842857,0.0007988756406120956,9.22598410397768e-05,0.006275922525674105,0.0053819022141397,0.0015192694263532758,0.005767556373029947,0.009656142443418503,0.001417081686668098,-0.09011843055486679,0.13004155457019806,0.072897769510746,0.0,0.0,0.0,-0.00270260451361537,0.0013575999764725566,-0.0,0.0,0.0,0.0,-0.0019033020362257957,0.0021045124158263206,0.00015005444583948702,31017.0,23846.0,21207.0,23774.0,0.1211322620511055,0.08625917881727219,0.07446251064538956,0.0859275683760643,0.0,0.0,0.0,0.0,25649.0,20939.0,23770.0,23613.0,0.33903515338897705,-0.024766717256586704,0.01300024569187492,0.049700609418981766,-0.0053255800157785416,-0.007068430073559284,0.05436849594116211
388,5,-0.0007547481800429523,0.0008009104640223086,0.00012552880798466504,0.011418808251619339,0.001329696038737893,-0.004201875068247318,0.004708896391093731,0.008195205591619015,0.0021634565200656652,-0.08484333008527756,0.12226419895887375,0.061440229415893555,0.0,0.0,0.0,0.0035908485297113657,0.0066405716352164745,-0.0,0.0,0.0,0.0,0.0008720770129002631,0.00010668679897207767,0.00015317328507080674,25401.0,21222.0,24088.0,23276.0,0.09347103536128998,0.0745316594839096,0.08736760914325714,0.08366502821445465,0.0,0.0,0.0,0.0,24940.0,21687.0,24521.0,22861.0,0.3390432596206665,-0.026594530694396063,0.013304185148693908,0.0477966761792755,-0.026056477800011635,0.009395486675202847,0.07238654047250748
393,5,-0.0009031195659190416,0.0009489092626608908,0.00045691407285630703,-0.01734635792672634,-0.02032092772424221,-0.04765449836850166,0.004708896391093731,0.008195205591619015,0.0021634565200656652,-0.08484333008527756,0.12226419895887375,0.061440229415893555,0.0,0.0,0.0,0.03633200377225876,-0.022480536252260208,-0.0,0.0,0.0,0.0,0.0008720770129002631,0.00010668679897207767,0.00015317328507080674,25401.0,21222.0,24088.0,23276.0,0.09347103536128998,0.0745316594839096,0.08736760914325714,0.08366502821445465,0.0,0.0,0.0,0.0,24940.0,21687.0,24521.0,22861.0,0.34659597277641296,-0.022378725241776025,0.02426030730157003,0.04611830856441844,0.09011418372392654,0.09711942076683044,0.20820337533950806
398,5,-0.0007321488810703158,0.0008670628885738552,0.0004653898940887302,0.018731992691755295,0.005362218711525202,-0.015482963994145393,0.004708896391093731,0.008195205591619015,0.0021634565200656652,-0.08484333008527756,0.12226419895887375,0.061440229415893555,0.0,0.0,0.0,-0.0022442841436713934,0.014016560278832912,-0.0,0.0,0.0,0.0,0.0008720770129002631,0.00010668679897207767,0.00015317328507080674,25401.0,21222.0,24088.0,23276.0,0.09347103536128998,0.0745316594839096,0.08736760914325714,0.08366502821445465,0.0,0.0,0.0,0.0,24940.0,21687.0,24521.0,22861.0,0.3390677571296692,-0.020387589248066412,0.024633838736142347,0.05033519062177324,-0.05500312149524689,-0.005869894288480282,0.11323361098766327
403,5,-0.0007109833532012999,0.00104292924515903,0.0005175814148969948,0.008582773618400097,-0.023012623190879822,-0.011951704509556293,0.0038386068772524595,0.007516253739595413,0.0025888183154165745,-0.11848416924476624,0.0537881962954998,0.060606446117162704,0.0,0.0,0.0,0.04136311262845993,0.0036260311026126146,-0.0,0.0,0.0,0.0,0.00021800892136525363,-0.0005134306265972555,0.00013726856559515,23913.0,22592.0,25146.0,22374.0,0.0865669697523117,0.08058242499828339,0.09227333962917328,0.07961232960224152,0.0,0.0,0.0,0.0,23218.0,21192.0,26401.0,23154.0,0.341530442237854,-0.013378774910166286,0.02764513567084595,0.04733367869405485,-0.014319620095193386,0.1089392602443695,0.10512659698724747
408,5,-0.0009771878831088543,0.001228505396284163,0.0004953076713718474,-0.034693796187639236,-0.03288445249199867,-0.0004671828937716782,0.0038386068772524595,0.007516253739595413,0.0025888183154165745,-0.11848416924476624,0.0537881962954998,0.060606446117162704,0.0,0.0,0.0,0.053024742752313614,-0.03791474178433418,-0.0,0.0,0.0,0.0,0.00021800892136525363,-0.0005134306265972555,0.00013726856559515,23913.0,22592.0,25146.0,22374.0,0.0865669697523117,0.08058242499828339,0.09227333962917328,0.07961232960224152,0.0,0.0,0.0,0.0,23218.0,21192.0,26401.0,23154.0,0.36648526787757874,0.0042428423420042775,0.046111144222712,0.04699573684290062,0.1605594903230667,0.1497959941625595,0.07191532105207443
413,5,-0.000935769232455641,0.001237252028658986,0.00048545742174610496,-0.004609534051269293,-0.01108985673636198,0.001238878583535552,0.0020076974760740995,0.007866104133427143,0.003135489299893379,-0.1476098597049713,-0.006490123458206654,0.024315819144248962,0.0,0.0,0.0,0.024069618433713913,-0.010248353704810143,-0.0,0.0,0.0,0.0,0.0003927680372726172,-0.0006022635498084128,6.52551680104807e-05,23044.0,22958.0,24709.0,23347.0,0.08261654525995255,0.08222595602273941,0.09023775905370712,0.08398749679327011,0.0,0.0,0.0,0.0,22919.0,23353.0,25604.0,22135.0,0.3391496539115906,0.005290145186025291,0.04678433958348705,0.045513566365505374,0.040217816829681396,0.06297730654478073,0.06819599121809006
418,5,-0.0007720895810052752,0.0011516361264511943,0.0004819117020815611,0.021532291546463966,0.008659269660711288,0.0008680634782649577,0.0020076974760740995,0.007866104133427143,0.003135489299893379,-0.1476098597049713,-0.006490123458206654,0.024315819144248962,0.0,0.0,0.0,-0.00617841724306345,0.016577059403061867,-0.0,0.0,0.0,0.0,0.0003927680372726172,-0.0006022635498084128,6.52551680104807e-05,23044.0,22958.0,24709.0,23347.0,0.08261654525995255,0.08222595602273941,0.09023775905370712,0.08398749679327011,0.0,0.0,0.0,0.0,22919.0,23353.0,25604.0,22135.0,0.339086651802063,-0.008409406928866799,0.03751620553996072,0.04352218749289553,-0.06505434215068817,-0.016165051609277725,0.07106313109397888
423,5,-0.0007647097809240222,0.0009568906971253455,0.0001858682226156816,0.007492854725569487,0.02986213192343712,0.04170650616288185,-0.0020175864920020103,0.009453929960727692,0.0026321185287088156,-0.22383640706539154,-0.03945959359407425,-0.049079421907663345,0.0,0.0,0.0,-0.03885370120406151,0.0022178818471729755,-0.0,0.0,0.0,0.0,0.002329826122149825,-0.002548759337514639,3.920148083125241e-05,18721.0,24813.0,30999.0,24846.0,0.06386612355709076,0.09072169661521912,0.12103995680809021,0.09087391197681427,0.0,0.0,0.0,0.0,22362.0,23402.0,25651.0,22603.0,0.33977770805358887,-0.013896348908392314,0.02998323760481484,0.04946057198169425,-0.008715479634702206,-0.10181025415658951,-0.05416347458958626
429,5,-0.0007409170502796769,0.0009586367523297668,0.0001877954346127808,0.0055788420140743256,0.00871419720351696,0.012242142111063004,-0.0020175864920020103,0.009453929960727692,0.0026321185287088156,-0.22383640706539154,-0.03945959359407425,-0.049079421907663345,0.0,0.0,0.0,-0.006486502941697836,0.0002577079285401851,-0.0,0.0,0.0,0.0,0.002329826122149825,-0.002548759337514639,3.920148083125241e-05,18721.0,24813.0,30999.0,24846.0,0.06386612355709076,0.09072169661521912,0.12103995680809021,0.09087391197681427,0.0,0.0,0.0,0.0,22362.0,23402.0,25651.0,22603.0,0.33904075622558594,-0.024284069119303916,0.02340543819057938,0.049088615070121265,-0.0010097641497850418,-0.01696688123047352,0.034844301640987396
434,5,-0.0007859155302867293,0.001081189839169383,0.00039136988925747573,-0.004626131616532803,-0.014543172903358936,-0.024827783927321434,-0.003850111970677972,0.010517938062548637,0.0024150905665010214,-0.22962267696857452,-0.0817192867398262,-0.04112626984715462,0.0,0.0,0.0,0.02946224994957447,-0.010270542465150356,-0.0,0.0,0.0,0.0,0.00045592355309054255,-0.000506554963067174,3.4602064260980114e-05,22147.0,23578.0,25279.0,23030.0,0.07860089093446732,0.08503725379705429,0.09289806336164474,0.08255026489496231,0.0,0.0,0.0,0.0,18617.0,24856.0,31240.0,24630.0,0.33919867873191833,-0.0015229352916812581,0.044344025720985086,0.04778100019026572,0.040303025394678116,0.07708722352981567,0.14984755218029022
439,5,-0.0010334199760109186,0.001053476007655263,0.0006832565413787961,-0.03603846952319145,-0.0004830246907658875,-0.048312462866306305,-0.003850111970677972,0.010517938062548637,0.0024150905665010214,-0.22962267696857452,-0.0817192867398262,-0.04112626984715462,0.0,0.0,0.0,0.007671852596104145,-0.040851667523384094,-0.0,0.0,0.0,0.0,0.00045592355309054255,-0.000506554963067174,3.4602064260980114e-05,22147.0,23578.0,25279.0,23030.0,0.07860089093446732,0.08503725379705429,0.09289806336164474,0.08255026489496231,0.0,0.0,0.0,0.0,18617.0,24856.0,31240.0,24630.0,0.35472577810287476,-0.010971977919083688,0.05505529616473542,0.043851727305618114,0.1676720231771469,0.02100015990436077,0.22615714371204376
444,5,-0.0008873629267327487,0.0010803340701386333,0.0005963819567114115,0.009636452421545982,-0.0039050367195159197,-0.002331295982003212,-0.006173571106046438,0.010656386613845825,0.0018118954030796885,-0.18420246243476868,-0.07287865877151489,-0.03873647749423981,0.0,0.0,0.0,0.013419495895504951,0.00398902827873826,-0.0,0.0,0.0,0.0,0.00043953285785391927,-0.0004103700048290193,-1.7288302842644043e-05,21728.0,24104.0,25188.0,22993.0,0.07674837112426758,0.08743993937969208,0.0924687534570694,0.08238357305526733,0.0,0.0,0.0,0.0,22981.0,22893.0,24392.0,23791.0,0.33906683325767517,-0.012440900535695807,0.04902007758912251,0.0435112298344786,-0.01565125398337841,0.0351087786257267,0.08900068700313568
449,5,-0.0005925425211898983,0.0008820919319987297,0.0007242205902002752,0.04416579008102417,0.026582391932606697,-0.01859680376946926,-0.006173571106046438,0.010656386613845825,0.0018118954030796885,-0.18420246243476868,-0.07287865877151489,-0.03873647749423981,0.0,0.0,0.0,-0.03186064213514328,0.03761504590511322,-0.0,0.0,0.0,0.0,0.00043953285785391927,-0.0004103700048290193,-1.7288302842644043e-05,21728.0,24104.0,25188.0,22993.0,0.07674837112426758,0.08743993937969208,0.0924687534570694,0.08238357305526733,0.0,0.0,0.0,0.0,22981.0,22893.0,24392.0,23791.0,0.3569420278072357,-0.0245582149797073,0.03270550183096814,0.03754155060999357,-0.15528255701065063,-0.0877186730504036,0.14188945293426514
454,5,-0.000579617393668741,0.0011061294935643673,0.0006779851973988116,0.015059257857501507,-0.02339054085314274,0.0008939185063354671,-0.007527999114245176,0.010498786345124245,0.0017243401380255818,-0.14424501359462738,-0.03620467334985733,-0.009464191272854805,0.0,0.0,0.0,0.04289339482784271,0.009755445644259453,-0.0,0.0,0.0,0.0,0.0004077433841302991,0.00014540605479851365,3.710658711497672e-05,21317.0,25015.0,27946.0,23010.0,0.07494527846574783,0.09166384488344193,0.10569100826978683,0.08246292918920517,0.0,0.0,0.0,0.0,21824.0,24717.0,27084.0,23751.0,0.34386444091796875,-0.0012711643632394257,0.02564542513696025,0.04466848463206647,-0.03878949582576752,0.11373430490493774,0.0849280059337616
