timestamp,dt,pos_x,pos_y,pos_z,vel_x,vel_y,vel_z,roll,pitch,yaw,agv_x,agv_y,agv_z,x_ref,y_ref,z_ref,roll_ref,pitch_ref,yaw_ref,x_vel_ref,y_vel_ref,z_vel_ref,x_torque,y_torque,z_torque,w0,w1,w2,w3,u0,u1,u2,u3,m0req,m1req,m2req,m3req,thrust0,thrust1,thrust2,thrust3,thrust_ref,roll_vicon,pitch_vicon,yaw_vicon,acc_x,acc_y,acc_z
5,5,0.0,0.0,0.0,0.00025307032046839595,0.0007527431007474661,0.0014961487613618374,0.0,0.0,0.0,0.0,0.0,0.0,0.0,0.0,0.0,-0.0009591524139977992,0.00032246470800600946,-0.0,0.0,0.0,0.0,0.0,0.0,0.0,0.0,0.0,0.0,0.0,0.0,0.0,0.0,0.0,0.0,0.0,0.0,0.0,0.0,0.0,0.0,0.0,0.2542753219604492,-0.11715275347575203,-0.5862047515260091,-0.05422261625003956,-0.0009490136872045696,-0.002822786569595337,-0.004488446284085512
22,17,0.0,0.0,0.0,-0.0006800847477279603,-0.0006216815090738237,0.006662611849606037,0.0,0.0,0.0,0.0,0.0,0.0,0.0,0.0,0.0,0.0007921523647382855,-0.0008665705681778491,-0.0,0.0,0.0,0.0,0.0,0.0,0.0,0.0,0.0,0.0,0.0,0.0,0.0,0.0,0.0,0.0,0.0,0.0,0.0,0.0,0.0,0.0,0.0,0.254275381565094,-0.11738958736599231,-0.5860458701240705,-0.054253125352140906,0.002550317905843258,0.0023313057608902454,-0.019987836480140686
27,5,0.0,0.0,0.0,-0.0017922406550496817,0.0013994593173265457,0.00013359914009924978,0.0,0.0,0.0,0.0,0.0,0.0,0.0,0.0,0.0,-0.0017831985605880618,-0.0022836870048195124,-0.0,0.0,0.0,0.0,0.0,0.0,0.0,0.0,0.0,0.0,0.0,0.0,0.0,0.0,0.0,0.0,0.0,0.0,0.0,0.0,0.0,0.0,0.0,0.2542762756347656,-0.11668437392105892,-0.5857895368458933,-0.054663104580311726,0.006720902398228645,-0.005247972439974546,-0.0004007974057458341
38,11,0.0,0.0,0.0,0.0034797172993421555,-0.0017834388418123126,0.002859977073967457,0.0,0.0,0.0,0.0,0.0,0.0,0.0,0.0,0.0,0.0022724494338035583,0.004433861467987299,-0.0,0.0,0.0,0.0,0.0,0.0,0.0,0.0,0.0,0.0,0.0,0.0,0.0,0.0,0.0,0.0,0.0,0.0,0.0,0.0,0.0,0.0,0.0,0.25427836179733276,-0.11784539722618123,-0.5862481543537077,-0.054679238969084276,-0.013048939406871796,0.0066878958605229855,-0.00857993122190237
43,5,-3.4347353903285693e-06,3.819261837634258e-05,2.050400507869199e-05,1.2940485248691402e-05,-0.0043326751329004765,-0.0034194791223853827,0.0,0.0,0.0,0.0,0.0,0.0,0.0,0.0,0.0,0.005592892877757549,9.994642823585309e-06,-0.0,0.0,0.0,0.0,0.0,0.0,0.0,0.0,0.0,0.0,0.0,0.0,0.0,0.0,0.0,0.0,0.0,0.0,0.0,0.0,0.0,0.0,0.0,0.25427916646003723,-0.11797349843672426,-0.5852835757613029,-0.05442738478722952,-2.9409082344500348e-05,0.016460111364722252,0.010588551871478558
49,5,5.425960807770025e-06,1.4815036593063269e-05,2.5525976070639445e-06,0.001244379673153162,0.001973058795556426,0.0014873534673824906,0.0,0.0,0.0,0.0,0.0,0.0,0.0,0.0,0.0,-0.002484465716406703,0.001595576643012464,-0.0,0.0,0.0,0.0,0.0,0.0,0.0,0.0,0.0,0.0,0.0,0.0,0.0,0.0,0.0,0.0,0.0,0.0,0.0,0.0,0.0,0.0,0.0,0.254276305437088,-0.11771174039046078,-0.5860797724274985,-0.054325264641048594,-0.004695786163210869,-0.0073118070140480995,-0.00437334505841136
54,5,-2.2706055460730568e-05,1.0973421012749895e-05,-8.38197684061015e-06,-0.003565168473869562,0.0011297438759356737,0.001977046485990286,0.0,0.0,0.0,0.0,0.0,0.0,0.0,0.0,0.0,-0.0014159615384414792,-0.004585311282426119,-0.0,0.0,0.0,0.0,0.0,0.0,0.0,0.0,0.0,0.0,0.0,0.0,0.0,0.0,0.0,0.0,0.0,0.0,0.0,0.0,0.0,0.0,0.0,0.25427812337875366,-0.11615346666470908,-0.5859739936090469,-0.05442306164315514,0.013494699262082577,-0.004167205188423395,-0.006004415452480316
59,5,-7.148084932850907e-06,2.9750723115284927e-05,-2.875589780160226e-05,0.001108565367758274,-0.0022898991592228413,0.003445462789386511,0.0,0.0,0.0,0.0,0.0,0.0,0.0,0.0,0.0,0.002977842465043068,0.0013976296177133918,-0.0,0.0,0.0,0.0,0.0,0.0,0.0,0.0,0.0,0.0,0.0,0.0,0.0,0.0,0.0,0.0,0.0,0.0,0.0,0.0,0.0,0.0,0.0,0.2542765736579895,-0.11721169150793936,-0.5864381729500172,-0.05428367557114591,-0.004113226663321257,0.008763824589550495,-0.010775377042591572
64,5,-2.8142851078882813e-05,3.315854337415658e-05,-1.9235347281210124e-05,-0.0026066978462040424,-0.0011640643933787942,-0.0002992382796946913,0.0,0.0,0.0,0.0,0.0,0.0,0.0,0.0,0.0,0.0015509587246924639,-0.0033759705256670713,-0.0,0.0,0.0,0.0,0.0,0.0,0.0,0.0,0.0,0.0,0.0,0.0,0.0,0.0,0.0,0.0,0.0,0.0,0.0,0.0,0.0,0.0,0.0,0.25427696108818054,-0.11722541198514631,-0.5865973545478631,-0.054501627861445565,0.009935518726706505,0.004564501345157623,0.0005413799663074315
69,5,-5.422257345344406e-06,-4.5616593524755444e-06,-1.453574986953754e-05,0.0023988739121705294,0.004931609146296978,-0.0007477150065824389,0.0,0.0,0.0,0.0,0.0,0.0,0.0,0.0,0.0,-0.006284793838858604,0.0030430920887738466,-0.0,0.0,0.0,0.0,0.0,0.0,0.0,0.0,0.0,0.0,0.0,0.0,0.0,0.0,0.0,0.0,0.0,0.0,0.0,0.0,0.0,0.0,0.0,0.2542814016342163,-0.11726285943534061,-0.5868580397782839,-0.054758349291552266,-0.008955839090049267,-0.01849648356437683,0.0019052402349188924
74,5,-1.778605474100914e-05,1.2356360457488336e-05,3.23241256410256e-05,-0.001011269399896264,-0.0008890401222743094,-0.006784697063267231,0.0,0.0,0.0,0.0,0.0,0.0,0.0,0.0,0.0,0.0011634529801085591,-0.0013260869309306145,-0.0,0.0,0.0,0.0,0.0,0.0,0.0,0.0,0.0,0.0,0.0,0.0,0.0,0.0,0.0,0.0,0.0,0.0,0.0,0.0,0.0,0.0,0.0,0.2542755901813507,-0.11657888990575731,-0.5857692800773743,-0.05458219339881904,0.0039027028251439333,0.0034240654204040766,0.020713219419121742
79,5,6.815740562160499e-06,1.1115022971353028e-05,2.0008761566714384e-05,0.0031408704817295074,-9.292478353017941e-05,-0.0003112583654001355,0.0,0.0,0.0,0.0,0.0,0.0,0.0,0.0,0.0,0.00014720599574502558,0.004009871277958155,-0.0,0.0,0.0,0.0,0.0,0.0,0.0,0.0,0.0,0.0,0.0,0.0,0.0,0.0,0.0,0.0,0.0,0.0,0.0,0.0,0.0,0.0,0.0,0.2542772591114044,-0.11781843684912047,-0.586111893406841,-0.05448880699765401,-0.011801114305853844,0.0004332307435106486,0.0011700887698680162
84,5,6.815740562160499e-06,1.1115022971353028e-05,2.0008761566714384e-05,0.0031408704817295074,-9.292478353017941e-05,-0.0003112583654001355,0.0,0.0,0.0,0.0,0.0,0.0,0.0,0.0,0.0,0.00014767619722988456,0.004010159522294998,-0.0,0.0,0.0,0.0,0.0,0.0,0.0,0.0,0.0,0.0,0.0,0.0,0.0,0.0,0.0,0.0,0.0,0.0,0.0,0.0,0.0,0.0,0.0,0.2542772591114044,-0.11781843684912047,-0.586111893406841,-0.05448880699765401,-0.01180197298526764,0.00043463121983222663,0.001212107134051621
89,5,5.494115157489432e-06,1.037356832966907e-05,4.494181848713197e-05,-0.00011864124826388434,0.0002770266146399081,-0.0027437503449618816,0.0,0.0,0.0,0.0,0.0,0.0,0.0,0.0,0.0,-0.0003239982179366052,-0.00014494503557216376,-0.0,0.0,0.0,0.0,0.0,0.0,0.0,0.0,0.0,0.0,0.0,0.0,0.0,0.0,0.0,0.0,0.0,0.0,0.0,0.0,0.0,0.0,0.0,0.25427520275115967,-0.11759383700062176,-0.5865872193547981,-0.05448739539495658,0.0004265650059096515,-0.0009535112185403705,0.009029125794768333
94,5,-2.3021246306598186e-05,2.968965782201849e-05,6.879215652588755e-05,-0.004027742892503738,-0.0026211447548121214,-0.004162171855568886,0.0,0.0,0.0,0.0,0.0,0.0,0.0,0.0,0.0,0.003405309747904539,-0.005179059226065874,-0.0,0.0,0.0,0.0,0.0,0.0,0.0,0.0,0.0,0.0,0.0,0.0,0.0,0.0,0.0,0.0,0.0,0.0,0.0,0.0,0.0,0.0,0.0,0.25428009033203125,-0.11719970041351012,-0.5859701755205231,-0.05469987542072575,0.015242141671478748,0.01002204418182373,0.013720931485295296
99,5,-9.286540262110066e-06,2.0159499399596825e-05,-2.580294676590711e-05,0.0007145359413698316,0.0005478787352330983,0.011994662694633007,0.0,0.0,0.0,0.0,0.0,0.0,0.0,0.0,0.0,-0.0006484243203885853,0.0008876724750734866,-0.0,0.0,0.0,0.0,0.0,0.0,0.0,0.0,0.0,0.0,0.0,0.0,0.0,0.0,0.0,0.0,0.0,0.0,0.0,0.0,0.0,0.0,0.0,0.2542753517627716,-0.11643582275460249,-0.5857961078892818,-0.05405888186345606,-0.0026124068535864353,-0.001908283680677414,-0.035950515419244766
104,5,-3.5552984627429396e-05,1.930873258970678e-05,-2.87116472463822e-05,-0.0034629416186362505,0.00028347104671411216,0.004005616996437311,0.0,0.0,0.0,0.0,0.0,0.0,0.0,0.0,0.0,-0.00031170406145974994,-0.004485039040446281,-0.0,0.0,0.0,0.0,0.0,0.0,0.0,0.0,0.0,0.0,0.0,0.0,0.0,0.0,0.0,0.0,0.0,0.0,0.0,0.0,0.0,0.0,0.0,0.254277765750885,-0.11687074720562513,-0.5863470635486325,-0.05485494617147757,0.013199558481574059,-0.000917354307603091,-0.012114237993955612
110,5,-1.3650263099407312e-05,1.5096517017809674e-05,1.1810482192231575e-07,0.0020274987909942865,0.0006747515290044248,-0.002834480255842209,0.0,0.0,0.0,0.0,0.0,0.0,0.0,0.0,0.0,-0.000816872576251626,0.0025494873989373446,-0.0,0.0,0.0,0.0,0.0,0.0,0.0,0.0,0.0,0.0,0.0,0.0,0.0,0.0,0.0,0.0,0.0,0.0,0.0,0.0,0.0,0.0,0.0,0.2542760968208313,-0.11758610336448795,-0.5869695826599702,-0.05454937362723699,-0.007503157947212458,-0.002404064405709505,0.008745907805860043
115,5,-5.73904117118218e-06,4.3647240090649575e-05,-3.018657025677385e-06,0.001715820631943643,-0.00379467592574656,-0.00041119742672890425,0.0,0.0,0.0,0.0,0.0,0.0,0.0,0.0,0.0,0.004932495299726725,0.002166174817830324,-0.0,0.0,0.0,0.0,0.0,0.0,0.0,0.0,0.0,0.0,0.0,0.0,0.0,0.0,0.0,0.0,0.0,0.0,0.0,0.0,0.0,0.0,0.0,0.25427889823913574,-0.11757456304678088,-0.5866915100237111,-0.0546821084977247,-0.006375062745064497,0.014516484923660755,0.0014293366111814976
120,5,1.79726102942368e-05,2.6987454475602135e-05,2.171555024688132e-06,0.003834377508610487,0.0011939671821892262,-0.0008499888936057687,0.0,0.0,0.0,0.0,0.0,0.0,0.0,0.0,0.0,-0.0014521480770781636,0.0049095768481493,-0.0,0.0,0.0,0.0,0.0,0.0,0.0,0.0,0.0,0.0,0.0,0.0,0.0,0.0,0.0,0.0,0.0,0.0,0.0,0.0,0.0,0.0,0.0,0.2542785406112671,-0.11743403268308439,-0.5870534830205683,-0.05459704174106568,-0.014449001289904118,-0.004273726139217615,0.002813690109178424
125,5,7.388805897790007e-06,2.7230313207837753e-05,2.8539670893223956e-05,-0.0003314194327685982,0.00032419004128314555,-0.003946532960981131,0.0,0.0,0.0,0.0,0.0,0.0,0.0,0.0,0.0,-0.00034154916647821665,-0.0004170189204160124,-0.0,0.0,0.0,0.0,0.0,0.0,0.0,0.0,0.0,0.0,0.0,0.0,0.0,0.0,0.0,0.0,0.0,0.0,0.0,0.0,0.0,0.0,0.0,0.25427523255348206,-0.11782268915950359,-0.5868954397446867,-0.05485280854297488,0.0012272867606952786,-0.0010051793651655316,0.012507599778473377
130,5,4.910254460810393e-07,1.1880782039952464e-05,-8.749932931095827e-06,-0.001065115095116198,0.002246191492304206,0.004036584869027138,0.0,0.0,0.0,0.0,0.0,0.0,0.0,0.0,0.0,-0.002817414468154311,-0.0013642937410622835,-0.0,0.0,0.0,0.0,0.0,0.0,0.0,0.0,0.0,0.0,0.0,0.0,0.0,0.0,0.0,0.0,0.0,0.0,0.0,0.0,0.0,0.0,0.0,0.25427645444869995,-0.11693575169968262,-0.5863716551625506,-0.054419630935927985,0.004015117883682251,-0.00829166267067194,-0.011907572858035564
135,5,-1.078200853044109e-06,2.0528221284621395e-05,1.8379150787950493e-05,-0.0005392262246459723,-0.0005367840058170259,-0.0025870962999761105,0.0,0.0,0.0,0.0,0.0,0.0,0.0,0.0,0.0,0.0007456876919604838,-0.000697100767865777,-0.0,0.0,0.0,0.0,0.0,0.0,0.0,0.0,0.0,0.0,0.0,0.0,0.0,0.0,0.0,0.0,0.0,0.0,0.0,0.0,0.0,0.0,0.0,0.2542753219604492,-0.11868630312259651,-0.5858215668062396,-0.05487970510918454,0.002051567891612649,0.0021945599000900984,0.008341357111930847
140,5,-1.409393735229969e-05,2.5238216039724648e-05,-3.904049299308099e-05,-0.001983970869332552,-0.0008204345940612257,0.0072626215405762196,0.0,0.0,0.0,0.0,0.0,0.0,0.0,0.0,0.0,0.0011173234088346362,-0.0025624146219342947,-0.0,0.0,0.0,0.0,0.0,0.0,0.0,0.0,0.0,0.0,0.0,0.0,0.0,0.0,0.0,0.0,0.0,0.0,0.0,0.0,0.0,0.0,0.0,0.25427618622779846,-0.11661254405242467,-0.585793874871045,-0.05434528999675747,0.007541223894804716,0.003288332838565111,-0.022011367604136467
145,5,-1.8099695807904936e-05,1.4694609490106814e-05,3.4739161492325366e-05,-0.0011559976264834404,0.001229974557645619,-0.008150365203619003,0.0,0.0,0.0,0.0,0.0,0.0,0.0,0.0,0.0,-0.0015132870757952332,-0.0015158744063228369,-0.0,0.0,0.0,0.0,0.0,0.0,0.0,0.0,0.0,0.0,0.0,0.0,0.0,0.0,0.0,0.0,0.0,0.0,0.0,0.0,0.0,0.0,0.0,0.25427576899528503,-0.1171751589733582,-0.5866257862424562,-0.05474931782110689,0.004461248870939016,-0.004453590139746666,0.02520708367228508
150,5,-1.494216667197179e-05,2.689310349524021e-05,3.781572013394907e-05,9.525492350803688e-05,-0.0013387969229370356,-0.0028758279513567686,0.0,0.0,0.0,0.0,0.0,0.0,0.0,0.0,0.0,0.0017836769111454487,8.314006117871031e-05,-0.0,0.0,0.0,0.0,0.0,0.0,0.0,0.0,0.0,0.0,0.0,0.0,0.0,0.0,0.0,0.0,0.0,0.0,0.0,0.0,0.0,0.0,0.0,0.2542756199836731,-0.11856407542900844,-0.5868756315076366,-0.05491404090530038,-0.00024468119954690337,0.005249366629868746,0.009546073153614998
155,5,-2.529245466575958e-05,1.328124835708877e-05,2.9519809686462395e-05,-0.0014204640174284577,0.001504020649008453,0.000298679166007787,0.0,0.0,0.0,0.0,0.0,0.0,0.0,0.0,0.0,-0.0018622162751853466,-0.0018686194671317935,-0.0,0.0,0.0,0.0,0.0,0.0,0.0,0.0,0.0,0.0,0.0,0.0,0.0,0.0,0.0,0.0,0.0,0.0,0.0,0.0,0.0,0.0,0.0,0.2542760968208313,-0.11747829682061323,-0.5861218541074794,-0.054675927839459515,0.0054993536323308945,-0.005480518564581871,2.8900292818434536e-05
161,5,-6.6950196924153715e-06,1.8821898265741765e-05,3.469493822194636e-05,0.0021775017958134413,-0.00032448474667035043,-0.0006349139148369431,0.0,0.0,0.0,0.0,0.0,0.0,0.0,0.0,0.0,0.00047897343756631017,0.0027489406056702137,-0.0,0.0,0.0,0.0,0.0,0.0,0.0,0.0,0.0,0.0,0.0,0.0,0.0,0.0,0.0,0.0,0.0,0.0,0.0,0.0,0.0,0.0,0.0,0.25427618622779846,-0.11715232869944,-0.5853875418927126,-0.05414539364114456,-0.008090152405202389,0.0014096242375671864,0.003009537933394313
166,5,-2.3598481675435323e-06,-4.6149519761229385e-08,4.8868627345655113e-05,0.001260174554772675,0.002544181188568473,-0.0021747907157987356,0.0,0.0,0.0,0.0,0.0,0.0,0.0,0.0,0.0,-0.0032103066332638264,0.0015877330442890525,-0.0,0.0,0.0,0.0,0.0,0.0,0.0,0.0,0.0,0.0,0.0,0.0,0.0,0.0,0.0,0.0,0.0,0.0,0.0,0.0,0.0,0.0,0.0,0.254276841878891,-0.11723873483065177,-0.5860129017210831,-0.05443653894742506,-0.00467270240187645,-0.00944797694683075,0.00795819703489542
171,5,-1.6358544598915614e-05,2.296971797477454e-05,3.362088682479225e-05,-0.0015817652456462383,-0.002458967035636306,0.0014822464436292648,0.0,0.0,0.0,0.0,0.0,0.0,0.0,0.0,0.0,0.00320775480940938,-0.002059831051155925,-0.0,0.0,0.0,0.0,0.0,0.0,0.0,0.0,0.0,0.0,0.0,0.0,0.0,0.0,0.0,0.0,0.0,0.0,0.0,0.0,0.0,0.0,0.0,0.2542770504951477,-0.1178821205728332,-0.5866631796429831,-0.05484870987648175,0.0060621160082519054,0.009440509602427483,-0.003074177075177431
176,5,-4.312588771426817e-06,3.5529257729649544e-05,-3.325639772810973e-05,0.0012119043385609984,-0.0024960259906947613,0.009807493537664413,0.0,0.0,0.0,0.0,0.0,0.0,0.0,0.0,0.0,0.0032800317276269197,0.0015212935395538807,-0.0,0.0,0.0,0.0,0.0,0.0,0.0,0.0,0.0,0.0,0.0,0.0,0.0,0.0,0.0,0.0,0.0,0.0,0.0,0.0,0.0,0.0,0.0,0.2542768716812134,-0.1182060454093361,-0.5859790496069095,-0.05489222830338935,-0.004477163776755333,0.00965323206037283,-0.02894546277821064
181,5,-3.3831466339506733e-07,1.8927346900454722e-05,-5.153325400897302e-05,0.0009199696942232549,0.0015754600754007697,0.005501008126884699,0.0,0.0,0.0,0.0,0.0,0.0,0.0,0.0,0.0,-0.0019364578183740377,0.0011564405867829919,-0.0,0.0,0.0,0.0,0.0,0.0,0.0,0.0,0.0,0.0,0.0,0.0,0.0,0.0,0.0,0.0,0.0,0.0,0.0,0.0,0.0,0.0,0.0,0.2542758584022522,-0.1180261777170155,-0.5867072249269245,-0.05472836723101826,-0.003403406124562025,-0.005699006374925375,-0.016413314267992973
186,5,-1.4252186701924074e-05,1.3018131539865863e-05,-4.5581131416838616e-05,-0.0016719511477276683,0.0012999280588701367,0.0008170052315108478,0.0,0.0,0.0,0.0,0.0,0.0,0.0,0.0,0.0,-0.0015951305394992232,-0.0021722540259361267,-0.0,0.0,0.0,0.0,0.0,0.0,0.0,0.0,0.0,0.0,0.0,0.0,0.0,0.0,0.0,0.0,0.0,0.0,0.0,0.0,0.0,0.0,0.0,0.2542761266231537,-0.11653251900351594,-0.586549128038602,-0.05456702000981196,0.006392953917384148,-0.004694484174251556,-0.0024442137219011784
191,5,-1.0630523320287466e-05,3.2259475119644776e-05,-1.6292913642246276e-05,5.447505827760324e-06,-0.0023038096260279417,-0.003855249145999551,0.0,0.0,0.0,0.0,0.0,0.0,0.0,0.0,0.0,0.003033694112673402,-2.9133465432096273e-05,-0.0,0.0,0.0,0.0,0.0,0.0,0.0,0.0,0.0,0.0,0.0,0.0,0.0,0.0,0.0,0.0,0.0,0.0,0.0,0.0,0.0,0.0,0.0,0.2542763650417328,-0.11700553004482782,-0.5869376328522563,-0.05458889696078386,8.57397899380885e-05,0.008928189054131508,0.011856406927108765
196,5,-2.2998437998467125e-05,-3.6353592349769315e-06,1.5506411727983505e-05,-0.0017298738239333034,0.004334134049713612,-0.005608479958027601,0.0,0.0,0.0,0.0,0.0,0.0,0.0,0.0,0.0,-0.005489358678460121,-0.0022641185205429792,-0.0,0.0,0.0,0.0,0.0,0.0,0.0,0.0,0.0,0.0,0.0,0.0,0.0,0.0,0.0,0.0,0.0,0.0,0.0,0.0,0.0,0.0,0.0,0.2542796730995178,-0.1167211279905385,-0.5868517488030925,-0.05443557816158367,0.006663347128778696,-0.016155391931533813,0.0175425224006176
201,5,-2.5135857413260965e-06,1.74575161508983e-05,1.2350161341601051e-05,0.002348917303606868,-0.0016527624102309346,-0.0012406691676005721,0.0,0.0,0.0,0.0,0.0,0.0,0.0,0.0,0.0,0.002178309252485633,0.0029698030557483435,-0.0,0.0,0.0,0.0,0.0,0.0,0.0,0.0,0.0,0.0,0.0,0.0,0.0,0.0,0.0,0.0,0.0,0.0,0.0,0.0,0.0,0.0,0.0,0.25427693128585815,-0.11778251289271072,-0.5868237559507369,-0.05489730084531164,-0.008740155957639217,0.006410802248865366,0.004444310441613197
206,5,-2.0383567971293814e-05,2.9388767870841548e-05,2.8089214538340457e-05,-0.0017971222987398505,-0.002166203921660781,-0.0025756682734936476,0.0,0.0,0.0,0.0,0.0,0.0,0.0,0.0,0.0,0.0028560347855091095,-0.002346685854718089,-0.0,0.0,0.0,0.0,0.0,0.0,0.0,0.0,0.0,0.0,0.0,0.0,0.0,0.0,0.0,0.0,0.0,0.0,0.0,0.0,0.0,0.0,0.0,0.25427693128585815,-0.11693805327539378,-0.584937472704807,-0.054102661853610706,0.00690630916506052,0.008405356667935848,0.008727160282433033
211,5,-4.296044153306866e-06,2.2281607016338967e-05,-3.553091346475412e-06,0.0017131166532635689,0.00034514148137532175,0.003657222492620349,0.0,0.0,0.0,0.0,0.0,0.0,0.0,0.0,0.0,-0.000355167401721701,0.0021547460928559303,-0.0,0.0,0.0,0.0,0.0,0.0,0.0,0.0,0.0,0.0,0.0,0.0,0.0,0.0,0.0,0.0,0.0,0.0,0.0,0.0,0.0,0.0,0.0,0.2542757987976074,-0.11753003845986223,-0.5858967112462901,-0.05459669479567252,-0.006341427564620972,-0.0010452601127326488,-0.010351523756980896
216,5,2.219531779701356e-06,1.19955047921394e-05,-2.8299185942159966e-05,0.00142611563205719,0.0015435966197401285,0.004561619833111763,0.0,0.0,0.0,0.0,0.0,0.0,0.0,0.0,0.0,-0.0018999187741428614,0.0018009277991950512,-0.0,0.0,0.0,0.0,0.0,0.0,0.0,0.0,0.0,0.0,0.0,0.0,0.0,0.0,0.0,0.0,0.0,0.0,0.0,0.0,0.0,0.0,0.0,0.2542760670185089,-0.11596017732096546,-0.585189895951695,-0.05379976606186257,-0.005300140008330345,-0.005591459106653929,-0.013449402526021004
221,5,2.6335910661146045e-06,2.6377652829978615e-05,3.9437447412637994e-05,0.0004858030006289482,-0.0015504217008128762,-0.008114642463624477,0.0,0.0,0.0,0.0,0.0,0.0,0.0,0.0,0.0,0.0020702171605080366,0.0006037027924321592,-0.0,0.0,0.0,0.0,0.0,0.0,0.0,0.0,0.0,0.0,0.0,0.0,0.0,0.0,0.0,0.0,0.0,0.0,0.0,0.0,0.0,0.0,0.0,0.2542757987976074,-0.11736748729553101,-0.58647992493423,-0.054564201348086226,-0.0017766975797712803,0.00609265873208642,0.025499217212200165
227,5,1.1774964150390588e-05,8.58203748066444e-06,2.422434772597626e-05,0.001425533089786768,0.002026259433478117,-0.00030455904197879136,0.0,0.0,0.0,0.0,0.0,0.0,0.0,0.0,0.0,-0.002518623834475875,0.0018183881184086204,-0.0,0.0,0.0,0.0,0.0,0.0,0.0,0.0,0.0,0.0,0.0,0.0,0.0,0.0,0.0,0.0,0.0,0.0,0.0,0.0,0.0,0.0,0.0,0.25427642464637756,-0.11684071903432428,-0.5866726473942694,-0.054326824412115164,-0.005351522006094456,-0.00741233816370368,0.0019764488097280264
232,5,-7.179639851528918e-06,7.047545295790769e-06,-1.008244635158917e-05,-0.002225984586402774,0.0008227067883126438,0.004711583722382784,0.0,0.0,0.0,0.0,0.0,0.0,0.0,0.0,0.0,-0.0009873195085674524,-0.0028690132312476635,-0.0,0.0,0.0,0.0,0.0,0.0,0.0,0.0,0.0,0.0,0.0,0.0,0.0,0.0,0.0,0.0,0.0,0.0,0.0,0.0,0.0,0.0,0.0,0.2542763650417328,-0.11715360259508115,-0.586140238470714,-0.05447140240264018,0.008443528786301613,-0.002905694069340825,-0.013504470698535442
237,5,-5.500011866388377e-06,1.737556158332154e-05,3.208689304301515e-05,-0.00043264744454063475,-0.0011991102946922183,-0.004490232560783625,0.0,0.0,0.0,0.0,0.0,0.0,0.0,0.0,0.0,0.0016086926916614175,-0.0005812942399643362,-0.0,0.0,0.0,0.0,0.0,0.0,0.0,0.0,0.0,0.0,0.0,0.0,0.0,0.0,0.0,0.0,0.0,0.0,0.0,0.0,0.0,0.0,0.0,0.2542755603790283,-0.11785495833757399,-0.586883432547066,-0.05464600787379571,0.0017107491148635745,0.004734387621283531,0.014700040221214294
242,5,2.9053892376396107e-06,1.26725490190438e-05,8.641077329230029e-06,0.001046961871907115,0.0002986887702718377,0.0019353445386514068,0.0,0.0,0.0,0.0,0.0,0.0,0.0,0.0,0.0,-0.000307378766592592,0.001319365226663649,-0.0,0.0,0.0,0.0,0.0,0.0,0.0,0.0,0.0,0.0,0.0,0.0,0.0,0.0,0.0,0.0,0.0,0.0,0.0,0.0,0.0,0.0,0.0,0.25427544116973877,-0.1168874654521011,-0.5867330852129713,-0.05451843673514291,-0.0038828940596431494,-0.0009046165505424142,-0.004818048793822527
247,5,1.0058495718112681e-05,3.672373713925481e-05,-1.5293147953343578e-05,0.0013155235210433602,-0.0032775597646832466,0.003931394778192043,0.0,0.0,0.0,0.0,0.0,0.0,0.0,0.0,0.0,0.00429533189162612,0.0016751443035900593,-0.0,0.0,0.0,0.0,0.0,0.0,0.0,0.0,0.0,0.0,0.0,0.0,0.0,0.0,0.0,0.0,0.0,0.0,0.0,0.0,0.0,0.0,0.0,0.25427791476249695,-0.11803223680121372,-0.5871140849861188,-0.05481388244872082,-0.004929954186081886,0.012641256675124168,-0.011135999113321304
252,5,-1.294550656893989e-05,2.8849952286691405e-05,-3.097445187449921e-06,-0.0028259032405912876,0.00011906195868505165,-0.0005279799224808812,0.0,0.0,0.0,0.0,0.0,0.0,0.0,0.0,0.0,-4.4799584429711103e-05,-0.003644185606390238,-0.0,0.0,0.0,0.0,0.0,0.0,0.0,0.0,0.0,0.0,0.0,0.0,0.0,0.0,0.0,0.0,0.0,0.0,0.0,0.0,0.0,0.0,0.0,0.25427690148353577,-0.11773926725746384,-0.5864647609750322,-0.05491697885701867,0.010724885389208794,-0.0001318460563197732,0.002372985938563943
257,5,-6.2437084125122055e-06,2.46787240030244e-05,-1.7584009981419513e-07,9.048074571182951e-05,0.0006196905742399395,-0.0005674186977557838,0.0,0.0,0.0,0.0,0.0,0.0,0.0,0.0,0.0,-4.2799805669346824e-05,-0.00364508293569088,-0.0,0.0,0.0,0.0,0.0,0.0,0.0,0.0,0.0,0.0,0.0,0.0,0.0,0.0,0.0,0.0,0.0,0.0,0.0,0.0,0.0,0.0,0.0,0.25427690148353577,-0.1177437803259889,-0.5868618298380918,-0.05490917422575842,-0.000245764123974368,-0.0020262226462364197,0.0025245908182114363
262,5,-6.86946123096277e-07,3.2438554626423866e-05,1.2361600738586276e-06,0.0008050909382291138,-0.0009004693129099905,-0.00036790562444366515,0.0,0.0,0.0,0.0,0.0,0.0,0.0,0.0,0.0,-0.0006867654738016427,8.307205280289054e-05,-0.0,0.0,0.0,0.0,0.0,0.0,0.0,0.0,0.0,0.0,0.0,0.0,0.0,0.0,0.0,0.0,0.0,0.0,0.0,0.0,0.0,0.0,0.0,0.25427553057670593,-0.11739327983383346,-0.5864987876877403,-0.05456824428184095,-0.002954830415546894,0.0037221761886030436,0.0019466601079329848
267,5,1.4329706345961313e-06,2.146442056982778e-05,4.344664921518415e-05,0.0017937027150765061,0.00014774940791539848,-0.006760238669812679,0.0,0.0,0.0,0.0,0.0,0.0,0.0,0.0,0.0,-8.912771590985358e-05,0.0022676296066492796,-0.0,0.0,0.0,0.0,0.0,0.0,0.0,0.0,0.0,0.0,0.0,0.0,0.0,0.0,0.0,0.0,0.0,0.0,0.0,0.0,0.0,0.0,0.0,0.2542758584022522,-0.11758795857406963,-0.5869412005987937,-0.054547733142184134,-0.006673645228147507,-0.00026230353978462517,0.02176213636994362
272,5,8.711523150850553e-06,1.4735745025973301e-05,3.0483113732771017e-05,0.001557108131237328,0.0009863392915576696,-0.0002131767978426069,0.0,0.0,0.0,0.0,0.0,0.0,0.0,0.0,0.0,-0.0011687332298606634,0.0019798665307462215,-0.0,0.0,0.0,0.0,0.0,0.0,0.0,0.0,0.0,0.0,0.0,0.0,0.0,0.0,0.0,0.0,0.0,0.0,0.0,0.0,0.0,0.0,0.0,0.2542758584022522,-0.11769476413264837,-0.5869668995899857,-0.05472367070676089,-0.00582676799967885,-0.003439568215981126,0.0020768269896507263
277,5,8.711523150850553e-06,1.4735745025973301e-05,3.0483113732771017e-05,0.001557108131237328,0.0009863392915576696,-0.0002131767978426069,0.0,0.0,0.0,0.0,0.0,0.0,0.0,0.0,0.0,-0.0011677118018269539,0.0019804704934358597,-0.0,0.0,0.0,0.0,0.0,0.0,0.0,0.0,0.0,0.0,0.0,0.0,0.0,0.0,0.0,0.0,0.0,0.0,0.0,0.0,0.0,0.0,0.0,0.2542758584022522,-0.11769476413264837,-0.5869668995899857,-0.05472367070676089,-0.005828532390296459,-0.003436584258452058,0.0021797074005007744
282,5,9.469698852626607e-06,3.067647776333615e-05,-1.0062261935672723e-05,0.0021950886584818363,-0.0011489246971905231,0.0074156951159238815,0.0,0.0,0.0,0.0,0.0,0.0,0.0,0.0,0.0,-0.0011666903737932444,0.001981074223294854,-0.0,0.0,0.0,0.0,0.0,0.0,0.0,0.0,0.0,0.0,0.0,0.0,0.0,0.0,0.0,0.0,0.0,0.0,0.0,0.0,0.0,0.0,0.0,0.2542765140533447,-0.11777301832384611,-0.5863271922189095,-0.054433854302303644,-0.00822692085057497,0.004661381710320711,-0.021211698651313782
287,5,1.7861319065559655e-05,3.472090247669257e-05,-3.237036435166374e-05,0.0018333534244447947,-0.0009108968661166728,0.005347842816263437,0.0,0.0,0.0,0.0,0.0,0.0,0.0,0.0,0.0,0.0015860536368563771,0.0027960834559053183,-0.0,0.0,0.0,0.0,0.0,0.0,0.0,0.0,0.0,0.0,0.0,0.0,0.0,0.0,0.0,0.0,0.0,0.0,0.0,0.0,0.0,0.0,0.0,0.2542765140533447,-0.1187469855366621,-0.5868252076874011,-0.05479748201896365,-0.008228895254433155,0.00466777803376317,-0.021246664226055145
292,5,-1.2021412658214103e-05,2.3107273591449484e-05,-2.945757660199888e-05,-0.0036335764452815056,0.0013526391703635454,0.0011965627782046795,0.0,0.0,0.0,0.0,0.0,0.0,0.0,0.0,0.0,-0.0016131468582898378,-0.00466974126175046,-0.0,0.0,0.0,0.0,0.0,0.0,0.0,0.0,0.0,0.0,0.0,0.0,0.0,0.0,0.0,0.0,0.0,0.0,0.0,0.0,0.0,0.0,0.0,0.254278302192688,-0.11837177344900333,-0.5875746843425527,-0.05508374534002346,0.013743148185312748,-0.004747547209262848,-0.0029918018262833357
297,5,-1.2021412658214103e-05,2.3107273591449484e-05,-2.945757660199888e-05,-0.0036335764452815056,0.0013526391703635454,0.0011965627782046795,0.0,0.0,0.0,0.0,0.0,0.0,0.0,0.0,0.0,-0.001611521583981812,-0.0046705869026482105,-0.0,0.0,0.0,0.0,0.0,0.0,0.0,0.0,0.0,0.0,0.0,0.0,0.0,0.0,0.0,0.0,0.0,0.0,0.0,0.0,0.0,0.0,0.0,0.254278302192688,-0.11837177344900333,-0.5875746843425527,-0.05508374534002346,0.01374563667923212,-0.004742763936519623,-0.0030934305395931005
303,5,-3.4902466722996905e-05,2.1293457393767312e-05,2.0270037566660903e-05,-0.0016362657770514488,-0.0022906011436134577,-0.00754069397225976,0.0,0.0,0.0,0.0,0.0,0.0,0.0,0.0,0.0,0.0030289199203252792,-0.0021692244336009026,-0.0,0.0,0.0,0.0,0.0,0.0,0.0,0.0,0.0,0.0,0.0,0.0,0.0,0.0,0.0,0.0,0.0,0.0,0.0,0.0,0.0,0.0,0.0,0.25427696108818054,-0.11685123174887906,-0.5858363898204464,-0.054481314632219155,0.006384037435054779,0.0089141596108675,0.02376336231827736
308,5,-3.3140454434033018e-06,2.0811849026358686e-05,8.582601367379539e-06,0.0039314995519816875,-0.0006197553011588752,-0.0006259672809392214,0.0,0.0,0.0,0.0,0.0,0.0,0.0,0.0,0.0,0.0030304391402751207,-0.0021717147901654243,-0.0,0.0,0.0,0.0,0.0,0.0,0.0,0.0,0.0,0.0,0.0,0.0,0.0,0.0,0.0,0.0,0.0,0.0,0.0,0.0,0.0,0.0,0.0,0.25427696108818054,-0.11782608145060029,-0.5868390813620268,-0.05445043041651439,-0.014661484397947788,0.0026503417175263166,0.0029150298796594143
313,5,3.0586295451939804e-07,8.051568329392467e-06,3.391614154679701e-05,0.0016862369375303388,0.001600512769073248,-0.0037344859447330236,0.0,0.0,0.0,0.0,0.0,0.0,0.0,0.0,0.0,-0.001950912643224001,0.002127410378307104,-0.0,0.0,0.0,0.0,0.0,0.0,0.0,0.0,0.0,0.0,0.0,0.0,0.0,0.0,0.0,0.0,0.0,0.0,0.0,0.0,0.0,0.0,0.0,0.25427624583244324,-0.11735465784076399,-0.5860252013645008,-0.0549120364119449,-0.006260978523641825,-0.00574155617505312,0.012650832533836365
318,5,1.664800220169127e-05,2.710651187953772e-06,2.7851629056385718e-05,0.0027937705162912607,0.0012278822250664234,-0.00027131379465572536,0.0,0.0,0.0,0.0,0.0,0.0,0.0,0.0,0.0,-0.0014855185290798545,0.00356919108889997,-0.0,0.0,0.0,0.0,0.0,0.0,0.0,0.0,0.0,0.0,0.0,0.0,0.0,0.0,0.0,0.0,0.0,0.0,0.0,0.0,0.0,0.0,0.0,0.2542771100997925,-0.11667702217707847,-0.5868681358081703,-0.05431127011249915,-0.010504174046218395,-0.004371912218630314,0.0022865107748657465
323,5,3.144790753140114e-05,1.1416726010793354e-05,-5.090133527119178e-06,0.0029101178515702486,-0.000850485812406987,0.004530452657490969,0.0,0.0,0.0,0.0,0.0,0.0,0.0,0.0,0.0,-0.0014853306347504258,0.0035703452304005623,-0.0,0.0,0.0,0.0,0.0,0.0,0.0,0.0,0.0,0.0,0.0,0.0,0.0,0.0,0.0,0.0,0.0,0.0,0.0,0.0,0.0,0.0,0.0,0.2542771100997925,-0.11851724481128681,-0.5873273586110261,-0.054781908429140366,-0.011025318875908852,0.0034704215358942747,-0.012518346309661865
328,5,3.144790753140114e-05,1.1416726010793354e-05,-5.090133527119178e-06,0.0029101178515702486,-0.000850485812406987,0.004530452657490969,0.0,0.0,0.0,0.0,0.0,0.0,0.0,0.0,0.0,0.0011800122447311878,0.0037484962958842516,-0.0,0.0,0.0,0.0,0.0,0.0,0.0,0.0,0.0,0.0,0.0,0.0,0.0,0.0,0.0,0.0,0.0,0.0,0.0,0.0,0.0,0.0,0.0,0.25427716970443726,-0.11851724481128681,-0.5873273586110261,-0.054781908429140366,-0.011031923815608025,0.0034728189930319786,-0.01253616251051426
333,5,-5.10474455950316e-06,3.056502464460209e-05,-3.709948214236647e-05,-0.002514154650270939,-0.0018773255869746208,0.00543369073420763,0.0,0.0,0.0,0.0,0.0,0.0,0.0,0.0,0.0,0.0011807976989075541,-0.00322928698733449,-0.0,0.0,0.0,0.0,0.0,0.0,0.0,0.0,0.0,0.0,0.0,0.0,0.0,0.0,0.0,0.0,0.0,0.0,0.0,0.0,0.0,0.0,0.0,0.2542773485183716,-0.1177730845997586,-0.5864216241676479,-0.0547043991999954,0.009503824636340141,0.007431124337017536,-0.01574399694800377
338,5,-2.534344093874097e-05,2.9563343559857458e-05,-3.2744199415901676e-05,-0.003587663872167468,-0.0004229624173603952,0.0010203677229583263,0.0,0.0,0.0,0.0,0.0,0.0,0.0,0.0,0.0,0.0006721689715050161,-0.004635351710021496,-0.0,0.0,0.0,0.0,0.0,0.0,0.0,0.0,0.0,0.0,0.0,0.0,0.0,0.0,0.0,0.0,0.0,0.0,0.0,0.0,0.0,0.0,0.0,0.2542779743671417,-0.11694457530733411,-0.5863028339097962,-0.05421302078480536,0.013641937635838985,0.001978214830160141,-0.0025692556519061327
343,5,-3.134307189611718e-05,3.624882083386183e-05,-1.5989135135896504e-06,-0.0019162477692589164,-0.0010628554737195373,-0.004054229706525803,0.0,0.0,0.0,0.0,0.0,0.0,0.0,0.0,0.0,0.0015020937426015735,-0.00251863244920969,-0.0,0.0,0.0,0.0,0.0,0.0,0.0,0.0,0.0,0.0,0.0,0.0,0.0,0.0,0.0,0.0,0.0,0.0,0.0,0.0,0.0,0.0,0.0,0.254276305437088,-0.11691958833426846,-0.5856584001384977,-0.054331822389678326,0.007412351202219725,0.004420679062604904,0.013011123985052109
348,5,-1.5263145542121492e-05,2.2262040147325024e-05,-1.7224134353455156e-05,0.00167631555814296,0.0016392924590036273,0.0009712619357742369,0.0,0.0,0.0,0.0,0.0,0.0,0.0,0.0,0.0,-0.0019646123982965946,0.002086909720674157,-0.0,0.0,0.0,0.0,0.0,0.0,0.0,0.0,0.0,0.0,0.0,0.0,0.0,0.0,0.0,0.0,0.0,0.0,0.0,0.0,0.0,0.0,0.0,0.25427624583244324,-0.11752822411114631,-0.5868655594939247,-0.05478606432831993,-0.006141761317849159,-0.005781841464340687,-0.00230602640658617
353,5,1.913687128762831e-06,1.8581027688924223e-05,-3.2357147574657574e-05,0.0029076512437313795,0.0010071295546367764,0.0024100004229694605,0.0,0.0,0.0,0.0,0.0,0.0,0.0,0.0,0.0,-0.0011644198093563318,0.0036869209725409746,-0.0,0.0,0.0,0.0,0.0,0.0,0.0,0.0,0.0,0.0,0.0,0.0,0.0,0.0,0.0,0.0,0.0,0.0,0.0,0.0,0.0,0.0,0.0,0.2542771100997925,-0.11735268258306412,-0.5869483053593194,-0.05452550206410939,-0.01085065770894289,-0.0034269122406840324,-0.006908986251801252
358,5,1.1064821592299268e-05,-5.8908240134769585e-06,-1.8379449102212675e-05,0.002153454115614295,0.0037281981203705072,-0.0012338776141405106,0.0,0.0,0.0,0.0,0.0,0.0,0.0,0.0,0.0,-0.004676041658967733,0.0027431712951511145,-0.0,0.0,0.0,0.0,0.0,0.0,0.0,0.0,0.0,0.0,0.0,0.0,0.0,0.0,0.0,0.0,0.0,0.0,0.0,0.0,0.0,0.0,0.0,0.25427892804145813,-0.11737207795494144,-0.587385950769334,-0.054668723955869206,-0.008073173463344574,-0.013761742040514946,0.004121379926800728
363,5,1.5805715520400554e-05,1.216631517308997e-05,-5.783161327599373e-07,0.0013097613118588924,-0.0014095400692895055,-0.002862321911379695,0.0,0.0,0.0,0.0,0.0,0.0,0.0,0.0,0.0,0.0019037940073758364,0.0016777673736214638,-0.0,0.0,0.0,0.0,0.0,0.0,0.0,0.0,0.0,0.0,0.0,0.0,0.0,0.0,0.0,0.0,0.0,0.0,0.0,0.0,0.0,0.0,0.0,0.25427600741386414,-0.11827585193667862,-0.5860863926825277,-0.05474300925591159,-0.004937673918902874,0.005602880381047726,0.009210780262947083
368,5,-4.560224056149309e-07,2.35617389989784e-05,5.6799148296704516e-05,-0.0018837148090824485,-0.0020182214211672544,-0.008891541510820389,0.0,0.0,0.0,0.0,0.0,0.0,0.0,0.0,0.0,0.0027015425730496645,-0.002420656615868211,-0.0,0.0,0.0,0.0,0.0,0.0,0.0,0.0,0.0,0.0,0.0,0.0,0.0,0.0,0.0,0.0,0.0,0.0,0.0,0.0,0.0,0.0,0.0,0.2542768716812134,-0.11771700463795165,-0.5867217545443625,-0.05481130309406116,0.00712400721386075,0.007950717583298683,0.028159931302070618
374,5,2.1097952412674204e-05,4.828943929169327e-06,1.0091419426316861e-05,0.002452441956847906,0.0020171247888356447,0.003871619701385498,0.0,0.0,0.0,0.0,0.0,0.0,0.0,0.0,0.0,-0.002438647672533989,0.003104470670223236,-0.0,0.0,0.0,0.0,0.0,0.0,0.0,0.0,0.0,0.0,0.0,0.0,0.0,0.0,0.0,0.0,0.0,0.0,0.0,0.0,0.0,0.0,0.0,0.25427716970443726,-0.11689320202653004,-0.5861501481488852,-0.05391751222238534,-0.009255065582692623,-0.007280012127012014,-0.010635378770530224
379,5,4.0785498640616424e-06,3.3709493436617777e-06,1.1507596298088174e-07,-0.0016469836700707674,0.0008092567441053689,0.0025581740774214268,0.0,0.0,0.0,0.0,0.0,0.0,0.0,0.0,0.0,-0.0009369812323711812,-0.0021091061644256115,-0.0,0.0,0.0,0.0,0.0,0.0,0.0,0.0,0.0,0.0,0.0,0.0,0.0,0.0,0.0,0.0,0.0,0.0,0.0,0.0,0.0,0.0,0.0,0.2542758882045746,-0.11648493432428003,-0.5860834852756956,-0.054073687688937624,0.006207102444022894,-0.002757537644356489,-0.006810622755438089
384,5,-1.7226699128514156e-05,2.7821042749565095e-05,5.7418033975409344e-05,-0.003476829966530204,-0.003180236089974642,-0.0072549618780612946,0.0,0.0,0.0,0.0,0.0,0.0,0.0,0.0,0.0,0.004192356951534748,-0.004480239003896713,-0.0,0.0,0.0,0.0,0.0,0.0,0.0,0.0,0.0,0.0,0.0,0.0,0.0,0.0,0.0,0.0,0.0,0.0,0.0,0.0,0.0,0.0,0.0,0.2542800009250641,-0.11722763086925309,-0.5864208188210931,-0.0543016400717882,0.013185431249439716,0.012338302098214626,0.023491589352488518
389,5,-2.3665696062380448e-05,3.381210990482941e-05,-3.182064392603934e-05,-0.0019445085199549794,-0.0017928205197677016,0.010316926054656506,0.0,0.0,0.0,0.0,0.0,0.0,0.0,0.0,0.0,0.0024376939982175827,-0.002541003515943885,-0.0,0.0,0.0,0.0,0.0,0.0,0.0,0.0,0.0,0.0,0.0,0.0,0.0,0.0,0.0,0.0,0.0,0.0,0.0,0.0,0.0,0.0,0.0,0.2542767822742462,-0.11658941172096206,-0.5866776371103006,-0.05467136699258017,0.007478189654648304,0.007174170576035976,-0.030368229374289513
394,5,-1.2544724086183123e-05,3.4245895221829414e-05,-7.442075730068609e-05,0.0009735834901221097,-0.0005985760944895446,0.00905909389257431,0.0,0.0,0.0,0.0,0.0,0.0,0.0,0.0,0.0,0.0009191766730509698,0.0011963767465204,-0.0,0.0,0.0,0.0,0.0,0.0,0.0,0.0,0.0,0.0,0.0,0.0,0.0,0.0,0.0,0.0,0.0,0.0,0.0,0.0,0.0,0.0,0.0,0.25427550077438354,-0.118448458593937,-0.5861081567487967,-0.05437131745087824,-0.003520938567817211,0.002705139573663473,-0.027344580739736557
399,5,7.969227226567455e-06,8.191982487915084e-06,-6.422715523513034e-05,0.0031640282832086086,0.0034679751843214035,0.0012906230986118317,0.0,0.0,0.0,0.0,0.0,0.0,0.0,0.0,0.0,-0.004308696370571852,0.004024907480925322,-0.0,0.0,0.0,0.0,0.0,0.0,0.0,0.0,0.0,0.0,0.0,0.0,0.0,0.0,0.0,0.0,0.0,0.0,0.0,0.0,0.0,0.0,0.0,0.25427961349487305,-0.11686825626863848,-0.587034146571951,-0.05443426079174805,-0.011845367029309273,-0.012680673971772194,-0.00414276123046875
404,5,1.6944286471698433e-05,2.507989302102942e-05,-7.315977563848719e-05,0.0022057166788727045,-0.0013239149702712893,0.0016377541469410062,0.0,0.0,0.0,0.0,0.0,0.0,0.0,0.0,0.0,0.001829248620197177,0.0028211658354848623,-0.0,0.0,0.0,0.0,0.0,0.0,0.0,0.0,0.0,0.0,0.0,0.0,0.0,0.0,0.0,0.0,0.0,0.0,0.0,0.0,0.0,0.0,0.0,0.2542766332626343,-0.11797971781488861,-0.5861016806708432,-0.054592732180956574,-0.008302737958729267,0.00538354367017746,-0.005540173966437578
409,5,2.6335721486248076e-05,1.2422377949405927e-05,-3.290347012807615e-05,0.0019765160977840424,0.0013748777564615011,-0.0051445565186440945,0.0,0.0,0.0,0.0,0.0,0.0,0.0,0.0,0.0,0.0018309869337826967,0.002822340000420809,-0.0,0.0,0.0,0.0,0.0,0.0,0.0,0.0,0.0,0.0,0.0,0.0,0.0,0.0,0.0,0.0,0.0,0.0,0.0,0.0,0.0,0.0,0.0,0.2542766332626343,-0.11730972637709428,-0.5869156874722438,-0.05479621978514139,-0.007498359773308039,-0.004801447968930006,0.01516286563128233
414,5,3.6111086956225336e-05,1.1134477063023951e-05,2.3722980131424265e-06,0.0019615062046796083,0.000592769414652139,-0.006481974385678768,0.0,0.0,0.0,0.0,0.0,0.0,0.0,0.0,0.0,-0.0006364231812767684,0.0025488974060863256,-0.0,0.0,0.0,0.0,0.0,0.0,0.0,0.0,0.0,0.0,0.0,0.0,0.0,0.0,0.0,0.0,0.0,0.0,0.0,0.0,0.0,0.0,0.0,0.2542760670185089,-0.11816836127378386,-0.5876170890671583,-0.05489072109955563,-0.007501421496272087,-0.0018729998264461756,0.019589152187108994
419,5,3.721621851582313e-06,2.6041598175652325e-05,5.570572830038145e-05,-0.003946073353290558,-0.001909166108816862,-0.009411272592842579,0.0,0.0,0.0,0.0,0.0,0.0,0.0,0.0,0.0,0.0025801716838032007,-0.005036577116698027,-0.0,0.0,0.0,0.0,0.0,0.0,0.0,0.0,0.0,0.0,0.0,0.0,0.0,0.0,0.0,0.0,0.0,0.0,0.0,0.0,0.0,0.0,0.0,0.2542792856693268,-0.116935598580016,-0.5862428159342259,-0.05433939144833727,0.014822766184806824,0.007593597285449505,0.029187900945544243
424,5,-2.6173272544838255e-06,2.9956134312669747e-05,3.7121785680938046e-06,-0.002071274910122156,-0.0011207847855985165,0.0044557154178619385,0.0,0.0,0.0,0.0,0.0,0.0,0.0,0.0,0.0,0.001584777724929154,-0.00265931966714561,-0.0,0.0,0.0,0.0,0.0,0.0,0.0,0.0,0.0,0.0,0.0,0.0,0.0,0.0,0.0,0.0,0.0,0.0,0.0,0.0,0.0,0.0,0.0,0.25427642464637756,-0.11789556753634074,-0.5860875531273257,-0.05437134670770724,0.007826396264135838,0.004664021078497171,-0.013006167486310005
429,5,-2.5299579647253267e-05,1.5944819097057916e-05,-4.051811993122101e-05,-0.003796897828578949,0.0016253485810011625,0.007528956513851881,0.0,0.0,0.0,0.0,0.0,0.0,0.0,0.0,0.0,0.0015868388582020998,-0.0026594996452331543,-0.0,0.0,0.0,0.0,0.0,0.0,0.0,0.0,0.0,0.0,0.0,0.0,0.0,0.0,0.0,0.0,0.0,0.0,0.0,0.0,0.0,0.0,0.0,0.25427642464637756,-0.11564503029706498,-0.5852827009886995,-0.05388581298672323,0.01442280225455761,-0.005704951006919146,-0.022877829149365425
434,5,-3.9308528357651085e-05,7.645237928954884e-06,7.163415830291342e-06,-0.003100322326645255,0.0016495459713041782,-0.004416728392243385,0.0,0.0,0.0,0.0,0.0,0.0,0.0,0.0,0.0,-0.0019836847204715014,-0.004041095729917288,-0.0,0.0,0.0,0.0,0.0,0.0,0.0,0.0,0.0,0.0,0.0,0.0,0.0,0.0,0.0,0.0,0.0,0.0,0.0,0.0,0.0,0.0,0.0,0.254277765750885,-0.1158151628915545,-0.5866904032389565,-0.05415619864291644,0.011893009766936302,-0.005838039331138134,0.013536031357944012
439,5,-3.142875721096061e-05,2.4278844648506492e-05,1.1359593372617383e-05,0.00017307135567534715,-0.0018338412046432495,-0.0019124832469969988,0.0,0.0,0.0,0.0,0.0,0.0,0.0,0.0,0.0,0.0024864859879016876,0.0001418582396581769,-0.0,0.0,0.0,0.0,0.0,0.0,0.0,0.0,0.0,0.0,0.0,0.0,0.0,0.0,0.0,0.0,0.0,0.0,0.0,0.0,0.0,0.0,0.0,0.25427597761154175,-0.11712095478974106,-0.586714117109292,-0.05444033547095828,-0.00041748880175873637,0.007317743264138699,0.00611087866127491
445,5,-1.9682791389641352e-05,1.9346804037922993e-05,-1.3463393770507537e-05,0.0016963565722107887,0.00014033334446139634,0.002901473082602024,0.0,0.0,0.0,0.0,0.0,0.0,0.0,0.0,0.0,-3.6508987250272185e-05,0.0021025550086051226,-0.0,0.0,0.0,0.0,0.0,0.0,0.0,0.0,0.0,0.0,0.0,0.0,0.0,0.0,0.0,0.0,0.0,0.0,0.0,0.0,0.0,0.0,0.0,0.25427576899528503,-0.11742771351753621,-0.5863772027319306,-0.05460399236353825,-0.006187799386680126,-0.00010741717414930463,-0.008664533495903015
450,5,2.040477193077095e-05,1.4056171266929596e-06,-1.1839754733955488e-05,0.0061211660504341125,0.002553866244852543,0.0006431325455196202,0.0,0.0,0.0,0.0,0.0,0.0,0.0,0.0,0.0,-0.0031103731598705053,0.007739135529845953,-0.0,0.0,0.0,0.0,0.0,0.0,0.0,0.0,0.0,0.0,0.0,0.0,0.0,0.0,0.0,0.0,0.0,0.0,0.0,0.0,0.0,0.0,0.0,0.2542840540409088,-0.11781609453347774,-0.5871796240778954,-0.0545839134863778,-0.022776730358600616,-0.009154131636023521,-0.0019362973980605602
455,5,2.7894020604435354e-05,6.249146736081457e-06,-1.1339696357026696e-05,0.0028848445508629084,8.806570986052975e-05,0.00012293159670662135,0.0,0.0,0.0,0.0,0.0,0.0,0.0,0.0,0.0,7.095221462805057e-06,0.003705872455611825,-0.0,0.0,0.0,0.0,0.0,0.0,0.0,0.0,0.0,0.0,0.0,0.0,0.0,0.0,0.0,0.0,0.0,0.0,0.0,0.0,0.0,0.0,0.0,0.25427693128585815,-0.11724872965551653,-0.5860406195333125,-0.0539585730117159,-0.01090647466480732,2.08907531487057e-05,-0.0003849572385661304
460,5,1.1239966624998488e-05,2.617704467411386e-06,1.1887953405675944e-05,-0.0014661140739917755,0.0005348216509446502,-0.003214991418644786,0.0,0.0,0.0,0.0,0.0,0.0,0.0,0.0,0.0,-0.0005685166106559336,-0.0018673277227208018,-0.0,0.0,0.0,0.0,0.0,0.0,0.0,0.0,0.0,0.0,0.0,0.0,0.0,0.0,0.0,0.0,0.0,0.0,0.0,0.0,0.0,0.0,0.0,0.25427567958831787,-0.11619866068958397,-0.5863640751066455,-0.05452130876641093,0.005495535209774971,-0.0016731437062844634,0.00993954949080944
465,5,1.8636963432072662e-05,5.33143975189887e-06,-2.812616185110528e-05,0.0005957451649010181,-0.00021947643836028874,0.00463747838512063,0.0,0.0,0.0,0.0,0.0,0.0,0.0,0.0,0.0,0.0003978706372436136,0.0007745202165096998,-0.0,0.0,0.0,0.0,0.0,0.0,0.0,0.0,0.0,0.0,0.0,0.0,0.0,0.0,0.0,0.0,0.0,0.0,0.0,0.0,0.0,0.0,0.0,0.25427529215812683,-0.11604169546260597,-0.586749730959104,-0.054156867577912306,-0.0022794133983552456,0.0011709337122738361,-0.014177653007209301
470,5,1.0393420780019369e-05,3.662112430902198e-05,-3.4132156088162446e-06,-0.0009753723279573023,-0.004446398466825485,-0.002068568719550967,0.0,0.0,0.0,0.0,0.0,0.0,0.0,0.0,0.0,0.005842652637511492,-0.0012415118981152773,-0.0,0.0,0.0,0.0,0.0,0.0,0.0,0.0,0.0,0.0,0.0,0.0,0.0,0.0,0.0,0.0,0.0,0.0,0.0,0.0,0.0,0.0,0.0,0.2542797327041626,-0.11827293841202602,-0.5870187640784902,-0.05495365836450145,0.003653755644336343,0.017195189371705055,0.006214680150151253
475,5,3.4069269077008357e-06,1.4191240552463569e-05,-7.240942068165168e-05,-0.0012707208516076207,0.0018062639283016324,0.009038898162543774,0.0,0.0,0.0,0.0,0.0,0.0,0.0,0.0,0.0,-0.002163809956982732,-0.0016301709692925215,-0.0,0.0,0.0,0.0,0.0,0.0,0.0,0.0,0.0,0.0,0.0,0.0,0.0,0.0,0.0,0.0,0.0,0.0,0.0,0.0,0.0,0.0,0.0,0.2542761266231537,-0.11686674265986165,-0.5865973988425903,-0.05442304089941919,0.004797592293471098,-0.006368089932948351,-0.028157973662018776
480,5,2.317128291906556e-06,1.2595623957167845e-05,-5.123528535477817e-05,-0.0005337880575098097,0.0007652654894627631,-0.0002527096658013761,0.0,0.0,0.0,0.0,0.0,0.0,0.0,0.0,0.0,-0.0008393426542170346,-0.0006929609808139503,-0.0,0.0,0.0,0.0,0.0,0.0,0.0,0.0,0.0,0.0,0.0,0.0,0.0,0.0,0.0,0.0,0.0,0.0,0.0,0.0,0.0,0.0,0.0,0.2542753517627716,-0.11653466919808729,-0.5870188645907138,-0.0541102899939248,0.002039381070062518,-0.002470167586579919,-0.00021610286785289645
485,5,-1.6087373296613805e-05,1.4754881703993306e-05,-3.0112507374724373e-05,-0.0027367668226361275,-7.271637878147885e-05,-0.003033001907169819,0.0,0.0,0.0,0.0,0.0,0.0,0.0,0.0,0.0,0.00023334271099884063,-0.0035342455375939608,-0.0,0.0,0.0,0.0,0.0,0.0,0.0,0.0,0.0,0.0,0.0,0.0,0.0,0.0,0.0,0.0,0.0,0.0,0.0,0.0,0.0,0.0,0.0,0.2542767822742462,-0.11558217863141601,-0.5864574305465204,-0.054214162765349364,0.010401351377367973,0.0006867540068924427,0.008265909738838673
490,5,-1.3882530765840784e-05,3.064078919123858e-05,-5.3759111324325204e-05,-0.0005123519222252071,-0.0022458420135080814,0.002400623867288232,0.0,0.0,0.0,0.0,0.0,0.0,0.0,0.0,0.0,0.0030331015586853027,-0.0006969146779738367,-0.0,0.0,0.0,0.0,0.0,0.0,0.0,0.0,0.0,0.0,0.0,0.0,0.0,0.0,0.0,0.0,0.0,0.0,0.0,0.0,0.0,0.0,0.0,0.25427642464637756,-0.11810754179949853,-0.5863686942007824,-0.05471977516343159,0.0020510409958660603,0.008926494047045708,-0.008496242575347424
495,5,-2.092419526888989e-05,-8.850039989738434e-07,-5.7325896705151536e-06,-0.0011395387118682265,0.0037398585118353367,-0.006003525573760271,0.0,0.0,0.0,0.0,0.0,0.0,0.0,0.0,0.0,-0.004650666378438473,-0.001510221161879599,-0.0,0.0,0.0,0.0,0.0,0.0,0.0,0.0,0.0,0.0,0.0,0.0,0.0,0.0,0.0,0.0,0.0,0.0,0.0,0.0,0.0,0.0,0.0,0.2542782425880432,-0.11621455813219833,-0.5865737650213418,-0.05412476700314713,0.004444615449756384,-0.01368702668696642,0.017253536731004715
500,5,-8.3484019341995e-06,8.320005690620746e-06,2.0842961021116935e-05,0.0014187495689839125,-0.000166743848240003,-0.005521634593605995,0.0,0.0,0.0,0.0,0.0,0.0,0.0,0.0,0.0,0.00034427150967530906,0.0017716198926791549,-0.0,0.0,0.0,0.0,0.0,0.0,0.0,0.0,0.0,0.0,0.0,0.0,0.0,0.0,0.0,0.0,0.0,0.0,0.0,0.0,0.0,0.0,0.0,0.2542756199836731,-0.11600077963966425,-0.586313114990989,-0.054003574171537935,-0.005213882774114609,0.0010131926974281669,0.016187669709324837
505,5,2.969265324281878e-06,1.6053963918238878e-05,2.800482980092056e-05,0.0020100981928408146,-0.0011327771935611963,-0.002659152029082179,0.0,0.0,0.0,0.0,0.0,0.0,0.0,0.0,0.0,0.0015902497107163072,0.002545695286244154,-0.0,0.0,0.0,0.0,0.0,0.0,0.0,0.0,0.0,0.0,0.0,0.0,0.0,0.0,0.0,0.0,0.0,0.0,0.0,0.0,0.0,0.0,0.0,0.2542763352394104,-0.11641611445235972,-0.5866129942986509,-0.05418898592835455,-0.007491997443139553,0.00468012411147356,0.007780616637319326
510,5,3.2773998555057915e-06,4.302055458538234e-05,-2.686232392079546e-06,0.0006461683078669012,-0.004115155898034573,0.003499002894386649,0.0,0.0,0.0,0.0,0.0,0.0,0.0,0.0,0.0,0.005441936198621988,0.0008085512672550976,-0.0,0.0,0.0,0.0,0.0,0.0,0.0,0.0,0.0,0.0,0.0,0.0,0.0,0.0,0.0,0.0,0.0,0.0,0.0,0.0,0.0,0.0,0.0,0.2542790472507477,-0.11848104969784751,-0.5854883925553043,-0.05412466331953646,-0.0023795668967068195,0.016015781089663506,-0.011060599237680435
516,5,1.929267091327347e-05,2.6418554625706747e-05,2.08294004551135e-05,0.0024359882809221745,0.0010897330939769745,-0.002242487855255604,0.0,0.0,0.0,0.0,0.0,0.0,0.0,0.0,0.0,-0.0012181225465610623,0.0031193525064736605,-0.0,0.0,0.0,0.0,0.0,0.0,0.0,0.0,0.0,0.0,0.0,0.0,0.0,0.0,0.0,0.0,0.0,0.0,0.0,0.0,0.0,0.0,0.0,0.2542766332626343,-0.11794795939236574,-0.5868294870908596,-0.054598627227737166,-0.009180284105241299,-0.0035849539563059807,0.006510145030915737
521,5,2.6156978492508642e-05,3.299543459434062e-05,1.9495357719279127e-06,0.001691799727268517,-0.0005938433459959924,0.001970434794202447,0.0,0.0,0.0,0.0,0.0,0.0,0.0,0.0,0.0,0.0009411735227331519,0.0021852399222552776,-0.0,0.0,0.0,0.0,0.0,0.0,0.0,0.0,0.0,0.0,0.0,0.0,0.0,0.0,0.0,0.0,0.0,0.0,0.0,0.0,0.0,0.0,0.0,0.254275918006897,-0.11746708330150177,-0.5859482741088307,-0.05415654690397579,-0.006431210320442915,0.0027699305210262537,-0.006343978922814131
526,5,-3.699756234709639e-07,2.4908178602345288e-05,3.4536940802354366e-05,-0.0032062337268143892,0.000954063085373491,-0.003971106372773647,0.0,0.0,0.0,0.0,0.0,0.0,0.0,0.0,0.0,-0.0010439653415232897,-0.004103632178157568,-0.0,0.0,0.0,0.0,0.0,0.0,0.0,0.0,0.0,0.0,0.0,0.0,0.0,0.0,0.0,0.0,0.0,0.0,0.0,0.0,0.0,0.0,0.0,0.25427746772766113,-0.11692657810119897,-0.5865722557856989,-0.054733447030962216,0.012077057734131813,-0.003072416875511408,0.011979440227150917
531,5,1.6885138393263333e-05,2.489735561539419e-05,-4.7344288759632036e-05,0.0014538458781316876,0.0002877340011764318,0.010272040031850338,0.0,0.0,0.0,0.0,0.0,0.0,0.0,0.0,0.0,-0.00019314851670060307,0.0018665442476049066,-0.0,0.0,0.0,0.0,0.0,0.0,0.0,0.0,0.0,0.0,0.0,0.0,0.0,0.0,0.0,0.0,0.0,0.0,0.0,0.0,0.0,0.0,0.0,0.2542756497859955,-0.11766172776030145,-0.5867734176352868,-0.05440010186063745,-0.005493271630257368,-0.0005683997296728194,-0.03187112510204315
536,5,1.0242501048196573e-05,2.895910438382998e-05,7.808260306774173e-06,-0.0004938155761919916,-0.00048232448170892894,-0.004639744758605957,0.0,0.0,0.0,0.0,0.0,0.0,0.0,0.0,0.0,0.0007973603205755353,-0.0006264473777264357,-0.0,0.0,0.0,0.0,0.0,0.0,0.0,0.0,0.0,0.0,0.0,0.0,0.0,0.0,0.0,0.0,0.0,0.0,0.0,0.0,0.0,0.0,0.0,0.2542753219604492,-0.11795178177066976,-0.5874232457303616,-0.05479076857553311,0.001843619509600103,0.002346675843000412,0.013535672798752785
541,5,1.0462928912602365e-05,1.395660456182668e-05,-7.239499245770276e-05,-0.00011728476965799928,0.0019556526094675064,0.009836532175540924,0.0,0.0,0.0,0.0,0.0,0.0,0.0,0.0,0.0,-0.002335196826606989,-0.00014555656525772065,-0.0,0.0,0.0,0.0,0.0,0.0,0.0,0.0,0.0,0.0,0.0,0.0,0.0,0.0,0.0,0.0,0.0,0.0,0.0,0.0,0.0,0.0,0.0,0.2542758882045746,-0.11752691604588894,-0.587624272376432,-0.05502416861645855,0.00042837296496145427,-0.006872497033327818,-0.03107224963605404
546,5,7.5977623055223376e-06,1.1041537618439179e-05,-5.533088187803514e-05,-0.00043630870641209185,0.0009948051301762462,0.0005619841394945979,0.0,0.0,0.0,0.0,0.0,0.0,0.0,0.0,0.0,-0.0011154108215123415,-0.0005567280459217727,-0.0,0.0,0.0,0.0,0.0,0.0,0.0,0.0,0.0,0.0,0.0,0.0,0.0,0.0,0.0,0.0,0.0,0.0,0.0,0.0,0.0,0.0,0.0,0.2542754113674164,-0.11762006186665425,-0.5878289828255829,-0.05511396737083314,0.0016384394839406013,-0.0032826391980051994,-0.003227074397727847
551,5,-6.2093590713629965e-06,1.475654062232934e-05,-9.295436757383868e-05,-0.0020638895221054554,-0.0002216589346062392,0.005435883067548275,0.0,0.0,0.0,0.0,0.0,0.0,0.0,0.0,0.0,0.0004423464124556631,-0.002655880758538842,-0.0,0.0,0.0,0.0,0.0,0.0,0.0,0.0,0.0,0.0,0.0,0.0,0.0,0.0,0.0,0.0,0.0,0.0,0.0,0.0,0.0,0.0,0.0,0.2542761266231537,-0.116993594275395,-0.5859811857717296,-0.05437334899694349,0.007816284894943237,0.001301852404139936,-0.018608219921588898
556,5,-2.050078364845831e-05,3.3198390156030655e-05,-2.9243266908451915e-05,-0.002619966398924589,-0.0026483568362891674,-0.007288789376616478,0.0,0.0,0.0,0.0,0.0,0.0,0.0,0.0,0.0,0.003569956636056304,-0.0033915922977030277,-0.0,0.0,0.0,0.0,0.0,0.0,0.0,0.0,0.0,0.0,0.0,0.0,0.0,0.0,0.0,0.0,0.0,0.0,0.0,0.0,0.0,0.0,0.0,0.2542782723903656,-0.11781967191738796,-0.5860700637246242,-0.05485234338558015,0.009981525130569935,0.010506536811590195,0.020205549895763397
561,5,2.1972950889903586e-06,2.2898706447449513e-05,-1.1809624993475154e-06,0.002391741145402193,0.0006474490510299802,-0.006115359254181385,0.0,0.0,0.0,0.0,0.0,0.0,0.0,0.0,0.0,-0.0006464772741310298,0.003035353496670723,-0.0,0.0,0.0,0.0,0.0,0.0,0.0,0.0,0.0,0.0,0.0,0.0,0.0,0.0,0.0,0.0,0.0,0.0,0.0,0.0,0.0,0.0,0.0,0.25427642464637756,-0.11687249214375772,-0.58672622136599,-0.0542589243855798,-0.008933075703680515,-0.0019025573274120688,0.017007408663630486
566,5,1.6813677348181955e-06,2.422387115075253e-05,6.315354403341189e-05,0.0006452925154007971,8.711595000931993e-06,-0.010841438546776772,0.0,0.0,0.0,0.0,0.0,0.0,0.0,0.0,0.0,0.00017149370978586376,0.0008092100615613163,-0.0,0.0,0.0,0.0,0.0,0.0,0.0,0.0,0.0,0.0,0.0,0.0,0.0,0.0,0.0,0.0,0.0,0.0,0.0,0.0,0.0,0.0,0.0,0.25427529215812683,-0.11754143464224817,-0.5866941959105163,-0.0545857258002636,-0.0023815056774765253,0.0005047061713412404,0.03214983642101288
571,5,-3.0606645395891974e-06,1.2413836884661578e-05,2.800269976432901e-05,-0.00047029677079990506,0.0016560181975364685,0.0016686863964423537,0.0,0.0,0.0,0.0,0.0,0.0,0.0,0.0,0.0,-0.001947884913533926,-0.0006210324936546385,-0.0,0.0,0.0,0.0,0.0,0.0,0.0,0.0,0.0,0.0,0.0,0.0,0.0,0.0,0.0,0.0,0.0,0.0,0.0,0.0,0.0,0.0,0.0,0.25427573919296265,-0.11578303264860705,-0.585774952807202,-0.05407187068704431,0.0018276988994330168,-0.005732633639127016,-0.00569009967148304
576,5,1.5056857591844164e-05,1.6120893633342348e-05,-8.680250175530091e-06,0.0023953639902174473,-2.218251938757021e-05,0.005636218935251236,0.0,0.0,0.0,0.0,0.0,0.0,0.0,0.0,0.0,0.00019830072415061295,0.0030640626791864634,-0.0,0.0,0.0,0.0,0.0,0.0,0.0,0.0,0.0,0.0,0.0,0.0,0.0,0.0,0.0,0.0,0.0,0.0,0.0,0.0,0.0,0.0,0.0,0.2542763948440552,-0.11756447325996836,-0.5862561251731571,-0.054279736920204075,-0.009017564356327057,0.0005836017662659287,-0.01804746687412262
581,5,-1.9122344383504242e-05,2.3164986487245187e-05,4.9355450755683705e-05,-0.00406647939234972,-0.000992827583104372,-0.006434132345020771,0.0,0.0,0.0,0.0,0.0,0.0,0.0,0.0,0.0,0.0014493917115032673,-0.005232477094978094,-0.0,0.0,0.0,0.0,0.0,0.0,0.0,0.0,0.0,0.0,0.0,0.0,0.0,0.0,0.0,0.0,0.0,0.0,0.0,0.0,0.0,0.0,0.0,0.2542789578437805,-0.11738975733557647,-0.586200995995894,-0.054749686011681696,0.015399320051074028,0.004265621304512024,0.01900707744061947
587,5,-1.0715149073803332e-05,1.7784590454539284e-05,-4.1447154217166826e-05,-4.29363499279134e-05,0.0004554071056190878,0.010782125405967236,0.0,0.0,0.0,0.0,0.0,0.0,0.0,0.0,0.0,-0.00040436183917336166,-9.132025297731161e-05,-0.0,0.0,0.0,0.0,0.0,0.0,0.0,0.0,0.0,0.0,0.0,0.0,0.0,0.0,0.0,0.0,0.0,0.0,0.0,0.0,0.0,0.0,0.0,0.25427523255348206,-0.11647881906686618,-0.5856740262807291,-0.05422266534807599,0.00026875550975091755,-0.0011900370009243488,-0.033836763352155685
592,5,-2.9969829483889043e-05,1.3956941984361038e-06,-1.5326721040764824e-05,-0.0027085361070930958,0.0024310676380991936,-0.00042222323827445507,0.0,0.0,0.0,0.0,0.0,0.0,0.0,0.0,0.0,-0.0029511265456676483,-0.003524602157995105,-0.0,0.0,0.0,0.0,0.0,0.0,0.0,0.0,0.0,0.0,0.0,0.0,0.0,0.0,0.0,0.0,0.0,0.0,0.0,0.0,0.0,0.0,0.0,0.25427788496017456,-0.11662648345539219,-0.5863690966778282,-0.05471001306909022,0.010372992604970932,-0.008685242384672165,2.4981975002447143e-05
597,5,-2.023341266976786e-06,2.6351255655754358e-05,1.578014598635491e-05,0.003099947702139616,-0.002764458302408457,-0.004481628071516752,0.0,0.0,0.0,0.0,0.0,0.0,0.0,0.0,0.0,0.0037157407496124506,0.003926725126802921,-0.0,0.0,0.0,0.0,0.0,0.0,0.0,0.0,0.0,0.0,0.0,0.0,0.0,0.0,0.0,0.0,0.0,0.0,0.0,0.0,0.0,0.0,0.0,0.25427892804145813,-0.11874889287313592,-0.5877371407483793,-0.05493585724960552,-0.011556411162018776,0.010935559868812561,0.012618083506822586
602,5,-1.1570808965188917e-05,1.9145487385685556e-05,-5.562369551626034e-05,-0.0004066612746100873,0.0001794699637684971,0.008652049116790295,0.0,0.0,0.0,0.0,0.0,0.0,0.0,0.0,0.0,-4.705308310803957e-05,-0.0005593977984972298,-0.0,0.0,0.0,0.0,0.0,0.0,0.0,0.0,0.0,0.0,0.0,0.0,0.0,0.0,0.0,0.0,0.0,0.0,0.0,0.0,0.0,0.0,0.0,0.25427523255348206,-0.11681468653362623,-0.5862654449912119,-0.05454203744150618,0.0016463252250105143,-0.00013844853674527258,-0.027803923934698105
607,5,1.7504893548903055e-05,3.389597259229049e-05,-2.4570881578256376e-05,0.00394860003143549,-0.0020112269558012486,-0.0017517792293801904,0.0,0.0,0.0,0.0,0.0,0.0,0.0,0.0,0.0,0.0027732327580451965,0.005043615587055683,-0.0,0.0,0.0,0.0,0.0,0.0,0.0,0.0,0.0,0.0,0.0,0.0,0.0,0.0,0.0,0.0,0.0,0.0,0.0,0.0,0.0,0.0,0.0,0.25427940487861633,-0.11797277107037557,-0.5865380909833101,-0.0546040725039677,-0.014843487180769444,0.008161748759448528,0.003683618735522032
612,5,1.621693081688136e-05,5.184339534025639e-05,-4.367674046079628e-05,0.0010042651556432247,-0.0031160074286162853,0.0021492866799235344,0.0,0.0,0.0,0.0,0.0,0.0,0.0,0.0,0.0,0.004216937813907862,0.0012907983036711812,-0.0,0.0,0.0,0.0,0.0,0.0,0.0,0.0,0.0,0.0,0.0,0.0,0.0,0.0,0.0,0.0,0.0,0.0,0.0,0.0,0.0,0.0,0.0,0.25427767634391785,-0.11851482149582751,-0.5865463795984832,-0.055104561061987085,-0.0037988456897437572,0.012410609982907772,-0.008393734693527222
617,5,-2.795749651340884e-06,5.8633439039113e-05,-1.0648179795680335e-06,-0.002360495738685131,-0.001885408302769065,-0.005320883356034756,0.0,0.0,0.0,0.0,0.0,0.0,0.0,0.0,0.0,0.002665192587301135,-0.0030310209840536118,-0.0,0.0,0.0,0.0,0.0,0.0,0.0,0.0,0.0,0.0,0.0,0.0,0.0,0.0,0.0,0.0,0.0,0.0,0.0,0.0,0.0,0.0,0.0,0.2542772591114044,-0.11760190543729909,-0.5862427130512862,-0.05497246661295589,0.00892032589763403,0.00784380454570055,0.014509583823382854
622,5,2.0593950466718525e-05,1.4648029718955513e-05,-4.1445204260526225e-05,0.002566409297287464,0.005592335015535355,0.004056988749653101,0.0,0.0,0.0,0.0,0.0,0.0,0.0,0.0,0.0,-0.006940918043255806,0.003290405496954918,-0.0,0.0,0.0,0.0,0.0,0.0,0.0,0.0,0.0,0.0,0.0,0.0,0.0,0.0,0.0,0.0,0.0,0.0,0.0,0.0,0.0,0.0,0.0,0.25428271293640137,-0.11618771495125667,-0.5867046729864105,-0.05425960926258035,-0.009683698415756226,-0.020427560433745384,-0.01423545740544796
627,5,-9.609359040041454e-06,1.443997007299913e-06,-2.041309926426038e-05,-0.0034585404209792614,0.0035262650344520807,-0.0017273977864533663,0.0,0.0,0.0,0.0,0.0,0.0,0.0,0.0,0.0,-0.0043320502154529095,-0.00444162730127573,-0.0,0.0,0.0,0.0,0.0,0.0,0.0,0.0,0.0,0.0,0.0,0.0,0.0,0.0,0.0,0.0,0.0,0.0,0.0,0.0,0.0,0.0,0.0,0.25428009033203125,-0.11684880770736583,-0.5864872141236419,-0.054724341792952325,0.013071794994175434,-0.012749428860843182,0.0032917598728090525
632,5,7.99816734797787e-06,4.968797838955652e-06,-2.1060597646282986e-05,0.0014274915447458625,0.0005644073826260865,-0.0004275697865523398,0.0,0.0,0.0,0.0,0.0,0.0,0.0,0.0,0.0,-0.0005514004733413458,0.001816416159272194,-0.0,0.0,0.0,0.0,0.0,0.0,0.0,0.0,0.0,0.0,0.0,0.0,0.0,0.0,0.0,0.0,0.0,0.0,0.0,0.0,0.0,0.0,0.0,0.2542756497859955,-0.11804645703885144,-0.5868383758745239,-0.05442193819366322,-0.005345730576664209,-0.0016227669548243284,-0.0006878942367620766
637,5,-1.0544801625655964e-05,-1.4318636203825008e-05,-3.493946132948622e-05,-0.0018077282002195716,0.001781241619028151,0.004394808784127235,0.0,0.0,0.0,0.0,0.0,0.0,0.0,0.0,0.0,-0.0021015480160713196,-0.002305368660017848,-0.0,0.0,0.0,0.0,0.0,0.0,0.0,0.0,0.0,0.0,0.0,0.0,0.0,0.0,0.0,0.0,0.0,0.0,0.0,0.0,0.0,0.0,0.0,0.25427642464637756,-0.11586905139163106,-0.5854621906003377,-0.053891874482631004,0.0068867141380906105,-0.006290983874350786,-0.015435692854225636
642,5,-3.546250127328676e-06,1.2495051123551093e-05,2.3685619453317486e-05,0.0004374787968117744,-0.0032195437233895063,-0.0068890685215592384,0.0,0.0,0.0,0.0,0.0,0.0,0.0,0.0,0.0,0.0042835380882024765,0.000533172395080328,-0.0,0.0,0.0,0.0,0.0,0.0,0.0,0.0,0.0,0.0,0.0,0.0,0.0,0.0,0.0,0.0,0.0,0.0,0.0,0.0,0.0,0.0,0.0,0.2542775571346283,-0.1174811085344901,-0.5878102085946371,-0.054511522573715845,-0.0015691211447119713,0.012606550008058548,0.019177423790097237
647,5,2.666774207682465e-06,1.541928759252187e-05,-2.5775747417355888e-05,0.001001067110337317,-0.0013752561062574387,0.004857870750129223,0.0,0.0,0.0,0.0,0.0,0.0,0.0,0.0,0.0,0.001939851907081902,0.0012626791140064597,-0.0,0.0,0.0,0.0,0.0,0.0,0.0,0.0,0.0,0.0,0.0,0.0,0.0,0.0,0.0,0.0,0.0,0.0,0.0,0.0,0.0,0.0,0.0,0.2542758882045746,-0.1173786011830311,-0.5862442745572654,-0.05415849032446518,-0.003716070670634508,0.005709019023925066,-0.01673021726310253
653,5,-4.382866791274864e-06,9.319590390077792e-06,-1.766006062098313e-05,-0.0006866296753287315,0.0004413807182572782,0.00032116504735313356,0.0,0.0,0.0,0.0,0.0,0.0,0.0,0.0,0.0,-0.00038523873081430793,-0.0009007906774058938,-0.0,0.0,0.0,0.0,0.0,0.0,0.0,0.0,0.0,0.0,0.0,0.0,0.0,0.0,0.0,0.0,0.0,0.0,0.0,0.0,0.0,0.0,0.0,0.2542753219604492,-0.11513380455793155,-0.5862362434124548,-0.05381698264451305,0.002651034388691187,-0.0011337441392242908,-0.0030868847388774157
658,5,1.0636422302923165e-06,2.0005683836643584e-05,-3.613163062254898e-05,0.0005565223982557654,-0.001363638904877007,0.002682369202375412,0.0,0.0,0.0,0.0,0.0,0.0,0.0,0.0,0.0,0.0019353637471795082,0.0006931188981980085,-0.0,0.0,0.0,0.0,0.0,0.0,0.0,0.0,0.0,0.0,0.0,0.0,0.0,0.0,0.0,0.0,0.0,0.0,0.0,0.0,0.0,0.0,0.0,0.25427573919296265,-0.11680177047067476,-0.5861211760544114,-0.05436519257590388,-0.002039849292486906,0.005695783998817205,-0.010508517734706402
663,5,-2.265285365865566e-05,4.3947369704255834e-05,1.478983108427201e-06,-0.0031533525325357914,-0.0037609278224408627,-0.004460774827748537,0.0,0.0,0.0,0.0,0.0,0.0,0.0,0.0,0.0,0.005036149173974991,-0.004078300204128027,-0.0,0.0,0.0,0.0,0.0,0.0,0.0,0.0,0.0,0.0,0.0,0.0,0.0,0.0,0.0,0.0,0.0,0.0,0.0,0.0,0.0,0.0,0.0,0.25428053736686707,-0.11716800212802113,-0.5866747314030452,-0.05505608394611963,0.012002537958323956,0.014821701683104038,0.011360567063093185
668,5,-1.3797283827443607e-05,4.772776082972996e-05,-2.820414192683529e-05,0.00029377383179962635,-0.0016575329937040806,0.0028174049220979214,0.0,0.0,0.0,0.0,0.0,0.0,0.0,0.0,0.0,0.0023662224411964417,0.0003290052991360426,-0.0,0.0,0.0,0.0,0.0,0.0,0.0,0.0,0.0,0.0,0.0,0.0,0.0,0.0,0.0,0.0,0.0,0.0,0.0,0.0,0.0,0.0,0.0,0.254275918006897,-0.11697067581213418,-0.5861024961206881,-0.05449012092617805,-0.0009682420059107244,0.006963877473026514,-0.010916342958807945
673,5,-2.080280683003366e-05,1.516553766123252e-05,-3.706425195559859e-05,-0.0008926410228013992,0.004061451181769371,0.002085637068375945,0.0,0.0,0.0,0.0,0.0,0.0,0.0,0.0,0.0,-0.004978444892913103,-0.0011968056205660105,-0.0,0.0,0.0,0.0,0.0,0.0,0.0,0.0,0.0,0.0,0.0,0.0,0.0,0.0,0.0,0.0,0.0,0.0,0.0,0.0,0.0,0.0,0.0,0.2542785406112671,-0.11585643635011783,-0.5857526873194439,-0.05449962814923388,0.003522200509905815,-0.014651695266366005,-0.008950983174145222
678,5,1.28808233057498e-06,1.3306325854500756e-05,-2.5214641937054694e-05,0.0028249321039766073,0.0014787251129746437,-0.0010332545498386025,0.0,0.0,0.0,0.0,0.0,0.0,0.0,0.0,0.0,-0.001689945813268423,0.003580002812668681,-0.0,0.0,0.0,0.0,0.0,0.0,0.0,0.0,0.0,0.0,0.0,0.0,0.0,0.0,0.0,0.0,0.0,0.0,0.0,0.0,0.0,0.0,0.0,0.25427719950675964,-0.11684171205964405,-0.5873082643748962,-0.054530667619692656,-0.010535993613302708,-0.0049735470674932,0.00045582244638353586
