timestamp,dt,pos_x,pos_y,pos_z,vel_x,vel_y,vel_z,roll,pitch,yaw,agv_x,agv_y,agv_z,x_ref,y_ref,z_ref,roll_ref,pitch_ref,yaw_ref,x_vel_ref,y_vel_ref,z_vel_ref,x_torque,y_torque,z_torque,w0,w1,w2,w3,u0,u1,u2,u3,m0req,m1req,m2req,m3req,thrust0,thrust1,thrust2,thrust3,thrust_ref,roll_vicon,pitch_vicon,yaw_vicon,acc_x,acc_y,acc_z
5,5,0.0,0.0,0.0,0.0009119800524786115,0.00038557135849259794,0.0020492342300713062,-0.01825495809316635,0.023366179317235947,-0.09194131195545197,-0.001544865663163364,-0.07550617307424545,0.006654137745499611,0.0,0.0,0.0,-0.0004875360755249858,0.000768769474234432,-0.0,0.0,0.0,0.0,0.0006142253987491131,-0.00121337512973696,-0.00275225006043911,0.0,0.0,0.0,0.0,0.0,0.0,0.0,0.0,0.0,0.0,0.0,0.0,0.0,0.0,0.0,0.0,0.4099803566932678,-0.0366091431253749,-0.002787909454710133,0.05583772964601363,-0.003647920209914446,-0.0015422854339703918,-0.006147702690213919
26,21,0.0,0.0,0.0,0.0011472103651612997,-0.0020132639911025763,0.000686191429849714,-0.01825495809316635,0.023366179317235947,-0.09194131195545197,-0.001544865663163364,-0.07550617307424545,0.006654137745499611,0.0,0.0,0.0,0.0025456708390265703,0.0009670608560554683,-0.0,0.0,0.0,0.0,0.0006142253987491131,-0.00121337512973696,-0.00275225006043911,0.0,0.0,0.0,0.0,0.0,0.0,0.0,0.0,0.0,0.0,0.0,0.0,0.0,0.0,0.0,0.0,0.40998169779777527,-0.03711820097859747,-0.00451321529696574,0.0554285269915861,-0.004588841460645199,0.008053055964410305,-0.002058574231341481
31,5,0.0,0.0,0.0,0.003209685441106558,-0.0031947132665663958,0.0030107228085398674,-0.01825495809316635,0.023366179317235947,-0.09194131195545197,-0.001544865663163364,-0.07550617307424545,0.006654137745499611,0.0,0.0,0.0,0.00403953529894352,0.002705654129385948,-0.0,0.0,0.0,0.0,0.0006142253987491131,-0.00121337512973696,-0.00275225006043911,0.0,0.0,0.0,0.0,0.0,0.0,0.0,0.0,0.0,0.0,0.0,0.0,0.0,0.0,0.0,0.0,0.4099850058555603,-0.03587005250901088,-0.004580269037664383,0.056550676032174424,-0.012838741764426231,0.012778853066265583,-0.009032168425619602
40,8,0.0,0.0,0.0,0.003209685441106558,-0.0031947132665663958,0.0030107228085398674,-0.01825370267033577,0.02384212240576744,-0.09185370802879333,-0.0013497755862772465,-0.04959307610988617,0.018502188846468925,0.0,0.0,0.0,0.004040523897856474,0.0027063165325671434,-0.0,0.0,0.0,0.0,0.0005880480166524649,-0.001095079816877842,-0.0027341123204678297,0.0,0.0,0.0,0.0,0.0,0.0,0.0,0.0,0.0,0.0,0.0,0.0,0.0,0.0,0.0,0.0,0.4098846912384033,-0.03587005250901088,-0.004580269037664383,0.056550676032174424,-0.012838741764426231,0.012778853066265583,-0.009032168425619602
47,8,0.0,0.0,0.0,0.00222109816968441,-0.00042093038791790605,0.001845779363065958,-0.01825370267033577,0.02384212240576744,-0.09185370802879333,-0.0013497755862772465,-0.04959307610988617,0.018502188846468925,0.0,0.0,0.0,0.0005323753575794399,0.0018727699061855674,-0.0,0.0,0.0,0.0,0.0005880480166524649,-0.001095079816877842,-0.0027341123204678297,0.0,0.0,0.0,0.0,0.0,0.0,0.0,0.0,0.0,0.0,0.0,0.0,0.0,0.0,0.0,0.0,0.4098806083202362,-0.036483154775374935,-0.004612621895025817,0.05682860390570996,-0.00888439267873764,0.0016837215516716242,-0.005537338089197874
52,5,-3.499427839415148e-05,-2.262027919641696e-06,3.3389489999535726e-06,-0.004232869483530521,0.00019040479674004018,8.628095383755863e-05,-0.018277937546372414,0.024086982011795044,-0.09162026643753052,-0.0029053399339318275,-0.012461424805223942,0.02258516475558281,0.0,0.0,0.0,-0.00024537654826417565,-0.003616784466430545,-0.0,0.0,0.0,0.0,0.0005934213986620307,-0.0008583557792007923,-0.0027225168887525797,0.0,0.0,0.0,0.0,0.0,0.0,0.0,0.0,0.0,0.0,0.0,0.0,0.0,0.0,0.0,0.0,0.409615159034729,-0.03605081480747841,-0.003899004613767253,0.057273675560150644,0.017146902158856392,-0.0007755442056804895,-0.00020224766922183335
57,5,0.00014578002446796745,-0.0001350806705886498,2.7506472179084085e-05,0.024038542062044144,0.018651731312274933,-0.0033575689885765314,-0.018277937546372414,0.024086982011795044,-0.09162026643753052,-0.0029053399339318275,-0.012461424805223942,0.02258516475558281,0.0,0.0,0.0,-0.023856936022639275,0.020463259890675545,-0.0,0.0,0.0,0.0,0.0005934213986620307,-0.0008583557792007923,-0.0027225168887525797,0.0,0.0,0.0,0.0,0.0,0.0,0.0,0.0,0.0,0.0,0.0,0.0,0.0,0.0,0.0,0.0,0.40981486439704895,-0.04140695272221655,-0.014481579745135411,0.051919484485001284,-0.09702779352664948,-0.07542441040277481,0.010511407628655434
62,5,6.485373887699097e-06,-2.681164005480241e-05,4.817322769667953e-05,-0.012289688922464848,-0.009562144055962563,-0.0039006166625767946,-0.01829136162996292,0.0240769200026989,-0.09144952148199081,-0.00037422621971927583,0.004617513157427311,0.017340853810310364,0.0,0.0,0.0,0.012045144103467464,-0.010359731502830982,-0.0,0.0,0.0,0.0,0.0006004385650157928,-0.0006746238213963807,-0.0025428789667785168,0.0,44487.0,5267.0,44353.0,-2.4400651454925537e-05,0.19780674576759338,0.015123017132282257,0.19697526097297668,0.0,0.0,0.0,0.0,0.0,45498.0,3272.0,45609.0,0.40946856141090393,-0.03728540346985843,-0.005189247655320945,0.05823938335520616,0.04909258708357811,0.038054388016462326,0.012519663199782372
67,5,1.836976116464939e-05,-6.408784247469157e-05,5.572207737714052e-05,-0.002023092471063137,0.0023500253446400166,-0.002227023709565401,-0.01829136162996292,0.0240769200026989,-0.09144952148199081,-0.00037422621971927583,0.004617513157427311,0.017340853810310364,0.0,0.0,0.0,-0.0031117598991841078,-0.0016780467703938484,-0.0,0.0,0.0,0.0,0.0006004385650157928,-0.0006746238213963807,-0.0025428789667785168,0.0,44487.0,5267.0,44353.0,-2.4400651454925537e-05,0.19780674576759338,0.015123017132282257,0.19697526097297668,0.0,0.0,0.0,0.0,0.0,45498.0,3272.0,45609.0,0.409419447183609,-0.03606196334198454,-0.002721230955090569,0.05987253110370002,0.007951635867357254,-0.009830329567193985,0.007821922190487385
72,5,3.568695319700055e-05,-8.566915494157001e-05,9.894527465803549e-05,0.0018174790311604738,0.0037263906560838223,-0.006719355005770922,-0.018123963847756386,0.02415088191628456,-0.08979533612728119,-0.00830820482224226,-0.012395582161843777,0.07880005240440369,0.0,0.0,0.0,-0.0049249171279370785,0.0015947934007272124,-0.0,0.0,0.0,0.0,-0.00017736358859110624,-0.00015618801990058273,-0.0026730610989034176,994.0,45516.0,1122.0,44810.0,0.002684846520423889,0.20426779985427856,0.003036484122276306,0.19982582330703735,0.0,0.0,0.0,0.0,0.0,44981.0,4735.0,44533.0,0.4075276553630829,-0.036974637690506094,-0.0027126773407701956,0.060922888462781905,-0.007522227242588997,-0.015486459247767925,0.022221485152840614
77,5,9.111711733567063e-06,9.170228440780193e-05,0.000157623304403387,-0.0031752900686115026,-0.023714084178209305,-0.010230730287730694,-0.018123963847756386,0.02415088191628456,-0.08979533612728119,-0.00830820482224226,-0.012395582161843777,0.07880005240440369,0.0,0.0,0.0,0.03032577969133854,-0.002672444796189666,-0.0,0.0,0.0,0.0,-0.00018101510067936033,-0.0003634158056229353,-0.002498740330338478,2613.0,44861.0,3360.0,43720.0,0.007224835455417633,0.20014771819114685,0.009389765560626984,0.19305261969566345,0.0,0.0,0.0,0.0,1631.0,45173.0,2122.0,44428.0,0.40771111845970154,-0.036885109244365326,-0.004478179221437403,0.05586430515629159,0.01260512974113226,0.09537158161401749,0.03432144224643707
85,8,3.746354559552856e-05,4.118100696359761e-05,0.00016033241990953684,0.0030166697688400745,-4.1246024920837954e-05,-0.003448495175689459,-0.018123963847756386,0.02415088191628456,-0.08979533612728119,-0.00830820482224226,-0.012395582161843777,0.07880005240440369,0.0,0.0,0.0,0.030325839295983315,-0.0026724408380687237,-0.0,0.0,0.0,0.0,-0.00018101510067936033,-0.0003634158056229353,-0.002498740330338478,2613.0,44861.0,3360.0,43720.0,0.007224835455417633,0.20014771819114685,0.009389765560626984,0.19305261969566345,0.0,0.0,0.0,0.0,1631.0,45173.0,2122.0,44428.0,0.40771111845970154,-0.03639818204533288,-0.0028060574541657816,0.05763408741867588,-0.012332913465797901,0.00037736629019491374,0.01402332354336977
90,5,4.0287570300279185e-05,-2.9824706871295348e-05,0.00025600960361771286,0.001300364383496344,0.009928425773978233,-0.01442935410887003,-0.018123963847756386,0.02415088191628456,-0.08979533612728119,-0.00830820482224226,-0.012395582161843777,0.07880005240440369,0.0,0.0,0.0,-0.012694409117102623,0.0011646916391327977,-0.0,0.0,0.0,0.0,-0.00018101510067936033,-0.0003634158056229353,-0.002498740330338478,2613.0,44861.0,3360.0,43720.0,0.007224835455417633,0.20014771819114685,0.009389765560626984,0.19305261969566345,0.0,0.0,0.0,0.0,1631.0,45173.0,2122.0,44428.0,0.40755531191825867,-0.03987906528876038,-0.0011975111156800513,0.05937500443386334,-0.0054934946820139885,-0.03991806134581566,0.04888121411204338
95,5,5.354688983061351e-05,-6.303131522145122e-05,0.00031272039632312953,0.0022464138455688953,0.007627453189343214,-0.012268316000699997,-0.018093843013048172,0.02523775026202202,-0.08680255711078644,-0.012733646668493748,-0.09072138369083405,0.20322878658771515,0.0,0.0,0.0,-0.00991667527705431,0.002002797555178404,-0.0,0.0,0.0,0.0,0.0004977708449587226,-0.001551227062009275,-0.002427114872261882,0.0,43583.0,10117.0,43626.0,-0.007985152304172516,0.19220581650733948,0.03101835399866104,0.19247207045555115,0.0,0.0,0.0,0.0,0.0,43529.0,8928.0,44433.0,0.4041150212287903,-0.039326093411857485,0.0009780077669878386,0.06132196106114086,-0.009367238730192184,-0.030920948833227158,0.044040244072675705
100,5,8.692233677720651e-05,-0.00016363053873647004,0.00029567047022283077,0.0053464872762560844,0.01637212745845318,-0.0012935081031173468,-0.018093843013048172,0.02523775026202202,-0.08680255711078644,-0.012733646668493748,-0.09072138369083405,0.20322878658771515,0.0,0.0,0.0,-0.021332016214728355,0.004699714947491884,-0.0,0.0,0.0,0.0,0.0004977708449587226,-0.001551227062009275,-0.002427114872261882,0.0,43583.0,10117.0,43626.0,-0.007985152304172516,0.19220581650733948,0.03101835399866104,0.19247207045555115,0.0,0.0,0.0,0.0,0.0,43529.0,8928.0,44433.0,0.4041907489299774,-0.04527607577574857,0.005049614766231835,0.060758563278189806,-0.021980810910463333,-0.06651869416236877,0.011805625632405281
105,5,0.00012900203000754118,-0.00011745615483960137,0.0004413790884427726,0.007495102938264608,-0.0015527752693742514,-0.020787255838513374,-0.018252220004796982,0.025954976677894592,-0.08471143245697021,0.03349916264414787,-0.01534865889698267,0.16721908748149872,0.0,0.0,0.0,0.0017484608106315136,0.006634978577494621,-0.0,0.0,0.0,0.0,0.0015958058647811413,-0.0015794011997058988,-0.0024470388889312744,0.0,43669.0,9122.0,44087.0,-0.007948897778987885,0.19273531436920166,0.027602575719356537,0.19532209634780884,0.0,0.0,0.0,0.0,964.0,44802.0,5755.0,42986.0,0.4017086327075958,-0.041809641919383224,0.003232710656891509,0.06416278052383925,-0.03084869123995304,0.005419295281171799,0.0733630433678627
110,5,-3.0261922802310437e-05,-0.00028195767663419247,0.0007623580750077963,-0.02004842273890972,0.02256438136100769,-0.05117323622107506,-0.018252220004796982,0.025954976677894592,-0.08471143245697021,0.03349916264414787,-0.01534865889698267,0.16721908748149872,0.0,0.0,0.0,-0.02969471551477909,-0.017259052023291588,-0.0,0.0,0.0,0.0,0.0015958058647811413,-0.0015794011997058988,-0.0024470388889312744,0.0,43669.0,9122.0,44087.0,-0.007948897778987885,0.19273531436920166,0.027602575719356537,0.19532209634780884,0.0,0.0,0.0,0.0,964.0,44802.0,5755.0,42986.0,0.40193623304367065,-0.05132577457381454,0.022626640556571848,0.06907717558895624,0.08025047183036804,-0.09206598997116089,0.17070594429969788
115,5,0.00026690485537983477,-0.00022380489099305123,0.0005548976478166878,0.0355888232588768,-0.0013720778515562415,0.01369248703122139,-0.01821751706302166,0.026299595832824707,-0.08319588005542755,-0.0377742201089859,-0.031564388424158096,0.1769796758890152,0.0,0.0,0.0,0.001282821991480887,0.031113222241401672,-0.0,0.0,0.0,0.0,0.00021797922090627253,-0.0006529685924760997,-0.002425702288746834,1875.0,44134.0,5834.0,43212.0,0.005129091441631317,0.19561588764190674,0.016882814466953278,0.18992754817008972,0.0,0.0,0.0,0.0,1.0,44843.0,7086.0,42122.0,0.40015730261802673,-0.04505494574273234,0.007385003421564813,0.0671172364842699,-0.14407649636268616,0.0039604343473911285,-0.02469867840409279
121,5,0.0003500819148030132,-0.00022108919802121818,0.0006029251380823553,0.022321434691548347,-0.0007918188348412514,-0.002616102574393153,-0.01821751706302166,0.026299595832824707,-0.08319588005542755,-0.0377742201089859,-0.031564388424158096,0.1769796758890152,0.0,0.0,0.0,0.000518120767083019,0.019779134541749954,-0.0,0.0,0.0,0.0,0.00021797922090627253,-0.0006529685924760997,-0.002425702288746834,1875.0,44134.0,5834.0,43212.0,0.005129091441631317,0.19561588764190674,0.016882814466953278,0.18992754817008972,0.0,0.0,0.0,0.0,1.0,44843.0,7086.0,42122.0,0.4000416100025177,-0.04689228494886851,0.005545442648201123,0.06779022441907817,-0.09157360345125198,0.0015993043780326843,0.026697831228375435
126,5,0.000494307023473084,-0.0002447894075885415,0.0005122830625623465,0.026887943968176842,0.0030804837588220835,0.011905060149729252,-0.01821751706302166,0.026299595832824707,-0.08319588005542755,-0.0377742201089859,-0.031564388424158096,0.1769796758890152,0.0,0.0,0.0,-0.004562580492347479,0.023928027600049973,-0.0,0.0,0.0,0.0,0.00021797922090627253,-0.0006529685924760997,-0.002425702288746834,1875.0,44134.0,5834.0,43212.0,0.005129091441631317,0.19561588764190674,0.016882814466953278,0.18992754817008972,0.0,0.0,0.0,0.0,1.0,44843.0,7086.0,42122.0,0.400081992149353,-0.04908366548208034,0.004043939056245724,0.06694030032051991,-0.11078888922929764,-0.014084821566939354,-0.01643611676990986
131,5,0.000493733212351799,-0.00023877958301454782,0.000588872586376965,0.007986048236489296,8.276877633761615e-05,-0.0071510132402181625,-0.020181667059659958,0.026414601132273674,-0.08105543255805969,-0.2118416279554367,0.03066759556531906,0.18543994426727295,0.0,0.0,0.0,-0.0006906983908265829,0.007672476582229137,-0.0,0.0,0.0,0.0,0.0004110991721972823,-0.0009804528672248125,-0.002422001678496599,810.0,43933.0,6713.0,42893.0,0.0021818503737449646,0.19437092542648315,0.019664160907268524,0.18797388672828674,0.0,0.0,0.0,0.0,1140.0,44132.0,5409.0,42846.0,0.3975234627723694,-0.04878659074654583,0.01161292020809581,0.07239668562212047,-0.035300448536872864,-0.0021185860969126225,0.04347285255789757
136,5,0.0006157033494673669,-0.00019787561905104667,0.0005341575597412884,0.019471634179353714,-0.005701724905520678,0.005514800548553467,-0.020181667059659958,0.026414601132273674,-0.08105543255805969,-0.2118416279554367,0.03066759556531906,0.18543994426727295,0.0,0.0,0.0,0.006913588847965002,0.01784062758088112,-0.0,0.0,0.0,0.0,0.0004110991721972823,-0.0009804528672248125,-0.002422001678496599,810.0,43933.0,6713.0,42893.0,0.0021818503737449646,0.19437092542648315,0.019664160907268524,0.18797388672828674,0.0,0.0,0.0,0.0,1140.0,44132.0,5409.0,42846.0,0.3975844383239746,-0.04543166188421518,0.009534223750502056,0.07382113303090418,-0.08209162205457687,0.0212086234241724,0.0063891238532960415
141,5,0.0006458901334553957,-0.00024769926676526666,0.000523012422490865,0.01006763894110918,0.0052647958509624004,0.003214756492525339,-0.021553192287683487,0.02552829310297966,-0.07996976375579834,-0.09601452201604843,0.1859520971775055,0.1193571388721466,0.0,0.0,0.0,-0.007522285915911198,0.009767010807991028,-0.0,0.0,0.0,0.0,7.624923455296084e-05,-0.0006312599289231002,-0.0024867772590368986,1444.0,44296.0,3798.0,43340.0,0.0039248839020729065,0.1966189444065094,0.010682262480258942,0.19071036577224731,0.0,0.0,0.0,0.0,1868.0,44436.0,2957.0,43407.0,0.39629825949668884,-0.04652187665666385,0.012642951448681699,0.07405526638907162,-0.04479849338531494,-0.02300211228430271,0.014657224528491497
146,5,0.0007234561489894986,-0.00024023398873396218,0.0005191622767597437,0.013879540376365185,0.0005342976073734462,0.001503448816947639,-0.021553192287683487,0.02552829310297966,-0.07996976375579834,-0.09601452201604843,0.1859520971775055,0.1193571388721466,0.0,0.0,0.0,-0.001338592846877873,0.013225790113210678,-0.0,0.0,0.0,0.0,7.624923455296084e-05,-0.0006312599289231002,-0.0024867772590368986,1444.0,44296.0,3798.0,43340.0,0.0039248839020729065,0.1966189444065094,0.010682262480258942,0.19071036577224731,0.0,0.0,0.0,0.0,1868.0,44436.0,2957.0,43407.0,0.3963031768798828,-0.04547276781999518,0.013355404218902578,0.07537392210392678,-0.060664236545562744,-0.004093754105269909,0.021276090294122696
151,5,0.0006681055529043078,-0.00018539839948061854,0.0007772185490466654,-0.0035852277651429176,-0.007516693789511919,-0.03567684814333916,-0.021394023671746254,0.022273210808634758,-0.0786772072315216,0.04246361926198006,0.3112393319606781,0.12523657083511353,0.0,0.0,0.0,0.00931693334132433,-0.0020470102317631245,-0.0,0.0,0.0,0.0,0.0004704876628238708,0.0015265301335602999,-0.0025312784127891064,4512.0,41807.0,0.0,45867.0,0.012817040085792542,0.18139055371284485,-0.0006147027015686035,0.20648910105228424,0.0,0.0,0.0,0.0,5503.0,41242.0,0.0,46142.0,0.3948056399822235,-0.05553275566533988,0.022034322376238303,0.07279559105887635,0.009352084249258041,0.028381308540701866,0.13827119767665863
156,5,0.0008021621033549309,-0.00024046881299000233,0.0005519071710295975,0.01769234985113144,0.0054548499174416065,0.020840540528297424,-0.021394023671746254,0.022273210808634758,-0.0786772072315216,0.04246361926198006,0.3112393319606781,0.12523657083511353,0.0,0.0,0.0,-0.007837781682610512,0.01678878627717495,-0.0,0.0,0.0,0.0,0.0004704876628238708,0.0015265301335602999,-0.0025312784127891064,4512.0,41807.0,0.0,45867.0,0.012817040085792542,0.18139055371284485,-0.0006147027015686035,0.20648910105228424,0.0,0.0,0.0,0.0,5503.0,41242.0,0.0,46142.0,0.39485546946525574,-0.04486041590200254,0.019570386093380663,0.0773852344859522,-0.07672183960676193,-0.023879524320364,-0.032354049384593964
161,5,0.0009387748432345688,-0.0002455583889968693,0.0005537222023122013,0.02443348802626133,0.0023489943705499172,0.005998057778924704,-0.02140549011528492,0.01914234086871147,-0.07785458862781525,-0.0015557239530608058,0.434236079454422,0.08606839925050735,0.0,0.0,0.0,-0.007875666953623295,0.016871517524123192,-0.0,0.0,0.0,0.0,0.0006825464079156518,0.002340837847441435,-0.0025500936899334192,4413.0,40621.0,0.0,47093.0,0.012520037591457367,0.17431163787841797,-0.003576897084712982,0.21432968974113464,0.0,0.0,0.0,0.0,4039.0,40783.0,0.0,47436.0,0.39391374588012695,-0.0461601489444264,0.017379324920187424,0.07569500418584584,-0.104700468480587,-0.011544843204319477,0.013870187103748322
166,5,0.0010114131728187203,-0.00016882209456525743,0.000601242296397686,0.003490360453724861,-0.008044453337788582,-0.003036977956071496,-0.02140549011528492,0.01914234086871147,-0.07785458862781525,-0.0015557239530608058,0.434236079454422,0.08606839925050735,0.0,0.0,0.0,-0.003817678429186344,0.023014891892671585,-0.0,0.0,0.0,0.0,0.0006825464079156518,0.002340837847441435,-0.0025500936899334192,4413.0,40621.0,0.0,47093.0,0.012520037591457367,0.17431163787841797,-0.003576897084712982,0.21432968974113464,0.0,0.0,0.0,0.0,4039.0,40783.0,0.0,47436.0,0.39386963844299316,-0.04574167182750369,0.023063013159161674,0.07742274941213902,-0.02159487083554268,0.030429111793637276,0.04339198023080826
171,5,0.0010114131728187203,-0.00016882209456525743,0.000601242296397686,0.003490360453724861,-0.008044453337788582,-0.003036977956071496,-0.021432088688015938,0.013941233977675438,-0.0769742950797081,0.02578248642385006,0.4204067885875702,0.10370215773582458,0.0,0.0,0.0,0.01002483069896698,0.004804227966815233,-0.0,0.0,0.0,0.0,0.00045617850264534354,0.002420996315777302,-0.002509127603843808,5564.0,40848.0,0.0,46493.0,0.016041502356529236,0.1756584495306015,-0.007321879267692566,0.21047751605510712,0.0,0.0,0.0,0.0,5321.0,40717.0,0.0,46565.0,0.3928614556789398,-0.04574167182750369,0.023063013159161674,0.07742274941213902,-0.02184367924928665,0.030387580394744873,0.04524080082774162
176,5,0.001303160097450018,-0.00014139866107143462,0.0005886423168703914,0.027500445023179054,-0.0011692747939378023,-0.0009452318190596998,-0.021432088688015938,0.013941233977675438,-0.0769742950797081,0.02578248642385006,0.4204067885875702,0.10370215773582458,0.0,0.0,0.0,0.0009926906786859035,0.02636122517287731,-0.0,0.0,0.0,0.0,0.00045617850264534354,0.002420996315777302,-0.002509127603843808,5564.0,40848.0,0.0,46493.0,0.016041502356529236,0.1756584495306015,-0.007321879267692566,0.21047751605510712,0.0,0.0,0.0,0.0,5321.0,40717.0,0.0,46565.0,0.392973929643631,-0.04245196317439268,0.01032092277757109,0.07119491611159985,-0.11988766491413116,0.0030097588896751404,0.040639154613018036
182,5,0.001516883377917111,-2.2849204469821416e-05,0.00015655605238862336,0.038171395659446716,-0.016947705298662186,0.060208510607481,-0.021295174956321716,0.010595560073852539,-0.07607559114694595,-0.0052082110196352005,0.3973541259765625,0.10465827584266663,0.0,0.0,0.0,0.022079573944211006,0.03619132563471794,-0.0,0.0,0.0,0.0,0.0009882436133921146,0.0016303928568959236,-0.0025343343149870634,2809.0,41111.0,281.0,46122.0,0.007787056267261505,0.17722409963607788,0.000751890242099762,0.2081066071987152,0.0,0.0,0.0,0.0,5541.0,40835.0,0.0,46381.0,0.3921601474285126,-0.036864057714828466,0.010941427804352824,0.0823643336829239,-0.1641925871372223,0.06679972261190414,-0.14746980369091034
187,5,0.0013380248565226793,-0.00024091456725727767,-0.00011451834870968014,-0.013588784262537956,0.025444841012358665,0.056012969464063644,-0.021295174956321716,0.010595560073852539,-0.07607559114694595,-0.0052082110196352005,0.3973541259765625,0.10465827584266663,0.0,0.0,0.0,-0.034421443939208984,-0.009602422825992107,-0.0,0.0,0.0,0.0,0.0009882436133921146,0.0016303928568959236,-0.0025343343149870634,2809.0,41111.0,281.0,46122.0,0.007787056267261505,0.17722409963607788,0.000751890242099762,0.2081066071987152,0.0,0.0,0.0,0.0,5541.0,40835.0,0.0,46381.0,0.3920581340789795,-0.058703788165997944,-0.0013413740705794193,0.08283046663372014,0.04354385286569595,-0.1040867492556572,-0.13849395513534546
192,5,0.001305912621319294,-0.00020983359718229622,-0.00013757140550296754,-0.008572337217628956,0.0032821150962263346,0.020031319931149483,-0.021095173433423042,0.00648832693696022,-0.07479775696992874,0.05621044337749481,0.29276394844055176,0.11742354929447174,0.0,0.0,0.0,-0.005082177929580212,-0.005167708266526461,-0.0,0.0,0.0,0.0,0.00047096138587221503,0.0015106411883607507,-0.0025354656390845776,3191.0,41914.0,0.0,45603.0,0.008897066116333008,0.18203452229499817,-0.002771824598312378,0.20481464266777039,0.0,0.0,0.0,0.0,2357.0,41515.0,606.0,45808.0,0.3903544843196869,-0.05644991311394915,0.0033358767967864174,0.08291954059979917,0.023344645276665688,-0.015307771973311901,-0.03124811127781868
197,5,0.0014261009637266397,1.4398410712601617e-05,-5.984045856166631e-05,0.014254667796194553,-0.030407845973968506,-0.004872937221080065,-0.021095173433423042,0.00648832693696022,-0.07479775696992874,0.05621044337749481,0.29276394844055176,0.11742354929447174,0.0,0.0,0.0,0.0400765985250473,0.015268874354660511,-0.0,0.0,0.0,0.0,0.00047096138587221503,0.0015106411883607507,-0.0025354656390845776,3191.0,41914.0,0.0,45603.0,0.008897066116333008,0.18203452229499817,-0.002771824598312378,0.20481464266777039,0.0,0.0,0.0,0.0,2357.0,41515.0,606.0,45808.0,0.3907034397125244,-0.053636845116024505,-0.0037911605003572283,0.08675573321651792,-0.0689910501241684,0.12075015902519226,0.04423600062727928
202,5,0.0012485041515901685,0.00018811873451340944,9.855452663032338e-05,-0.020587164908647537,-0.03344319760799408,-0.023637179285287857,-0.020300157368183136,0.00490910280495882,-0.0739918202161789,0.12388702481985092,0.13125768303871155,0.08363433182239532,0.0,0.0,0.0,0.0445563979446888,-0.01577245257794857,-0.0,0.0,0.0,0.0,-0.0007176008075475693,-0.0006023301393724978,-0.0025476659648120403,1226.0,45063.0,1042.0,42323.0,0.0033208131790161133,0.20141088962554932,0.0028163492679595947,0.18451008200645447,0.0,0.0,0.0,0.0,2831.0,42084.0,0.0,45330.0,0.3898564875125885,-0.04002533630739871,0.008851328111504438,0.08729146395182479,0.07109531760215759,0.13393878936767578,0.10273797810077667
207,5,0.0013456296874210238,0.00023350682749878615,0.00014652239042334259,0.007421435788273811,-0.016387293115258217,-0.013806655071675777,-0.020300157368183136,0.00490910280495882,-0.0739918202161789,0.12388702481985092,0.13125768303871155,0.08363433182239532,0.0,0.0,0.0,0.021974438801407814,0.009283263236284256,-0.0,0.0,0.0,0.0,-0.0007176008075475693,-0.0006023301393724978,-0.0025476659648120403,1226.0,45063.0,1042.0,42323.0,0.0033208131790161133,0.20141088962554932,0.0028163492679595947,0.18451008200645447,0.0,0.0,0.0,0.0,2831.0,42084.0,0.0,45330.0,0.3895319402217865,-0.038040113486472,0.007649559807495583,0.08275657088758594,-0.04184262454509735,0.06603620201349258,0.0742884948849678
212,5,0.0014840259682387114,0.00011258730955887586,2.015626523643732e-05,0.021601907908916473,0.012012545019388199,0.013549261726439,-0.017551695927977562,0.005190576426684856,-0.07211829721927643,0.2417386919260025,-0.174638032913208,0.06604836136102676,0.0,0.0,0.0,-0.01613624207675457,0.022245269268751144,-0.0,0.0,0.0,0.0,0.0014767427928745747,-0.0006489307852461934,-0.0025712912902235985,0.0,43243.0,5082.0,44543.0,-0.01213044673204422,0.190119206905365,0.014553762972354889,0.1981612741947174,0.0,0.0,0.0,0.0,465.0,45514.0,1496.0,41989.0,0.38742148876190186,-0.04453337050020056,-0.0018245626779575528,0.08617073643173315,-0.0997275784611702,-0.04823267459869385,-0.009243148379027843
217,5,0.0014259088784456253,0.00016674365906510502,4.36211412306875e-05,-0.0016558162169530988,-0.003978125285357237,0.0007796959253028035,-0.017551695927977562,0.005190576426684856,-0.07211829721927643,0.2417386919260025,-0.174638032913208,0.06604836136102676,0.0,0.0,0.0,0.005381991155445576,0.0014969208277761936,-0.0,0.0,0.0,0.0,0.0014767427928745747,-0.0006489307852461934,-0.0025712912902235985,0.0,43243.0,5082.0,44543.0,-0.01213044673204422,0.190119206905365,0.014553762972354889,0.1981612741947174,0.0,0.0,0.0,0.0,465.0,45514.0,1496.0,41989.0,0.38728126883506775,-0.03820606047335309,0.0019563375332041577,0.08509022787822199,-0.006712582893669605,0.016083072870969772,0.02948184870183468
222,5,0.0014497392112389207,0.00024199354811571538,9.3405345978681e-05,0.002839498221874237,-0.011728421784937382,-0.0067358799278736115,-0.017551695927977562,0.005190576426684856,-0.07211829721927643,0.2417386919260025,-0.174638032913208,0.06604836136102676,0.0,0.0,0.0,0.015920495614409447,0.005617992021143436,-0.0,0.0,0.0,0.0,0.0014767427928745747,-0.0006489307852461934,-0.0025712912902235985,0.0,43243.0,5082.0,44543.0,-0.01213044673204422,0.190119206905365,0.014553762972354889,0.1981612741947174,0.0,0.0,0.0,0.0,465.0,45514.0,1496.0,41989.0,0.38733041286468506,-0.03495739102153075,0.002203112888454066,0.08217098701459427,-0.025184983387589455,0.04757719859480858,0.052914608269929886
227,5,0.0015431077918037772,2.6405512471683323e-05,6.120816397015005e-05,0.013923446647822857,0.026663796976208687,0.002486840821802616,-0.013611719012260437,0.007879060693085194,-0.07155002653598785,0.3984414339065552,-0.2423214465379715,0.02413712628185749,0.0,0.0,0.0,-0.03593277931213379,0.015737121924757957,-0.0,0.0,0.0,0.0,0.0004010951379314065,-0.0014627461787313223,-0.0026568674948066473,0.0,45386.0,3227.0,43269.0,-0.013194732367992401,0.20344769954681396,0.00900200754404068,0.1902773678302765,0.0,0.0,0.0,0.0,0.0,43668.0,4960.0,44312.0,0.3869219720363617,-0.04067745864133223,-0.004572011539714781,0.08599916709210689,-0.07042967528104782,-0.1072288528084755,0.025040484964847565
232,5,0.0014974294463172555,-9.497460996499285e-05,2.8460986868594773e-05,-0.0022179260849952698,0.024992356076836586,0.005330657586455345,-0.013611719012260437,0.007879060693085194,-0.07155002653598785,0.3984414339065552,-0.2423214465379715,0.02413712628185749,0.0,0.0,0.0,-0.03393944725394249,0.0013326070038601756,-0.0,0.0,0.0,0.0,0.0004010951379314065,-0.0014627461787313223,-0.0026568674948066473,0.0,45386.0,3227.0,43269.0,-0.013194732367992401,0.20344769954681396,0.00900200754404068,0.1902773678302765,0.0,0.0,0.0,0.0,0.0,43668.0,4960.0,44312.0,0.38684743642807007,-0.04464249808309114,-0.006471746860843592,0.08385875313558926,-0.005963177885860205,-0.10126595199108124,0.016199706122279167
237,5,0.0014571846695616841,-1.3541081898438279e-05,0.0001398320309817791,-0.006299648433923721,-0.0039029871113598347,-0.013992749154567719,-0.009819651953876019,0.010086968541145325,-0.07131035625934601,0.5252789258956909,-0.2849311828613281,0.039075952023267746,0.0,0.0,0.0,0.004958510864526033,-0.0022913513239473104,-0.0,0.0,0.0,0.0,-0.0002916406374424696,-0.0019919434562325478,-0.0026788273826241493,0.0,46546.0,2599.0,42001.0,-0.01322261244058609,0.21081116795539856,0.007183931767940521,0.18255794048309326,0.0,0.0,0.0,0.0,0.0,46623.0,2561.0,41764.0,0.38635557889938354,-0.035238124425468545,-0.0029455791163440757,0.08291150542752554,0.01024611946195364,0.014781881123781204,0.07593701034784317
242,5,0.0013394738780334592,-0.0003622229560278356,-3.2602220016997308e-06,-0.018369415774941444,0.047644566744565964,0.015835091471672058,-0.009819651953876019,0.010086968541145325,-0.07131035625934601,0.5252789258956909,-0.2849311828613281,0.039075952023267746,0.0,0.0,0.0,-0.06486540287733078,-0.013164706528186798,-0.0,0.0,0.0,0.0,-0.0002916406374424696,-0.0019919434562325478,-0.0026788273826241493,0.0,46546.0,2599.0,42001.0,-0.01322261244058609,0.21081116795539856,0.007183931767940521,0.18255794048309326,0.0,0.0,0.0,0.0,0.0,46623.0,2561.0,41764.0,0.3871975839138031,-0.050648534313122044,-0.004530368293009919,0.08694369622595116,0.058868568390607834,-0.19350799918174744,-0.015277381986379623
248,5,0.0012634495506063104,-0.00035642346483655274,4.212855492369272e-05,-0.016154220327734947,0.01348144095391035,-0.0016039012698456645,-0.003010218031704426,0.013258501887321472,-0.0707753598690033,0.5923313498497009,-0.2699854075908661,0.04311385378241539,0.0,0.0,0.0,-0.019118791446089745,-0.011227946728467941,-0.0,0.0,0.0,0.0,-0.0006195568130351603,-0.001955340849235654,-0.002677353797480464,0.0,48493.0,0.0,39904.0,-0.0023604854941368103,0.22342640161514282,-0.004304863512516022,0.17008641362190247,0.0,0.0,0.0,0.0,0.0,48540.0,0.0,39801.0,0.3858318626880646,-0.049097052811595925,-0.0036648269716723176,0.08642981774800902,0.05012982711195946,-0.05691119283437729,0.037715911865234375
253,5,0.001216265489347279,-0.0003641340008471161,6.744405982317403e-05,-0.011452045291662216,0.005123908165842295,-0.004025341011583805,-0.003010218031704426,0.013258501887321472,-0.0707753598690033,0.5923313498497009,-0.2699854075908661,0.04311385378241539,0.0,0.0,0.0,-0.007934175431728363,-0.007008758373558521,-0.0,0.0,0.0,0.0,-0.0006195568130351603,-0.001955340849235654,-0.002677353797480464,0.0,48493.0,0.0,39904.0,-0.0023604854941368103,0.22342640161514282,-0.004304863512516022,0.17008641362190247,0.0,0.0,0.0,0.0,0.0,48540.0,0.0,39801.0,0.385758638381958,-0.045290172253165444,-0.0038892782046954337,0.08706194055194064,0.03128902614116669,-0.02361653931438923,0.04549604654312134
258,5,0.0012321259127929807,-0.00048704780056141317,-6.419499550247565e-05,-0.001215145573951304,0.018745101988315582,0.017221864312887192,0.0017661912133917212,0.015056764706969261,-0.07041174918413162,0.5887910723686218,-0.19736143946647644,0.0396084301173687,0.0,0.0,0.0,-0.026543792337179184,0.0022520225029438734,-0.0,0.0,0.0,0.0,-0.0025305352173745632,-0.0018638368928804994,-0.0026871785521507263,251.0,48503.0,0.0,40023.0,0.0006711557507514954,0.22349238395690918,-0.008098699152469635,0.17078262567520142,0.0,0.0,0.0,0.0,1680.0,49900.0,0.0,38657.0,0.3854573369026184,-0.04865267361394684,-0.006955786049498845,0.08516678122327655,-0.010043426416814327,-0.078927181661129,-0.020042546093463898
263,5,0.0010952637530863285,-0.00037819825229234993,0.00016767757188063115,-0.01952524110674858,-0.009615404531359673,-0.02729560062289238,0.0017661912133917212,0.015056764706969261,-0.07041174918413162,0.5887910723686218,-0.19736143946647644,0.0396084301173687,0.0,0.0,0.0,0.011788032948970795,-0.014287679456174374,-0.0,0.0,0.0,0.0,-0.0025305352173745632,-0.0018638368928804994,-0.0026871785521507263,251.0,48503.0,0.0,40023.0,0.0006711557507514954,0.22349238395690918,-0.008098699152469635,0.17078262567520142,0.0,0.0,0.0,0.0,1680.0,49900.0,0.0,38657.0,0.3853866755962372,-0.04340018522258788,-0.0021855324934913316,0.08519387164929143,0.06372351199388504,0.035051919519901276,0.11681853979825974
268,5,0.0011116849491372705,-0.00039381696842610836,0.000122175071737729,-0.003558607306331396,-0.0006979988538660109,-0.0018183307256549597,0.00836495216935873,0.016645370051264763,-0.07006547600030899,0.5263805389404297,-0.08203061670064926,0.021385090425610542,0.0,0.0,0.0,-0.00027091350057162344,0.00011473971972009167,-0.0,0.0,0.0,0.0,-0.0035846498794853687,-0.0018507164204493165,-0.002736601047217846,2105.0,49695.0,0.0,39331.0,0.005776636302471161,0.2313646674156189,-0.01668008416891098,0.16673648357391357,0.0,0.0,0.0,0.0,0.0,47579.0,0.0,41854.0,0.3849239647388458,-0.0393869276252291,-0.0021835330205955054,0.08422736805905816,-0.000513404724188149,-0.0008054257486946881,0.040216028690338135
273,5,0.0010938304476439953,-0.0003964507195632905,9.231342846760526e-05,-0.003567220875993371,0.0001593215565662831,0.0036351310554891825,0.00836495216935873,0.016645370051264763,-0.07006547600030899,0.5263805389404297,-0.08203061670064926,0.021385090425610542,0.0,0.0,0.0,-0.0014626713236793876,0.00014279919560067356,-0.0,0.0,0.0,0.0,-0.0035846498794853687,-0.0018507164204493165,-0.002736601047217846,2105.0,49695.0,0.0,39331.0,0.005776636302471161,0.2313646674156189,-0.01668008416891098,0.16673648357391357,0.0,0.0,0.0,0.0,0.0,47579.0,0.0,41854.0,0.38492435216903687,-0.03761444014899886,-0.0026863168468160177,0.08450166789705885,-0.0006383778527379036,-0.004345062654465437,0.023769019171595573
278,5,0.001100990572012961,-0.0005209613591432571,-1.716148472041823e-05,-6.773896893719211e-05,0.017479287460446358,0.01641702838242054,0.012018120847642422,0.016469450667500496,-0.07008803635835648,0.4270300567150116,0.08136117458343506,-0.008489338681101799,0.0,0.0,0.0,-0.02506956085562706,0.0033550900407135487,-0.0,0.0,0.0,0.0,-0.0016641936963424087,-0.0006657272460870445,-0.002820521593093872,0.0,47259.0,0.0,42924.0,-0.0023656561970710754,0.21539407968521118,-0.01543467491865158,0.1881648600101471,0.0,0.0,0.0,0.0,0.0,46637.0,0.0,43561.0,0.3850729465484619,-0.04250897338844525,-0.00453357893636557,0.08419043200928016,-0.014948449097573757,-0.07447125762701035,-0.015954090282320976
283,5,0.0009945358615368605,-0.00048490974586457014,0.00012490260996855795,-0.01492397952824831,0.00019656088261399418,-0.014963866211473942,0.012018120847642422,0.016469450667500496,-0.07008803635835648,0.4270300567150116,0.08136117458343506,-0.008489338681101799,0.0,0.0,0.0,-0.001767355133779347,-0.01006593368947506,-0.0,0.0,0.0,0.0,-0.0016641936963424087,-0.0006657272460870445,-0.002820521593093872,0.0,47259.0,0.0,42924.0,-0.0023656561970710754,0.21539407968521118,-0.01543467491865158,0.1881648600101471,0.0,0.0,0.0,0.0,0.0,46637.0,0.0,43561.0,0.38496989011764526,-0.03938835421498978,-0.0012618402867158852,0.08521228735540022,0.04484766349196434,-0.005250798538327217,0.0802849680185318
288,5,0.0010114902397617698,-0.00043431061203591526,7.488167466362938e-05,-0.0021035843528807163,-0.007024909369647503,0.0025137721095234156,0.016128992661833763,0.014390131458640099,-0.07016977667808533,0.2825665771961212,0.23356342315673828,-0.023098750039935112,0.0,0.0,0.0,0.008017996326088905,0.0015205772360786796,-0.0,0.0,0.0,0.0,-0.0007839203462935984,4.286179319024086e-06,-0.0028522275388240814,0.0,45996.0,0.0,44714.0,-0.005406886339187622,0.2073066085577011,-0.015738070011138916,0.19922484457492828,0.0,0.0,0.0,0.0,0.0,45995.0,0.0,45196.0,0.3850562274456024,-0.036745769006182524,-0.0021946948932048006,0.0842227201723877,-0.006778512615710497,0.023820966482162476,0.02747519128024578
293,5,0.0009712725877761841,-0.00041138636879622936,9.959239105228335e-05,-0.006261547561734915,-0.005316868424415588,-0.0027053686790168285,0.016128992661833763,0.014390131458640099,-0.07016977667808533,0.2825665771961212,0.23356342315673828,-0.023098750039935112,0.0,0.0,0.0,0.005728568881750107,-0.002209410769864917,-0.0,0.0,0.0,0.0,-0.0007839203462935984,4.286179319024086e-06,-0.0028522275388240814,0.0,45996.0,0.0,44714.0,-0.005406886339187622,0.2073066085577011,-0.015738070011138916,0.19922484457492828,0.0,0.0,0.0,0.0,0.0,45995.0,0.0,45196.0,0.3850506544113159,-0.0365296026830862,-0.00045991435351969747,0.08416336712776307,0.009844359941780567,0.017018960788846016,0.04373973235487938
298,5,0.0009262803941965103,-0.00043328563333489,7.76657325332053e-05,-0.008177374489605427,0.0014708380913361907,0.002258121967315674,0.01773848384618759,0.01224985159933567,-0.07060148566961288,0.14043909311294556,0.29204434156417847,-0.0685398131608963,0.0,0.0,0.0,-0.0034832635428756475,-0.003931849729269743,-0.0,0.0,0.0,0.0,-0.0009843806037679315,0.0009990071412175894,-0.002983192913234234,0.0,45985.0,0.0,46165.0,-0.0031934380531311035,0.20723633468151093,-0.027502000331878662,0.2083834856748581,0.0,0.0,0.0,0.0,0.0,45890.0,0.0,46373.0,0.38554319739341736,-0.03833586390877506,0.0014261926417378243,0.08454520255328565,0.017543112859129906,-0.010363079607486725,0.028818337246775627
303,5,0.0009036341798491776,-0.0004345355846453458,0.00015278204227797687,-0.005623685661703348,0.0006162445642985404,-0.009838847443461418,0.01773848384618759,0.01224985159933567,-0.07060148566961288,0.14043909311294556,0.29204434156417847,-0.0685398131608963,0.0,0.0,0.0,-0.0023716746363788843,-0.0016234085196629167,-0.0,0.0,0.0,0.0,-0.0009843806037679315,0.0009990071412175894,-0.002983192913234234,0.0,45985.0,0.0,46165.0,-0.0031934380531311035,0.20723633468151093,-0.027502000331878662,0.2083834856748581,0.0,0.0,0.0,0.0,0.0,45890.0,0.0,46373.0,0.3855394721031189,-0.03731859652818679,0.003202362402551108,0.08201487564665483,0.007244051434099674,-0.007055342197418213,0.06647831201553345
308,5,0.0009651686414144933,-0.0003966237127315253,0.00014933569764252752,0.006927724462002516,-0.005122791044414043,-0.0024691650178283453,0.019258053973317146,0.008571157231926918,-0.071627177298069,0.1043737605214119,0.3121997117996216,-0.11395841091871262,0.0,0.0,0.0,0.005369476042687893,0.009730186313390732,-0.0,0.0,0.0,0.0,-0.000723188859410584,0.0011552649084478617,-0.003000000026077032,0.0,46099.0,0.0,46168.0,-0.004512004554271698,0.20796459913253784,-0.026883713901042938,0.2084009051322937,0.0,0.0,0.0,0.0,0.0,46108.0,0.0,46159.0,0.38673657178878784,-0.033266875827169785,0.0008453450093716973,0.08213155434994639,-0.04355407506227493,0.016021981835365295,0.044786687940359116
313,5,0.000912872317712754,-0.0003662391973193735,0.0002076747186947614,-0.005243167281150818,-0.0057906704023480415,-0.008908212184906006,0.019258053973317146,0.008571157231926918,-0.071627177298069,0.1043737605214119,0.3121997117996216,-0.11395841091871262,0.0,0.0,0.0,0.006293606013059616,-0.001163738314062357,-0.0,0.0,0.0,0.0,-0.000723188859410584,0.0011552649084478617,-0.003000000026077032,0.0,46099.0,0.0,46168.0,-0.004512004554271698,0.20796459913253784,-0.026883713901042938,0.2084009051322937,0.0,0.0,0.0,0.0,0.0,46108.0,0.0,46159.0,0.3867206275463104,-0.03293971459442456,0.002458695989513377,0.08107434008813554,0.005208710674196482,0.018779577687382698,0.06544751673936844
319,5,0.0008905260474421084,-0.000362326973117888,0.0002275149163324386,-0.004701427184045315,-0.0022849098313599825,-0.005450093187391758,0.019258053973317146,0.008571157231926918,-0.071627177298069,0.1043737605214119,0.3121997117996216,-0.11395841091871262,0.0,0.0,0.0,0.0015729848528280854,-0.0006614751182496548,-0.0,0.0,0.0,0.0,-0.000723188859410584,0.0011552649084478617,-0.003000000026077032,0.0,46099.0,0.0,46168.0,-0.004512004554271698,0.20796459913253784,-0.026883713901042938,0.2084009051322937,0.0,0.0,0.0,0.0,0.0,46108.0,0.0,46159.0,0.38671326637268066,-0.03231790147557738,0.002119191131588552,0.08107720096458598,0.0029606581665575504,0.004693623166531324,0.055986374616622925
324,5,0.0009053130634129047,-0.00032458867644891143,0.0002734611334744841,0.0006597524043172598,-0.005968836601823568,-0.008067497052252293,0.020168446004390717,0.006211145780980587,-0.0724726989865303,0.13001112639904022,0.28208819031715393,-0.10488123446702957,0.0,0.0,0.0,0.006541059818118811,0.004188027698546648,-0.0,0.0,0.0,0.0,-0.0011192779056727886,0.00088160001905635,-0.003000000026077032,0.0,45766.0,0.0,46506.0,-0.004296116530895233,0.20584896206855774,-0.027059189975261688,0.21055695414543152,0.0,0.0,0.0,0.0,0.0,45853.0,0.0,46420.0,0.3876928389072418,-0.030024750978288838,0.0017127019101379174,0.07959341754753033,-0.018793810158967972,0.019566355273127556,0.06523996591567993
329,5,0.0008899227832444012,-0.0003031639498658478,0.0002733110450208187,-0.0019567126873880625,-0.004790110047906637,-0.0023992389906197786,0.020168446004390717,0.006211145780980587,-0.0724726989865303,0.13001112639904022,0.28208819031715393,-0.10488123446702957,0.0,0.0,0.0,0.004981759935617447,0.0018837962998077273,-0.0,0.0,0.0,0.0,-0.0011192779056727886,0.00088160001905635,-0.003000000026077032,0.0,45766.0,0.0,46506.0,-0.004296116530895233,0.20584896206855774,-0.027059189975261688,0.21055695414543152,0.0,0.0,0.0,0.0,0.0,45853.0,0.0,46420.0,0.3876866400241852,-0.02787396260152444,0.0013241250654012085,0.07942510736298787,-0.008454478345811367,0.01490174699574709,0.04906013607978821
334,5,0.0009073407272808254,-0.00027680961648002267,0.00031673969351686537,0.0018514982657507062,-0.005126641597598791,-0.006799781229346991,0.021941151469945908,0.003331698477268219,-0.0738556906580925,0.1610056608915329,0.20505033433437347,-0.1310575157403946,0.0,0.0,0.0,0.0054376921616494656,0.005328543949872255,-0.0,0.0,0.0,0.0,-0.0011336241150274873,8.564029121771455e-05,-0.003000000026077032,0.0,47294.0,0.0,45095.0,-0.008294083178043365,0.21562150120735168,-0.022229887545108795,0.20161572098731995,0.0,0.0,0.0,0.0,0.0,46691.0,0.0,45618.0,0.3892764747142792,-0.02387009868456907,-0.0016924251770485939,0.07895693537387807,-0.024009179323911667,0.016332343220710754,0.06375330686569214
339,5,0.0008522000862285495,-0.00024453760124742985,0.0003024099569302052,-0.007164242677390575,-0.006056075915694237,-3.3771179005270824e-05,0.021941151469945908,0.003331698477268219,-0.0738556906580925,0.1610056608915329,0.20505033433437347,-0.1310575157403946,0.0,0.0,0.0,0.006716902833431959,-0.002698692260310054,-0.0,0.0,0.0,0.0,-0.0011336241150274873,8.564029121771455e-05,-0.003000000026077032,0.0,47294.0,0.0,45095.0,-0.008294083178043365,0.21562150120735168,-0.022229887545108795,0.20161572098731995,0.0,0.0,0.0,0.0,0.0,46691.0,0.0,45618.0,0.3892754018306732,-0.023439035515169234,-0.0015166406112954148,0.07849256300165233,0.012156969867646694,0.02017453871667385,0.04423483461141586
344,5,0.0008488463354296982,-0.0002920556871686131,0.0003266853163950145,-0.0026187992189079523,0.00483570946380496,-0.0034086820669472218,0.02337782271206379,0.0024023563601076603,-0.07482731342315674,0.19420264661312103,0.05237613245844841,-0.11931902915239334,0.0,0.0,0.0,-0.007880127988755703,0.0013738579582422972,-0.0,0.0,0.0,0.0,-0.001074395258910954,-0.0006091810646466911,-0.003000000026077032,0.0,47901.0,0.0,44544.0,-0.012532129883766174,0.2195613533258438,-0.017505154013633728,0.19816257059574127,0.0,0.0,0.0,0.0,0.0,47566.0,0.0,44815.0,0.3903905749320984,-0.02318650832407785,-0.003933806332055837,0.07622374973721247,-0.00620745774358511,-0.023736577481031418,0.05562761798501015
349,5,0.0007536863558925688,-0.00029968953458592296,0.00023915211204439402,-0.01410803571343422,0.0025194543413817883,0.011232043616473675,0.02337782271206379,0.0024023563601076603,-0.07482731342315674,0.19420264661312103,0.05237613245844841,-0.11931902915239334,0.0,0.0,0.0,-0.0048434315249323845,-0.008877349086105824,-0.0,0.0,0.0,0.0,-0.001074395258910954,-0.0006091810646466911,-0.003000000026077032,0.0,47901.0,0.0,44544.0,-0.012532129883766174,0.2195613533258438,-0.017505154013633728,0.19816257059574127,0.0,0.0,0.0,0.0,0.0,47566.0,0.0,44815.0,0.3903980255126953,-0.025927146514847843,0.0010139878954737362,0.07752567788224621,0.04010975733399391,-0.014590496197342873,0.011395826935768127
354,5,0.0006880199071019888,-0.0002926978631876409,0.00020494709315244108,-0.01342571061104536,-0.00022299822012428194,0.008158315904438496,0.026847943663597107,0.0038267928175628185,-0.07668913900852203,0.1265508234500885,-0.1850147396326065,-0.05607227236032486,0.0,0.0,0.0,-0.0012053094105795026,-0.008275165222585201,-0.0,0.0,0.0,0.0,-0.000986164202913642,-0.001465124310925603,-0.003000000026077032,0.0,48657.0,0.0,43876.0,-0.018080659210681915,0.22450077533721924,-0.011162258684635162,0.19401752948760986,0.0,0.0,0.0,0.0,0.0,48084.0,0.0,44353.0,0.3925243020057678,-0.025648071808097916,0.0015017712766000116,0.07839536973478534,0.037594493478536606,-0.0036505633033812046,0.020815405994653702
359,5,0.0006824387237429619,-0.0003084026975557208,0.00019028664974030107,-0.004809082485735416,0.0021317768841981888,0.004499956965446472,0.026847943663597107,0.0038267928175628185,-0.07668913900852203,0.1265508234500885,-0.1850147396326065,-0.05607227236032486,0.0,0.0,0.0,-0.004370509646832943,-0.0006583646754734218,-0.0,0.0,0.0,0.0,-0.000986164202913642,-0.001465124310925603,-0.003000000026077032,0.0,48657.0,0.0,43876.0,-0.018080659210681915,0.22450077533721924,-0.011162258684635162,0.19401752948760986,0.0,0.0,0.0,0.0,0.0,48084.0,0.0,44353.0,0.3925144076347351,-0.024504997859807108,0.0006594408010027262,0.0787094845774001,0.0029909159056842327,-0.013236701488494873,0.032203346490859985
364,5,0.0006339887040667236,-0.00031556523754261434,0.00022285408340394497,-0.008225725963711739,0.0016422867774963379,-0.003209453308954835,0.028059789910912514,0.006485546473413706,-0.07730648666620255,0.09634624421596527,-0.23381470143795013,-0.03633466735482216,0.0,0.0,0.0,-0.003756922669708729,-0.0036866178270429373,-0.0,0.0,0.0,0.0,-0.0013037155149504542,-0.0021106330677866936,-0.003000000026077032,0.0,49552.0,0.0,43007.0,-0.01942591369152069,0.23041072487831116,-0.009255677461624146,0.188668891787529,0.0,0.0,0.0,0.0,0.0,48780.0,0.0,43746.0,0.3932231366634369,-0.026095646032908697,0.0004633179833380765,0.07772760568568224,0.01677708700299263,-0.01139956247061491,0.056426819413900375
369,5,0.0006386155146174133,-0.0003281394310761243,0.0002546573232393712,-0.0018199690384790301,0.0022530744317919016,-0.005415287800133228,0.028059789910912514,0.006485546473413706,-0.07730648666620255,0.09634624421596527,-0.23381470143795013,-0.03633466735482216,0.0,0.0,0.0,-0.004612268414348364,0.0019832260441035032,-0.0,0.0,0.0,0.0,-0.0013037155149504542,-0.0021106330677866936,-0.003000000026077032,0.0,49552.0,0.0,43007.0,-0.01942591369152069,0.23041072487831116,-0.009255677461624146,0.188668891787529,0.0,0.0,0.0,0.0,0.0,48780.0,0.0,43746.0,0.3932226300239563,-0.024237152443406674,-0.001221008959504454,0.07761469504939535,-0.00902721006423235,-0.013994751498103142,0.06420265883207321
375,5,0.0006380677223205566,-0.0002364310494158417,0.0003350003098603338,-0.0006226762197911739,-0.012163250707089901,-0.012872607447206974,0.02853735350072384,0.008275549858808517,-0.07758408784866333,0.0370824821293354,-0.22233213484287262,-0.022477487102150917,0.0,0.0,0.0,0.01453648041933775,0.0030668373219668865,-0.0,0.0,0.0,0.0,-0.001183477696031332,-0.0018456559628248215,-0.003000000026077032,0.0,49274.0,0.0,43480.0,-0.01800759881734848,0.2285674810409546,-0.009615786373615265,0.19157034158706665,0.0,0.0,0.0,0.0,0.0,49577.0,0.0,42979.0,0.39357906579971313,-0.020400116742235182,-6.795052514781517e-05,0.07564068540918337,-0.013968907296657562,0.04414220154285431,0.08857253938913345
380,5,0.0006789363105781376,-0.0002880819665733725,0.00021284907415974885,0.0055348011665046215,0.0035821516066789627,0.013239393010735512,0.02853735350072384,0.008275549858808517,-0.07758408784866333,0.0370824821293354,-0.22233213484287262,-0.022477487102150917,0.0,0.0,0.0,-0.00632513826712966,0.008561967872083187,-0.0,0.0,0.0,0.0,-0.001183477696031332,-0.0018456559628248215,-0.003000000026077032,0.0,49274.0,0.0,43480.0,-0.01800759881734848,0.2285674810409546,-0.009615786373615265,0.19157034158706665,0.0,0.0,0.0,0.0,0.0,49577.0,0.0,42979.0,0.39355793595314026,-0.018047142520848592,-0.006664287810933447,0.07764596448165728,-0.03899909555912018,-0.019207356497645378,0.00939321331679821
385,5,0.0006087424117140472,-0.00033392314799129963,0.00023903582768980414,-0.008166712708771229,0.007492410484701395,0.000305670517263934,0.028820103034377098,0.010784974321722984,-0.07783951610326767,-0.004795832559466362,-0.18111597001552582,-0.014144414104521275,0.0,0.0,0.0,-0.011580775491893291,-0.003524927655234933,-0.0,0.0,0.0,0.0,-0.0011270280228927732,-0.0016587860882282257,-0.003000000026077032,0.0,49029.0,0.0,43799.0,-0.016855470836162567,0.22695359587669373,-0.010413803160190582,0.1935383379459381,0.0,0.0,0.0,0.0,0.0,49015.0,0.0,43814.0,0.39385706186294556,-0.022843193519361957,-0.003588957679051583,0.07724097144083991,0.016066161915659904,-0.035193219780921936,0.04923031106591225
390,5,0.0006197109469212592,-0.00034862494794651866,0.00020192207011859864,-0.000914412026759237,0.004305977839976549,0.005287627689540386,0.028820103034377098,0.010784974321722984,-0.07783951610326767,-0.004795832559466362,-0.18111597001552582,-0.014144414104521275,0.0,0.0,0.0,-0.007443219888955355,0.00288709276355803,-0.0,0.0,0.0,0.0,-0.0011270280228927732,-0.0016587860882282257,-0.003000000026077032,0.0,49029.0,0.0,43799.0,-0.016855470836162567,0.22695359587669373,-0.010413803160190582,0.1935383379459381,0.0,0.0,0.0,0.0,0.0,49015.0,0.0,43814.0,0.3938407599925995,-0.02435150700708411,-0.0028408807037003498,0.07838184623228579,-0.013161213137209415,-0.022619416937232018,0.03446729853749275
395,5,0.0006826092721894383,-0.00033750603324733675,0.0002603248576633632,0.008531436324119568,-0.00026485585840418935,-0.0065901027992367744,0.028481602668762207,0.012048738077282906,-0.07790407538414001,-0.07269223034381866,-0.09986622631549835,0.0025423476472496986,0.0,0.0,0.0,-0.001432304736226797,0.01128977071493864,-0.0,0.0,0.0,0.0,-0.0009510586387477815,-0.0013685963349416852,-0.003000000026077032,0.0,48417.0,0.0,44475.0,-0.014018453657627106,0.2229262888431549,-0.013083122670650482,0.1977333426475525,0.0,0.0,0.0,0.0,0.0,48278.0,0.0,44620.0,0.393927663564682,-0.02457812658802882,-0.0035105835833258775,0.07452871932880725,-0.051472846418619156,-0.00435358053073287,0.07159756869077682
400,5,0.0006873284582979977,-0.0003218158090021461,0.00025443691993132234,0.0032201155554503202,-0.0022760885767638683,-0.0011527187889441848,0.028481602668762207,0.012048738077282906,-0.07790407538414001,-0.07269223034381866,-0.09986622631549835,0.0025423476472496986,0.0,0.0,0.0,0.0012190818088129163,0.006671986076980829,-0.0,0.0,0.0,0.0,-0.0009510586387477815,-0.0013685963349416852,-0.003000000026077032,0.0,48417.0,0.0,44475.0,-0.014018453657627106,0.2229262888431549,-0.013083122670650482,0.1977333426475525,0.0,0.0,0.0,0.0,0.0,48278.0,0.0,44620.0,0.393911212682724,-0.023187616514459025,-0.004327417904351112,0.0764640309783375,-0.030419761314988136,0.003704678500071168,0.05597718805074692
405,5,0.0006267029093578458,-0.0003636696783360094,0.0002548449265304953,-0.007521540857851505,0.005176716484129429,-0.000402935897000134,0.027420712634921074,0.012724609114229679,-0.07797907292842865,-0.09269432723522186,-0.001194758340716362,-0.011458787135779858,0.0,0.0,0.0,-0.008696031756699085,-0.0027945945039391518,-0.0,0.0,0.0,0.0,-0.0009062899625860155,-0.0005915611982345581,-0.003000000026077032,0.0,48040.0,0.0,44892.0,-0.011988423764705658,0.22046157717704773,-0.014971770346164703,0.2003394365310669,0.0,0.0,0.0,0.0,0.0,47961.0,0.0,44973.0,0.3940044939517975,-0.02645733863831314,-0.0030347144345545746,0.07745534481021481,0.012743514962494373,-0.02643660642206669,0.05451004207134247
410,5,0.0006759071839042008,-0.00034180859802290797,0.00024215911980718374,0.004632140044122934,-0.0015075388364493847,0.001655131229199469,0.027420712634921074,0.012724609114229679,-0.07797907292842865,-0.09269432723522186,-0.001194758340716362,-0.011458787135779858,0.0,0.0,0.0,0.00011284537322353572,0.007964626885950565,-0.0,0.0,0.0,0.0,-0.0009062899625860155,-0.0005915611982345581,-0.003000000026077032,0.0,48040.0,0.0,44892.0,-0.011988423764705658,0.22046157717704773,-0.014971770346164703,0.2003394365310669,0.0,0.0,0.0,0.0,0.0,47961.0,0.0,44973.0,0.3940005600452423,-0.025524875614464187,-0.004321456436492374,0.07795974949473036,-0.03632119297981262,0.00034238072112202644,0.04892729967832565
415,5,0.0007012989372014999,-0.0002772079315036535,0.00030031712958589196,0.004944486543536186,-0.009496355429291725,-0.007645579986274242,0.026959499344229698,0.012570510618388653,-0.07801282405853271,-0.032365623861551285,0.05936501547694206,-0.009063243865966797,0.0,0.0,0.0,0.010723014362156391,0.008307406678795815,-0.0,0.0,0.0,0.0,-0.0010519400238990784,-0.0003719264059327543,-0.003000000026077032,0.0,47431.0,0.0,45526.0,-0.009946711361408234,0.21650686860084534,-0.016978256404399872,0.20432937145233154,0.0,0.0,0.0,0.0,0.0,47348.0,0.0,45611.0,0.39406296610832214,-0.02374841060561417,-0.0037282646816653555,0.0769278938241338,-0.03788815438747406,0.03260262683033943,0.07844910770654678
420,5,0.0007096152403391898,-0.00020553126523736864,0.0003288483712822199,0.0026476257480680943,-0.01288363803178072,-0.006288048345595598,0.026959499344229698,0.012570510618388653,-0.07801282405853271,-0.032365623861551285,0.05936501547694206,-0.009063243865966797,0.0,0.0,0.0,0.015298955142498016,0.006340803578495979,-0.0,0.0,0.0,0.0,-0.0010519400238990784,-0.0003719264059327543,-0.003000000026077032,0.0,47431.0,0.0,45526.0,-0.009946711361408234,0.21650686860084534,-0.016978256404399872,0.20432937145233154,0.0,0.0,0.0,0.0,0.0,47348.0,0.0,45611.0,0.3940807580947876,-0.023355229202868266,-0.0012346056075048565,0.07500550337504969,-0.02891758643090725,0.04651641473174095,0.0757007822394371
425,5,0.0007491642609238625,-0.00034270467585884035,0.000223578856093809,0.006331151816993952,0.015339185483753681,0.012851315550506115,0.026446733623743057,0.01147062424570322,-0.0781308114528656,-0.043473128229379654,0.14301568269729614,-0.008231543004512787,0.0,0.0,0.0,-0.02210918441414833,0.009658796712756157,-0.0,0.0,0.0,0.0,-0.0007423364440910518,0.00020026802667416632,-0.003000000026077032,0.0,46950.0,0.0,46023.0,-0.006753705441951752,0.21340280771255493,-0.0201265886425972,0.2074781060218811,0.0,0.0,0.0,0.0,0.0,46832.0,0.0,46142.0,0.39427658915519714,-0.025601257489378946,-0.004136638608153784,0.0787337791548994,-0.044066864997148514,-0.06725095212459564,0.017715508118271828
430,5,0.0007693078950978816,-0.00027235961169935763,0.0002566753828432411,0.004719454795122147,-0.0052465531043708324,-0.0007781166932545602,0.026446733623743057,0.01147062424570322,-0.0781308114528656,-0.043473128229379654,0.14301568269729614,-0.008231543004512787,0.0,0.0,0.0,0.005073374602943659,0.008313045836985111,-0.0,0.0,0.0,0.0,-0.0007423364440910518,0.00020026802667416632,-0.003000000026077032,0.0,46950.0,0.0,46023.0,-0.006753705441951752,0.21340280771255493,-0.0201265886425972,0.2074781060218811,0.0,0.0,0.0,0.0,0.0,46832.0,0.0,46142.0,0.3941805362701416,-0.026578317583474346,-0.0010509276606220327,0.07771020812712565,-0.03792547434568405,0.015430613420903683,0.05979272350668907
435,5,0.0008507163147442043,-0.0003077128203585744,0.00025526309036649764,0.012813015840947628,0.003375484375283122,-3.5714463592739776e-05,0.02612498588860035,0.01012655533850193,-0.07802514731884003,-0.03281892463564873,0.19488012790679932,0.038076456636190414,0.0,0.0,0.0,-0.00635854946449399,0.015560817904770374,-0.0,0.0,0.0,0.0,-0.0007909327978268266,0.0006830841302871704,-0.003000000026077032,0.0,46582.0,0.0,46393.0,-0.004223383963108063,0.2110418677330017,-0.022656910121440887,0.20983904600143433,0.0,0.0,0.0,0.0,0.0,46126.0,0.0,46854.0,0.3940964937210083,-0.02566193327096719,-0.002081989247717899,0.07847904426787623,-0.07097499072551727,-0.019335849210619926,0.05832063406705856
441,5,0.0008887058938853443,-0.0002673596900422126,0.00028513994766399264,0.009162449277937412,-0.004636792466044426,-0.004193476866930723,0.02612498588860035,0.01012655533850193,-0.07802514731884003,-0.03281892463564873,0.19488012790679932,0.038076456636190414,0.0,0.0,0.0,0.0042359186336398125,0.012455962598323822,-0.0,0.0,0.0,0.0,-0.0007909327978268266,0.0006830841302871704,-0.003000000026077032,0.0,46582.0,0.0,46393.0,-0.004223383963108063,0.2110418677330017,-0.022656910121440887,0.20983904600143433,0.0,0.0,0.0,0.0,0.0,46126.0,0.0,46854.0,0.394074946641922,-0.026190308089372227,0.000912587227741539,0.0776672972804681,-0.0568120963871479,0.012879547663033009,0.07203786820173264
446,5,0.0009522917098365724,-0.00030165413045324385,0.0002502002171240747,0.011650748550891876,0.003410183824598789,0.0036335207987576723,0.02612498588860035,0.01012655533850193,-0.07802514731884003,-0.03281892463564873,0.19488012790679932,0.038076456636190414,0.0,0.0,0.0,-0.0064386469312012196,0.01476885937154293,-0.0,0.0,0.0,0.0,-0.0007909327978268266,0.0006830841302871704,-0.003000000026077032,0.0,46582.0,0.0,46393.0,-0.004223383963108063,0.2110418677330017,-0.022656910121440887,0.20983904600143433,0.0,0.0,0.0,0.0,0.0,46126.0,0.0,46854.0,0.39409196376800537,-0.02772292032838715,-0.0008429957938862522,0.07897201149111363,-0.06736250966787338,-0.019579168409109116,0.048890963196754456
451,5,0.0009886394254863262,-0.00030101279844529927,0.0002534642699174583,0.008583903312683105,0.0009332674089819193,0.000633087067399174,0.025996142998337746,0.0080028111115098,-0.07728235423564911,0.0020942757837474346,0.17675793170928955,0.05621453747153282,0.0,0.0,0.0,-0.00321058533154428,0.012205117382109165,-0.0,0.0,0.0,0.0,-0.0003887646889779717,0.0006263487157411873,-0.003000000026077032,0.0,46280.0,0.0,46700.0,-0.00727863609790802,0.20911766588687897,-0.019561588764190674,0.21180331707000732,0.0,0.0,0.0,0.0,0.0,46552.0,0.0,46437.0,0.39322134852409363,-0.029157915537482856,0.0007671363665527678,0.0798086435948002,-0.05554593726992607,-0.009741251356899738,0.058704741299152374
456,5,0.0010481270728632808,-0.00026277254801243544,0.00025756930699571967,0.010903442278504372,-0.005073653068393469,-0.00038477731868624687,0.025996142998337746,0.0080028111115098,-0.07728235423564911,0.0020942757837474346,0.17675793170928955,0.05621453747153282,0.0,0.0,0.0,0.004759983625262976,0.014375068247318268,-0.0,0.0,0.0,0.0,-0.0003887646889779717,0.0006263487157411873,-0.003000000026077032,0.0,46280.0,0.0,46700.0,-0.00727863609790802,0.20911766588687897,-0.019561588764190674,0.21180331707000732,0.0,0.0,0.0,0.0,0.0,46552.0,0.0,46437.0,0.39323511719703674,-0.027944286792885232,0.0009476116997046893,0.0803222169803035,-0.06542272120714188,0.014442730695009232,0.06259338557720184
461,5,0.0010947301052510738,-0.00025052399723790586,0.00024912290973588824,0.009795455262064934,-0.0032368924003094435,0.001067062490619719,0.02618289738893509,0.006754769012331963,-0.07650542259216309,0.04687502607703209,0.15017443895339966,0.1313210278749466,0.0,0.0,0.0,0.0023470467422157526,0.013549760915338993,-0.0,0.0,0.0,0.0,-0.0008143752929754555,0.0006107845692895353,-0.003000000026077032,0.0,46722.0,0.0,46266.0,-0.004681482911109924,0.21194452047348022,-0.022108808159828186,0.20902639627456665,0.0,0.0,0.0,0.0,0.0,46776.0,0.0,46212.0,0.39233726263046265,-0.027082973224565824,0.001689966264982074,0.08085782282017528,-0.06152660399675369,0.007105185650289059,0.05889570340514183
