timestamp,dt,pos_x,pos_y,pos_z,vel_x,vel_y,vel_z,roll,pitch,yaw,agv_x,agv_y,agv_z,x_ref,y_ref,z_ref,roll_ref,pitch_ref,yaw_ref,x_vel_ref,y_vel_ref,z_vel_ref,x_torque,y_torque,z_torque,w0,w1,w2,w3,u0,u1,u2,u3,m0req,m1req,m2req,m3req,thrust0,thrust1,thrust2,thrust3,thrust_ref,roll_vicon,pitch_vicon,yaw_vicon,acc_x,acc_y,acc_z
5,5,0.0,0.0,0.0,0.0018070746446028352,0.0016789608635008335,0.010679059661924839,-0.0789482593536377,0.056702446192502975,0.03491191193461418,-0.0017285615904256701,-0.039932940155267715,0.007077266462147236,0.0,0.0,0.0,-0.0021393399219959974,0.002302588429301977,-0.0,0.0,0.0,0.0,0.002516974462196231,-0.0020931120961904526,0.00105846778023988,0.0,0.0,0.0,0.0,0.0,0.0,0.0,0.0,0.0,0.0,0.0,0.0,0.0,0.0,0.0,0.0,0.25427645444869995,-0.09867898359909656,-0.03807902909634098,0.05335863951912051,-0.0067765298299491405,-0.0062961033545434475,-0.03203717991709709
23,18,0.0,0.0,0.0,-9.965878416551277e-05,0.001354566658847034,-0.005843317601829767,-0.0789482593536377,0.056702446192502975,0.03491191193461418,-0.0017285615904256701,-0.039932940155267715,0.007077266462147236,0.0,0.0,0.0,-0.0017260006861761212,-0.00012698622595053166,-0.0,0.0,0.0,0.0,0.002516974462196231,-0.0020931120961904526,0.00105846778023988,0.0,0.0,0.0,0.0,0.0,0.0,0.0,0.0,0.0,0.0,0.0,0.0,0.0,0.0,0.0,0.0,0.2542755901813507,-0.09903063233880857,-0.03951201207091386,0.0535574620021523,0.0003737204533535987,-0.005079625174403191,0.01752995327115059
28,5,0.0,0.0,0.0,-0.0033017757814377546,0.0023540130350738764,-0.00867927260696888,-0.07900145649909973,0.05670861527323723,0.034992896020412445,-0.00843594130128622,0.029176104813814163,0.012732578441500664,0.0,0.0,0.0,-0.002999471267685294,-0.004207130987197161,-0.0,0.0,0.0,0.0,0.002529832301661372,-0.0017325233202427626,0.0010648838942870498,0.0,0.0,0.0,0.0,0.0,0.0,0.0,0.0,0.0,0.0,0.0,0.0,0.0,0.0,0.0,0.0,0.25427860021591187,-0.09835966165986665,-0.03940389598078148,0.05415512131873698,0.012381658889353275,-0.00882754847407341,0.02603781782090664
34,5,0.0,0.0,0.0,-0.00013546374975703657,0.002013378543779254,0.006658769678324461,-0.07900145649909973,0.05670861527323723,0.034992896020412445,-0.00843594130128622,0.029176104813814163,0.012732578441500664,0.0,0.0,0.0,-0.0025654614437371492,-0.0001726092741591856,-0.0,0.0,0.0,0.0,0.002534465165808797,-0.0014382428489625454,0.0010775349801406264,0.0,0.0,0.0,0.0,0.0,0.0,0.0,0.0,0.0,0.0,0.0,0.0,0.0,0.0,0.0,0.0,0.2542760372161865,-0.09863865733555552,-0.03814954259477465,0.05350868303508432,0.00050798908341676,-0.007550169713795185,-0.019976308569312096
40,6,0.0,0.0,0.0,-0.0003955699794460088,-0.003956768661737442,0.001365175936371088,-0.07900145649909973,0.05670861527323723,0.034992896020412445,-0.00843594130128622,0.029176104813814163,0.012732578441500664,0.0,0.0,0.0,0.005041710566729307,-0.000504039169754833,-0.0,0.0,0.0,0.0,0.002534465165808797,-0.0014382428489625454,0.0010775349801406264,0.0,0.0,0.0,0.0,0.0,0.0,0.0,0.0,0.0,0.0,0.0,0.0,0.0,0.0,0.0,0.0,0.2542784512042999,-0.09939213349468069,-0.03826755969730528,0.05393020910069169,0.0014833874301984906,0.014837882481515408,-0.004095527809113264
46,6,0.0,0.0,0.0,0.0006012829253450036,0.001989167183637619,-0.014824789017438889,-0.07900145649909973,0.05670861527323723,0.034992896020412445,-0.00843594130128622,0.029176104813814163,0.012732578441500664,0.0,0.0,0.0,-0.002534610452130437,0.0007661605486646295,-0.0,0.0,0.0,0.0,0.002534465165808797,-0.0014382428489625454,0.0010775349801406264,0.0,0.0,0.0,0.0,0.0,0.0,0.0,0.0,0.0,0.0,0.0,0.0,0.0,0.0,0.0,0.0,0.2542760968208313,-0.09618847822050844,-0.03741451794871775,0.0531722553592659,-0.002254810882732272,-0.007459376938641071,0.044474367052316666
51,5,6.759264579159208e-06,3.227948764106259e-05,2.5138924684142694e-05,0.0011266819201409817,-0.0039223781786859035,-0.007966886274516582,-0.07910291105508804,0.05535278096795082,0.03517484292387962,-0.0015124357305467129,0.08669012784957886,0.010349137708544731,0.0,0.0,0.0,0.005056164693087339,0.00144783197902143,-0.0,0.0,0.0,0.0,0.002534976229071617,-0.0012991641415283084,0.0010885793017223477,22640.0,5365.0,32249.0,9971.0,0.0807996541261673,0.015425745397806168,0.12753978371620178,0.03051041066646576,0.0,0.0,0.0,0.0,22313.0,5764.0,32254.0,10027.0,0.2542787194252014,-0.09736507865197418,-0.03735304544654014,0.051822463054481974,-0.004260972607880831,0.014880435541272163,0.024409092962741852
59,7,1.3348842003324535e-05,1.2097723811166361e-05,2.547242729633581e-05,0.0012605454539880157,0.0016487336251884699,-0.002436756156384945,-0.07910291105508804,0.05535278096795082,0.03517484292387962,-0.0015124357305467129,0.08669012784957886,0.010349137708544731,0.0,0.0,0.0,-0.0020768125541508198,0.0016296074027195573,-0.0,0.0,0.0,0.0,0.002534976229071617,-0.0012991641415283084,0.0010885793017223477,22640.0,5365.0,32249.0,9971.0,0.0807996541261673,0.015425745397806168,0.12753978371620178,0.03051041066646576,0.0,0.0,0.0,0.0,22313.0,5764.0,32254.0,10027.0,0.2542760968208313,-0.09651009486233032,-0.036399249843429314,0.052144360389113846,-0.004795958753675222,-0.0061120581813156605,0.007825607433915138
64,5,-3.8151094486238435e-05,-5.9436424635350704e-05,-0.0001918084017233923,-0.006831827107816935,0.010509400628507137,0.029688289389014244,-0.0790569931268692,0.05473949760198593,0.0343247652053833,-0.005816166289150715,0.04483720660209656,-0.1296522170305252,0.0,0.0,0.0,-0.013486943207681179,-0.008768369443714619,-0.0,0.0,0.0,0.0,0.002521379617974162,-0.001558150164783001,0.0008697595912963152,20150.0,8791.0,30779.0,12079.0,0.06989659368991852,0.026484500616788864,0.11991135776042938,0.0379861444234848,0.0,0.0,0.0,0.0,20135.0,8868.0,31076.0,11603.0,0.2543081045150757,-0.106096373690551,-0.04435850348138264,0.0522403942093542,0.025805972516536713,-0.03969600796699524,-0.09179087728261948
69,5,1.6021303963498212e-05,-3.6652803828474134e-05,-3.5815814044326544e-05,0.005534587427973747,-3.6886522138956934e-05,-0.01293247565627098,-0.0790569931268692,0.05473949760198593,0.0343247652053833,-0.005816166289150715,0.04483720660209656,-0.1296522170305252,0.0,0.0,0.0,-1.5472389350179583e-05,0.0070781707763671875,-0.0,0.0,0.0,0.0,0.002521379617974162,-0.001558150164783001,0.0008697595912963152,20150.0,8791.0,30779.0,12079.0,0.06989659368991852,0.026484500616788864,0.11991135776042938,0.0379861444234848,0.0,0.0,0.0,0.0,20135.0,8868.0,31076.0,11603.0,0.25428158044815063,-0.0955767619006364,-0.03504216901631068,0.051334598387394036,-0.020831404253840446,-4.553638427751139e-05,0.03777085617184639
74,5,3.819402263616212e-05,-2.8794933314202353e-05,3.282963007222861e-05,0.004764556884765625,-0.0011111681815236807,-0.013490104116499424,-0.07909159362316132,0.054492536932229996,0.03423772752285004,0.014348836615681648,0.03272157534956932,-0.03948735073208809,0.0,0.0,0.0,0.0013639811659231782,0.006135947071015835,-0.0,0.0,0.0,0.0,0.0025136612821370363,-0.0015920475125312805,0.0010642560664564371,21838.0,6641.0,32237.0,9861.0,0.07723303884267807,0.019434630870819092,0.12747877836227417,0.030129648745059967,0.0,0.0,0.0,0.0,21017.0,7841.0,31266.0,11221.0,0.2542802095413208,-0.09749825576028959,-0.03648896955346764,0.05134337248862035,-0.018058376386761665,0.004014231264591217,0.040349483489990234
79,5,-0.00011481775436550379,-5.960198905086145e-05,-0.0003553984279278666,-0.0199922826141119,0.003979637287557125,0.050304897129535675,-0.07909159362316132,0.054492536932229996,0.03423772752285004,0.014348836615681648,0.03272157534956932,-0.03948735073208809,0.0,0.0,0.0,-0.0051756310276687145,-0.0256611630320549,-0.0,0.0,0.0,0.0,0.0025136612821370363,-0.0015920475125312805,0.0010642560664564371,21838.0,6641.0,32237.0,9861.0,0.07723303884267807,0.019434630870819092,0.12747877836227417,0.030129648745059967,0.0,0.0,0.0,0.0,21017.0,7841.0,31266.0,11221.0,0.2543623447418213,-0.11776630521167447,-0.03101122802461794,0.04503621598285826,0.07553738355636597,-0.015237034298479557,-0.15678435564041138
86,7,0.00010181537072639912,0.00011733682913472876,0.0003063394397031516,0.024330953136086464,-0.02357754297554493,-0.07755183428525925,-0.07901371270418167,0.054374512284994125,0.03365498408675194,-0.009138510562479496,0.013337289914488792,0.014331123791635036,0.0,0.0,0.0,0.029358990490436554,0.030281512066721916,-0.0,0.0,0.0,0.0,0.0025177046190947294,-0.0016858128365129232,0.0009403349249623716,21210.0,7391.0,31881.0,10494.0,0.07447774708271027,0.02185128629207611,0.12561392784118652,0.0323331356048584,0.0,0.0,0.0,0.0,21722.0,6591.0,32404.0,9801.0,0.2619571387767792,-0.09322023102709592,-0.04321147029201771,0.05220460132633486,-0.09175726771354675,0.08900106698274612,0.2366458922624588
92,6,0.0002338965714443475,0.00016599646187387407,0.0002992434601765126,0.017458023503422737,0.000564795860555023,-0.011900978162884712,-0.07901371270418167,0.054374512284994125,0.03365498408675194,-0.009138510562479496,0.013337289914488792,0.014331123791635036,0.0,0.0,0.0,-0.0004371935501694679,0.022642239928245544,-0.0,0.0,0.0,0.0,0.0025177046190947294,-0.0016858128365129232,0.0009403349249623716,21210.0,7391.0,31881.0,10494.0,0.07447774708271027,0.02185128629207611,0.12561392784118652,0.0323331356048584,0.0,0.0,0.0,0.0,21722.0,6591.0,32404.0,9801.0,0.25434041023254395,-0.0972028591287121,-0.043449321583676585,0.04882398152737516,-0.06664784997701645,-0.001286741578951478,0.039669353514909744
97,5,0.0004016871680505574,0.0002838779182638973,0.0001372744736727327,0.028728092089295387,-0.016333965584635735,0.01910536363720894,-0.07892953604459763,0.053827397525310516,0.033603791147470474,-0.02483627013862133,0.05741066113114357,0.005114411469548941,0.0,0.0,0.0,0.020714079961180687,0.03628247231245041,-0.0,0.0,0.0,0.0,0.0024284895043820143,-0.002351035363972187,0.0010601861868053675,21029.0,7933.0,33137.0,8293.0,0.07368749380111694,0.023624513298273087,0.13223235309123993,0.02481802925467491,0.0,0.0,0.0,0.0,21509.0,6933.0,31414.0,11233.0,0.26158174872398376,-0.0822011758707992,-0.05391479196442656,0.051986437940825234,-0.1098005399107933,0.06270918995141983,-0.054748669266700745
102,5,0.00048094874364323914,5.182116728974506e-05,-0.00016712758224457502,0.019715048372745514,0.027587756514549255,0.048347897827625275,-0.07892953604459763,0.053827397525310516,0.033603791147470474,-0.02483627013862133,0.05741066113114357,0.005114411469548941,0.0,0.0,0.0,-0.03399452194571495,0.025225898250937462,-0.0,0.0,0.0,0.0,0.0024284895043820143,-0.002351035363972187,0.0010601861868053675,21029.0,7933.0,33137.0,8293.0,0.07368749380111694,0.023624513298273087,0.13223235309123993,0.02481802925467491,0.0,0.0,0.0,0.0,21509.0,6933.0,31414.0,11233.0,0.2621035873889923,-0.09610909427149439,-0.05781747052815709,0.04885337374089801,-0.07647383958101273,-0.1031060665845871,-0.14665137231349945
107,5,6.681818194920197e-05,0.00030923786107450724,6.342181586660445e-05,-0.05206376686692238,-0.02776201255619526,-0.017772546038031578,-0.07892953604459763,0.053827397525310516,0.033603791147470474,-0.02483627013862133,0.05741066113114357,0.005114411469548941,0.0,0.0,0.0,0.0317922867834568,-0.058580655604600906,-0.0,0.0,0.0,0.0,0.0024284895043820143,-0.002351035363972187,0.0010601861868053675,21029.0,7933.0,33137.0,8293.0,0.07368749380111694,0.023624513298273087,0.13223235309123993,0.02481802925467491,0.0,0.0,0.0,0.0,21509.0,6933.0,31414.0,11233.0,0.28744804859161377,-0.08432200819122285,-0.03318484226713823,0.04810367586306909,0.19468462467193604,0.1057538315653801,0.054699815809726715
113,5,0.00024314304755534977,0.00022494859877042472,1.1060458746214863e-05,0.009066351689398289,0.0034718955866992474,0.001998825464397669,-0.0788474753499031,0.05299670249223709,0.033087108284235,0.04053352773189545,0.15672621130943298,-0.02439410239458084,0.0,0.0,0.0,-0.0039879390969872475,0.012044540606439114,-0.0,0.0,0.0,0.0,0.0023606051690876484,-0.001892139669507742,0.0008876407518982887,20629.0,8860.0,31350.0,10639.0,0.07195496559143066,0.026716820895671844,0.12285011261701584,0.032840512692928314,0.0,0.0,0.0,0.0,20603.0,8360.0,32562.0,9325.0,0.25429567694664,-0.0858771168329408,-0.03891627647608561,0.04899794949498763,-0.03544916212558746,-0.011737081222236156,-0.00520779425278306
118,5,0.0006362362764775753,0.0003770133771467954,-5.958674228168093e-05,0.05775295943021774,-0.020247500389814377,0.010490256361663342,-0.0788474753499031,0.05299670249223709,0.033087108284235,0.04053352773189545,0.15672621130943298,-0.02439410239458084,0.0,0.0,0.0,0.023191243410110474,0.06546497344970703,-0.0,0.0,0.0,0.0,0.0023606051690876484,-0.001892139669507742,0.0008876407518982887,20629.0,8860.0,31350.0,10639.0,0.07195496559143066,0.026716820895671844,0.12285011261701584,0.032840512692928314,0.0,0.0,0.0,0.0,20603.0,8360.0,32562.0,9325.0,0.29069983959198,-0.07685780007209854,-0.06490167308557171,0.048965672603120305,-0.22004574537277222,0.0780218318104744,-0.03170793503522873
123,5,4.0446673665428534e-05,5.23791641171556e-05,-4.870239536103327e-06,-0.06608466058969498,0.03937453776597977,-0.00451323390007019,-0.07882180064916611,0.050668783485889435,0.032703857868909836,-0.03090318664908409,0.23568344116210938,-0.031362880021333694,0.0,0.0,0.0,-0.041616566479206085,-0.07002900540828705,-0.0,0.0,0.0,0.0,0.0026337148156017065,0.00013641122495755553,0.0009535159333609045,23326.0,3897.0,29565.0,14167.0,0.08388801664113998,0.010975435376167297,0.1137370765209198,0.045739978551864624,0.0,0.0,0.0,0.0,20496.0,9043.0,35030.0,14309.0,0.3055218458175659,-0.09880989331103289,-0.03139477584238483,0.056602067543632215,0.24721524119377136,-0.1471192091703415,0.013952973298728466
128,5,0.00019345110922586173,2.955350100819487e-05,-6.623458466492593e-05,0.0015952226240187883,0.015007954090833664,0.007237038109451532,-0.07882180064916611,0.050668783485889435,0.032703857868909836,-0.03090318664908409,0.23568344116210938,-0.031362880021333694,0.0,0.0,0.0,-0.018974516540765762,0.0025001324247568846,-0.0,0.0,0.0,0.0,0.0026337148156017065,0.00013641122495755553,0.0009535159333609045,23326.0,3897.0,29565.0,14167.0,0.08388801664113998,0.010975435376167297,0.1137370765209198,0.045739978551864624,0.0,0.0,0.0,0.0,20496.0,9043.0,35030.0,14309.0,0.25432178378105164,-0.10211900005800495,-0.038822441205269426,0.05222460663946857,-0.007358195260167122,-0.05584883317351341,-0.022241441532969475
133,5,0.00024348932493012398,2.4642018615850247e-05,-4.69678379886318e-05,0.007483918219804764,0.005189993884414434,-0.0005262331105768681,-0.07874882221221924,0.04863635078072548,0.03264804556965828,0.01579882949590683,0.2599533200263977,0.06039062887430191,0.0,0.0,0.0,-0.006472432054579258,0.010102862492203712,-0.0,0.0,0.0,0.0,0.0035918583162128925,-0.0021477281115949154,0.0010555597255006433,21892.0,7562.0,35801.0,12868.0,0.07747019827365875,0.022409401834011078,0.14669585227966309,0.04087265580892563,0.0,0.0,0.0,0.0,27733.0,0.0,31167.0,18839.0,0.2542935013771057,-0.09981168270926997,-0.040569196200880786,0.053141631759768396,-0.02973373606801033,-0.01904960535466671,0.001098025357350707
138,5,-4.6716337237739936e-05,7.350983651122078e-05,0.0001408597017871216,-0.038383617997169495,-0.005284496583044529,-0.02645372599363327,-0.07874882221221924,0.04863635078072548,0.03264804556965828,0.01579882949590683,0.2599533200263977,0.06039062887430191,0.0,0.0,0.0,0.006636046804487705,-0.04656948521733284,-0.0,0.0,0.0,0.0,0.0035918583162128925,-0.0021477281115949154,0.0010555597255006433,21892.0,7562.0,35801.0,12868.0,0.07747019827365875,0.022409401834011078,0.14669585227966309,0.04087265580892563,0.0,0.0,0.0,0.0,27733.0,0.0,31167.0,18839.0,0.26664677262306213,-0.09917129862479782,-0.020410054084463076,0.05442717911220513,0.14366714656352997,0.020479947328567505,0.08153939992189407
143,5,0.0001657172542763874,6.47103224764578e-05,7.626835576957092e-05,0.018225617706775665,-0.00035341636976227164,0.0011066714068874717,-0.07884615659713745,0.04534609243273735,0.0328865610063076,-0.032817766070365906,0.24638772010803223,0.045622870326042175,0.0,0.0,0.0,0.0006650016875937581,0.023669861257076263,-0.0,0.0,0.0,0.0,0.00340904644690454,0.0024414497893303633,0.0010558625217527151,27901.0,0.0,30648.0,19712.0,0.10547132790088654,-0.0020363256335258484,0.11923645436763763,0.06803162395954132,0.0,0.0,0.0,0.0,25010.0,3784.0,29916.0,11677.0,0.25434648990631104,-0.09859600370369903,-0.03422012905162796,0.05509899630298248,-0.06967341154813766,0.001957648666575551,-0.0016958690248429775
148,5,0.00011569436901481822,0.00011962472490267828,0.00015870282368268818,-0.0015355186769738793,-0.007794041186571121,-0.011208824813365936,-0.07884615659713745,0.04534609243273735,0.0328865610063076,-0.032817766070365906,0.24638772010803223,0.045622870326042175,0.0,0.0,0.0,0.010244091041386127,-0.0015779737150296569,-0.0,0.0,0.0,0.0,0.00340904644690454,0.0024414497893303633,0.0010558625217527151,27901.0,0.0,30648.0,19712.0,0.10547132790088654,-0.0020363256335258484,0.11923645436763763,0.06803162395954132,0.0,0.0,0.0,0.0,25010.0,3784.0,29916.0,11677.0,0.25428885221481323,-0.09359541369616474,-0.03029155385329453,0.057037557580811034,0.004643980413675308,0.03014945238828659,0.03678138554096222
153,5,8.688466186868027e-05,0.00012353411875665188,0.0001306278136326,-0.004494014196097851,-0.002885526977479458,0.0005678541492670774,-0.0788082703948021,0.04280001297593117,0.03318680450320244,0.00904848799109459,0.31084975600242615,0.023771392181515694,0.0,0.0,0.0,0.004005704540759325,-0.005387857090681791,-0.0,0.0,0.0,0.0,0.0019115814939141273,0.00040722248377278447,0.0010923205409199,25578.0,3422.0,29421.0,11928.0,0.09430398792028427,0.009570926427841187,0.11301121860742569,0.037435658276081085,0.0,0.0,0.0,0.0,22639.0,6254.0,32508.0,12288.0,0.2542809247970581,-0.09454818318506462,-0.027918196567326012,0.05641268697920608,0.015856485813856125,0.01178920827805996,0.0016244144644588232
158,5,0.00014375950559042394,9.266844426747411e-05,0.00014962827845010906,0.00661427341401577,0.003455535741522908,-0.0024897074326872826,-0.0788082703948021,0.04280001297593117,0.03318680450320244,0.00904848799109459,0.31084975600242615,0.023771392181515694,0.0,0.0,0.0,-0.004116823431104422,0.008869653567671776,-0.0,0.0,0.0,0.0,0.0019115814939141273,0.00040722248377278447,0.0010923205409199,25578.0,3422.0,29421.0,11928.0,0.09430398792028427,0.009570926427841187,0.11301121860742569,0.037435658276081085,0.0,0.0,0.0,0.0,22639.0,6254.0,32508.0,12288.0,0.25428736209869385,-0.09838851490306559,-0.029319162153118493,0.05311253954477348,-0.026104290038347244,-0.012116217985749245,0.011581341736018658
163,5,-5.3538115025730804e-05,0.00016978222993202507,0.00014688869123347104,-0.02563738450407982,-0.009759269654750824,-0.00036337075289338827,-0.0788288488984108,0.039622340351343155,0.033146876841783524,-0.00670080678537488,0.19471684098243713,0.016895558685064316,0.0,0.0,0.0,0.012811598367989063,-0.03243653103709221,-0.0,0.0,0.0,0.0,0.0028749764896929264,-0.0001882379874587059,0.0009253742173314095,22561.0,6370.0,32819.0,11831.0,0.08044564723968506,0.018570486456155777,0.1305440366268158,0.03708751127123833,0.0,0.0,0.0,0.0,21694.0,7421.0,33343.0,11183.0,0.2552335262298584,-0.09024678852175097,-0.009409700521576714,0.0524451353644709,0.09579591453075409,0.03784586116671562,0.005706970579922199
168,5,-1.723924833640922e-05,0.00013602655963040888,0.00013102739467285573,-0.0026093740016222,0.001798013923689723,0.0021115709096193314,-0.0788288488984108,0.039622340351343155,0.033146876841783524,-0.00670080678537488,0.19471684098243713,0.016895558685064316,0.0,0.0,0.0,-0.0019133931491523981,-0.0031495459843426943,-0.0,0.0,0.0,0.0,0.0028749764896929264,-0.0001882379874587059,0.0009253742173314095,22561.0,6370.0,32819.0,11831.0,0.08044564723968506,0.018570486456155777,0.1305440366268158,0.03708751127123833,0.0,0.0,0.0,0.0,21694.0,7421.0,33343.0,11183.0,0.25427693128585815,-0.09406792050726469,-0.010155299167312419,0.04919858195112895,0.009269170463085175,-0.005630946718156338,-0.0014954538783058524
174,5,-3.396515239728615e-05,4.603074921760708e-05,-1.0908053809544072e-05,-0.003124438924714923,0.013138816691935062,0.020504433661699295,-0.07868900150060654,0.037971291691064835,0.03282695636153221,-0.005670574028044939,0.17921341955661774,-0.0470188669860363,0.0,0.0,0.0,-0.01650526188313961,-0.00383556354790926,-0.0,0.0,0.0,0.0,0.002446695463731885,-0.00020100119581911713,0.0009576691081747413,22085.0,4709.0,30247.0,14067.0,0.07832576334476471,0.013414602726697922,0.11719103902578354,0.04535747319459915,0.0,0.0,0.0,0.0,22116.0,4607.0,30130.0,14268.0,0.2543117105960846,-0.10327261024445084,-0.007714087468677923,0.05218754183287125,0.011288118548691273,-0.048579756170511246,-0.058338746428489685
179,5,0.00012141010665800422,0.00019295941456221044,-3.307300357846543e-05,0.020815204828977585,-0.016628369688987732,0.009254422970116138,-0.07868900150060654,0.037971291691064835,0.03282695636153221,-0.005670574028044939,0.17921341955661774,-0.0470188669860363,0.0,0.0,0.0,0.021625418215990067,0.026874400675296783,-0.0,0.0,0.0,0.0,0.002446695463731885,-0.00020100119581911713,0.0009576691081747413,22085.0,4709.0,30247.0,14067.0,0.07832576334476471,0.013414602726697922,0.11719103902578354,0.04535747319459915,0.0,0.0,0.0,0.0,22116.0,4607.0,30130.0,14268.0,0.2548924684524536,-0.09605877020082053,-0.01227814312279338,0.04652199571794487,-0.07925545424222946,0.06379342079162598,-0.024965671822428703
184,5,9.129546378972009e-05,0.00012746365973725915,0.0001869987609097734,0.002028512069955468,0.004180896561592817,-0.028033720329403877,-0.07851847261190414,0.036342449486255646,0.032345961779356,-0.004449265543371439,0.1401168704032898,-0.03481186553835869,0.0,0.0,0.0,-0.004938626661896706,0.002948128618299961,-0.0,0.0,0.0,0.0,0.002491082763299346,-0.0005768683040514588,0.0009252012823708355,23047.0,5080.0,29895.0,13094.0,0.08262618631124496,0.01454704999923706,0.1154036819934845,0.041710447520017624,0.0,0.0,0.0,0.0,22972.0,5240.0,29282.0,13878.0,0.25427940487861633,-0.09263908883684205,-0.005009428202322027,0.050858227794609405,-0.008676504716277122,-0.014534369111061096,0.09011711925268173
189,5,7.310415821848437e-05,0.00019636766228359193,0.0003276886709500104,-0.0019382291939109564,-0.008392292074859142,-0.028106702491641045,-0.07851847261190414,0.036342449486255646,0.032345961779356,-0.004449265543371439,0.1401168704032898,-0.03481186553835869,0.0,0.0,0.0,0.011208678595721722,-0.0021302285604178905,-0.0,0.0,0.0,0.0,0.002491082763299346,-0.0005768683040514588,0.0009252012823708355,23047.0,5080.0,29895.0,13094.0,0.08262618631124496,0.01454704999923706,0.1154036819934845,0.041710447520017624,0.0,0.0,0.0,0.0,22972.0,5240.0,29282.0,13878.0,0.25429174304008484,-0.08824833821572363,-0.004346431451013745,0.05437591596600129,0.0062692719511687756,0.032988596707582474,0.09315821528434753
194,5,6.827858305769041e-05,0.00021557341096922755,0.0004123847757000476,-0.0012570498511195183,-0.00520649179816246,-0.02028946578502655,-0.07840725779533386,0.03545287251472473,0.031998854130506516,0.028790829703211784,0.10758930444717407,0.01342933438718319,0.0,0.0,0.0,0.007197527214884758,-0.0012648054398596287,-0.0,0.0,0.0,0.0,0.003309887368232012,0.00040153012378141284,0.0010041274363175035,23138.0,1437.0,30603.0,15005.0,0.08303770422935486,0.003906503319740295,0.11900648474693298,0.048950690776109695,0.0,0.0,0.0,0.0,22840.0,5474.0,30869.0,11653.0,0.25428199768066406,-0.08944625447177414,-0.000757902034753217,0.05512580401753135,0.0037222218234091997,0.02118302881717682,0.07223670929670334
199,5,-0.00017139244300778955,0.0002613070828374475,0.00030946871265769005,-0.03393105790019035,-0.007964661344885826,0.008321407251060009,-0.07840725779533386,0.03545287251472473,0.031998854130506516,0.028790829703211784,0.10758930444717407,0.01342933438718319,0.0,0.0,0.0,0.01045125164091587,-0.041893236339092255,-0.0,0.0,0.0,0.0,0.003309887368232012,0.00040153012378141284,0.0010041274363175035,23138.0,1437.0,30603.0,15005.0,0.08303770422935486,0.003906503319740295,0.11900648474693298,0.048950690776109695,0.0,0.0,0.0,0.0,22840.0,5474.0,30869.0,11653.0,0.2629092037677765,-0.08273088781959212,0.030916345538635374,0.06786514328302146,0.12743423879146576,0.03180224820971489,-0.01364216860383749
204,5,6.672222662018612e-05,0.000369289075024426,0.00033992817043326795,0.02315673604607582,-0.017506876960396767,-0.0017679007723927498,-0.07840725779533386,0.03545287251472473,0.031998854130506516,0.028790829703211784,0.10758930444717407,0.01342933438718319,0.0,0.0,0.0,0.022881804034113884,0.029480017721652985,-0.0,0.0,0.0,0.0,0.003309887368232012,0.00040153012378141284,0.0010041274363175035,23138.0,1437.0,30603.0,15005.0,0.08303770422935486,0.003906503319740295,0.11900648474693298,0.048950690776109695,0.0,0.0,0.0,0.0,22840.0,5474.0,30869.0,11653.0,0.2574424743652344,-0.08557068939283712,-0.0025074799668075407,0.0584746379339436,-0.08780475705862045,0.06817455589771271,0.018044285476207733
209,5,0.00029953205375932157,8.438685472356156e-05,4.514780448516831e-05,0.03954039514064789,0.03463424742221832,0.04073888063430786,-0.07836266607046127,0.034403540194034576,0.032199207693338394,-0.02127065137028694,0.07083871960639954,0.011058362200856209,0.0,0.0,0.0,-0.03958335146307945,0.046299949288368225,-0.0,0.0,0.0,0.0,0.002837018109858036,-0.0006941267056390643,0.001066388562321663,22761.0,3931.0,31994.0,11437.0,0.08134099841117859,0.011076968163251877,0.12620386481285095,0.035669974982738495,0.0,0.0,0.0,0.0,22701.0,1998.0,30856.0,14771.0,0.2810195982456207,-0.10046924941932278,-0.016481511096399618,0.06728562771197698,-0.15042078495025635,-0.12871287763118744,-0.11288309097290039
214,5,0.00014113113866187632,1.8490916772861965e-05,-0.00029912078753113747,-0.010314008221030235,0.01961570605635643,0.060419268906116486,-0.07836266607046127,0.034403540194034576,0.032199207693338394,-0.02127065137028694,0.07083871960639954,0.011058362200856209,0.0,0.0,0.0,-0.02469804137945175,-0.012662810273468494,-0.0,0.0,0.0,0.0,0.002837018109858036,-0.0006941267056390643,0.001066388562321663,22761.0,3931.0,31994.0,11437.0,0.08134099841117859,0.011076968163251877,0.12620386481285095,0.035669974982738495,0.0,0.0,0.0,0.0,22701.0,1998.0,30856.0,14771.0,0.254373162984848,-0.1095528044251502,0.006849488782803282,0.08178063956742429,0.03726864233613014,-0.07270694524049759,-0.17696215212345123
219,5,0.0003448271891102195,0.0002369582507526502,-7.138264481909573e-05,0.025423245504498482,-0.024700714275240898,-0.013757561333477497,-0.07837030291557312,0.032079264521598816,0.03283070772886276,-0.023786727339029312,0.14357799291610718,0.039656978100538254,0.0,0.0,0.0,0.030935628339648247,0.032004646956920624,-0.0,0.0,0.0,0.0,0.003400820307433605,0.0004562624963000417,0.001020230120047927,23728.0,520.0,30643.0,15563.0,0.08571954071521759,0.00139632448554039,0.1192094162106514,0.05111820250749588,0.0,0.0,0.0,0.0,23257.0,3097.0,31593.0,12077.0,0.26418536901474,-0.09486296929695608,-0.01247785747673948,0.06827843979342266,-0.09779711812734604,0.09457681328058243,0.047866612672805786
224,5,0.0001980755478143692,0.00047288561472669244,-3.671853482956067e-05,-0.012918257154524326,-0.040440045297145844,-0.00898024346679449,-0.07837030291557312,0.032079264521598816,0.03283070772886276,-0.023786727339029312,0.14357799291610718,0.039656978100538254,0.0,0.0,0.0,0.04935341328382492,-0.014884673990309238,-0.0,0.0,0.0,0.0,0.003400820307433605,0.0004562624963000417,0.001020230120047927,23728.0,520.0,30643.0,15563.0,0.08571954071521759,0.00139632448554039,0.1192094162106514,0.05111820250749588,0.0,0.0,0.0,0.0,23257.0,3097.0,31593.0,12077.0,0.2711498439311981,-0.08138780334647831,0.0008203113393390172,0.06290399017823511,0.046654097735881805,0.15482336282730103,0.03383685275912285
229,5,0.0002664724306669086,0.00019005742797162384,0.00025664744316600263,0.005700085777789354,0.02746393345296383,-0.04376531019806862,-0.07838495075702667,0.03115524724125862,0.03343917056918144,0.006153804715722799,0.045233819633722305,0.05818643793463707,0.0,0.0,0.0,-0.03421378508210182,0.007967784069478512,-0.0,0.0,0.0,0.0,0.0017403708770871162,-0.0006345341680571437,0.0011700980830937624,24912.0,5353.0,31059.0,8783.0,0.09118004143238068,0.015389222651720047,0.12134712934494019,0.02645675465464592,0.0,0.0,0.0,0.0,24102.0,37.0,31122.0,14820.0,0.2554621696472168,-0.09478043715278156,-0.023424727176338065,0.062024203883517405,-0.023544613271951675,-0.10114146023988724,0.14249062538146973
234,5,0.0005494772922247648,0.0005530785419978201,5.576106195803732e-05,0.04133071005344391,-0.04258377477526665,0.014994501136243343,-0.07838495075702667,0.03115524724125862,0.03343917056918144,0.006153804715722799,0.045233819633722305,0.05818643793463707,0.0,0.0,0.0,-0.03420257195830345,0.00798488687723875,-0.0,0.0,0.0,0.0,0.0017403708770871162,-0.0006345341680571437,0.0011700980830937624,24912.0,5353.0,31059.0,8783.0,0.09118004143238068,0.015389222651720047,0.12134712934494019,0.02645675465464592,0.0,0.0,0.0,0.0,24102.0,37.0,31122.0,14820.0,0.28913161158561707,-0.06606032450242279,-0.0361501243837503,0.06311863180794323,-0.1586252599954605,0.16338901221752167,-0.03599868342280388
240,5,0.0003529194218572229,0.00019173034525010735,0.0001422636560164392,-0.01511889323592186,0.03781361132860184,-0.007612013258039951,-0.07836594432592392,0.030189018696546555,0.03381039574742317,0.023374825716018677,0.06625750660896301,0.061738502234220505,0.0,0.0,0.0,-0.044606734067201614,-0.017130089923739433,-0.0,0.0,0.0,0.0,0.004179671872407198,-0.0012957684230059385,0.0010529436403885484,21226.0,3618.0,34756.0,14106.0,0.07454600930213928,0.010148245841264725,0.14095667004585266,0.04550523683428764,0.0,0.0,0.0,0.0,23832.0,6602.0,31014.0,9166.0,0.26737654209136963,-0.09825306006772767,-0.025086848691571573,0.058758448287260324,0.05295607075095177,-0.13799582421779633,0.03199790045619011
245,5,0.0002804300165735185,0.00016576534835621715,5.8407556934980676e-05,-0.014684184454381466,0.014979183673858643,0.009456249885261059,-0.07836594432592392,0.030189018696546555,0.03381039574742317,0.023374825716018677,0.06625750660896301,0.061738502234220505,0.0,0.0,0.0,-0.04508865252137184,-0.017391836270689964,-0.0,0.0,0.0,0.0,0.004179671872407198,-0.0012957684230059385,0.0010529436403885484,21226.0,3618.0,34756.0,14106.0,0.07454600930213928,0.010148245841264725,0.14095667004585266,0.04550523683428764,0.0,0.0,0.0,0.0,23832.0,6602.0,31014.0,9166.0,0.26791447401046753,-0.09785175142745688,-0.019541851164151743,0.05716221221717893,0.053872156888246536,-0.13976632058620453,-0.017461217939853668
250,5,0.00022452953271567822,0.00021496458793990314,0.00010842584742931649,-0.012231321074068546,-0.0023941381368786097,-0.004165686201304197,-0.07793191820383072,0.029840383678674698,0.03393043577671051,0.03832530602812767,-0.021424680948257446,-0.043202031403779984,0.0,0.0,0.0,0.003794195596128702,-0.014820756390690804,-0.0,0.0,0.0,0.0,0.004028503317385912,0.000926733308006078,0.0010082508670166135,24553.0,2129.0,32513.0,18959.0,0.08951406180858612,0.005846057087182999,0.12893062829971313,0.06485778838396072,0.0,0.0,0.0,0.0,21951.0,2708.0,34937.0,13703.0,0.2543049454689026,-0.09566099444431701,-0.01650250046253644,0.05578931011031234,0.04362067952752113,0.011167597956955433,0.02312585338950157
255,5,0.0002492251805961132,0.00026370774139650166,5.025927021051757e-05,-0.00021200694027356803,-0.007542281411588192,0.006893615238368511,-0.07793191820383072,0.029840383678674698,0.03393043577671051,0.03832530602812767,-0.021424680948257446,-0.043202031403779984,0.0,0.0,0.0,0.010453579016029835,0.000552664918359369,-0.0,0.0,0.0,0.0,0.004028503317385912,0.000926733308006078,0.0010082508670166135,24553.0,2129.0,32513.0,18959.0,0.08951406180858612,0.005846057087182999,0.12893062829971313,0.06485778838396072,0.0,0.0,0.0,0.0,21951.0,2708.0,34937.0,13703.0,0.2542891204357147,-0.09039047395017388,-0.0210478801795619,0.05714009114666417,-0.0016268667532131076,0.030766405165195465,-0.010514182969927788
260,5,-8.084463479463011e-05,0.00017921230755746365,9.504708577878773e-05,-0.046273376792669296,0.009566674008965492,-0.004202209413051605,-0.0780576765537262,0.030043039470911026,0.033356573432683945,-0.04476533830165863,-0.02183450199663639,-0.05423377454280853,0.0,0.0,0.0,-0.010604800656437874,-0.054282914847135544,-0.0,0.0,0.0,0.0,0.004316382110118866,0.0004731583467219025,0.0009493250399827957,21448.0,8558.0,31215.0,10107.0,0.07551944255828857,0.02570289745926857,0.12215302884578705,0.030983582139015198,0.0,0.0,0.0,0.0,21305.0,9080.0,30983.0,10127.0,0.2750290334224701,-0.10272294776111511,0.009243633323136545,0.046878825891156085,0.17269928753376007,-0.03375636413693428,0.023633306846022606
265,5,-9.58392320171697e-06,0.0003104344941675663,0.00027858352405019104,-0.003905513556674123,-0.015501103363931179,-0.02695576474070549,-0.0780576765537262,0.030043039470911026,0.033356573432683945,-0.04476533830165863,-0.02183450199663639,-0.05423377454280853,0.0,0.0,0.0,0.020702876150608063,-0.004579796455800533,-0.0,0.0,0.0,0.0,0.004316382110118866,0.0004731583467219025,0.0009493250399827957,21448.0,8558.0,31215.0,10107.0,0.07551944255828857,0.02570289745926857,0.12215302884578705,0.030983582139015198,0.0,0.0,0.0,0.0,21305.0,9080.0,30983.0,10127.0,0.25433236360549927,-0.08395240498063479,-0.010360168914058438,0.06075443261711015,0.013478435575962067,0.06093790754675865,0.09495321661233902
270,5,0.0003204812528565526,0.00015499306027777493,4.092395829502493e-05,0.04503747075796127,0.01711147092282772,0.025185609236359596,-0.07797218859195709,0.0306668933480978,0.03315361589193344,0.010535902343690395,-0.07994474470615387,-0.04095408320426941,0.0,0.0,0.0,-0.019372783601284027,0.053626395761966705,-0.0,0.0,0.0,0.0,0.0018879614071920514,-0.0020344199147075415,0.0009616658207960427,21243.0,9644.0,31561.0,8769.0,0.07461965829133987,0.029383525252342224,0.12394419312477112,0.02641155943274498,0.0,0.0,0.0,0.0,20583.0,6958.0,31554.0,12130.0,0.2768280804157257,-0.10182505578815382,-0.026493444450069525,0.05173129375703846,-0.171706423163414,-0.06206683814525604,-0.0639970526099205
275,5,0.00019312481163069606,0.00029646779876202345,9.835174569161609e-05,-0.004318661987781525,-0.0146730225533247,-0.0004842074413318187,-0.07797218859195709,0.0306668933480978,0.03315361589193344,0.010535902343690395,-0.07994474470615387,-0.04095408320426941,0.0,0.0,0.0,0.019658170640468597,-0.004741952288895845,-0.0,0.0,0.0,0.0,0.0018879614071920514,-0.0020344199147075415,0.0009616658207960427,21243.0,9644.0,31561.0,8769.0,0.07461965829133987,0.029383525252342224,0.12394419312477112,0.02641155943274498,0.0,0.0,0.0,0.0,20583.0,6958.0,31554.0,12130.0,0.2543272078037262,-0.0914696977816754,-0.021302017923093015,0.05668583047493497,0.013955380767583847,0.0578625462949276,0.014008057303726673
280,5,3.664979158202186e-05,0.00022630444436799735,8.788471313891932e-05,-0.02320210076868534,0.005420962814241648,0.001320122042670846,-0.07782605290412903,0.03223148360848427,0.03315990790724754,-0.01897992379963398,-0.1579519808292389,0.013769777491688728,0.0,0.0,0.0,0.019680678844451904,-0.004727286286652088,-0.0,0.0,0.0,0.0,0.00288046314381063,-0.0018323736730962992,0.0010185422142967582,20826.0,6475.0,32945.0,10217.0,0.07280618697404861,0.018903881311416626,0.1312134861946106,0.03136563301086426,0.0,0.0,0.0,0.0,19543.0,6696.0,33471.0,10796.0,0.25438714027404785,-0.09895033798298808,-0.010984441268874417,0.05236439515626237,0.08550772070884705,-0.017774559557437897,0.008804161101579666
285,5,0.00015189511759672314,0.0002272153360536322,1.750329101923853e-05,0.00917371641844511,0.001498763682320714,0.010249435901641846,-0.07782605290412903,0.03223148360848427,0.03315990790724754,-0.01897992379963398,-0.1579519808292389,0.013769777491688728,0.0,0.0,0.0,-0.001022625365294516,0.012397113256156445,-0.0,0.0,0.0,0.0,0.00288046314381063,-0.0018323736730962992,0.0010185422142967582,20826.0,6475.0,32945.0,10217.0,0.07280618697404861,0.018903881311416626,0.1312134861946106,0.03136563301086426,0.0,0.0,0.0,0.0,19543.0,6696.0,33471.0,10796.0,0.25429487228393555,-0.09775694168443097,-0.022906201541735813,0.05586457186101793,-0.036486804485321045,-0.00300947786308825,-0.0187064241617918
290,5,0.00015032425289973617,0.0002796968328766525,7.066605030559003e-05,0.002532192273065448,-0.006897779647260904,-0.00436795549467206,-0.07796988636255264,0.033896304666996,0.03316408768296242,0.016040515154600143,-0.19203950464725494,0.00967225432395935,0.0,0.0,0.0,0.009782802313566208,0.003944206517189741,-0.0,0.0,0.0,0.0,0.0032396651804447174,-0.002685996936634183,0.0009899127762764692,19007.0,7630.0,34044.0,9692.0,0.06506042182445526,0.022631105035543442,0.13709206879138947,0.029548849910497665,0.0,0.0,0.0,0.0,19453.0,7283.0,33838.0,9797.0,0.2542893588542938,-0.09667731025717026,-0.021669549552958623,0.056520452612472544,-0.011607860215008259,0.02879193052649498,0.02601236291229725
295,5,-0.0005208607180975378,-2.939561272796709e-05,0.0003131335834041238,-0.0932062417268753,0.04120360687375069,-0.03525584191083908,-0.07796988636255264,0.033896304666996,0.03316408768296242,0.016040515154600143,-0.19203950464725494,0.00967225432395935,0.0,0.0,0.0,-0.03989527001976967,-0.09158913046121597,-0.0,0.0,0.0,0.0,0.0032396651804447174,-0.002685996936634183,0.0009899127762764692,19007.0,7630.0,34044.0,9692.0,0.06506042182445526,0.022631105035543442,0.13709206879138947,0.029548849910497665,0.0,0.0,0.0,0.0,19453.0,7283.0,33838.0,9797.0,0.33158984780311584,-0.10092054830063335,0.017846115328064127,0.07611072382881894,0.3507343828678131,-0.15307126939296722,0.12258409708738327
300,5,-0.00023531516490038484,5.1445880671963096e-05,0.00022224725398700684,0.012014508247375488,0.0010432733688503504,0.002147332765161991,-0.07796988636255264,0.033896304666996,0.03316408768296242,0.016040515154600143,-0.19203950464725494,0.00967225432395935,0.0,0.0,0.0,-0.0007036873721517622,0.01534841489046812,-0.0,0.0,0.0,0.0,0.0032396651804447174,-0.002685996936634183,0.0009899127762764692,19007.0,7630.0,34044.0,9692.0,0.06506042182445526,0.022631105035543442,0.13709206879138947,0.029548849910497665,0.0,0.0,0.0,0.0,19453.0,7283.0,33838.0,9797.0,0.2543052136898041,-0.10031746034089176,0.000813105365926588,0.07160633628988232,-0.04517393186688423,-0.002071196213364601,0.00998754519969225
305,5,-0.0005705355433747172,-0.00046539833419956267,0.00036792512401007116,-0.04332650080323219,0.07267116755247116,-0.019750701263546944,-0.07806482166051865,0.036585208028554916,0.03350185975432396,0.0023903651162981987,-0.2475694715976715,0.0466933436691761,0.0,0.0,0.0,-0.07525084167718887,-0.04528883472084999,-0.0,0.0,0.0,0.0,0.0032609631307423115,-0.002663032617419958,0.0010118603240698576,19232.0,7361.0,34249.0,9349.0,0.06600241363048553,0.021751776337623596,0.13819941878318787,0.028373662382364273,0.0,0.0,0.0,0.0,21575.0,6895.0,33316.0,8284.0,0.31402990221977234,-0.12252315993611662,0.01654312776877167,0.08207815085290149,0.1640859693288803,-0.2732497751712799,0.0787241980433464
310,5,0.0003662121598608792,0.00039736522012390196,0.00014435697812587023,0.11814672499895096,-0.09898554533720016,0.025374330580234528,-0.07806482166051865,0.036585208028554916,0.03350185975432396,0.0023903651162981987,-0.2475694715976715,0.0466933436691761,0.0,0.0,0.0,0.08381205797195435,0.1001681461930275,-0.0,0.0,0.0,0.0,0.0032609631307423115,-0.002663032617419958,0.0010118603240698576,19232.0,7361.0,34249.0,9349.0,0.06600241363048553,0.021751776337623596,0.13819941878318787,0.028373662382364273,0.0,0.0,0.0,0.0,21575.0,6895.0,33316.0,8284.0,0.3867136538028717,-0.08451281210577426,-0.04188343980440724,0.05522764238345551,-0.4460173547267914,0.374691367149353,-0.05885663628578186
315,5,0.0003727609000634402,0.0004150005988776684,0.0001126708448282443,0.03636084496974945,-0.032164618372917175,0.012048356235027313,-0.07795359939336777,0.038041334599256516,0.034095343202352524,0.02430429868400097,-0.20399652421474457,0.05790378898382187,0.0,0.0,0.0,0.03863776475191116,0.0433819442987442,-0.0,0.0,0.0,0.0,0.002502971328794956,-0.00199922570027411,0.0011038642842322588,21985.0,6514.0,32937.0,8710.0,0.0778835117816925,0.01902826875448227,0.13117249310016632,0.026210639625787735,0.0,0.0,0.0,0.0,22055.0,6479.0,33358.0,7977.0,0.27796855568885803,-0.08315779901243306,-0.04231121942551242,0.05591590494611724,-0.1394217163324356,0.1242755874991417,-0.018903682008385658
321,5,0.00024008657783269882,0.0003297313814982772,0.00013956982002127916,-0.007666153833270073,0.0022883072961121798,-0.00015134972636587918,-0.07795359939336777,0.038041334599256516,0.034095343202352524,0.02430429868400097,-0.20399652421474457,0.05790378898382187,0.0,0.0,0.0,-0.0017907182918861508,-0.008926738053560257,-0.0,0.0,0.0,0.0,0.002502971328794956,-0.00199922570027411,0.0011038642842322588,21985.0,6514.0,32937.0,8710.0,0.0778835117816925,0.01902826875448227,0.13117249310016632,0.026210639625787735,0.0,0.0,0.0,0.0,22055.0,6479.0,33358.0,7977.0,0.2542857527732849,-0.08798567702001836,-0.03411890967365216,0.05767146533092891,0.026272088289260864,-0.005270299501717091,0.0184573233127594
326,5,0.0002732368011493236,0.00039579314761795104,0.0002343083033338189,0.0023411870934069157,-0.00856215599924326,-0.013308792375028133,-0.0779835507273674,0.03996207192540169,0.034787606447935104,-0.010362396948039532,-0.12028655409812927,0.030402980744838715,0.0,0.0,0.0,0.01217213086783886,0.0038994133938103914,-0.0,0.0,0.0,0.0,0.004999999888241291,0.00169724365696311,0.0010342812165617943,22013.0,6252.0,32781.0,9169.0,0.07800554484128952,0.018196791410446167,0.13034242391586304,0.027760453522205353,0.0,0.0,0.0,0.0,22716.0,5325.0,32404.0,9681.0,0.2542959749698639,-0.08400300328435219,-0.03583547747356534,0.05661904744573537,-0.011476031504571438,0.035824622958898544,0.05988582968711853
331,5,0.00016244759899564087,0.00033350917510688305,0.00031910420511849225,-0.014808133244514465,0.006151109002530575,-0.015864064916968346,-0.0779835507273674,0.03996207192540169,0.034787606447935104,-0.010362396948039532,-0.12028655409812927,0.030402980744838715,0.0,0.0,0.0,-0.006648993119597435,-0.018117588013410568,-0.0,0.0,0.0,0.0,0.004999999888241291,0.00169724365696311,0.0010342812165617943,22013.0,6252.0,32781.0,9169.0,0.07800554484128952,0.018196791410446167,0.13034242391586304,0.027760453522205353,0.0,0.0,0.0,0.0,22716.0,5325.0,32404.0,9681.0,0.2543225586414337,-0.08830102437231359,-0.02540587335698238,0.0576005047001388,0.053325898945331573,-0.019571486860513687,0.06971819698810577
336,5,0.000153523578774184,0.0004049858544021845,0.0004408325767144561,-0.005691802129149437,-0.008161400444805622,-0.021801190450787544,-0.07785448431968689,0.04060318320989609,0.03498025983572006,0.041437357664108276,-0.0628209188580513,-0.04852895438671112,0.0,0.0,0.0,0.011733348481357098,-0.006506028119474649,-0.0,0.0,0.0,0.0,0.002041863976046443,-0.0016814677510410547,0.0009831326315179467,29636.0,6281.0,37252.0,26675.0,0.11409586668014526,0.018287908285856247,0.15481427311897278,0.0995207205414772,0.0,0.0,0.0,0.0,29369.0,6703.0,37092.0,26863.0,0.2542980909347534,-0.08548757762836241,-0.024356492037615026,0.05930285839126197,0.019147511571645737,0.034533560276031494,0.09056620299816132
341,5,0.00017104773723986,0.0003680349327623844,0.00037246235297061503,0.0007458410109393299,0.0027247073594480753,0.003031474770978093,-0.07785448431968689,0.04060318320989609,0.03498025983572006,0.041437357664108276,-0.0628209188580513,-0.04852895438671112,0.0,0.0,0.0,0.01176472008228302,-0.00649413513019681,-0.0,0.0,0.0,0.0,0.002041863976046443,-0.0016814677510410547,0.0009831326315179467,29636.0,6281.0,37252.0,26675.0,0.11409586668014526,0.018287908285856247,0.15481427311897278,0.0995207205414772,0.0,0.0,0.0,0.0,29369.0,6703.0,37092.0,26863.0,0.2542981505393982,-0.08629790304846931,-0.022289897311823032,0.053740947087298596,-0.0051165311597287655,-0.006381208077073097,0.016727130860090256
346,5,0.00025709407054819167,0.00029706984059885144,0.00028316673706285655,0.012270236387848854,0.010752526111900806,0.013410828076303005,-0.07594741135835648,0.040791627019643784,0.034394364804029465,0.27930983901023865,0.028625622391700745,-0.09996390342712402,0.0,0.0,0.0,-0.012486930005252361,0.016581092029809952,-0.0,0.0,0.0,0.0,0.0010393901029601693,-0.001603317796252668,0.0008339016931131482,22009.0,8413.0,30731.0,10231.0,0.07798904180526733,0.025216542184352875,0.11966463923454285,0.031415488570928574,0.0,0.0,0.0,0.0,21377.0,10041.0,30036.0,10457.0,0.25432997941970825,-0.08781325793232579,-0.024759744890927606,0.052033708590762145,-0.04880301654338837,-0.036755550652742386,-0.014320848509669304
351,5,0.0003432197845540941,0.000286741676973179,0.00020477741782087833,0.015738671645522118,0.004671698901802301,0.014997752383351326,-0.07594741135835648,0.040791627019643784,0.034394364804029465,0.27930983901023865,0.028625622391700745,-0.09996390342712402,0.0,0.0,0.0,-0.004734642803668976,0.021165164187550545,-0.0,0.0,0.0,0.0,0.0010393901029601693,-0.001603317796252668,0.0008339016931131482,22009.0,8413.0,30731.0,10231.0,0.07798904180526733,0.025216542184352875,0.11966463923454285,0.031415488570928574,0.0,0.0,0.0,0.0,21377.0,10041.0,30036.0,10457.0,0.2543350160121918,-0.08727530806800696,-0.02732964455398665,0.04976365989739811,-0.062298379838466644,-0.01393727958202362,-0.01919950544834137
356,5,0.00019518093904480338,0.00015070191875565797,-2.585909351182636e-05,-0.016003835946321487,0.020447077229619026,0.03678843751549721,-0.0725945234298706,0.0406501442193985,0.03349051997065544,0.5120996236801147,0.06837436556816101,-0.10778702050447464,0.0,0.0,0.0,-0.02503601461648941,-0.019500993192195892,-0.0,0.0,0.0,0.0,0.0004422389029059559,-0.0005586835322901607,0.0008916606893762946,24626.0,10365.0,27405.0,9677.0,0.08985085785388947,0.03187936171889305,0.10304813086986542,0.029497824609279633,0.0,0.0,0.0,0.0,22714.0,11679.0,28393.0,9463.0,0.254403293132782,-0.08464585582125315,-0.01978416445389983,0.05127226794642944,0.05739869922399521,-0.07371040433645248,-0.08726383745670319
361,5,0.00021882685541640967,0.000259303575148806,0.00029736716533079743,-0.0014907236909493804,-0.009070108644664288,-0.03421514481306076,-0.0725945234298706,0.0406501442193985,0.03349051997065544,0.5120996236801147,0.06837436556816101,-0.10778702050447464,0.0,0.0,0.0,0.012760492973029613,-0.0009555179858580232,-0.0,0.0,0.0,0.0,0.0004422389029059559,-0.0005586835322901607,0.0008916606893762946,24626.0,10365.0,27405.0,9677.0,0.08985085785388947,0.03187936171889305,0.10304813086986542,0.029497824609279633,0.0,0.0,0.0,0.0,22714.0,11679.0,28393.0,9463.0,0.2542960047721863,-0.08398150680439487,-0.008057136440903565,0.051613781967852594,0.002812090329825878,0.03755618631839752,0.13049767911434174
366,5,0.00015865446766838431,0.00024506053887307644,0.00041530217276886106,-0.0088713513687253,-0.0007270073401741683,-0.02677544765174389,-0.06503022462129593,0.03981352597475052,0.03252128139138222,0.7220817804336548,0.08178141713142395,-0.07763254642486572,0.0,0.0,0.0,0.0021258278284221888,-0.010445138439536095,-0.0,0.0,0.0,0.0,-0.00019126007100567222,6.161190526654536e-07,0.0009002489969134331,26644.0,9899.0,25641.0,9851.0,0.0993724912405014,0.0302630215883255,0.09460176527500153,0.030097797513008118,0.0,0.0,0.0,0.0,24440.0,11290.0,27175.0,9300.0,0.2542896568775177,-0.08048889222195844,0.0038416283823691022,0.055697010288733216,0.030740922316908836,0.006257029715925455,0.11107607185840607
371,5,0.00029822919168509543,0.00014614373503718525,0.00010589139856165275,0.01687905751168728,0.01363025140017271,0.03528487682342529,-0.06503022462129593,0.03981352597475052,0.03252128139138222,0.7220817804336548,0.08178141713142395,-0.07763254642486572,0.0,0.0,0.0,-0.016311518847942352,0.02261178195476532,-0.0,0.0,0.0,0.0,-0.00019126007100567222,6.161190526654536e-07,0.0009002489969134331,26644.0,9899.0,25641.0,9851.0,0.0993724912405014,0.0302630215883255,0.09460176527500153,0.030097797513008118,0.0,0.0,0.0,0.0,24440.0,11290.0,27175.0,9300.0,0.25437405705451965,-0.0767516879025412,-0.004918544651069824,0.05592336830454546,-0.06655781716108322,-0.048021331429481506,-0.07817299664020538
376,5,0.00038699762080796063,0.0001737056445563212,-4.847611762670567e-06,0.01749129593372345,0.00023040783707983792,0.026088925078511238,-0.048438992351293564,0.03842037916183472,0.03119761496782303,0.8699965476989746,0.08570364117622375,-0.0934162437915802,0.0,0.0,0.0,0.0008148658089339733,0.023565052077174187,-0.0,0.0,0.0,0.0,9.327586303697899e-05,-0.0008645810885354877,0.0008243157644756138,24281.0,12154.0,26534.0,9514.0,0.0882563665509224,0.03825601935386658,0.09884504973888397,0.028938619419932365,0.0,0.0,0.0,0.0,25845.0,11260.0,26035.0,9023.0,0.2543458938598633,-0.06300780282685839,-0.010903464102191597,0.04896067994330795,-0.06936478614807129,0.0023988166358321905,-0.05185190588235855
381,5,0.0004061847284901887,0.00022937890025787055,0.00037273988709785044,0.007933582179248333,-0.007725134026259184,-0.045035574585199356,-0.048438992351293564,0.03842037916183472,0.03119761496782303,0.8699965476989746,0.08570364117622375,-0.0934162437915802,0.0,0.0,0.0,0.011059400625526905,0.011453766375780106,-0.0,0.0,0.0,0.0,9.327586303697899e-05,-0.0008645810885354877,0.0008243157644756138,24281.0,12154.0,26534.0,9514.0,0.0882563665509224,0.03825601935386658,0.09884504973888397,0.028938619419932365,0.0,0.0,0.0,0.0,25845.0,11260.0,26035.0,9023.0,0.25430741906166077,-0.06445568375498471,-0.009781495779167527,0.05262622661574466,-0.03370990976691246,0.03255127742886543,0.16718538105487823
386,5,-9.21035825740546e-05,-0.0001372647238895297,0.0010289502097293735,-0.06920867413282394,0.04953773319721222,-0.08780825883150101,-0.048438992351293564,0.03842037916183472,0.03119761496782303,0.8699965476989746,0.08570364117622375,-0.0934162437915802,0.0,0.0,0.0,-0.05071999505162239,-0.07124532759189606,-0.0,0.0,0.0,0.0,9.327586303697899e-05,-0.0008645810885354877,0.0008243157644756138,24281.0,12154.0,26534.0,9514.0,0.0882563665509224,0.03825601935386658,0.09884504973888397,0.028938619419932365,0.0,0.0,0.0,0.0,25845.0,11260.0,26035.0,9023.0,0.31351396441459656,-0.06768139112694926,0.030744673441603414,0.07217226663129034,0.25797238945961,-0.18396539986133575,0.3067629933357239
391,5,-9.21035825740546e-05,-0.0001372647238895297,0.0010289502097293735,-0.06920867413282394,0.04953773319721222,-0.08780825883150101,-0.04121410474181175,0.03804802522063255,0.03094375506043434,0.8446431756019592,0.0503619983792305,-0.053241387009620667,0.0,0.0,0.0,-0.05072581022977829,-0.07124831527471542,-0.0,0.0,0.0,0.0,-0.0013021290069445968,-9.673846943769604e-05,0.0009091103565879166,27303.0,12625.0,24870.0,7084.0,0.10255469381809235,0.03997858241200447,0.0909857451915741,0.0208551287651062,0.0,0.0,0.0,0.0,24358.0,12463.0,26480.0,9155.0,0.3135219216346741,-0.06768139112694926,0.030744673441603414,0.07217226663129034,0.25798964500427246,-0.18399113416671753,0.3099784553050995
396,5,-0.0003778546815738082,-2.0722809495055117e-05,0.0009219213388860226,-0.04760042577981949,0.010268628597259521,0.016818277537822723,-0.04121410474181175,0.03804802522063255,0.03094375506043434,0.8446431756019592,0.0503619983792305,-0.053241387009620667,0.0,0.0,0.0,-0.05073162168264389,-0.07125130295753479,-0.0,0.0,0.0,0.0,-0.0013021290069445968,-9.673846943769604e-05,0.0009091103565879166,27303.0,12625.0,24870.0,7084.0,0.10255469381809235,0.03997858241200447,0.0909857451915741,0.0208551287651062,0.0,0.0,0.0,0.0,24358.0,12463.0,26480.0,9155.0,0.3135298788547516,-0.04796067107171154,0.048873451396639435,0.06678728685813133,0.2580069303512573,-0.1840168684720993,0.3131939470767975
401,5,-0.0006189476698637009,-8.557992987334728e-05,0.0008003977709449828,-0.04803314805030823,0.012160585261881351,0.022058777511119843,-0.030894776806235313,0.03769286721944809,0.030099883675575256,0.8459564447402954,-0.004213306121528149,-0.05577540397644043,0.0,0.0,0.0,-0.013555843383073807,-0.05640614405274391,-0.0,0.0,0.0,0.0,-0.0026741751935333014,-0.0032934939954429865,0.0007877146708779037,27390.0,23700.0,29427.0,4209.0,0.1029769629240036,0.08559063076972961,0.11304192245006561,0.01190495491027832,0.0,0.0,0.0,0.0,27077.0,13335.0,23954.0,7911.0,0.2778882682323456,-0.03495448875540455,0.06763800489802434,0.0703860041381653,0.18130619823932648,-0.04359831288456917,-0.01689138635993004
407,5,-0.0006189476698637009,-8.557992987334728e-05,0.0008003977709449828,-0.04803314805030823,0.012160585261881351,0.022058777511119843,-0.030894776806235313,0.03769286721944809,0.030099883675575256,0.8459564447402954,-0.004213306121528149,-0.05577540397644043,0.0,0.0,0.0,-0.013559338636696339,-0.056436311453580856,-0.0,0.0,0.0,0.0,-0.0026741751935333014,-0.0032934939954429865,0.0007877146708779037,27390.0,23700.0,29427.0,4209.0,0.1029769629240036,0.08559063076972961,0.11304192245006561,0.01190495491027832,0.0,0.0,0.0,0.0,27077.0,13335.0,23954.0,7911.0,0.27792075276374817,-0.03495448875540455,0.06763800489802434,0.0703860041381653,0.1814250349998474,-0.043614741414785385,-0.014330113306641579
412,5,-0.0007032910361886024,-0.0002447503211442381,0.0013033980503678322,-0.02621801383793354,0.025932030752301216,-0.06380240619182587,-0.0241127610206604,0.03786449879407883,0.030363617464900017,0.7672039866447449,-0.07773337513208389,-0.034979790449142456,0.0,0.0,0.0,-0.03133637458086014,-0.03268645703792572,-0.0,0.0,0.0,0.0,-0.0028844692278653383,-0.003827775362879038,0.0009878157870844007,25583.0,18482.0,29884.0,1519.0,0.09432634711265564,0.06287458539009094,0.11534884572029114,0.0041342079639434814,0.0,0.0,0.0,0.0,23848.0,20114.0,29727.0,2226.0,0.26492804288864136,-0.04632695624059898,0.06941956299889927,0.0700889167688972,0.1001603901386261,-0.0960712656378746,0.25344258546829224
417,5,-0.0007455085287801921,-0.0004513586172834039,0.0009181221830658615,-0.0027971002273261547,-0.013701904565095901,-0.0023849541321396828,-0.0241127610206604,0.03786449879407883,0.030363617464900017,0.7672039866447449,-0.07773337513208389,-0.034979790449142456,0.0,0.0,0.0,0.017488528043031693,-0.004307622089982033,-0.0,0.0,0.0,0.0,-0.0028844692278653383,-0.003827775362879038,0.0009878157870844007,25583.0,18482.0,29884.0,1519.0,0.09432634711265564,0.06287458539009094,0.11534884572029114,0.0041342079639434814,0.0,0.0,0.0,0.0,23848.0,20114.0,29727.0,2226.0,0.25431644916534424,-0.056731696721612504,0.05007293150804515,0.07607432470998174,0.012677409686148167,0.05147446319460869,0.06749160587787628
422,5,-0.0006605305825360119,-0.0005394751206040382,0.0007930106949061155,0.011057782918214798,0.008225740864872932,0.01680012047290802,-0.01571821980178356,0.038830481469631195,0.029765659943223,0.6025371551513672,-0.09916955232620239,-0.028326204046607018,0.0,0.0,0.0,-0.010633214376866817,0.013432744890451431,-0.0,0.0,0.0,0.0,-0.001361143309623003,-0.0036718896590173244,0.0008402008097618818,24112.0,19532.0,29716.0,2687.0,0.08747989684343338,0.06726667284965515,0.1144990473985672,0.007438376545906067,0.0,0.0,0.0,0.0,23854.0,19970.0,30608.0,1281.0,0.25431251525878906,-0.05726907264055304,0.04493866118432514,0.07756838014541499,-0.03953494504094124,-0.031297553330659866,0.01151310745626688
427,5,-0.0006591326091438532,-0.00042280188063159585,0.0008005049312487245,0.0035130565520375967,-0.013866533525288105,0.003990840166807175,-0.01571821980178356,0.038830481469631195,0.029765659943223,0.6025371551513672,-0.09916955232620239,-0.028326204046607018,0.0,0.0,0.0,0.017669677734375,0.003770166076719761,-0.0,0.0,0.0,0.0,-0.001361143309623003,-0.0036718896590173244,0.0008402008097618818,24112.0,19532.0,29716.0,2687.0,0.08747989684343338,0.06726667284965515,0.1144990473985672,0.007438376545906067,0.0,0.0,0.0,0.0,23854.0,19970.0,30608.0,1281.0,0.2543167173862457,-0.04895139554002662,0.04311659885258448,0.07571767344390136,-0.011094662360846996,0.052007004618644714,0.05314760282635689
432,5,-0.0005288603133521974,-0.00014807235857006162,0.0006428418564610183,0.019292036071419716,-0.04262209311127663,0.02327008545398712,-0.010716537944972515,0.039874620735645294,0.029652763158082962,0.5316674113273621,-0.1370510458946228,-0.046064842492341995,0.0,0.0,0.0,0.05063706263899803,0.022262632846832275,-0.0,0.0,0.0,0.0,-0.0015319578815251589,-0.004206839483231306,0.0008939331164583564,23735.0,20521.0,30571.0,687.0,0.08575102686882019,0.07148794829845428,0.11884376406669617,0.0018484033644199371,0.0,0.0,0.0,0.0,22891.0,15274.0,27927.0,5807.0,0.2750321328639984,-0.035971197715357506,0.03975055567861589,0.07165988456072975,-0.07077066600322723,0.1611211597919464,-0.004088965244591236
437,5,0.0006534479325637221,0.00027581703034229577,0.00040253743645735085,0.019292036071419716,-0.04262209311127663,0.02327008545398712,-0.010716537944972515,0.039874620735645294,0.029652763158082962,0.5316674113273621,-0.1370510458946228,-0.046064842492341995,0.0,0.0,0.0,0.05107776075601578,0.023992065340280533,-0.0,0.0,0.0,0.0,-0.0015319578815251589,-0.004206839483231306,0.0008939331164583564,23735.0,20521.0,30571.0,687.0,0.08575102686882019,0.07148794829845428,0.11884376406669617,0.0018484033644199371,0.0,0.0,0.0,0.0,22891.0,15274.0,27927.0,5807.0,0.2762058973312378,-0.009642062905928762,-0.043456919368404366,0.061335940384362235,-0.0765911191701889,0.16321580111980438,-0.005698617547750473
442,5,0.00033879061811603606,0.00012567933299578726,0.0004650402697734535,-0.03826440870761871,0.008232652209699154,-0.0017693713307380676,-0.0049584596417844296,0.04166655242443085,0.029263198375701904,0.40839558839797974,-0.13380317389965057,-0.05759956315159798,0.0,0.0,0.0,-0.00914942566305399,-0.045683227479457855,-0.0,0.0,0.0,0.0,-0.0003161280765198171,-0.0025895514991134405,0.0008610517834313214,22570.0,15136.0,28675.0,5255.0,0.08048667013645172,0.0494578517973423,0.10928705334663391,0.015084855258464813,0.0,0.0,0.0,0.0,22751.0,14926.0,27644.0,6868.0,0.26620596647262573,-0.02303839547849259,-0.01809684359496713,0.04635488070030354,0.14069867134094238,-0.02818959951400757,0.07162303477525711
447,5,0.0003282190300524235,0.00030867051100358367,0.0005848064320161939,-0.012959345243871212,-0.023148970678448677,-0.017298072576522827,-0.0049584596417844296,0.04166655242443085,0.029263198375701904,0.40839558839797974,-0.13380317389965057,-0.05759956315159798,0.0,0.0,0.0,0.03067024238407612,-0.015536421909928322,-0.0,0.0,0.0,0.0,-0.0003161280765198171,-0.0025895514991134405,0.0008610517834313214,22570.0,15136.0,28675.0,5255.0,0.08048667013645172,0.0494578517973423,0.10928705334663391,0.015084855258464813,0.0,0.0,0.0,0.0,22751.0,14926.0,27644.0,6868.0,0.25479117035865784,-0.0038281816052174004,-0.020843673048708957,0.05530945291784861,0.04579257592558861,0.09043194353580475,0.12150873243808746
452,5,0.0003759695100598037,0.00011912286572623998,0.00047160458052530885,0.0027972604148089886,0.019591979682445526,0.01065883506089449,-0.001960619119927287,0.04330899938941002,0.029336558654904366,0.38815438747406006,-0.17475387454032898,0.017076727002859116,0.0,0.0,0.0,-0.02403075061738491,0.004619638901203871,-0.0,0.0,0.0,0.0,-0.00028663992998190224,-0.002627780195325613,0.0009678343194536865,23617.0,13972.0,29599.0,3634.0,0.08521370589733124,0.044998932629823685,0.11390899121761322,0.010194983333349228,0.0,0.0,0.0,0.0,23887.0,13148.0,30243.0,10025.0,0.25435134768486023,-0.023786319124814537,-0.02298895778047671,0.04422459923364065,-0.013596258126199245,-0.07073669135570526,0.037785422056913376
457,5,0.00046547059901058674,-3.869995998684317e-05,0.00034173292806372046,0.013369332998991013,0.027972789481282234,0.021379683166742325,-0.001960619119927287,0.04330899938941002,0.029336558654904366,0.38815438747406006,-0.17475387454032898,0.017076727002859116,0.0,0.0,0.0,-0.03437081351876259,0.01796465925872326,-0.0,0.0,0.0,0.0,-0.00028663992998190224,-0.002627780195325613,0.0009678343194536865,23617.0,13972.0,29599.0,3634.0,0.08521370589733124,0.044998932629823685,0.11390899121761322,0.010194983333349228,0.0,0.0,0.0,0.0,23887.0,13148.0,30243.0,10025.0,0.25878652930259705,-0.028726795010924584,-0.03702204347182507,0.054682229167156975,-0.05377403274178505,-0.10292775183916092,0.0054335808381438255
