timestamp,dt,pos_x,pos_y,pos_z,vel_x,vel_y,vel_z,roll,pitch,yaw,agv_x,agv_y,agv_z,x_ref,y_ref,z_ref,roll_ref,pitch_ref,yaw_ref,x_vel_ref,y_vel_ref,z_vel_ref,x_torque,y_torque,z_torque,w0,w1,w2,w3,u0,u1,u2,u3,m0req,m1req,m2req,m3req,thrust0,thrust1,thrust2,thrust3,thrust_ref,roll_vicon,pitch_vicon,yaw_vicon,acc_x,acc_y,acc_z
5,5,0.0,0.0,0.0,-9.899587894324213e-05,-0.0007238539401441813,0.0024995971471071243,-0.03200250491499901,0.4938046336174011,0.010125011205673218,-0.0018737611826509237,-0.0012470685178413987,-0.00025111378636211157,0.0,0.0,0.0,0.0009223416564054787,-0.00012614154547918588,-0.0,0.0,0.0,0.0,0.0016199640231207013,-0.004999999888241291,0.0003066947974730283,0.0,0.0,0.0,0.0,0.0,0.0,0.0,0.0,0.0,0.0,0.0,0.0,0.0,0.0,0.0,0.0,0.2542753219604492,-0.14929454282375096,-0.6021541848921187,-0.05472465515835819,0.0003712345496751368,0.0027144523337483406,-0.007498791441321373
27,22,0.0,0.0,0.0,0.002147592604160309,-0.0009706977871246636,0.00270311301574111,-0.03200250491499901,0.4938046336174011,0.010125011205673218,-0.0018737611826509237,-0.0012470685178413987,-0.00025111378636211157,0.0,0.0,0.0,0.0012368675088509917,0.002736477181315422,-0.0,0.0,0.0,0.0,0.0016199640231207013,-0.004999999888241291,0.0003066947974730283,0.0,0.0,0.0,0.0,0.0,0.0,0.0,0.0,0.0,0.0,0.0,0.0,0.0,0.0,0.0,0.0,0.2542763352394104,-0.14918912177804192,-0.6018738119781653,-0.055138414992346126,-0.008053472265601158,0.0036401166580617428,-0.008109338581562042
32,5,0.0,0.0,0.0,0.000812975165899843,0.0008027497678995132,0.001067324192263186,-0.03199554234743118,0.493794322013855,0.010110976174473763,-0.0011822140077129006,0.0032181008718907833,0.0021251211874186993,0.0,0.0,0.0,-0.001022870885208249,0.0010359007865190506,-0.0,0.0,0.0,0.0,0.001614568056538701,-0.004999999888241291,0.0003037615679204464,0.0,0.0,0.0,0.0,0.0,0.0,0.0,0.0,0.0,0.0,0.0,0.0,0.0,0.0,0.0,0.0,0.25427547097206116,-0.1480110849401287,-0.6013921014940302,-0.054419584742258664,-0.0030486569739878178,-0.0030103116296231747,-0.0032019726932048798
42,10,0.0,0.0,0.0,0.0025232513435184956,-0.003741003107279539,0.0027517261914908886,-0.032026804983615875,0.4937784671783447,0.010128292255103588,-0.0004958113422617316,0.005701559130102396,0.0018757450161501765,0.0,0.0,0.0,0.004766762722283602,0.0032151411287486553,-0.0,0.0,0.0,0.0,0.0016371241072192788,-0.004999999888241291,0.00030598611920140684,11119.0,20784.0,29912.0,10292.0,0.03453690931200981,0.07262469083070755,0.11548908799886703,0.0316256582736969,0.0,0.0,0.0,0.0,0.0,0.0,0.0,0.0,0.25427940487861633,-0.1503555888171194,-0.602237580600006,-0.055594522200253293,-0.00946219265460968,0.01402876153588295,-0.008255178108811378
47,5,0.0,0.0,0.0,0.013351795263588428,0.014338810928165913,-0.0010680839186534286,-0.032026804983615875,0.4937784671783447,0.010128292255103588,-0.0004958113422617316,0.005701559130102396,0.0018757450161501765,0.0,0.0,0.0,-0.0191753301769495,0.01623453013598919,-0.0,0.0,0.0,0.0,0.0016371241072192788,-0.004999999888241291,0.00030598611920140684,11119.0,20784.0,29912.0,10292.0,0.03453690931200981,0.07262469083070755,0.11548908799886703,0.0316256582736969,0.0,0.0,0.0,0.0,0.0,0.0,0.0,0.0,0.2665286362171173,-0.15436058890911303,-0.6042163553128153,-0.057497328486429355,-0.050069231539964676,-0.05377054214477539,0.003204251639544964
52,5,-7.558679499197751e-05,3.423676025704481e-05,-2.3174301531980745e-05,-0.006576612126082182,-0.0004915028694085777,0.0029239768628031015,-0.032026804983615875,0.4937784671783447,0.010128292255103588,-0.0004958113422617316,0.005701559130102396,0.0018757450161501765,0.0,0.0,0.0,0.0007592977490276098,-0.00852111540734768,-0.0,0.0,0.0,0.0,0.0016371241072192788,-0.004999999888241291,0.00030598611920140684,11119.0,20784.0,29912.0,10292.0,0.03453690931200981,0.07262469083070755,0.11548908799886703,0.0316256582736969,0.0,0.0,0.0,0.0,0.0,0.0,0.0,0.0,0.25428450107574463,-0.1545575923247093,-0.6037373611574417,-0.05796125431182358,0.025078250095248222,0.0020315407309681177,-0.009120703674852848
57,5,8.397568308282644e-05,0.0006329093012027442,0.0006141533958725631,0.02036576345562935,-0.0839616134762764,-0.08834868669509888,-0.032298363745212555,0.4938085675239563,0.010470674373209476,-0.013993483036756516,-0.024886490777134895,0.050572846084833145,0.0,0.0,0.0,0.0777018591761589,0.01707335375249386,-0.0,0.0,0.0,0.0,0.001659210305660963,-0.004999999888241291,0.0003598626353777945,11787.0,20142.0,30455.0,9601.0,0.036927711218595505,0.06986189633607864,0.11825187504291534,0.02923484519124031,0.0,0.0,0.0,0.0,12157.0,20022.0,30555.0,9208.0,0.38996294140815735,-0.13950156728995328,-0.612498886058947,-0.04894972299611617,-0.07682377845048904,0.31839075684547424,0.27492958307266235
62,5,0.0001449478295398876,0.0006009875214658678,0.0008421969250775874,0.014645829796791077,-0.020719431340694427,-0.05843070149421692,-0.03225284814834595,0.49457457661628723,0.010367266833782196,0.02033413201570511,-0.12456349283456802,-0.13342784345149994,0.0,0.0,0.0,0.027628662064671516,0.0172436386346817,-0.0,0.0,0.0,0.0,0.0016542109660804272,-0.004999999888241291,0.0001784732157830149,9727.0,22295.0,28587.0,11666.0,0.02966930717229843,0.07926080375909805,0.10885254293680191,0.03649282455444336,0.0,0.0,0.0,0.0,8184.0,23605.0,27386.0,13093.0,0.2794054448604584,-0.1444964696862182,-0.6202321911884099,-0.052983928939360936,-0.05573946237564087,0.08121081441640854,0.1917247772216797
67,5,0.0001964239199878648,0.0005737976171076298,0.0008499434916302562,0.011600400321185589,-0.0024092381354421377,-0.018613725900650024,-0.03225284814834595,0.49457457661628723,0.010367266833782196,0.02033413201570511,-0.12456349283456802,-0.13342784345149994,0.0,0.0,0.0,0.004644584842026234,0.015157234854996204,-0.0,0.0,0.0,0.0,0.0016542109660804272,-0.004999999888241291,0.0001784732157830149,9727.0,22295.0,28587.0,11666.0,0.02966930717229843,0.07926080375909805,0.10885254293680191,0.03649282455444336,0.0,0.0,0.0,0.0,8184.0,23605.0,27386.0,13093.0,0.2543071508407593,-0.13997985467170604,-0.6184348444082939,-0.05117449541652213,-0.044611454010009766,0.012428737245500088,0.07313104718923569
73,5,0.0001764896878739819,0.0006152333808131516,0.0008535277447663248,0.0006893272511661053,-0.006523785647004843,-0.006085915956646204,-0.03225284814834595,0.49457457661628723,0.010367266833782196,0.02033413201570511,-0.12456349283456802,-0.13342784345149994,0.0,0.0,0.0,0.010544946417212486,0.0012323632836341858,-0.0,0.0,0.0,0.0,0.0016542109660804272,-0.004999999888241291,0.0001784732157830149,9727.0,22295.0,28587.0,11666.0,0.02966930717229843,0.07926080375909805,0.10885254293680191,0.03649282455444336,0.0,0.0,0.0,0.0,8184.0,23605.0,27386.0,13093.0,0.25428953766822815,-0.1395980734644426,-0.6186871692448914,-0.05085789392507777,-0.0036271116696298122,0.028214335441589355,0.03870725631713867
78,5,0.0001600833493284881,0.0006444929749704897,0.0008315821178257465,-0.0020900883246213198,-0.006053478457033634,0.0012466181069612503,-0.031620461493730545,0.49647918343544006,0.00900349672883749,-0.04347706958651543,-0.15504665672779083,-0.008772286586463451,0.0,0.0,0.0,0.009977350942790508,-0.002331682713702321,-0.0,0.0,0.0,0.0,0.002935415133833885,-0.004999999888241291,0.0003291955217719078,10127.0,21446.0,29341.0,11281.0,0.031053345650434494,0.07550717145204544,0.11261069029569626,0.035113297402858734,0.0,0.0,0.0,0.0,10929.0,20614.0,30058.0,10486.0,0.25428855419158936,-0.14102567815732378,-0.6207612891582287,-0.05141194294345317,0.006861914414912462,0.026695720851421356,0.0183205995708704
83,5,0.00017956319788936526,0.0005977103719487786,0.0008121865103021264,0.002100152662023902,0.004733523353934288,0.0030893683433532715,-0.031620461493730545,0.49647918343544006,0.00900349672883749,-0.04347706958651543,-0.15504665672779083,-0.008772286586463451,0.0,0.0,0.0,-0.005204018671065569,0.003051674459129572,-0.0,0.0,0.0,0.0,0.002935415133833885,-0.004999999888241291,0.0003291955217719078,10127.0,21446.0,29341.0,11281.0,0.031053345650434494,0.07550717145204544,0.11261069029569626,0.035113297402858734,0.0,0.0,0.0,0.0,10929.0,20614.0,30058.0,10486.0,0.25427982211112976,-0.12694997620272735,-0.6130606434848371,-0.04625672017113702,-0.008981375023722649,-0.013922386802732944,0.014452723786234856
88,5,-1.0205680155195296e-05,0.0008584537426941097,0.00040311794145964086,-0.025937598198652267,-0.035084016621112823,0.058196406811475754,-0.03203606605529785,0.49733787775039673,0.009376025758683681,0.043705880641937256,-0.06935397535562515,0.00897175818681717,0.0,0.0,0.0,0.04144368693232536,-0.02673487924039364,-0.0,0.0,0.0,0.0,0.002008687239140272,-0.004999999888241291,0.00021322284010238945,9105.0,21025.0,29706.0,12255.0,0.0275450199842453,0.0736701488494873,0.11445024609565735,0.03862415626645088,0.0,0.0,0.0,0.0,10689.0,21009.0,32158.0,14156.0,0.3143300414085388,-0.12447149229431358,-0.6009953743360741,-0.03998767486931987,0.09716837108135223,0.13701675832271576,-0.1537291556596756
93,5,0.00015630233974661678,0.0005968799232505262,0.0008515577646903694,0.015529843978583813,0.026095135137438774,-0.04532265663146973,-0.03203606605529785,0.49733787775039673,0.009376025758683681,0.043705880641937256,-0.06935397535562515,0.00897175818681717,0.0,0.0,0.0,-0.031191900372505188,0.01792602613568306,-0.0,0.0,0.0,0.0,0.002008687239140272,-0.004999999888241291,0.00021322284010238945,9105.0,21025.0,29706.0,12255.0,0.0275450199842453,0.0736701488494873,0.11445024609565735,0.03862415626645088,0.0,0.0,0.0,0.0,10689.0,21009.0,32158.0,14156.0,0.2857336401939392,-0.13183649309098192,-0.6157280697738128,-0.04839757342076616,-0.05925149470567703,-0.0937558189034462,0.164371058344841
98,5,-5.821373633807525e-05,0.0011340549681335688,0.0005176177946850657,-0.025373298674821854,-0.06737596541643143,0.03315480798482895,-0.0316137857735157,0.49733254313468933,0.009012889117002487,-0.036800701171159744,0.0176071859896183,-0.04663042724132538,0.0,0.0,0.0,0.06742870807647705,-0.022511033341288567,-0.0,0.0,0.0,0.0,0.0014864294789731503,-0.004999999888241291,0.0002943531144410372,11104.0,21318.0,29451.0,10307.0,0.034484267234802246,0.07494933903217316,0.11316616833209991,0.03168002516031265,0.0,0.0,0.0,0.0,9137.0,20607.0,30064.0,12225.0,0.3665934205055237,-0.09894829223945313,-0.6040304672998997,-0.043737999700889665,0.09528875350952148,0.25982412695884705,-0.07359173148870468
103,5,-8.753556903684512e-05,0.0010937165934592485,0.0004989446606487036,-0.011717046611011028,-0.0145654221996665,0.012560679577291012,-0.0316137857735157,0.49733254313468933,0.009012889117002487,-0.036800701171159744,0.0176071859896183,-0.04663042724132538,0.0,0.0,0.0,0.02192107029259205,-0.01427864283323288,-0.0,0.0,0.0,0.0,0.0014864294789731503,-0.004999999888241291,0.0002943531144410372,11104.0,21318.0,29451.0,10307.0,0.034484267234802246,0.07494933903217316,0.11316616833209991,0.03168002516031265,0.0,0.0,0.0,0.0,9137.0,20607.0,30064.0,12225.0,0.2678295969963074,-0.1000907363238091,-0.6024777943467426,-0.04414350549794118,0.04424994811415672,0.06176996976137161,-0.01051304116845131
108,5,-0.0003775168734136969,0.0005733433063142002,-5.416628118837252e-05,-0.044112496078014374,0.06848263740539551,0.08120373636484146,-0.03160487487912178,0.49554505944252014,0.008354642428457737,0.0255427248775959,0.15583565831184387,-0.037509556859731674,0.0,0.0,0.0,-0.0633978322148323,-0.03827449679374695,-0.0,0.0,0.0,0.0,-6.744830898242071e-05,-0.004999999888241291,0.0001643246941966936,14688.0,25927.0,28390.0,11011.0,0.04772748053073883,0.095953568816185,0.1078779399394989,0.034152813255786896,0.0,0.0,0.0,0.0,10749.0,22027.0,28828.0,10878.0,0.37861475348472595,-0.1370291919091971,-0.5670500038311788,-0.05159349694740885,0.1673460155725479,-0.25233176350593567,-0.22333748638629913
113,5,-0.00023118713579606265,0.00043422062299214303,0.00014820488286204636,0.007252413779497147,0.04002196714282036,-0.003970842808485031,-0.03160487487912178,0.49554505944252014,0.008354642428457737,0.0255427248775959,0.15583565831184387,-0.037509556859731674,0.0,0.0,0.0,-0.04564233124256134,0.0073828441090881824,-0.0,0.0,0.0,0.0,-6.744830898242071e-05,-0.004999999888241291,0.0001643246941966936,14688.0,25927.0,28390.0,11011.0,0.04772748053073883,0.095953568816185,0.1078779399394989,0.034152813255786896,0.0,0.0,0.0,0.0,10749.0,22027.0,28828.0,10878.0,0.30470985174179077,-0.1660273682364703,-0.5826486401625963,-0.04088464934994724,-0.026009660214185715,-0.14626595377922058,0.035092029720544815
118,5,-0.00014907933655194938,0.0006214618333615363,0.0003375266387593001,0.013670815154910088,-0.014207178726792336,-0.02769629657268524,-0.031797993928194046,0.4938730299472809,0.008583489805459976,-0.029842253774404526,0.2111048400402069,0.03475145623087883,0.0,0.0,0.0,0.020611975342035294,0.016258923336863518,-0.0,0.0,0.0,0.0,0.0026937471702694893,-0.004999999888241291,0.0003270988236181438,10418.0,19869.0,31998.0,12876.0,0.032065413892269135,0.06869828701019287,0.1262223869562149,0.04090403765439987,0.0,0.0,0.0,0.0,15066.0,25543.0,28757.0,10598.0,0.26837822794914246,-0.14019228043939005,-0.587702886054884,-0.04831626037022646,-0.05049099400639534,0.05819946900010109,0.10955797135829926
123,5,-0.00013383031182456762,0.0005989267956465483,0.00038321944884955883,0.00623610895127058,-0.0011072512716054916,-0.014705884270370007,-0.031797993928194046,0.4938730299472809,0.008583489805459976,-0.029842253774404526,0.2111048400402069,0.03475145623087883,0.0,0.0,0.0,0.003387186676263809,0.007702175062149763,-0.0,0.0,0.0,0.0,0.0026937471702694893,-0.004999999888241291,0.0003270988236181438,10418.0,19869.0,31998.0,12876.0,0.032065413892269135,0.06869828701019287,0.1262223869562149,0.04090403765439987,0.0,0.0,0.0,0.0,15066.0,25543.0,28757.0,10598.0,0.25428420305252075,-0.1404683115426609,-0.5843642941164314,-0.045369255172832516,-0.02266795001924038,0.009062561206519604,0.0722881332039833
128,5,-0.00010105421824846417,0.0003607914550229907,0.00040392871596850455,0.006459484808146954,0.03300677239894867,-0.007311063352972269,-0.031797993928194046,0.4938730299472809,0.008583489805459976,-0.029842253774404526,0.2111048400402069,0.03475145623087883,0.0,0.0,0.0,-0.03914729133248329,0.007016311399638653,-0.0,0.0,0.0,0.0,0.0026937471702694893,-0.004999999888241291,0.0003270988236181438,10418.0,19869.0,31998.0,12876.0,0.032065413892269135,0.06869828701019287,0.1262223869562149,0.04090403765439987,0.0,0.0,0.0,0.0,15066.0,25543.0,28757.0,10598.0,0.2915458381175995,-0.15770477582051967,-0.5882030599038675,-0.04069080693679137,-0.023657318204641342,-0.12004737555980682,0.051785875111818314
133,5,-0.00011762735084630549,0.00041901596705429256,0.0004135943891014904,-0.000382392609026283,0.001750599592924118,-0.0035465119872242212,-0.03214336931705475,0.4917219281196594,0.009083064272999763,0.05469808727502823,0.3001495599746704,0.06913301348686218,0.0,0.0,0.0,-0.0009162452770397067,-0.0007166540017351508,-0.0,0.0,0.0,0.0,0.0026035509072244167,-0.004999999888241291,0.00042285420931875706,19181.0,25939.0,30269.0,8519.0,0.06578917056322098,0.09600875526666641,0.11730357259511948,0.02557193860411644,0.0,0.0,0.0,0.0,10223.0,19954.0,31928.0,13059.0,0.254275381565094,-0.15700649886287957,-0.5843920968846099,-0.04491817811989051,0.002109113149344921,-0.002451373729854822,0.04184947535395622
138,5,-0.000144494348205626,0.0003795481752604246,0.0003792597271967679,-0.0038760975003242493,0.006050674244761467,0.0037428964860737324,-0.03214336931705475,0.4917219281196594,0.009083064272999763,0.05469808727502823,0.3001495599746704,0.06913301348686218,0.0,0.0,0.0,-0.006989629007875919,-0.005227458197623491,-0.0,0.0,0.0,0.0,0.0026035509072244167,-0.004999999888241291,0.00042285420931875706,19181.0,25939.0,30269.0,8519.0,0.06578917056322098,0.09600875526666641,0.11730357259511948,0.02557193860411644,0.0,0.0,0.0,0.0,10223.0,19954.0,31928.0,13059.0,0.25428488850593567,-0.155665207606996,-0.5799386803460728,-0.04313279173907409,0.015384766273200512,-0.01870037242770195,0.021002575755119324
144,5,-0.00012466685438994318,0.0005285645020194352,0.00036518866545520723,0.0007269320776686072,-0.0034740169066935778,0.004428145941346884,-0.03169665113091469,0.48753413558006287,0.009423777461051941,0.03213188797235489,0.4075721800327301,0.04737119749188423,0.0,0.0,0.0,0.006698410026729107,0.0006638217600993812,-0.0,0.0,0.0,0.0,-0.0008276160806417465,-0.004999999888241291,0.00035099932574667037,17587.0,25228.0,29635.0,8527.0,0.05919729918241501,0.09265673160552979,0.11409051716327667,0.025598734617233276,0.0,0.0,0.0,0.0,17185.0,25236.0,29627.0,9012.0,0.2542809545993805,-0.13519537842252957,-0.5723448986696595,-0.03188646025408963,-0.0019534407183527946,0.017922308295965195,0.020147448405623436
149,5,-0.0003180287021677941,0.0006616163300350308,0.00042811533785425127,-0.026852577924728394,-0.01966945454478264,-0.007481289096176624,-0.03169665113091469,0.48753413558006287,0.009423777461051941,0.03213188797235489,0.4075721800327301,0.04737119749188423,0.0,0.0,0.0,0.02559330128133297,-0.030025947839021683,-0.0,0.0,0.0,0.0,-0.0008276160806417465,-0.004999999888241291,0.00035099932574667037,17587.0,25228.0,29635.0,8527.0,0.05919729918241501,0.09265673160552979,0.11409051716327667,0.025598734617233276,0.0,0.0,0.0,0.0,17185.0,25236.0,29627.0,9012.0,0.29525768756866455,-0.08610490191655533,-0.5466314685566502,-0.0150126078633707,0.10256016254425049,0.07949917763471603,0.05811009183526039
154,5,-0.0002486934245098382,0.0006107580265961587,0.0005584456375800073,0.0016511627472937107,0.0012193225556984544,-0.020490633323788643,-0.031949371099472046,0.4841197431087494,0.009689285419881344,-0.02873121201992035,0.42562544345855713,0.10878095030784607,0.0,0.0,0.0,0.0003769284812733531,0.0015804850263521075,-0.0,0.0,0.0,0.0,-0.0002550977224018425,-0.004999999888241291,0.00043644479592330754,18102.0,24099.0,30666.0,7892.0,0.061304181814193726,0.08741795271635056,0.1193292960524559,0.02349185384809971,0.0,0.0,0.0,0.0,13238.0,20159.0,30442.0,8023.0,0.25427553057670593,-0.08844206252581259,-0.5500730652469425,-0.018145163373056862,-0.004651371389627457,0.001009372528642416,0.10043001174926758
159,5,-0.00037316055386327207,0.0007501686341129243,0.0002455662179272622,-0.016930047422647476,-0.019151683896780014,0.03765593096613884,-0.031949371099472046,0.4841197431087494,0.009689285419881344,-0.02873121201992035,0.42562544345855713,0.10878095030784607,0.0,0.0,0.0,0.026455938816070557,-0.02020670846104622,-0.0,0.0,0.0,0.0,-0.0002550977224018425,-0.004999999888241291,0.00043644479592330754,18102.0,24099.0,30666.0,7892.0,0.061304181814193726,0.08741795271635056,0.1193292960524559,0.02349185384809971,0.0,0.0,0.0,0.0,13238.0,20159.0,30442.0,8023.0,0.2813206911087036,-0.07860806643104572,-0.5311265289864869,-0.004155461083691359,0.06576608121395111,0.07829791307449341,-0.07673603296279907
164,5,-0.0004756310663651675,0.0007348458166234195,0.0004486938123591244,-0.019424889236688614,-0.00360031146556139,-0.017141083255410194,-0.03214932233095169,0.4776483178138733,0.0103900246322155,0.046169258654117584,0.6147247552871704,0.03492966666817665,0.0,0.0,0.0,0.007077957037836313,-0.024330707266926765,-0.0,0.0,0.0,0.0,0.0011862377868965268,-0.004999999888241291,0.00039409814053215086,12800.0,20777.0,29918.0,8511.0,0.04062259942293167,0.0725969448685646,0.11552111059427261,0.025544239208102226,0.0,0.0,0.0,0.0,12142.0,21771.0,33032.0,14876.0,0.2690465748310089,-0.08658320058410585,-0.5267031072303889,-0.004937130741333542,0.07575631141662598,0.020037705078721046,0.09149068593978882
169,5,-0.00045123056042939425,0.0009042563033290207,0.00035306610516272485,-0.0024113934487104416,-0.02479756623506546,0.008245553821325302,-0.03214932233095169,0.4776483178138733,0.0103900246322155,0.046169258654117584,0.6147247552871704,0.03492966666817665,0.0,0.0,0.0,0.034049540758132935,-0.003664872609078884,-0.0,0.0,0.0,0.0,0.0011862377868965268,-0.004999999888241291,0.00039409814053215086,12800.0,20777.0,29918.0,8511.0,0.04062259942293167,0.0725969448685646,0.11552111059427261,0.025544239208102226,0.0,0.0,0.0,0.0,12142.0,21771.0,33032.0,14876.0,0.28084123134613037,-0.07400094544734336,-0.5214844656000325,-0.0024746506433953688,0.011906329542398453,0.10059084743261337,0.015226444229483604
174,5,-0.0004636559751816094,0.0008637121063657105,0.0003278724034316838,-0.002462975215166807,-0.0017630790825933218,0.006000785157084465,-0.03179217129945755,0.47213366627693176,0.0100654736161232,-0.03531593084335327,0.7551824450492859,0.020120223984122276,0.0,0.0,0.0,0.005292054731398821,-0.004163601901382208,-0.0,0.0,0.0,0.0,0.002871591364964843,-0.004999999888241291,0.000326349661918357,12158.0,21106.0,33579.0,14861.0,0.03827151283621788,0.07402249425649643,0.13459287583827972,0.048392631113529205,0.0,0.0,0.0,0.0,10867.0,19992.0,33174.0,14251.0,0.2542809545993805,-0.07671406251091818,-0.5203110938016898,-0.0019403077420341707,0.012253550812602043,0.014158884063363075,0.0226893350481987
179,5,-0.0002354287717025727,0.0005286389496177435,0.0005184415495023131,0.03121291473507881,0.04638132080435753,-0.024879448115825653,-0.03179217129945755,0.47213366627693176,0.0100654736161232,-0.03531593084335327,0.7551824450492859,0.020120223984122276,0.0,0.0,0.0,-0.04815351963043213,0.030030950903892517,-0.0,0.0,0.0,0.0,0.002871591364964843,-0.004999999888241291,0.000326349661918357,12158.0,21106.0,33579.0,14861.0,0.03827151283621788,0.07402249425649643,0.13459287583827972,0.048392631113529205,0.0,0.0,0.0,0.0,10867.0,19992.0,33174.0,14251.0,0.33183255791664124,-0.10840883482375448,-0.5358462957711776,-0.01960438155630361,-0.11518749594688416,-0.1680406779050827,0.11940569430589676
184,5,-0.00034816935658454895,0.0007382531184703112,0.0003646282129921019,-0.006419808603823185,-0.015431592240929604,0.01407003402709961,-0.0323914997279644,0.4621148705482483,0.00996276456862688,-0.006240505259484053,0.9144442081451416,-0.03412896394729614,0.0,0.0,0.0,0.02332923747599125,-0.00867906678467989,-0.0,0.0,0.0,0.0,0.0032142496202141047,-0.004855860490351915,0.00012061693996656686,10506.0,20625.0,32662.0,14584.0,0.0323745459318161,0.07193955779075623,0.12971478700637817,0.04732859134674072,0.0,0.0,0.0,0.0,10086.0,21326.0,32083.0,14965.0,0.2648579180240631,-0.08286743627026451,-0.5198517060866853,-0.006750353805635302,0.026597976684570312,0.0650060847401619,0.0017563782166689634
189,5,-0.0005460693500936031,0.0008284099167212844,0.0004845029325224459,-0.029631944373250008,-0.017251430079340935,-0.012561451643705368,-0.0323914997279644,0.4621148705482483,0.00996276456862688,-0.006240505259484053,0.9144442081451416,-0.03412896394729614,0.0,0.0,0.0,0.023092009127140045,-0.03326884284615517,-0.0,0.0,0.0,0.0,0.0032142496202141047,-0.004855860490351915,0.00012061693996656686,10506.0,20625.0,32662.0,14584.0,0.0323745459318161,0.07193955779075623,0.12971478700637817,0.04732859134674072,0.0,0.0,0.0,0.0,10086.0,21326.0,32083.0,14965.0,0.29826414585113525,-0.08051099838430359,-0.5055264926246527,-0.0062139059193427985,0.1147974282503128,0.07246224582195282,0.08457905054092407
194,5,-0.0005297519383020699,0.0007772246026434004,0.0004803124174941331,-0.006605141330510378,0.001990513177588582,-0.0031817625276744366,-0.03187619522213936,0.45331794023513794,0.009007242508232594,-0.03107910230755806,1.222116231918335,-0.09561198204755783,0.0,0.0,0.0,6.298434891505167e-05,-0.009667694568634033,-0.0,0.0,0.0,0.0,-0.0005976930842734873,-0.002835690276697278,1.629120743018575e-05,8645.0,21256.0,31416.0,17053.0,0.025993220508098602,0.07467625290155411,0.12319213896989822,0.05703425034880638,0.0,0.0,0.0,0.0,8820.0,20669.0,31718.0,17150.0,0.25428709387779236,-0.08212804539893315,-0.4983569893016819,-0.00801888050854843,0.028453705832362175,0.00016968547424767166,0.05780588835477829
200,5,-0.0006561476620845497,0.0009369752951897681,0.0005701974150724709,-0.019676942378282547,-0.021767940372228622,-0.013538424856960773,-0.03187619522213936,0.45331794023513794,0.009007242508232594,-0.03107910230755806,1.222116231918335,-0.09561198204755783,0.0,0.0,0.0,0.029594575986266136,-0.023328445851802826,-0.0,0.0,0.0,0.0,-0.0005976930842734873,-0.002835690276697278,1.629120743018575e-05,8645.0,21256.0,31416.0,17053.0,0.025993220508098602,0.07467625290155411,0.12319213896989822,0.05703425034880638,0.0,0.0,0.0,0.0,8820.0,20669.0,31718.0,17150.0,0.29009708762168884,-0.08152126394556064,-0.4916899207685167,-0.008816955575686255,0.07828729599714279,0.09031718224287033,0.09202229976654053
205,5,-0.0007439851760864258,0.0009191223653033376,0.0007256183307617903,-0.018200336024165154,-0.004030969459563494,-0.02582046017050743,-0.0317964144051075,0.43709129095077515,0.00692368159070611,-0.11537758260965347,1.5073330402374268,-0.1383899748325348,0.0,0.0,0.0,0.008454271592199802,-0.02361457608640194,-0.0,0.0,0.0,0.0,0.0030740126967430115,-0.0026400364004075527,-5.136680920259096e-05,20203.0,27244.0,25880.0,18676.0,0.07012283802032471,0.10226915776729584,0.09573216736316681,0.06367859244346619,0.0,0.0,0.0,0.0,20225.0,27084.0,25408.0,19371.0,0.2684180438518524,-0.07979455828699314,-0.48230883171755956,-0.008409519625246232,0.07335373014211655,0.02387670986354351,0.13295435905456543
210,5,-0.0008431737660430372,0.0009877434931695461,0.0009285124251618981,-0.019346509128808975,-0.010816243477165699,-0.03615130856633186,-0.0317964144051075,0.43709129095077515,0.00692368159070611,-0.11537758260965347,1.5073330402374268,-0.1383899748325348,0.0,0.0,0.0,0.01714174635708332,-0.024483222514390945,-0.0,0.0,0.0,0.0,0.0030740126967430115,-0.0026400364004075527,-5.136680920259096e-05,20203.0,27244.0,25880.0,18676.0,0.07012283802032471,0.10226915776729584,0.09573216736316681,0.06367859244346619,0.0,0.0,0.0,0.0,20225.0,27084.0,25408.0,19371.0,0.27650928497314453,-0.07570917888872326,-0.47456097083101206,-0.006923964584353525,0.07833654433488846,0.04987037554383278,0.16926510632038116
215,5,-0.0009684530668891966,0.0010272462386637926,0.0011468770680949092,-0.023343052715063095,-0.008775257505476475,-0.04141644760966301,-0.03195302560925484,0.42356038093566895,0.005054761189967394,-0.10504072904586792,1.816950798034668,-0.14413690567016602,0.0,0.0,0.0,0.014368816278874874,-0.0288710854947567,-0.0,0.0,0.0,0.0,0.0033014623913913965,-0.0006620005588047206,-9.189615957438946e-05,14523.0,17346.0,24423.0,25930.0,0.0470956414937973,0.058216266334056854,0.08891138434410095,0.09596706926822662,0.0,0.0,0.0,0.0,13278.0,20433.0,27033.0,23256.0,0.28187301754951477,-0.07393251965219652,-0.4633101357519238,-0.00959537558173947,0.09416823089122772,0.04261511564254761,0.1912061721086502
220,5,-0.001062050461769104,0.0010811765678226948,0.0013918080367147923,-0.020106548443436623,-0.01018283050507307,-0.04671525955200195,-0.03195302560925484,0.42356038093566895,0.005054761189967394,-0.10504072904586792,1.816950798034668,-0.14413690567016602,0.0,0.0,0.0,0.016537489369511604,-0.02571278251707554,-0.0,0.0,0.0,0.0,0.0033014623913913965,-0.0006620005588047206,-9.189615957438946e-05,14523.0,17346.0,24423.0,25930.0,0.0470956414937973,0.058216266334056854,0.08891138434410095,0.09596706926822662,0.0,0.0,0.0,0.0,13278.0,20433.0,27033.0,23256.0,0.2780274748802185,-0.07541088017443671,-0.45478333714028135,-0.01069850079396841,0.08272260427474976,0.04837698116898537,0.2142764776945114
225,5,-0.0014002904063090682,0.0008903240086510777,0.0016506561078131199,-0.05338556319475174,0.023664506152272224,-0.050253309309482574,-0.03195302560925484,0.42356038093566895,0.005054761189967394,-0.10504072904586792,1.816950798034668,-0.14413690567016602,0.0,0.0,0.0,-0.022095367312431335,-0.05304399132728577,-0.0,0.0,0.0,0.0,0.0033014623913913965,-0.0006620005588047206,-9.189615957438946e-05,14523.0,17346.0,24423.0,25930.0,0.0470956414937973,0.058216266334056854,0.08891138434410095,0.09596706926822662,0.0,0.0,0.0,0.0,13278.0,20433.0,27033.0,23256.0,0.3415985107421875,-0.08718121624370612,-0.4293524402498121,-0.020758094227904384,0.2095698118209839,-0.07940780371427536,0.23292692005634308
230,5,-0.0016725113382562995,0.0009843959705904126,0.0017674533883109689,-0.05412659794092178,-0.006070722360163927,-0.03142760694026947,-0.03192998096346855,0.3798036575317383,0.0005223184125497937,-0.13326266407966614,2.572662115097046,-0.2001866102218628,0.0,0.0,0.0,0.00921896006911993,-0.05476336553692818,-0.0,0.0,0.0,0.0,0.002451767912134528,0.001373888342641294,-0.00024657027097418904,16376.0,16762.0,19561.0,27661.0,0.0543246828019619,0.05586250498890877,0.06738920509815216,0.10429564118385315,0.0,0.0,0.0,0.0,14810.0,17036.0,24489.0,25898.0,0.3379848003387451,-0.0856164190395247,-0.41049756752090877,-0.022558576334573338,0.21411220729351044,0.03278553485870361,0.183415949344635
235,5,-0.0016562913078814745,0.0009766287403181195,0.002120142336934805,-0.013967177830636501,-0.0007338031427934766,-0.05880473926663399,-0.03192998096346855,0.3798036575317383,0.0005223184125497937,-0.13326266407966614,2.572662115097046,-0.2001866102218628,0.0,0.0,0.0,0.004679339472204447,-0.02100558392703533,-0.0,0.0,0.0,0.0,0.002451767912134528,0.001373888342641294,-0.00024657027097418904,16376.0,16762.0,19561.0,27661.0,0.0543246828019619,0.05586250498890877,0.06738920509815216,0.10429564118385315,0.0,0.0,0.0,0.0,14810.0,17036.0,24489.0,25898.0,0.2621414363384247,-0.09043123334902894,-0.40583506006974895,-0.025951759666557654,0.06372863054275513,0.01290798932313919,0.2762194871902466
240,5,-0.0018598097376525402,0.0010813198750838637,0.0022539282217621803,-0.03268273547291756,-0.014876903034746647,-0.036371443420648575,-0.032302215695381165,0.34711208939552307,-0.00344556150957942,-0.15503765642642975,2.9472157955169678,-0.2174830436706543,0.0,0.0,0.0,0.020731383934617043,-0.03825393319129944,-0.0,0.0,0.0,0.0,0.001002236851491034,0.0019887685775756836,-0.00037252611946314573,22376.0,22297.0,17628.0,31448.0,0.07962165772914886,0.0792689323425293,0.059361595660448074,0.12336063385009766,0.0,0.0,0.0,0.0,15203.0,17170.0,18422.0,29223.0,0.30582571029663086,-0.0627501015810356,-0.3914829849827274,-0.0304174711748178,0.1353461891412735,0.06670594215393066,0.21762490272521973
245,5,-0.002001750050112605,0.001178532955236733,0.002683358732610941,-0.029676463454961777,-0.01807289384305477,-0.07103171199560165,-0.032302215695381165,0.34711208939552307,-0.00344556150957942,-0.15503765642642975,2.9472157955169678,-0.2174830436706543,0.0,0.0,0.0,0.024792063981294632,-0.035540200769901276,-0.0,0.0,0.0,0.0,0.001002236851491034,0.0019887685775756836,-0.00037252611946314573,22376.0,22297.0,17628.0,31448.0,0.07962165772914886,0.0792689323425293,0.059361595660448074,0.12336063385009766,0.0,0.0,0.0,0.0,15203.0,17170.0,18422.0,29223.0,0.3045259118080139,-0.06013829844831069,-0.3817023477414447,-0.033701850375277766,0.1252003312110901,0.07942743599414825,0.33508801460266113
251,5,-0.00217269454151392,0.0007493416196666658,0.0022952791769057512,-0.03283517435193062,0.054664917290210724,0.03302161395549774,-0.032243646681308746,0.32317277789115906,-0.0062855626456439495,-0.07971714437007904,3.179575204849243,-0.24568018317222595,0.0,0.0,0.0,-0.053267620503902435,-0.03430568426847458,-0.0,0.0,0.0,0.0,0.002008292591199279,0.004831558559089899,-0.0005615290137939155,18660.0,13633.0,8766.0,32424.0,0.06361190974712372,0.043720830231904984,0.026399051770567894,0.12845918536186218,0.0,0.0,0.0,0.0,23249.0,21837.0,16878.0,31671.0,0.34901073575019836,-0.10024391839125783,-0.3517878144809036,-0.023230620169063135,0.138356551527977,-0.19548633694648743,0.025299973785877228
256,5,-0.0021917468402534723,0.0007185217691585422,0.0024264613166451454,-0.01251784898340702,0.020714249461889267,-0.008458996191620827,-0.032243646681308746,0.32317277789115906,-0.0062855626456439495,-0.07971714437007904,3.179575204849243,-0.24568018317222595,0.0,0.0,0.0,-0.023455770686268806,-0.01959589496254921,-0.0,0.0,0.0,0.0,0.002008292591199279,0.004831558559089899,-0.0005615290137939155,18660.0,13633.0,8766.0,32424.0,0.06361190974712372,0.043720830231904984,0.026399051770567894,0.12845918536186218,0.0,0.0,0.0,0.0,23249.0,21837.0,16878.0,31671.0,0.2763928174972534,-0.10795338715308278,-0.34232318998908023,-0.018514019802096417,0.06266912072896957,-0.06820394098758698,0.1587265282869339
261,5,-0.00246090954169631,0.0010922906221821904,0.002409624634310603,-0.041438158601522446,-0.046113356947898865,-0.00018057184934150428,-0.03252733126282692,0.28426849842071533,-0.011069618165493011,-0.1527322381734848,3.4223766326904297,-0.2854825556278229,0.0,0.0,0.0,0.04939054325222969,-0.04212256520986557,-0.0,0.0,0.0,0.0,0.002232717350125313,0.004999999888241291,-0.0006774401990696788,17591.0,16227.0,11973.0,37120.0,0.05921386182308197,0.05373074486851692,0.03760001063346863,0.15406811237335205,0.0,0.0,0.0,0.0,17041.0,17109.0,10988.0,37514.0,0.3553878962993622,-0.08112157953774791,-0.3169305120814894,-0.01920231950793852,0.17300337553024292,0.18458904325962067,0.1410377323627472
266,5,-0.0024627172388136387,0.0009816562524065375,0.0026331970002502203,-0.012684502638876438,0.0016548051498830318,-0.031354304403066635,-0.03252733126282692,0.28426849842071533,-0.011069618165493011,-0.1527322381734848,3.4223766326904297,-0.2854825556278229,0.0,0.0,0.0,0.0018276663031429052,-0.021600812673568726,-0.0,0.0,0.0,0.0,0.002232717350125313,0.004999999888241291,-0.0006774401990696788,17591.0,16227.0,11973.0,37120.0,0.05921386182308197,0.05373074486851692,0.03760001063346863,0.15406811237335205,0.0,0.0,0.0,0.0,17041.0,17109.0,10988.0,37514.0,0.2625608742237091,-0.0895941764531366,-0.30996515668255686,-0.021691932693299065,0.06564116477966309,0.005050644278526306,0.24535006284713745
271,5,-0.0025340490974485874,0.0013939138734713197,0.0033676661550998688,-0.013791830278933048,-0.05721962824463844,-0.11223197728395462,-0.032521601766347885,0.25681042671203613,-0.014732559211552143,-0.07628680765628815,3.5552124977111816,-0.3471148908138275,0.0,0.0,0.0,0.06225663796067238,-0.017530154436826706,-0.0,0.0,0.0,0.0,0.0030967567581683397,0.004999999888241291,-0.0009665953693911433,17635.0,20387.0,2300.0,34545.0,0.059390559792518616,0.07091550529003143,0.006329897791147232,0.13980606198310852,0.0,0.0,0.0,0.0,16782.0,21411.0,703.0,35176.0,0.34878435730934143,-0.0627280031530292,-0.3092290132724956,-0.018170586416340017,0.07062599062919617,0.2282748818397522,0.5069073438644409
276,5,-0.0026631152722984552,0.0013804672053083777,0.0036117988638579845,-0.022206805646419525,-0.015283359214663506,-0.06784815341234207,-0.032521601766347885,0.25681042671203613,-0.014732559211552143,-0.07628680765628815,3.5552124977111816,-0.3471148908138275,0.0,0.0,0.0,0.02308654598891735,-0.030477523803710938,-0.0,0.0,0.0,0.0,0.0030967567581683397,0.004999999888241291,-0.0009665953693911433,17635.0,20387.0,2300.0,34545.0,0.059390559792518616,0.07091550529003143,0.006329897791147232,0.13980606198310852,0.0,0.0,0.0,0.0,16782.0,21411.0,703.0,35176.0,0.2931048274040222,-0.06279055909683628,-0.2960384603348861,-0.021349077211280935,0.10334891825914383,0.071190744638443,0.38754525780677795
281,5,-0.0028306187596172094,0.0013273534132167697,0.0038253352977335453,-0.030112532898783684,0.0028509178664535284,-0.05024956539273262,-0.031205501407384872,0.21449457108974457,-0.020397579297423363,0.10251090675592422,3.473811626434326,-0.363218754529953,0.0,0.0,0.0,0.0010039014741778374,-0.03902983292937279,-0.0,0.0,0.0,0.0,3.4696618968155235e-05,0.004999999888241291,-0.0011025683488696814,16643.0,23099.0,0.0,35277.0,0.05538955703377724,0.08286313712596893,-0.0056177303194999695,0.1438070684671402,0.0,0.0,0.0,0.0,14357.0,20928.0,0.0,35653.0,0.2975881099700928,-0.06187898480867289,-0.2817280865544737,-0.024759785820454246,0.1343965232372284,0.0031434036791324615,0.34879860281944275
286,5,-0.0030171892140060663,0.0013844105415046215,0.0039162784814834595,-0.03515360504388809,-0.007132710888981819,-0.027806900441646576,-0.031205501407384872,0.21449457108974457,-0.020397579297423363,0.10251090675592422,3.473811626434326,-0.363218754529953,0.0,0.0,0.0,0.01259608194231987,-0.04311356693506241,-0.0,0.0,0.0,0.0,3.4696618968155235e-05,0.004999999888241291,-0.0011025683488696814,16643.0,23099.0,0.0,35277.0,0.05538955703377724,0.08286313712596893,-0.0056177303194999695,0.1438070684671402,0.0,0.0,0.0,0.0,14357.0,20928.0,0.0,35653.0,0.31045880913734436,-0.055020604171488685,-0.2648409776741154,-0.024689941224050268,0.1548585444688797,0.041145045310258865,0.29479801654815674
291,5,-0.003132930723950267,0.0013164837146177888,0.004217744804918766,-0.026749905198812485,0.007369937375187874,-0.050547368824481964,-0.02795022539794445,0.18576468527317047,-0.024067196995019913,0.46700519323349,3.5844686031341553,-0.3208310604095459,0.0,0.0,0.0,-0.0043328311294317245,-0.03673751279711723,-0.0,0.0,0.0,0.0,7.88197066867724e-05,0.004999999888241291,-0.0012557440204545856,15165.0,22784.0,0.0,35088.0,0.04956904798746109,0.08144566416740417,-0.011060018092393875,0.14276781678199768,0.0,0.0,0.0,0.0,15268.0,24412.0,0.0,37753.0,0.2929716110229492,-0.05515054799360138,-0.25385491430764573,-0.030643201620649936,0.12454313784837723,-0.013356389477849007,0.3797120451927185
296,5,-0.0033250125125050545,0.0012901546433568,0.004348238930106163,-0.034916430711746216,0.005897048395127058,-0.03343340381979942,-0.02795022539794445,0.18576468527317047,-0.024067196995019913,0.46700519323349,3.5844686031341553,-0.3208310604095459,0.0,0.0,0.0,-0.0023809054400771856,-0.043878618627786636,-0.0,0.0,0.0,0.0,7.88197066867724e-05,0.004999999888241291,-0.0012557440204545856,15165.0,22784.0,0.0,35088.0,0.04956904798746109,0.08144566416740417,-0.011060018092393875,0.14276781678199768,0.0,0.0,0.0,0.0,15268.0,24412.0,0.0,37753.0,0.30884701013565063,-0.05442500167465726,-0.24015957763708304,-0.031987387618127035,0.15679854154586792,-0.007737106643617153,0.3432047367095947
301,5,-0.0035562103148549795,0.0014920354587957263,0.004782178904861212,-0.042842600494623184,-0.02649420127272606,-0.07078159600496292,-0.019700000062584877,0.14397892355918884,-0.029145343229174614,0.6911300420761108,3.3959903717041016,-0.3470456302165985,0.0,0.0,0.0,0.03217169642448425,-0.04791146144270897,-0.0,0.0,0.0,0.0,7.854362047510222e-05,0.004999999888241291,-0.0013811682583764195,15423.0,26210.0,0.0,37647.0,0.050573453307151794,0.09729768335819244,-0.011622931808233261,0.15705251693725586,0.0,0.0,0.0,0.0,16607.0,27938.0,0.0,38351.0,0.33999401330947876,-0.04369656316727586,-0.22291629914353725,-0.03372261332006548,0.18837285041809082,0.11506582051515579,0.4744008481502533
306,5,-0.004068312700837851,0.0009883650345727801,0.004689727444201708,-0.08454713970422745,0.06256560236215591,-0.008291243575513363,-0.019700000062584877,0.14397892355918884,-0.029145343229174614,0.6911300420761108,3.3959903717041016,-0.3470456302165985,0.0,0.0,0.0,-0.049256451427936554,-0.07053788751363754,-0.0,0.0,0.0,0.0,7.854362047510222e-05,0.004999999888241291,-0.0013811682583764195,15423.0,26210.0,0.0,37647.0,0.050573453307151794,0.09729768335819244,-0.011622931808233261,0.15705251693725586,0.0,0.0,0.0,0.0,16607.0,27938.0,0.0,38351.0,0.4274277687072754,-0.06919380774680305,-0.19430402019465626,-0.03661029870500898,0.34824442863464355,-0.2214026302099228,0.300363153219223
311,5,-0.004523612093180418,0.0014300168259069324,0.003909989260137081,-0.08910606801509857,-0.043061573058366776,0.10667594522237778,-0.019700000062584877,0.14397892355918884,-0.029145343229174614,0.6911300420761108,3.3959903717041016,-0.3470456302165985,0.0,0.0,0.0,0.03958829119801521,-0.07491743564605713,-0.0,0.0,0.0,0.0,7.854362047510222e-05,0.004999999888241291,-0.0013811682583764195,15423.0,26210.0,0.0,37647.0,0.050573453307151794,0.09729768335819244,-0.011622931808233261,0.15705251693725586,0.0,0.0,0.0,0.0,16607.0,27938.0,0.0,38351.0,0.4258313477039337,-0.04674249140568237,-0.14388908680654844,-0.01691934427920632,0.36860400438308716,0.1773148477077484,-0.041774310171604156
316,5,-0.0047010094858706,0.0010667454916983843,0.00405410910025239,-0.05156742036342621,0.037939511239528656,0.011826002970337868,-0.015424424782395363,0.11744935810565948,-0.03259662166237831,0.14109644293785095,3.215343475341797,-0.3603193163871765,0.0,0.0,0.0,-0.03384311869740486,-0.05516311526298523,-0.0,0.0,0.0,0.0,0.0005542146973311901,0.004999999888241291,-0.0015934930415824056,13836.0,27164.0,0.0,40201.0,0.04448780417442322,0.10187952220439911,-0.0075138770043849945,0.17182905972003937,0.0,0.0,0.0,0.0,13685.0,27975.0,0.0,40163.0,0.3600548505783081,-0.06214629942140781,-0.12342552529833624,-0.029169860728268358,0.22963863611221313,-0.1281776875257492,0.25687718391418457
322,5,-0.004771654028445482,0.001080147223547101,0.0041487314738333225,-0.02536049112677574,0.009505623020231724,-0.009699346497654915,-0.015424424782395363,0.11744935810565948,-0.03259662166237831,0.14109644293785095,3.215343475341797,-0.3603193163871765,0.0,0.0,0.0,-0.006798723712563515,-0.03851848840713501,-0.0,0.0,0.0,0.0,0.0005542146973311901,0.004999999888241291,-0.0015934930415824056,13836.0,27164.0,0.0,40201.0,0.04448780417442322,0.10187952220439911,-0.0075138770043849945,0.17182905972003937,0.0,0.0,0.0,0.0,13685.0,27975.0,0.0,40163.0,0.2975233197212219,-0.05999978983785143,-0.1128977934046237,-0.02979654103939617,0.13260474801063538,-0.0212832260876894,0.3351433575153351
327,5,-0.004895403981208801,0.0010216565569862723,0.004102871287614107,-0.024933090433478355,0.011040383018553257,0.003510656300932169,-0.01528899371623993,0.08091913163661957,-0.03706743195652962,-0.04568484053015709,2.9857540130615234,-0.2937971353530884,0.0,0.0,0.0,-0.00866039376705885,-0.038444407284259796,-0.0,0.0,0.0,0.0,0.000829192460514605,0.004999999888241291,-0.0015980977332219481,13041.0,27454.0,0.0,40570.0,0.0415145643055439,0.10329020023345947,-0.009718604385852814,0.17400825023651123,0.0,0.0,0.0,0.0,18299.0,30759.0,10438.0,46697.0,0.29804062843322754,-0.05805602598603779,-0.100650715741527,-0.029920765996662223,0.132578045129776,-0.027158098295331,0.30778563022613525
332,5,-0.004929293878376484,0.001179506303742528,0.004099147394299507,-0.012224515900015831,-0.018786851316690445,0.0015745348064228892,-0.01528899371623993,0.08091913163661957,-0.03706743195652962,-0.04568484053015709,2.9857540130615234,-0.2937971353530884,0.0,0.0,0.0,0.027547480538487434,-0.02512337453663349,-0.0,0.0,0.0,0.0,0.000829192460514605,0.004999999888241291,-0.0015980977332219481,13041.0,27454.0,0.0,40570.0,0.0415145643055439,0.10329020023345947,-0.009718604385852814,0.17400825023651123,0.0,0.0,0.0,0.0,18299.0,30759.0,10438.0,46697.0,0.29588592052459717,-0.049541525648902796,-0.08898261249112505,-0.032096518218786556,0.08599595725536346,0.0857483446598053,0.3259490430355072
337,5,-0.00493280217051506,0.001249975524842739,0.0043027326464653015,-0.004158539231866598,-0.015501758083701134,-0.028029611334204674,-0.014315279200673103,0.05859589949250221,-0.039534054696559906,0.20991919934749603,2.7227585315704346,-0.2961399555206299,0.0,0.0,0.0,0.02271226793527603,-0.01580961048603058,-0.0,0.0,0.0,0.0,0.002091183327138424,0.004999999888241291,-0.0016840262105688453,17954.0,32240.0,8183.0,46918.0,0.06069454550743103,0.12749116122722626,0.024453461170196533,0.21320128440856934,0.0,0.0,0.0,0.0,18109.0,32414.0,7906.0,46819.0,0.3098360300064087,-0.04088470936241077,-0.08441187828413521,-0.03367980019415548,0.05667731165885925,0.07403476536273956,0.4304354190826416
342,5,-0.004943580366671085,0.0012971673859283328,0.00441747298464179,-0.002756522037088871,-0.01125738862901926,-0.02447250857949257,-0.014315279200673103,0.05859589949250221,-0.039534054696559906,0.20991919934749603,2.7227585315704346,-0.2961399555206299,0.0,0.0,0.0,0.017980633303523064,-0.014611594378948212,-0.0,0.0,0.0,0.0,0.002091183327138424,0.004999999888241291,-0.0016840262105688453,17954.0,32240.0,8183.0,46918.0,0.06069454550743103,0.12749116122722626,0.024453461170196533,0.21320128440856934,0.0,0.0,0.0,0.0,18109.0,32414.0,7906.0,46819.0,0.30980053544044495,-0.03514430975833077,-0.07555727656185773,-0.03457894023655314,0.05238179489970207,0.058606959879398346,0.4346200227737427
347,5,-0.0049912151880562305,0.0011640320299193263,0.004500679671764374,-0.0074957977049052715,0.01526174508035183,-0.01899069733917713,-0.011783420108258724,0.028167739510536194,-0.04286345839500427,0.19439658522605896,2.395995616912842,-0.19522683322429657,0.0,0.0,0.0,-0.011966093443334103,-0.018754489719867706,-0.0,0.0,0.0,0.0,0.001360286376439035,0.004999999888241291,-0.0017699727322906256,13602.0,28727.0,0.0,39233.0,0.0436071902513504,0.10954684019088745,-0.02172146365046501,0.1661694049835205,0.0,0.0,0.0,0.0,13571.0,28379.0,0.0,39253.0,0.32840609550476074,-0.04373057057113448,-0.0694678948742542,-0.033568023737126966,0.0712764710187912,-0.04134692624211311,0.4322395920753479
352,5,-0.005052249878644943,0.0013092352310195565,0.004503367934376001,-0.010793592780828476,-0.015749922022223473,-0.006073553115129471,-0.011783420108258724,0.028167739510536194,-0.04286345839500427,0.19439658522605896,2.395995616912842,-0.19522683322429657,0.0,0.0,0.0,0.021979933604598045,-0.02233807183802128,-0.0,0.0,0.0,0.0,0.001360286376439035,0.004999999888241291,-0.0017699727322906256,13602.0,28727.0,0.0,39233.0,0.0436071902513504,0.10954684019088745,-0.02172146365046501,0.1661694049835205,0.0,0.0,0.0,0.0,13571.0,28379.0,0.0,39253.0,0.3284861147403717,-0.031367131856461325,-0.058141023646546997,-0.036144433019518474,0.08490004390478134,0.07596085965633392,0.4073682725429535
357,5,-0.005013738758862019,0.001251335022971034,0.00446856627240777,0.0021534678526222706,0.0033810504246503115,0.003050150815397501,-0.010537891648709774,0.011220918036997318,-0.044645845890045166,0.19966202974319458,1.988794207572937,-0.17734268307685852,0.0,0.0,0.0,0.0011648345971480012,-0.009473648853600025,-0.0,0.0,0.0,0.0,0.000469981343485415,0.004999999888241291,-0.0016332315281033516,13865.0,28023.0,0.0,40107.0,0.04459670931100845,0.10607028007507324,-0.012145284563302994,0.17127948999404907,0.0,0.0,0.0,0.0,10603.0,26758.0,0.0,40940.0,0.3381413519382477,-0.028460757070681308,-0.05585143606674266,-0.035018448847014626,0.037076186388731,0.004144345875829458,0.39343124628067017
362,5,-0.0050537846982479095,0.0012612891150638461,0.004566493909806013,-0.004960437770932913,-0.00037926941877231,-0.012794801034033298,-0.010537891648709774,0.011220918036997318,-0.044645845890045166,0.19966202974319458,1.988794207572937,-0.17734268307685852,0.0,0.0,0.0,0.005205344408750534,-0.016572240740060806,-0.0,0.0,0.0,0.0,0.000469981343485415,0.004999999888241291,-0.0016332315281033516,13865.0,28023.0,0.0,40107.0,0.04459670931100845,0.10607028007507324,-0.012145284563302994,0.17127948999404907,0.0,0.0,0.0,0.0,10603.0,26758.0,0.0,40940.0,0.338176965713501,-0.025135152303093523,-0.050367410560491446,-0.03606511657115684,0.06486889719963074,0.018523745238780975,0.455743670463562
367,5,-0.0044611855410039425,0.0012815447989851236,0.00538328243419528,0.08147575706243515,-0.0029495686758309603,-0.11818882077932358,-0.004506644792854786,-0.019948618486523628,-0.046940870583057404,0.44797655940055847,1.0184017419815063,-0.0792730376124382,0.0,0.0,0.0,0.007523869629949331,0.06281012296676636,-0.0,0.0,0.0,0.0,-7.424288924084976e-05,0.004397668410092592,-0.0016473097493872046,13975.0,30766.0,0.0,39647.0,0.0450110100209713,0.11984427273273468,-0.004949633032083511,0.1685817688703537,0.0,0.0,0.0,0.0,14248.0,27800.0,0.0,39860.0,0.3600946366786957,-0.018055708558267727,-0.09174479598502695,-0.040466975882572455,-0.26159146428108215,0.028508557006716728,0.7984561920166016
372,5,-0.0045962207950651646,0.0010692429495975375,0.005435938481241465,0.005537840072065592,0.02883738838136196,-0.042828503996133804,-0.004506644792854786,-0.019948618486523628,-0.046940870583057404,0.44797655940055847,1.0184017419815063,-0.0792730376124382,0.0,0.0,0.0,-0.024835661053657532,-0.006092619150876999,-0.0,0.0,0.0,0.0,-7.424288924084976e-05,0.004397668410092592,-0.0016473097493872046,13975.0,30766.0,0.0,39647.0,0.0450110100209713,0.11984427273273468,-0.004949633032083511,0.1685817688703537,0.0,0.0,0.0,0.0,14248.0,27800.0,0.0,39860.0,0.35069596767425537,-0.027608871354955416,-0.08292547157441621,-0.044630407405858455,0.024728940799832344,-0.09162886440753937,0.5894548296928406
378,5,-0.004906422924250364,0.001216998789459467,0.004947171080857515,-0.04176696762442589,-0.012034610845148563,0.05557887256145477,0.0009919122094288468,-0.029394686222076416,-0.047837745398283005,0.48066139221191406,0.5353376269340515,-0.08124594390392303,0.0,0.0,0.0,0.01673148386180401,-0.04971449822187424,-0.0,0.0,0.0,0.0,-0.001059250789694488,0.0025855153799057007,-0.001677520340308547,13498.0,34664.0,0.0,37287.0,0.04321519285440445,0.1404544711112976,-0.0004996880888938904,0.1550079584121704,0.0,0.0,0.0,0.0,13468.0,31241.0,0.0,39368.0,0.35588786005973816,-0.013581479970560495,-0.0642716822249522,-0.037027642581123184,0.20466461777687073,0.0626489669084549,0.30328378081321716
383,5,-0.004570386838167906,0.0014791630674153566,0.006062076892703772,0.034514978528022766,-0.04031338170170784,-0.13941317796707153,0.0009919122094288468,-0.029394686222076416,-0.047837745398283005,0.48066139221191406,0.5353376269340515,-0.08124594390392303,0.0,0.0,0.0,0.04552237689495087,0.020016014575958252,-0.0,0.0,0.0,0.0,-0.001059250789694488,0.0025855153799057007,-0.001677520340308547,13498.0,34664.0,0.0,37287.0,0.04321519285440445,0.1404544711112976,-0.0004996880888938904,0.1550079584121704,0.0,0.0,0.0,0.0,13468.0,31241.0,0.0,39368.0,0.35583823919296265,-0.014139745394685717,-0.08155953378420215,-0.043545257593424,-0.08234501630067825,0.1703605353832245,0.9201838970184326
388,5,-0.004503927659243345,0.0014398216735571623,0.006061330437660217,0.01965874433517456,-0.006586203817278147,-0.04171942174434662,0.005245517939329147,-0.031628113240003586,-0.04856889322400093,0.583043098449707,0.01501456182450056,-0.10913273692131042,0.0,0.0,0.0,0.011621345765888691,0.00629135686904192,-0.0,0.0,0.0,0.0,-0.003260734723880887,0.0009146067895926535,-0.0017678877338767052,14149.0,39788.0,0.0,34404.0,0.04566837102174759,0.16940557956695557,-0.00341825932264328,0.1390402615070343,0.0,0.0,0.0,0.0,12618.0,35176.0,0.0,37541.0,0.3593357801437378,-0.012806645939648769,-0.08307253926702994,-0.04661282475353548,-0.026156924664974213,0.04393985867500305,0.6457322239875793
393,5,-0.004615072626620531,0.0014420903753489256,0.006050661206245422,-0.009662685915827751,-0.0022934889420866966,-0.011022117920219898,0.005245517939329147,-0.031628113240003586,-0.04856889322400093,0.583043098449707,0.01501456182450056,-0.10913273692131042,0.0,0.0,0.0,0.007434174884110689,-0.020488090813159943,-0.0,0.0,0.0,0.0,-0.003260734723880887,0.0009146067895926535,-0.0017678877338767052,14149.0,39788.0,0.0,34404.0,0.04566837102174759,0.16940557956695557,-0.00341825932264328,0.1390402615070343,0.0,0.0,0.0,0.0,12618.0,35176.0,0.0,37541.0,0.3593897521495819,-0.0053535040743368,-0.08163710279725007,-0.04468773291486267,0.08521401882171631,0.028111670166254044,0.5715121626853943
398,5,-0.004667937755584717,0.0016099120257422328,0.006299366243183613,-0.010299875400960445,-0.02418307401239872,-0.03812532126903534,0.011967613361775875,-0.028449449688196182,-0.04943288117647171,0.5006279945373535,-0.522088348865509,-0.039845358580350876,0.0,0.0,0.0,0.02907823584973812,-0.021067887544631958,-0.0,0.0,0.0,0.0,0.00016098558262456208,-0.00038518800283782184,-0.0017447683494538069,6430.0,37705.0,9499.0,36539.0,0.018763288855552673,0.15738390386104584,0.02888675034046173,0.1508040875196457,0.0,0.0,0.0,0.0,13272.0,40538.0,0.0,33589.0,0.36413055658340454,0.0032131065010817836,-0.08216801072998932,-0.046683291355032366,0.08875296264886856,0.11138986796140671,0.6753342747688293
403,5,-0.004648890346288681,0.001617714879103005,0.006353355944156647,-0.00042333902092650533,-0.008347316645085812,-0.018996182829141617,0.011967613361775875,-0.028449449688196182,-0.04943288117647171,0.5006279945373535,-0.522088348865509,-0.039845358580350876,0.0,0.0,0.0,0.01366893108934164,-0.012457899749279022,-0.0,0.0,0.0,0.0,0.00016098558262456208,-0.00038518800283782184,-0.0017447683494538069,6430.0,37705.0,9499.0,36539.0,0.018763288855552673,0.15738390386104584,0.02888675034046173,0.1508040875196457,0.0,0.0,0.0,0.0,13272.0,40538.0,0.0,33589.0,0.36395809054374695,0.005158552708818607,-0.08500128995588414,-0.04764598865031425,0.05247236415743828,0.052345745265483856,0.638131320476532
408,5,-0.004681762773543596,0.001651080558076501,0.006331619340926409,-0.00472915917634964,-0.007175404112786055,-0.0026557380333542824,0.015402236953377724,-0.02270096354186535,-0.04951101914048195,0.4477454125881195,-0.9467599391937256,0.02579784207046032,0.0,0.0,0.0,0.012632811442017555,-0.016518598422408104,-0.0,0.0,0.0,0.0,-0.0016000010073184967,-0.003098354209214449,-0.0016569412546232343,6239.0,41909.0,12182.0,30966.0,0.018157582730054855,0.18200436234474182,0.03836004063487053,0.12086924910545349,0.0,0.0,0.0,0.0,5339.0,38068.0,11175.0,35731.0,0.3643885850906372,0.00980250774765966,-0.08653357369681154,-0.046941756675457316,0.06966482847929001,0.04843563213944435,0.6084777116775513
413,5,-0.004868010524660349,0.0017746969824656844,0.005826523527503014,-0.027493393048644066,-0.019458910450339317,0.06991667300462723,0.015402236953377724,-0.02270096354186535,-0.04951101914048195,0.4477454125881195,-0.9467599391937256,0.02579784207046032,0.0,0.0,0.0,0.02488800138235092,-0.03719796985387802,-0.0,0.0,0.0,0.0,-0.0016000010073184967,-0.003098354209214449,-0.0016569412546232343,6239.0,41909.0,12182.0,30966.0,0.018157582730054855,0.18200436234474182,0.03836004063487053,0.12086924910545349,0.0,0.0,0.0,0.0,5339.0,38068.0,11175.0,35731.0,0.3646749258041382,0.02209336523858006,-0.080403126678913,-0.05227190986203018,0.1569267213344574,0.09548632800579071,0.4027741849422455
418,5,-0.004833059851080179,0.001376659027300775,0.0056553673930466175,-0.00335492892190814,0.04988764598965645,0.0449368916451931,0.015402236953377724,-0.02270096354186535,-0.04951101914048195,0.4477454125881195,-0.9467599391937256,0.02579784207046032,0.0,0.0,0.0,-0.043388739228248596,-0.015915296971797943,-0.0,0.0,0.0,0.0,-0.0016000010073184967,-0.003098354209214449,-0.0016569412546232343,6239.0,41909.0,12182.0,30966.0,0.018157582730054855,0.18200436234474182,0.03836004063487053,0.12086924910545349,0.0,0.0,0.0,0.0,5339.0,38068.0,11175.0,35731.0,0.3646991550922394,0.009036608126044735,-0.09401382116841579,-0.051947528562829824,0.06712053716182709,-0.16642417013645172,0.4931955635547638
423,5,-0.004755633417516947,0.0013947795378044248,0.0057238326407969,0.009833178482949734,0.01242941152304411,0.003895928617566824,0.02071358449757099,-0.008985638618469238,-0.04921439290046692,0.45524701476097107,-1.2996337413787842,0.082035131752491,0.0,0.0,0.0,-0.006708340719342232,-0.004316792823374271,-0.0,0.0,0.0,0.0,-0.0019434825517237186,-0.004839450586587191,-0.0016162209212779999,4242.0,43413.0,15375.0,28901.0,0.01200408861041069,0.1911584734916687,0.05038655921816826,0.11041024327278137,0.0,0.0,0.0,0.0,4438.0,42842.0,16619.0,28498.0,0.36274877190589905,0.001735490422688303,-0.10268803917846205,-0.05199519506151393,0.018130643293261528,-0.025602048262953758,0.6347408294677734
428,5,-0.004926929250359535,0.0013007438974455,0.005517774727195501,-0.012747971341013908,0.015092289075255394,0.028752686455845833,0.02071358449757099,-0.008985638618469238,-0.04921439290046692,0.45524701476097107,-1.2996337413787842,0.082035131752491,0.0,0.0,0.0,-0.009392599575221539,-0.02490636706352234,-0.0,0.0,0.0,0.0,-0.0019434825517237186,-0.004839450586587191,-0.0016162209212779999,4242.0,43413.0,15375.0,28901.0,0.01200408861041069,0.1911584734916687,0.05038655921816826,0.11041024327278137,0.0,0.0,0.0,0.0,4438.0,42842.0,16619.0,28498.0,0.36286577582359314,-0.004703300796333807,-0.11376035536330945,-0.04930026899373542,0.10459459573030472,-0.03585858270525932,0.5739495158195496
433,5,-0.005207644309848547,0.0010461522033438087,0.005026945378631353,-0.043124452233314514,0.040170516818761826,0.07734189927577972,0.02322111651301384,0.002569254022091627,-0.04835527017712593,0.1671287566423416,-1.585050344467163,0.19315339624881744,0.0,0.0,0.0,-0.03471757471561432,-0.05324995145201683,-0.0,0.0,0.0,0.0,-0.001263738377019763,-0.004999999888241291,-0.0014156787656247616,10577.0,44487.0,14108.0,24388.0,0.03262241557240486,0.19781191647052765,0.04551329091191292,0.08875156939029694,0.0,0.0,0.0,0.0,10137.0,43950.0,14980.0,24720.0,0.35888978838920593,-0.029022928915138153,-0.10207615274054208,-0.03618223972380084,0.2209606170654297,-0.13106335699558258,0.43774980306625366
439,5,-0.004885798320174217,0.0012341244146227837,0.005372034385800362,0.03212106600403786,-0.014264955185353756,-0.025109851732850075,0.02322111651301384,0.002569254022091627,-0.04835527017712593,0.1671287566423416,-1.585050344467163,0.19315339624881744,0.0,0.0,0.0,0.019709693267941475,0.014963682740926743,-0.0,0.0,0.0,0.0,-0.001263738377019763,-0.004999999888241291,-0.0014156787656247616,10577.0,44487.0,14108.0,24388.0,0.03262241557240486,0.19781191647052765,0.04551329091191292,0.08875156939029694,0.0,0.0,0.0,0.0,10137.0,43950.0,14980.0,24720.0,0.35827478766441345,-0.008776565141296575,-0.13026059828952843,-0.04598816876794352,-0.0620281957089901,0.0742955282330513,0.765630841255188
444,5,-0.004885798320174217,0.0012341244146227837,0.005372034385800362,0.03212106600403786,-0.014264955185353756,-0.025109851732850075,0.02363315224647522,0.022775648161768913,-0.04635172709822655,-0.04405674710869789,-1.8123517036437988,0.21465781331062317,0.0,0.0,0.0,0.020382408052682877,0.015203091315925121,-0.0,0.0,0.0,0.0,-0.00330774555914104,-0.004999999888241291,-0.0013204225106164813,10245.0,43240.0,16099.0,24639.0,0.031463686376810074,0.1901010274887085,0.05322416499257088,0.08991029858589172,0.0,0.0,0.0,0.0,6792.0,41538.0,18424.0,26887.0,0.34751400351524353,-0.008776565141296575,-0.13026059828952843,-0.04598816876794352,-0.06113409623503685,0.07452137023210526,0.7820155024528503
449,5,-0.004677075892686844,0.0012136915465816855,0.004928271286189556,0.02847808226943016,-0.0017497619846835732,0.05170167610049248,0.02363315224647522,0.022775648161768913,-0.04635172709822655,-0.04405674710869789,-1.8123517036437988,0.21465781331062317,0.0,0.0,0.0,0.007578613702207804,0.011867591179907322,-0.0,0.0,0.0,0.0,-0.00330774555914104,-0.004999999888241291,-0.0013204225106164813,10245.0,43240.0,16099.0,24639.0,0.031463686376810074,0.1901010274887085,0.05322416499257088,0.08991029858589172,0.0,0.0,0.0,0.0,6792.0,41538.0,18424.0,26887.0,0.3474361002445221,-0.013201338665137457,-0.15266096817961705,-0.04432119573517646,-0.047713059931993484,0.02770647220313549,0.5615445375442505
454,5,-0.0046860468573868275,0.0011693445267155766,0.004841925110667944,0.0072874692268669605,0.00568365678191185,0.027598952874541283,0.023385947570204735,0.037379633635282516,-0.044976916164159775,0.006652388256043196,-1.9275789260864258,0.22509373724460602,0.0,0.0,0.0,-5.337561378837563e-05,-0.008300147019326687,-0.0,0.0,0.0,0.0,-0.0015646934043616056,-0.004999999888241291,-0.0012760946992784739,7559.0,41343.0,18706.0,26369.0,0.022400006651878357,0.17860732972621918,0.06380130350589752,0.09805740416049957,0.0,0.0,0.0,0.0,4509.0,39841.0,20267.0,27877.0,0.33994585275650024,-0.006513805425595137,-0.1624601670960547,-0.0401551551955888,0.032657038420438766,-0.00019091770809609443,0.647580087184906
459,5,-0.004607225768268108,0.0011488484451547265,0.004660371225327253,0.013221194967627525,0.0045745475217700005,0.0336972214281559,0.023385947570204735,0.037379633635282516,-0.044976916164159775,0.006652388256043196,-1.9275789260864258,0.22509373724460602,0.0,0.0,0.0,0.001135292463004589,-0.0027435251977294683,-0.0,0.0,0.0,0.0,-0.0015646934043616056,-0.004999999888241291,-0.0012760946992784739,7559.0,41343.0,18706.0,26369.0,0.022400006651878357,0.17860732972621918,0.06380130350589752,0.09805740416049957,0.0,0.0,0.0,0.0,4509.0,39841.0,20267.0,27877.0,0.33993566036224365,-0.005463423120892212,-0.17373171292657127,-0.03759252344884716,0.01080112624913454,0.004062395542860031,0.6408320665359497
