timestamp,dt,pos_x,pos_y,pos_z,vel_x,vel_y,vel_z,roll,pitch,yaw,agv_x,agv_y,agv_z,x_ref,y_ref,z_ref,roll_ref,pitch_ref,yaw_ref,x_vel_ref,y_vel_ref,z_vel_ref,x_torque,y_torque,z_torque,w0,w1,w2,w3,u0,u1,u2,u3,m0req,m1req,m2req,m3req,thrust0,thrust1,thrust2,thrust3,thrust_ref,roll_vicon,pitch_vicon,yaw_vicon,acc_x,acc_y,acc_z
5,5,0.0,0.0,0.0,-0.0007630483596585691,0.001102294772863388,-0.0009689140715636313,-0.015468520112335682,0.016548097133636475,-0.003487774170935154,0.0008338046609424055,-0.0013169125886633992,-0.003867522580549121,0.0,0.0,0.0,-0.001123643247410655,-0.000777826935518533,-0.0,0.0,0.0,0.0,0.0005024815327487886,-0.0005622858880087733,-0.00011163631279487163,0.0,0.0,0.0,0.0,0.0,0.0,0.0,0.0,0.0,0.0,0.0,0.0,0.0,0.0,0.0,0.0,0.33903390169143677,-0.007493563104073224,0.006129640457685694,0.11208790006791033,0.0030521934386342764,-0.004409179091453552,0.002906742272898555
22,17,0.0,0.0,0.0,0.0009708661818876863,-0.002826184965670109,0.0036054225638508797,-0.015468520112335682,0.016548097133636475,-0.003487774170935154,0.0008338046609424055,-0.0013169125886633992,-0.003867522580549121,0.0,0.0,0.0,0.0028809132054448128,0.0009896695846691728,-0.0,0.0,0.0,0.0,0.0005024815327487886,-0.0005622858880087733,-0.00011163631279487163,0.0,0.0,0.0,0.0,0.0,0.0,0.0,0.0,0.0,0.0,0.0,0.0,0.0,0.0,0.0,0.0,0.33903518319129944,-0.007445986038496354,0.005436076996429436,0.11187011998979197,-0.003883464727550745,0.011304739862680435,-0.010816267691552639
28,7,0.0,0.0,0.0,-0.002166525926440954,-0.00017604709137231112,-0.001662219176068902,-0.015483788214623928,0.01654312200844288,-0.003472550306469202,-0.0026600160636007786,0.0022092752624303102,0.0013618936063721776,0.0,0.0,0.0,0.0028809132054448128,0.0009896695846691728,-0.0,0.0,0.0,0.0,0.0005150241195224226,-0.0005482012638822198,-0.00010010154801420867,0.0,0.0,0.0,0.0,0.0,0.0,0.0,0.0,0.0,0.0,0.0,0.0,0.0,0.0,0.0,0.0,0.33903518319129944,-0.00901045526979844,0.005734098867550526,0.11144367755036837,-0.003883464727550745,0.011304739862680435,-0.010816267691552639
33,5,0.0,0.0,0.0,0.007505831774324179,-0.0011637122370302677,0.010441254824399948,-0.015454948879778385,0.016536973416805267,-0.003473689081147313,0.002973645692691207,-0.0014207245549187064,0.005690203979611397,0.0,0.0,0.0,0.0011862157844007015,0.007651055231690407,-0.0,0.0,0.0,0.0,0.00046257447684183717,-0.000565802794881165,-0.00010137194476556033,0.0,0.0,0.0,0.0,0.0,0.0,0.0,0.0,0.0,0.0,0.0,0.0,0.0,0.0,0.0,0.0,0.3390437662601471,-0.007695099553728117,0.004974792856908516,0.11183873804568363,-0.030023327097296715,0.004654848948121071,-0.031323764473199844
38,5,0.0,0.0,0.0,-1.1435927262937184e-06,-0.0012582226190716028,0.0017453900072723627,-0.015454948879778385,0.016536973416805267,-0.003473689081147313,0.002973645692691207,-0.0014207245549187064,0.005690203979611397,0.0,0.0,0.0,0.0012825911398977041,-1.1657417644528323e-06,-0.0,0.0,0.0,0.0,0.00046257447684183717,-0.000565802794881165,-0.00010137194476556033,0.0,0.0,0.0,0.0,0.0,0.0,0.0,0.0,0.0,0.0,0.0,0.0,0.0,0.0,0.0,0.0,0.3390338718891144,-0.006952441798971324,0.004978669405913435,0.11200429821908407,4.574370905174874e-06,0.005032890476286411,-0.005236170254647732
43,5,0.0,0.0,0.0,0.04913727566599846,-0.005297841504216194,0.09712693840265274,-0.0154654486104846,0.016558632254600525,-0.0034773109946399927,-0.002440001117065549,-0.0028204084374010563,-0.002200891962274909,0.0,0.0,0.0,0.007603014353662729,0.047029513865709305,-0.0,0.0,0.0,0.0,0.0005455552018247545,-0.0003069775702897459,-9.936655260389671e-05,21505.0,24030.0,23818.0,24668.0,0.0757664293050766,0.08709999918937683,0.08613033592700958,0.09004700183868408,0.0,0.0,0.0,0.0,21140.0,24219.0,24235.0,24410.0,0.3612326383590698,-0.010342985390858645,0.002480166360166078,0.11035192592900545,-0.19654910266399384,0.021191366016864777,-0.2913808226585388
48,5,-0.0010175448842346668,-5.147018964635208e-05,0.0011171420337632298,-0.1277150958776474,0.005616473965346813,-0.12726181745529175,-0.0154654486104846,0.016558632254600525,-0.0034773109946399927,-0.002440001117065549,-0.0028204084374010563,-0.002200891962274909,0.0,0.0,0.0,-0.006795478984713554,-0.10301273316144943,-0.0,0.0,0.0,0.0,0.0005455552018247545,-0.0003069775702897459,-9.936655260389671e-05,21505.0,24030.0,23818.0,24668.0,0.0757664293050766,0.08709999918937683,0.08613033592700958,0.09004700183868408,0.0,0.0,0.0,0.0,21140.0,24219.0,24235.0,24410.0,0.4344945251941681,-0.007692159840635305,0.03139188327081198,0.11170715358664747,0.5171101689338684,-0.02278202585875988,0.4005255103111267
53,5,-0.0004435656301211566,8.806648838799447e-05,0.0004042575310450047,0.0420425608754158,-0.01785019226372242,0.061625298112630844,-0.0154654486104846,0.016558632254600525,-0.0034773109946399927,-0.002440001117065549,-0.0028204084374010563,-0.002200891962274909,0.0,0.0,0.0,0.026089413091540337,0.03998342528939247,-0.0,0.0,0.0,0.0,0.0005455552018247545,-0.0003069775702897459,-9.936655260389671e-05,21505.0,24030.0,23818.0,24668.0,0.0757664293050766,0.08709999918937683,0.08613033592700958,0.09004700183868408,0.0,0.0,0.0,0.0,21140.0,24219.0,24235.0,24410.0,0.35733693838119507,0.0025625190781622094,0.011601596550156926,0.1174181089670737,-0.16526490449905396,0.07191727310419083,-0.1754683256149292
59,5,-0.0009138126042671502,1.9868250092258677e-05,0.0010161284590139985,-0.05322180315852165,0.004192695952951908,-0.06717434525489807,-0.015463105402886868,0.016570331528782845,-0.0034280254039913416,0.000817804248072207,-0.0009656954207457602,-0.00044640558189712465,0.0,0.0,0.0,-0.005895151291042566,-0.05162373557686806,-0.0,0.0,0.0,0.0,0.0007564598345197737,0.0010546084959059954,-8.783004886936396e-05,24410.0,23030.0,23600.0,27742.0,0.08885180950164795,0.08255372941493988,0.0851338654756546,0.10469323396682739,0.0,0.0,0.0,0.0,21570.0,23987.0,23827.0,24640.0,0.36613696813583374,-0.0035785783316244924,0.028623368959986042,0.11262805818752078,0.2186647653579712,-0.016654370352625847,0.22070030868053436
64,5,-0.0008039685199037194,6.162548379506916e-05,0.0008866913849487901,-0.0005883707199245691,-0.004588203504681587,-0.002031114650890231,-0.015463105402886868,0.016570331528782845,-0.0034280254039913416,0.000817804248072207,-0.0009656954207457602,-0.00044640558189712465,0.0,0.0,0.0,0.0071577271446585655,-0.0019495513988658786,-0.0,0.0,0.0,0.0,0.0007564598345197737,0.0010546084959059954,-8.783004886936396e-05,24410.0,23030.0,23600.0,27742.0,0.08885180950164795,0.08255372941493988,0.0851338654756546,0.10469323396682739,0.0,0.0,0.0,0.0,21570.0,23987.0,23827.0,24640.0,0.33904293179512024,-0.0007969649021477202,0.02592944423478384,0.11322057118324026,0.007650049403309822,0.018724791705608368,0.02580191381275654
69,5,0.0016231368063017726,0.0011348278494551778,-0.002354404656216502,-0.0005883707199245691,-0.004588203504681587,-0.002031114650890231,-0.015438953414559364,0.01652987115085125,-0.0033507703337818384,0.0017703069606795907,0.007409639190882444,0.00620163232088089,0.0,0.0,0.0,0.009773570112884045,0.0018584231147542596,-0.0,0.0,0.0,0.0,0.0007564598345197737,0.0010546084959059954,-8.783004886936396e-05,24410.0,23030.0,23600.0,27742.0,0.08885180950164795,0.08255372941493988,0.0851338654756546,0.10469323396682739,0.0,0.0,0.0,0.0,24218.0,23222.0,23489.0,27850.0,0.33905038237571716,0.05841761897228949,-0.047406200392087,0.12891021261181781,-0.007295706775039434,0.0255703367292881,-0.03053675778210163
75,6,-0.0005051802145317197,0.00027237547328695655,0.0005256136646494269,-0.0005883707199245691,-0.004588203504681587,-0.002031114650890231,-0.015438953414559364,0.01652987115085125,-0.0033507703337818384,0.0017703069606795907,0.007409639190882444,0.00620163232088089,0.0,0.0,0.0,0.007798114791512489,-0.0013952566077932715,-0.0,0.0,0.0,0.0,0.0007564598345197737,0.0010546084959059954,-8.783004886936396e-05,24410.0,23030.0,23600.0,27742.0,0.08885180950164795,0.08255372941493988,0.0851338654756546,0.10469323396682739,0.0,0.0,0.0,0.0,24218.0,23222.0,23489.0,27850.0,0.3390442430973053,0.007244509394931841,0.01623936219255511,0.1137835354563512,0.005476000718772411,0.02040061540901661,0.012670358642935753
80,5,-0.0008601433364674449,0.00010060554632218555,0.0010377896251156926,-0.04987134784460068,0.022671328857541084,-0.07231396436691284,-0.015418574213981628,0.016540974378585815,-0.0034402417950332165,0.0034148208796977997,0.0013091338332742453,-0.0076972367241978645,0.0,0.0,0.0,-0.031629618257284164,-0.04824899882078171,-0.0,0.0,0.0,0.0,0.001381860114634037,0.0007682251743972301,-0.0001124803748098202,22788.0,22596.0,24259.0,28235.0,0.08146370947360992,0.08060204982757568,0.08815258741378784,0.10711337625980377,0.0,0.0,0.0,0.0,22875.0,22494.0,24351.0,28163.0,0.36721694469451904,-0.0025826104393019884,0.02779795490726578,0.11166933163070848,0.20488733053207397,-0.08958963304758072,0.23315845429897308
85,5,-0.0012677368940785527,0.00016943103400990367,0.00145843590144068,-0.07202450186014175,-0.0028341698925942183,-0.08058467507362366,-0.015418574213981628,0.016540974378585815,-0.0034402417950332165,0.0034148208796977997,0.0013091338332742453,-0.0076972367241978645,0.0,0.0,0.0,0.004344423767179251,-0.06672339886426926,-0.0,0.0,0.0,0.0,0.001381860114634037,0.0007682251743972301,-0.0001124803748098202,22788.0,22596.0,24259.0,28235.0,0.08146370947360992,0.08060204982757568,0.08815258741378784,0.10711337625980377,0.0,0.0,0.0,0.0,22875.0,22494.0,24351.0,28163.0,0.3836900591850281,-0.016201342672712872,0.030801256658294713,0.10472982902582606,0.2960890233516693,0.012862229719758034,0.266439288854599
90,5,-0.0004377231525722891,0.00026122271083295345,0.0005295304581522942,0.0945945754647255,-0.01370108500123024,0.10587135702371597,-0.015407860279083252,0.016583537682890892,-0.0034878067672252655,-0.004716352093964815,-0.011416713707149029,-0.00679220724850893,0.0,0.0,0.0,0.01832987368106842,0.08056430518627167,-0.0,0.0,0.0,0.0,0.0007407653029076755,-0.0006381770363077521,-0.00011398598144296557,20734.0,24268.0,24496.0,24483.0,0.07240802049636841,0.08819566667079926,0.08924925327301025,0.08919002115726471,0.0,0.0,0.0,0.0,20530.0,24389.0,24397.0,24650.0,0.4027145802974701,0.004776884874792865,0.012307697564812072,0.11321234445243346,-0.37504416704177856,0.056951407343149185,-0.3021702468395233
95,5,-0.0008397679193876684,6.275679334066808e-05,0.0011335022281855345,-0.02790789306163788,0.023674901574850082,-0.05279463902115822,-0.015407860279083252,0.016583537682890892,-0.0034878067672252655,-0.004716352093964815,-0.011416713707149029,-0.00679220724850893,0.0,0.0,0.0,-0.034656547009944916,-0.02896173857152462,-0.0,0.0,0.0,0.0,0.0007407653029076755,-0.0006381770363077521,-0.00011398598144296557,20734.0,24268.0,24496.0,24483.0,0.07240802049636841,0.08819566667079926,0.08924925327301025,0.08919002115726471,0.0,0.0,0.0,0.0,20530.0,24389.0,24397.0,24650.0,0.3505980372428894,-0.007692244723498319,0.023648080810288453,0.11053881797899459,0.11743701994419098,-0.09371424466371536,0.18380054831504822
100,5,-0.0012710555456578732,-3.912426473107189e-05,0.001485379645600915,-0.06875264644622803,0.0213658194988966,-0.06510122865438461,-0.015336752869188786,0.016624663025140762,-0.0034588088747113943,-0.0081931808963418,0.009743137285113335,-0.012616460211575031,0.0,0.0,0.0,-0.028742676600813866,-0.06393088400363922,-0.0,0.0,0.0,0.0,0.0007488300907425582,-0.0005595183465629816,-9.426983160665259e-05,20517.0,29310.0,29279.0,24116.0,0.07147185504436493,0.11245834827423096,0.11229994893074036,0.08749829232692719,0.0,0.0,0.0,0.0,21022.0,24023.0,24735.0,24217.0,0.38371580839157104,-0.011775055243400348,0.04028575144400906,0.10883319140708471,0.2836189568042755,-0.08507580310106277,0.22957196831703186
105,5,-0.0011851362651214004,1.0979822945955675e-05,0.00137995183467865,-0.008597082458436489,-0.0006048264913260937,-0.004770476836711168,-0.015336752869188786,0.016624663025140762,-0.0034588088747113943,-0.0081931808963418,0.009743137285113335,-0.012616460211575031,0.0,0.0,0.0,0.0011844468535855412,-0.01090239081531763,-0.0,0.0,0.0,0.0,0.0007488300907425582,-0.0005595183465629816,-9.426983160665259e-05,20517.0,29310.0,29279.0,24116.0,0.07147185504436493,0.11245834827423096,0.11229994893074036,0.08749829232692719,0.0,0.0,0.0,0.0,21022.0,24023.0,24735.0,24217.0,0.3390539884567261,-0.009330469483984135,0.03708161946595092,0.1092416973306061,0.04278504475951195,0.003098719520494342,0.05143598094582558
110,5,-0.0016271875938400626,-0.0002551775542087853,0.0019096295582130551,-0.009885163977742195,0.01413756888359785,-0.0073445443995296955,-0.01543363370001316,0.016685176640748978,-0.0033792799804359674,0.0179432462900877,-0.009920155629515648,0.051035311073064804,0.0,0.0,0.0,-0.021964356303215027,-0.012983603402972221,-0.0,0.0,0.0,0.0,0.0006556340376846492,-0.0028967205435037613,-4.252829239703715e-05,20982.0,28954.0,30105.0,23151.0,0.07348264753818512,0.11067627370357513,0.11647015810012817,0.083099365234375,0.0,0.0,0.0,0.0,22509.0,27519.0,24871.0,21516.0,0.3391439914703369,-0.02656792900880055,0.046527526961656955,0.10890402730024593,0.05095052346587181,-0.05746770650148392,0.07235761731863022
115,5,-0.0016271875938400626,-0.0002551775542087853,0.0019096295582130551,-0.009885163977742195,0.01413756888359785,-0.0073445443995296955,-0.01543363370001316,0.016685176640748978,-0.0033792799804359674,0.0179432462900877,-0.009920155629515648,0.051035311073064804,0.0,0.0,0.0,-0.021991822868585587,-0.013100522570312023,-0.0,0.0,0.0,0.0,0.0006556340376846492,-0.0028967205435037613,-4.252829239703715e-05,20982.0,28954.0,30105.0,23151.0,0.07348264753818512,0.11067627370357513,0.11647015810012817,0.083099365234375,0.0,0.0,0.0,0.0,22509.0,27519.0,24871.0,21516.0,0.3391447067260742,-0.02656792900880055,0.046527526961656955,0.10890402730024593,0.05141264572739601,-0.057540178298950195,0.07913680374622345
120,5,0.0005600285949185491,0.0003975822764914483,-0.0010584130650386214,-0.009885163977742195,0.01413756888359785,-0.0073445443995296955,-0.015356311574578285,0.016605336219072342,-0.003570280037820339,-0.022010773420333862,0.0019086770480498672,-0.014784096740186214,0.0,0.0,0.0,-0.020522398874163628,-0.009876499883830547,-0.0,0.0,0.0,0.0,-0.000620646751485765,-0.001494844676926732,-0.00020644732285290956,21407.0,28271.0,23972.0,22720.0,0.07533660531044006,0.1072908490896225,0.08683514595031738,0.08115942776203156,0.0,0.0,0.0,0.0,20965.0,24362.0,25302.0,23352.0,0.339121550321579,0.005999430238753454,-0.019445611254834662,0.12050926744005618,0.03875664621591568,-0.053692564368247986,0.04140109196305275
125,5,-0.00029801292112097144,0.00020808751287404448,0.00018901278963312507,-0.043083030730485916,0.01162269338965416,-0.05601734295487404,-0.015356311574578285,0.016605336219072342,-0.003570280037820339,-0.022010773420333862,0.0019086770480498672,-0.014784096740186214,0.0,0.0,0.0,-0.01618051715195179,-0.042659297585487366,-0.0,0.0,0.0,0.0,-0.000620646751485765,-0.001494844676926732,-0.00020644732285290956,21407.0,28271.0,23972.0,22720.0,0.07533660531044006,0.1072908490896225,0.08683514595031738,0.08115942776203156,0.0,0.0,0.0,0.0,20965.0,24362.0,25302.0,23352.0,0.35771915316581726,-0.0009559721635611231,9.651767598744076e-05,0.11797148386897026,0.17654484510421753,-0.04465658962726593,0.20248596370220184
130,5,-0.00029801292112097144,0.00020808751287404448,0.00018901278963312507,-0.043083030730485916,0.01162269338965416,-0.05601734295487404,-0.015356311574578285,0.016605336219072342,-0.003570280037820339,-0.022010773420333862,0.0019086770480498672,-0.014784096740186214,0.0,0.0,0.0,-0.01616230420768261,-0.04267464950680733,-0.0,0.0,0.0,0.0,-0.000620646751485765,-0.001494844676926732,-0.00020644732285290956,21407.0,28271.0,23972.0,22720.0,0.07533660531044006,0.1072908490896225,0.08683514595031738,0.08115942776203156,0.0,0.0,0.0,0.0,20965.0,24362.0,25302.0,23352.0,0.3577316999435425,-0.0009559721635611231,9.651767598744076e-05,0.11797148386897026,0.17661458253860474,-0.044607896357774734,0.20303882658481598
135,5,-0.00040094053838402033,0.00019229862664360553,0.0002919814724009484,-0.017800377681851387,0.004844924435019493,-0.017029736191034317,-0.015445525757968426,0.016592983156442642,-0.003475188510492444,0.02393731102347374,0.02838338166475296,-0.05809273570775986,0.0,0.0,0.0,-0.0067045558243989944,-0.019409511238336563,-0.0,0.0,0.0,0.0,0.0005315477028489113,-0.0008099633851088583,-0.00016031402628868818,20165.0,25381.0,23668.0,24717.0,0.0699598416686058,0.09337770193815231,0.08544468134641647,0.09027206152677536,0.0,0.0,0.0,0.0,21447.0,26282.0,23036.0,23220.0,0.33910509943962097,-0.0014816338329865291,0.0038031477757278862,0.11742828173654736,0.07617248594760895,-0.017542539164423943,0.08818584680557251
141,5,-0.0005184593610465527,0.00016397146100644022,0.0004613599448930472,-0.021792752668261528,0.005419281776994467,-0.028821904212236404,-0.015445525757968426,0.016592983156442642,-0.003475188510492444,0.02393731102347374,0.02838338166475296,-0.05809273570775986,0.0,0.0,0.0,-0.007624275516718626,-0.023688558489084244,-0.0,0.0,0.0,0.0,0.0005315477028489113,-0.0008099633851088583,-0.00016031402628868818,20165.0,25381.0,23668.0,24717.0,0.0699598416686058,0.09337770193815231,0.08544468134641647,0.09027206152677536,0.0,0.0,0.0,0.0,21447.0,26282.0,23036.0,23220.0,0.33913859724998474,-0.001559923278102357,0.009090667787262271,0.11663781736854287,0.09297129511833191,-0.019950874149799347,0.1272398680448532
146,5,-0.0005332001019269228,0.00012545965728349984,0.0005218503065407276,-0.008601528592407703,0.007017435505986214,-0.01711522415280342,-0.015414335764944553,0.016761932522058487,-0.003621503245085478,-0.024585317820310593,-0.018101241439580917,-0.041065119206905365,0.0,0.0,0.0,-0.010139630176126957,-0.010306776501238346,-0.0,0.0,0.0,0.0,-0.0001797140866983682,-0.0012177415192127228,-0.00011554717639228329,20883.0,26468.0,23619.0,22982.0,0.07305656373500824,0.09853209555149078,0.08522075414657593,0.08233603835105896,0.0,0.0,0.0,0.0,20794.0,28009.0,25921.0,23159.0,0.33906903862953186,-0.0005275787852588165,0.0105467008812595,0.11630044257805879,0.040446288883686066,-0.026526834815740585,0.09471416473388672
151,5,-0.0005954437656328082,0.00012653884186875075,0.0006132971029728651,-0.01129456888884306,0.0019541459623724222,-0.01793711446225643,-0.015414335764944553,0.016761932522058487,-0.003621503245085478,-0.024585317820310593,-0.018101241439580917,-0.041065119206905365,0.0,0.0,0.0,-0.002381696365773678,-0.013186219148337841,-0.0,0.0,0.0,0.0,-0.0001797140866983682,-0.0012177415192127228,-0.00011554717639228329,20883.0,26468.0,23619.0,22982.0,0.07305656373500824,0.09853209555149078,0.08522075414657593,0.08233603835105896,0.0,0.0,0.0,0.0,20794.0,28009.0,25921.0,23159.0,0.3390640318393707,-0.0016832514114444434,0.013955049510425217,0.1155308389357474,0.05174572393298149,-0.0062310644425451756,0.10043477267026901
156,5,-0.0006940189632587135,7.419221947202459e-05,0.0007771832752041519,-0.0171889029443264,0.00791477132588625,-0.02832520194351673,-0.01548638567328453,0.016630977392196655,-0.003466760041192174,-0.005993705242872238,-0.0010802482720464468,-0.04665532335639,0.0,0.0,0.0,-0.011599713005125523,-0.019387882202863693,-0.0,0.0,0.0,0.0,8.492588676745072e-07,-0.001945597119629383,-9.934835543390363e-05,20615.0,28204.0,25934.0,23104.0,0.07189682871103287,0.10696224123239517,0.09598595649003983,0.08288732916116714,0.0,0.0,0.0,0.0,20438.0,28490.0,25725.0,23181.0,0.33912014961242676,-0.0025403365327221006,0.018280168597586577,0.11448570902692799,0.076087586581707,-0.03035115823149681,0.13628871738910675
161,5,-0.0006614623707719147,8.104559674393386e-05,0.0007724985480308533,-0.0005987412296235561,0.001414958038367331,-0.007841698825359344,-0.01548638567328453,0.016630977392196655,-0.003466760041192174,-0.005993705242872238,-0.0010802482720464468,-0.04665532335639,0.0,0.0,0.0,-0.001639618189074099,-0.002480320632457733,-0.0,0.0,0.0,0.0,8.492588676745072e-07,-0.001945597119629383,-9.934835543390363e-05,20615.0,28204.0,25934.0,23104.0,0.07189682871103287,0.10696224123239517,0.09598595649003983,0.08288732916116714,0.0,0.0,0.0,0.0,20438.0,28490.0,25725.0,23181.0,0.3390350937843323,-0.002064637785992962,0.01908866362467712,0.11425074723115335,0.009734121151268482,-0.004289093893021345,0.07760442793369293
166,5,0.0004573960031848401,0.0002774102904368192,-0.0012545156059786677,0.15646055340766907,-0.02706657163798809,0.2814294695854187,-0.01550342608243227,0.016685418784618378,-0.0035460861399769783,-0.02178777940571308,0.00796515867114067,-0.022402532398700714,0.0,0.0,0.0,0.031122328713536263,0.11728814989328384,-0.0,0.0,0.0,0.0,0.0002846952702384442,-0.001426453236490488,-8.494971552863717e-05,20220.0,25863.0,24770.0,23078.0,0.07019554078578949,0.09565210342407227,0.09052050113677979,0.08277051150798798,0.0,0.0,0.0,0.0,20545.0,25648.0,24383.0,23390.0,0.46171095967292786,0.013375192755090696,-0.00011292992455434007,0.12052037992771839,-0.6250354647636414,0.11083868891000748,-0.8180118799209595
171,5,-0.00033913305378519,0.0001717505365377292,0.0003650863072834909,-0.06457590311765671,0.0066723949275910854,-0.14231543242931366,-0.01550342608243227,0.016685418784618378,-0.0035460861399769783,-0.02178777940571308,0.00796515867114067,-0.022402532398700714,0.0,0.0,0.0,-0.008496270515024662,-0.06056823581457138,-0.0,0.0,0.0,0.0,0.0002846952702384442,-0.001426453236490488,-8.494971552863717e-05,20220.0,25863.0,24770.0,23078.0,0.07019554078578949,0.09565210342407227,0.09052050113677979,0.08277051150798798,0.0,0.0,0.0,0.0,20545.0,25648.0,24383.0,23390.0,0.3765259087085724,0.004573978826107772,0.009276739257831127,0.1166527335134504,0.26378247141838074,-0.024683181196451187,0.4737898111343384
176,5,-0.000728416838683188,0.00013202219270169735,0.0007456661551259458,-0.07387250661849976,0.007563688326627016,-0.09597580134868622,-0.015526915900409222,0.016577428206801414,-0.003535577794536948,-0.022676048800349236,-0.0242588110268116,-0.009344128891825676,0.0,0.0,0.0,-0.009560417383909225,-0.06803411990404129,-0.0,0.0,0.0,0.0,0.00040107412496581674,-0.0006563407951034606,-0.00013532342563848943,20320.0,25320.0,24512.0,23795.0,0.07062637060880661,0.09308741241693497,0.08932507783174515,0.08602523058652878,0.0,0.0,0.0,0.0,20501.0,25163.0,24944.0,23345.0,0.38560593128204346,-0.007909869823988867,0.01418701424496593,0.11317256150829014,0.30339035391807556,-0.028444712981581688,0.3416307866573334
181,5,-0.0003511770919431001,0.0003326492151245475,0.00040852552046999335,0.030651815235614777,-0.025818675756454468,0.01840694434940815,-0.015526915900409222,0.016577428206801414,-0.003535577794536948,-0.022676048800349236,-0.0242588110268116,-0.009344128891825676,0.0,0.0,0.0,0.03912583738565445,0.02866329811513424,-0.0,0.0,0.0,0.0,0.00040107412496581674,-0.0006563407951034606,-0.00013532342563848943,20320.0,25320.0,24512.0,23795.0,0.07062637060880661,0.09308741241693497,0.08932507783174515,0.08602523058652878,0.0,0.0,0.0,0.0,20501.0,25163.0,24944.0,23345.0,0.35237157344818115,0.007378389675583401,0.008629792471081619,0.11305899810144965,-0.11679420620203018,0.10632258653640747,-0.004315348342061043
186,5,-0.0011605150066316128,-6.755258800694719e-05,0.0013228338211774826,-0.10411176085472107,0.048282649368047714,-0.12248107045888901,-0.015455746091902256,0.016707932576537132,-0.0035836545284837484,0.015383332967758179,-0.015979820862412453,-0.010854982770979404,0.0,0.0,0.0,-0.05894167348742485,-0.0874009057879448,-0.0,0.0,0.0,0.0,0.0002804021933116019,-0.002741208765655756,-0.00010561492672422901,20885.0,24975.0,23939.0,24185.0,0.07306266576051712,0.09147592633962631,0.0866825208067894,0.08781401067972183,0.0,0.0,0.0,0.0,21216.0,24628.0,23932.0,24230.0,0.4235844016075134,-0.008211592277686591,0.0370034706165158,0.11065764474524047,0.42720475792884827,-0.19240927696228027,0.43334969878196716
191,5,-1.5492854799958877e-05,0.00018287533021066338,-4.614025237970054e-05,0.12906956672668457,-0.020575113594532013,0.1549120396375656,-0.015455746091902256,0.016707932576537132,-0.0035836545284837484,0.015383332967758179,-0.015979820862412453,-0.010854982770979404,0.0,0.0,0.0,0.025189753621816635,0.1019497960805893,-0.0,0.0,0.0,0.0,0.0002804021933116019,-0.002741208765655756,-0.00010561492672422901,20885.0,24975.0,23939.0,24185.0,0.07306266576051712,0.09147592633962631,0.0866825208067894,0.08781401067972183,0.0,0.0,0.0,0.0,21216.0,24628.0,23932.0,24230.0,0.4348953068256378,0.00017423782877058395,0.0069954938853351275,0.11319140780846104,-0.5121142864227295,0.08451008796691895,-0.4154345989227295
196,5,-0.0007817051373422146,0.0001758035214152187,0.0011653817491605878,-0.06854885071516037,-0.005182480905205011,-0.12313946336507797,-0.015482427552342415,0.01675857976078987,-0.0035687934141606092,-0.029456445947289467,-0.0031056003645062447,-0.0075807650573551655,0.0,0.0,0.0,0.007807796820998192,-0.06424080580472946,-0.0,0.0,0.0,0.0,0.001800691126845777,0.0002924643340520561,-0.00012306163262110204,21462.0,22207.0,25081.0,27999.0,0.07558099180459976,0.07886890321969986,0.09196776896715164,0.10595289617776871,0.0,0.0,0.0,0.0,20949.0,29175.0,28036.0,23632.0,0.38084906339645386,-0.015092776669072057,0.012764502568586198,0.10686202724626821,0.2829698324203491,0.022944221273064613,0.4369256794452667
202,5,-0.0005106273456476629,7.335282862186432e-05,0.000989797874353826,0.017386233434081078,0.012788351625204086,-0.012360095046460629,-0.015482427552342415,0.01675857976078987,-0.0035687934141606092,-0.029456445947289467,-0.0031056003645062447,-0.0075807650573551655,0.0,0.0,0.0,-0.018923817202448845,0.01585385762155056,-0.0,0.0,0.0,0.0,0.001800691126845777,0.0002924643340520561,-0.00012306163262110204,21462.0,22207.0,25081.0,27999.0,0.07558099180459976,0.07886890321969986,0.09196776896715164,0.10595289617776871,0.0,0.0,0.0,0.0,20949.0,29175.0,28036.0,23632.0,0.33913692831993103,-0.007236639577415839,0.01251296713448348,0.11098912190973174,-0.06221575289964676,-0.0495135523378849,0.10536535084247589
207,5,-0.0005749920383095741,1.457377311453456e-05,0.0011590421199798584,-0.003795187221840024,0.01206557359546423,-0.027402231469750404,-0.015518063679337502,0.016743671149015427,-0.003608526661992073,0.01766088791191578,0.030609367415308952,0.0019036433659493923,0.0,0.0,0.0,-0.01794779859483242,-0.005872140638530254,-0.0,0.0,0.0,0.0,0.0013661140110343695,0.0029060093220323324,-7.692367216804996e-05,29759.0,23788.0,26114.0,34090.0,0.11471546441316605,0.0859929546713829,0.09684327989816666,0.13734424114227295,0.0,0.0,0.0,0.0,21367.0,22370.0,25167.0,27856.0,0.3390940725803375,-0.012620215860878328,0.014680719708915171,0.11028100689215956,0.023043693974614143,-0.04695446044206619,0.1566106230020523
212,5,-0.0006385719170793891,0.00019400694873183966,0.001085707452148199,-0.010039734654128551,-0.021500973030924797,0.0020461773965507746,-0.015518063679337502,0.016743671149015427,-0.003608526661992073,0.01766088791191578,0.030609367415308952,0.0019036433659493923,0.0,0.0,0.0,0.033762115985155106,-0.012369861826300621,-0.0,0.0,0.0,0.0,0.0013661140110343695,0.0029060093220323324,-7.692367216804996e-05,29759.0,23788.0,26114.0,34090.0,0.11471546441316605,0.0859929546713829,0.09684327989816666,0.13734424114227295,0.0,0.0,0.0,0.0,21367.0,22370.0,25167.0,27856.0,0.3394445776939392,-0.01610774051924875,0.005976567390780423,0.10603549455548375,0.04857049137353897,0.08839362859725952,0.07136140018701553
217,5,6.175655289553106e-05,0.0004038478364236653,3.0302644518087618e-05,0.09503406286239624,-0.03582801669836044,0.14837053418159485,-0.01569153554737568,0.016883285716176033,-0.0036740920040756464,0.0019069242989644408,-0.020989643409848213,-0.023836836218833923,0.0,0.0,0.0,0.046679504215717316,0.07965536415576935,-0.0,0.0,0.0,0.0,-0.00011351565626682714,-0.00020225043408572674,-0.00014313854626379907,22053.0,25217.0,22332.0,24426.0,0.0781862810254097,0.0926048532128334,0.07942193001508713,0.08892368525266647,0.0,0.0,0.0,0.0,29084.0,24382.0,25943.0,34363.0,0.40846946835517883,0.01183268289162054,-0.004780518182133092,0.115302286511789,-0.3757753074169159,0.14701105654239655,-0.38020896911621094
222,5,-0.00044839715701527894,1.8349304809817113e-05,0.0007225252338685095,-0.04291130229830742,0.04322139173746109,-0.052400004118680954,-0.01569153554737568,0.016883285716176033,-0.0036740920040756464,0.0019069242989644408,-0.020989643409848213,-0.023836836218833923,0.0,0.0,0.0,-0.05962938815355301,-0.041561465710401535,-0.0,0.0,0.0,0.0,-0.00011351565626682714,-0.00020225043408572674,-0.00014313854626379907,22053.0,25217.0,22332.0,24426.0,0.0781862810254097,0.0926048532128334,0.07942193001508713,0.08892368525266647,0.0,0.0,0.0,0.0,29084.0,24382.0,25943.0,34363.0,0.3730006515979767,-0.01520050769858802,0.020610625777252853,0.11175692846621699,0.17905698716640472,-0.17140407860279083,0.23266568779945374
227,5,-0.0005860314122401178,-4.268417978892103e-05,0.0011566177709028125,-0.03214218467473984,0.021511103957891464,-0.07649295032024384,-0.015801163390278816,0.017070703208446503,-0.003606776474043727,0.028170203790068626,-0.03827110677957535,0.0314684621989727,0.0,0.0,0.0,-0.031186893582344055,-0.03353019431233406,-0.0,0.0,0.0,0.0,0.001657224027439952,-0.0010596446227282286,-0.00011566843022592366,19127.0,23487.0,26447.0,24842.0,0.06556076556444168,0.08461906760931015,0.0984310731291771,0.09085638076066971,0.0,0.0,0.0,0.0,23008.0,24478.0,22867.0,23724.0,0.35303497314453125,-0.014532342816863419,0.011745024108952014,0.1091140314406257,0.13691386580467224,-0.08492512255907059,0.31363797187805176
232,5,-0.0013272915966808796,-0.00020925930584780872,0.0015545545611530542,-0.1134190782904625,0.029773849993944168,-0.0786590427160263,-0.015801163390278816,0.017070703208446503,-0.003606776474043727,0.028170203790068626,-0.03827110677957535,0.0314684621989727,0.0,0.0,0.0,-0.0361877977848053,-0.09476885199546814,-0.0,0.0,0.0,0.0,0.001657224027439952,-0.0010596446227282286,-0.00011566843022592366,19127.0,23487.0,26447.0,24842.0,0.06556076556444168,0.08461906760931015,0.0984310731291771,0.09085638076066971,0.0,0.0,0.0,0.0,23008.0,24478.0,22867.0,23724.0,0.4263286590576172,-0.023582740764283572,0.04453467548452729,0.10472281638162248,0.46662089228630066,-0.11898797005414963,0.32969269156455994
237,5,-0.0006734016933478415,-3.098053275607526e-05,0.001293268403969705,0.0575188584625721,-0.016026873141527176,0.012982349842786789,-0.015801163390278816,0.017070703208446503,-0.003606776474043727,0.028170203790068626,-0.03827110677957535,0.0314684621989727,0.0,0.0,0.0,0.022937757894396782,0.0517716109752655,-0.0,0.0,0.0,0.0,0.001657224027439952,-0.0010596446227282286,-0.00011566843022592366,19127.0,23487.0,26447.0,24842.0,0.06556076556444168,0.08461906760931015,0.0984310731291771,0.09085638076066971,0.0,0.0,0.0,0.0,23008.0,24478.0,22867.0,23724.0,0.36866235733032227,-0.014508467125290343,0.012104768926314048,0.10865589519889335,-0.22074750065803528,0.06523699313402176,0.055402494966983795
242,5,-0.0005638888105750084,-0.00011381990043446422,0.001373093225993216,0.032587457448244095,0.006789449602365494,-0.007280770223587751,-0.015480995178222656,0.017488570883870125,-0.003510324517264962,0.20464812219142914,-0.025524428114295006,0.006902699824422598,0.0,0.0,0.0,-0.009978000074625015,0.030468737706542015,-0.0,0.0,0.0,0.0,-0.0008793020970188081,-0.0019993609748780727,-6.399503035936505e-05,22327.0,28668.0,24645.0,21200.0,0.07940215617418289,0.10925626009702682,0.08994167298078537,0.07443440705537796,0.0,0.0,0.0,0.0,18381.0,24244.0,26592.0,24616.0,0.3446478545665741,-0.009899765520535342,0.013691273584497548,0.109746951910984,-0.12151327729225159,-0.026534011587500572,0.12141033262014389
247,5,-0.001762423780746758,-0.00019977192278020084,0.002341244602575898,-0.15801866352558136,0.014070117846131325,-0.13772542774677277,-0.015480995178222656,0.017488570883870125,-0.003510324517264962,0.20464812219142914,-0.025524428114295006,0.006902699824422598,0.0,0.0,0.0,-0.015654852613806725,-0.12067817896604538,-0.0,0.0,0.0,0.0,-0.0008793020970188081,-0.0019993609748780727,-6.399503035936505e-05,22327.0,28668.0,24645.0,21200.0,0.07940215617418289,0.10925626009702682,0.08994167298078537,0.07443440705537796,0.0,0.0,0.0,0.0,18381.0,24244.0,26592.0,24616.0,0.46530312299728394,-0.017583204817041523,0.04974776792777214,0.10415617979828959,0.6482508778572083,-0.056200798600912094,0.5315412282943726
252,5,-0.0005159150459803641,-0.00014167316840030253,0.0013873946154490113,0.12710562348365784,-0.003912791144102812,0.09222137182950974,-0.009647173807024956,0.016034280881285667,-0.003186854301020503,0.7817524671554565,0.2205270379781723,0.050302885472774506,0.0,0.0,0.0,0.004828318487852812,0.10042025148868561,-0.0,0.0,0.0,0.0,-0.0006068857037462294,0.0021360027603805065,-4.1998115193564445e-05,29014.0,23148.0,20618.0,27330.0,0.11097710579633713,0.08308643847703934,0.07190722972154617,0.10268770903348923,0.0,0.0,0.0,0.0,29953.0,23350.0,20019.0,26697.0,0.4303304851055145,-0.00023751050037118646,0.015333626690439625,0.11045670718310925,-0.4993148148059845,0.016032064333558083,-0.1657024472951889
257,5,-0.0007464990485459566,-0.0003764706489164382,0.0012529303785413504,0.00584993464872241,0.03169780969619751,0.04649140313267708,-0.009647173807024956,0.016034280881285667,-0.003186854301020503,0.7817524671554565,0.2205270379781723,0.050302885472774506,0.0,0.0,0.0,-0.04795841500163078,0.003197810612618923,-0.0,0.0,0.0,0.0,-0.0006068857037462294,0.0021360027603805065,-4.1998115193564445e-05,29014.0,23148.0,20618.0,27330.0,0.11097710579633713,0.08308643847703934,0.07190722972154617,0.10268770903348923,0.0,0.0,0.0,0.0,29953.0,23350.0,20019.0,26697.0,0.3457881808280945,-0.010027435467682687,0.008780263690267935,0.1145469890778895,-0.012783470563590527,-0.12785519659519196,-0.026418810710310936
262,5,-0.0003652673913165927,-0.00041872335714288056,0.0003735610225703567,0.05512740835547447,0.01542472280561924,0.13705913722515106,-0.0024429424665868282,0.01436811126768589,-0.002796303480863571,0.8188464045524597,0.21755744516849518,-0.008920004591345787,0.0,0.0,0.0,-0.022312233224511147,0.04999682307243347,-0.0,0.0,0.0,0.0,-0.001270950771868229,0.0025328132323920727,-4.249945777701214e-05,29339.0,23909.0,19372.0,27378.0,0.11260050535202026,0.08654563128948212,0.0665946751832962,0.10291767120361328,0.0,0.0,0.0,0.0,27541.0,37630.0,30376.0,23967.0,0.366616427898407,-0.0165187818583557,0.006171984043940975,0.11237514603622337,-0.21200692653656006,-0.06310730427503586,-0.30770763754844666
267,5,-0.0006835930398665369,-0.0004987088614143431,0.0009321533143520355,-0.028027368709445,0.015825383365154266,-0.03708518296480179,-0.0024429424665868282,0.01436811126768589,-0.002796303480863571,0.8188464045524597,0.21755744516849518,-0.008920004591345787,0.0,0.0,0.0,-0.024320736527442932,-0.030456745997071266,-0.0,0.0,0.0,0.0,-0.001270950771868229,0.0025328132323920727,-4.249945777701214e-05,29339.0,23909.0,19372.0,27378.0,0.11260050535202026,0.08654563128948212,0.0665946751832962,0.10291767120361328,0.0,0.0,0.0,0.0,27541.0,37630.0,30376.0,23967.0,0.34797629714012146,-0.006582657791710958,0.003077710248511983,0.11558672199896158,0.12260941416025162,-0.06528764218091965,0.2242433726787567
272,5,-0.0007076534093357623,-0.0004192256892565638,0.0011693454580381513,-0.011776660569012165,-0.006380024831742048,-0.04433245211839676,0.005483477842062712,0.012201576493680477,-0.003044621553272009,0.5193895101547241,0.15455900132656097,0.013969640247523785,0.0,0.0,0.0,0.009131718426942825,-0.014758551493287086,-0.0,0.0,0.0,0.0,-0.0019559385254979134,-0.003413967788219452,-0.00012754522322211415,27336.0,37097.0,31300.0,23807.0,0.10271316021680832,0.15393510460853577,0.1225951761007309,0.08608103543519974,0.0,0.0,0.0,0.0,27961.0,27215.0,18257.0,21548.0,0.339084655046463,-0.00495010534153308,0.009021314573562249,0.11356962840470239,0.05791676044464111,0.023891473188996315,0.25241026282310486
277,5,-0.0007150705205276608,-0.00040803683805279434,0.001241209334693849,-0.004571393132209778,-0.0034804476890712976,-0.023360684514045715,0.005483477842062712,0.012201576493680477,-0.003044621553272009,0.5193895101547241,0.15455900132656097,0.013969640247523785,0.0,0.0,0.0,0.004677354823797941,-0.007479409221559763,-0.0,0.0,0.0,0.0,-0.0019559385254979134,-0.003413967788219452,-0.00012754522322211415,27336.0,37097.0,31300.0,23807.0,0.10271316021680832,0.15393510460853577,0.1225951761007309,0.08608103543519974,0.0,0.0,0.0,0.0,27961.0,27215.0,18257.0,21548.0,0.33904680609703064,-0.004043915941569849,0.012400822562843338,0.1137684628392778,0.02934974990785122,0.012236341834068298,0.19491028785705566
282,5,-0.0007078221533447504,-0.00037321794661693275,0.0012849749764427543,-0.00035664738970808685,-0.005918778479099274,-0.01313538383692503,0.008396401070058346,0.010979360900819302,-0.002896195976063609,0.15777738392353058,0.18367528915405273,-0.007031443994492292,0.0,0.0,0.0,0.008438304997980595,-0.003227453213185072,-0.0,0.0,0.0,0.0,-0.0024667405523359776,0.0005582345183938742,-8.193920075427741e-05,27024.0,26846.0,18816.0,22458.0,0.10120265185832977,0.10034339129924774,0.06426097452640533,0.0799868255853653,0.0,0.0,0.0,0.0,23954.0,27464.0,22452.0,21999.0,0.3390474319458008,-0.002481059828517938,0.01367945442737769,0.11343256977518423,0.012664570473134518,0.022074952721595764,0.1696140319108963
287,5,-0.0006626435788348317,-0.0002578326384536922,0.0013272640062496066,0.006218005903065205,-0.017929576337337494,-0.00986109022051096,0.008396401070058346,0.010979360900819302,-0.002896195976063609,0.15777738392353058,0.18367528915405273,-0.007031443994492292,0.0,0.0,0.0,0.027022482827305794,0.003489232389256358,-0.0,0.0,0.0,0.0,-0.0024667405523359776,0.0005582345183938742,-8.193920075427741e-05,27024.0,26846.0,18816.0,22458.0,0.10120265185832977,0.10034339129924774,0.06426097452640533,0.0799868255853653,0.0,0.0,0.0,0.0,23954.0,27464.0,22452.0,21999.0,0.3391594886779785,0.0013755348568566957,0.01609274621496545,0.11120331869205363,-0.013691803440451622,0.07069889456033707,0.16528154909610748
293,5,-0.0005657782894559205,-0.00035948146251030266,0.0011495184153318405,0.01542653702199459,0.00885196216404438,0.021926067769527435,0.008987581357359886,0.00936555303633213,-0.0028880161698907614,-0.024311980232596397,0.09341836720705032,0.008233915083110332,0.0,0.0,0.0,-0.014186390675604343,0.012972711585462093,-0.0,0.0,0.0,0.0,-0.0010618132073432207,-0.0009165602969005704,-7.076036126818508e-05,23467.0,27234.0,23435.0,21755.0,0.08452882617712021,0.10221945494413376,0.08438261598348618,0.0768655464053154,0.0,0.0,0.0,0.0,22769.0,24503.0,22574.0,24200.0,0.3390962481498718,0.0010890522997471159,0.01250771739454391,0.11406482718288913,-0.05090664327144623,-0.03711654618382454,0.07227527350187302
298,5,-0.0003257340285927057,-0.0003942103357985616,0.0005858147633261979,0.0382341630756855,0.007517630700021982,0.08549632132053375,0.008987581357359886,0.00936555303633213,-0.0028880161698907614,-0.024311980232596397,0.09341836720705032,0.008233915083110332,0.0,0.0,0.0,-0.01189334224909544,0.035436999052762985,-0.0,0.0,0.0,0.0,-0.0010618132073432207,-0.0009165602969005704,-7.076036126818508e-05,23467.0,27234.0,23435.0,21755.0,0.08452882617712021,0.10221945494413376,0.08438261598348618,0.0768655464053154,0.0,0.0,0.0,0.0,22769.0,24503.0,22574.0,24200.0,0.34975185990333557,-0.007880046201828948,0.014394649306940973,0.10789325216096336,-0.14341072738170624,-0.03209499642252922,-0.12266545742750168
303,5,-0.0005404999246820807,-0.000495218497235328,0.0006696412456221879,-0.01859697699546814,0.016396434977650642,0.013913189992308617,0.008710620924830437,0.008910886943340302,-0.002986665815114975,-0.036349065601825714,-0.06424812972545624,-0.00754699157550931,0.0,0.0,0.0,-0.025946058332920074,-0.02159833535552025,-0.0,0.0,0.0,0.0,-5.519870683201589e-05,-0.00037464668275788426,-0.00012651504948735237,21886.0,25256.0,23234.0,23645.0,0.07744312286376953,0.09279030561447144,0.08347487449645996,0.0853385329246521,0.0,0.0,0.0,0.0,20454.0,24515.0,25008.0,24005.0,0.3412952125072479,-0.0014428121745871144,0.0006709561515896889,0.11762535850545039,0.08528188616037369,-0.06831148266792297,0.09510506689548492
308,5,-0.00019332734518684447,1.723701279843226e-05,0.0006664011743851006,0.04302506893873215,-0.06682484596967697,0.004627564921975136,0.008710620924830437,0.008910886943340302,-0.002986665815114975,-0.036349065601825714,-0.06424812972545624,-0.00754699157550931,0.0,0.0,0.0,0.08951227366924286,0.036445144563913345,-0.0,0.0,0.0,0.0,-5.519870683201589e-05,-0.00037464668275788426,-0.00012651504948735237,21886.0,25256.0,23234.0,23645.0,0.07744312286376953,0.09279030561447144,0.08347487449645996,0.0853385329246521,0.0,0.0,0.0,0.0,20454.0,24515.0,25008.0,24005.0,0.3884339928627014,0.021133272943696026,0.005657461918306467,0.11665712270283769,-0.16315628588199615,0.26752763986587524,0.12500572204589844
313,5,-0.00047777066356502473,-0.00017655553529039025,0.0011578084668144584,-0.02691454440355301,0.007083503529429436,-0.06740875542163849,0.008231044746935368,0.010120525024831295,-0.00291375326924026,-0.03158608451485634,-0.10697125643491745,0.013186289928853512,0.0,0.0,0.0,-0.011023012921214104,-0.029724741354584694,-0.0,0.0,0.0,0.0,0.0007084842654876411,-0.0013002079213038087,-6.911363743711263e-05,20406.0,24632.0,25429.0,23502.0,0.07099297642707825,0.08987811207771301,0.09360010921955109,0.08468805253505707,0.0,0.0,0.0,0.0,20655.0,24545.0,25024.0,23769.0,0.34409603476524353,0.010264098527217895,0.01159751208063184,0.11194423492100906,0.11835788190364838,-0.029265886172652245,0.3505508005619049
318,5,-0.0004705353931058198,-0.000166213110787794,0.0011882157996296883,-0.007061425130814314,0.0006771106272935867,-0.02447964996099472,0.008231044746935368,0.010120525024831295,-0.00291375326924026,-0.03158608451485634,-0.10697125643491745,0.013186289928853512,0.0,0.0,0.0,-0.001384465373121202,-0.009943711571395397,-0.0,0.0,0.0,0.0,0.0007084842654876411,-0.0013002079213038087,-6.911363743711263e-05,20406.0,24632.0,25429.0,23502.0,0.07099297642707825,0.08987811207771301,0.09360010921955109,0.08468805253505707,0.0,0.0,0.0,0.0,20655.0,24545.0,25024.0,23769.0,0.33905068039894104,0.011060168752441698,0.013089945617725298,0.11225215608025017,0.03902135044336319,-0.003622273914515972,0.22584231197834015
323,5,-0.00011559255653992295,-0.00022300533601082861,0.0004633274511434138,0.04757357016205788,0.008154044859111309,0.09414047747850418,0.008231044746935368,0.010120525024831295,-0.00291375326924026,-0.03158608451485634,-0.10697125643491745,0.013186289928853512,0.0,0.0,0.0,-0.012270093895494938,0.043788641691207886,-0.0,0.0,0.0,0.0,0.0007084842654876411,-0.0013002079213038087,-6.911363743711263e-05,20406.0,24632.0,25429.0,23502.0,0.07099297642707825,0.08987811207771301,0.09360010921955109,0.08468805253505707,0.0,0.0,0.0,0.0,20655.0,24545.0,25024.0,23769.0,0.3582860231399536,0.015007481478900908,0.007754801792339497,0.11351575947168849,-0.18151207268238068,-0.03391997143626213,-0.13657906651496887
328,5,-0.0006719661760143936,-0.0003711745666805655,0.0010770600056275725,-0.06362023949623108,0.023189906030893326,-0.0576804094016552,0.0079892473295331,0.01133959461003542,-0.0029015818145126104,-0.06643546372652054,-0.22005490958690643,-0.0036387741565704346,0.0,0.0,0.0,-0.03235025331377983,-0.06057162210345268,-0.0,0.0,0.0,0.0,0.002818507608026266,0.000175448163645342,-7.97109241830185e-05,23594.0,25992.0,23044.0,23737.0,0.08510836958885193,0.09626069664955139,0.0826135128736496,0.08575908839702606,0.0,0.0,0.0,0.0,24182.0,25483.0,22655.0,24055.0,0.38076090812683105,-0.0034221781697003836,0.005479412142459516,0.11432655391175013,0.2666349709033966,-0.09500981122255325,0.3296104371547699
333,5,-2.4838245735736564e-06,0.00016357723507098854,6.553674029419199e-05,0.07464145869016647,-0.06790827959775925,0.12430913001298904,0.0079892473295331,0.01133959461003542,-0.0029015818145126104,-0.06643546372652054,-0.22005490958690643,-0.0036387741565704346,0.0,0.0,0.0,0.08682338893413544,0.06176372244954109,-0.0,0.0,0.0,0.0,0.002818507608026266,0.000175448163645342,-7.97109241830185e-05,23594.0,25992.0,23044.0,23737.0,0.08510836958885193,0.09626069664955139,0.0826135128736496,0.08575908839702606,0.0,0.0,0.0,0.0,24182.0,25483.0,22655.0,24055.0,0.40784361958503723,0.02514658233697234,-0.008233906577052771,0.1223080478105301,-0.2902674078941345,0.27250367403030396,-0.2282932996749878
339,5,-0.0003784386208280921,-0.00037006993079558015,0.0005318699404597282,-0.030241232365369797,0.05433811619877815,-0.027993911877274513,0.007427132222801447,0.013061252422630787,-0.002932432107627392,-0.008359156548976898,-0.06016996130347252,-0.004328951705247164,0.0,0.0,0.0,-0.07604670524597168,-0.030387967824935913,-0.0,0.0,0.0,0.0,-0.0005755138699896634,0.0005698163295164704,-9.001824946608394e-05,25418.0,25178.0,22410.0,25202.0,0.0935516282916069,0.09242527931928635,0.07977277785539627,0.09253624826669693,0.0,0.0,0.0,0.0,21874.0,23060.0,28954.0,30342.0,0.37508904933929443,-0.008069533421008338,0.0006459546534983027,0.11112998352783426,0.13152270019054413,-0.21964749693870544,0.23586061596870422
344,5,-0.0006029382348060608,-0.00040880084270611405,0.0008765396778471768,-0.040502313524484634,0.021723764017224312,-0.05665193498134613,0.007427132222801447,0.013061252422630787,-0.002932432107627392,-0.008359156548976898,-0.06016996130347252,-0.004328951705247164,0.0,0.0,0.0,-0.03215877711772919,-0.04169479012489319,-0.0,0.0,0.0,0.0,-0.0005755138699896634,0.0005698163295164704,-9.001824946608394e-05,25418.0,25178.0,22410.0,25202.0,0.0935516282916069,0.09242527931928635,0.07977277785539627,0.09253624826669693,0.0,0.0,0.0,0.0,21874.0,23060.0,28954.0,30342.0,0.36087602376937866,-0.0020276689427436182,0.0003050513866355874,0.11516870537397479,0.17401178181171417,-0.08951553702354431,0.3287271559238434
349,5,-0.0009721555979922414,-0.00030384131241589785,0.001472150208428502,-0.06384113430976868,-0.008177204988896847,-0.1003810465335846,0.007196058519184589,0.013770637102425098,-0.0029258420690894127,-0.021164359524846077,-0.04295913502573967,0.004681052174419165,0.0,0.0,0.0,0.010497967712581158,-0.06169277802109718,-0.0,0.0,0.0,0.0,0.002586735412478447,0.0020228070206940174,-0.00010703224688768387,25603.0,22016.0,27242.0,33308.0,0.09442006051540375,0.07801859080791473,0.1022590845823288,0.1331464797258377,0.0,0.0,0.0,0.0,26002.0,24763.0,21058.0,26288.0,0.3780190646648407,-0.0033847999509970554,0.018070776158585215,0.10984539167984135,0.2697351276874542,0.030618788674473763,0.47163334488868713
354,5,-0.0006018402636982501,-0.0003229068825021386,0.0010277285473421216,0.03269181028008461,0.0002160179428756237,0.032104719430208206,0.007196058519184589,0.013770637102425098,-0.0029258420690894127,-0.021164359524846077,-0.04295913502573967,0.004681052174419165,0.0,0.0,0.0,-0.0011867270804941654,0.02979891188442707,-0.0,0.0,0.0,0.0,0.002586735412478447,0.0020228070206940174,-0.00010703224688768387,25603.0,22016.0,27242.0,33308.0,0.09442006051540375,0.07801859080791473,0.1022590845823288,0.1331464797258377,0.0,0.0,0.0,0.0,26002.0,24763.0,21058.0,26288.0,0.3432959318161011,-0.0005201777265117655,0.004186324355871634,0.1141064148885148,-0.11838338524103165,-0.003144154092296958,0.07198449969291687
359,5,-0.0006984371575526893,-0.00036680474295280874,0.0011608449276536703,-0.0037160224746912718,0.006210505962371826,-0.009004881605505943,0.007334095425903797,0.013421746902167797,-0.002866649068892002,0.030855758115649223,0.06776633113622665,-0.017967190593481064,0.0,0.0,0.0,-0.010498655959963799,-0.007129626348614693,-0.0,0.0,0.0,0.0,-0.001305488869547844,-0.0015455733519047499,-8.272362174466252e-05,23768.0,28944.0,23875.0,22003.0,0.08590061217546463,0.11062841862440109,0.08638937026262283,0.0779648944735527,0.0,0.0,0.0,0.0,25701.0,21857.0,27522.0,33098.0,0.33906090259552,-0.004769422824316197,0.005984314215476431,0.11341068408145018,0.027978524565696716,-0.027466364204883575,0.20052595436573029
364,5,-0.0006861301953904331,-0.00033145296038128436,0.001205193460918963,0.0006081726169213653,-0.0030860963743180037,-0.008910260163247585,0.007334095425903797,0.013421746902167797,-0.002866649068892002,0.030855758115649223,0.06776633113622665,-0.017967190593481064,0.0,0.0,0.0,0.0037551054265350103,-0.0027566731441766024,-0.0,0.0,0.0,0.0,-0.001305488869547844,-0.0015455733519047499,-8.272362174466252e-05,23768.0,28944.0,23875.0,22003.0,0.08590061217546463,0.11062841862440109,0.08638937026262283,0.0779648944735527,0.0,0.0,0.0,0.0,25701.0,21857.0,27522.0,33098.0,0.3390372693538666,0.00047787510913999034,0.010966692106993763,0.11341856280080155,0.010817212983965874,0.009822750464081764,0.20527046918869019
369,5,-0.0012942664325237274,-0.0008838302455842495,0.002345119835808873,-0.08495662361383438,0.07640699297189713,-0.16226276755332947,0.007583276834338903,0.01299551036208868,-0.0029464696999639273,0.01168090756982565,0.03266504779458046,0.0014738450990989804,0.0,0.0,0.0,-0.09521058201789856,-0.07287772744894028,-0.0,0.0,0.0,0.0,-0.000353496172465384,0.0006902124150656164,-8.540532144252211e-05,24379.0,23975.0,21766.0,24834.0,0.08870632946491241,0.08684824407100677,0.07691554725170135,0.09081725776195526,0.0,0.0,0.0,0.0,23469.0,29288.0,24442.0,21330.0,0.4254562556743622,-0.028057954820619752,0.03140039062209899,0.11709587261632237,0.35693010687828064,-0.31156596541404724,0.6869365572929382
374,5,-0.0013447513338178396,-0.0012417667312547565,0.002048235386610031,-0.03255487605929375,0.07303321361541748,-0.007115010637789965,0.007583276834338903,0.01299551036208868,-0.0029464696999639273,0.01168090756982565,0.03266504779458046,0.0014738450990989804,0.0,0.0,0.0,-0.09927607327699661,-0.032643504440784454,-0.0,0.0,0.0,0.0,-0.000353496172465384,0.0006902124150656164,-8.540532144252211e-05,24379.0,23975.0,21766.0,24834.0,0.08870632946491241,0.08684824407100677,0.07691554725170135,0.09081725776195526,0.0,0.0,0.0,0.0,23469.0,29288.0,24442.0,21330.0,0.393571138381958,-0.03793689210215802,0.024352763145090026,0.12412086502400142,0.14793995022773743,-0.3004373610019684,0.2240820676088333
379,5,-0.0012795028742402792,-0.00101733417250216,0.001971770776435733,-0.0006316726794466376,-0.009510600939393044,0.008570547215640545,0.0077096824534237385,0.012711171060800552,-0.002927101217210293,0.02040734514594078,-0.025343947112560272,0.0019616815261542797,0.0,0.0,0.0,0.011763202957808971,-0.0051467218436300755,-0.0,0.0,0.0,0.0,-0.00017918406229000539,-0.0002839923254214227,-9.81229604803957e-05,22389.0,25141.0,23162.0,23342.0,0.07967842370271683,0.09224852174520493,0.08314762264490128,0.08396270126104355,0.0,0.0,0.0,0.0,24733.0,23647.0,21099.0,25427.0,0.33906155824661255,-0.0228599955456325,0.02873949857476584,0.11861359938259092,0.02019847370684147,0.030771542340517044,0.18241174519062042
384,5,-0.001140981214120984,-0.0010695327073335648,0.0018684500828385353,0.019203532487154007,0.004454617854207754,0.017036061733961105,0.0077096824534237385,0.012711171060800552,-0.002927101217210293,0.02040734514594078,-0.025343947112560272,0.0019616815261542797,0.0,0.0,0.0,-0.009823126718401909,0.015188085846602917,-0.0,0.0,0.0,0.0,-0.00017918406229000539,-0.0002839923254214227,-9.81229604803957e-05,22389.0,25141.0,23162.0,23342.0,0.07967842370271683,0.09224852174520493,0.08314762264490128,0.08396270126104355,0.0,0.0,0.0,0.0,24733.0,23647.0,21099.0,25427.0,0.3390890657901764,-0.026171473249105064,0.021041597080731927,0.12055815743026309,-0.0596003495156765,-0.025702768936753273,0.16268323361873627
389,5,-0.001211106893606484,-0.0011230841046199203,0.0019642922561615705,-0.0040565375238657,0.00883357971906662,-0.008307098411023617,0.007796234916895628,0.012980644591152668,-0.0028974951710551977,0.01890620030462742,-0.021047167479991913,0.006056041456758976,0.0,0.0,0.0,-0.016767064109444618,-0.008717654272913933,-0.0,0.0,0.0,0.0,-0.0034744234289973974,-0.0016186080174520612,-8.85965273482725e-05,28246.0,33184.0,23155.0,20370.0,0.1071670800447464,0.13248595595359802,0.08311791718006134,0.07084164023399353,0.0,0.0,0.0,0.0,22205.0,25137.0,23216.0,23472.0,0.3390941619873047,-0.030111758145927946,0.02189514055690741,0.12029584106855053,0.03421136736869812,-0.04386838153004646,0.24732352793216705
395,5,-0.0018841854762285948,-0.00019294155936222523,0.002499428577721119,-0.09544797241687775,-0.12756988406181335,-0.07741119712591171,0.007796234916895628,0.012980644591152668,-0.0028974951710551977,0.01890620030462742,-0.021047167479991913,0.006056041456758976,0.0,0.0,0.0,0.141600102186203,-0.0755467414855957,-0.0,0.0,0.0,0.0,-0.0034744234289973974,-0.0016186080174520612,-8.85965273482725e-05,28246.0,33184.0,23155.0,20370.0,0.1071670800447464,0.13248595595359802,0.08311791718006134,0.07084164023399353,0.0,0.0,0.0,0.0,22205.0,25137.0,23216.0,23472.0,0.46735048294067383,0.0018137735961379436,0.06337362476351485,0.10223502234816895,0.404168963432312,0.5070204138755798,0.4697297513484955
400,5,-0.0011187104973942041,-7.466015813406557e-05,0.001486007822677493,0.07853210717439651,-0.054830361157655716,0.11865553259849548,0.007813772186636925,0.013377919793128967,-0.002858595922589302,-0.02412218041718006,-0.020496150478720665,-0.004760042764246464,0.0,0.0,0.0,0.07028109580278397,0.06405901908874512,-0.0,0.0,0.0,0.0,-0.000591069518122822,-0.00038322294130921364,-7.98344481154345e-05,23199.0,25203.0,22384.0,23257.0,0.08331362158060074,0.0925409123301506,0.07965659350156784,0.08357790857553482,0.0,0.0,0.0,0.0,27977.0,33500.0,23673.0,19736.0,0.40034377574920654,0.011836946876820525,0.037628559376641224,0.11053367992681697,-0.29588693380355835,0.2167258858680725,-0.12608905136585236
405,5,-0.0012106376234441996,-0.00010253977234242484,0.0016727063339203596,0.01068983692675829,-0.012545962817966938,0.009458870626986027,0.007813772186636925,0.013377919793128967,-0.002858595922589302,-0.02412218041718006,-0.020496150478720665,-0.004760042764246464,0.0,0.0,0.0,0.018118740990757942,0.0060358052141964436,-0.0,0.0,0.0,0.0,-0.000591069518122822,-0.00038322294130921364,-7.98344481154345e-05,23199.0,25203.0,22384.0,23257.0,0.08331362158060074,0.0925409123301506,0.07965659350156784,0.08357790857553482,0.0,0.0,0.0,0.0,27977.0,33500.0,23673.0,19736.0,0.33909544348716736,0.00954461496942867,0.03803751095262651,0.11131047777073959,-0.02368478663265705,0.0474017933011055,0.2089918702840805
410,5,-0.0007712359656579792,-3.440642831264995e-05,0.00108222512062639,0.0647231861948967,-0.013302456587553024,0.08550503104925156,0.007702647242695093,0.013614362105727196,-0.002860597101971507,-0.012937789782881737,-0.023955533280968666,0.004257734399288893,0.0,0.0,0.0,0.01767643354833126,0.056186746805906296,-0.0,0.0,0.0,0.0,-0.0006258102366700768,-2.165765909012407e-05,-8.429527224507183e-05,19747.0,29248.0,38068.0,32261.0,0.06818147748708725,0.11214730888605118,0.15945035219192505,0.12760457396507263,0.0,0.0,0.0,0.0,20098.0,28874.0,37792.0,32632.0,0.3725532293319702,0.018330706811557174,0.023920919088063784,0.1160396588049644,-0.24210812151432037,0.05080771818757057,-0.022016555070877075
415,5,-0.0012088047806173563,-0.0001207939421874471,0.0016918289475142956,-0.04184267297387123,0.008103515021502972,-0.05969301983714104,0.007702647242695093,0.013614362105727196,-0.002860597101971507,-0.012937789782881737,-0.023955533280968666,0.004257734399288893,0.0,0.0,0.0,-0.012740058824419975,-0.04494671896100044,-0.0,0.0,0.0,0.0,-0.0006258102366700768,-2.165765909012407e-05,-8.429527224507183e-05,19747.0,29248.0,38068.0,32261.0,0.06818147748708725,0.11214730888605118,0.15945035219192505,0.12760457396507263,0.0,0.0,0.0,0.0,20098.0,28874.0,37792.0,32632.0,0.3595636188983917,0.011494817992767001,0.03909745597490889,0.11131659305822922,0.18697282671928406,-0.03534413501620293,0.4260902404785156
420,5,-0.0011001696111634374,-0.00012863206211477518,0.0015317265642806888,0.002656122436746955,0.003528390545397997,0.004506416618824005,0.007672847248613834,0.0135802635923028,-0.0027870279736816883,0.00862205121666193,0.0022045853547751904,0.014356345869600773,0.0,0.0,0.0,-0.006544490810483694,-0.002196997171267867,-0.0,0.0,0.0,0.0,0.004430060740560293,-0.0029312875121831894,-6.189986015670002e-05,20100.0,28886.0,38018.0,32375.0,0.06968279927968979,0.11033683270215988,0.15916377305984497,0.12820032238960266,0.0,0.0,0.0,0.0,22338.0,23705.0,23895.0,24127.0,0.33904168009757996,0.011395377006004018,0.03654595666567291,0.11084134163494874,0.008625431917607784,-0.017121052369475365,0.2363293468952179
425,5,-0.0012917239218950272,-0.00010370337986387312,0.0017772190039977431,-0.02602076716721058,-0.002431497909128666,-0.03301701322197914,0.007672847248613834,0.0135802635923028,-0.0027870279736816883,0.00862205121666193,0.0022045853547751904,0.014356345869600773,0.0,0.0,0.0,0.0025679871905595064,-0.03127962723374367,-0.0,0.0,0.0,0.0,0.004430060740560293,-0.0029312875121831894,-6.189986015670002e-05,20100.0,28886.0,38018.0,32375.0,0.06968279927968979,0.11033683270215988,0.15916377305984497,0.12820032238960266,0.0,0.0,0.0,0.0,22338.0,23705.0,23895.0,24127.0,0.34477660059928894,0.009796963715343252,0.040444709353655926,0.10791964710933627,0.12479964643716812,0.006831634324043989,0.35810089111328125
430,5,-0.0008578909328207374,-4.37669332313817e-05,0.0012105623027309775,0.052930381149053574,-0.009120551869273186,0.06942682713270187,0.007868521846830845,0.013308949768543243,-0.002738823415711522,0.023113535717129707,0.04512391611933708,-0.0071380226872861385,0.0,0.0,0.0,0.012182011269032955,0.04629466310143471,-0.0,0.0,0.0,0.0,0.00031331172795034945,-5.8605051890481263e-05,-8.555638487450778e-05,22367.0,23871.0,23185.0,24634.0,0.07958091795444489,0.08637261390686035,0.08325135707855225,0.08989037573337555,0.0,0.0,0.0,0.0,22713.0,28275.0,25258.0,22097.0,0.36091649532318115,0.01585837435526136,0.02628273000209746,0.11344087555521433,-0.19330057501792908,0.03392324224114418,0.047562550753355026
435,5,-0.0013215370709076524,-0.0002274218131788075,0.001827493542805314,-0.0490313395857811,0.022975517436861992,-0.0655423253774643,0.007868521846830845,0.013308949768543243,-0.002738823415711522,0.023113535717129707,0.04512391611933708,-0.0071380226872861385,0.0,0.0,0.0,-0.03345348313450813,-0.05079258233308792,-0.0,0.0,0.0,0.0,0.00031331172795034945,-5.8605051890481263e-05,-8.555638487450778e-05,22367.0,23871.0,23185.0,24634.0,0.07958091795444489,0.08637261390686035,0.08325135707855225,0.08989037573337555,0.0,0.0,0.0,0.0,22713.0,28275.0,25258.0,22097.0,0.37041229009628296,0.009828181194772571,0.04655772464546339,0.11032223170600462,0.21754413843154907,-0.09557686001062393,0.46552473306655884
440,5,-0.001372819533571601,-0.00023563631111755967,0.0019182006362825632,-0.005850180052220821,0.004584544338285923,-0.018575696274638176,0.007977090775966644,0.012879475951194763,-0.002642223611474037,0.02320830710232258,0.06003602221608162,0.014326563104987144,0.0,0.0,0.0,-0.008454550057649612,-0.011583571322262287,-0.0,0.0,0.0,0.0,-0.0007322970777750015,-0.0015790746547281742,-4.5661952754016966e-05,23118.0,27978.0,25406.0,21859.0,0.08294849842786789,0.10584913939237595,0.09349102526903152,0.07732436805963516,0.0,0.0,0.0,0.0,21937.0,26204.0,24406.0,22699.0,0.3390684723854065,0.009800242346547234,0.05016350283082909,0.1099838566749796,0.045455966144800186,-0.022118819877505302,0.33167335391044617
445,5,-0.001372819533571601,-0.00023563631111755967,0.0019182006362825632,-0.005850180052220821,0.004584544338285923,-0.018575696274638176,0.007977090775966644,0.012879475951194763,-0.002642223611474037,0.02320830710232258,0.06003602221608162,0.014326563104987144,0.0,0.0,0.0,-0.00848137866705656,-0.011687813326716423,-0.0,0.0,0.0,0.0,-0.0007322970777750015,-0.0015790746547281742,-4.5661952754016966e-05,23118.0,27978.0,25406.0,21859.0,0.08294849842786789,0.10584913939237595,0.09349102526903152,0.07732436805963516,0.0,0.0,0.0,0.0,21937.0,26204.0,24406.0,22699.0,0.3390689492225647,0.009800242346547234,0.05016350283082909,0.1099838566749796,0.04586506634950638,-0.02218903973698616,0.33881866931915283
