timestamp,dt,pos_x,pos_y,pos_z,vel_x,vel_y,vel_z,roll,pitch,yaw,agv_x,agv_y,agv_z,x_ref,y_ref,z_ref,roll_ref,pitch_ref,yaw_ref,x_vel_ref,y_vel_ref,z_vel_ref,x_torque,y_torque,z_torque,w0,w1,w2,w3,u0,u1,u2,u3,m0req,m1req,m2req,m3req,thrust0,thrust1,thrust2,thrust3,thrust_ref,roll_vicon,pitch_vicon,yaw_vicon
5,5,0.0,0.0,0.0,0.001338385627605021,-0.003608051221817732,0.005991963669657707,-0.23514975607395172,0.0068887583911418915,0.028011810034513474,0.0066549996845424175,-0.27314186096191406,-0.042525410652160645,0.0,0.0,0.0,0.0018389633623883128,0.0006821536226198077,-0.0,0.0,0.0,0.0,0.004999999888241291,-0.0018483229214325547,0.002766365883871913,0.0,0.0,0.0,0.0,0.0,0.0,0.0,0.0,0.0,0.0,0.0,0.0,0.0,0.0,0.0,0.0,0.5085513591766357,-0.2452913058928946,-0.03257370326094565,-0.061868470907180236
27,22,0.0,0.0,0.0,0.005714694503694773,-0.005029096268117428,0.0021051305811852217,-0.23514975607395172,0.0068887583911418915,0.028011810034513474,0.0066549996845424175,-0.27314186096191406,-0.042525410652160645,0.0,0.0,0.0,0.0025632334873080254,0.0029126801528036594,-0.0,0.0,0.0,0.0,0.004999999888241291,-0.0018483229214325547,0.002766365883871913,0.0,0.0,0.0,0.0,0.0,0.0,0.0,0.0,0.0,0.0,0.0,0.0,0.0,0.0,0.0,0.0,0.508554220199585,-0.24758803559717907,-0.028175127047313696,-0.06196475730222635
32,5,0.0,0.0,0.0,0.0008064416470006108,-0.0005085228476673365,-0.0002039390237769112,-0.2350795865058899,0.010158088989555836,0.02800368145108223,0.0023917206563055515,-0.2502797245979309,-0.08306264877319336,0.0,0.0,0.0,0.00025918593746609986,0.00041103039984591305,-0.0,0.0,0.0,0.0,0.004999999888241291,-0.0017728387610986829,0.0027315199840813875,0.0,0.0,0.0,0.0,0.0,0.0,0.0,0.0,0.0,0.0,0.0,0.0,0.0,0.0,0.0,0.0,0.5085504651069641,-0.24750093476241813,-0.02756617362537587,-0.06234169332659435
37,5,0.0,0.0,0.0,0.009780213236808777,-0.005663782823830843,0.0010220169788226485,-0.2350795865058899,0.010158088989555836,0.02800368145108223,0.0023917206563055515,-0.2502797245979309,-0.08306264877319336,0.0,0.0,0.0,0.0028866955544799566,0.004984776955097914,-0.0,0.0,0.0,0.0,0.004999999888241291,-0.0017728387610986829,0.0027315199840813875,0.0,0.0,0.0,0.0,0.0,0.0,0.0,0.0,0.0,0.0,0.0,0.0,0.0,0.0,0.0,0.0,0.5085588097572327,-0.24626528360195413,-0.024581892471831342,-0.0632881108330557
43,5,-7.12537148501724e-05,-1.5358798918896355e-05,-1.0912815014307853e-05,-0.007041455712169409,0.0004510970611590892,0.001834399183280766,-0.23504114151000977,0.012116244994103909,0.027794484049081802,0.004934696014970541,-0.21432189643383026,-0.07854454964399338,0.0,0.0,0.0,-0.00024214810400735587,-0.0036456522066146135,-0.0,0.0,0.0,0.0,0.004999999888241291,-0.0016969989519566298,0.002693306654691696,0.0,0.0,0.0,0.0,0.0,0.0,0.0,0.0,0.0,0.0,0.0,0.0,0.0,0.0,0.0,0.0,0.5085538029670715,-0.2487154787221659,-0.025252073762798793,-0.06340393535337278
51,9,-4.320942753111012e-05,1.1539295883267187e-05,-1.7567268514540046e-05,-0.0016756309196352959,-0.001802521524950862,0.0013141268864274025,-0.23504114151000977,0.012116244994103909,0.027794484049081802,0.004934696014970541,-0.21432189643383026,-0.07854454964399338,0.0,0.0,0.0,0.0009270525188185275,-0.0008893940830603242,-0.0,0.0,0.0,0.0,0.004999999888241291,-0.0016969989519566298,0.002693306654691696,0.0,0.0,0.0,0.0,0.0,0.0,0.0,0.0,0.0,0.0,0.0,0.0,0.0,0.0,0.0,0.0,0.5085508227348328,-0.2469584907679034,-0.022238495697085782,-0.0649841235835198
56,5,-5.440141467261128e-05,-3.575405207811855e-05,5.9530779253691435e-05,-0.002069567795842886,0.00608031265437603,-0.010399488732218742,-0.23515009880065918,0.016204122453927994,0.026326432824134827,-0.020306840538978577,-0.1985912024974823,-0.3220837116241455,0.0,0.0,0.0,-0.003127746284008026,-0.0011012805625796318,-0.0,0.0,0.0,0.0,0.004999999888241291,-0.001509496825747192,0.0019671849440783262,38238.0,10649.0,50953.0,21435.0,0.16042375564575195,0.032876044511795044,0.2397916316986084,0.07545939832925797,0.0,0.0,0.0,0.0,39372.0,8743.0,52528.0,18927.0,0.5085532069206238,-0.2452002926032422,-0.02270940138432097,-0.06651391255522834
65,8,-0.0003102347254753113,-3.585947342799045e-05,-7.37049849703908e-05,-0.04493909329175949,-0.04263361915946007,0.006762898061424494,-0.23515009880065918,0.016204122453927994,0.026326432824134827,-0.020306840538978577,-0.1985912024974823,-0.3220837116241455,0.0,0.0,0.0,0.021691640838980675,-0.023142723366618156,-0.0,0.0,0.0,0.0,0.004999999888241291,-0.001509496825747192,0.0019671849440783262,38238.0,10649.0,50953.0,21435.0,0.16042375564575195,0.032876044511795044,0.2397916316986084,0.07545939832925797,0.0,0.0,0.0,0.0,39372.0,8743.0,52528.0,18927.0,0.5088062882423401,-0.24410367110009784,-0.03640648920447326,-0.06506753439786293
70,5,-2.040665094682481e-05,-0.00010481275239726529,4.6116092562442645e-05,0.027094202116131783,-0.0031366266775876284,-0.014746081084012985,-0.23515009880065918,0.016204122453927994,0.026326432824134827,-0.020306840538978577,-0.1985912024974823,-0.3220837116241455,0.0,0.0,0.0,0.0015162053750827909,0.013781887479126453,-0.0,0.0,0.0,0.0,0.004999999888241291,-0.001509496825747192,0.0019671849440783262,38238.0,10649.0,50953.0,21435.0,0.16042375564575195,0.032876044511795044,0.2397916316986084,0.07545939832925797,0.0,0.0,0.0,0.0,39372.0,8743.0,52528.0,18927.0,0.5085992813110352,-0.24612530833331156,-0.02181869527781729,-0.07086815287933831
75,5,6.565211515408009e-05,-5.526606400962919e-05,6.416813266696408e-05,0.020176488906145096,-0.007877524010837078,-0.006951110437512398,-0.23515009880065918,0.016204122453927994,0.026326432824134827,-0.020306840538978577,-0.1985912024974823,-0.3220837116241455,0.0,0.0,0.0,0.003968299366533756,0.010321978479623795,-0.0,0.0,0.0,0.0,0.004999999888241291,-0.001509496825747192,0.0019671849440783262,38238.0,10649.0,50953.0,21435.0,0.16042375564575195,0.032876044511795044,0.2397916316986084,0.07545939832925797,0.0,0.0,0.0,0.0,39372.0,8743.0,52528.0,18927.0,0.5085815191268921,-0.2428414572580669,-0.01904215318735374,-0.07127275324981416
80,5,0.00010261274292133749,-2.5727071260917e-05,0.00011204387556063011,0.011227434501051903,-0.006498716305941343,-0.00878793653100729,-0.23221126198768616,0.021067915484309196,0.021382249891757965,0.052936773747205734,-0.22443924844264984,0.0827217549085617,0.0,0.0,0.0,0.0032875975593924522,0.005790197290480137,-0.0,0.0,0.0,0.0,0.004999999888241291,-0.0018403533613309264,0.0020689896773546934,38870.0,9602.0,52363.0,19196.0,0.164062038064003,0.029238954186439514,0.24939784407615662,0.06585436314344406,0.0,0.0,0.0,0.0,37310.0,12128.0,50460.0,22186.0,0.5085616707801819,-0.24175775677283423,-0.019139958624840248,-0.07098699636122302
85,5,3.115451545454562e-05,1.2594004147103988e-05,-9.187871910398826e-06,-0.0066359215416014194,-0.0073145655915141106,0.014336063526570797,-0.23250366747379303,0.022155165672302246,0.022608909755945206,-0.030224142596125603,-0.01406775414943695,0.0586252436041832,0.0,0.0,0.0,0.003732536919414997,-0.0033668088726699352,-0.0,0.0,0.0,0.0,0.004999999888241291,-0.0008921624394133687,0.0022958090994507074,41191.0,5426.0,52116.0,19602.0,0.1777009814977646,0.015614166855812073,0.24770000576972961,0.06756637245416641,0.0,0.0,0.0,0.0,40097.0,7462.0,53245.0,17727.0,0.5085568428039551,-0.238606420188595,-0.02651314174683756,-0.0679573747602455
90,5,0.0003314485657028854,9.826193127082661e-05,0.00012268453428987414,0.04005039110779762,-0.014187879860401154,-0.014161316677927971,-0.23250366747379303,0.022155165672302246,0.022608909755945206,-0.030224142596125603,-0.01406775414943695,0.0586252436041832,0.0,0.0,0.0,0.007299690041691065,0.020655354484915733,-0.0,0.0,0.0,0.0,0.004999999888241291,-0.0008921624394133687,0.0022958090994507074,41191.0,5426.0,52116.0,19602.0,0.1777009814977646,0.015614166855812073,0.24770000576972961,0.06756637245416641,0.0,0.0,0.0,0.0,40097.0,7462.0,53245.0,17727.0,0.5086724758148193,-0.23429602558173962,-0.015373899703116627,-0.0718251693011862
95,5,0.00039691064739599824,0.00014465261483564973,0.00020281225442886353,0.0211798083037138,-0.010751060210168362,-0.015466277487576008,-0.23250366747379303,0.022155165672302246,0.022608909755945206,-0.030224142596125603,-0.01406775414943695,0.0586252436041832,0.0,0.0,0.0,0.00558670237660408,0.011096404865384102,-0.0,0.0,0.0,0.0,0.004999999888241291,-0.0008921624394133687,0.0022958090994507074,41191.0,5426.0,52116.0,19602.0,0.1777009814977646,0.015614166855812073,0.24770000576972961,0.06756637245416641,0.0,0.0,0.0,0.0,40097.0,7462.0,53245.0,17727.0,0.5085896253585815,-0.23277426741470897,-0.01544657953704533,-0.07209867997834006
100,5,0.0007088812999427319,0.00042352566379122436,8.955134399002418e-05,0.05002983286976814,-0.04226754233241081,0.011216645129024982,-0.23224875330924988,0.021704239770770073,0.02321668341755867,0.05070406571030617,0.1811237335205078,0.04610772803425789,0.0,0.0,0.0,0.021855834871530533,0.026041952893137932,-0.0,0.0,0.0,0.0,0.004999999888241291,0.00015565227658953518,0.002419242635369301,42434.0,2925.0,52259.0,19367.0,0.1851806938648224,0.008122123777866364,0.24868369102478027,0.06657034903764725,0.0,0.0,0.0,0.0,42797.0,2154.0,51296.0,20902.0,0.5088444352149963,-0.23154561825163159,-0.00040512040909772724,-0.07483400827677951
105,5,0.0005655749118886888,0.0002607177884783596,0.00021499326976481825,-0.0050539420917630196,0.010112837888300419,-0.014196876436471939,-0.23224875330924988,0.021704239770770073,0.02321668341755867,0.05070406571030617,0.1811237335205078,0.04610772803425789,0.0,0.0,0.0,-0.004946740809828043,-0.0021229677367955446,-0.0,0.0,0.0,0.0,0.004999999888241291,0.00015565227658953518,0.002419242635369301,42434.0,2925.0,52259.0,19367.0,0.1851806938648224,0.008122123777866364,0.24868369102478027,0.06657034903764725,0.0,0.0,0.0,0.0,42797.0,2154.0,51296.0,20902.0,0.5085577964782715,-0.22468178305363923,-0.016528880281606463,-0.07433898125748882
110,5,0.0007807472138665617,0.00028066826052963734,0.00012978404993191361,0.028607938438653946,0.00024078621936496347,0.007670228369534016,-0.2316233217716217,0.0179124902933836,0.022816775366663933,0.06837117671966553,0.40237948298454285,0.07261348515748978,0.0,0.0,0.0,0.00010544115502852947,0.015208982862532139,-0.0,0.0,0.0,0.0,0.004999999888241291,0.0013533735182136297,0.0023362019564956427,44300.0,0.0,49954.0,22948.0,0.19664669036865234,-0.0033274590969085693,0.23308730125427246,0.08218315988779068,0.0,0.0,0.0,0.0,42797.0,2154.0,51296.0,20902.0,0.5086092352867126,-0.21932267274049028,-0.011019133944343049,-0.07383403857987068
116,5,0.0008111647330224514,0.0003286764258518815,0.00016420017345808446,0.01284082978963852,-0.006648907903581858,-0.0025171900633722544,-0.2316233217716217,0.0179124902933836,0.022816775366663933,0.06837117671966553,0.40237948298454285,0.07261348515748978,0.0,0.0,0.0,0.003659199457615614,0.007212566677480936,-0.0,0.0,0.0,0.0,0.004999999888241291,0.0013533735182136297,0.0023362019564956427,44300.0,0.0,49954.0,22948.0,0.19664669036865234,-0.0033274590969085693,0.23308730125427246,0.08218315988779068,0.0,0.0,0.0,0.0,42797.0,2154.0,51296.0,20902.0,0.5085670351982117,-0.21881753949416208,-0.012863258052544055,-0.07408792552620448
121,5,0.00074911949923262,-0.00017548685718793422,0.000531504862010479,-0.004834077786654234,0.06858818978071213,-0.05217780917882919,-0.2305585891008377,0.013868500478565693,0.02269608899950981,0.1686803549528122,0.5957685112953186,0.08252555876970291,0.0,0.0,0.0,-0.03505227342247963,-0.001826704479753971,-0.0,0.0,0.0,0.0,0.004999999888241291,0.0029391932766884565,0.002376881893724203,45516.0,0.0,49040.0,24279.0,0.20426759123802185,-0.010948367416858673,0.22702226042747498,0.08824819326400757,0.0,0.0,0.0,0.0,45170.0,0.0,48858.0,24535.0,0.5088638067245483,-0.21739590900728029,-0.040184306287014006,-0.06654976869748333
126,5,0.0007539677899330854,-0.0001722613669699058,0.000588239636272192,-0.00077146413968876,0.0201248861849308,-0.02359621599316597,-0.2305585891008377,0.013868500478565693,0.02269608899950981,0.1686803549528122,0.5957685112953186,0.08252555876970291,0.0,0.0,0.0,-0.010366403497755527,0.00026266821078024805,-0.0,0.0,0.0,0.0,0.004999999888241291,0.0029391932766884565,0.002376881893724203,45516.0,0.0,49040.0,24279.0,0.20426759123802185,-0.010948367416858673,0.22702226042747498,0.08824819326400757,0.0,0.0,0.0,0.0,45170.0,0.0,48858.0,24535.0,0.5085777640342712,-0.21612598057823948,-0.0422014906970595,-0.0669983700416066
131,5,0.0008603844325989485,-0.0002132689260179177,0.0001826551597332582,0.014666886068880558,0.01177852414548397,0.0497029647231102,-0.2286624163389206,0.005770693067461252,0.021530957892537117,0.14201326668262482,0.7565270066261292,0.06428346037864685,0.0,0.0,0.0,-0.006147301755845547,0.008227672427892685,-0.0,0.0,0.0,0.0,0.004999999888241291,0.00380471209064126,0.0022472322452813387,45455.0,0.0,47693.0,26158.0,0.20387965440750122,-0.010576404631137848,0.21820476651191711,0.09704970568418503,0.0,0.0,0.0,0.0,46000.0,0.0,47021.0,27064.0,0.5085772275924683,-0.20718130514909108,-0.03467310738964937,-0.06883030212126992
136,5,0.0011490545002743602,0.000194419058971107,0.00011724113574018702,0.04481387883424759,-0.05354275926947594,0.02406885288655758,-0.2286624163389206,0.005770693067461252,0.021530957892537117,0.14201326668262482,0.7565270066261292,0.06428346037864685,0.0,0.0,0.0,0.02743857353925705,0.023826196789741516,-0.0,0.0,0.0,0.0,0.004999999888241291,0.00380471209064126,0.0022472322452813387,45455.0,0.0,47693.0,26158.0,0.20387965440750122,-0.010576404631137848,0.21820476651191711,0.09704970568418503,0.0,0.0,0.0,0.0,46000.0,0.0,47021.0,27064.0,0.5088863372802734,-0.19518442636965472,-0.03243760008896003,-0.06697457714286438
141,5,0.0013187205186113715,9.803864668356255e-05,6.327477603917941e-05,0.03719741106033325,-0.0025695704389363527,0.014775946736335754,-0.22740910947322845,-2.076945202134084e-05,0.021328724920749664,0.21673688292503357,0.7383070588111877,0.193402498960495,0.0,0.0,0.0,0.001403077389113605,0.020099567249417305,-0.0,0.0,0.0,0.0,0.004999999888241291,0.004425284918397665,0.0023144742008298635,46483.0,0.0,47573.0,26322.0,0.21041324734687805,-0.01710531860589981,0.21742583811283112,0.09783332049846649,0.0,0.0,0.0,0.0,46552.0,0.0,47804.0,26008.0,0.5086536407470703,-0.19525980787761565,-0.0321965731252963,-0.06614248823285011
146,5,0.0015549210365861654,0.00023409686400555074,2.0619534552679397e-05,0.04422729089856148,-0.019819021224975586,0.010404517874121666,-0.22740910947322845,-2.076945202134084e-05,0.021328724920749664,0.21673688292503357,0.7383070588111877,0.193402498960495,0.0,0.0,0.0,0.010297819972038269,0.02388758212327957,-0.0,0.0,0.0,0.0,0.004999999888241291,0.004425284918397665,0.0023144742008298635,46483.0,0.0,47573.0,26322.0,0.21041324734687805,-0.01710531860589981,0.21742583811283112,0.09783332049846649,0.0,0.0,0.0,0.0,46552.0,0.0,47804.0,26008.0,0.5087224841117859,-0.19114461003565306,-0.027156325412531043,-0.06550038654999728
151,5,0.001268542604520917,-7.748248208372388e-06,0.0002895326470024884,-0.02682478539645672,0.02791260927915573,-0.03452647849917412,-0.22390124201774597,-0.008303472772240639,0.02148577570915222,0.35667386651039124,0.6462668776512146,0.12093805521726608,0.0,0.0,0.0,-0.014205142855644226,-0.012509411200881004,-0.0,0.0,0.0,0.0,0.004999999888241291,0.004066734574735165,0.0023237094283103943,46040.0,0.0,47850.0,25945.0,0.20758754014968872,-0.014274276793003082,0.21922621130943298,0.09603827446699142,0.0,0.0,0.0,0.0,46419.0,0.0,46940.0,27204.0,0.5086414813995361,-0.1940247556765179,-0.04479057015977458,-0.0644623716796309
156,5,0.00144347851164639,0.00022462723427452147,7.170367462094873e-05,0.016443582251667976,-0.024158785119652748,0.02013811096549034,-0.22390124201774597,-0.008303472772240639,0.02148577570915222,0.35667386651039124,0.6462668776512146,0.12093805521726608,0.0,0.0,0.0,0.01250904519110918,0.009702244773507118,-0.0,0.0,0.0,0.0,0.004999999888241291,0.004066734574735165,0.0023237094283103943,46040.0,0.0,47850.0,25945.0,0.20758754014968872,-0.014274276793003082,0.21922621130943298,0.09603827446699142,0.0,0.0,0.0,0.0,46419.0,0.0,46940.0,27204.0,0.5086141228675842,-0.1834893654025634,-0.038864272533588734,-0.0639296539459217
161,5,0.0011402395321056247,-0.0001703801826806739,0.0004924216773360968,-0.0375203862786293,0.048053402453660965,-0.05285909026861191,-0.22089295089244843,-0.01239128690212965,0.0214433204382658,0.30534830689430237,0.4244294762611389,0.103192038834095,0.0,0.0,0.0,-0.024584025144577026,-0.01800454594194889,-0.0,0.0,0.0,0.0,0.004999999888241291,0.0038947041612118483,0.002274247817695141,45579.0,0.0,47878.0,25939.0,0.20466329157352448,-0.01119561493396759,0.2194094955921173,0.09600939601659775,0.0,0.0,0.0,0.0,45232.0,0.0,47834.0,26000.0,0.5087865591049194,-0.19570969194837415,-0.05493405313388666,-0.06049125302064022
166,5,0.0011177343549206853,-9.56092044361867e-05,0.00040987905231304467,-0.014406843110918999,0.00394808454439044,-0.004301757086068392,-0.22089295089244843,-0.01239128690212965,0.0214433204382658,0.30534830689430237,0.4244294762611389,0.103192038834095,0.0,0.0,0.0,-0.0020591532811522484,-0.006221708841621876,-0.0,0.0,0.0,0.0,0.004999999888241291,0.0038947041612118483,0.002274247817695141,45579.0,0.0,47878.0,25939.0,0.20466329157352448,-0.01119561493396759,0.2194094955921173,0.09600939601659775,0.0,0.0,0.0,0.0,45232.0,0.0,47834.0,26000.0,0.5085613131523132,-0.19092645390633184,-0.05662117367437356,-0.0623015402328325
172,5,0.0016257388051599264,0.00023493180924560875,-3.0186323783709668e-05,0.06679857522249222,-0.04509131610393524,0.06031862646341324,-0.22089295089244843,-0.01239128690212965,0.0214433204382658,0.30534830689430237,0.4244294762611389,0.103192038834095,0.0,0.0,0.0,0.020087620243430138,0.023713771253824234,-0.0,0.0,0.0,0.0,0.004999999888241291,0.0038947041612118483,0.002274247817695141,45579.0,0.0,47878.0,25939.0,0.20466329157352448,-0.01119561493396759,0.2194094955921173,0.09600939601659775,0.0,0.0,0.0,0.0,45232.0,0.0,47834.0,26000.0,0.7631940841674805,-0.17909666666799737,-0.038429901464746063,-0.06350216956703587
177,5,0.0020956266671419144,0.0005059503600932658,-0.0004574409977067262,0.08582386374473572,-0.051469992846250534,0.07791124284267426,-0.21836555004119873,-0.01602817326784134,0.021284576505422592,0.11424904316663742,0.1864929348230362,0.004769815132021904,0.0,0.0,0.0,0.02308293804526329,0.030433816835284233,-0.0,0.0,0.0,0.0,0.004999999888241291,0.0007047338876873255,0.002159167779609561,43807.0,0.0,48415.0,25177.0,0.19359105825424194,-0.0002052411437034607,0.22291696071624756,0.0924200788140297,0.0,0.0,0.0,0.0,43117.0,1486.0,48469.0,25102.0,0.7633823752403259,-0.18476152040113464,-0.01138364339511101,-0.07522255376045474
182,5,0.0016309675993397832,0.00029904922121204436,0.00011468199954833835,-0.03930509462952614,0.013525164686143398,-0.05672384425997734,-0.21836555004119873,-0.01602817326784134,0.021284576505422592,0.11424904316663742,0.1864929348230362,0.004769815132021904,0.0,0.0,0.0,-0.006624615751206875,-0.018422788009047508,-0.0,0.0,0.0,0.0,0.004999999888241291,0.0007047338876873255,0.002159167779609561,43807.0,0.0,48415.0,25177.0,0.19359105825424194,-0.0002052411437034607,0.22291696071624756,0.0924200788140297,0.0,0.0,0.0,0.0,43117.0,1486.0,48469.0,25102.0,0.5086478590965271,-0.18057537335980978,-0.04042679268652443,-0.06354765632395436
187,5,0.0015536344144493341,0.0002816923661157489,0.000297155580483377,-0.022618170827627182,0.006487506441771984,-0.042563457041978836,-0.2174898087978363,-0.016179317608475685,0.021320156753063202,0.15783043205738068,-0.07917661964893341,-0.025442609563469887,0.0,0.0,0.0,-0.0030457216780632734,-0.00994455348700285,-0.0,0.0,0.0,0.0,0.004999999888241291,0.00027044207672588527,0.0021006844472140074,50855.0,22793.0,59127.0,35476.0,0.23913630843162537,0.08148515969514847,0.2976738512516022,0.14489883184432983,0.0,0.0,0.0,0.0,40853.0,6077.0,50175.0,22622.0,0.5085778832435608,-0.18314465521526688,-0.045461599800937655,-0.06391933766049206
192,5,0.0018341580871492624,0.0005106616299599409,0.0001268491760129109,0.032487861812114716,-0.03010944090783596,0.011073860339820385,-0.2174898087978363,-0.016179317608475685,0.021320156753063202,0.15783043205738068,-0.07917661964893341,-0.025442609563469887,0.0,0.0,0.0,0.01578351855278015,0.0183840524405241,-0.0,0.0,0.0,0.0,0.004999999888241291,0.00027044207672588527,0.0021006844472140074,50855.0,22793.0,59127.0,35476.0,0.23913630843162537,0.08148515969514847,0.2976738512516022,0.14489883184432983,0.0,0.0,0.0,0.0,40853.0,6077.0,50175.0,22622.0,0.5086997151374817,-0.17923504528895068,-0.034118789284611276,-0.06443116498626769
197,5,0.0017890335293486714,0.0004715240793302655,-5.2053281251573935e-05,0.0034289166796952486,-0.003553575836122036,0.028368502855300903,-0.2143443375825882,-0.013960196636617184,0.021256832405924797,0.3248060643672943,-0.2394731491804123,-0.08656270802021027,0.0,0.0,0.0,0.002233035396784544,0.003578739706426859,-0.0,0.0,0.0,0.0,0.004999999888241291,-0.0016191060421988368,0.00190604361705482,37531.0,11794.0,50900.0,21526.0,0.15639519691467285,0.036953091621398926,0.23943814635276794,0.075861357152462,0.0,0.0,0.0,0.0,50264.0,23672.0,59296.0,35246.0,0.5085549354553223,-0.17505035453163262,-0.04658974156655266,-0.06117164471443615
202,5,0.0014406905975192785,0.0003505414060782641,0.0005312175489962101,-0.04773932695388794,0.015871498733758926,-0.07314736396074295,-0.2143443375825882,-0.013960196636617184,0.021256832405924797,0.3248060643672943,-0.2394731491804123,-0.08656270802021027,0.0,0.0,0.0,-0.007748361676931381,-0.02272692881524563,-0.0,0.0,0.0,0.0,0.004999999888241291,-0.0016191060421988368,0.00190604361705482,37531.0,11794.0,50900.0,21526.0,0.15639519691467285,0.036953091621398926,0.23943814635276794,0.075861357152462,0.0,0.0,0.0,0.0,50264.0,23672.0,59296.0,35246.0,0.5086970329284668,-0.1829248326793341,-0.04932956928788049,-0.06598097418892539
207,5,0.0017711319960653782,0.00035494292387738824,0.0003758535021916032,0.031939998269081116,0.004145239945501089,-0.00019324129971209913,-0.2112877070903778,-0.011785533279180527,0.020719436928629875,0.5010837912559509,-0.2770784795284271,-0.15959449112415314,0.0,0.0,0.0,-0.0017629676731303334,0.01816074177622795,-0.0,0.0,0.0,0.0,0.004999999888241291,-0.0007388648809865117,0.0018136685248464346,38383.0,10433.0,49508.0,23615.0,0.16125640273094177,0.03211790323257446,0.2301207184791565,0.08520481735467911,0.0,0.0,0.0,0.0,37432.0,11950.0,50608.0,21972.0,0.5086350440979004,-0.18408452495376032,-0.034957087022011495,-0.07607910058700783
212,5,0.0016680561238899827,0.00047945010010153055,0.00047555105993524194,-0.004848628770560026,-0.016187436878681183,-0.014015630818903446,-0.2112877070903778,-0.011785533279180527,0.020719436928629875,0.5010837912559509,-0.2770784795284271,-0.15959449112415314,0.0,0.0,0.0,0.008606881834566593,-0.0005523286527022719,-0.0,0.0,0.0,0.0,0.004999999888241291,-0.0007388648809865117,0.0018136685248464346,38383.0,10433.0,49508.0,23615.0,0.16125640273094177,0.03211790323257446,0.2301207184791565,0.08520481735467911,0.0,0.0,0.0,0.0,37432.0,11950.0,50608.0,21972.0,0.5085697770118713,-0.17355029223806365,-0.040044122141295845,-0.0689879625673106
217,5,0.0011757861357182264,0.00010543161624809727,0.001018099021166563,-0.07037238776683807,0.04750635847449303,-0.08016141504049301,-0.19634193181991577,-0.0068192738108336926,0.019878102466464043,1.139736294746399,-0.2263110727071762,0.03695054352283478,0.0,0.0,0.0,-0.02082531899213791,-0.022909117862582207,-0.0,0.0,0.0,0.0,0.004459128715097904,-0.0015712131280452013,0.0020225823391228914,39121.0,11317.0,50937.0,19764.0,0.16551586985588074,0.03524068742990494,0.23968954384326935,0.06825076043605804,0.0,0.0,0.0,0.0,38681.0,9940.0,49504.0,23621.0,0.763191282749176,-0.17714726155936444,-0.061791355150386966,-0.06625254301407991
222,5,0.0016035509761422873,0.0002038339589489624,0.0005512490752153099,0.03877536207437515,0.00047557949437759817,0.04131057485938072,-0.19634193181991577,-0.0068192738108336926,0.019878102466464043,1.139736294746399,-0.2263110727071762,0.03695054352283478,0.0,0.0,0.0,1.067021548806224e-05,0.02160908654332161,-0.0,0.0,0.0,0.0,0.004459128715097904,-0.0015712131280452013,0.0020225823391228914,39121.0,11317.0,50937.0,19764.0,0.16551586985588074,0.03524068742990494,0.23968954384326935,0.06825076043605804,0.0,0.0,0.0,0.0,38681.0,9940.0,49504.0,23621.0,0.5086691379547119,-0.1654024715975351,-0.03823058131812925,-0.06737028280445552
227,5,0.0012059725122526288,5.5494110711151734e-05,0.00128382898401469,-0.044028379023075104,0.02091025374829769,-0.09016801416873932,-0.18022377789020538,-0.005324759986251593,0.020571529865264893,1.5560868978500366,-0.03302307426929474,-0.0013009246904402971,0.0,0.0,0.0,-0.009110911749303341,-0.01390706468373537,-0.0,0.0,0.0,0.0,0.003952289465814829,-0.0007948112324811518,0.002079194411635399,40980.0,9897.0,49876.0,20011.0,0.17644423246383667,0.030254878103733063,0.2325676679611206,0.0693030059337616,0.0,0.0,0.0,0.0,39804.0,11421.0,50921.0,18755.0,0.7629310488700867,-0.17400900842859357,-0.05940489383475015,-0.06958963740658457
232,5,0.0013183166738599539,0.00011249502858845517,0.0011537858517840505,0.002519666450098157,-0.0017070525791496038,-0.008844361640512943,-0.18022377789020538,-0.005324759986251593,0.020571529865264893,1.5560868978500366,-0.03302307426929474,-0.0013009246904402971,0.0,0.0,0.0,0.0010586330899968743,0.002973748603835702,-0.0,0.0,0.0,0.0,0.003952289465814829,-0.0007948112324811518,0.002079194411635399,40980.0,9897.0,49876.0,20011.0,0.17644423246383667,0.030254878103733063,0.2325676679611206,0.0693030059337616,0.0,0.0,0.0,0.0,39804.0,11421.0,50921.0,18755.0,0.5085529088973999,-0.16103397671186795,-0.05274936268460808,-0.06971525844414589
237,5,0.0015077291755005717,0.0001800170575734228,0.0007365566561929882,0.027273645624518394,-0.009965200908482075,0.055758778005838394,-0.16627465188503265,-0.005367663223296404,0.020238833501935005,1.949416160583496,0.031836122274398804,-0.06686989217996597,0.0,0.0,0.0,0.005320938769727945,0.015761326998472214,-0.0,0.0,0.0,0.0,0.0023763717617839575,0.001314797205850482,0.0019642929546535015,43855.0,10495.0,45795.0,21653.0,0.1938839852809906,0.032334499061107635,0.2060333490371704,0.07641752809286118,0.0,0.0,0.0,0.0,42035.0,9501.0,48585.0,20843.0,0.5086207985877991,-0.14014540713168572,-0.045344558593168605,-0.0718434941603459
242,5,0.0015104406047612429,0.000365829182555899,0.0008401339291594923,0.00856170617043972,-0.029003256931900978,0.002226816024631262,-0.16627465188503265,-0.005367663223296404,0.020238833501935005,1.949416160583496,0.031836122274398804,-0.06686989217996597,0.0,0.0,0.0,0.015169434249401093,0.006258699111640453,-0.0,0.0,0.0,0.0,0.0023763717617839575,0.001314797205850482,0.0019642929546535015,43855.0,10495.0,45795.0,21653.0,0.1938839852809906,0.032334499061107635,0.2060333490371704,0.07641752809286118,0.0,0.0,0.0,0.0,42035.0,9501.0,48585.0,20843.0,0.5086188912391663,-0.12968398246454152,-0.042707933977692084,-0.06952005370880981
247,5,0.0018657685723155737,0.0001692966470727697,0.0005394955514930189,0.05231442674994469,0.01881357841193676,0.042757414281368256,-0.1409362256526947,-0.006669480353593826,0.01989840343594551,2.2811548709869385,0.16947665810585022,0.04898075759410858,0.0,0.0,0.0,-0.009339278563857079,0.028853029012680054,-0.0,0.0,0.0,0.0,0.0012051316443830729,0.0013952720910310745,0.002004473004490137,44963.0,12316.0,45486.0,18955.0,0.20078766345977783,0.03884690999984741,0.20407557487487793,0.0648428201675415,0.0,0.0,0.0,0.0,45871.0,12348.0,45013.0,18266.0,0.5087843537330627,-0.14922394088657426,-0.025336199444452593,-0.09413799443506439
252,5,0.0023066445719450712,0.00043648359132930636,0.00010544238466536626,0.07741697132587433,-0.03176209703087807,0.07359466701745987,-0.1409362256526947,-0.006669480353593826,0.01989840343594551,2.2811548709869385,0.16947665810585022,0.04898075759410858,0.0,0.0,0.0,0.014416791498661041,0.028013266623020172,-0.0,0.0,0.0,0.0,0.0012051316443830729,0.0013952720910310745,0.002004473004490137,44963.0,12316.0,45486.0,18955.0,0.20078766345977783,0.03884690999984741,0.20407557487487793,0.0648428201675415,0.0,0.0,0.0,0.0,45871.0,12348.0,45013.0,18266.0,0.7632043361663818,-0.11012592187777259,0.004813699105087497,-0.08771287373537853
258,5,0.0021079217549413443,0.0002810648875311017,0.0004346829664427787,-0.004596096929162741,0.012229988351464272,-0.024015279486775398,-0.1409362256526947,-0.006669480353593826,0.01989840343594551,2.2811548709869385,0.16947665810585022,0.04898075759410858,0.0,0.0,0.0,-0.005889972671866417,0.0001252090441994369,-0.0,0.0,0.0,0.0,0.0012051316443830729,0.0013952720910310745,0.002004473004490137,44963.0,12316.0,45486.0,18955.0,0.20078766345977783,0.03884690999984741,0.20407557487487793,0.0648428201675415,0.0,0.0,0.0,0.0,45871.0,12348.0,45013.0,18266.0,0.5085592269897461,-0.10224988214021109,-0.0011404454001918151,-0.08708067489012358
263,5,0.0013605906860902905,0.00042345569818280637,0.0009312863112427294,-0.10600519180297852,-0.016265718266367912,-0.07672905176877975,-0.1214846670627594,-0.007727785035967827,0.02049531601369381,2.540895462036133,0.11242374032735825,0.04288741573691368,0.0,0.0,0.0,0.007577421609312296,-0.034712012857198715,-0.0,0.0,0.0,0.0,-0.00016650317411404103,0.0012729401933029294,0.0021359724923968315,46804.0,12342.0,44838.0,17095.0,0.2124679982662201,0.0389423593878746,0.20000484585762024,0.05720379203557968,0.0,0.0,0.0,0.0,46940.0,13468.0,44337.0,16621.0,0.7633073329925537,-0.0844941241703971,-0.03068650020150779,-0.0771211009201895
268,5,0.0017960534896701574,0.00029583778814412653,0.0007415417348966002,0.029163232073187828,0.012986792251467705,0.003545527346432209,-0.1214846670627594,-0.007727785035967827,0.02049531601369381,2.540895462036133,0.11242374032735825,0.04288741573691368,0.0,0.0,0.0,0.007584904320538044,-0.03469354286789894,-0.0,0.0,0.0,0.0,-0.00016650317411404103,0.0012729401933029294,0.0021359724923968315,46804.0,12342.0,44838.0,17095.0,0.2124679982662201,0.0389423593878746,0.20000484585762024,0.05720379203557968,0.0,0.0,0.0,0.0,46940.0,13468.0,44337.0,16621.0,0.7633068561553955,-0.07855951345014653,-0.014538745786803722,-0.08315236255346604
273,5,0.0016478924080729485,0.00020393432350829244,0.0009263472747988999,-0.011993584223091602,0.016762522980570793,-0.02480912208557129,-0.09035439789295197,-0.009059238247573376,0.020292913541197777,2.662311553955078,0.10587896406650543,-0.03849541023373604,0.0,0.0,0.0,-0.008238299749791622,-0.003888425650075078,-0.0,0.0,0.0,0.0,-0.0006706673884764314,0.000812486105132848,0.0020283996127545834,46758.0,15360.0,43767.0,15986.0,0.21216946840286255,0.050327204167842865,0.19334444403648376,0.05277787894010544,0.0,0.0,0.0,0.0,47477.0,17688.0,42543.0,14314.0,0.5085715055465698,-0.06839508810003675,-0.015544221052605748,-0.08439584060227297
278,5,0.0016577966744080186,0.00021039140119682997,0.001123925088904798,-0.002211479702964425,0.004124764818698168,-0.03510362282395363,-0.09035439789295197,-0.009059238247573376,0.020292913541197777,2.662311553955078,0.10587896406650543,-0.03849541023373604,0.0,0.0,0.0,-0.0017931247130036354,0.0011309325927868485,-0.0,0.0,0.0,0.0,-0.0006706673884764314,0.000812486105132848,0.0020283996127545834,46758.0,15360.0,43767.0,15986.0,0.21216946840286255,0.050327204167842865,0.19334444403648376,0.05277787894010544,0.0,0.0,0.0,0.0,47477.0,17688.0,42543.0,14314.0,0.5085515379905701,-0.047700793807919736,-0.009465232077212914,-0.08066173196945182
283,5,0.0014767537359148264,4.321703818277456e-05,0.0012277003843337297,-0.01822739839553833,0.018664924427866936,-0.007578960154205561,-0.06823422014713287,-0.009100835770368576,0.020310578867793083,2.841212272644043,-0.06193733960390091,0.031311821192502975,0.0,0.0,0.0,-0.0017837557243183255,0.0011734293075278401,-0.0,0.0,0.0,0.0,-0.00270207691937685,0.000396324583562091,0.002043086802586913,48137.0,19394.0,42628.0,11084.0,0.22109858691692352,0.06668613851070404,0.18636175990104675,0.034412726759910583,0.0,0.0,0.0,0.0,49134.0,19100.0,41771.0,11071.0,0.5085515379905701,-0.032486481852492755,-0.008524664160882283,-0.08002664786932161
288,5,0.0013980151852592826,0.0002205714990850538,0.0014284227509051561,-0.016491621732711792,-0.019230147823691368,-0.03037482127547264,-0.06823422014713287,-0.009100835770368576,0.020310578867793083,2.841212272644043,-0.06193733960390091,0.031311821192502975,0.0,0.0,0.0,-0.009321039542555809,-0.007096809335052967,-0.0,0.0,0.0,0.0,-0.00270207691937685,0.000396324583562091,0.002043086802586913,48137.0,19394.0,42628.0,11084.0,0.22109858691692352,0.06668613851070404,0.18636175990104675,0.034412726759910583,0.0,0.0,0.0,0.0,49134.0,19100.0,41771.0,11071.0,0.5085852742195129,-0.00968946706710999,-0.007839684887998214,-0.08040896717430905
293,5,0.0013980151852592826,0.0002205714990850538,0.0014284227509051561,-0.016491621732711792,-0.019230147823691368,-0.03037482127547264,-0.03347417712211609,-0.007962528616189957,0.02081478387117386,2.9515795707702637,-0.1668374091386795,0.047515787184238434,0.0,0.0,0.0,0.010132587514817715,-0.006243371404707432,-0.0,0.0,0.0,0.0,-0.0036699760239571333,0.0002146738552255556,0.0021261884830892086,49527.0,19907.0,42024.0,8892.0,0.23024840652942657,0.0688617080450058,0.1827009916305542,0.026824183762073517,0.0,0.0,0.0,0.0,48837.0,21872.0,42873.0,6071.0,0.5085864067077637,-0.00968946706710999,-0.007839684887998214,-0.08040896717430905
298,5,0.0014491435140371323,0.00019939744379371405,0.0014282820047810674,0.019826147705316544,-0.02004733495414257,0.004741477780044079,-0.03347417712211609,-0.007962528616189957,0.02081478387117386,2.9515795707702637,-0.1668374091386795,0.047515787184238434,0.0,0.0,0.0,0.010137160308659077,-0.00621439516544342,-0.0,0.0,0.0,0.0,-0.0036699760239571333,0.0002146738552255556,0.0021261884830892086,49527.0,19907.0,42024.0,8892.0,0.23024840652942657,0.0688617080450058,0.1827009916305542,0.026824183762073517,0.0,0.0,0.0,0.0,48837.0,21872.0,42873.0,6071.0,0.5085863471031189,0.01782360418579356,-0.0004595576795738018,-0.07864732950065216
303,5,0.001764478161931038,0.0002631586685311049,0.0008004613337107003,0.050094690173864365,-0.014940770342946053,0.08931733667850494,-0.00970311090350151,-0.005993673112243414,0.02107580378651619,2.9669928550720215,-0.2933119833469391,0.024461830034852028,0.0,0.0,0.0,0.009136103093624115,0.008243468590080738,-0.0,0.0,0.0,0.0,-0.004832034464925528,-0.0013868662063032389,0.0021256492473185062,48937.0,23969.0,42723.0,3036.0,0.22634388506412506,0.08682246506214142,0.1869390904903412,0.008446104824543,0.0,0.0,0.0,0.0,48881.0,23866.0,43015.0,2724.0,0.7628833651542664,0.062241683551904195,-0.007450845605630877,-0.06680949724508556
308,5,0.0017608635826036334,0.00014704115164931864,0.0009533909033052623,0.014522374607622623,0.011774220503866673,0.005385064519941807,-0.00970311090350151,-0.005993673112243414,0.02107580378651619,2.9669928550720215,-0.2933119833469391,0.024461830034852028,0.0,0.0,0.0,-0.005710863042622805,0.009937696158885956,-0.0,0.0,0.0,0.0,-0.004832034464925528,-0.0013868662063032389,0.0021256492473185062,48937.0,23969.0,42723.0,3036.0,0.22634388506412506,0.08682246506214142,0.1869390904903412,0.008446104824543,0.0,0.0,0.0,0.0,48881.0,23866.0,43015.0,2724.0,0.5085837841033936,0.07300453853543698,-0.005262524413132169,-0.06766225748593505
313,5,0.0017718140734359622,0.0001499521022196859,0.0009121407056227326,0.0058897812850773335,0.0031247329898178577,0.007390543818473816,0.02519628405570984,-0.0015458441339433193,0.02141706645488739,2.837238073348999,-0.41506582498550415,0.031403664499521255,0.0,0.0,0.0,-0.005707863252609968,0.00997359212487936,-0.0,0.0,0.0,0.0,-0.004999999888241291,-0.002471010899171233,0.002219949848949909,48666.0,24810.0,43572.0,441.0,0.22456058859825134,0.09070824831724167,0.19213613867759705,0.001181475818157196,0.0,0.0,0.0,0.0,48329.0,25284.0,44093.0,0.0,0.5085839629173279,0.08948383048108301,-0.0013427228209541293,-0.06593975182889954
318,5,0.0016592723550274968,9.80916665866971e-05,0.0010766839841380715,-0.013988910242915154,0.00819788035005331,-0.02081889472901821,0.02519628405570984,-0.0015458441339433193,0.02141706645488739,2.837238073348999,-0.41506582498550415,0.031403664499521255,0.0,0.0,0.0,-0.0012943492038175464,0.005619065370410681,-0.0,0.0,0.0,0.0,-0.004999999888241291,-0.002471010899171233,0.002219949848949909,48666.0,24810.0,43572.0,441.0,0.22456058859825134,0.09070824831724167,0.19213613867759705,0.001181475818157196,0.0,0.0,0.0,0.0,48329.0,25284.0,44093.0,0.0,0.5085597038269043,0.10001900676559476,0.0010033501075289118,-0.06599308939155307
323,5,0.0017692988039925694,-0.0003605580423027277,0.0012235072208568454,0.011207026429474354,0.06667032092809677,-0.02680092118680477,0.04708491638302803,0.0022106587421149015,0.021676581352949142,2.629721164703369,-0.5201756358146667,0.038971107453107834,0.0,0.0,0.0,-0.03405650332570076,0.00836181454360485,-0.0,0.0,0.0,0.0,-0.004999999888241291,-0.0034661961253732443,0.0021619133185595274,48503.0,25043.0,44270.0,0.0,0.22348980605602264,0.09179450571537018,0.19645851850509644,-0.0031254366040229797,0.0,0.0,0.0,0.0,48700.0,24766.0,43919.0,0.0,0.5088632702827454,0.07161045707648941,0.02667288643547016,-0.08525197959591464
329,5,0.001708035240881145,-0.0004265609895810485,0.0012451860820874572,-0.0052147796377539635,0.02924150973558426,-0.011075315997004509,0.04708491638302803,0.0022106587421149015,0.021676581352949142,2.629721164703369,-0.5201756358146667,0.038971107453107834,0.0,0.0,0.0,-0.03406395763158798,0.00839848443865776,-0.0,0.0,0.0,0.0,-0.004999999888241291,-0.0034661961253732443,0.0021619133185595274,48503.0,25043.0,44270.0,0.0,0.22348980605602264,0.09179450571537018,0.19645851850509644,-0.0031254366040229797,0.0,0.0,0.0,0.0,48700.0,24766.0,43919.0,0.0,0.5088635087013245,0.07042917581038458,0.031093630116426574,-0.08913893063554074
334,5,0.0017853273311629891,-0.00011050501780118793,0.0009477130952291191,0.0092564532533288,-0.03547538444399834,0.038323622196912766,0.07709872722625732,0.008585548028349876,0.021234164014458656,2.3611159324645996,-0.5541216135025024,-0.06694776564836502,0.0,0.0,0.0,-0.015059782192111015,1.78953523573e-05,-0.0,0.0,0.0,0.0,-0.004999999888241291,-0.004558714106678963,0.0018577463924884796,44367.0,30443.0,43750.0,25.0,0.1970645636320114,0.11819086968898773,0.19323696196079254,6.724148988723755e-05,0.0,0.0,0.0,0.0,46892.0,27237.0,43779.0,0.0,0.5086483955383301,0.11216783157387054,0.026825455853527923,-0.07618146265947519
339,5,0.002696521347388625,0.00016842971672303975,-0.00011238137813052163,0.13034409284591675,-0.049693480134010315,0.15991030633449554,0.07709872722625732,0.008585548028349876,0.021234164014458656,2.3611159324645996,-0.5541216135025024,-0.06694776564836502,0.0,0.0,0.0,0.018161045387387276,0.0074892910197377205,-0.0,0.0,0.0,0.0,-0.004999999888241291,-0.004558714106678963,0.0018577463924884796,44367.0,30443.0,43750.0,25.0,0.1970645636320114,0.11819086968898773,0.19323696196079254,6.724148988723755e-05,0.0,0.0,0.0,0.0,46892.0,27237.0,43779.0,0.0,0.7638413906097412,0.1272759263345484,0.05686800373219249,-0.07417243534528696
344,5,0.0014040834503248334,-0.00025498864124529064,0.0015562347834929824,-0.14183807373046875,0.04437052831053734,-0.18563316762447357,0.09457974135875702,0.013729924336075783,0.01990385353565216,1.994498372077942,-0.7444606423377991,-0.1964951753616333,0.0,0.0,0.0,0.02218380756676197,0.04660535231232643,-0.0,0.0,0.0,0.0,-0.004999999888241291,-0.004999999888241291,0.0015401903074234724,42330.0,32853.0,42330.0,3150.0,0.18455198407173157,0.1307276487350464,0.18455198407173157,0.008776433765888214,0.0,0.0,0.0,0.0,43286.0,31739.0,43286.0,1081.0,0.763842761516571,0.11308619536907312,0.04049495817421355,-0.08629721640285884
349,5,0.0010502736549824476,-0.0005647857906296849,0.0018244624370709062,-0.09208479523658752,0.0566827617585659,-0.09324181824922562,0.09457974135875702,0.013729924336075783,0.01990385353565216,1.994498372077942,-0.7444606423377991,-0.1964951753616333,0.0,0.0,0.0,-0.025050275027751923,-0.029570071026682854,-0.0,0.0,0.0,0.0,-0.004999999888241291,-0.004999999888241291,0.0015401903074234724,42330.0,32853.0,42330.0,3150.0,0.18455198407173157,0.1307276487350464,0.18455198407173157,0.008776433765888214,0.0,0.0,0.0,0.0,43286.0,31739.0,43286.0,1081.0,0.7633987069129944,0.11284132578241665,0.03947087696784326,-0.07834628961593708
354,5,0.0011988457990810275,-0.0005028318264521658,0.0016338243149220943,-0.006825335789471865,0.00833127461373806,-0.0012832095380872488,0.11623352766036987,0.023228125646710396,0.016520988196134567,1.6194580793380737,-0.8528350591659546,-0.1904398500919342,0.0,0.0,0.0,-0.029131991788744926,-0.0445866659283638,-0.0,0.0,0.0,0.0,-0.004999999888241291,-0.004582301247864962,0.0015433357330039144,53021.0,43056.0,52013.0,21088.0,0.2539282739162445,0.18896862864494324,0.2469998002052307,0.07394588738679886,0.0,0.0,0.0,0.0,42007.0,33221.0,42007.0,3815.0,0.5092723965644836,0.1211440147043652,0.04431001998171624,-0.07809210792718119
359,5,0.0011091458145529032,-0.000535172934178263,0.001639192458242178,-0.014605609700083733,0.007027138024568558,-0.0011365036480128765,0.11623352766036987,0.023228125646710396,0.016520988196134567,1.6194580793380737,-0.8528350591659546,-0.1904398500919342,0.0,0.0,0.0,-0.004488356877118349,-0.001022209646180272,-0.0,0.0,0.0,0.0,-0.004999999888241291,-0.004582301247864962,0.0015433357330039144,53021.0,43056.0,52013.0,21088.0,0.2539282739162445,0.18896862864494324,0.2469998002052307,0.07394588738679886,0.0,0.0,0.0,0.0,42007.0,33221.0,42007.0,3815.0,0.5085557699203491,0.13007938129168817,0.05279276085082009,-0.07286343024425472
364,5,0.0012266222620382905,-0.00040186880505643785,0.0015261644730344415,0.01206502877175808,-0.016554441303014755,0.015482962131500244,0.11623352766036987,0.023228125646710396,0.016520988196134567,1.6194580793380737,-0.8528350591659546,-0.1904398500919342,0.0,0.0,0.0,-0.003859260119497776,-0.0050336141139268875,-0.0,0.0,0.0,0.0,-0.004999999888241291,-0.004582301247864962,0.0015433357330039144,53021.0,43056.0,52013.0,21088.0,0.2539282739162445,0.18896862864494324,0.2469998002052307,0.07394588738679886,0.0,0.0,0.0,0.0,42007.0,33221.0,42007.0,3815.0,0.5085867643356323,0.14643096809591014,0.05287945354859331,-0.0705260698985811
369,5,0.0007055942551232874,-0.0005233163246884942,0.002073433017358184,-0.06932441145181656,0.01203632541000843,-0.07197269797325134,0.14002753794193268,0.040383342653512955,0.015454892069101334,0.76691734790802,-0.8318018913269043,0.158916175365448,0.0,0.0,0.0,0.007152625825256109,0.005783652886748314,-0.0,0.0,0.0,0.0,-0.004999999888241291,-0.004999999888241291,0.0017498962115496397,53269.0,42738.0,53269.0,19011.0,0.2556500732898712,0.18702885508537292,0.2556500732898712,0.06507764011621475,0.0,0.0,0.0,0.0,52872.0,43223.0,52371.0,20522.0,0.7628578543663025,0.13715402085440673,0.04796023807178772,-0.07243095163050146
374,5,0.0010379909072071314,-0.00013350951485335827,0.0014429218135774136,0.025738205760717392,-0.05096206068992615,0.06667974591255188,0.14002753794193268,0.040383342653512955,0.015454892069101334,0.76691734790802,-0.8318018913269043,0.158916175365448,0.0,0.0,0.0,-0.006419078912585974,-0.03317885100841522,-0.0,0.0,0.0,0.0,-0.004999999888241291,-0.004999999888241291,0.0017498962115496397,53269.0,42738.0,53269.0,19011.0,0.2556500732898712,0.18702885508537292,0.2556500732898712,0.06507764011621475,0.0,0.0,0.0,0.0,52872.0,43223.0,52371.0,20522.0,0.5088409185409546,0.15409346112994074,0.0590789707140633,-0.06417830716700133
380,5,0.0003578487376216799,-0.0007118164212442935,0.002452628221362829,-0.08749844133853912,0.06567434966564178,-0.12135495990514755,0.14424462616443634,0.04675738885998726,0.01627735234797001,0.27939894795417786,-0.7764479517936707,0.23633217811584473,0.0,0.0,0.0,0.02251407690346241,0.010357532650232315,-0.0,0.0,0.0,0.0,-0.004999999888241291,-0.004999999888241291,0.0018591983243823051,44321.0,30503.0,44321.0,0.0,0.1967761367559433,0.11849285662174225,0.1967761367559433,-0.003458365797996521,0.0,0.0,0.0,0.0,53297.0,42706.0,53297.0,18965.0,0.7630599141120911,0.12970759165532667,0.043037010863306885,-0.06554324155827074
385,5,0.0005558531265705824,-0.0005325587117113173,0.0022256753873080015,0.0014710793038830161,-0.005393770523369312,-0.004633099772036076,0.14424462616443634,0.04675738885998726,0.01627735234797001,0.27939894795417786,-0.7764479517936707,0.23633217811584473,0.0,0.0,0.0,0.00243628048337996,0.0028072462882846594,-0.0,0.0,0.0,0.0,-0.004999999888241291,-0.004999999888241291,0.0018591983243823051,44321.0,30503.0,44321.0,0.0,0.1967761367559433,0.11849285662174225,0.1967761367559433,-0.003458365797996521,0.0,0.0,0.0,0.0,53297.0,42706.0,53297.0,18965.0,0.5085539221763611,0.13493610873361997,0.050237042885739505,-0.06558554060112191
390,5,0.0006005713366903365,-0.0004268318007234484,0.0022967825643718243,0.006701874081045389,-0.016419898718595505,-0.011344928294420242,0.14376619458198547,0.055627088993787766,0.017152123153209686,-0.3102252185344696,-0.637317419052124,0.12690338492393494,0.0,0.0,0.0,0.008125734515488148,0.005518872756510973,-0.0,0.0,0.0,0.0,-0.0036442268174141645,-0.004999999888241291,0.001825928338803351,42677.0,28998.0,45548.0,2451.0,0.18665653467178345,0.11089716106653214,0.20447009801864624,0.0067595019936561584,0.0,0.0,0.0,0.0,44621.0,29836.0,44864.0,0.0,0.5085749626159668,0.14104659156937657,0.0512048529175428,-0.06466937688231261
395,5,0.0010841797338798642,-0.00018401459965389222,0.0015427165199071169,0.06971573829650879,-0.03892038017511368,0.10216575860977173,0.14376619458198547,0.055627088993787766,0.017152123153209686,-0.3102252185344696,-0.637317419052124,0.12690338492393494,0.0,0.0,0.0,0.017128191888332367,0.02534034475684166,-0.0,0.0,0.0,0.0,-0.0036442268174141645,-0.004999999888241291,0.001825928338803351,42677.0,28998.0,45548.0,2451.0,0.18665653467178345,0.11089716106653214,0.20447009801864624,0.0067595019936561584,0.0,0.0,0.0,0.0,44621.0,29836.0,44864.0,0.0,0.763182520866394,0.14289219582288554,0.06038543850889439,-0.06309063011730308
400,5,-0.00010119170474354178,-0.001022328739054501,0.0028844678308814764,-0.14503727853298187,0.10568785667419434,-0.15719546377658844,0.13912911713123322,0.06023983657360077,0.0170002281665802,-0.8209694027900696,-0.4552755653858185,0.017652245238423347,0.0,0.0,0.0,0.01712493598461151,0.02535507082939148,-0.0,0.0,0.0,0.0,-0.0033652763813734055,-0.004938510712236166,0.0017509728204458952,42147.0,28911.0,44969.0,4843.0,0.18344300985336304,0.11046329885721207,0.20082536339759827,0.013822272419929504,0.0,0.0,0.0,0.0,42455.0,28571.0,45748.0,3215.0,0.7631827592849731,0.10363907899729875,0.044297170859436776,-0.059687822459096894
405,5,0.0004370780079625547,-0.00011640183947747573,0.0025167244020849466,0.03184657543897629,-0.09512340277433395,0.004325456917285919,0.13912911713123322,0.06023983657360077,0.0170002281665802,-0.8209694027900696,-0.4552755653858185,0.017652245238423347,0.0,0.0,0.0,0.04196620360016823,0.012161179445683956,-0.0,0.0,0.0,0.0,-0.0033652763813734055,-0.004938510712236166,0.0017509728204458952,42147.0,28911.0,44969.0,4843.0,0.18344300985336304,0.11046329885721207,0.20082536339759827,0.013822272419929504,0.0,0.0,0.0,0.0,42455.0,28571.0,45748.0,3215.0,0.7635542750358582,0.13704611921981263,0.04515607479303564,-0.06802585352266037
410,5,0.000633285497315228,1.2722202882287093e-05,0.0022038959432393312,0.03702302649617195,-0.0466143861413002,0.04509361460804939,0.126750186085701,0.06417369842529297,0.017123624682426453,-1.278002142906189,-0.19163140654563904,0.07508109509944916,0.0,0.0,0.0,0.04196414723992348,0.012167119421064854,-0.0,0.0,0.0,0.0,-0.002322554588317871,-0.0034145982936024666,0.001781243016012013,52807.0,36428.0,54071.0,26631.0,0.2524508237838745,0.15018104016780853,0.261238157749176,0.09931261837482452,0.0,0.0,0.0,0.0,52866.0,35700.0,54406.0,26897.0,0.7635542750358582,0.13884873386132027,0.04901319082902638,-0.06325154851311446
415,5,0.001005113823339343,0.00013017441960982978,0.0017769495025277138,0.06316286325454712,-0.03042762540280819,0.07330058515071869,0.126750186085701,0.06417369842529297,0.017123624682426453,-1.278002142906189,-0.19163140654563904,0.07508109509944916,0.0,0.0,0.0,0.013563518412411213,0.023102961480617523,-0.0,0.0,0.0,0.0,-0.002322554588317871,-0.0034145982936024666,0.001781243016012013,52807.0,36428.0,54071.0,26631.0,0.2524508237838745,0.15018104016780853,0.261238157749176,0.09931261837482452,0.0,0.0,0.0,0.0,52866.0,35700.0,54406.0,26897.0,0.7630994319915771,0.12981102729560015,0.06322761433596481,-0.06184273785370485
420,5,0.0011800643987953663,0.0002506147138774395,0.001557562150992453,0.043441951274871826,-0.02598992921411991,0.052704401314258575,0.11503928154706955,0.06445135921239853,0.017872918397188187,-1.6911664009094238,0.059674642980098724,0.07359840720891953,0.0,0.0,0.0,0.01564699411392212,0.034667715430259705,-0.0,0.0,0.0,0.0,-0.0006536731962114573,-0.0013119535287842155,0.0018750849412754178,53468.0,32976.0,54448.0,28996.0,0.2570321261882782,0.1313771903514862,0.26388922333717346,0.11088409274816513,0.0,0.0,0.0,0.0,52464.0,31613.0,55770.0,30011.0,0.5089184641838074,0.1267466473380363,0.06392520646357715,-0.060630348194952055
425,5,0.0007677037501707673,6.0958984249737114e-05,0.0020403501112014055,-0.04469791054725647,0.01875482313334942,-0.05177897959947586,0.11503928154706955,0.06445135921239853,0.017872918397188187,-1.6911664009094238,0.059674642980098724,0.07359840720891953,0.0,0.0,0.0,0.013488126918673515,0.024783117696642876,-0.0,0.0,0.0,0.0,-0.0006536731962114573,-0.0013119535287842155,0.0018750849412754178,53468.0,32976.0,54448.0,28996.0,0.2570321261882782,0.1313771903514862,0.26388922333717346,0.11088409274816513,0.0,0.0,0.0,0.0,52464.0,31613.0,55770.0,30011.0,0.5087528824806213,0.10492712514041064,0.05134853153397338,-0.06516698214103399
430,5,0.0007772347889840603,2.4552360628149472e-05,0.0018585763173177838,-0.012075026519596577,0.010723373852670193,0.009914632886648178,0.09192632883787155,0.06248649209737778,0.01824115961790085,-2.1691129207611084,0.28869616985321045,-0.007974215783178806,0.0,0.0,0.0,-0.00539056584239006,-0.0037998328916728497,-0.0,0.0,0.0,0.0,0.0013425986981019378,-0.0006941289757378399,0.0017952455673366785,52051.0,30176.0,55289.0,32647.0,0.247259721159935,0.11682651937007904,0.26983219385147095,0.12963582575321198,0.0,0.0,0.0,0.0,53097.0,29798.0,54231.0,32974.0,0.5085614323616028,0.08953665980629066,0.05503299406698356,-0.06339937754821362
435,5,0.0009388487669639289,0.0002831449673976749,0.00185160874389112,0.019003450870513916,-0.032985951751470566,0.003949847538024187,0.09192632883787155,0.06248649209737778,0.01824115961790085,-2.1691129207611084,0.28869616985321045,-0.007974215783178806,0.0,0.0,0.0,-0.005390061065554619,-0.00378385535441339,-0.0,0.0,0.0,0.0,0.0013425986981019378,-0.0006941289757378399,0.0017952455673366785,52051.0,30176.0,55289.0,32647.0,0.247259721159935,0.11682651937007904,0.26983219385147095,0.12963582575321198,0.0,0.0,0.0,0.0,53097.0,29798.0,54231.0,32974.0,0.5086623430252075,0.08584851799420361,0.04982737332657352,-0.06577447457559393
441,5,0.0008690667455084622,0.00038599930121563375,0.0019144134130328894,-0.004068445879966021,-0.024295393377542496,-0.007607697509229183,0.07275617122650146,0.05971661955118179,0.01796310767531395,-2.6125543117523193,0.39820006489753723,-0.07067127525806427,0.0,0.0,0.0,0.012740029022097588,0.0003870868240483105,-0.0,0.0,0.0,0.0,0.0020383289083838463,0.0009219893254339695,0.0017595576355233788,52396.0,27676.0,54253.0,35566.0,0.2508164048194885,0.10436920821666718,0.262517511844635,0.145396426320076,0.0,0.0,0.0,0.0,40730.0,16255.0,45787.0,21078.0,0.5085917115211487,0.07601952941156087,0.04246703516901977,-0.06781937239643962
446,5,0.001198014011606574,0.00062008504755795,0.001263961661607027,0.04483207315206528,-0.0400606170296669,0.08878093212842941,0.07275617122650146,0.05971661955118179,0.01796310767531395,-2.6125543117523193,0.39820006489753723,-0.07067127525806427,0.0,0.0,0.0,0.018164297565817833,0.01705225557088852,-0.0,0.0,0.0,0.0,0.0020383289083838463,0.0009219893254339695,0.0017595576355233788,52396.0,27676.0,54253.0,35566.0,0.2508164048194885,0.10436920821666718,0.262517511844635,0.145396426320076,0.0,0.0,0.0,0.0,40730.0,16255.0,45787.0,21078.0,0.7630624175071716,0.06999512122846263,0.05749919540453327,-0.06484682103847049
451,5,0.00029843251104466617,0.00011366192484274507,0.0023621029686182737,-0.11249178647994995,0.05888104811310768,-0.1271055042743683,0.039903394877910614,0.05474863201379776,0.017321934923529625,-2.844226837158203,0.3934628963470459,-0.05262032151222229,0.0,0.0,0.0,-0.02584049291908741,-0.03682834655046463,-0.0,0.0,0.0,0.0,0.002759731374680996,7.226754678413272e-05,0.0016535769682377577,40312.0,14811.0,45673.0,23071.0,0.17248350381851196,0.04820091277360916,0.20525744557380676,0.08273748308420181,0.0,0.0,0.0,0.0,40263.0,10365.0,46256.0,25858.0,0.7635981440544128,0.017347281688388647,0.02895826439290534,-0.06786526930009765
456,5,0.0009712422615848482,0.0006280952948145568,0.001899101072922349,0.06044583022594452,-0.05435635522007942,0.02668861113488674,0.039903394877910614,0.05474863201379776,0.017321934923529625,-2.844226837158203,0.3934628963470459,-0.05262032151222229,0.0,0.0,0.0,0.02824803628027439,0.03338485211133957,-0.0,0.0,0.0,0.0,0.002759731374680996,7.226754678413272e-05,0.0016535769682377577,40312.0,14811.0,45673.0,23071.0,0.17248350381851196,0.04820091277360916,0.20525744557380676,0.08273748308420181,0.0,0.0,0.0,0.0,40263.0,10365.0,46256.0,25858.0,0.5090370178222656,0.0274512815165806,0.0382753984465449,-0.07071099602078038
461,5,0.0009735901257954538,0.0007668858743272722,0.0018389819888398051,0.01846245490014553,-0.03573758900165558,0.016423264518380165,0.01641247607767582,0.05126084014773369,0.01749093271791935,-2.9562971591949463,0.4004848301410675,0.042302656918764114,0.0,0.0,0.0,0.01889735646545887,0.01202052179723978,-0.0,0.0,0.0,0.0,0.004999999888241291,0.0011260876199230552,0.0017932286718860269,39967.0,7712.0,47615.0,26275.0,0.1704557240009308,0.02289990335702896,0.21769855916500092,0.097608283162117,0.0,0.0,0.0,0.0,39937.0,7734.0,47989.0,25763.0,0.5086779594421387,0.015268406693869602,0.036697095230513434,-0.07087489208370695
466,5,0.0009103850461542606,0.0008722031489014626,0.001832749811001122,-0.003309977939352393,-0.025465695187449455,0.005799474660307169,0.01641247607767582,0.05126084014773369,0.01749093271791935,-2.9562971591949463,0.4004848301410675,0.042302656918764114,0.0,0.0,0.0,0.013761309906840324,0.0008960095001384616,-0.0,0.0,0.0,0.0,0.004999999888241291,0.0011260876199230552,0.0017932286718860269,39967.0,7712.0,47615.0,26275.0,0.1704557240009308,0.02289990335702896,0.21769855916500092,0.097608283162117,0.0,0.0,0.0,0.0,39937.0,7734.0,47989.0,25763.0,0.5085987448692322,-2.3692952222991835e-05,0.03092694614153201,-0.07039409777909812
471,5,-0.00017118190589826554,0.0003184430534020066,0.002551330253481865,-0.003309977939352393,-0.025465695187449455,0.005799474660307169,0.01641247607767582,0.05126084014773369,0.01749093271791935,-2.9562971591949463,0.4004848301410675,0.042302656918764114,0.0,0.0,0.0,0.01335522998124361,8.682347106514499e-05,-0.0,0.0,0.0,0.0,0.004999999888241291,0.0011260876199230552,0.0017932286718860269,39967.0,7712.0,47615.0,26275.0,0.1704557240009308,0.02289990335702896,0.21769855916500092,0.097608283162117,0.0,0.0,0.0,0.0,39937.0,7734.0,47989.0,25763.0,0.5085957646369934,-0.06142963417977214,0.00680727441388522,-0.07010876604904452
476,5,0.0008036408689804375,0.0011210719821974635,0.0018386212177574635,0.13548219203948975,-0.12000775337219238,0.10151909291744232,-0.018688803538680077,0.046831078827381134,0.01824331283569336,-2.9235877990722656,0.3467242419719696,0.06764251738786697,0.0,0.0,0.0,0.053783539682626724,0.04767700657248497,-0.0,0.0,0.0,0.0,0.004999999888241291,0.001514824223704636,0.0018013643566519022,50570.0,23205.0,57302.0,37853.0,0.2372152954339981,0.08334045112133026,0.28428518772125244,0.1582217961549759,0.0,0.0,0.0,0.0,50639.0,23102.0,57464.0,37646.0,0.7647992968559265,-0.032519847973768265,0.025717129377597243,-0.07353727210560373
481,5,0.0006807135650888085,0.0012102131731808186,0.0017984546720981598,0.0234348364174366,-0.04848209396004677,0.0360790491104126,-0.018688803538680077,0.046831078827381134,0.01824331283569336,-2.9235877990722656,0.3467242419719696,0.06764251738786697,0.0,0.0,0.0,0.02579139918088913,0.014382442459464073,-0.0,0.0,0.0,0.0,0.004999999888241291,0.001514824223704636,0.0018013643566519022,50570.0,23205.0,57302.0,37853.0,0.2372152954339981,0.08334045112133026,0.28428518772125244,0.1582217961549759,0.0,0.0,0.0,0.0,50639.0,23102.0,57464.0,37646.0,0.5087721943855286,-0.05285840701181749,0.023566704544700463,-0.07776661802546303
486,5,0.0009222868247888982,0.001375002902932465,0.001580211566761136,0.04085071012377739,-0.03761518746614456,0.041377756744623184,-0.04210261255502701,0.043978556990623474,0.018034450709819794,-2.9009668827056885,0.31686943769454956,-0.06617280840873718,0.0,0.0,0.0,0.020403891801834106,0.02345476858317852,-0.0,0.0,0.0,0.0,0.004999999888241291,-0.0005542252911254764,0.0016984047833830118,40540.0,6727.0,46775.0,27438.0,0.17383408546447754,0.019709058105945587,0.21228232979774475,0.10321203619241714,0.0,0.0,0.0,0.0,39564.0,8482.0,47290.0,26752.0,0.508796215057373,-0.07177174936577485,0.034492004425026486,-0.07785669629407056
491,5,0.0009533547563478351,0.0016079162014648318,0.0015199162298813462,0.016604717820882797,-0.04389242082834244,0.020854659378528595,-0.04210261255502701,0.043978556990623474,0.018034450709819794,-2.9009668827056885,0.31686943769454956,-0.06617280840873718,0.0,0.0,0.0,0.02381206303834915,0.011143391951918602,-0.0,0.0,0.0,0.0,0.004999999888241291,-0.0005542252911254764,0.0016984047833830118,40540.0,6727.0,46775.0,27438.0,0.17383408546447754,0.019709058105945587,0.21228232979774475,0.10321203619241714,0.0,0.0,0.0,0.0,39564.0,8482.0,47290.0,26752.0,0.508726179599762,-0.0758236039952862,0.02774223959606588,-0.07688802635080853
497,5,0.0011708391830325127,0.0017703174380585551,0.0014025710988789797,0.03542923182249069,-0.03590390458703041,0.022684721276164055,-0.07586251199245453,0.041806623339653015,0.01721271499991417,-2.790419101715088,0.17318110167980194,-0.04770928993821144,0.0,0.0,0.0,0.019897066056728363,0.02092157118022442,-0.0,0.0,0.0,0.0,0.004999999888241291,-0.0009025207837112248,0.0016469029942527413,36649.0,13170.0,48878.0,24530.0,0.15141712129116058,0.041993398219347,0.22595404088497162,0.08940769731998444,0.0,0.0,0.0,0.0,37125.0,12419.0,48504.0,25040.0,0.5087624192237854,-0.09009029370154904,0.036876736173525,-0.07897947154082316
502,5,0.001058334019035101,0.001800377736799419,0.0014421063242480159,-0.005121953785419464,-0.014979599043726921,0.0012704830151051283,-0.07586251199245453,0.041806623339653015,0.01721271499991417,-2.790419101715088,0.17318110167980194,-0.04770928993821144,0.0,0.0,0.0,0.009297790937125683,0.00019409580272622406,-0.0,0.0,0.0,0.0,0.004999999888241291,-0.0009025207837112248,0.0016469029942527413,36649.0,13170.0,48878.0,24530.0,0.15141712129116058,0.041993398219347,0.22595404088497162,0.08940769731998444,0.0,0.0,0.0,0.0,37125.0,12419.0,48504.0,25040.0,0.5085723996162415,-0.10157651458530031,0.029538236489091374,-0.07840515029594386
507,5,0.0006675788317807019,0.0018437354592606425,0.0015514928381890059,-0.05624230578541756,-0.010563960298895836,-0.014932956546545029,-0.09643436968326569,0.04184895008802414,0.016822215169668198,-2.464188814163208,0.0052758269011974335,0.006240854971110821,0.0,0.0,0.0,0.007115430198609829,-0.02613249607384205,-0.0,0.0,0.0,0.0,0.004999999888241291,-0.0012922878377139568,0.0016730939969420433,36368.0,13585.0,49287.0,23938.0,0.14984473586082458,0.04354283586144447,0.22865703701972961,0.08668175339698792,0.0,0.0,0.0,0.0,37196.0,12334.0,48900.0,24498.0,0.5087369680404663,-0.11101259187312117,0.014072533309188132,-0.08171336652176822
