timestamp,dt,pos_x,pos_y,pos_z,vel_x,vel_y,vel_z,roll,pitch,yaw,agv_x,agv_y,agv_z,x_ref,y_ref,z_ref,roll_ref,pitch_ref,yaw_ref,x_vel_ref,y_vel_ref,z_vel_ref,x_torque,y_torque,z_torque,w0,w1,w2,w3,u0,u1,u2,u3,m0req,m1req,m2req,m3req,thrust0,thrust1,thrust2,thrust3,thrust_ref,roll_vicon,pitch_vicon,yaw_vicon,acc_x,acc_y,acc_z
5,5,0.0,0.0,0.0,0.000774246291257441,-0.0027813336346298456,0.009008971974253654,-0.06471902877092361,-0.00030460330890491605,0.00524482736364007,8.587714546592906e-05,0.1110554039478302,0.028826745226979256,0.0,0.0,0.0,0.0026579953264445066,0.0007399141322821379,-0.0,0.0,0.0,0.0,0.002207558834925294,0.0005969220655970275,0.0002229380188509822,0.0,0.0,0.0,0.0,0.0,0.0,0.0,0.0,0.0,0.0,0.0,0.0,0.0,0.0,0.0,0.0,0.33903488516807556,-0.10509704741100453,0.02028192431898806,0.06951267462330459,-0.0029034235049039125,0.010430000722408295,-0.027026915922760963
35,30,0.0,0.0,0.0,-0.000947450113017112,0.0012014921521767974,-0.007550018839538097,-0.06471902877092361,-0.00030460330890491605,0.00524482736364007,8.587714546592906e-05,0.1110554039478302,0.028826745226979256,0.0,0.0,0.0,-0.0011482139816507697,-0.0009054375695995986,-0.0,0.0,0.0,0.0,0.002207558834925294,0.0005969220655970275,0.0002229380188509822,0.0,0.0,0.0,0.0,0.0,0.0,0.0,0.0,0.0,0.0,0.0,0.0,0.0,0.0,0.0,0.0,0.33903396129608154,-0.10434846983852088,0.022806927951768217,0.07005382946464886,0.0035529378801584244,-0.004505595657974482,0.022650055587291718
42,7,0.0,0.0,0.0,-0.002881221007555723,-0.0058244820684194565,0.0017105569131672382,-0.06471902877092361,-0.00030460330890491605,0.00524482736364007,8.587714546592906e-05,0.1110554039478302,0.028826745226979256,0.0,0.0,0.0,0.0055661313235759735,-0.0027534535620361567,-0.0,0.0,0.0,0.0,0.002207558834925294,0.0005969220655970275,0.0002229380188509822,0.0,0.0,0.0,0.0,0.0,0.0,0.0,0.0,0.0,0.0,0.0,0.0,0.0,0.0,0.0,0.0,0.3390401303768158,-0.10409345194541578,0.022250898785915768,0.07047127417506047,0.01080457866191864,0.021841807290911674,-0.005131670739501715
47,5,0.0,0.0,0.0,-0.009396092966198921,-0.0035621521528810263,0.007506181951612234,-0.06470461189746857,-0.0014950602781027555,0.005591582506895065,0.0023753901477903128,0.07399750500917435,0.039395708590745926,0.0,0.0,0.0,0.003404047107324004,-0.008979205042123795,-0.0,0.0,0.0,0.0,0.002205081982538104,0.0002502491988707334,0.0002418754156678915,0.0,0.0,0.0,0.0,0.0,0.0,0.0,0.0,0.0,0.0,0.0,0.0,0.0,0.0,0.0,0.0,0.33904922008514404,-0.10593270845136522,0.020751433016573114,0.07088594086607374,0.03523534908890724,0.013358070515096188,-0.022518545389175415
54,7,0.0,0.0,0.0,-0.0025519668124616146,0.0055418480187654495,2.1260406356304884e-05,-0.06470461189746857,-0.0014950602781027555,0.005591582506895065,0.0023753901477903128,0.07399750500917435,0.039395708590745926,0.0,0.0,0.0,-0.005296043585985899,-0.002438801573589444,-0.0,0.0,0.0,0.0,0.002205081982538104,0.0002502491988707334,0.0002418754156678915,0.0,0.0,0.0,0.0,0.0,0.0,0.0,0.0,0.0,0.0,0.0,0.0,0.0,0.0,0.0,0.0,0.3390393555164337,-0.10601555856111464,0.02069583805327952,0.07060004452975042,0.00956987589597702,-0.020781930536031723,-6.378121906891465e-05
59,5,0.0,0.0,0.0,0.011402422562241554,0.0004958549980074167,-0.02364717796444893,-0.06461949646472931,-0.0014315383741632104,0.0064268531277775764,-0.0007687090546824038,-0.06673915684223175,0.039864733815193176,0.0,0.0,0.0,-0.0004738394054584205,0.010896379128098488,-0.0,0.0,0.0,0.0,0.002301031956449151,-0.0002940093108918518,0.00025092149735428393,22012.0,18613.0,28864.0,24093.0,0.07800178229808807,0.06341680884361267,0.11023031175136566,0.08739122748374939,0.0,0.0,0.0,0.0,0.0,0.0,0.0,0.0,0.33905377984046936,-0.09966472592513952,0.013441598658503251,0.06805615129385999,-0.04275908321142197,-0.0018594563007354736,0.07094153761863708
64,5,8.942519343690947e-05,7.052852743072435e-05,0.00018069763609673828,0.01594025455415249,-0.0097252381965518,-0.03239182382822037,-0.06455463171005249,-0.0006175626185722649,0.006616860628128052,0.008788558654487133,-0.1269095242023468,0.00634404830634594,0.0,0.0,0.0,0.009384910576045513,0.015349240973591805,-0.0,0.0,0.0,0.0,0.00192743050865829,-0.0006567781674675643,0.00021595197904389352,21715.0,20030.0,28559.0,23405.0,0.07669252902269363,0.06938400119543076,0.10871430486440659,0.08424852043390274,0.0,0.0,0.0,0.0,21666.0,19019.0,29058.0,23846.0,0.33908846974372864,-0.08921191388659896,0.004068743882463862,0.06642915247417745,-0.06023528799414635,0.03683191165328026,0.10029702633619308
69,5,0.0001353503903374076,-2.5788017410377506e-06,0.00031944687361828983,0.011211603879928589,0.007317455019801855,-0.029142441228032112,-0.06455463171005249,-0.0006175626185722649,0.006616860628128052,0.008788558654487133,-0.1269095242023468,0.00634404830634594,0.0,0.0,0.0,-0.0069920700043439865,0.010895430110394955,-0.0,0.0,0.0,0.0,0.00192743050865829,-0.0006567781674675643,0.00021595197904389352,21715.0,20030.0,28559.0,23405.0,0.07669252902269363,0.06938400119543076,0.10871430486440659,0.08424852043390274,0.0,0.0,0.0,0.0,21666.0,19019.0,29058.0,23846.0,0.33906200528144836,-0.08526233121902994,0.003927532643353493,0.06543129889869445,-0.04275555908679962,-0.02743896283209324,0.09350181370973587
75,6,0.0001353503903374076,-2.5788017410377506e-06,0.00031944687361828983,0.011211603879928589,0.007317455019801855,-0.029142441228032112,-0.06455463171005249,-0.0006175626185722649,0.006616860628128052,0.008788558654487133,-0.1269095242023468,0.00634404830634594,0.0,0.0,0.0,-0.0069921305403113365,0.01089863758534193,-0.0,0.0,0.0,0.0,0.00192743050865829,-0.0006567781674675643,0.00021595197904389352,21715.0,20030.0,28559.0,23405.0,0.07669252902269363,0.06938400119543076,0.10871430486440659,0.08424852043390274,0.0,0.0,0.0,0.0,21666.0,19019.0,29058.0,23846.0,0.33906203508377075,-0.08526233121902994,0.003927532643353493,0.06543129889869445,-0.04276794567704201,-0.027439197525382042,0.09398896992206573
80,5,2.527256765461061e-05,3.19122445944231e-05,0.00047912774607539177,-0.019894924014806747,0.04174511879682541,-0.024648601189255714,-0.06446363776922226,0.0013032798888161778,0.006821027956902981,0.011284388601779938,-0.17127922177314758,0.0035685247275978327,0.0,0.0,0.0,-0.03799518197774887,-0.018088266253471375,-0.0,0.0,0.0,0.0,0.002409667242318392,-0.00046344115980900824,0.0002151963417418301,21351.0,19022.0,28892.0,24336.0,0.07509167492389679,0.06512081623077393,0.110366091132164,0.08850988745689392,0.0,0.0,0.0,0.0,21380.0,20330.0,28892.0,23081.0,0.3556688129901886,-0.08497254960972492,-0.0010666108183948141,0.06581397586729704,0.07440318167209625,-0.1563708782196045,0.08406465500593185
85,5,-0.00021250023564789444,-5.232554758549668e-05,7.741825538687408e-05,-0.03925666958093643,0.024316826835274696,0.04884474724531174,-0.06446363776922226,0.0013032798888161778,0.006821027956902981,0.011284388601779938,-0.17127922177314758,0.0035685247275978327,0.0,0.0,0.0,-0.022198913618922234,-0.03599495068192482,-0.0,0.0,0.0,0.0,0.002409667242318392,-0.00046344115980900824,0.0002151963417418301,21351.0,19022.0,28892.0,24336.0,0.07509167492389679,0.06512081623077393,0.110366091132164,0.08850988745689392,0.0,0.0,0.0,0.0,21380.0,20330.0,28892.0,23081.0,0.3558867871761322,-0.09823328458958122,0.02136304073876134,0.06865917808898163,0.14819714426994324,-0.09143123030662537,-0.14105810225009918
92,6,-0.00031435253913514316,5.487513044499792e-05,0.00016345910262316465,-0.026036322116851807,-0.007713046856224537,0.00260770577006042,-0.0644545704126358,0.002993436297401786,0.0069419038482010365,0.0061210221610963345,-0.22122669219970703,0.0030831764452159405,0.0,0.0,0.0,0.007424635346978903,-0.02520984783768654,-0.0,0.0,0.0,0.0,0.0024283071979880333,-0.0008123984443955123,0.00021253143495414406,21398.0,20459.0,28906.0,22930.0,0.07530111819505692,0.07122264057397842,0.11043573170900345,0.08210254460573196,0.0,0.0,0.0,0.0,21005.0,19361.0,29026.0,24209.0,0.3399040699005127,-0.09568655768350558,0.019549625782673094,0.07022773296610244,0.09916466474533081,0.02920888550579548,-0.0008428190485574305
97,5,-0.0002882043190766126,0.0001210205809911713,0.0003126437368337065,-0.004150145221501589,-0.0115742776542902,-0.020103538408875465,-0.06430524587631226,0.00589698227122426,0.007044903934001923,0.006526566110551357,-0.24774982035160065,-0.009510083124041557,0.0,0.0,0.0,0.01122498232871294,-0.004347153007984161,-0.0,0.0,0.0,0.0,0.0018452421063557267,-0.0012033258099108934,0.00019670806068461388,20939.0,21024.0,28997.0,22731.0,0.07329852879047394,0.07366827130317688,0.11088883876800537,0.08120639622211456,0.0,0.0,0.0,0.0,21111.0,20850.0,28925.0,22813.0,0.33905816078186035,-0.08869842529049614,0.019437327888820993,0.07097856498350259,0.01705876737833023,0.044049277901649475,0.07087454944849014
102,5,-0.0002833523612935096,8.958715625340119e-05,0.0002977822150569409,-0.0005657724104821682,0.0009283967083320022,-0.003950446378439665,-0.06430524587631226,0.00589698227122426,0.007044903934001923,0.006526566110551357,-0.24774982035160065,-0.009510083124041557,0.0,0.0,0.0,-0.0007612680201418698,-0.0009194023441523314,-0.0,0.0,0.0,0.0,0.0018452421063557267,-0.0012033258099108934,0.00019670806068461388,20939.0,21024.0,28997.0,22731.0,0.07329852879047394,0.07366827130317688,0.11088883876800537,0.08120639622211456,0.0,0.0,0.0,0.0,21111.0,20850.0,28925.0,22813.0,0.339033842086792,-0.08993635566579206,0.020140959400070515,0.06954710574897738,0.003608160885050893,-0.0029870832804590464,0.022461825981736183
107,5,-0.0002878472441807389,0.0001275386894121766,0.0004387567169032991,-0.0007990141166374087,-0.005034694913774729,-0.02092156559228897,-0.06430524587631226,0.00589698227122426,0.007044903934001923,0.006526566110551357,-0.24774982035160065,-0.009510083124041557,0.0,0.0,0.0,0.00499098002910614,-0.0011641865130513906,-0.0,0.0,0.0,0.0,0.0018452421063557267,-0.0012033258099108934,0.00019670806068461388,20939.0,21024.0,28997.0,22731.0,0.07329852879047394,0.07366827130317688,0.11088883876800537,0.08120639622211456,0.0,0.0,0.0,0.0,21111.0,20850.0,28925.0,22813.0,0.33903804421424866,-0.08402908743789754,0.02461329121842831,0.06886415719754992,0.004568701609969139,0.01958497427403927,0.07664132863283157
112,5,-6.625750393141061e-05,0.0004707134794443846,0.00035443148226477206,0.03078285977244377,-0.04955488070845604,0.00552906421944499,-0.06426683068275452,0.007602656725794077,0.0069340975023806095,0.01064556185156107,-0.16889213025569916,-0.03882070258259773,0.0,0.0,0.0,0.04440772905945778,0.027129068970680237,-0.0,0.0,0.0,0.0,0.0013731045182794333,-0.0026298423763364553,0.00016343651805073023,19274.0,20939.0,29837.0,23454.0,0.0661788359284401,0.07329626381397247,0.11510986089706421,0.08447317779064178,0.0,0.0,0.0,0.0,19515.0,20727.0,29408.0,23906.0,0.3664243519306183,-0.08347358653858478,0.019133278573109345,0.0556975099720202,-0.11492746323347092,0.18827228248119354,-0.0028498535975813866
117,5,-6.945098721189424e-05,0.0004328341456130147,0.0002019852981902659,0.008787769824266434,-0.009563355706632137,0.023001184687018394,-0.06426683068275452,0.007602656725794077,0.0069340975023806095,0.01064556185156107,-0.16889213025569916,-0.03882070258259773,0.0,0.0,0.0,0.009734326973557472,0.008261208422482014,-0.0,0.0,0.0,0.0,0.0013731045182794333,-0.0026298423763364553,0.00016343651805073023,19274.0,20939.0,29837.0,23454.0,0.0661788359284401,0.07329626381397247,0.11510986089706421,0.08447317779064178,0.0,0.0,0.0,0.0,19515.0,20727.0,29408.0,23906.0,0.3390612304210663,-0.08928695607549939,0.014134626626497799,0.057623343055110805,-0.032417718321084976,0.0382000096142292,-0.056525249034166336
122,5,3.670936348498799e-05,0.0006051062373444438,0.0002554642269387841,0.01749878004193306,-0.026987100020051003,-0.0005866956198588014,-0.06426208466291428,0.009148802608251572,0.006767896004021168,-0.0042878263629972935,-0.1073545515537262,-0.0011326578678563237,0.0,0.0,0.0,0.026211878284811974,0.016464196145534515,-0.0,0.0,0.0,0.0,0.002473226049914956,-0.0011400221846997738,0.00017232137906830758,20097.0,20086.0,29511.0,23855.0,0.06966985017061234,0.0696248784661293,0.1134641095995903,0.08629929274320602,0.0,0.0,0.0,0.0,21139.0,19588.0,29068.0,23816.0,0.3444100618362427,-0.07993279609298347,0.008830085356420759,0.0517211672804177,-0.06560457497835159,0.10447545349597931,0.015618168748915195
127,5,-4.5391945604933426e-05,0.0005417746724560857,0.00023474979388993233,-0.006244549062103033,0.000770287006162107,0.002724013291299343,-0.06426208466291428,0.009148802608251572,0.006767896004021168,-0.0042878263629972935,-0.1073545515537262,-0.0011326578678563237,0.0,0.0,0.0,4.985462874174118e-05,-0.006075132172554731,-0.0,0.0,0.0,0.0,0.002473226049914956,-0.0011400221846997738,0.00017232137906830758,20097.0,20086.0,29511.0,23855.0,0.06966985017061234,0.0696248784661293,0.1134641095995903,0.08629929274320602,0.0,0.0,0.0,0.0,21139.0,19588.0,29068.0,23816.0,0.3390398621559143,-0.08230660757662395,0.014263931798403249,0.055135854970711086,0.023839181289076805,0.0001964458351721987,0.006279460620135069
132,5,6.976203167141648e-06,0.0005946541205048561,0.00014176599506754428,0.005458176136016846,-0.007172031793743372,0.013834935612976551,-0.06428738683462143,0.009420192800462246,0.006766934413462877,0.008322621695697308,0.015507600270211697,-0.008591333404183388,0.0,0.0,0.0,0.007727799005806446,0.005173733923584223,-0.0,0.0,0.0,0.0,0.0022563375532627106,-0.00048453378258273005,0.00019343655731063336,21447.0,19363.0,28426.0,24423.0,0.07551535964012146,0.0665561854839325,0.10805633664131165,0.08891016244888306,0.0,0.0,0.0,0.0,22280.0,17939.0,28014.0,25346.0,0.33904826641082764,-0.0826101030041985,0.011781212669537803,0.05133136107424025,-0.020301923155784607,0.030325785279273987,-0.02789262868463993
137,5,0.0004962910315953195,0.001004219870083034,-0.0003394418163225055,0.07014153152704239,-0.05949081853032112,0.07151956856250763,-0.06428738683462143,0.009420192800462246,0.006766934413462877,0.008322621695697308,0.015507600270211697,-0.008591333404183388,0.0,0.0,0.0,0.04993121325969696,0.05799532309174538,-0.0,0.0,0.0,0.0,0.0022563375532627106,-0.00048453378258273005,0.00019343655731063336,21447.0,19363.0,28426.0,24423.0,0.07551535964012146,0.0665561854839325,0.10805633664131165,0.08891016244888306,0.0,0.0,0.0,0.0,22280.0,17939.0,28014.0,25346.0,0.396034836769104,-0.048401757661568456,0.0018111048668646387,0.07936762187905495,-0.2653556764125824,0.22877773642539978,-0.20817482471466064
142,5,0.0005770614370703697,0.0010092895245179534,-0.0003603957302402705,0.03235030919313431,-0.018556993454694748,0.024389423429965973,-0.06446559727191925,0.008723664097487926,0.006948141381144524,-0.02680288814008236,0.07074533402919769,0.03738506883382797,0.0,0.0,0.0,0.018646162003278732,0.03069945052266121,-0.0,0.0,0.0,0.0,0.0024657652247697115,0.0003490900562610477,0.00024314205802511424,22740.0,17311.0,28221.0,25235.0,0.08124862611293793,0.05807508900761604,0.1070457249879837,0.0926918238401413,0.0,0.0,0.0,0.0,22918.0,18006.0,28150.0,24527.0,0.3493386209011078,-0.04972161368272705,-0.001678711971518167,0.07766801764722969,-0.12408512830734253,0.07538712024688721,-0.06758345663547516
147,5,0.0005865182029083371,0.0010125550907105207,-0.0004203302087262273,0.01102903950959444,-0.0060242884792387486,0.015707651153206825,-0.06446559727191925,0.008723664097487926,0.006948141381144524,-0.02680288814008236,0.07074533402919769,0.03738506883382797,0.0,0.0,0.0,0.0073056151159107685,0.011296474374830723,-0.0,0.0,0.0,0.0,0.0024657652247697115,0.0003490900562610477,0.00024314205802511424,22740.0,17311.0,28221.0,25235.0,0.08124862611293793,0.05807508900761604,0.1070457249879837,0.0926918238401413,0.0,0.0,0.0,0.0,22918.0,18006.0,28150.0,24527.0,0.33906427025794983,-0.05173470423769639,-0.0007511684432083242,0.07362506242969453,-0.04433013126254082,0.02867109142243862,-0.044120270758867264
152,5,0.0006430409848690033,0.0010704759042710066,-0.00044336955761536956,0.011221906170248985,-0.009916198439896107,0.007937803864479065,-0.06449604779481888,0.007656708359718323,0.006964812055230141,0.011903861537575722,0.1072373315691948,0.007436300627887249,0.0,0.0,0.0,0.011125260964035988,0.011568491347134113,-0.0,0.0,0.0,0.0,0.0020909595768898726,0.0004372325201984495,0.00021184464276302606,22943.0,18279.0,27356.0,25095.0,0.08216127008199692,0.062034156173467636,0.10281079262495041,0.09203364700078964,0.0,0.0,0.0,0.0,26703.0,15789.0,30499.0,31937.0,0.33907726407051086,-0.051958135901843325,-0.002727877652302299,0.07301956854568865,-0.04539678618311882,0.0436602458357811,-0.021881965920329094
158,5,0.0007040756172500551,0.0009846370667219162,-0.0005365499528124928,0.011911420151591301,0.009042576886713505,0.015426594763994217,-0.06449604779481888,0.007656708359718323,0.006964812055230141,0.011903861537575722,0.1072373315691948,0.007436300627887249,0.0,0.0,0.0,-0.007049270905554295,0.012335864827036858,-0.0,0.0,0.0,0.0,0.0020909595768898726,0.0004372325201984495,0.00021184464276302606,22943.0,18279.0,27356.0,25095.0,0.08216127008199692,0.062034156173467636,0.10281079262495041,0.09203364700078964,0.0,0.0,0.0,0.0,26703.0,15789.0,30499.0,31937.0,0.33906781673431396,-0.05911830608767102,-0.004172014948280066,0.07565109093856849,-0.04840944707393646,-0.027662424370646477,-0.047149647027254105
163,5,0.0007752783712930977,0.001164362533017993,-0.0005749117117375135,0.013541814871132374,-0.022448783740401268,0.009998624213039875,-0.06460736691951752,0.006124201230704784,0.007117143366485834,-0.002927777823060751,0.1576649248600006,0.006068386137485504,0.0,0.0,0.0,0.023218195885419846,0.01396091002970934,-0.0,0.0,0.0,0.0,0.0038206782191991806,0.0025960374623537064,0.00024713363382034004,26910.0,15506.0,29778.0,32655.0,0.10065612941980362,0.05089695751667023,0.11481315642595291,0.129678875207901,0.0,0.0,0.0,0.0,26970.0,15515.0,29902.0,32476.0,0.34067755937576294,-0.05044779990251948,-2.3640031237380067e-05,0.07182490975929606,-0.05503278970718384,0.09154350310564041,-0.03338807448744774
168,5,0.0005645316559821367,0.0008544016745872796,-0.00027162983315065503,-0.025442002341151237,0.036659881472587585,-0.039459872990846634,-0.06460736691951752,0.006124201230704784,0.007117143366485834,-0.002927777823060751,0.1576649248600006,0.006068386137485504,0.0,0.0,0.0,-0.03220820426940918,-0.022568024694919586,-0.0,0.0,0.0,0.0,0.0038206782191991806,0.0025960374623537064,0.00024713363382034004,26910.0,15506.0,29778.0,32655.0,0.10065612941980362,0.05089695751667023,0.11481315642595291,0.129678875207901,0.0,0.0,0.0,0.0,26970.0,15515.0,29902.0,32476.0,0.35281044244766235,-0.054070970912796515,0.018514189532624774,0.07582491135965008,0.0920998826622963,-0.13149799406528473,0.11818718910217285
173,5,0.0005421904497779906,0.0007774793775752187,-0.00021029204071965069,-0.010760370641946793,0.021767083555459976,-0.020425250753760338,-0.06460736691951752,0.006124201230704784,0.007117143366485834,-0.002927777823060751,0.1576649248600006,0.006068386137485504,0.0,0.0,0.0,-0.01933419518172741,-0.009442432783544064,-0.0,0.0,0.0,0.0,0.0038206782191991806,0.0025960374623537064,0.00024713363382034004,26910.0,15506.0,29778.0,32655.0,0.10065612941980362,0.05089695751667023,0.11481315642595291,0.129678875207901,0.0,0.0,0.0,0.0,26970.0,15515.0,29902.0,32476.0,0.3391121029853821,-0.057798153172441316,0.020559472745296754,0.07508613685237572,0.03705320879817009,-0.07588022202253342,0.061190906912088394
178,5,0.0005654138512909412,0.0007440389017574489,-0.00021825887961313128,2.3171407519839704e-05,0.01121179386973381,-0.0050122179090976715,-0.06464293599128723,0.0049809655174613,0.0071670967154204845,-0.004020983353257179,0.13913799822330475,-0.002328898524865508,0.0,0.0,0.0,-0.009250094182789326,0.0009218974155373871,-0.0,0.0,0.0,0.0,0.0019027095986530185,0.0005952788051217794,0.0002515426022000611,23529.0,16666.0,27011.0,26280.0,0.08481421321630478,0.05547753721475601,0.10114019364118576,0.09763244539499283,0.0,0.0,0.0,0.0,24315.0,17539.0,26703.0,25087.0,0.33904823660850525,-0.05698174748033407,0.02145370337695989,0.07516403648715458,-0.0036175264976918697,-0.036298420280218124,0.014080113731324673
183,5,0.0005391954910010099,0.000805439951363951,-0.00022065240773372352,-0.003663622075691819,-0.00523260748013854,-0.001168571412563324,-0.06464293599128723,0.0049809655174613,0.0071670967154204845,-0.004020983353257179,0.13913799822330475,-0.002328898524865508,0.0,0.0,0.0,0.006585800088942051,-0.002602465683594346,-0.0,0.0,0.0,0.0,0.0019027095986530185,0.0005952788051217794,0.0002515426022000611,23529.0,16666.0,27011.0,26280.0,0.08481421321630478,0.05547753721475601,0.10114019364118576,0.09763244539499283,0.0,0.0,0.0,0.0,24315.0,17539.0,26703.0,25087.0,0.3390420973300934,-0.05902837319595115,0.020175391799304224,0.0740118740230891,0.010211288928985596,0.025844350457191467,0.001688865595497191
188,5,0.00061856082174927,0.0007026346283964813,-0.0001966637501027435,0.010012061335146427,0.012822962366044521,-0.0037089840043336153,-0.06461872160434723,0.003935999237000942,0.007186511065810919,-0.031070400029420853,0.08205807954072952,-0.01780455932021141,0.0,0.0,0.0,-0.010761848650872707,0.010594325140118599,-0.0,0.0,0.0,0.0,0.0015000490238890052,-0.00031229553860612214,0.0002625092747621238,23336.0,19501.0,28057.0,22864.0,0.08393525332212448,0.06713943928480148,0.10623454302549362,0.08180280774831772,0.0,0.0,0.0,0.0,22772.0,20202.0,26960.0,23944.0,0.33907225728034973,-0.05751994936025691,0.021672914312311907,0.07543766559231486,-0.041574615985155106,-0.042232438921928406,0.009001384489238262
193,5,0.0006163365906104445,0.000673677830491215,-0.00020437831699382514,0.0026922286488115788,0.007900834083557129,-3.265538907726295e-05,-0.06461872160434723,0.003935999237000942,0.007186511065810919,-0.031070400029420853,0.08205807954072952,-0.01780455932021141,0.0,0.0,0.0,-0.006050752941519022,0.003636767389252782,-0.0,0.0,0.0,0.0,0.0015000490238890052,-0.00031229553860612214,0.0002625092747621238,23336.0,19501.0,28057.0,22864.0,0.08393525332212448,0.06713943928480148,0.10623454302549362,0.08180280774831772,0.0,0.0,0.0,0.0,22772.0,20202.0,26960.0,23944.0,0.3390420377254486,-0.05658891720562439,0.023114319953568913,0.07552727097270728,-0.014270737767219543,-0.023743601515889168,-0.0029852173756808043
198,5,0.0006184684461914003,0.0006659130449406803,-0.00023649545619264245,0.0028255381621420383,-0.0008222872857004404,0.008055763319134712,-0.06445243954658508,0.004411156289279461,0.0071281748823821545,-0.003741233376786113,-0.1075575202703476,-0.006103381980210543,0.0,0.0,0.0,0.0022966430988162756,0.00378620158880949,-0.0,0.0,0.0,0.0,0.0023353577125817537,-0.0003890957741532475,0.00014327320968732238,20767.0,19771.0,28423.0,24694.0,0.07255115360021591,0.06828173249959946,0.10804256051778793,0.09016668051481247,0.0,0.0,0.0,0.0,22327.0,20883.0,27894.0,22733.0,0.3390369117259979,-0.05439650200746139,0.024284346979118934,0.07692969233808002,-0.014857126399874687,0.009012107737362385,-0.028153615072369576
203,5,0.0006184684461914003,0.0006659130449406803,-0.00023649545619264245,0.0028255381621420383,-0.0008222872857004404,0.008055763319134712,-0.06445243954658508,0.004411156289279461,0.0071281748823821545,-0.003741233376786113,-0.1075575202703476,-0.006103381980210543,0.0,0.0,0.0,0.0023467889986932278,0.003832775168120861,-0.0,0.0,0.0,0.0,0.0023353577125817537,-0.0003890957741532475,0.00014327320968732238,20767.0,19771.0,28423.0,24694.0,0.07255115360021591,0.06828173249959946,0.10804256051778793,0.09016668051481247,0.0,0.0,0.0,0.0,22327.0,20883.0,27894.0,22733.0,0.3390370309352875,-0.05439650200746139,0.024284346979118934,0.07692969233808002,-0.015039883553981781,0.00920888502150774,-0.02931835502386093
208,5,0.00015392700152006,0.00030067283660173416,-0.00043380665010772645,-0.06418813765048981,0.05088694393634796,0.030040297657251358,-0.06454917043447495,0.005207580979913473,0.0070615727454423904,0.0011463493574410677,-0.07861800491809845,-0.03955875709652901,0.0,0.0,0.0,-0.04184068739414215,-0.05358009412884712,-0.0,0.0,0.0,0.0,0.0019890579860657454,-0.0008777725743129849,0.00014496792573481798,20617.0,20985.0,28248.0,23892.0,0.07190211862325668,0.07349558919668198,0.10717646032571793,0.08646786957979202,0.0,0.0,0.0,0.0,21686.0,18938.0,29418.0,23507.0,0.3851467967033386,-0.0770554302300663,0.01916323455660271,0.07761679434923544,0.2385217249393463,-0.18645955622196198,-0.09863860160112381
213,5,-0.00024875058443285525,-5.3226976888254285e-05,0.00019774386601056904,-0.03376787528395653,0.0210497435182333,-0.030979638919234276,-0.06454917043447495,0.005207580979913473,0.0070615727454423904,0.0011463493574410677,-0.07861800491809845,-0.03955875709652901,0.0,0.0,0.0,-0.018840301781892776,-0.031231436878442764,-0.0,0.0,0.0,0.0,0.0019890579860657454,-0.0008777725743129849,0.00014496792573481798,20617.0,20985.0,28248.0,23892.0,0.07190211862325668,0.07349558919668198,0.10717646032571793,0.08646786957979202,0.0,0.0,0.0,0.0,21686.0,18938.0,29418.0,23507.0,0.3498995304107666,-0.10707608445890467,0.029154496461689126,0.07994065617892893,0.12643729150295258,-0.07629432529211044,0.09281887859106064
218,5,-0.00025948110851459205,-0.00013828271767124534,0.00030857944511808455,-0.011632638983428478,0.01822272501885891,-0.024810871109366417,-0.06430935859680176,0.006760229356586933,0.006990206427872181,0.021904081106185913,-0.10299836844205856,-0.013922146521508694,0.0,0.0,0.0,-0.016278555616736412,-0.031345099210739136,-0.0,0.0,0.0,0.0,0.002125711878761649,-0.0010742207523435354,0.00020264030899852514,21255.0,19944.0,28827.0,23637.0,0.07467298954725266,0.06901683658361435,0.1100444421172142,0.08530276268720627,0.0,0.0,0.0,0.0,21519.0,20386.0,28308.0,23534.0,0.3391025960445404,-0.10346834563228269,0.03302575803090756,0.07882970867452213,0.043527860194444656,-0.06612782925367355,0.07656122744083405
224,5,-0.00025948110851459205,-0.00013828271767124534,0.00030857944511808455,-0.011632638983428478,0.01822272501885891,-0.024810871109366417,-0.06430935859680176,0.006760229356586933,0.006990206427872181,0.021904081106185913,-0.10299836844205856,-0.013922146521508694,0.0,0.0,0.0,-0.016856279224157333,-0.011104966513812542,-0.0,0.0,0.0,0.0,0.002125711878761649,-0.0010742207523435354,0.00020264030899852514,21255.0,19944.0,28827.0,23637.0,0.07467298954725266,0.06901683658361435,0.1100444421172142,0.08530276268720627,0.0,0.0,0.0,0.0,21519.0,20386.0,28308.0,23534.0,0.33910268545150757,-0.10346834563228269,0.03302575803090756,0.07882970867452213,0.043578069657087326,-0.0661545917391777,0.07755639404058456
229,5,0.00015633070142939687,0.0004888334660790861,-0.0001744727633194998,0.07098080962896347,-0.08419117331504822,0.06479456275701523,-0.06435172259807587,0.008064097724854946,0.006882048211991787,0.004958071280270815,-0.14235325157642365,-0.021523695439100266,0.0,0.0,0.0,0.06742966920137405,0.056462813168764114,-0.0,0.0,0.0,0.0,0.0014800600474700332,-0.0020175727549940348,0.0001747164351399988,20723.0,23502.0,29876.0,21909.0,0.0723629742860794,0.08468866348266602,0.11530540883541107,0.07754877209663391,0.0,0.0,0.0,0.0,20271.0,20704.0,29160.0,23491.0,0.4116266369819641,-0.08049056803343181,0.02111020323914381,0.07560346174993161,-0.2682460844516754,0.3210054337978363,-0.19740788638591766
234,5,-0.0004631171759683639,-4.5573939132736996e-05,0.0006112508708611131,-0.06542845815420151,0.04955968260765076,-0.09056293964385986,-0.06435172259807587,0.008064097724854946,0.006882048211991787,0.004958071280270815,-0.14235325157642365,-0.021523695439100266,0.0,0.0,0.0,-0.04099423065781593,-0.05520206317305565,-0.0,0.0,0.0,0.0,0.0014800600474700332,-0.0020175727549940348,0.0001747164351399988,20723.0,23502.0,29876.0,21909.0,0.0723629742860794,0.08468866348266602,0.11530540883541107,0.07754877209663391,0.0,0.0,0.0,0.0,20271.0,20704.0,29160.0,23491.0,0.38611191511154175,-0.10800345769876171,0.04659946539451248,0.07713977251778223,0.24636010825634003,-0.1831473857164383,0.2799750566482544
239,5,-0.0004152797337155789,3.638307316577993e-05,0.0006610981654375792,-0.012931293807923794,0.0033939231652766466,-0.03414750471711159,-0.06426860392093658,0.009438642300665379,0.00689250323921442,0.005987238138914108,-0.12135123461484909,-0.03118680790066719,0.0,0.0,0.0,-0.0024523623287677765,-0.012573499232530594,-0.0,0.0,0.0,0.0,0.0014125601155683398,-0.0017716888105496764,0.00019498285837471485,21318.0,21650.0,28234.0,22605.0,0.07495111972093582,0.07640435546636581,0.10710529237985611,0.0806419774889946,0.0,0.0,0.0,0.0,21502.0,21247.0,28504.0,22522.0,0.3390614092350006,-0.10794306044448791,0.0409803303004665,0.07484722817497586,0.04934163764119148,-0.009623795747756958,0.11336229741573334
244,5,-0.00043798243859782815,0.0001072971208486706,0.0007776845595799387,-0.007057769689708948,-0.008909790776669979,-0.02656634710729122,-0.06426860392093658,0.009438642300665379,0.00689250323921442,0.005987238138914108,-0.12135123461484909,-0.03118680790066719,0.0,0.0,0.0,0.009397483430802822,-0.0070127747021615505,-0.0,0.0,0.0,0.0,0.0014125601155683398,-0.0017716888105496764,0.00019498285837471485,21318.0,21650.0,28234.0,22605.0,0.07495111972093582,0.07640435546636581,0.10710529237985611,0.0806419774889946,0.0,0.0,0.0,0.0,21502.0,21247.0,28504.0,22522.0,0.33905690908432007,-0.1052458013675075,0.04347047564626952,0.07296210774354749,0.027519237250089645,0.03687787801027298,0.09475631266832352
249,5,-0.000608793634455651,-3.2036827178671956e-05,0.0005438884836621583,-0.026030894368886948,0.016833815723657608,0.024761542677879333,-0.0642586350440979,0.009758817963302135,0.006954396143555641,0.007652890402823687,-0.05617571249604225,0.014023642055690289,0.0,0.0,0.0,-0.015204773284494877,-0.025110168382525444,-0.0,0.0,0.0,0.0,0.0015524531481787562,-0.00127363798674196,0.0002136988623533398,23190.0,26891.0,32093.0,21460.0,0.08327575773000717,0.10056092590093613,0.12671969830989838,0.07557012885808945,0.0,0.0,0.0,0.0,24246.0,26118.0,30786.0,22735.0,0.3428540825843811,-0.11179364190964751,0.0393809701621936,0.07600348753388418,0.09962065517902374,-0.06033354252576828,-0.059843264520168304
254,5,-0.0005417974898591638,-0.00019917814643122256,0.0005019479431211948,0.0015701898373663425,0.028449928387999535,0.01330014318227768,-0.0642586350440979,0.009758817963302135,0.006954396143555641,0.007652890402823687,-0.05617571249604225,0.014023642055690289,0.0,0.0,0.0,-0.02660055086016655,0.0010431441478431225,-0.0,0.0,0.0,0.0,0.0015524531481787562,-0.00127363798674196,0.0002136988623533398,23190.0,26891.0,32093.0,21460.0,0.08327575773000717,0.10056092590093613,0.12671969830989838,0.07557012885808945,0.0,0.0,0.0,0.0,24246.0,26118.0,30786.0,22735.0,0.34022846817970276,-0.11306244054729472,0.03685379031752153,0.07730305363142512,-0.004106269683688879,-0.1047360822558403,-0.0244178157299757
259,5,0.00016449781833216548,0.000308638671413064,3.7154928577365354e-05,0.0993523970246315,-0.06255937367677689,0.06906106323003769,-0.0633867084980011,0.008995329029858112,0.0068297614343464375,0.10253090411424637,0.13364873826503754,-0.0080850375816226,0.0,0.0,0.0,0.049487609416246414,0.07760944217443466,-0.0,0.0,0.0,0.0,0.00048072318895719945,-0.0018348466837778687,0.00018582126358523965,25092.0,25750.0,29665.0,23516.0,0.09202168881893158,0.09511466324329376,0.11423927545547485,0.08475089073181152,0.0,0.0,0.0,0.0,22147.0,19014.0,28791.0,23681.0,0.4175436496734619,-0.09616342816707872,0.006664476056403841,0.057274189588695255,-0.37422657012939453,0.23906022310256958,-0.19712388515472412
264,5,-0.0005648590158671141,-2.2542795704794116e-05,0.0004592271288856864,-0.07230424135923386,0.027597593143582344,-0.03837179020047188,-0.0633867084980011,0.008995329029858112,0.0068297614343464375,0.10253090411424637,0.13364873826503754,-0.0080850375816226,0.0,0.0,0.0,-0.022735578939318657,-0.06174945831298828,-0.0,0.0,0.0,0.0,0.00048072318895719945,-0.0018348466837778687,0.00018582126358523965,25092.0,25750.0,29665.0,23516.0,0.09202168881893158,0.09511466324329376,0.11423927545547485,0.08475089073181152,0.0,0.0,0.0,0.0,22147.0,19014.0,28791.0,23681.0,0.38247713446617126,-0.1137984934221025,0.03541635157555953,0.07753199387345061,0.2731093764305115,-0.10063761472702026,0.1316225379705429
269,5,-0.0005799545324407518,-0.00015890989743638784,0.0005354337044991553,-0.023804638534784317,0.027370670810341835,-0.022180456668138504,-0.0633867084980011,0.008995329029858112,0.0068297614343464375,0.10253090411424637,0.13364873826503754,-0.0080850375816226,0.0,0.0,0.0,-0.02500399388372898,-0.022759081795811653,-0.0,0.0,0.0,0.0,0.00048072318895719945,-0.0018348466837778687,0.00018582126358523965,25092.0,25750.0,29665.0,23516.0,0.09202168881893158,0.09511466324329376,0.11423927545547485,0.08475089073181152,0.0,0.0,0.0,0.0,22147.0,19014.0,28791.0,23681.0,0.34722793102264404,-0.11417648529484717,0.040196375237187235,0.07782594939958691,0.09142866730690002,-0.10047663003206253,0.08580835908651352
274,5,0.00037384615279734135,0.0003380677371751517,-0.0002838132786564529,0.12639069557189941,-0.06136566773056984,0.10804043710231781,-0.06274709105491638,0.008090752176940441,0.006972095929086208,0.04113040864467621,0.1112556904554367,0.014092442579567432,0.0,0.0,0.0,0.04636303335428238,0.09431440383195877,-0.0,0.0,0.0,0.0,0.0021922101732343435,0.0006602162611670792,0.00022625077690463513,23026.0,17754.0,27548.0,25280.0,0.08253524452447891,0.059877388179302216,0.10374391824007034,0.09290044754743576,0.0,0.0,0.0,0.0,28930.0,16185.0,29945.0,34168.0,0.4376189708709717,-0.07411296575362847,0.01739237338972614,0.07850643896339368,-0.4764852225780487,0.23474623262882233,-0.31579187512397766
279,5,-0.0005073981010355055,-0.0002114038070430979,0.0006136500160209835,-0.085456982254982,0.05851631611585617,-0.09323272854089737,-0.06261961162090302,0.006700098514556885,0.007049294654279947,0.03232370689511299,0.19515828788280487,0.06620462238788605,0.0,0.0,0.0,-0.04643583297729492,-0.06891454011201859,-0.0,0.0,0.0,0.0,0.0036562567111104727,0.003442501649260521,0.0002549265045672655,29265.0,15767.0,30474.0,33664.0,0.11222973465919495,0.051916807889938354,0.1183464527130127,0.13504990935325623,0.0,0.0,0.0,0.0,25464.0,19450.0,26632.0,24057.0,0.40485671162605286,-0.10548025307351795,0.04269655664090631,0.07605512150981188,0.32231923937797546,-0.21751275658607483,0.30138278007507324
284,5,-0.00049604382365942,-0.0001706718758214265,0.0004459224874153733,-0.024047499522566795,0.011852425523102283,-0.004487961996346712,-0.06261961162090302,0.006700098514556885,0.007049294654279947,0.03232370689511299,0.19515828788280487,0.06620462238788605,0.0,0.0,0.0,-0.01077797170728445,-0.023429134860634804,-0.0,0.0,0.0,0.0,0.0036562567111104727,0.003442501649260521,0.0002549265045672655,29265.0,15767.0,30474.0,33664.0,0.11222973465919495,0.051916807889938354,0.1183464527130127,0.13504990935325623,0.0,0.0,0.0,0.0,25464.0,19450.0,26632.0,24057.0,0.3394375443458557,-0.10712166687118764,0.03662356012477785,0.07773577910066304,0.09203244000673294,-0.04234258830547333,0.03374827653169632
289,5,-0.00043424381874501705,-0.00021978645236231387,0.00037785019958391786,0.0014377526240423322,0.01043176744133234,0.008183730766177177,-0.06261961162090302,0.006700098514556885,0.007049294654279947,0.03232370689511299,0.19515828788280487,0.06620462238788605,0.0,0.0,0.0,-0.009503426030278206,0.0009567224187776446,-0.0,0.0,0.0,0.0,0.0036562567111104727,0.003442501649260521,0.0002549265045672655,29265.0,15767.0,30474.0,33664.0,0.11222973465919495,0.051916807889938354,0.1183464527130127,0.13504990935325623,0.0,0.0,0.0,0.0,25464.0,19450.0,26632.0,24057.0,0.3390490710735321,-0.10501118989549181,0.035609130508588806,0.07619417958837284,-0.003754179924726486,-0.03729258477687836,-0.003908929880708456
294,5,-0.00046977499732747674,-0.00013386674982029945,0.0007732043159194291,-0.004543036222457886,-0.008899226784706116,-0.05289445444941521,-0.061312053352594376,0.003928268328309059,0.0071526989340782166,0.15879276394844055,0.23158171772956848,-0.025864971801638603,0.0,0.0,0.0,0.009067353792488575,-0.004827698227018118,-0.0,0.0,0.0,0.0,0.0008609938086010516,0.0005823274259455502,0.0002559100103098899,25731.0,19706.0,25846.0,24362.0,0.09502479434013367,0.06800548732280731,0.095571368932724,0.08862783014774323,0.0,0.0,0.0,0.0,26936.0,27068.0,29926.0,24029.0,0.3390514850616455,-0.09875763398936674,0.04775570237479707,0.07483883885237023,0.018944738432765007,0.03558148443698883,0.18663640320301056
300,5,-0.0005675310967490077,-0.00018166902009397745,0.0019534211605787277,-0.015048769302666187,0.004022547975182533,-0.18109871447086334,-0.061312053352594376,0.003928268328309059,0.0071526989340782166,0.15879276394844055,0.23158171772956848,-0.025864971801638603,0.0,0.0,0.0,-0.003349435981363058,-0.015018459409475327,-0.0,0.0,0.0,0.0,0.0008609938086010516,0.0005823274259455502,0.0002559100103098899,25731.0,19706.0,25846.0,24362.0,0.09502479434013367,0.06800548732280731,0.095571368932724,0.08862783014774323,0.0,0.0,0.0,0.0,26936.0,27068.0,29926.0,24029.0,0.3390737473964691,-0.0577317677537658,0.031042721592040613,0.07483370380682085,0.058937713503837585,-0.013144991360604763,0.592008650302887
305,5,-0.0005475299549289048,-0.00018247796106152236,0.001951127895154059,-0.001714464626275003,0.001320017036050558,-0.054008543491363525,-0.059914540499448776,0.002386871725320816,0.007015678565949202,0.14899936318397522,0.1665753275156021,0.011840227991342545,0.0,0.0,0.0,-0.0007786491769365966,-0.0022837831638753414,-0.0,0.0,0.0,0.0,0.0015494374092668295,0.000804669747594744,0.0002309772535227239,27001.0,26736.0,30691.0,23458.0,0.10109390318393707,0.09981639683246613,0.11945851147174835,0.08448712527751923,0.0,0.0,0.0,0.0,27568.0,25956.0,30436.0,23958.0,0.3390345871448517,-0.05797760278713413,0.03223520560054724,0.07493328699828272,0.008961580693721771,-0.003055427921935916,0.2180287092924118
310,5,-0.0005154250538907945,-0.00019943818915635347,0.001984274946153164,0.00398034043610096,0.002770437393337488,-0.02084316685795784,-0.059914540499448776,0.002386871725320816,0.007015678565949202,0.14899936318397522,0.1665753275156021,0.011840227991342545,0.0,0.0,0.0,-0.002196626039221883,0.00316866347566247,-0.0,0.0,0.0,0.0,0.0015494374092668295,0.000804669747594744,0.0002309772535227239,27001.0,26736.0,30691.0,23458.0,0.10109390318393707,0.09981639683246613,0.11945851147174835,0.08448712527751923,0.0,0.0,0.0,0.0,27568.0,25956.0,30436.0,23958.0,0.33903610706329346,-0.056658048891135716,0.03240048850493521,0.07497880994068377,-0.01243387721478939,-0.00861961767077446,0.12620265781879425
315,5,-0.0001064383250195533,-0.00014466351422015578,0.0015990493120625615,0.05845224857330322,-0.0068373242393136024,0.04767865687608719,-0.05895671620965004,0.0002752551808953285,0.007065560203045607,0.03245634213089943,0.19576506316661835,0.007354313042014837,0.0,0.0,0.0,0.006518305744975805,0.051583606749773026,-0.0,0.0,0.0,0.0,0.0016856776783242822,0.0002704572107177228,0.00022802881721872836,23591.0,18712.0,27410.0,24026.0,0.0850922092795372,0.06382759660482407,0.10307278484106064,0.08708127588033676,0.0,0.0,0.0,0.0,24161.0,18220.0,26627.0,24714.0,0.3663789927959442,-0.05438420331733621,0.023376972791864223,0.07360790785887932,-0.2186383605003357,0.0276404470205307,-0.07801706343889236
320,5,-0.0004745007900055498,-0.00020571076311171055,0.002133473986759782,-0.03399307280778885,0.006495417561382055,-0.060515861958265305,-0.05895671620965004,0.0002752551808953285,0.007065560203045607,0.03245634213089943,0.19576506316661835,0.007354313042014837,0.0,0.0,0.0,-0.005660542752593756,-0.032411545515060425,-0.0,0.0,0.0,0.0,0.0016856776783242822,0.0002704572107177228,0.00022802881721872836,23591.0,18712.0,27410.0,24026.0,0.0850922092795372,0.06382759660482407,0.10307278484106064,0.08708127588033676,0.0,0.0,0.0,0.0,24161.0,18220.0,26627.0,24714.0,0.34632760286331177,-0.05014211604042569,0.033123036911352245,0.07531248153076966,0.12989430129528046,-0.02268971875309944,0.2595667541027069
325,5,-0.0008010544115677476,-0.0002334971068194136,0.0021919107530266047,-0.055915430188179016,0.00583871454000473,-0.026335904374718666,-0.05879288166761398,-0.0006164821097627282,0.007099968381226063,0.051322441548109055,0.13779421150684357,0.017329096794128418,0.0,0.0,0.0,-0.004829930607229471,-0.05062689259648323,-0.0,0.0,0.0,0.0,0.0016858206363394856,0.0009833272779360414,0.00019248291209805757,23846.0,18385.0,26254.0,25258.0,0.08625943958759308,0.06247138977050781,0.09750768542289734,0.09279759228229523,0.0,0.0,0.0,0.0,22898.0,19566.0,27285.0,24060.0,0.3651163876056671,-0.04676139945603363,0.0538623173564321,0.0768363522010996,0.2138494998216629,-0.020410647615790367,0.16546335816383362
330,5,-0.00045060444972477853,-0.00022345775505527854,0.002135157585144043,0.03228836879134178,0.00034610379952937365,4.467703547561541e-05,-0.05879288166761398,-0.0006164821097627282,0.007099968381226063,0.051322441548109055,0.13779421150684357,0.017329096794128418,0.0,0.0,0.0,5.1247639930807054e-05,0.02983967401087284,-0.0,0.0,0.0,0.0,0.0016858206363394856,0.0009833272779360414,0.00019248291209805757,23846.0,18385.0,26254.0,25258.0,0.08625943958759308,0.06247138977050781,0.09750768542289734,0.09279759228229523,0.0,0.0,0.0,0.0,22898.0,19566.0,27285.0,24060.0,0.34332525730133057,-0.04884494169030255,0.034019902311696784,0.07613319528076498,-0.1185554787516594,0.00020364130614325404,0.09066901355981827
335,5,-0.0004436252056621015,-0.00024282118829432875,0.001983626512810588,0.010663606226444244,0.002814712468534708,0.021227747201919556,-0.05805709958076477,-0.0016978596104308963,0.006978671532124281,0.057566262781620026,0.02451958879828453,-0.011516718193888664,0.0,0.0,0.0,-0.0023471396416425705,0.009525850415229797,-0.0,0.0,0.0,0.0,0.0016644117422401905,-0.0009628707775846124,0.00020483489788603038,23846.0,18385.0,26254.0,25258.0,0.08625943958759308,0.06247138977050781,0.09750768542289734,0.09279759228229523,0.0,0.0,0.0,0.0,23993.0,18304.0,26022.0,25421.0,0.33904990553855896,-0.05483006731973926,0.03533458977979704,0.07568388207000704,-0.03738056868314743,-0.009210610762238503,0.03389611467719078
340,5,-0.00038144219433888793,-0.0002082870196318254,0.0021370218601077795,0.011904701590538025,-0.0039903707802295685,-0.015107011422514915,-0.05805709958076477,-0.0016978596104308963,0.006978671532124281,0.057566262781620026,0.02451958879828453,-0.011516718193888664,0.0,0.0,0.0,0.004192175809293985,0.010777060873806477,-0.0,0.0,0.0,0.0,0.0016644117422401905,-0.0009628707775846124,0.00020483489788603038,23846.0,18385.0,26254.0,25258.0,0.08625943958759308,0.06247138977050781,0.09750768542289734,0.09279759228229523,0.0,0.0,0.0,0.0,23993.0,18304.0,26022.0,25421.0,0.33905625343322754,-0.04908069413877997,0.03690384691414709,0.07352769916123407,-0.042290251702070236,0.01645083725452423,0.14938993752002716
345,5,-0.0002727643586695194,-0.00019936358148697764,0.0020606087055057287,0.01878630742430687,-0.0024463923182338476,0.006165729369968176,-0.057757675647735596,-0.0021981766913086176,0.0068881153129041195,0.032683808356523514,0.10551822930574417,-0.020607344806194305,0.0,0.0,0.0,0.002716741757467389,0.0174703486263752,-0.0,0.0,0.0,0.0,0.0018363058334216475,0.0013588251313194633,0.00016262414283119142,24758.0,17516.0,25796.0,26485.0,0.09046231210231781,0.05890651047229767,0.0953313410282135,0.09861394762992859,0.0,0.0,0.0,0.0,22301.0,20954.0,28785.0,23320.0,0.3390865921974182,-0.04713290163013671,0.031870581452296966,0.07224656158224425,-0.06856021285057068,0.010661848820745945,0.09189745783805847
351,5,-0.0006314074853435159,-0.00028153491439297795,0.0020921758841723204,-0.04457414522767067,0.010770069435238838,-0.0025697024539113045,-0.057757675647735596,-0.0021981766913086176,0.0068881153129041195,0.032683808356523514,0.10551822930574417,-0.020607344806194305,0.0,0.0,0.0,-0.00954640656709671,-0.041469648480415344,-0.0,0.0,0.0,0.0,0.0018363058334216475,0.0013588251313194633,0.00016262414283119142,24758.0,17516.0,25796.0,26485.0,0.09046231210231781,0.05890651047229767,0.0953313410282135,0.09861394762992859,0.0,0.0,0.0,0.0,22301.0,20954.0,28785.0,23320.0,0.3561662435531616,-0.046672011985294866,0.051247361726413934,0.07380541091898653,0.17089426517486572,-0.03935292363166809,0.12574182450771332
356,5,-0.0006030385266058147,-0.00027951240190304816,0.0019927420653402805,-0.009400584734976292,0.0029478687793016434,0.013149852864444256,-0.05755433067679405,-0.0028430430684238672,0.006615366321057081,-0.006521778646856546,-0.0680876150727272,-0.019099464640021324,0.0,0.0,0.0,-0.0025636358186602592,-0.009929615072906017,-0.0,0.0,0.0,0.0,0.0020144162699580193,0.0005011794855818152,0.00018227701366413385,22729.0,18668.0,27124.0,25200.0,0.08119875937700272,0.06364376097917557,0.10168824344873428,0.0925254300236702,0.0,0.0,0.0,0.0,23763.0,18368.0,26392.0,26120.0,0.33905142545700073,-0.048884397613064075,0.05107962698664774,0.07283410631174768,0.03896509110927582,-0.010060224682092667,0.08336072415113449
361,5,-0.0003929952217731625,-0.00021470172214321792,0.0016168521251529455,0.026585884392261505,-0.008189135231077671,0.056569527834653854,-0.05755433067679405,-0.0028430430684238672,0.006615366321057081,-0.006521778646856546,-0.0680876150727272,-0.019099464640021324,0.0,0.0,0.0,0.008133410476148129,0.024658072739839554,-0.0,0.0,0.0,0.0,0.0020144162699580193,0.0005011794855818152,0.00018227701366413385,22729.0,18668.0,27124.0,25200.0,0.08119875937700272,0.06364376097917557,0.10168824344873428,0.0925254300236702,0.0,0.0,0.0,0.0,23763.0,18368.0,26392.0,26120.0,0.3396041989326477,-0.05009474873457092,0.04712888208356879,0.07033489175427131,-0.0969080999493599,0.0319688655436039,-0.045549824833869934
366,5,0.00014439418737310916,0.00020822389342356473,0.0006735969800502062,0.0832102820277214,-0.061666324734687805,0.14902658760547638,-0.05755433067679405,-0.0028430430684238672,0.006615366321057081,-0.006521778646856546,-0.0680876150727272,-0.019099464640021324,0.0,0.0,0.0,0.05004404857754707,0.06663559377193451,-0.0,0.0,0.0,0.0,0.0020144162699580193,0.0005011794855818152,0.00018227701366413385,22729.0,18668.0,27124.0,25200.0,0.08119875937700272,0.06364376097917557,0.10168824344873428,0.0925254300236702,0.0,0.0,0.0,0.0,23763.0,18368.0,26392.0,26120.0,0.40517839789390564,-0.04027073060099451,0.045899871649828915,0.07631027226674628,-0.3118699789047241,0.2345871776342392,-0.3324112892150879
371,5,-0.0006201641517691314,-0.00025774308596737683,0.001818415941670537,-0.0820750817656517,0.046735476702451706,-0.1155666932463646,-0.057218410074710846,-0.002068056957796216,0.006449349224567413,0.06488412618637085,-0.06795547902584076,-0.0289936363697052,0.0,0.0,0.0,-0.03786805272102356,-0.06784846633672714,-0.0,0.0,0.0,0.0,0.0015394754009321332,-0.0020840028300881386,0.00017689158266875893,20937.0,23847.0,30156.0,22441.0,0.07328986376523972,0.0862639769911766,0.11672788113355637,0.07991033047437668,0.0,0.0,0.0,0.0,22797.0,18702.0,27031.0,25201.0,0.3975849747657776,-0.06572397684206518,0.05949145908531721,0.07061165301586139,0.31175366044044495,-0.1742149442434311,0.4808630049228668
376,5,-0.0005804596585221589,-0.00036673128488473594,0.0014058942906558514,-0.01906389556825161,0.029278991743922234,0.023083031177520752,-0.057218410074710846,-0.002068056957796216,0.006449349224567413,0.06488412618637085,-0.06795547902584076,-0.0289936363697052,0.0,0.0,0.0,-0.027264932170510292,-0.01879948563873768,-0.0,0.0,0.0,0.0,0.0015394754009321332,-0.0020840028300881386,0.00017689158266875893,20937.0,23847.0,30156.0,22441.0,0.07328986376523972,0.0862639769911766,0.11672788113355637,0.07991033047437668,0.0,0.0,0.0,0.0,22797.0,18702.0,27031.0,25201.0,0.3465401530265808,-0.08407362866634974,0.06890554260289931,0.07138731748734624,0.07537004351615906,-0.10934285819530487,0.06393333524465561
381,5,0.0007309910142794251,0.0003465428890194744,-6.701510574202985e-05,0.17788392305374146,-0.09107469022274017,0.21313223242759705,-0.056618582457304,-0.0008743090438656509,0.006358227226883173,0.05155958980321884,-0.19151991605758667,-0.005015937145799398,0.0,0.0,0.0,0.06106235459446907,0.11878105998039246,-0.0,0.0,0.0,0.0,0.0033418629318475723,0.0013886234955862164,0.00015428678307216614,25952.0,19198.0,30814.0,31409.0,0.096072256565094,0.06586121022701263,0.12008832395076752,0.12315726280212402,0.0,0.0,0.0,0.0,20904.0,24219.0,30341.0,21877.0,0.4891512095928192,-0.04820220963832239,0.02421204511871595,0.07771992732299718,-0.6696451306343079,0.345488041639328,-0.5242040157318115
386,5,0.0006257083732634783,0.0003581088094506413,1.898592381621711e-05,0.038625605404376984,-0.02894163504242897,0.05189952254295349,-0.056618582457304,-0.0008743090438656509,0.006358227226883173,0.05155958980321884,-0.19151991605758667,-0.005015937145799398,0.0,0.0,0.0,0.027150548994541168,0.03546569123864174,-0.0,0.0,0.0,0.0,0.0033418629318475723,0.0013886234955862164,0.00015428678307216614,25952.0,19198.0,30814.0,31409.0,0.096072256565094,0.06586121022701263,0.12008832395076752,0.12315726280212402,0.0,0.0,0.0,0.0,20904.0,24219.0,30341.0,21877.0,0.3583943545818329,-0.05254166470522095,0.025054999805397795,0.07658478627250526,-0.1470295786857605,0.1126088872551918,-0.039402369409799576
391,5,0.0006254969048313797,0.00032593467039987445,-0.0001244012819370255,0.011558079160749912,-0.004178110975772142,0.03564406558871269,-0.0563589483499527,0.001808345434255898,0.006390915717929602,0.016685543581843376,-0.2527127265930176,-0.014765060506761074,0.0,0.0,0.0,0.005006504710763693,0.011628977954387665,-0.0,0.0,0.0,0.0,0.0035019752103835344,0.0008725550724193454,0.00019934117153752595,21150.0,23994.0,29408.0,20743.0,0.07421351969242096,0.08693571388721466,0.11294987797737122,0.07244661450386047,0.0,0.0,0.0,0.0,25090.0,19758.0,31277.0,31275.0,0.33906078338623047,-0.06066783422572749,0.023353041610336835,0.07881072432993366,-0.045635104179382324,0.01964750699698925,0.007257974706590176
396,5,0.0006466193590313196,0.00036743248347193,-0.00015535845886915922,0.006424563936889172,-0.007063125725835562,0.015027223154902458,-0.0563589483499527,0.001808345434255898,0.006390915717929602,0.016685543581843376,-0.2527127265930176,-0.014765060506761074,0.0,0.0,0.0,0.007834496907889843,0.006784884724766016,-0.0,0.0,0.0,0.0,0.0035019752103835344,0.0008725550724193454,0.00019934117153752595,21150.0,23994.0,29408.0,20743.0,0.07421351969242096,0.08693571388721466,0.11294987797737122,0.07244661450386047,0.0,0.0,0.0,0.0,25090.0,19758.0,31277.0,31275.0,0.3390518128871918,-0.05715998636834528,0.02160959156048021,0.07925553370418628,-0.026625266298651695,0.03074445202946663,0.06819320470094681
402,5,0.0006365705630742013,0.00041765422793105245,-0.00013468290853779763,0.0005205429042689502,-0.009149981662631035,0.0016135904006659985,-0.05621695518493652,0.0039023752324283123,0.006518153939396143,0.03473681956529617,-0.25577807426452637,0.00966231245547533,0.0,0.0,0.0,0.009917130693793297,0.0011716202134266496,-0.0,0.0,0.0,0.0,0.0009427655022591352,-0.0024065556935966015,0.00019773001258727163,21303.0,23999.0,29453.0,20530.0,0.07488387823104858,0.0869581401348114,0.11317446827888489,0.07152923941612244,0.0,0.0,0.0,0.0,21192.0,20344.0,30660.0,25508.0,0.3390505015850067,-0.058175751864542415,0.02079687830673073,0.078683994894434,-0.004597439896315336,0.038916122168302536,0.10810723900794983
407,5,0.0005206186324357986,0.00039053239743225276,-7.12721302988939e-05,-0.016077110543847084,0.0010520630748942494,-0.008393432013690472,-0.05621695518493652,0.0039023752324283123,0.006518153939396143,0.03473681956529617,-0.25577807426452637,0.00966231245547533,0.0,0.0,0.0,0.00015262125816661865,-0.0148073835298419,-0.0,0.0,0.0,0.0,0.0009427655022591352,-0.0024065556935966015,0.00019773001258727163,21303.0,23999.0,29453.0,20530.0,0.07488387823104858,0.0869581401348114,0.11317446827888489,0.07152923941612244,0.0,0.0,0.0,0.0,21192.0,20344.0,30660.0,25508.0,0.33907076716423035,-0.06138706854474215,0.0259737860058117,0.07930324627462945,0.05810841917991638,0.0005989514756947756,0.13868136703968048
412,5,0.0005256424192339182,0.00042317179031670094,-8.997139957500622e-05,-0.004119800869375467,-0.004253897350281477,9.986791701521724e-05,-0.05597824230790138,0.007386019919067621,0.0067464918829500675,0.012407110072672367,-0.312620609998703,-0.0015814804937690496,0.0,0.0,0.0,0.005292038433253765,-0.0033392610494047403,-0.0,0.0,0.0,0.0,0.002706467639654875,-0.0005782927619293332,0.00023148565378505737,21885.0,19848.0,30631.0,25344.0,0.07743999361991882,0.0686095654964447,0.11915017664432526,0.0932018905878067,0.0,0.0,0.0,0.0,20400.0,20988.0,29868.0,22305.0,0.33904024958610535,-0.05988112092548574,0.021937749468417107,0.07533870022499131,0.013102520257234573,0.020766902714967728,0.11258155107498169
417,5,0.0005717564490623772,0.000506870390381664,-2.6485597118153237e-05,0.005220018792897463,-0.012993973679840565,-0.00885805208235979,-0.05597824230790138,0.007386019919067621,0.0067464918829500675,0.012407110072672367,-0.312620609998703,-0.0015814804937690496,0.0,0.0,0.0,0.013768828473985195,0.005668105557560921,-0.0,0.0,0.0,0.0,0.002706467639654875,-0.0005782927619293332,0.00023148565378505737,21885.0,19848.0,30631.0,25344.0,0.07743999361991882,0.0686095654964447,0.11915017664432526,0.0932018905878067,0.0,0.0,0.0,0.0,20400.0,20988.0,29868.0,22305.0,0.3390711843967438,-0.056311717683473934,0.021824490178338464,0.07512205885926429,-0.022242741659283638,0.054033923894166946,0.14016228914260864
422,5,0.00048535739188082516,0.0005114958039484918,4.2283158109057695e-05,-0.010529857128858566,-0.004545748233795166,-0.012285040691494942,-0.05593095347285271,0.009637721814215183,0.006866914220154285,0.015805749222636223,-0.21945329010486603,-0.0050987182185053825,0.0,0.0,0.0,0.005730179138481617,-0.009461351670324802,-0.0,0.0,0.0,0.0,0.002089041518047452,-0.0019069832051172853,0.00018498113786336035,19564.0,21655.0,30001.0,22300.0,0.06740409880876541,0.07642699033021927,0.11594013124704361,0.07928062230348587,0.0,0.0,0.0,0.0,18814.0,23098.0,30611.0,20850.0,0.3390543460845947,-0.058310285052539504,0.022576994348871386,0.07343809357822326,0.03712671995162964,0.02248724363744259,0.15138670802116394
427,5,0.0004171676409896463,0.0005187300266698003,9.215687896357849e-05,-0.012705523520708084,-0.0023765198420733213,-0.01066783256828785,-0.05593095347285271,0.009637721814215183,0.006866914220154285,0.015805749222636223,-0.21945329010486603,-0.0050987182185053825,0.0,0.0,0.0,0.0036943829618394375,-0.011600765399634838,-0.0,0.0,0.0,0.0,0.002089041518047452,-0.0019069832051172853,0.00018498113786336035,19564.0,21655.0,30001.0,22300.0,0.06740409880876541,0.07642699033021927,0.11594013124704361,0.07928062230348587,0.0,0.0,0.0,0.0,18814.0,23098.0,30611.0,20850.0,0.3390587270259857,-0.05959561258779582,0.026901162170639516,0.07345506095200864,0.045522820204496384,0.014498578384518623,0.1474405825138092
432,5,0.0004902058863081038,0.0005247299559414387,8.470577449770644e-05,0.006413696799427271,-0.001552945002913475,-0.0021571952383965254,-0.055580079555511475,0.012729194015264511,0.007024514488875866,0.04622017964720726,-0.3156985640525818,0.01270649116486311,0.0,0.0,0.0,0.002944914624094963,0.006787133403122425,-0.0,0.0,0.0,0.0,0.0016755015822127461,-0.0018811760237440467,0.00021021364955231547,20062.0,22349.0,30176.0,20922.0,0.06952312588691711,0.07949820160865784,0.11682657897472382,0.0732228010892868,0.0,0.0,0.0,0.0,20984.0,20426.0,29477.0,22730.0,0.33904287219047546,-0.05710223263901712,0.02287399116887611,0.07312425666807738,-0.02663385681807995,0.011556931771337986,0.12214156985282898
437,5,0.000527082069311291,0.0005939057446084917,0.00011575969983823597,0.007086772006005049,-0.010150491259992123,-0.004994708113372326,-0.055580079555511475,0.012729194015264511,0.007024514488875866,0.04622017964720726,-0.3156985640525818,0.01270649116486311,0.0,0.0,0.0,0.011278039775788784,0.007504729554057121,-0.0,0.0,0.0,0.0,0.0016755015822127461,-0.0018811760237440467,0.00021021364955231547,20062.0,22349.0,30176.0,20922.0,0.06952312588691711,0.07949820160865784,0.11682657897472382,0.0732228010892868,0.0,0.0,0.0,0.0,20984.0,20426.0,29477.0,22730.0,0.33906471729278564,-0.0547646072414828,0.02012898937007239,0.07394117894407468,-0.02944990061223507,0.04425904527306557,0.13143298029899597
442,5,0.0005410558078438044,0.0005802271189168096,0.000123088393593207,0.00408235564827919,-0.0011301396880298853,-0.0025244292337447405,-0.05475033447146416,0.014325867407023907,0.007180311717092991,0.10718142986297607,-0.19230830669403076,0.010779192671179771,0.0,0.0,0.0,0.002674794988706708,0.004681507125496864,-0.0,0.0,0.0,0.0,0.001991899684071541,-0.0017027631402015686,0.00022444830392487347,20648.0,20911.0,29537.0,22520.0,0.0720372349023819,0.07317750155925751,0.11359590291976929,0.08026066422462463,0.0,0.0,0.0,0.0,20035.0,22621.0,30024.0,20844.0,0.33903852105140686,-0.05355219387898408,0.022218719173585862,0.07403066381900594,-0.018371179699897766,0.010496906004846096,0.12456473708152771
447,5,0.0005353314918465912,0.0006653050077147782,9.807496098801494e-05,0.00042330246651545167,-0.012249946594238281,0.0027445515152066946,-0.05475033447146416,0.014325867407023907,0.007180311717092991,0.10718142986297607,-0.19230830669403076,0.010779192671179771,0.0,0.0,0.0,0.01344442181289196,0.0012098860461264849,-0.0,0.0,0.0,0.0,0.001991899684071541,-0.0017027631402015686,0.00022444830392487347,20648.0,20911.0,29537.0,22520.0,0.0720372349023819,0.07317750155925751,0.11359590291976929,0.08026066422462463,0.0,0.0,0.0,0.0,20035.0,22621.0,30024.0,20844.0,0.33906447887420654,-0.050619141984715815,0.021603272698607512,0.0757837489784838,-0.004748397972434759,0.05276012793183327,0.10885633528232574
452,5,0.0005355721223168075,0.0005945571465417743,0.00012674997560679913,0.00016067895921878517,0.006229716818779707,-0.0031911362893879414,-0.053146857768297195,0.016797592863440514,0.007350644562393427,0.14299696683883667,-0.18471890687942505,-0.0070042419247329235,0.0,0.0,0.0,-0.0042704264633357525,0.0009872507071122527,-0.0,0.0,0.0,0.0,0.0016786176711320877,-0.0013664189027622342,0.00017154273518826813,20445.0,22420.0,29953.0,20728.0,0.07116077840328217,0.07981652021408081,0.11569654941558838,0.07238484919071198,0.0,0.0,0.0,0.0,20860.0,21265.0,29367.0,22158.0,0.33903685212135315,-0.05328785823830426,0.019845619750557795,0.0734277807231803,-0.0038747761864215136,-0.016756370663642883,0.12743444740772247
457,5,0.0005829969886690378,0.000623835891019553,8.271127444459125e-05,0.006687684450298548,-0.0022301122080534697,0.005208075977861881,-0.053146857768297195,0.016797592863440514,0.007350644562393427,0.14299696683883667,-0.18471890687942505,-0.0070042419247329235,0.0,0.0,0.0,0.003885348793119192,0.007315726950764656,-0.0,0.0,0.0,0.0,0.0016786176711320877,-0.0013664189027622342,0.00017154273518826813,20445.0,22420.0,29953.0,20728.0,0.07116077840328217,0.07981652021408081,0.11569654941558838,0.07238484919071198,0.0,0.0,0.0,0.0,20860.0,21265.0,29367.0,22158.0,0.3390452265739441,-0.05058618647340644,0.016485866137006838,0.07325524341464365,-0.02870829775929451,0.015247528441250324,0.10204177349805832
462,5,0.0005705750081688166,0.0006453042151406407,6.58701392239891e-05,0.0002672335540410131,-0.003674595383927226,0.003920181654393673,-0.053146857768297195,0.016797592863440514,0.007350644562393427,0.14299696683883667,-0.18471890687942505,-0.0070042419247329235,0.0,0.0,0.0,0.005328078288584948,0.0011967804748564959,-0.0,0.0,0.0,0.0,0.0016786176711320877,-0.0013664189027622342,0.00017154273518826813,20445.0,22420.0,29953.0,20728.0,0.07116077840328217,0.07981652021408081,0.11569654941558838,0.07238484919071198,0.0,0.0,0.0,0.0,20860.0,21265.0,29367.0,22158.0,0.3390386700630188,-0.04847312352281573,0.014123006797337644,0.07327075078858215,-0.004697024822235107,0.02090856060385704,0.10595136135816574
