timestamp,dt,pos_x,pos_y,pos_z,vel_x,vel_y,vel_z,roll,pitch,yaw,agv_x,agv_y,agv_z,x_ref,y_ref,z_ref,roll_ref,pitch_ref,yaw_ref,x_vel_ref,y_vel_ref,z_vel_ref,x_torque,y_torque,z_torque,w0,w1,w2,w3,u0,u1,u2,u3,m0req,m1req,m2req,m3req,thrust0,thrust1,thrust2,thrust3,thrust_ref,roll_vicon,pitch_vicon,yaw_vicon,acc_x,acc_y,acc_z
5,5,0.0,0.0,0.0,-0.0025538275949656963,-4.873927537119016e-05,-0.0010022437199950218,-0.01962619088590145,0.4141862988471985,0.00302275107242167,-0.0015700996154919267,0.0005991914658807218,0.003706352086737752,0.0,0.0,0.0,4.65779157821089e-05,-0.0024405797012150288,-0.0,0.0,0.0,0.0,0.0008098031976260245,-0.004999999888241291,9.428364865016192e-05,0.0,0.0,0.0,0.0,0.0,0.0,0.0,0.0,0.0,0.0,0.0,0.0,0.0,0.0,0.0,0.0,0.3390346169471741,-0.14694210865958324,-0.5026093479416217,-0.12091225226287627,0.00957685336470604,0.0001827722880989313,0.0030067311599850655
23,18,0.0,0.0,0.0,0.0003006455663125962,-0.0008477055816911161,-0.0021784380078315735,-0.01962619088590145,0.4141862988471985,0.00302275107242167,-0.0015700996154919267,0.0005991914658807218,0.003706352086737752,0.0,0.0,0.0,0.0008101159473881125,0.00028731420752592385,-0.0,0.0,0.0,0.0,0.0008098031976260245,-0.004999999888241291,9.428364865016192e-05,0.0,0.0,0.0,0.0,0.0,0.0,0.0,0.0,0.0,0.0,0.0,0.0,0.0,0.0,0.0,0.0,0.33903372287750244,-0.14726334223390483,-0.5020871109638511,-0.12068175496400552,-0.001127420924603939,0.00317889591678977,0.0065353140234947205
28,5,0.0,0.0,0.0,0.0008205878548324108,-0.0008822072995826602,0.0020127976313233376,-0.01962619088590145,0.4141862988471985,0.00302275107242167,-0.0015700996154919267,0.0005991914658807218,0.003706352086737752,0.0,0.0,0.0,0.0008430875604972243,0.0007842007325962186,-0.0,0.0,0.0,0.0,0.0008098031976260245,-0.004999999888241291,9.428364865016192e-05,0.0,0.0,0.0,0.0,0.0,0.0,0.0,0.0,0.0,0.0,0.0,0.0,0.0,0.0,0.0,0.0,0.3390338122844696,-0.1480876911767324,-0.5023496509642715,-0.12090332750643304,-0.0030772043392062187,0.0033082773443311453,-0.006038392893970013
33,5,0.0,0.0,0.0,0.0008205878548324108,-0.0008822072995826602,0.0020127976313233376,-0.019644135609269142,0.4141741693019867,0.003021086333319545,0.001135756028816104,0.0011749581899493933,-0.0009808348258957267,0.0,0.0,0.0,0.0008430875604972243,0.0007842007325962186,-0.0,0.0,0.0,0.0,0.0008102876017801464,-0.004999999888241291,8.915355283534154e-05,0.0,0.0,0.0,0.0,0.0,0.0,0.0,0.0,0.0,0.0,0.0,0.0,0.0,0.0,0.0,0.0,0.3390338122844696,-0.1480876911767324,-0.5023496509642715,-0.12090332750643304,-0.0030772043392062187,0.0033082773443311453,-0.006038392893970013
39,5,-4.6168443077476695e-06,-5.400499048846541e-06,7.936518522910774e-05,-0.0010378469014540315,-0.0010454084258526564,-0.005807923153042793,-0.019644135609269142,0.4141741693019867,0.003021086333319545,0.001135756028816104,0.0011749581899493933,-0.0009808348258957267,0.0,0.0,0.0,0.000991040258668363,-0.0009986746590584517,-0.0,0.0,0.0,0.0,0.0008102876017801464,-0.004999999888241291,8.915355283534154e-05,0.0,0.0,0.0,0.0,0.0,0.0,0.0,0.0,0.0,0.0,0.0,0.0,0.0,0.0,0.0,0.0,0.33903393149375916,-0.14765555968735602,-0.5025394530412212,-0.12073488192087622,0.003918807487934828,0.003888837294653058,0.01904083602130413
47,8,-1.873980181699153e-05,-1.4511312656395603e-05,9.701271483208984e-05,-0.0022885682992637157,0.0009618913754820824,-0.00421303091570735,-0.019644135609269142,0.4141741693019867,0.003021086333319545,0.001135756028816104,0.0011749581899493933,-0.0009808348258957267,0.0,0.0,0.0,-0.0009400250273756683,-0.002213736530393362,-0.0,0.0,0.0,0.0,0.0008102876017801464,-0.004999999888241291,8.915355283534154e-05,0.0,0.0,0.0,0.0,0.0,0.0,0.0,0.0,0.0,0.0,0.0,0.0,0.0,0.0,0.0,0.0,0.3390345871448517,-0.14739328235484395,-0.5010776810151547,-0.1207037380199114,0.008686716668307781,-0.003688668366521597,0.014523296616971493
52,5,-7.670487320865504e-06,3.1744718853587983e-06,3.9036181988194585e-05,0.0008631335804238915,-0.0021874425001442432,0.006852804683148861,-0.019625799730420113,0.41417261958122253,0.003021181793883443,0.0016061717178672552,0.0023137039970606565,0.0004837562737520784,0.0,0.0,0.0,0.0020937526132911444,0.0008125663734972477,-0.0,0.0,0.0,0.0,0.0008457678486593068,-0.004999999888241291,9.074994886759669e-05,15891.0,28166.0,31517.0,16830.0,0.05240514129400253,0.10677430033683777,0.12371821701526642,0.05613616108894348,0.0,0.0,0.0,0.0,0.0,0.0,0.0,0.0,0.33903446793556213,-0.14654454937677117,-0.5025164798040616,-0.12039698507316292,-0.003188499715179205,0.008215904235839844,-0.019154010340571404
57,5,7.58433889131993e-05,-7.798456863383763e-06,-4.165758582530543e-05,0.011950883083045483,0.0008799773640930653,0.013352969661355019,-0.019625799730420113,0.41417261958122253,0.003021181793883443,0.0016061717178672552,0.0023137039970606565,0.0004837562737520784,0.0,0.0,0.0,-0.0008528761100023985,0.011525020934641361,-0.0,0.0,0.0,0.0,0.0008457678486593068,-0.004999999888241291,9.074994886759669e-05,15891.0,28166.0,31517.0,16830.0,0.05240514129400253,0.10677430033683777,0.12371821701526642,0.05613616108894348,0.0,0.0,0.0,0.0,0.0,0.0,0.0,0.0,0.33905625343322754,-0.14309827150768617,-0.5060989177234941,-0.1184292226893224,-0.04522629454731941,-0.0033469204790890217,-0.03978898748755455
62,5,-6.063326873118058e-05,3.884957914124243e-05,-9.32208786252886e-05,-0.015521467663347721,-0.006266731768846512,0.011224751360714436,-0.019787663593888283,0.41418910026550293,0.0032651845831424,0.0033825684804469347,-0.0040075392462313175,0.037484098225831985,0.0,0.0,0.0,0.006041212473064661,-0.014915181323885918,-0.0,0.0,0.0,0.0,0.0008458426455035806,-0.004999999888241291,0.00014674403064418584,16548.0,27637.0,32015.0,16177.0,0.055009063333272934,0.10418132692575455,0.12631124258041382,0.053532298654317856,0.0,0.0,0.0,0.0,16523.0,27901.0,31767.0,16203.0,0.33907750248908997,-0.1430378293572282,-0.49889734901706384,-0.12323553120658905,0.05853160098195076,0.023708701133728027,-0.03432844206690788
67,5,0.00025631627067923546,0.00013048994878772646,0.00013263235450722277,0.03971649706363678,-0.014709671027958393,-0.028252027928829193,-0.019787663593888283,0.41418910026550293,0.0032651845831424,0.0033825684804469347,-0.0040075392462313175,0.037484098225831985,0.0,0.0,0.0,0.014521265402436256,0.03552358224987984,-0.0,0.0,0.0,0.0,0.0008458426455035806,-0.004999999888241291,0.00014674403064418584,16548.0,27637.0,32015.0,16177.0,0.055009063333272934,0.10418132692575455,0.12631124258041382,0.053532298654317856,0.0,0.0,0.0,0.0,16523.0,27901.0,31767.0,16203.0,0.36582517623901367,-0.1415824694200819,-0.5180213742818035,-0.11428381666962327,-0.15036284923553467,0.055892378091812134,0.08735743910074234
72,5,0.00037843306199647486,8.853092003846541e-05,0.0001518161006970331,0.029011299833655357,0.0014613625826314092,-0.011161331087350845,-0.019700001925230026,0.4142338037490845,0.0031620797235518694,-0.01189934741705656,0.003643455682322383,-0.10456987470388412,0.0,0.0,0.0,-0.0013707061298191547,0.027861738577485085,-0.0,0.0,0.0,0.0,0.0007816569996066391,-0.004999999888241291,-1.2991004894047364e-07,14778.0,29171.0,30549.0,17898.0,0.04807433858513832,0.11176091432571411,0.11873199045658112,0.060467351227998734,0.0,0.0,0.0,0.0,13793.0,29857.0,29871.0,18805.0,0.34408462047576904,-0.15656587121546994,-0.5255851005788013,-0.11894568622680708,-0.11094382405281067,-0.004962528124451637,0.03676570579409599
77,5,0.0003964078496210277,0.00010729182395152748,0.00012946201604790986,0.01121986098587513,-0.002188117243349552,-0.00021882751025259495,-0.019700001925230026,0.4142338037490845,0.0031620797235518694,-0.01189934741705656,0.003643455682322383,-0.10456987470388412,0.0,0.0,0.0,0.0024826209992170334,0.011324345134198666,-0.0,0.0,0.0,0.0,0.0007816569996066391,-0.004999999888241291,-1.2991004894047364e-07,14778.0,29171.0,30549.0,17898.0,0.04807433858513832,0.11176091432571411,0.11873199045658112,0.060467351227998734,0.0,0.0,0.0,0.0,13793.0,29857.0,29871.0,18805.0,0.3390563726425171,-0.15651950627645442,-0.5253051859111668,-0.1185131513036988,-0.04443863034248352,0.00885676871985197,0.004231007304042578
83,6,0.00036322567029856145,0.00016832072287797928,-0.00021447787003125995,-0.0034781822469085455,-0.01014484092593193,0.04817803204059601,-0.019700001925230026,0.4142338037490845,0.0031620797235518694,-0.01189934741705656,0.003643455682322383,-0.10456987470388412,0.0,0.0,0.0,0.010940955951809883,-0.002767538418993354,-0.0,0.0,0.0,0.0,0.0007816569996066391,-0.004999999888241291,-1.2991004894047364e-07,14778.0,29171.0,30549.0,17898.0,0.04807433858513832,0.11176091432571411,0.11873199045658112,0.060467351227998734,0.0,0.0,0.0,0.0,13793.0,29857.0,29871.0,18805.0,0.3390551805496216,-0.15955839261880178,-0.511594683974272,-0.11107247191950953,0.01085930410772562,0.03903105854988098,-0.1461315155029297
89,5,0.00026951669133268297,0.000512549770064652,-0.0004189284227322787,-0.014162709936499596,-0.05123551934957504,0.04307648912072182,-0.019609956070780754,0.4141782820224762,0.0024945796467363834,-0.0085874292999506,0.03895355388522148,0.09168613702058792,0.0,0.0,0.0,0.04834338650107384,-0.011580289341509342,-0.0,0.0,0.0,0.0,0.0011345806997269392,-0.004999999888241291,0.0001212196730193682,16371.0,27113.0,32504.0,16360.0,0.05430522561073303,0.10163562744855881,0.12887874245643616,0.05425792187452316,0.0,0.0,0.0,0.0,13793.0,29857.0,29871.0,18805.0,0.38366231322288513,-0.13310369650675646,-0.4952946388603149,-0.09429806336467383,0.05136146768927574,0.19505327939987183,-0.13470254838466644
94,5,0.00025008339434862137,0.0004782631294801831,-0.00042699958430603147,-0.006969474721699953,-0.010570527985692024,0.01405290700495243,-0.019609956070780754,0.4141782820224762,0.0024945796467363834,-0.0085874292999506,0.03895355388522148,0.09168613702058792,0.0,0.0,0.0,0.011895939707756042,-0.006232896354049444,-0.0,0.0,0.0,0.0,0.0011345806997269392,-0.004999999888241291,0.0001212196730193682,16371.0,27113.0,32504.0,16360.0,0.05430522561073303,0.10163562744855881,0.12887874245643616,0.05425792187452316,0.0,0.0,0.0,0.0,13793.0,29857.0,29871.0,18805.0,0.33906418085098267,-0.133148363299564,-0.4939147028390977,-0.09474424562657666,0.02445782534778118,0.042439255863428116,-0.04868559166789055
99,5,6.441071309382096e-05,0.00040129339322447777,-0.00046907615615054965,-0.028085017576813698,0.007604604586958885,0.010106594301760197,-0.01960868388414383,0.41352325677871704,0.0033593359403312206,0.044482842087745667,0.11630099266767502,0.03348555415868759,0.0,0.0,0.0,-0.007214934099465609,-0.02638300135731697,-0.0,0.0,0.0,0.0,0.0005653083208017051,-0.004999999888241291,0.00021302344975993037,17516.0,28010.0,32148.0,15827.0,0.05890682712197304,0.1060035228729248,0.12700776755809784,0.052153248339891434,0.0,0.0,0.0,0.0,17222.0,26710.0,32871.0,15493.0,0.3426324427127838,-0.1328657859066382,-0.4824209264860258,-0.10373958316238746,0.1046108826994896,-0.02600993774831295,-0.039641477167606354
104,5,0.00022244834690354764,0.00045155524276196957,-0.0003555977891664952,0.013699762523174286,-0.004755278583616018,-0.012854996137320995,-0.01960868388414383,0.41352325677871704,0.0033593359403312206,0.044482842087745667,0.11630099266767502,0.03348555415868759,0.0,0.0,0.0,0.005786004476249218,0.013494743034243584,-0.0,0.0,0.0,0.0,0.0005653083208017051,-0.004999999888241291,0.00021302344975993037,17516.0,28010.0,32148.0,15827.0,0.05890682712197304,0.1060035228729248,0.12700776755809784,0.052153248339891434,0.0,0.0,0.0,0.0,17222.0,26710.0,32871.0,15493.0,0.3390701413154602,-0.1332434623379828,-0.4937284132814969,-0.09577657071066287,-0.052956584841012955,0.020642325282096863,0.030455399304628372
109,5,0.00022815357078798115,0.00043497656588442624,-0.0003642477677203715,0.004908659961074591,0.0008944332366809249,-0.0026455007027834654,-0.019822534173727036,0.41193875670433044,0.0026852318551391363,-0.0740433782339096,0.12293435633182526,-0.09546352922916412,0.0,0.0,0.0,-0.000151887143147178,0.005113968160003424,-0.0,0.0,0.0,0.0,0.0014798094052821398,-0.004999999888241291,-6.988274253671989e-05,13197.0,28662.0,31045.0,19340.0,0.04209215193986893,0.10922451317310333,0.12127868831157684,0.06645983457565308,0.0,0.0,0.0,0.0,13920.0,28303.0,31389.0,18693.0,0.33903804421424866,-0.13475679244177483,-0.49298089686921476,-0.09662703963746266,-0.020067386329174042,-0.0005418299697339535,-0.0015298653161153197
114,5,0.0002055580262094736,0.00042857800144702196,-0.00040381416329182684,-0.001690776669420302,0.0011641301680356264,0.004745646379888058,-0.019822534173727036,0.41193875670433044,0.0026852318551391363,-0.0740433782339096,0.12293435633182526,-0.09546352922916412,0.0,0.0,0.0,-0.0004200278490316123,-0.001212431350722909,-0.0,0.0,0.0,0.0,0.0014798094052821398,-0.004999999888241291,-6.988274253671989e-05,13197.0,28662.0,31045.0,19340.0,0.04209215193986893,0.10922451317310333,0.12127868831157684,0.06645983457565308,0.0,0.0,0.0,0.0,13920.0,28303.0,31389.0,18693.0,0.3390338718891144,-0.133331724331681,-0.4896235947593967,-0.09714264821055298,0.004757274873554707,-0.0014977121027186513,-0.025564542040228844
119,5,0.0001484877720940858,0.0005057951784692705,-0.00042966631008312106,-0.008497070521116257,-0.010461168363690376,0.005042994860559702,-0.019958939403295517,0.40797361731529236,0.0033496166579425335,-0.051098164170980453,0.3248193562030792,-0.02652406319975853,0.0,0.0,0.0,0.01194355171173811,-0.007786109112203121,-0.0,0.0,0.0,0.0,0.001176612451672554,-0.004999999888241291,0.00011905781138921157,15323.0,27736.0,31926.0,17386.0,0.05018152296543121,0.10466186702251434,0.12584882974624634,0.058377958834171295,0.0,0.0,0.0,0.0,16960.0,26547.0,33017.0,15762.0,0.33906805515289307,-0.12599403842853996,-0.48353038915151675,-0.09448939564645173,0.030553309246897697,0.042608872056007385,-0.02820853516459465
124,5,0.00018720443767961115,0.0005146616022102535,-0.00031638878863304853,0.0028712130151689053,-0.0043796515092253685,-0.014345955103635788,-0.019958939403295517,0.40797361731529236,0.0033496166579425335,-0.051098164170980453,0.3248193562030792,-0.02652406319975853,0.0,0.0,0.0,0.005580413620918989,0.0030856854282319546,-0.0,0.0,0.0,0.0,0.001176612451672554,-0.004999999888241291,0.00011905781138921157,15323.0,27736.0,31926.0,17386.0,0.05018152296543121,0.10466186702251434,0.12584882974624634,0.058377958834171295,0.0,0.0,0.0,0.0,16960.0,26547.0,33017.0,15762.0,0.3390405774116516,-0.12857760928078435,-0.4841492511623468,-0.09703592791615948,-0.012321490794420242,0.019956661388278008,0.03017796017229557
129,5,0.00018394453218206763,0.0003857886476907879,-0.0005073329084552824,0.00040497779264114797,0.016728322952985764,0.022428389638662338,-0.01977059431374073,0.40463390946388245,0.0027314245235174894,-0.003493248950690031,0.4911682903766632,0.024001074954867363,0.0,0.0,0.0,-0.016761967912316322,0.0007886051898822188,-0.0,0.0,0.0,0.0,0.0007771044038236141,-0.004999999888241291,3.1618616048945114e-05,15851.0,28336.0,31356.0,16869.0,0.05224653705954552,0.10760844498872757,0.122884102165699,0.056294795125722885,0.0,0.0,0.0,0.0,14619.0,28373.0,31324.0,18052.0,0.339081346988678,-0.13520865977505536,-0.48302754918834634,-0.09658296759778506,-0.0030944873578846455,-0.059799160808324814,-0.08412136882543564
134,5,0.00018081293092109263,0.0005907251033931971,-0.00020515029609669,-0.0003169324772898108,-0.02367260865867138,-0.03557704761624336,-0.01977059431374073,0.40463390946388245,0.0027314245235174894,-0.003493248950690031,0.4911682903766632,0.024001074954867363,0.0,0.0,0.0,0.026041124016046524,0.0001040860588545911,-0.0,0.0,0.0,0.0,0.0007771044038236141,-0.004999999888241291,3.1618616048945114e-05,15851.0,28336.0,31356.0,16869.0,0.05224653705954552,0.10760844498872757,0.122884102165699,0.056294795125722885,0.0,0.0,0.0,0.0,14619.0,28373.0,31324.0,18052.0,0.3391485810279846,-0.12503173266348425,-0.4761945865032957,-0.09726053657752011,-0.00040870491648092866,0.09291403740644455,0.09268978983163834
139,5,0.00021186556841712445,0.00065260985866189,-0.00016620852693449706,0.004252290353178978,-0.01576564460992813,-0.016124961897730827,-0.020178409293293953,0.39769288897514343,0.003390829311683774,-0.029047595337033272,0.6932576894760132,0.06742335855960846,0.0,0.0,0.0,0.01786450669169426,0.004524456802755594,-0.0,0.0,0.0,0.0,0.0011085029691457748,-0.004999999888241291,0.00019406707724556327,16548.0,26902.0,32693.0,16178.0,0.055006980895996094,0.1006164476275444,0.12987947463989258,0.05353771895170212,0.0,0.0,0.0,0.0,16925.0,27393.0,32242.0,15794.0,0.3390911817550659,-0.12097282886520828,-0.4713035934994424,-0.096756538459095,-0.01775408908724785,0.06373382359743118,0.03416665270924568
144,5,0.00020576472161337733,0.0002455796056892723,-0.00043169717537239194,0.00042156921699643135,0.05225453898310661,0.03233092278242111,-0.020178409293293953,0.39769288897514343,0.003390829311683774,-0.029047595337033272,0.6932576894760132,0.06742335855960846,0.0,0.0,0.0,0.01790236309170723,0.00453563267365098,-0.0,0.0,0.0,0.0,0.0011085029691457748,-0.004999999888241291,0.00019406707724556327,16548.0,26902.0,32693.0,16178.0,0.055006980895996094,0.1006164476275444,0.12987947463989258,0.05353771895170212,0.0,0.0,0.0,0.0,16925.0,27393.0,32242.0,15794.0,0.339091420173645,-0.14030549062059244,-0.47589220633081464,-0.09815545741968817,-0.0033994950354099274,-0.19344507157802582,-0.11576754599809647
149,5,0.0002296810271218419,0.0007183477282524109,-0.00016104250971693546,0.0034747521858662367,-0.05051117390394211,-0.02819237858057022,-0.020095301792025566,0.39170217514038086,0.0031917118467390537,-0.02266542986035347,0.8746063113212585,0.014691635966300964,0.0,0.0,0.0,0.04857798293232918,0.0034104904625564814,-0.0,0.0,0.0,0.0,0.0010283783776685596,-0.004999999888241291,5.49779724678956e-05,14240.0,26822.0,32776.0,18412.0,0.04601600766181946,0.10022987425327301,0.13032013177871704,0.06258279085159302,0.0,0.0,0.0,0.0,14448.0,26392.0,33165.0,18220.0,0.3808681070804596,-0.11521876819452669,-0.4583485932651959,-0.09501969026137214,-0.015016689896583557,0.19457179307937622,0.06861976534128189
154,5,0.00010516554903006181,0.00043389981146901846,-0.00018059326976072043,-0.016389740630984306,0.024669352918863297,-0.0057206060737371445,-0.020095301792025566,0.39170217514038086,0.0031917118467390537,-0.02266542986035347,0.8746063113212585,0.014691635966300964,0.0,0.0,0.0,-0.024650488048791885,-0.015175854787230492,-0.0,0.0,0.0,0.0,0.0010283783776685596,-0.004999999888241291,5.49779724678956e-05,14240.0,26822.0,32776.0,18412.0,0.04601600766181946,0.10022987425327301,0.13032013177871704,0.06258279085159302,0.0,0.0,0.0,0.0,14448.0,26392.0,33165.0,18220.0,0.34239763021469116,-0.13308749172739004,-0.4600185209517165,-0.09924679836552039,0.060120243579149246,-0.08879484981298447,0.00043867065687663853
159,5,0.00021396830561570823,0.0007325883489102125,0.00011056743824156001,0.010315464809536934,-0.0344155877828598,-0.04247868061065674,-0.020095301792025566,0.39170217514038086,0.0031917118467390537,-0.02266542986035347,0.8746063113212585,0.014691635966300964,0.0,0.0,0.0,0.03579898923635483,0.009838014841079712,-0.0,0.0,0.0,0.0,0.0010283783776685596,-0.004999999888241291,5.49779724678956e-05,14240.0,26822.0,32776.0,18412.0,0.04601600766181946,0.10022987425327301,0.13032013177871704,0.06258279085159302,0.0,0.0,0.0,0.0,14448.0,26392.0,33165.0,18220.0,0.3571529686450958,-0.11970280335415703,-0.4526816876653678,-0.09734284974460766,-0.04064115881919861,0.1344922035932541,0.11457565426826477
164,5,7.589220331283286e-05,0.00030087988125160336,-0.00018042864394374192,-0.016236016526818275,0.050114504992961884,0.027995847165584564,-0.020650751888751984,0.3809729218482971,0.0034405190963298082,-0.03912514075636864,0.8851863145828247,0.08903151750564575,0.0,0.0,0.0,-0.04617573693394661,-0.013562077656388283,-0.0,0.0,0.0,0.0,0.002056266414001584,-0.004999999888241291,0.00019732977671083063,22298.0,31320.0,32402.0,15230.0,0.07927241921424866,0.1226980984210968,0.1283455640077591,0.049820028245449066,0.0,0.0,0.0,0.0,22466.0,31667.0,32059.0,15037.0,0.3804270625114441,-0.13380111560258187,-0.45451864161294203,-0.09483649765957718,0.059649497270584106,-0.18474386632442474,-0.10090677440166473
169,5,5.2253639296395704e-05,0.0007233936339616776,0.00032546307193115354,-0.008180203847587109,-0.04411756992340088,-0.06242608278989792,-0.020650751888751984,0.3809729218482971,0.0034405190963298082,-0.03912514075636864,0.8851863145828247,0.08903151750564575,0.0,0.0,0.0,0.04375822842121124,-0.00687947403639555,-0.0,0.0,0.0,0.0,0.002056266414001584,-0.004999999888241291,0.00019732977671083063,22298.0,31320.0,32402.0,15230.0,0.07927241921424866,0.1226980984210968,0.1283455640077591,0.049820028245449066,0.0,0.0,0.0,0.0,22466.0,31667.0,32059.0,15037.0,0.3715689182281494,-0.12017128805525053,-0.4419668082410239,-0.10367256695399672,0.0295570008456707,0.17100495100021362,0.17745758593082428
175,5,-0.00012634355516638607,0.0008679351885803044,0.0005066196317784488,-0.027457667514681816,-0.03347109258174896,-0.04408974200487137,-0.020614614710211754,0.3727279007434845,0.0038422858342528343,0.0023506348952651024,1.192323088645935,-0.000793670245911926,0.0,0.0,0.0,0.03402082622051239,-0.024101002141833305,-0.0,0.0,0.0,0.0,-0.0011637137504294515,-0.004999999888241291,0.00019217109365854412,21848.0,32137.0,31589.0,15741.0,0.07727884501218796,0.12695123255252838,0.12409242242574692,0.05181359872221947,0.0,0.0,0.0,0.0,14733.0,27090.0,34217.0,20104.0,0.3688547611236572,-0.1008446994030275,-0.4267631807274523,-0.09852171200917402,0.10282140970230103,0.13200324773788452,0.12613147497177124
180,5,7.07760182194761e-06,0.000528403208591044,0.0003225920663680881,0.01044166088104248,0.03749315068125725,0.012536933645606041,-0.020614614710211754,0.3727279007434845,0.0038422858342528343,0.0023506348952651024,1.192323088645935,-0.000793670245911926,0.0,0.0,0.0,-0.0361044816672802,0.00967284943908453,-0.0,0.0,0.0,0.0,-0.0011637137504294515,-0.004999999888241291,0.00019217109365854412,21848.0,32137.0,31589.0,15741.0,0.07727884501218796,0.12695123255252838,0.12409242242574692,0.05181359872221947,0.0,0.0,0.0,0.0,14733.0,27090.0,34217.0,20104.0,0.35763436555862427,-0.11350665462086067,-0.4247298435427005,-0.09496999321470469,-0.04001197963953018,-0.13582096993923187,-0.04496031254529953
185,5,0.00015805961447767913,0.0008192500681616366,0.00036303733941167593,0.024269981309771538,-0.029470613226294518,-0.0019012595294043422,-0.02114110253751278,0.3575868308544159,0.0036147902719676495,-0.009675079956650734,1.3857275247573853,0.02594149298965931,0.0,0.0,0.0,0.030806362628936768,0.02219967544078827,-0.0,0.0,0.0,0.0,0.0025082507636398077,-0.004999999888241291,0.0001176268924609758,14942.0,26809.0,34468.0,19915.0,0.0487063005566597,0.10016690939664841,0.13938617706298828,0.06889557093381882,0.0,0.0,0.0,0.0,16134.0,26711.0,35868.0,20511.0,0.36098432540893555,-0.09538151535408837,-0.42346941109473146,-0.09369849980806103,-0.0927000492811203,0.11698596924543381,-9.446043259231374e-05
190,5,7.253813237184659e-05,0.0008431824971921742,0.0005069386679679155,-0.004692014306783676,-0.012191724963486195,-0.020716559141874313,-0.02114110253751278,0.3575868308544159,0.0036147902719676495,-0.009675079956650734,1.3857275247573853,0.02594149298965931,0.0,0.0,0.0,0.014707869850099087,-0.0041665141470730305,-0.0,0.0,0.0,0.0,0.0025082507636398077,-0.004999999888241291,0.0001176268924609758,14942.0,26809.0,34468.0,19915.0,0.0487063005566597,0.10016690939664841,0.13938617706298828,0.06889557093381882,0.0,0.0,0.0,0.0,16134.0,26711.0,35868.0,20511.0,0.33907321095466614,-0.09066839253642399,-0.4081388592999432,-0.0909763513161753,0.016349388286471367,0.0524718314409256,0.05963161215186119
195,5,1.4419720173464157e-05,0.000986032304354012,0.0006075365236029029,-0.009544181637465954,-0.023656485602259636,-0.0202986728399992,-0.021188564598560333,0.34516075253486633,0.003871995722874999,-0.037084612995386124,1.608782172203064,0.10616150498390198,0.0,0.0,0.0,0.026935113593935966,-0.008851440623402596,-0.0,0.0,0.0,0.0,0.002660309663042426,-0.0031003099866211414,0.0002617346472106874,19373.0,23747.0,34643.0,22200.0,0.06659693270921707,0.08580472320318222,0.1403387486934662,0.07883582264184952,0.0,0.0,0.0,0.0,19959.0,22938.0,34137.0,23077.0,0.34029915928840637,-0.09127035798221977,-0.3935556431978316,-0.08876146745363046,0.034849587827920914,0.09642933309078217,0.06168142333626747
200,5,4.8424917622469366e-05,0.0003189576091244817,0.0007355623529292643,0.0018974733538925648,0.08629350364208221,-0.024013211950659752,-0.021188564598560333,0.34516075253486633,0.003871995722874999,-0.037084612995386124,1.608782172203064,0.10616150498390198,0.0,0.0,0.0,-0.07028437405824661,0.0016519402852281928,-0.0,0.0,0.0,0.0,0.002660309663042426,-0.0031003099866211414,0.0002617346472106874,19373.0,23747.0,34643.0,22200.0,0.06659693270921707,0.08580472320318222,0.1403387486934662,0.07883582264184952,0.0,0.0,0.0,0.0,19959.0,22938.0,34137.0,23077.0,0.4323612153530121,-0.11985536077998861,-0.3934707624540647,-0.08899225506682694,-0.008246267214417458,-0.31938642263412476,0.0764865130186081
205,5,-0.00011056320363422856,0.0007075786124914885,0.0007801695028319955,-0.021689094603061676,-0.02851889282464981,-0.013448968529701233,-0.021754929795861244,0.3231270909309387,0.004259183537214994,-0.05202813073992729,2.106823682785034,0.027030160650610924,0.0,0.0,0.0,0.030213195830583572,-0.01965017057955265,-0.0,0.0,0.0,0.0,-0.00040567887481302023,-0.000521986570674926,0.00020555476658046246,27283.0,22742.0,24637.0,23353.0,0.10245569795370102,0.08125432580709457,0.08990029245615005,0.08401472121477127,0.0,0.0,0.0,0.0,27926.0,22028.0,24538.0,23463.0,0.3566417098045349,-0.08518093901857354,-0.37137484559444806,-0.09031826704544658,0.08106968551874161,0.11335308104753494,0.04757874459028244
210,5,4.8339032218791544e-05,0.00066686439095065,0.001026694430038333,0.01573958434164524,-0.0028556694742292166,-0.03854818642139435,-0.021754929795861244,0.3231270909309387,0.004259183537214994,-0.05202813073992729,2.106823682785034,0.027030160650610924,0.0,0.0,0.0,0.004768913611769676,0.015325699001550674,-0.0,0.0,0.0,0.0,-0.00040567887481302023,-0.000521986570674926,0.00020555476658046246,27283.0,22742.0,24637.0,23353.0,0.10245569795370102,0.08125432580709457,0.08990029245615005,0.08401472121477127,0.0,0.0,0.0,0.0,27926.0,22028.0,24538.0,23463.0,0.33907726407051086,-0.09205317341166837,-0.3749403483634419,-0.09321310581180342,-0.06014282628893852,0.0170151200145483,0.12884292006492615
215,5,0.00012680220243055373,0.0006863543530926108,0.001214914140291512,0.01570671983063221,-0.0035852999426424503,-0.03791520372033119,-0.022175773978233337,0.30600252747535706,0.00426148809492588,-0.003464460838586092,2.323854446411133,0.0388476587831974,0.0,0.0,0.0,0.005604828707873821,0.015406847931444645,-0.0,0.0,0.0,0.0,-0.0018263774691149592,0.004999999888241291,0.0003144876391161233,27221.0,14936.0,22809.0,28146.0,0.10215884447097778,0.04868265613913536,0.08155858516693115,0.1066732108592987,0.0,0.0,0.0,0.0,28017.0,13308.0,22173.0,29181.0,0.3390791714191437,-0.09159823916784487,-0.3726777590407519,-0.09242847550932584,-0.06046144664287567,0.019997529685497284,0.13334444165229797
220,5,0.00013845333887729794,0.000683689780998975,0.0013571536401286721,0.006343173794448376,-0.0007025533122941852,-0.03128809854388237,-0.022175773978233337,0.30600252747535706,0.00426148809492588,-0.003464460838586092,2.323854446411133,0.0388476587831974,0.0,0.0,0.0,0.002610790776088834,0.006482657510787249,-0.0,0.0,0.0,0.0,-0.0018263774691149592,0.004999999888241291,0.0003144876391161233,27221.0,14936.0,22809.0,28146.0,0.10215884447097778,0.04868265613913536,0.08155858516693115,0.1066732108592987,0.0,0.0,0.0,0.0,28017.0,13308.0,22173.0,29181.0,0.33904188871383667,-0.09122594146619427,-0.358311367736774,-0.08984000310664617,-0.025438304990530014,0.009313615970313549,0.11976136267185211
225,5,0.0002458783274050802,0.00013713410589843988,0.0014203748432919383,0.016942450776696205,0.0763070285320282,-0.018237397074699402,-0.022762015461921692,0.27670830488204956,0.004667106084525585,-0.03759277984499931,2.6117987632751465,0.08430396765470505,0.0,0.0,0.0,-0.0638836920261383,0.013552257791161537,-0.0,0.0,0.0,0.0,0.0013627749867737293,0.004999999888241291,0.00031440670136362314,38231.0,21950.0,21892.0,30164.0,0.16038577258586884,0.07772790640592575,0.07747232168912888,0.11676568537950516,0.0,0.0,0.0,0.0,38280.0,22086.0,21756.0,30108.0,0.42040935158729553,-0.12833144006426345,-0.3571074094822503,-0.08864530014070539,-0.06580707430839539,-0.2823302745819092,0.08651434630155563
230,5,0.00013406100333668292,0.00036872958298772573,0.0010958004277199507,-0.010571688413619995,-0.009531257674098015,0.03996919468045235,-0.022762015461921692,0.27670830488204956,0.004667106084525585,-0.03759277984499931,2.6117987632751465,0.08430396765470505,0.0,0.0,0.0,0.011453787796199322,-0.009669244289398193,-0.0,0.0,0.0,0.0,0.0013627749867737293,0.004999999888241291,0.00031440670136362314,38231.0,21950.0,21892.0,30164.0,0.16038577258586884,0.07772790640592575,0.07747232168912888,0.11676568537950516,0.0,0.0,0.0,0.0,38280.0,22086.0,21756.0,30108.0,0.33907169103622437,-0.11358452846258954,-0.32207641794984215,-0.0766664643784501,0.037943094968795776,0.04086272791028023,-0.08881639689207077
236,5,0.00022424051712732762,0.00026171101490035653,0.0011864997213706374,0.009453625418245792,0.012123225256800652,-0.0007071418222039938,-0.023306455463171005,0.25492531061172485,0.004982603248208761,-0.04065766930580139,2.8274307250976562,0.07198819518089294,0.0,0.0,0.0,-0.01145082525908947,0.009601382538676262,-0.0,0.0,0.0,0.0,0.0012003519805148244,0.004999999888241291,0.0002344117674510926,29974.0,12235.0,20172.0,29754.0,0.11580406129360199,0.0385526642203331,0.06999269127845764,0.11469250917434692,0.0,0.0,0.0,0.0,29879.0,12128.0,20268.0,29854.0,0.33907145261764526,-0.11495389515652181,-0.3102369821933785,-0.07888349709920697,-0.03767698258161545,-0.04085157439112663,0.03849739208817482
241,5,0.00010914604354184121,0.0004529998986981809,0.001345980097539723,-0.013277139514684677,-0.023143477737903595,-0.022539392113685608,-0.023306455463171005,0.25492531061172485,0.004982603248208761,-0.04065766930580139,2.8274307250976562,0.07198819518089294,0.0,0.0,0.0,0.025780418887734413,-0.012200719676911831,-0.0,0.0,0.0,0.0,0.0012003519805148244,0.004999999888241291,0.0002344117674510926,29974.0,12235.0,20172.0,29754.0,0.11580406129360199,0.0385526642203331,0.06999269127845764,0.11469250917434692,0.0,0.0,0.0,0.0,29879.0,12128.0,20268.0,29854.0,0.3410828709602356,-0.10201186472458536,-0.2922562583484978,-0.06971990794936002,0.048147641122341156,0.09250853955745697,0.1107250452041626
246,5,0.00011043783160857856,0.000484250980662182,0.0014856617199257016,-0.003802291117608547,-0.011318194679915905,-0.026317251846194267,-0.02392764575779438,0.22069108486175537,0.004852388519793749,-0.058734577149152756,2.9567503929138184,0.04820147901773453,0.0,0.0,0.0,0.013571672141551971,-0.003208543872460723,-0.0,0.0,0.0,0.0,0.0016753735253587365,0.004999999888241291,0.0002873999474104494,30113.0,10602.0,21524.0,29618.0,0.11650831997394562,0.03271067515015602,0.07584959268569946,0.11400315910577774,0.0,0.0,0.0,0.0,30334.0,11648.0,20666.0,29392.0,0.3390665650367737,-0.0987457898520835,-0.2758750196442033,-0.06751236051445098,0.012590369209647179,0.048416562378406525,0.1281651258468628
251,5,6.932920223334804e-05,0.00033236388117074966,0.0014339277986437082,-0.006895895581692457,0.017868736758828163,-0.000652422197163105,-0.02392764575779438,0.22069108486175537,0.004852388519793749,-0.058734577149152756,2.9567503929138184,0.04820147901773453,0.0,0.0,0.0,-0.017312362790107727,-0.0062163881957530975,-0.0,0.0,0.0,0.0,0.0016753735253587365,0.004999999888241291,0.0002873999474104494,30113.0,10602.0,21524.0,29618.0,0.11650831997394562,0.03271067515015602,0.07584959268569946,0.11400315910577774,0.0,0.0,0.0,0.0,30334.0,11648.0,20666.0,29392.0,0.3390909731388092,-0.09512014333095896,-0.26248424755924954,-0.06522667497873677,0.024393316358327866,-0.061763714998960495,0.0558505542576313
256,5,-9.228837370756082e-06,0.00041842233622446656,0.0018019690178334713,-0.013066894374787807,-0.00668756477534771,-0.05172150209546089,-0.024474266916513443,0.19708265364170074,0.004944110754877329,-0.06368914991617203,2.9113075733184814,0.10392977297306061,0.0,0.0,0.0,0.00865260697901249,-0.012219438329339027,-0.0,0.0,0.0,0.0,0.0022260115947574377,0.004999999888241291,0.00029168001492507756,29340.0,10020.0,22214.0,30586.0,0.11260893195867538,0.03067976050078869,0.0788981094956398,0.11892014741897583,0.0,0.0,0.0,0.0,30054.0,10327.0,21742.0,29677.0,0.3390716016292572,-0.09497932202549118,-0.24172175660373196,-0.0670015160214441,0.04795147478580475,0.030869778245687485,0.21990235149860382
261,5,0.000224126415560022,0.0006107744993641973,0.00201523513533175,0.02874966897070408,-0.028935573995113373,-0.04537369683384895,-0.024474266916513443,0.19708265364170074,0.004944110754877329,-0.06368914991617203,2.9113075733184814,0.10392977297306061,0.0,0.0,0.0,0.03002801723778248,0.026052873581647873,-0.0,0.0,0.0,0.0,0.0022260115947574377,0.004999999888241291,0.00029168001492507756,29340.0,10020.0,22214.0,30586.0,0.11260893195867538,0.03067976050078869,0.0788981094956398,0.11892014741897583,0.0,0.0,0.0,0.0,30054.0,10327.0,21742.0,29677.0,0.36547622084617615,-0.09410439235132953,-0.23208111969371445,-0.06677557267388548,-0.110142782330513,0.11544933170080185,0.21060071885585785
266,5,4.9872164709086064e-06,0.0005325836245901883,0.0023840295616537333,-0.022054588422179222,0.002266050549224019,-0.06524334847927094,-0.024474266916513443,0.19708265364170074,0.004944110754877329,-0.06368914991617203,2.9113075733184814,0.10392977297306061,0.0,0.0,0.0,-0.0005256067961454391,-0.020776422694325447,-0.0,0.0,0.0,0.0,0.0022260115947574377,0.004999999888241291,0.00029168001492507756,29340.0,10020.0,22214.0,30586.0,0.11260893195867538,0.03067976050078869,0.0788981094956398,0.11892014741897583,0.0,0.0,0.0,0.0,30054.0,10327.0,21742.0,29677.0,0.33910682797431946,-0.09725372624611801,-0.20645568413136492,-0.06831474866090323,0.08153841644525528,-0.0018753876211121678,0.28191572427749634
271,5,0.00010486799874342978,0.0004169797175563872,0.0025843949988484383,0.007366933394223452,0.016864363104104996,-0.0476241372525692,-0.025695374235510826,0.13802698254585266,0.005142176058143377,-0.06865010410547256,2.9373199939727783,0.06764354556798935,0.0,0.0,0.0,-0.0160159133374691,0.0074776955880224705,-0.0,0.0,0.0,0.0,0.0005982545553706586,0.004999999888241291,0.00021849674521945417,30986.0,12993.0,19524.0,28727.0,0.1209733858704567,0.041335269808769226,0.06723455339670181,0.10954765230417252,0.0,0.0,0.0,0.0,29686.0,9403.0,22689.0,30245.0,0.3390865623950958,-0.10242039175635002,-0.19651880479156553,-0.06545739631289657,-0.02934318222105503,-0.05713814124464989,0.24084492027759552
276,5,0.00013389212836045772,0.0005086124292574823,0.002685012063011527,0.006273457780480385,-0.007769267540425062,-0.028373634442687035,-0.025695374235510826,0.13802698254585266,0.005142176058143377,-0.06865010410547256,2.9373199939727783,0.06764354556798935,0.0,0.0,0.0,0.010044806636869907,0.006479403469711542,-0.0,0.0,0.0,0.0,0.0005982545553706586,0.004999999888241291,0.00021849674521945417,30986.0,12993.0,19524.0,28727.0,0.1209733858704567,0.041335269808769226,0.06723455339670181,0.10954765230417252,0.0,0.0,0.0,0.0,29686.0,9403.0,22689.0,30245.0,0.3390578329563141,-0.09506624735662453,-0.1802139337114874,-0.06539843966671852,-0.025425534695386887,0.035834312438964844,0.19410786032676697
281,5,0.00017110844783019274,0.000493158120661974,0.0029478382784873247,0.00709232222288847,-0.00016717988182790577,-0.04530775919556618,-0.026324590668082237,0.10446923971176147,0.005094798281788826,-0.04831629991531372,2.655128240585327,0.06610278785228729,0.0,0.0,0.0,0.0020611248910427094,0.007321596145629883,-0.0,0.0,0.0,0.0,0.001185689470730722,0.004999999888241291,0.0002859662927221507,30347.0,11802.0,20545.0,29385.0,0.11769694089889526,0.03698268532752991,0.07159512490034103,0.11283208429813385,0.0,0.0,0.0,0.0,30941.0,13171.0,19367.0,28774.0,0.33904340863227844,-0.09366111489875624,-0.16777563130404585,-0.06500717516045637,-0.028730712831020355,0.007353540044277906,0.25874632596969604
287,5,0.0001974500628421083,0.0005067299935035408,0.0031749007757753134,0.005815521813929081,-0.0019502120558172464,-0.045381102710962296,-0.026324590668082237,0.10446923971176147,0.005094798281788826,-0.04831629991531372,2.655128240585327,0.06610278785228729,0.0,0.0,0.0,0.003987081348896027,0.006148087326437235,-0.0,0.0,0.0,0.0,0.001185689470730722,0.004999999888241291,0.0002859662927221507,30347.0,11802.0,20545.0,29385.0,0.11769694089889526,0.03698268532752991,0.07159512490034103,0.11283208429813385,0.0,0.0,0.0,0.0,30941.0,13171.0,19367.0,28774.0,0.33904269337654114,-0.08914724781680218,-0.15360291569299866,-0.06649836877338441,-0.02412569522857666,0.014224098064005375,0.2732963263988495
292,5,0.0001842576893977821,0.0003531771944835782,0.0035401370842009783,-0.00010227426537312567,0.020912326872348785,-0.0647473931312561,-0.026864681392908096,0.08289400488138199,0.0053349705412983894,-0.07535073906183243,2.6435909271240234,0.10204102843999863,0.0,0.0,0.0,-0.02024993486702442,0.0004852973797824234,-0.0,0.0,0.0,0.0,0.0017533033387735486,0.004999999888241291,0.0003096783475484699,30107.0,10274.0,21783.0,29623.0,0.11647665500640869,0.031564194709062576,0.07698911428451538,0.11402786523103714,0.0,0.0,0.0,0.0,30682.0,11356.0,20915.0,29042.0,0.33910316228866577,-0.08273230553378941,-0.1410564496950468,-0.06624606525820485,-0.0019045834196731448,-0.07224468141794205,0.34848952293395996
297,5,6.635522731812671e-05,0.0003523531777318567,0.0036403858102858067,-0.016537027433514595,0.006389057729393244,-0.03345903009176254,-0.026864681392908096,0.08289400488138199,0.0053349705412983894,-0.07535073906183243,2.6435909271240234,0.10204102843999863,0.0,0.0,0.0,-0.00496384734287858,-0.015374522656202316,-0.0,0.0,0.0,0.0,0.0017533033387735486,0.004999999888241291,0.0003096783475484699,30107.0,10274.0,21783.0,29623.0,0.11647665500640869,0.031564194709062576,0.07698911428451538,0.11402786523103714,0.0,0.0,0.0,0.0,30682.0,11356.0,20915.0,29042.0,0.3390778601169586,-0.07756875866388802,-0.12229942827523578,-0.06939910945969283,0.060334380716085434,-0.017709610983729362,0.26905718445777893
302,5,4.098436329513788e-05,0.0002116552204824984,0.00362577592022717,-0.008513028733432293,0.021614432334899902,-0.007992355152964592,-0.02747655101120472,0.05318397283554077,0.005345869343727827,-0.02800508216023445,2.340449333190918,0.05671188607811928,0.0,0.0,0.0,-0.02116190455853939,-0.007739262189716101,-0.0,0.0,0.0,0.0,0.0016389202792197466,0.004999999888241291,0.0002395047340542078,30054.0,11740.0,20590.0,29674.0,0.11620987951755524,0.03675733879208565,0.07178841531276703,0.11428709328174591,0.0,0.0,0.0,0.0,29762.0,11650.0,20665.0,29966.0,0.33911967277526855,-0.08887820276470558,-0.1077798046871576,-0.06421121501115126,0.030369410291314125,-0.07550154626369476,0.20581533014774323
307,5,0.0003411099605727941,0.00044966928544454277,0.00375333777628839,0.039463676512241364,-0.02683764137327671,-0.020256351679563522,-0.02747655101120472,0.05318397283554077,0.005345869343727827,-0.02800508216023445,2.340449333190918,0.05671188607811928,0.0,0.0,0.0,0.027138466015458107,0.03469939902424812,-0.0,0.0,0.0,0.0,0.0016389202792197466,0.004999999888241291,0.0002395047340542078,30054.0,11740.0,20590.0,29674.0,0.11620987951755524,0.03675733879208565,0.07178841531276703,0.11428709328174591,0.0,0.0,0.0,0.0,29762.0,11650.0,20665.0,29966.0,0.3767039179801941,-0.07624449111284294,-0.11473864946645439,-0.07547299444009396,-0.15120328962802887,0.10754920542240143,0.2576673924922943
312,5,0.00038434035377576947,0.0005403609247878194,0.003713893238455057,0.017891358584165573,-0.020748121663928032,-0.0005546850734390318,-0.027983423322439194,0.03591044247150421,0.0053842500783503056,-0.04748539626598358,2.0846519470214844,0.05004679039120674,0.0,0.0,0.0,0.023570865392684937,0.01774189993739128,-0.0,0.0,0.0,0.0,0.0015692813321948051,0.004999999888241291,0.000269532814854756,30233.0,12117.0,20277.0,29497.0,0.11711977422237396,0.03812221437692642,0.0704410970211029,0.11339475214481354,0.0,0.0,0.0,0.0,30959.0,11530.0,20769.0,28754.0,0.34395459294319153,-0.07550428866809998,-0.10502226298748467,-0.0733088335239312,-0.07060639560222626,0.08529351651668549,0.2092287540435791
317,5,0.0004306639020796865,0.0005778176127932966,0.0038372615817934275,0.011852703057229519,-0.0114683723077178,-0.017437972128391266,-0.027983423322439194,0.03591044247150421,0.0053842500783503056,-0.04748539626598358,2.0846519470214844,0.05004679039120674,0.0,0.0,0.0,0.014237639494240284,0.012304266914725304,-0.0,0.0,0.0,0.0,0.0015692813321948051,0.004999999888241291,0.000269532814854756,30233.0,12117.0,20277.0,29497.0,0.11711977422237396,0.03812221437692642,0.0704410970211029,0.11339475214481354,0.0,0.0,0.0,0.0,30959.0,11530.0,20769.0,28754.0,0.3390936255455017,-0.06620055963588645,-0.09860784306738848,-0.08186326943073702,-0.04828502982854843,0.05079709365963936,0.2727872133255005
322,5,0.0006097225123085082,0.00047007767716422677,0.003929869271814823,0.02862401492893696,0.011643080972135067,-0.018196457996964455,-0.028420651331543922,0.013305027037858963,0.005640489514917135,-0.024218304082751274,1.6516019105911255,0.07636737823486328,0.0,0.0,0.0,0.014271887019276619,0.012327476404607296,-0.0,0.0,0.0,0.0,0.001044712495058775,0.004999999888241291,0.00027050788048654795,30758.0,11788.0,20554.0,28962.0,0.11979908496141434,0.03693179786205292,0.07163151353597641,0.11071544140577316,0.0,0.0,0.0,0.0,30637.0,12721.0,24019.0,32745.0,0.3390938937664032,-0.08057493672885169,-0.10338772514579614,-0.06825046345671149,-0.11225362122058868,-0.03634137660264969,0.2899804711341858
327,5,0.0006529967649839818,0.00047021894715726376,0.004078764468431473,0.013029847294092178,0.0038422581274062395,-0.009036685340106487,-0.028420651331543922,0.013305027037858963,0.005640489514917135,-0.024218304082751274,1.6516019105911255,0.07636737823486328,0.0,0.0,0.0,-0.0019638962112367153,0.013790855184197426,-0.0,0.0,0.0,0.0,0.001044712495058775,0.004999999888241291,0.00027050788048654795,30758.0,11788.0,20554.0,28962.0,0.11979908496141434,0.03693179786205292,0.07163151353597641,0.11071544140577316,0.0,0.0,0.0,0.0,30637.0,12721.0,24019.0,32745.0,0.3390665054321289,-0.07843371395668078,-0.09150164574109691,-0.06576524149285813,-0.054118745028972626,-0.007006427273154259,0.27603667974472046
332,5,0.0006529967649839818,0.00047021894715726376,0.004078764468431473,0.013029847294092178,0.0038422581274062395,-0.009036685340106487,-0.028660820797085762,0.0008774932357482612,0.005593908950686455,-0.054958805441856384,1.290104627609253,0.04880654066801071,0.0,0.0,0.0,-0.0019360192818567157,0.013826044276356697,-0.0,0.0,0.0,0.0,0.0023628773633390665,0.004999999888241291,0.00026319289463572204,30783.0,12376.0,24294.0,32603.0,0.11993162333965302,0.039067208766937256,0.08831730484962463,0.12940409779548645,0.0,0.0,0.0,0.0,29050.0,11227.0,21020.0,30673.0,0.33906665444374084,-0.07843371395668078,-0.09150164574109691,-0.06576524149285813,-0.0542568564414978,-0.006906975992023945,0.29041430354118347
337,5,0.0007110084407031536,0.00041564874118193984,0.0050716339610517025,0.012030592188239098,0.008792508393526077,-0.1417127251625061,-0.028660820797085762,0.0008774932357482612,0.005593908950686455,-0.054958805441856384,1.290104627609253,0.04880654066801071,0.0,0.0,0.0,-0.00719480449333787,0.01298877689987421,-0.0,0.0,0.0,0.0,0.0023628773633390665,0.004999999888241291,0.00026319289463572204,30783.0,12376.0,24294.0,32603.0,0.11993162333965302,0.039067208766937256,0.08831730484962463,0.12940409779548645,0.0,0.0,0.0,0.0,29050.0,11227.0,21020.0,30673.0,0.33907097578048706,-0.052173185223675346,-0.09346851190293658,-0.06469183757323263,-0.05097082629799843,-0.02566836029291153,0.7181457877159119
342,5,0.0006274448242038488,0.0003400561981834471,0.004692222457379103,-0.007584080100059509,0.017622176557779312,0.02286951243877411,-0.029070310294628143,-0.012786366045475006,0.005693221930414438,-0.006911147851496935,1.0332070589065552,0.02832643687725067,0.0,0.0,0.0,-0.016450976952910423,-0.005716472398489714,-0.0,0.0,0.0,0.0,0.001877254224382341,0.004999999888241291,0.00021234058658592403,29123.0,11462.0,20827.0,30602.0,0.11151901632547379,0.03576095402240753,0.0728103294968605,0.11900347471237183,0.0,0.0,0.0,0.0,30335.0,11941.0,20424.0,29393.0,0.33908501267433167,-0.061512817324793516,-0.0787351736001663,-0.061618026073000015,0.02243168279528618,-0.05869045853614807,0.2425301969051361
347,5,0.0006147805252112448,0.0003771557239815593,0.004689505323767662,-0.004048225935548544,9.271919407183304e-05,0.00724127609282732,-0.029070310294628143,-0.012786366045475006,0.005693221930414438,-0.006911147851496935,1.0332070589065552,0.02832643687725067,0.0,0.0,0.0,0.001936006941832602,-0.0024380472023040056,-0.0,0.0,0.0,0.0,0.001877254224382341,0.004999999888241291,0.00021234058658592403,29123.0,11462.0,20827.0,30602.0,0.11151901632547379,0.03576095402240753,0.0728103294968605,0.11900347471237183,0.0,0.0,0.0,0.0,30335.0,11941.0,20424.0,29393.0,0.3390352427959442,-0.058239443667490426,-0.07747878774477239,-0.05885557620330997,0.009566916152834892,0.006906292401254177,0.30045759677886963
353,5,0.0007000078330747783,0.00041184722795151174,0.004661907441914082,0.010717351920902729,-0.004828995559364557,0.006036070175468922,-0.029300572350621223,-0.018092213198542595,0.005770761054009199,0.01987607777118683,0.5181312561035156,0.029316164553165436,0.0,0.0,0.0,0.0019585269037634134,-0.0024046762846410275,-0.0,0.0,0.0,0.0,0.0011822106316685677,0.004943301901221275,0.00019006775983143598,29765.0,12964.0,20125.0,29479.0,0.11474387347698212,0.04122909530997276,0.06978985667228699,0.1133037656545639,0.0,0.0,0.0,0.0,28783.0,14050.0,21553.0,28408.0,0.3390660583972931,-0.05639540307387777,-0.08001381446621952,-0.05909363049785062,-0.04640462249517441,0.02563442662358284,0.32042422890663147
358,5,0.0006991460686549544,0.00035618225228972733,0.004548011347651482,0.0030945620965212584,0.006344398483633995,0.017756272107362747,-0.029300572350621223,-0.018092213198542595,0.005770761054009199,0.01987607777118683,0.5181312561035156,0.029316164553165436,0.0,0.0,0.0,-0.004620831459760666,0.004578093998134136,-0.0,0.0,0.0,0.0,0.0011822106316685677,0.004943301901221275,0.00019006775983143598,29765.0,12964.0,20125.0,29479.0,0.11474387347698212,0.04122909530997276,0.06978985667228699,0.1133037656545639,0.0,0.0,0.0,0.0,28783.0,14050.0,21553.0,28408.0,0.3390407860279083,-0.058690715387670775,-0.07956591150418048,-0.058223509720565204,-0.017964566126465797,-0.016484035179018974,0.300207257270813
363,5,0.0006981660262681544,0.0003745479043573141,0.004511371720582247,0.0007911552092991769,-0.000667869346216321,0.01045647356659174,-0.029300572350621223,-0.018092213198542595,0.005770761054009199,0.01987607777118683,0.5181312561035156,0.029316164553165436,0.0,0.0,0.0,0.0028004441410303116,0.0024139632005244493,-0.0,0.0,0.0,0.0,0.0011822106316685677,0.004943301901221275,0.00019006775983143598,29765.0,12964.0,20125.0,29479.0,0.11474387347698212,0.04122909530997276,0.06978985667228699,0.1133037656545639,0.0,0.0,0.0,0.0,28783.0,14050.0,21553.0,28408.0,0.33903592824935913,-0.05887978245603274,-0.07931611289457494,-0.05855608390676075,-0.009472410194575787,0.009989998303353786,0.3379271626472473
368,5,0.0009275802876800299,0.00015864244778640568,0.004454341251403093,0.03235534951090813,0.030026402324438095,0.011121152900159359,-0.02941158041357994,-0.020928634330630302,0.005813455209136009,-0.023539824411273003,-0.06950397789478302,-0.008864379487931728,0.0,0.0,0.0,-0.027375970035791397,0.030292557552456856,-0.0,0.0,0.0,0.0,0.0012703950051218271,-0.0014507889281958342,0.00016081237117759883,25140.0,18960.0,24987.0,24751.0,0.09224709868431091,0.06486243009567261,0.09153102338314056,0.09043051302433014,0.0,0.0,0.0,0.0,25623.0,18796.0,24062.0,25329.0,0.3688296973705292,-0.06173947039657714,-0.09207811204271095,-0.063544602679047,-0.1292465329170227,-0.10622234642505646,0.35086748003959656
373,5,0.0008854682673700154,0.00038768103695474565,0.0042469920590519905,0.003810918191447854,-0.0230574831366539,0.032365262508392334,-0.02941158041357994,-0.020928634330630302,0.005813455209136009,-0.023539824411273003,-0.06950397789478302,-0.008864379487931728,0.0,0.0,0.0,0.026382088661193848,0.005642886273562908,-0.0,0.0,0.0,0.0,0.0012703950051218271,-0.0014507889281958342,0.00016081237117759883,25140.0,18960.0,24987.0,24751.0,0.09224709868431091,0.06486243009567261,0.09153102338314056,0.09043051302433014,0.0,0.0,0.0,0.0,25623.0,18796.0,24062.0,25329.0,0.33915701508522034,-0.053538520181854975,-0.0879552482108193,-0.0572411721409719,-0.022144248709082603,0.09413223713636398,0.2977064549922943
378,5,0.0010861159535124898,0.00018597001326270401,0.004427663516253233,0.02923395298421383,0.021322298794984818,-0.015584432519972324,-0.02934112213551998,-0.01964397542178631,0.00589554151520133,-0.009895768016576767,-0.4667452275753021,-0.04467558488249779,0.0,0.0,0.0,-0.0195352453738451,0.02877781167626381,-0.0,0.0,0.0,0.0,0.0013120603980496526,-0.004125749226659536,0.00012606586096808314,19981.0,23401.0,28777.0,21521.0,0.0691734030842781,0.08422873169183731,0.10979580134153366,0.07583730667829514,0.0,0.0,0.0,0.0,19317.0,24336.0,29606.0,20226.0,0.356723815202713,-0.06714187249999491,-0.10729961352769832,-0.06474529620086285,-0.11877871304750443,-0.07331705838441849,0.4597761631011963
383,5,0.0010290836216881871,0.0006181297358125448,0.004740254022181034,0.0007856602896936238,-0.054105669260025024,-0.048438023775815964,-0.02934112213551998,-0.01964397542178631,0.00589554151520133,-0.009895768016576767,-0.4667452275753021,-0.04467558488249779,0.0,0.0,0.0,0.051925379782915115,0.002670007525011897,-0.0,0.0,0.0,0.0,0.0013120603980496526,-0.004125749226659536,0.00012606586096808314,19981.0,23401.0,28777.0,21521.0,0.0691734030842781,0.08422873169183731,0.10979580134153366,0.07583730667829514,0.0,0.0,0.0,0.0,19317.0,24336.0,29606.0,20226.0,0.3881693482398987,-0.06063760835298542,-0.10793661860270354,-0.0628100998844766,-0.011980894021689892,0.21194975078105927,0.5764350891113281
388,5,0.001288996427319944,0.0008066571317613125,0.004589259624481201,0.03662349656224251,-0.042625535279512405,0.00660785473883152,-0.029555290937423706,-0.011864723637700081,0.005803508684039116,-0.01822996512055397,-0.8511688709259033,0.0004364106571301818,0.0,0.0,0.0,0.041067808866500854,0.03251209110021591,-0.0,0.0,0.0,0.0,0.0022673991043120623,-0.004999999888241291,0.00016196072101593018,14223.0,25879.0,33623.0,18429.0,0.045950550585985184,0.09572482109069824,0.1348293125629425,0.06265236437320709,0.0,0.0,0.0,0.0,15652.0,27053.0,32555.0,17063.0,0.3936792314052582,-0.047979153852017425,-0.13115432500806276,-0.06088828529355139,-0.14799140393733978,0.17004983127117157,0.4234827756881714
393,5,0.001190080540254712,0.0012207896215841174,0.004438711330294609,-0.002861176850274205,-0.07076621800661087,0.023059086874127388,-0.029555290937423706,-0.011864723637700081,0.005803508684039116,-0.01822996512055397,-0.8511688709259033,0.0004364106571301818,0.0,0.0,0.0,0.06363779306411743,-8.052162593230605e-05,-0.0,0.0,0.0,0.0,0.0022673991043120623,-0.004999999888241291,0.00016196072101593018,14223.0,25879.0,33623.0,18429.0,0.045950550585985184,0.09572482109069824,0.1348293125629425,0.06265236437320709,0.0,0.0,0.0,0.0,15652.0,27053.0,32555.0,17063.0,0.4155617356300354,-0.027173558045781088,-0.13528371888730295,-0.06362850781023693,0.00038650433998554945,0.2780027687549591,0.3857458531856537
398,5,0.0015038996934890747,0.001567076425999403,0.004562834277749062,0.043076321482658386,-0.06971001625061035,-0.010459481738507748,-0.029629752039909363,-0.003368224250152707,0.0058962032198905945,-0.01796633005142212,-1.220665693283081,-0.03834227845072746,0.0,0.0,0.0,0.06038304790854454,0.03459195792675018,-0.0,0.0,0.0,0.0,0.00337303732521832,-0.004999999888241291,8.900077955331653e-05,15327.0,27481.0,36689.0,23111.0,0.05019839480519295,0.1034194827079773,0.15164552628993988,0.08291541039943695,0.0,0.0,0.0,0.0,13245.0,26447.0,33116.0,19310.0,0.4350331425666809,-0.012511864557800671,-0.1646781831504727,-0.05166096215821888,-0.17382431030273438,0.27617156505584717,0.5017107725143433
403,5,0.0010114411124959588,0.0009251608862541616,0.003958255518227816,-0.05602129548788071,0.06895517557859421,0.08150319010019302,-0.029629752039909363,-0.003368224250152707,0.0058962032198905945,-0.01796633005142212,-1.220665693283081,-0.03834227845072746,0.0,0.0,0.0,-0.054429344832897186,-0.04014347121119499,-0.0,0.0,0.0,0.0,0.00337303732521832,-0.004999999888241291,8.900077955331653e-05,15327.0,27481.0,36689.0,23111.0,0.05019839480519295,0.1034194827079773,0.15164552628993988,0.08291541039943695,0.0,0.0,0.0,0.0,13245.0,26447.0,33116.0,19310.0,0.4316954016685486,-0.043076035164287825,-0.13531024842751332,-0.07426337841821908,0.20022501051425934,-0.24706721305847168,0.23073944449424744
409,5,0.0008779446361586452,0.0008182893507182598,0.0038662361912429333,-0.035495903342962265,0.035648562014102936,0.03733367100358009,-0.029532529413700104,0.025892095640301704,0.005992135498672724,0.03857538476586342,-1.75736665725708,-0.04043766111135483,0.0,0.0,0.0,-0.03134036809206009,-0.0287861917167902,-0.0,0.0,0.0,0.0,0.003829284105449915,-0.004999999888241291,0.00013944989768788218,16618.0,28092.0,38575.0,24986.0,0.0552896186709404,0.1064104288816452,0.16235841810703278,0.0915280133485794,0.0,0.0,0.0,0.0,15728.0,27152.0,36973.0,22762.0,0.3718373775482178,-0.04996557048959287,-0.13685442521756483,-0.07701983729108597,0.12380736321210861,-0.12258899956941605,0.3737378716468811
414,5,0.0005569906206801534,0.0005999113200232387,0.0036538727581501007,-0.055582329630851746,0.04126749932765961,0.04093097522854805,-0.029532529413700104,0.025892095640301704,0.005992135498672724,0.03857538476586342,-1.75736665725708,-0.04043766111135483,0.0,0.0,0.0,-0.034147851169109344,-0.04308893904089928,-0.0,0.0,0.0,0.0,0.003829284105449915,-0.004999999888241291,0.00013944989768788218,16618.0,28092.0,38575.0,24986.0,0.0552896186709404,0.1064104288816452,0.16235841810703278,0.0915280133485794,0.0,0.0,0.0,0.0,15728.0,27152.0,36973.0,22762.0,0.40287208557128906,-0.057286537231324784,-0.128644112823311,-0.08452622572823532,0.200738325715065,-0.14471322298049927,0.37144526839256287
419,5,0.0008415085612796247,0.0008727224776521325,0.0038702802266925573,0.023157812654972076,-0.025813311338424683,-0.018017766997218132,-0.029254483059048653,0.0475112684071064,0.005957222077995539,0.0136617012321949,-1.8599077463150024,-0.050643470138311386,0.0,0.0,0.0,0.02870752103626728,0.023158151656389236,-0.0,0.0,0.0,0.0,-0.0009560543694533408,-0.004999999888241291,9.480619337409735e-05,23959.0,34708.0,33862.0,19723.0,0.08677691221237183,0.14069199562072754,0.1361142247915268,0.06807808578014374,0.0,0.0,0.0,0.0,16390.0,28301.0,38396.0,25181.0,0.3591012954711914,-0.0500875448555242,-0.1616717801279759,-0.0746609642206131,-0.09620442986488342,0.10845038294792175,0.5626068115234375
424,5,0.0007780192536301911,0.0007896352326497436,0.003770954441279173,-0.0019411646062508225,0.00388822122476995,0.0085002975538373,-0.029254483059048653,0.0475112684071064,0.005957222077995539,0.0136617012321949,-1.8599077463150024,-0.050643470138311386,0.0,0.0,0.0,-0.0009059953154064715,0.0004801211762242019,-0.0,0.0,0.0,0.0,-0.0009560543694533408,-0.004999999888241291,9.480619337409735e-05,23959.0,34708.0,33862.0,19723.0,0.08677691221237183,0.14069199562072754,0.1361142247915268,0.06807808578014374,0.0,0.0,0.0,0.0,16390.0,28301.0,38396.0,25181.0,0.3390337824821472,-0.05559339466687765,-0.1708786479699626,-0.0765509016926274,-0.001883995602838695,-0.0032319335732609034,0.4930693507194519
429,5,0.0007947772392071784,0.0007786295027472079,0.003571606706827879,0.001763770473189652,0.002707264618948102,0.030458763241767883,-0.029087403789162636,0.06267070770263672,0.006058637518435717,0.031061392277479172,-2.020955801010132,-0.05146763473749161,0.0,0.0,0.0,0.0003669585566967726,0.004087657202035189,-0.0,0.0,0.0,0.0,-0.00027939851861447096,-0.004999999888241291,0.00013795642007607967,21703.0,32344.0,33535.0,18707.0,0.07663944363594055,0.12803834676742554,0.13436003029346466,0.06380771100521088,0.0,0.0,0.0,0.0,24321.0,34681.0,33890.0,19330.0,0.3390364646911621,-0.06487595095574071,-0.18244337494673546,-0.0784526567111465,-0.01604124903678894,0.0013102201046422124,0.4380520284175873
434,5,0.0008854686166159809,0.0006574724102392793,0.0033764175605028868,0.013225925154983997,0.017774175852537155,0.03646411746740341,-0.029087403789162636,0.06267070770263672,0.006058637518435717,0.031061392277479172,-2.020955801010132,-0.05146763473749161,0.0,0.0,0.0,-0.01560736820101738,0.015212585218250751,-0.0,0.0,0.0,0.0,-0.00027939851861447096,-0.004999999888241291,0.00013795642007607967,21703.0,32344.0,33535.0,18707.0,0.07663944363594055,0.12803834676742554,0.13436003029346466,0.06380771100521088,0.0,0.0,0.0,0.0,24321.0,34681.0,33890.0,19330.0,0.33911412954330444,-0.07484121114506331,-0.196967267557373,-0.07669430908560176,-0.05970011651515961,-0.055684931576251984,0.43030354380607605
439,5,0.0003542038321029395,0.0003654246684163809,0.002689073793590069,-0.07040929049253464,0.046218931674957275,0.10716734826564789,-0.028859496116638184,0.08640996366739273,0.006274636369198561,0.022590918466448784,-1.9451984167099,-0.03149845823645592,0.0,0.0,0.0,-0.03654056414961815,-0.05208859220147133,-0.0,0.0,0.0,0.0,-0.00020474068878684193,-0.004999999888241291,0.00011547517351573333,15812.0,27471.0,32169.0,16907.0,0.052095115184783936,0.10337300598621368,0.1271194964647293,0.056446172297000885,0.0,0.0,0.0,0.0,21459.0,32499.0,33383.0,18964.0,0.42620792984962463,-0.101410737947024,-0.17682358440474968,-0.06349877107343659,0.25666290521621704,-0.163816899061203,0.22008885443210602
444,5,0.0003067415382247418,0.0003103595518041402,0.002767896745353937,-0.02776750922203064,0.021574795246124268,0.02111499197781086,-0.028859496116638184,0.08640996366739273,0.006274636369198561,0.022590918466448784,-1.9451984167099,-0.03149845823645592,0.0,0.0,0.0,-0.019549082964658737,-0.024056607857346535,-0.0,0.0,0.0,0.0,-0.00020474068878684193,-0.004999999888241291,0.00011547517351573333,15812.0,27471.0,32169.0,16907.0,0.052095115184783936,0.10337300598621368,0.1271194964647293,0.056446172297000885,0.0,0.0,0.0,0.0,21459.0,32499.0,33383.0,18964.0,0.3483195900917053,-0.1074701943989477,-0.18666339037528834,-0.07353204107572367,0.09695577621459961,-0.07164083421230316,0.487230509519577
449,5,0.00026054115733131766,0.0001329819206148386,0.002572076627984643,-0.014798304997384548,0.031305309385061264,0.03374931961297989,-0.028987647965550423,0.10276573896408081,0.006284924224019051,0.002062878105789423,-2.0422966480255127,-0.0694907084107399,0.0,0.0,0.0,-0.02957588993012905,-0.012011250481009483,-0.0,0.0,0.0,0.0,0.0011661837343126535,-0.004999999888241291,9.461504669161513e-05,16160.0,28580.0,31130.0,16574.0,0.0534680038690567,0.10881958156824112,0.12171310931444168,0.055113472044467926,0.0,0.0,0.0,0.0,16764.0,28356.0,31345.0,15968.0,0.34736353158950806,-0.11452319241403446,-0.2004892506365592,-0.06984398590214264,0.04852159693837166,-0.10905163735151291,0.45448142290115356
454,5,-1.2962539585714694e-05,-5.534074443858117e-05,0.0024715596809983253,-0.04273001104593277,0.03575676679611206,0.024197189137339592,-0.028987647965550423,0.10276573896408081,0.006284924224019051,0.002062878105789423,-2.0422966480255127,-0.0694907084107399,0.0,0.0,0.0,-0.031469497829675674,-0.03493727743625641,-0.0,0.0,0.0,0.0,0.0011661837343126535,-0.004999999888241291,9.461504669161513e-05,16160.0,28580.0,31130.0,16574.0,0.0534680038690567,0.10881958156824112,0.12171310931444168,0.055113472044467926,0.0,0.0,0.0,0.0,16764.0,28356.0,31345.0,15968.0,0.38289958238601685,-0.12146361770736026,-0.1988433073288224,-0.07021623335851784,0.15472367405891418,-0.1267569214105606,0.48927947878837585
