timestamp,dt,pos_x,pos_y,pos_z,vel_x,vel_y,vel_z,roll,pitch,yaw,agv_x,agv_y,agv_z,x_ref,y_ref,z_ref,roll_ref,pitch_ref,yaw_ref,x_vel_ref,y_vel_ref,z_vel_ref,x_torque,y_torque,z_torque,w0,w1,w2,w3,u0,u1,u2,u3,m0req,m1req,m2req,m3req,thrust0,thrust1,thrust2,thrust3,thrust_ref,roll_vicon,pitch_vicon,yaw_vicon,acc_x,acc_y,acc_z
5,5,0.0,0.0,0.0,-0.002706199651584029,0.0011668531224131584,0.006573718506842852,0.08382020145654678,0.3869263231754303,-0.016454843804240227,-0.0006063879118300974,-0.005747643299400806,0.0007817700388841331,0.0,0.0,0.0,-0.0011151076760143042,-0.0025861940812319517,-0.0,0.0,0.0,0.0,-0.003444297006353736,-0.004999999888241291,-0.0004964608233422041,0.0,0.0,0.0,0.0,0.0,0.0,0.0,0.0,0.0,0.0,0.0,0.0,0.0,0.0,0.0,0.0,0.33903494477272034,0.03883931743856762,-0.49277740080476023,0.05886106809543209,0.010148248635232449,-0.0043756989762187,-0.019721155986189842
19,14,0.0,0.0,0.0,0.004221378359943628,-0.0024443708825856447,-0.0019584251567721367,0.08382020145654678,0.3869263231754303,-0.016454843804240227,-0.0006063879118300974,-0.005747643299400806,0.0007817700388841331,0.0,0.0,0.0,0.0023359579499810934,0.00403416994959116,-0.0,0.0,0.0,0.0,-0.003444297006353736,-0.004999999888241291,-0.0004964608233422041,0.0,0.0,0.0,0.0,0.0,0.0,0.0,0.0,0.0,0.0,0.0,0.0,0.0,0.0,0.0,0.0,0.3390372693538666,0.03814272429626399,-0.49123332574073264,0.05909823799803681,-0.01583016850054264,0.009166390635073185,0.00587527547031641
24,5,0.0,0.0,0.0,-0.0004316834674682468,0.006367954891175032,-0.0014794369926676154,0.08382020145654678,0.3869263231754303,-0.016454843804240227,-0.0006063879118300974,-0.005747643299400806,0.0007817700388841331,0.0,0.0,0.0,-0.00608550850301981,-0.0004125415289308876,-0.0,0.0,0.0,0.0,-0.003444297006353736,-0.004999999888241291,-0.0004964608233422041,0.0,0.0,0.0,0.0,0.0,0.0,0.0,0.0,0.0,0.0,0.0,0.0,0.0,0.0,0.0,0.0,0.3390398919582367,0.03732905177553478,-0.4919887248645791,0.05826827375359898,0.0016188130248337984,-0.02387983165681362,0.004438310861587524
36,11,0.0,0.0,0.0,-0.0004316834674682468,0.006367954891175032,-0.0014794369926676154,0.08383345603942871,0.3869389295578003,-0.01646254025399685,0.00017922594270203263,6.277250940911472e-05,0.0024075303226709366,0.0,0.0,0.0,-0.00608550850301981,-0.0004125415289308876,-0.0,0.0,0.0,0.0,-0.0034519473556429148,-0.004999999888241291,-0.0004963780520483851,0.0,0.0,0.0,0.0,0.0,0.0,0.0,0.0,0.0,0.0,0.0,0.0,0.0,0.0,0.0,0.0,0.3390398919582367,0.03732905177553478,-0.4919887248645791,0.05826827375359898,0.0016188130248337984,-0.02387983165681362,0.004438310861587524
41,5,0.0,0.0,0.0,-0.010596140287816525,0.006629014387726784,0.01058767456561327,0.08384270966053009,0.3869190514087677,-0.016455477103590965,-0.0008292387938126922,-0.002153900684788823,0.0001513764582341537,0.0,0.0,0.0,-0.006334657780826092,-0.010125935077667236,-0.0,0.0,0.0,0.0,-0.0034927569795399904,-0.004999999888241291,-0.0004963186220265925,0.0,0.0,0.0,0.0,0.0,0.0,0.0,0.0,0.0,0.0,0.0,0.0,17393.0,37468.0,21206.0,15312.0,0.3390577733516693,0.0377411191987111,-0.49070588905408363,0.05793146321350716,0.03973552584648132,-0.024858804419636726,-0.031763024628162384
47,6,6.128090899437666e-05,-9.384040458826348e-05,-5.414438055595383e-05,0.005400485824793577,0.015126361511647701,0.01075651589781046,0.08384270966053009,0.3869190514087677,-0.016455477103590965,-0.0008292387938126922,-0.002153900684788823,0.0001513764582341537,0.0,0.0,0.0,-0.014585950411856174,0.005246883258223534,-0.0,0.0,0.0,0.0,-0.0034927569795399904,-0.004999999888241291,-0.0004963186220265925,0.0,0.0,0.0,0.0,0.0,0.0,0.0,0.0,0.0,0.0,0.0,0.0,17393.0,37468.0,21206.0,15312.0,0.33907434344291687,0.02964484824439069,-0.4944815886977759,0.05742954901346254,-0.020588958635926247,-0.057240117341279984,-0.03308306634426117
52,5,0.0001792370603652671,-0.0001762561296345666,-7.040289347060025e-05,0.01813400723040104,0.016076110303401947,0.005503146443516016,0.083837129175663,0.3868624269962311,-0.016451453790068626,-0.00011798032937804237,0.011123528704047203,-0.0015270768199115992,0.0,0.0,0.0,-0.015611560083925724,0.017582587897777557,-0.0,0.0,0.0,0.0,-0.0037041008472442627,-0.004999999888241291,-0.0005097168032079935,17368.0,37490.0,21178.0,15338.0,0.05830521881580353,0.1561591476202011,0.07433640956878662,0.05023912340402603,0.0,0.0,0.0,0.0,17256.0,37619.0,21010.0,15454.0,0.3391273319721222,0.021565344604251694,-0.5018143133649997,0.05587321977423091,-0.06900118291378021,-0.0612742118537426,-0.017750386148691177
57,5,0.0001423146459273994,-9.339271491626278e-05,-1.3896747987018898e-05,0.0002710637345444411,-0.0067780460231006145,-0.006259916815906763,0.08390507102012634,0.3867681622505188,-0.016514267772436142,-0.0035223837476223707,-0.0016233022324740887,0.011325675062835217,0.0,0.0,0.0,0.006331255659461021,0.00047285170876421034,-0.0,0.0,0.0,0.0,-0.004053984768688679,-0.004999999888241291,-0.00048755150055512786,17430.0,37458.0,21220.0,15273.0,0.05855623632669449,0.15597596764564514,0.07451959699392319,0.04998810216784477,0.0,0.0,0.0,0.0,17561.0,37316.0,21402.0,15136.0,0.3390404284000397,0.024188667547784627,-0.49947176005915167,0.05539890613110775,-0.0018556836294010282,0.02484404295682907,0.018135560676455498
62,5,0.000162420270498842,-9.606764069758356e-05,-0.00013899964687880129,0.0028961063362658024,-0.0016589242732152343,0.01563642919063568,0.08390507102012634,0.3867681622505188,-0.016514267772436142,-0.0035223837476223707,-0.0016233022324740887,0.011325675062835217,0.0,0.0,0.0,0.0014284434728324413,0.00302087957970798,-0.0,0.0,0.0,0.0,-0.004053984768688679,-0.004999999888241291,-0.00048755150055512786,17430.0,37458.0,21220.0,15273.0,0.05855623632669449,0.15597596764564514,0.07451959699392319,0.04998810216784477,0.0,0.0,0.0,0.0,17561.0,37316.0,21402.0,15136.0,0.3390354812145233,0.021178191545160308,-0.4887962657738008,0.05514749648062625,-0.011853967793285847,0.005605241749435663,-0.049766045063734055
67,5,0.00022936600726097822,0.0003600445343181491,0.00048007743316702545,0.010241236537694931,-0.06435338407754898,-0.08197986334562302,0.08390507102012634,0.3867681622505188,-0.016514267772436142,-0.0035223837476223707,-0.0016233022324740887,0.011325675062835217,0.0,0.0,0.0,0.05746864154934883,0.008553283289074898,-0.0,0.0,0.0,0.0,-0.004053984768688679,-0.004999999888241291,-0.00048755150055512786,17430.0,37458.0,21220.0,15273.0,0.05855623632669449,0.15597596764564514,0.07451959699392319,0.04998810216784477,0.0,0.0,0.0,0.0,17561.0,37316.0,21402.0,15136.0,0.40252628922462463,0.04405780642698845,-0.5014258971897938,0.06550463195810141,-0.039782676845788956,0.24321886897087097,0.25237369537353516
72,5,0.0002586560440249741,0.00025749352062121034,0.00043610387365333736,0.007172974292188883,-0.004948873072862625,-0.018437661230564117,0.08385084569454193,0.38719502091407776,-0.01644248142838478,-0.0015654410235583782,-0.043304599821567535,0.0016657948726788163,0.0,0.0,0.0,0.005598497577011585,0.007264255546033382,-0.0,0.0,0.0,0.0,-0.0031375065445899963,-0.004999999888241291,-0.0004957924247719347,16426.0,37000.0,21809.0,16301.0,0.05452049523591995,0.15339255332946777,0.07710326462984085,0.0540241077542305,0.0,0.0,0.0,0.0,17920.0,37856.0,20703.0,14760.0,0.3390478491783142,0.038044786564132876,-0.49796294034732674,0.06492708738713185,-0.028505830094218254,0.019972454756498337,0.06319790333509445
77,5,0.00040855351835489273,0.00030119309667497873,0.00041646225145086646,0.023137541487812996,-0.0076026031747460365,-0.002781468676403165,0.08385084569454193,0.38719502091407776,-0.01644248142838478,-0.0015654410235583782,-0.043304599821567535,0.0016657948726788163,0.0,0.0,0.0,0.008458469994366169,0.022732118144631386,-0.0,0.0,0.0,0.0,-0.0031375065445899963,-0.004999999888241291,-0.0004957924247719347,16426.0,37000.0,21809.0,16301.0,0.05452049523591995,0.15339255332946777,0.07710326462984085,0.0540241077542305,0.0,0.0,0.0,0.0,17920.0,37856.0,20703.0,14760.0,0.3391333520412445,0.037884619954050916,-0.5059105024843915,0.06682266907210144,-0.0892162024974823,0.030182063579559326,0.016422376036643982
84,7,0.0003508461522869766,0.0002556383260525763,0.00044883531518280506,-0.0011377687333151698,0.004096887074410915,-0.0053666685707867146,0.08390771597623825,0.38686519861221313,-0.016445893794298172,0.004553164355456829,0.006806662771850824,0.010457431897521019,0.0,0.0,0.0,-0.003891335567459464,-0.0005229585221968591,-0.0,0.0,0.0,0.0,-0.0011654290137812495,-0.004999999888241291,-0.0004969207802787423,17598.0,37432.0,28092.0,22695.0,0.05924254655838013,0.15582847595214844,0.10641016066074371,0.08104486763477325,0.0,0.0,0.0,0.0,16408.0,37145.0,21624.0,16319.0,0.339036226272583,0.037524358144951274,-0.5032148262937747,0.06638704400495757,0.002051563234999776,-0.013881131075322628,0.026075605303049088
89,5,0.00043108625686727464,0.0001594939676579088,0.0005457173101603985,0.0025297433603554964,0.00511793652549386,-0.01518680714070797,0.08390771597623825,0.38686519861221313,-0.016445893794298172,0.004553164355456829,0.006806662771850824,0.010457431897521019,0.0,0.0,0.0,-0.005093174055218697,0.003125373274087906,-0.0,0.0,0.0,0.0,-0.0010559044312685728,-0.004999999888241291,-0.0005009704036638141,17598.0,37432.0,28092.0,22695.0,0.05924254655838013,0.15582847595214844,0.10641016066074371,0.08104486763477325,0.0,0.0,0.0,0.0,17147.0,37598.0,27900.0,23102.0,0.3390396535396576,0.0315291962837887,-0.5071469161057847,0.0668277610097458,-0.01226465217769146,-0.018168721348047256,0.05957306548953056
94,5,0.0004675661912187934,0.00012017875997116789,0.0005316957249306142,0.005866117309778929,0.0070395092479884624,-0.0025930143892765045,0.08390771597623825,0.38686519861221313,-0.016445893794298172,0.004553164355456829,0.006806662771850824,0.010457431897521019,0.0,0.0,0.0,-0.007169364020228386,0.006375447381287813,-0.0,0.0,0.0,0.0,-0.0010559044312685728,-0.004999999888241291,-0.0005009704036638141,17598.0,37432.0,28092.0,22695.0,0.05924254655838013,0.15582847595214844,0.10641016066074371,0.08104486763477325,0.0,0.0,0.0,0.0,17147.0,37598.0,27900.0,23102.0,0.33904919028282166,0.03217131647003472,-0.5072966086617738,0.06683015887912627,-0.025017594918608665,-0.02557595819234848,0.02243981510400772
100,5,0.0002881023974623531,0.00036907324101775885,0.00043801512219943106,-0.023365097120404243,-0.03273337334394455,0.012337378226220608,0.08390771597623825,0.38686519861221313,-0.016445893794298172,0.004553164355456829,0.006806662771850824,0.010457431897521019,0.0,0.0,0.0,0.032824061810970306,-0.020418792963027954,-0.0,0.0,0.0,0.0,-0.0010559044312685728,-0.004999999888241291,-0.0005009704036638141,17598.0,37432.0,28092.0,22695.0,0.05924254655838013,0.15582847595214844,0.10641016066074371,0.08104486763477325,0.0,0.0,0.0,0.0,17147.0,37598.0,27900.0,23102.0,0.36192649602890015,0.04675403019787286,-0.49712392068153965,0.06661772400692398,0.08548114448785782,0.1249692365527153,-0.021754104644060135
105,5,0.0002632735122460872,0.00039691105484962463,0.0004032952419947833,-0.0104855727404356,-0.013717305846512318,0.008561996743083,0.08388693630695343,0.3868129551410675,-0.016470912843942642,-0.016706833615899086,-0.009124075062572956,0.047403689473867416,0.0,0.0,0.0,0.015101812779903412,-0.009497210383415222,-0.0,0.0,0.0,0.0,-0.003692541504278779,-0.004999999888241291,-0.000500219757668674,17925.0,36966.0,21853.0,14751.0,0.06057526916265488,0.1531972438097,0.07729818671941757,0.047968946397304535,0.0,0.0,0.0,0.0,16234.0,36985.0,21838.0,16503.0,0.3390875458717346,0.05245043637325033,-0.4959084399185913,0.06664748544474365,0.037268172949552536,0.05387809872627258,-0.009648267179727554
110,5,0.00011166767944814637,0.00051333341980353,0.00025122438091784716,-0.02437048777937889,-0.020414328202605247,0.02385851927101612,0.08388693630695343,0.3868129551410675,-0.016470912843942642,-0.016706833615899086,-0.009124075062572956,0.047403689473867416,0.0,0.0,0.0,0.021759748458862305,-0.022366516292095184,-0.0,0.0,0.0,0.0,-0.003692541504278779,-0.004999999888241291,-0.000500219757668674,17925.0,36966.0,21853.0,14751.0,0.06057526916265488,0.1531972438097,0.07729818671941757,0.047968946397304535,0.0,0.0,0.0,0.0,16234.0,36985.0,21838.0,16503.0,0.34821680188179016,0.06449018572831358,-0.4844022456472033,0.06767154114532903,0.09011441469192505,0.0797177404165268,-0.05638471990823746
115,5,0.000352205679519102,-4.577944855554961e-05,0.0004775553825311363,0.026364175602793694,0.07215150445699692,-0.024528788402676582,0.0838412344455719,0.38719600439071655,-0.016513416543602943,-0.009680247865617275,-0.07118164002895355,0.009581382386386395,0.0,0.0,0.0,-0.06124325096607208,0.02091977186501026,-0.0,0.0,0.0,0.0,-0.0036307552363723516,-0.004999999888241291,-0.0005164589965716004,16407.0,36636.0,24786.0,19122.0,0.05444778501987457,0.15134645998477936,0.09059324860572815,0.06554070115089417,0.0,0.0,0.0,0.0,17013.0,37686.0,20922.0,15705.0,0.4199534058570862,0.017833139421352125,-0.5094698760731362,0.061000478983053975,-0.101484514772892,-0.27038776874542236,0.09294343739748001
120,5,0.0001768415531842038,5.8062134485226125e-05,0.0002851395693141967,-0.016641726717352867,0.007107630372047424,0.019579578191041946,0.0838412344455719,0.38719600439071655,-0.016513416543602943,-0.009680247865617275,-0.07118164002895355,0.009581382386386395,0.0,0.0,0.0,-0.0072622476145625114,-0.01546520460397005,-0.0,0.0,0.0,0.0,-0.0036307552363723516,-0.004999999888241291,-0.0005164589965716004,16407.0,36636.0,24786.0,19122.0,0.05444778501987457,0.15134645998477936,0.09059324860572815,0.06554070115089417,0.0,0.0,0.0,0.0,17013.0,37686.0,20922.0,15705.0,0.33908307552337646,0.035412910370995074,-0.4962485514022085,0.06132279599925085,0.06069030240178108,-0.025909893214702606,-0.04086873307824135
125,5,0.00014372776786331087,1.1558743608475197e-05,0.000232564183534123,-0.009628448635339737,0.008642763830721378,0.013234429061412811,0.08383464068174362,0.38713952898979187,-0.0165951419621706,0.007356174290180206,0.07195539027452469,0.0114000104367733,0.0,0.0,0.0,-0.008944575674831867,-0.008800353854894638,-0.0,0.0,0.0,0.0,-0.0020354303997009993,-0.004999999888241291,-0.0005342229851521552,16098.0,36811.0,23076.0,17763.0,0.05321984738111496,0.15232788026332855,0.08275911957025528,0.059915941208601,0.0,0.0,0.0,0.0,16393.0,36840.0,24539.0,19135.0,0.33906030654907227,0.032283329808631724,-0.4964603086240183,0.058621981577785635,0.03453347831964493,-0.03190966323018074,-0.021569527685642242
130,5,0.0003048302314709872,0.0002906150766648352,0.0004772990650963038,0.019665809348225594,-0.036475058645009995,-0.030292553827166557,0.08383464068174362,0.38713952898979187,-0.0165951419621706,0.007356174290180206,0.07195539027452469,0.0114000104367733,0.0,0.0,0.0,0.0361596941947937,0.018060335889458656,-0.0,0.0,0.0,0.0,-0.0020354303997009993,-0.004999999888241291,-0.0005342229851521552,16098.0,36811.0,23076.0,17763.0,0.05321984738111496,0.15232788026332855,0.08275911957025528,0.059915941208601,0.0,0.0,0.0,0.0,16393.0,36840.0,24539.0,19135.0,0.3649730384349823,0.04024881570931479,-0.49821337923376985,0.06564161687787208,-0.07623691111803055,0.1388198584318161,0.11351416260004044
135,5,0.0002406567509751767,0.00035654494422487915,0.00046774104703217745,-0.0030845445580780506,-0.02017269842326641,-0.007749642711132765,0.08400394022464752,0.38646891713142395,-0.016799844801425934,0.0050725447945296764,0.052292853593826294,-0.06173231080174446,0.0,0.0,0.0,0.021891236305236816,-0.002388864057138562,-0.0,0.0,0.0,0.0,-0.0026869415305554867,-0.004999999888241291,-0.000571161974221468,15312.0,37539.0,22157.0,18512.0,0.050137680023908615,0.15644071996212006,0.07864628732204437,0.06299810856580734,0.0,0.0,0.0,0.0,16633.0,38207.0,20237.0,16097.0,0.33911582827568054,0.04538749975774459,-0.4962302347982478,0.06547657583122352,0.009373920038342476,0.07810254395008087,0.04720903933048248
140,5,0.000222438684431836,0.000324861059198156,0.0004500831419136375,-0.0034758911933749914,-0.0016160656232386827,0.0001472133444622159,0.08400394022464752,0.38646891713142395,-0.016799844801425934,0.0050725447945296764,0.052292853593826294,-0.06173231080174446,0.0,0.0,0.0,0.0023594244848936796,-0.002775340573862195,-0.0,0.0,0.0,0.0,-0.0026869415305554867,-0.004999999888241291,-0.000571161974221468,15312.0,37539.0,22157.0,18512.0,0.050137680023908615,0.15644071996212006,0.07864628732204437,0.06299810856580734,0.0,0.0,0.0,0.0,16633.0,38207.0,20237.0,16097.0,0.33903583884239197,0.0405036689037199,-0.4956943978994787,0.06496777803107485,0.010890464298427105,0.008416756056249142,0.024913201108574867
145,5,0.00015082709433045238,0.0003487981157377362,0.0004423024947755039,-0.011068391613662243,-0.0038360077887773514,0.0011334528680890799,0.08412516117095947,0.38491755723953247,-0.01724841445684433,-0.03200041502714157,0.24206073582172394,-0.08873533457517624,0.0,0.0,0.0,0.004750098567456007,-0.010118590667843819,-0.0,0.0,0.0,0.0,-0.0036731730215251446,-0.004999999888241291,-0.0006486307247541845,15938.0,38452.0,19909.0,16790.0,0.0525888130068779,0.16165052354335785,0.06886661797761917,0.05597711727023125,0.0,0.0,0.0,0.0,13552.0,38167.0,23230.0,22035.0,0.33905479311943054,0.04184699045233856,-0.4950655574783964,0.0636456623225215,0.03970670327544212,0.016945870593190193,0.02351394295692444
150,5,5.8373982028570026e-05,0.0003782097192015499,0.0004503607051447034,-0.01626395247876644,-0.005268426146358252,-0.0007881128112785518,0.08412516117095947,0.38491755723953247,-0.01724841445684433,-0.03200041502714157,0.24206073582172394,-0.08873533457517624,0.0,0.0,0.0,0.00632200064137578,-0.015204236842691898,-0.0,0.0,0.0,0.0,-0.0036731730215251446,-0.004999999888241291,-0.0006486307247541845,15938.0,38452.0,19909.0,16790.0,0.0525888130068779,0.16165052354335785,0.06886661797761917,0.05597711727023125,0.0,0.0,0.0,0.0,13552.0,38167.0,23230.0,22035.0,0.3390795588493347,0.04469048338851646,-0.490294225473563,0.06328101348577488,0.059666022658348083,0.02255515567958355,0.031003262847661972
156,5,-8.612802776042372e-05,0.00038128727464936674,0.0004565433191601187,-0.025109466165304184,-0.002011385280638933,-0.0011020000092685223,0.08398285508155823,0.3813058137893677,-0.01869998499751091,-0.03757191821932793,0.3469536602497101,-0.1521388590335846,0.0,0.0,0.0,0.0029263661708682775,-0.023853398859500885,-0.0,0.0,0.0,0.0,-0.0017982939025387168,-0.004999999888241291,-0.0008040327811613679,12953.0,38770.0,22458.0,22535.0,0.041189081966876984,0.16348615288734436,0.07998477667570114,0.08033062517642975,0.0,0.0,0.0,0.0,12974.0,39549.0,18389.0,19534.0,0.33913153409957886,0.04412683889158404,-0.48512397266580815,0.06168326589258634,0.09361863136291504,0.010442713275551796,0.03371541202068329
161,5,-0.00017452624160796404,0.0004227447498124093,0.000474236614536494,-0.019908590242266655,-0.006407461129128933,-0.002807663520798087,0.08398285508155823,0.3813058137893677,-0.01869998499751091,-0.03757191821932793,0.3469536602497101,-0.1521388590335846,0.0,0.0,0.0,0.007634161040186882,-0.01901412010192871,-0.0,0.0,0.0,0.0,-0.0017982939025387168,-0.004999999888241291,-0.0008040327811613679,12953.0,38770.0,22458.0,22535.0,0.041189081966876984,0.16348615288734436,0.07998477667570114,0.08033062517642975,0.0,0.0,0.0,0.0,12974.0,39549.0,18389.0,19534.0,0.3391047716140747,0.044633361399924465,-0.48482460555279644,0.060702832314982205,0.07462040334939957,0.027238495647907257,0.040742240846157074
166,5,-0.00030037903343327343,0.00045799007057212293,0.00047731786617077887,-0.023591971024870872,-0.0068565839901566505,-0.00127367302775383,0.08400188386440277,0.3778567314147949,-0.020186327397823334,-0.10468659549951553,0.4990990161895752,-0.2631634473800659,0.0,0.0,0.0,0.008186014369130135,-0.02271880768239498,-0.0,0.0,0.0,0.0,-0.0030640289187431335,-0.004999999888241291,-0.0009721247479319572,11149.0,40158.0,17518.0,21077.0,0.034643709659576416,0.17157790064811707,0.05891561508178711,0.07389859855175018,0.0,0.0,0.0,0.0,10296.0,40657.0,16794.0,21768.0,0.33913248777389526,0.04531764910070723,-0.4809822971855615,0.05965660647861407,0.08916439116001129,0.029210511595010757,0.03794131800532341
171,5,-0.00036506232572719455,0.0007287617772817612,-0.0001000723204924725,-0.016133250668644905,-0.039965011179447174,0.08045252412557602,0.08400188386440277,0.3778567314147949,-0.020186327397823334,-0.10468659549951553,0.4990990161895752,-0.2631634473800659,0.0,0.0,0.0,0.03996596485376358,-0.014453891664743423,-0.0,0.0,0.0,0.0,-0.0030640289187431335,-0.004999999888241291,-0.0009721247479319572,11149.0,40158.0,17518.0,21077.0,0.034643709659576416,0.17157790064811707,0.05891561508178711,0.07389859855175018,0.0,0.0,0.0,0.0,10296.0,40657.0,16794.0,21768.0,0.3686237633228302,0.05831194383268529,-0.45129617620664986,0.06843763351181542,0.061616379767656326,0.15495815873146057,-0.2141728550195694
176,5,-0.000542391266208142,0.0006174785667099059,0.0003914835106115788,-0.029666027054190636,0.0035901402588933706,-0.044682059437036514,0.08400188386440277,0.3778567314147949,-0.020186327397823334,-0.10468659549951553,0.4990990161895752,-0.2631634473800659,0.0,0.0,0.0,-0.0024379147216677666,-0.028380917385220528,-0.0,0.0,0.0,0.0,-0.0030640289187431335,-0.004999999888241291,-0.0009721247479319572,11149.0,40158.0,17518.0,21077.0,0.034643709659576416,0.17157790064811707,0.05891561508178711,0.07389859855175018,0.0,0.0,0.0,0.0,10296.0,40657.0,16794.0,21768.0,0.3452853560447693,0.06055490445024439,-0.46455951193924355,0.06139429320236162,0.11340556293725967,-0.008856135420501232,0.16834339499473572
181,5,-0.0007117526256479323,0.00040007333154790103,0.00027971251984126866,-0.03261039778590202,0.03151378035545349,0.0022433216217905283,0.08407513797283173,0.37000465393066406,-0.02344810962677002,-0.12619270384311676,0.7087888717651367,-0.3662222623825073,0.0,0.0,0.0,-0.0294569730758667,-0.029318206012248993,-0.0,0.0,0.0,0.0,-0.002866327064111829,-0.004999999888241291,-0.0014877573121339083,8253.0,41531.0,15476.0,23323.0,0.024685822427272797,0.17973588407039642,0.05077951401472092,0.08387836813926697,0.0,0.0,0.0,0.0,6281.0,42571.0,13843.0,24720.0,0.36999213695526123,0.04230374546397709,-0.46349029229716326,0.056485034313970596,0.1254773885011673,-0.11465409398078918,0.027069328352808952
186,5,-0.0007173946360126138,0.00041231574141420424,0.0002967583714053035,-0.010573000647127628,0.007740194443613291,-0.0017134245717898011,0.08407513797283173,0.37000465393066406,-0.02344810962677002,-0.12619270384311676,0.7087888717651367,-0.3662222623825073,0.0,0.0,0.0,-0.0071101114153862,-0.010956009849905968,-0.0,0.0,0.0,0.0,-0.002866327064111829,-0.004999999888241291,-0.0014877573121339083,8253.0,41531.0,15476.0,23323.0,0.024685822427272797,0.17973588407039642,0.05077951401472092,0.08387836813926697,0.0,0.0,0.0,0.0,6281.0,42571.0,13843.0,24720.0,0.33906251192092896,0.04054710764835036,-0.4576627639060857,0.05295789715300926,0.0429941788315773,-0.025364963337779045,0.04002125933766365
191,5,-0.001185351051390171,0.00028701999690383673,0.0005664764903485775,-0.06868580728769302,0.019863463938236237,-0.03827456384897232,0.08432108908891678,0.3628678619861603,-0.0265142023563385,-0.12565338611602783,0.9846413731575012,-0.43945857882499695,0.0,0.0,0.0,-0.01642012968659401,-0.05513204634189606,-0.0,0.0,0.0,0.0,-0.003198441816493869,-0.0037280803080648184,-0.0017151734791696072,5501.0,42922.0,13273.0,25244.0,0.015846166759729385,0.18815290927886963,0.04237515106797218,0.09273067116737366,0.0,0.0,0.0,0.0,4414.0,43385.0,11410.0,26778.0,0.4134403169155121,0.025192716852980884,-0.44792266645257295,0.04569316244026233,0.26364806294441223,-0.07142605632543564,0.1548336148262024
196,5,-0.0013571711024269462,0.0005133340018801391,0.0006243755924515426,-0.044660549610853195,-0.025724925100803375,-0.019588245078921318,0.08432108908891678,0.3628678619861603,-0.0265142023563385,-0.12565338611602783,0.9846413731575012,-0.43945857882499695,0.0,0.0,0.0,0.024983210489153862,-0.03937109187245369,-0.0,0.0,0.0,0.0,-0.003198441816493869,-0.0037280803080648184,-0.0017151734791696072,5501.0,42922.0,13273.0,25244.0,0.015846166759729385,0.18815290927886963,0.04237515106797218,0.09273067116737366,0.0,0.0,0.0,0.0,4414.0,43385.0,11410.0,26778.0,0.38361015915870667,0.03474199519042935,-0.4382632762466902,0.04540750417833919,0.17470690608024597,0.10082618147134781,0.10130298882722855
201,5,-0.0015140743926167488,0.0005997080588713288,0.0006783891003578901,-0.03536462038755417,-0.019809843972325325,-0.013438364490866661,0.0844075083732605,0.3489151895046234,-0.03158244490623474,-0.14602133631706238,1.2548787593841553,-0.512929379940033,0.0,0.0,0.0,0.020549966022372246,-0.03325388953089714,-0.0,0.0,0.0,0.0,-0.003169262083247304,0.0008857669890858233,-0.0016616703942418098,17070.0,36815.0,0.0,33395.0,0.05710000917315483,0.15235133469104767,-0.0039995089173316956,0.13361069560050964,0.0,0.0,0.0,0.0,9709.0,41529.0,2121.0,32742.0,0.36638912558555603,0.03597243602209667,-0.4305253304734366,0.04147612102923909,0.14096304774284363,0.07921542227268219,0.0856018140912056
206,5,-0.0016889695543795824,0.0006445993203669786,0.0008026515715755522,-0.03509470820426941,-0.012227731756865978,-0.021428251639008522,0.0844075083732605,0.3489151895046234,-0.03158244490623474,-0.14602133631706238,1.2548787593841553,-0.512929379940033,0.0,0.0,0.0,0.013450054451823235,-0.03376663476228714,-0.0,0.0,0.0,0.0,-0.003169262083247304,0.0008857669890858233,-0.0016616703942418098,17070.0,36815.0,0.0,33395.0,0.05710000917315483,0.15235133469104767,-0.0039995089173316956,0.13361069560050964,0.0,0.0,0.0,0.0,9709.0,41529.0,2121.0,32742.0,0.3613525927066803,0.042686700325085536,-0.4247068705735855,0.039181523852267336,0.14118333160877228,0.05113651975989342,0.11345672607421875
211,5,-0.0015637724427506328,0.0005206652567721903,0.0011223965557292104,0.006999181117862463,0.01368244830518961,-0.05119277164340019,0.08369552344083786,0.33722567558288574,-0.03443113714456558,-0.16641093790531158,1.60137140750885,-0.3259826898574829,0.0,0.0,0.0,-0.012270452454686165,0.004080929793417454,-0.0,0.0,0.0,0.0,-0.0020842563826590776,0.0035812982823699713,-0.0017422133823856711,19915.0,36192.0,0.0,41394.0,0.06889559328556061,0.1488664746284485,-0.01302998885512352,0.17891283333301544,0.0,0.0,0.0,0.0,19160.0,34984.0,0.0,36493.0,0.36086854338645935,0.02374173027796024,-0.4334195913361753,0.04000331687392913,-0.017043568193912506,-0.04658876731991768,0.21005067229270935
216,5,-0.0017296555452048779,0.0006019413121975958,0.0012757611693814397,-0.021123871207237244,-0.007273913826793432,-0.03682887554168701,0.08369552344083786,0.33722567558288574,-0.03443113714456558,-0.16641093790531158,1.60137140750885,-0.3259826898574829,0.0,0.0,0.0,0.008567840792238712,-0.021453047171235085,-0.0,0.0,0.0,0.0,-0.0020842563826590776,0.0035812982823699713,-0.0017422133823856711,19915.0,36192.0,0.0,41394.0,0.06889559328556061,0.1488664746284485,-0.01302998885512352,0.17891283333301544,0.0,0.0,0.0,0.0,19160.0,34984.0,0.0,36493.0,0.36093467473983765,0.029992617807985924,-0.4234799585680334,0.0396801399022711,0.0896122083067894,0.03253857046365738,0.1726343035697937
221,5,-0.001901460811495781,0.0005358098424039781,0.001507148495875299,-0.030389901250600815,0.007076235022395849,-0.043442897498607635,0.08282453566789627,0.31610000133514404,-0.03750759735703468,-0.12651987373828888,1.8889495134353638,-0.44981759786605835,0.0,0.0,0.0,-0.005445191171020269,-0.02888418920338154,-0.0,0.0,0.0,0.0,-0.002804502844810486,0.004999999888241291,-0.001847459701821208,19373.0,35581.0,0.0,40752.0,0.06659595668315887,0.14547789096832275,-0.025746379047632217,0.17508676648139954,0.0,0.0,0.0,0.0,20011.0,36343.0,0.0,42155.0,0.3758006989955902,0.030058612470051187,-0.41480997996642904,0.03871912793337819,0.12561661005020142,-0.02153005823493004,0.19978603720664978
227,5,-0.0021016832906752825,0.0005280899349600077,0.0016921472270041704,-0.03714810311794281,0.003203657688573003,-0.038932688534259796,0.08282453566789627,0.31610000133514404,-0.03750759735703468,-0.12651987373828888,1.8889495134353638,-0.44981759786605835,0.0,0.0,0.0,-0.0017579180421307683,-0.035041093826293945,-0.0,0.0,0.0,0.0,-0.002804502844810486,0.004999999888241291,-0.001847459701821208,19373.0,35581.0,0.0,40752.0,0.06659595668315887,0.14547789096832275,-0.025746379047632217,0.17508676648139954,0.0,0.0,0.0,0.0,20011.0,36343.0,0.0,42155.0,0.3758696913719177,0.02689143141645781,-0.3986399462794918,0.03610460603834644,0.1524125039577484,-0.006951518822461367,0.19367411732673645
232,5,-0.002348391804844141,0.00044165755389258265,0.0017872254829853773,-0.04568362236022949,0.013061631470918655,-0.024990767240524292,0.08226209133863449,0.2741056978702545,-0.04254666343331337,-0.09096582978963852,2.1874358654022217,-0.4101576805114746,0.0,0.0,0.0,-0.01053504180163145,-0.04026319831609726,-0.0,0.0,0.0,0.0,-0.002814008155837655,0.004999999888241291,-0.001977240899577737,18684.0,36628.0,0.0,41196.0,0.06371176242828369,0.15129971504211426,-0.031807806342840195,0.17773136496543884,0.0,0.0,0.0,0.0,19492.0,35307.0,0.0,40667.0,0.3996262550354004,0.023004553806188384,-0.38157955118594844,0.033696548584085904,0.1861688792705536,-0.044296205043792725,0.1585225611925125
237,5,-0.002613309072330594,0.0004928315174765885,0.0018672737060114741,-0.05079351365566254,-0.0032458666246384382,-0.018703969195485115,0.08226209133863449,0.2741056978702545,-0.04254666343331337,-0.09096582978963852,2.1874358654022217,-0.4101576805114746,0.0,0.0,0.0,0.004094541072845459,-0.04480979964137077,-0.0,0.0,0.0,0.0,-0.002814008155837655,0.004999999888241291,-0.001977240899577737,18684.0,36628.0,0.0,41196.0,0.06371176242828369,0.15129971504211426,-0.031807806342840195,0.17773136496543884,0.0,0.0,0.0,0.0,19492.0,35307.0,0.0,40667.0,0.39968475699424744,0.024861928804651233,-0.35739467222077187,0.030849136879201162,0.2072220891714096,0.017220010980963707,0.14636261761188507
242,5,-0.0029350549448281527,0.000414334237575531,0.002125406637787819,-0.06028249114751816,0.01001585740596056,-0.041749801486730576,0.08204980194568634,0.2559358775615692,-0.0440465584397316,-0.0725119486451149,2.2902588844299316,-0.3466325104236603,0.0,0.0,0.0,0.004046597983688116,-0.04415350779891014,-0.0,0.0,0.0,0.0,-0.0029455542098730803,0.004999999888241291,-0.0019336658297106624,20809.0,37575.0,0.0,40935.0,0.07273592054843903,0.15663982927799225,-0.029680218547582626,0.17617490887641907,0.0,0.0,0.0,0.0,19072.0,36502.0,0.0,40924.0,0.40657302737236023,0.026076933014767108,-0.3437540652740821,0.030132786302849178,0.24506191909313202,-0.03285164013504982,0.22516711056232452
247,5,-0.003097768174484372,0.0004065809480380267,0.0022058608010411263,-0.04086458683013916,0.004090219270437956,-0.023788543418049812,0.08204980194568634,0.2559358775615692,-0.0440465584397316,-0.0725119486451149,2.2902588844299316,-0.3466325104236603,0.0,0.0,0.0,-0.007658311631530523,-0.05219750478863716,-0.0,0.0,0.0,0.0,-0.0029455542098730803,0.004999999888241291,-0.0019336658297106624,20809.0,37575.0,0.0,40935.0,0.07273592054843903,0.15663982927799225,-0.029680218547582626,0.17617490887641907,0.0,0.0,0.0,0.0,19072.0,36502.0,0.0,40924.0,0.40645185112953186,0.02275514460474475,-0.33510459783495383,0.027793303748479204,0.17369027435779572,-0.010595465078949928,0.1791340559720993
252,5,-0.003205737564712763,0.00048286604578606784,0.002243952825665474,-0.02737509272992611,-0.009452846832573414,-0.012469434179365635,0.08129394799470901,0.22878076136112213,-0.04597274586558342,-0.08029583841562271,2.279289960861206,-0.34831002354621887,0.0,0.0,0.0,-0.002407853491604328,-0.03627226874232292,-0.0,0.0,0.0,0.0,-0.0032362029887735844,0.004999999888241291,-0.0019811552483588457,20972.0,38718.0,0.0,42795.0,0.07344052195549011,0.16318649053573608,-0.024318989366292953,0.1873781979084015,0.0,0.0,0.0,0.0,20910.0,37302.0,0.0,40862.0,0.41520342230796814,0.026267208180660258,-0.3279142698905046,0.026082430464150073,0.12428414076566696,0.04068756103515625,0.15269751846790314
257,5,-0.0033235657028853893,0.0005409865989349782,0.002375819720327854,-0.02470846101641655,-0.010972728952765465,-0.022202182561159134,0.08129394799470901,0.22878076136112213,-0.04597274586558342,-0.08029583841562271,2.279289960861206,-0.34831002354621887,0.0,0.0,0.0,0.010715395212173462,-0.0240517258644104,-0.0,0.0,0.0,0.0,-0.0032362029887735844,0.004999999888241291,-0.0019811552483588457,20972.0,38718.0,0.0,42795.0,0.07344052195549011,0.16318649053573608,-0.024318989366292953,0.1873781979084015,0.0,0.0,0.0,0.0,20910.0,37302.0,0.0,40862.0,0.4150729775428772,0.030554603362592105,-0.31979477582093924,0.0243876512698262,0.1155337542295456,0.0467974916100502,0.19089271128177643
262,5,-0.0034595713950693607,0.0006675387267023325,0.002456498332321644,-0.026453331112861633,-0.021009119227528572,-0.017955683171749115,0.08123710006475449,0.21149390935897827,-0.04710420221090317,-0.029098451137542725,2.0927984714508057,-0.29923558235168457,0.0,0.0,0.0,0.019277337938547134,-0.025387322530150414,-0.0,0.0,0.0,0.0,-0.0032399590127170086,0.004999999888241291,-0.0019955814350396395,22207.0,39284.0,0.0,42459.0,0.07886805385351181,0.1664641797542572,-0.024213094264268875,0.18533426523208618,0.0,0.0,0.0,0.0,22909.0,38878.0,0.0,41940.0,0.4202349781990051,0.036073772978229175,-0.3115281149962792,0.022344361312342166,0.12344862520694733,0.08523181080818176,0.18679186701774597
267,5,-0.0035777732264250517,0.0007654211367480457,0.0025189786683768034,-0.024484271183609962,-0.020006276667118073,-0.014133938588202,0.08123710006475449,0.21149390935897827,-0.04710420221090317,-0.029098451137542725,2.0927984714508057,-0.29923558235168457,0.0,0.0,0.0,0.018577124923467636,-0.02413424476981163,-0.0,0.0,0.0,0.0,-0.0032399590127170086,0.004999999888241291,-0.0019955814350396395,22207.0,39284.0,0.0,42459.0,0.07886805385351181,0.1664641797542572,-0.024213094264268875,0.18533426523208618,0.0,0.0,0.0,0.0,22909.0,38878.0,0.0,41940.0,0.4202163517475128,0.03733155928766518,-0.3014963686463985,0.02175784224139088,0.11734803766012192,0.08213181048631668,0.1837577223777771
272,5,-0.003719440894201398,0.000783967028837651,0.002505597658455372,-0.02717876248061657,-0.008598309010267258,-0.0023668413050472736,0.08103638887405396,0.18739856779575348,-0.048388924449682236,-0.07266653329133987,1.9121087789535522,-0.2645367681980133,0.0,0.0,0.0,0.008835427463054657,-0.026150289922952652,-0.0,0.0,0.0,0.0,-0.0034258593805134296,0.004999999888241291,-0.001958815846592188,22143.0,39209.0,0.0,42506.0,0.07858218252658844,0.16602864861488342,-0.023777548223733902,0.18562012910842896,0.0,0.0,0.0,0.0,22421.0,38757.0,0.0,43010.0,0.42592042684555054,0.036663660198145105,-0.2922995107430068,0.020323046406878903,0.12889164686203003,0.03959514945745468,0.15600156784057617
277,5,-0.004068034701049328,0.0007660146802663803,0.002674767980352044,-0.0319875106215477,0.00029574870131909847,-0.009488108567893505,0.08103638887405396,0.18739856779575348,-0.048388924449682236,-0.07266653329133987,1.9121087789535522,-0.2645367681980133,0.0,0.0,0.0,0.0014041070826351643,-0.030339449644088745,-0.0,0.0,0.0,0.0,-0.0034258593805134296,0.004999999888241291,-0.001958815846592188,22143.0,39209.0,0.0,42506.0,0.07858218252658844,0.16602864861488342,-0.023777548223733902,0.18562012910842896,0.0,0.0,0.0,0.0,22421.0,38757.0,0.0,43010.0,0.4259546399116516,0.0356338382123467,-0.27346248859998246,0.01892544040551807,0.149557426571846,0.0062941377982497215,0.1879335194826126
283,5,-0.0041358559392392635,0.0006934991106390953,0.0026841256767511368,-0.019091179594397545,0.01024091150611639,-0.0041565061546862125,0.08098983019590378,0.17283116281032562,-0.04895709455013275,-0.027551818639039993,1.6649526357650757,-0.19070185720920563,0.0,0.0,0.0,-0.006935399025678635,-0.020636335015296936,-0.0,0.0,0.0,0.0,-0.0030212802812457085,0.004999999888241291,-0.0019272764911875129,22415.0,38579.0,0.0,43434.0,0.07979200035333633,0.16238641738891602,-0.013253103941679,0.19129252433776855,0.0,0.0,0.0,0.0,22777.0,38310.0,0.0,43170.0,0.4283813238143921,0.0389226879008595,-0.262897134329018,0.017856260996047806,0.10231385380029678,-0.031259097158908844,0.18023759126663208
288,5,-0.004434668924659491,0.0007481685606762767,0.0029978929087519646,-0.04756120219826698,-0.004581456538289785,-0.04517437890172005,0.08098983019590378,0.17283116281032562,-0.04895709455013275,-0.027551818639039993,1.6649526357650757,-0.19070185720920563,0.0,0.0,0.0,0.0054885149002075195,-0.042640820145606995,-0.0,0.0,0.0,0.0,-0.0030212802812457085,0.004999999888241291,-0.0019272764911875129,22415.0,38579.0,0.0,43434.0,0.07979200035333633,0.16238641738891602,-0.013253103941679,0.19129252433776855,0.0,0.0,0.0,0.0,22777.0,38310.0,0.0,43170.0,0.42867591977119446,0.03744586593747305,-0.2541441029001334,0.018055603804632482,0.21150293946266174,0.02475678361952305,0.3164762556552887
293,5,-0.004593655001372099,0.000736373767722398,0.003155531594529748,-0.036526408046483994,0.0002768383710645139,-0.03562172129750252,0.08098983019590378,0.17283116281032562,-0.04895709455013275,-0.027551818639039993,1.6649526357650757,-0.19070185720920563,0.0,0.0,0.0,0.0014659957960247993,-0.03464633971452713,-0.0,0.0,0.0,0.0,-0.0030212802812457085,0.004999999888241291,-0.0019272764911875129,22415.0,38579.0,0.0,43434.0,0.07979200035333633,0.16238641738891602,-0.013253103941679,0.19129252433776855,0.0,0.0,0.0,0.0,22777.0,38310.0,0.0,43170.0,0.4285374581813812,0.03803717729189827,-0.2475752945076643,0.017628058019185273,0.17181554436683655,0.006611308548599482,0.29940927028656006
298,5,-0.004769184626638889,0.0006940083112567663,0.0032655808608978987,-0.03553207218647003,0.006014217622578144,-0.02609339728951454,0.08086191117763519,0.1546381264925003,-0.04947519302368164,-0.032506804913282394,1.310638427734375,-0.14380748569965363,0.0,0.0,0.0,-0.003309515304863453,-0.03407825157046318,-0.0,0.0,0.0,0.0,-0.002701772376894951,0.004999999888241291,-0.0018882054137066007,22766.0,38242.0,0.0,43178.0,0.08136323094367981,0.16044586896896362,-0.011312555521726608,0.18972130119800568,0.0,0.0,0.0,0.0,23947.0,39230.0,0.0,42584.0,0.4308234453201294,0.039684665416358844,-0.24183816844387784,0.017903738804324117,0.16989336907863617,-0.015002244152128696,0.2821049094200134
303,5,-0.004854511935263872,0.0010242414427921176,0.0031519450712949038,-0.022605447098612785,-0.044428370893001556,0.008080973289906979,0.08086191117763519,0.1546381264925003,-0.04947519302368164,-0.032506804913282394,1.310638427734375,-0.14380748569965363,0.0,0.0,0.0,0.03884360194206238,-0.024632954970002174,-0.0,0.0,0.0,0.0,-0.002701772376894951,0.004999999888241291,-0.0018882054137066007,22766.0,38242.0,0.0,43178.0,0.08136323094367981,0.16044586896896362,-0.011312555521726608,0.18972130119800568,0.0,0.0,0.0,0.0,23947.0,39230.0,0.0,42584.0,0.43102675676345825,0.06272136352772269,-0.23714538417889122,0.019529742541073092,0.12278945744037628,0.17610590159893036,0.18815815448760986
308,5,-0.0054513830691576,0.0003359189722687006,0.002969513414427638,-0.09034359455108643,0.0830366313457489,0.027964724227786064,0.0806080549955368,0.14517353475093842,-0.0497589148581028,-0.00953649077564478,0.9140212535858154,-0.1250862181186676,0.0,0.0,0.0,-0.058519396930933,-0.06646094471216202,-0.0,0.0,0.0,0.0,-0.0034070967230945826,0.0037284553982317448,-0.001859325566329062,20328.0,42294.0,1294.0,39454.0,0.0706598162651062,0.18433287739753723,0.0035107433795928955,0.16745305061340332,0.0,0.0,0.0,0.0,18871.0,43473.0,3956.0,38402.0,0.496513694524765,0.013828332828269271,-0.21353727879749004,0.027290481521137007,0.3810023069381714,-0.3054836392402649,0.1356111317873001
313,5,-0.005651465151458979,0.0003216798941139132,0.0030618610326200724,-0.05511457845568657,0.026904460042715073,-0.004539241082966328,0.0806080549955368,0.14517353475093842,-0.0497589148581028,-0.00953649077564478,0.9140212535858154,-0.1250862181186676,0.0,0.0,0.0,-0.020880520343780518,-0.05018188804388046,-0.0,0.0,0.0,0.0,-0.0034070967230945826,0.0037284553982317448,-0.001859325566329062,20328.0,42294.0,1294.0,39454.0,0.0706598162651062,0.18433287739753723,0.0035107433795928955,0.16745305061340332,0.0,0.0,0.0,0.0,18871.0,43473.0,3956.0,38402.0,0.43246084451675415,0.013053451205223821,-0.21022978060257116,0.025508019773563595,0.2510254681110382,-0.0950029194355011,0.24387143552303314
318,5,-0.00587071105837822,0.00031565851531922817,0.003117382526397705,-0.047228794544935226,0.008914328180253506,-0.009134785272181034,0.08045081794261932,0.13604037463665009,-0.050153523683547974,-0.02035546861588955,0.5675086379051208,-0.08014164119958878,0.0,0.0,0.0,-0.006025209091603756,-0.04455024376511574,-0.0,0.0,0.0,0.0,-0.003502856008708477,-0.0010130099253728986,-0.00179792451672256,15681.0,45538.0,9059.0,35523.0,0.05158165842294693,0.20440438389778137,0.027389168739318848,0.14516238868236542,0.0,0.0,0.0,0.0,11143.0,45376.0,14799.0,35470.0,0.433997243642807,0.011405589327153406,-0.21053031952978035,0.024751124913049354,0.22370298206806183,-0.027513708919286728,0.26790890097618103
323,5,-0.005930427927523851,0.0003851860819850117,0.0029613375663757324,-0.022529011592268944,-0.007059559691697359,0.019105851650238037,0.08045081794261932,0.13604037463665009,-0.050153523683547974,-0.02035546861588955,0.5675086379051208,-0.08014164119958878,0.0,0.0,0.0,0.00719418516382575,-0.02640198916196823,-0.0,0.0,0.0,0.0,-0.003502856008708477,-0.0010130099253728986,-0.00179792451672256,15681.0,45538.0,9059.0,35523.0,0.05158165842294693,0.20440438389778137,0.027389168739318848,0.14516238868236542,0.0,0.0,0.0,0.0,11143.0,45376.0,14799.0,35470.0,0.4337211549282074,0.021684997373524983,-0.211479595398811,0.019992425727390073,0.13251706957817078,0.03283074498176575,0.19065436720848083
329,5,-0.006154188886284828,0.00023955453070811927,0.0030129628721624613,-0.0380852036178112,0.018270548433065414,-0.0014957739040255547,0.08031928539276123,0.1330983191728592,-0.05024443566799164,-0.008881589397788048,0.1832115352153778,-0.008993702009320259,0.0,0.0,0.0,-0.013761799782514572,-0.038444142788648605,-0.0,0.0,0.0,0.0,-0.0018851960776373744,-0.003940232563763857,-0.001769784721545875,8368.0,46916.0,17488.0,33464.0,0.025068283081054688,0.2131844460964203,0.05879472196102142,0.13397976756095886,0.0,0.0,0.0,0.0,12815.0,49145.0,15144.0,29731.0,0.4343201816082001,0.011255758928289653,-0.21665940936465103,0.023709987970412544,0.19319644570350647,-0.0628865659236908,0.2624916732311249
334,5,-0.006338418927043676,0.0002875191275961697,0.0029532145708799362,-0.03721780329942703,-0.0012338794767856598,0.007916011847555637,0.08031928539276123,0.1330983191728592,-0.05024443566799164,-0.008881589397788048,0.1832115352153778,-0.008993702009320259,0.0,0.0,0.0,0.0023118150420486927,-0.038228489458560944,-0.0,0.0,0.0,0.0,-0.0018851960776373744,-0.003940232563763857,-0.001769784721545875,8368.0,46916.0,17488.0,33464.0,0.025068283081054688,0.2131844460964203,0.05879472196102142,0.13397976756095886,0.0,0.0,0.0,0.0,12815.0,49145.0,15144.0,29731.0,0.43427664041519165,0.0162142183417105,-0.21743903729241618,0.023005360897164984,0.19211196899414062,0.010564046911895275,0.24276962876319885
339,5,-0.006479012779891491,0.00032386300154030323,0.0028576126787811518,-0.030848460271954536,-0.005458303261548281,0.01575908623635769,0.08014949411153793,0.1330353170633316,-0.049660153687000275,0.02375894971191883,-0.17027375102043152,0.09829472750425339,0.0,0.0,0.0,0.005869603715837002,-0.034065425395965576,-0.0,0.0,0.0,0.0,-0.0032194056548178196,-0.004999999888241291,-0.0015127913793548942,14213.0,48612.0,16042.0,28686.0,0.04591262340545654,0.22420606017112732,0.053000569343566895,0.1093427836894989,0.0,0.0,0.0,0.0,12622.0,47557.0,17909.0,29997.0,0.43164482712745667,0.01649699060038137,-0.22217204041353036,0.026078280165151874,0.1701512485742569,0.02665787562727928,0.22673267126083374
344,5,-0.006639525294303894,0.00031507702078670263,0.002977136056870222,-0.031726256012916565,-0.0004074543830938637,-0.012005535885691643,0.08014949411153793,0.1330353170633316,-0.049660153687000275,0.02375894971191883,-0.17027375102043152,0.09829472750425339,0.0,0.0,0.0,0.001701865578070283,-0.03514368459582329,-0.0,0.0,0.0,0.0,-0.0032194056548178196,-0.004999999888241291,-0.0015127913793548942,14213.0,48612.0,16042.0,28686.0,0.04591262340545654,0.22420606017112732,0.053000569343566895,0.1093427836894989,0.0,0.0,0.0,0.0,12622.0,47557.0,17909.0,29997.0,0.4316541254520416,0.020489213643805564,-0.22657280990549739,0.027292914581063917,0.17555131018161774,0.007730026729404926,0.3208328187465668
349,5,-0.006788932718336582,0.00039619067683815956,0.0029792231507599354,-0.03043491765856743,-0.011478150263428688,-0.0038938738871365786,0.08012877404689789,0.13529962301254272,-0.048931412398815155,-0.0206775963306427,-0.38855233788490295,0.12605799734592438,0.0,0.0,0.0,0.011035982519388199,-0.034848518669605255,-0.0,0.0,0.0,0.0,-0.003545008599758148,-0.004999999888241291,-0.0013846401125192642,12880.0,47157.0,18537.0,29809.0,0.04091702029109001,0.21473698318004608,0.06309965252876282,0.11496839672327042,0.0,0.0,0.0,0.0,13489.0,47134.0,18572.0,29359.0,0.4284522533416748,0.03137722715475574,-0.2283867129699941,0.024517279009308703,0.17276614904403687,0.049750231206417084,0.30575841665267944
354,5,-0.0071134669706225395,0.0003637199697550386,0.0031671873293817043,-0.05456528812646866,0.0011024551931768656,-0.027483128011226654,0.08012877404689789,0.13529962301254272,-0.048931412398815155,-0.0206775963306427,-0.38855233788490295,0.12605799734592438,0.0,0.0,0.0,0.0005466298898681998,-0.053679872304201126,-0.0,0.0,0.0,0.0,-0.003545008599758148,-0.004999999888241291,-0.0013846401125192642,12880.0,47157.0,18537.0,29809.0,0.04091702029109001,0.21473698318004608,0.06309965252876282,0.11496839672327042,0.0,0.0,0.0,0.0,13489.0,47134.0,18572.0,29359.0,0.4287837743759155,0.03604314184822207,-0.22725531982791022,0.021093264981007085,0.2662838101387024,0.0024667279794812202,0.3884463608264923
359,5,-0.007299112156033516,0.0005542910657823086,0.0028554045129567385,-0.04235991835594177,-0.02634921669960022,0.035404641181230545,0.08009092509746552,0.14089615643024445,-0.047298088669776917,0.04660477489233017,-0.5274519920349121,0.21054737269878387,0.0,0.0,0.0,0.024025745689868927,-0.045718539506196976,-0.0,0.0,0.0,0.0,-0.003477830905467272,-0.004999999888241291,-0.0013884886866435409,15160.0,46340.0,19540.0,27867.0,0.049550145864486694,0.2094995677471161,0.06730421632528305,0.10530242323875427,0.0,0.0,0.0,0.0,15105.0,46591.0,19472.0,28177.0,0.42145225405693054,0.057048237898618855,-0.22397410403606927,0.027193787274119946,0.22286933660507202,0.10652769356966019,0.20498040318489075
364,5,-0.007535217329859734,0.00045710225822404027,0.002969959983602166,-0.045762717723846436,0.005701666697859764,-0.005416361149400473,0.08009092509746552,0.14089615643024445,-0.047298088669776917,0.04660477489233017,-0.5274519920349121,0.21054737269878387,0.0,0.0,0.0,-0.0031792495865374804,-0.04887177795171738,-0.0,0.0,0.0,0.0,-0.003477830905467272,-0.004999999888241291,-0.0013884886866435409,15160.0,46340.0,19540.0,27867.0,0.049550145864486694,0.2094995677471161,0.06730421632528305,0.10530242323875427,0.0,0.0,0.0,0.0,15105.0,46591.0,19472.0,28177.0,0.4213956296443939,0.058474594085192295,-0.23177034122436288,0.025223139659788153,0.23827581107616425,-0.01409568265080452,0.3379478454589844
369,5,-0.007801329717040062,0.0004890110576525331,0.002855315338820219,-0.05098455771803856,-0.002756732515990734,0.01442533265799284,0.08007169514894485,0.14545930922031403,-0.04614894837141037,0.0046656071208417416,-0.5691831707954407,0.23742994666099548,0.0,0.0,0.0,0.004082811996340752,-0.05413791537284851,-0.0,0.0,0.0,0.0,-0.0036096496041864157,-0.004999999888241291,-0.0011569485068321228,17299.0,45050.0,21110.0,25809.0,0.058025043457746506,0.2013288289308548,0.07404080033302307,0.09539336711168289,0.0,0.0,0.0,0.0,16040.0,45692.0,20506.0,27160.0,0.4163380563259125,0.05924189822579223,-0.23183411021351935,0.028314851674144832,0.2607462704181671,0.017885349690914154,0.28604987263679504
374,5,-0.007987529039382935,0.0005157975829206407,0.002740924945101142,-0.04136323928833008,-0.004577131010591984,0.020342249423265457,0.08007169514894485,0.14545930922031403,-0.04614894837141037,0.0046656071208417416,-0.5691831707954407,0.23742994666099548,0.0,0.0,0.0,0.004103173967450857,-0.05443375185132027,-0.0,0.0,0.0,0.0,-0.0036096496041864157,-0.004999999888241291,-0.0011569485068321228,17299.0,45050.0,21110.0,25809.0,0.058025043457746506,0.2013288289308548,0.07404080033302307,0.09539336711168289,0.0,0.0,0.0,0.0,16040.0,45692.0,20506.0,27160.0,0.4163447916507721,0.06134633674164949,-0.2393395522417668,0.03172776805401498,0.22713005542755127,0.02494943141937256,0.27536049485206604
380,5,-0.008239042945206165,0.0004903692752122879,0.0027535168919712305,-0.047620899975299835,0.002186821773648262,0.004339808132499456,0.08003197610378265,0.1573069989681244,-0.041102491319179535,0.04501340165734291,-0.6112938523292542,0.28538134694099426,0.0,0.0,0.0,-0.00010770779044833034,-0.05405610054731369,-0.0,0.0,0.0,0.0,-0.003955600783228874,-0.004999999888241291,-0.0010186985600739717,17292.0,44738.0,20709.0,25029.0,0.057999685406684875,0.1993764489889145,0.07229935377836227,0.09172490239143372,0.0,0.0,0.0,0.0,17899.0,45011.0,21165.0,25290.0,0.40532153844833374,0.0636962284114772,-0.2528911702097661,0.030251536530775832,0.2534780204296112,-0.0004586108843795955,0.33212271332740784
385,5,-0.008239042945206165,0.0004903692752122879,0.0027535168919712305,-0.047620899975299835,0.002186821773648262,0.004339808132499456,0.08003197610378265,0.1573069989681244,-0.041102491319179535,0.04501340165734291,-0.6112938523292542,0.28538134694099426,0.0,0.0,0.0,-8.653283293824643e-05,-0.054294291883707047,-0.0,0.0,0.0,0.0,-0.003955600783228874,-0.004999999888241291,-0.0010186985600739717,17292.0,44738.0,20709.0,25029.0,0.057999685406684875,0.1993764489889145,0.07229935377836227,0.09172490239143372,0.0,0.0,0.0,0.0,17899.0,45011.0,21165.0,25290.0,0.40594562888145447,0.0636962284114772,-0.2528911702097661,0.030251536530775832,0.2549734115600586,-0.0003696088679134846,0.3404521048069
390,5,-0.008533605374395847,-9.693370520835742e-05,0.0029641990549862385,-0.01756325364112854,0.07007370889186859,-0.022470464929938316,0.08003197610378265,0.1573069989681244,-0.041102491319179535,0.04501340165734291,-0.6112938523292542,0.28538134694099426,0.0,0.0,0.0,-0.05803805962204933,-0.02975645288825035,-0.0,0.0,0.0,0.0,-0.003955600783228874,-0.004999999888241291,-0.0010186985600739717,17292.0,44738.0,20709.0,25029.0,0.057999685406684875,0.1993764489889145,0.07229935377836227,0.09172490239143372,0.0,0.0,0.0,0.0,17899.0,45011.0,21165.0,25290.0,0.42294761538505554,0.02624775983094883,-0.2833457814765193,0.03645221426592388,0.1453978717327118,-0.2580859959125519,0.4325154721736908
395,5,-0.008900324814021587,-0.00031431822571903467,0.0030585797503590584,-0.0566096268594265,0.05145594850182533,-0.01995442993938923,0.08014354109764099,0.16504479944705963,-0.03895167261362076,0.056810930371284485,-0.6072123050689697,0.20391517877578735,0.0,0.0,0.0,-0.04051082581281662,-0.057479217648506165,-0.0,0.0,0.0,0.0,-0.003394257975742221,-0.004999999888241291,-0.0012304469710215926,15206.0,45028.0,19677.0,26230.0,0.04972867667675018,0.2011914700269699,0.06788406521081924,0.0973956435918808,0.0,0.0,0.0,0.0,16732.0,45091.0,20194.0,25510.0,0.4446997046470642,0.016501042393796884,-0.2875306361542142,0.03665378124864045,0.29545268416404724,-0.18948400020599365,0.43572503328323364
400,5,-0.009622958488762379,8.652574615553021e-05,0.002556083956733346,-0.11815163493156433,-0.040681373327970505,0.06436306983232498,0.08014354109764099,0.16504479944705963,-0.03895167261362076,0.056810930371284485,-0.6072123050689697,0.20391517877578735,0.0,0.0,0.0,0.028920255601406097,-0.08853641152381897,-0.0,0.0,0.0,0.0,-0.003394257975742221,-0.004999999888241291,-0.0012304469710215926,15206.0,45028.0,19677.0,26230.0,0.04972867667675018,0.2011914700269699,0.06788406521081924,0.0973956435918808,0.0,0.0,0.0,0.0,16732.0,45091.0,20194.0,25510.0,0.5199152231216431,0.04686561339010449,-0.2507520109811535,0.04154689237446141,0.5318529009819031,0.1581782102584839,0.18462766706943512
405,5,-0.010148721747100353,-0.0003521837934385985,0.0035022932570427656,-0.1090523898601532,0.0492149218916893,-0.11316035687923431,0.08011320233345032,0.16936106979846954,-0.03674745932221413,0.07344058156013489,-0.5486642122268677,0.3797351121902466,0.0,0.0,0.0,-0.03362137824296951,-0.08481864631175995,-0.0,0.0,0.0,0.0,-0.004999999888241291,-0.004999999888241291,-0.00087874656310305,21236.0,44496.0,21236.0,21539.0,0.07459239661693573,0.19786737859249115,0.07459240406751633,0.07591617107391357,0.0,0.0,0.0,0.0,16796.0,44093.0,21035.0,24900.0,0.5127165913581848,0.04810336329694416,-0.2589274038076879,0.03653136491617841,0.5024451017379761,-0.18133273720741272,0.7395610213279724
410,5,-0.010456801392138004,-0.000693714595399797,0.003627586178481579,-0.07584690302610397,0.06257878988981247,-0.051489125937223434,0.08011320233345032,0.16936106979846954,-0.03674745932221413,0.07344058156013489,-0.5486642122268677,0.3797351121902466,0.0,0.0,0.0,-0.046096909791231155,-0.0685972049832344,-0.0,0.0,0.0,0.0,-0.004999999888241291,-0.004999999888241291,-0.00087874656310305,21236.0,44496.0,21236.0,21539.0,0.07459239661693573,0.19786737859249115,0.07459240406751633,0.07591617107391357,0.0,0.0,0.0,0.0,16796.0,44093.0,21035.0,24900.0,0.48142769932746887,0.027852509326738814,-0.27008079863243695,0.03824068362147186,0.3815236985683441,-0.23339374363422394,0.5673839449882507
415,5,-0.010844746604561806,-0.0005131894140504301,0.0034915071446448565,-0.07706635445356369,-0.00649988790974021,0.003604318480938673,0.08012613654136658,0.17473956942558289,-0.03381134569644928,0.03456800431013107,-0.38538357615470886,0.21902544796466827,0.0,0.0,0.0,0.005476672202348709,-0.07332174479961395,-0.0,0.0,0.0,0.0,-0.004999999888241291,-0.004999999888241291,-0.0010219259420409799,21964.0,47104.0,28127.0,31038.0,0.07778944075107574,0.21439842879772186,0.10658273100852966,0.12124049663543701,0.0,0.0,0.0,0.0,20258.0,45172.0,20258.0,22495.0,0.46017348766326904,0.041799159630816145,-0.26561265790666466,0.04085461829068672,0.3901619613170624,0.02651728130877018,0.41120362281799316
420,5,-0.010844746604561806,-0.0005131894140504301,0.0034915071446448565,-0.07706635445356369,-0.00649988790974021,0.003604318480938673,0.08012613654136658,0.17473956942558289,-0.03381134569644928,0.03456800431013107,-0.38538357615470886,0.21902544796466827,0.0,0.0,0.0,0.005447865463793278,-0.07357846200466156,-0.0,0.0,0.0,0.0,-0.004999999888241291,-0.004999999888241291,-0.0010219259420409799,21964.0,47104.0,28127.0,31038.0,0.07778944075107574,0.21439842879772186,0.10658273100852966,0.12124049663543701,0.0,0.0,0.0,0.0,20258.0,45172.0,20258.0,22495.0,0.46094149351119995,0.041799159630816145,-0.26561265790666466,0.04085461829068672,0.39217907190322876,0.02642182819545269,0.4220272898674011
425,5,-0.011717393063008785,-0.0004912063595838845,0.0034093554131686687,-0.08736517280340195,0.003377968445420265,0.004805761855095625,0.08007024973630905,0.1772925853729248,-0.031893711537122726,0.035724055022001266,-0.1758250743150711,0.2967417538166046,0.0,0.0,0.0,-0.002107461681589484,-0.07921779155731201,-0.0,0.0,0.0,0.0,-0.00266322772949934,-0.004999999888241291,-0.000890008348505944,24139.0,47068.0,24139.0,25133.0,0.08760321140289307,0.21416616439819336,0.08760321140289307,0.09221494197845459,0.0,0.0,0.0,0.0,24860.0,46549.0,24860.0,24416.0,0.47781652212142944,0.05602406172438446,-0.26323131871295735,0.04203274685884238,0.4376378357410431,-0.010595317929983139,0.42809343338012695
430,5,-0.012059376575052738,-0.0008543330477550626,0.003534030169248581,-0.07408713549375534,0.051851123571395874,-0.01601271703839302,0.08007024973630905,0.1772925853729248,-0.031893711537122726,0.035724055022001266,-0.1758250743150711,0.2967417538166046,0.0,0.0,0.0,-0.03869570791721344,-0.0709792748093605,-0.0,0.0,0.0,0.0,-0.00266322772949934,-0.004999999888241291,-0.000890008348505944,24139.0,47068.0,24139.0,25133.0,0.08760321140289307,0.21416616439819336,0.08760321140289307,0.09221494197845459,0.0,0.0,0.0,0.0,24860.0,46549.0,24860.0,24416.0,0.47776713967323303,0.03565780933240708,-0.27400633480094116,0.04618059809108585,0.3918900191783905,-0.19445964694023132,0.5029152035713196
435,5,-0.012374904938042164,-0.000569691532291472,0.003377315355464816,-0.06640014052391052,-0.024294475093483925,0.017136255279183388,0.0797015056014061,0.17931950092315674,-0.028494784608483315,0.007947259582579136,-0.13244079053401947,0.26314741373062134,0.0,0.0,0.0,0.01930730976164341,-0.06970678269863129,-0.0,0.0,0.0,0.0,-0.004999999888241291,-0.004999999888241291,-0.0008269615937024355,24626.0,46718.0,24626.0,24651.0,0.08985060453414917,0.21191877126693726,0.08985060453414917,0.08996754884719849,0.0,0.0,0.0,0.0,24860.0,46549.0,24860.0,24416.0,0.45535728335380554,0.058812843812705254,-0.26574758665230996,0.04509045855945974,0.36702555418014526,0.09249552339315414,0.4119729697704315
440,5,-0.013081022538244724,-0.0007438216125592589,0.0033959527499973774,-0.11877655982971191,0.01708987168967724,0.00253163930028677,0.0797015056014061,0.17931950092315674,-0.028494784608483315,0.007947259582579136,-0.13244079053401947,0.26314741373062134,0.0,0.0,0.0,-0.011516991071403027,-0.09367591142654419,-0.0,0.0,0.0,0.0,-0.004999999888241291,-0.004999999888241291,-0.0008269615937024355,24626.0,46718.0,24626.0,24651.0,0.08985060453414917,0.21191877126693726,0.08985060453414917,0.08996754884719849,0.0,0.0,0.0,0.0,24860.0,46549.0,24860.0,24416.0,0.5261701345443726,0.04603437782850803,-0.2550673061980955,0.051447313440249796,0.5696081519126892,-0.06375963985919952,0.466453492641449
445,5,-0.01344170793890953,-0.0011998622212558985,0.0035529560409486294,-0.08612891286611557,0.0689726397395134,-0.021220959722995758,0.07962561398744583,0.17931178212165833,-0.02661641500890255,0.04408660903573036,0.10317130386829376,0.25048303604125977,0.0,0.0,0.0,-0.04881792515516281,-0.07691821455955505,-0.0,0.0,0.0,0.0,-0.003587902057915926,-0.004999999888241291,-0.0008150948560796678,21528.0,44515.0,25430.0,25466.0,0.07586734741926193,0.19798526167869568,0.09360653162002563,0.09377323091030121,0.0,0.0,0.0,0.0,25123.0,46087.0,25123.0,23776.0,0.5083295106887817,0.03384772641410251,-0.2666047859499666,0.048996229789456336,0.45155927538871765,-0.26096710562705994,0.550439715385437
451,5,-0.013875889591872692,-0.0009945470374077559,0.003548211185261607,-0.08662410825490952,-0.008052326738834381,-0.005702014546841383,0.07962561398744583,0.17931178212165833,-0.02661641500890255,0.04408660903573036,0.10317130386829376,0.25048303604125977,0.0,0.0,0.0,0.00563124381005764,-0.08161238580942154,-0.0,0.0,0.0,0.0,-0.003587902057915926,-0.004999999888241291,-0.0008150948560796678,21528.0,44515.0,25430.0,25466.0,0.07586734741926193,0.19798526167869568,0.09360653162002563,0.09377323091030121,0.0,0.0,0.0,0.0,25123.0,46087.0,25123.0,23776.0,0.48576000332832336,0.049289712047362225,-0.26491165899175645,0.04920873249127999,0.458326518535614,0.02878170646727085,0.514914333820343
456,5,-0.014287758618593216,-0.0011548255570232868,0.003545121755450964,-0.08364881575107574,0.020023295655846596,-0.0012780943652614951,0.07978310436010361,0.17677029967308044,-0.023029480129480362,0.09713226556777954,0.31046262383461,0.2819390296936035,0.0,0.0,0.0,-0.015184080228209496,-0.08053010702133179,-0.0,0.0,0.0,0.0,-0.004999999888241291,-0.004999999888241291,-0.0006942198961041868,25715.0,45649.0,25715.0,23164.0,0.09494875371456146,0.20510725677013397,0.09494875371456146,0.0831560418009758,0.0,0.0,0.0,0.0,26866.0,47180.0,28704.0,27174.0,0.4855462610721588,0.04679525866065733,-0.2657044710915953,0.051112741795663386,0.4520178437232971,-0.07756935805082321,0.5125953555107117
