timestamp,dt,pos_x,pos_y,pos_z,vel_x,vel_y,vel_z,roll,pitch,yaw,agv_x,agv_y,agv_z,x_ref,y_ref,z_ref,roll_ref,pitch_ref,yaw_ref,x_vel_ref,y_vel_ref,z_vel_ref,x_torque,y_torque,z_torque,w0,w1,w2,w3,u0,u1,u2,u3,m0req,m1req,m2req,m3req,thrust0,thrust1,thrust2,thrust3,thrust_ref,roll_vicon,pitch_vicon,yaw_vicon
5,5,0.0,0.0,0.0,-0.0023259432055056095,-0.00022862388868816197,0.001304417965002358,-0.03937444090843201,0.04470421001315117,0.11485990136861801,-0.004583234898746014,-0.12674012780189514,-0.018900008872151375,0.0,0.0,0.0,0.00011652585817500949,-0.0011854955228045583,-0.0,0.0,0.0,0.0,0.0013104130048304796,-0.002231895923614502,0.003000000026077032,0.0,0.0,0.0,0.0,0.0,0.0,0.0,0.0,0.0,0.0,0.0,0.0,0.0,0.0,0.0,0.0,0.593309223651886,-0.06569327230255513,0.023599405026483847,0.010198236191761838
28,23,0.0,0.0,0.0,-0.0029833342414349318,0.0008531201747246087,-0.0012184041552245617,-0.03937444090843201,0.04470421001315117,0.11485990136861801,-0.004583234898746014,-0.12674012780189514,-0.018900008872151375,0.0,0.0,0.0,-0.0004348211514297873,-0.0015205566305667162,-0.0,0.0,0.0,0.0,0.0013104130048304796,-0.002231895923614502,0.003000000026077032,0.0,0.0,0.0,0.0,0.0,0.0,0.0,0.0,0.0,0.0,0.0,0.0,0.0,0.0,0.0,0.0,0.5933095216751099,-0.06748875992290235,0.026309896897384964,0.00870854712789993
33,5,0.0,0.0,0.0,-0.007687173318117857,0.00021603440109174699,-0.002417882438749075,-0.03937444090843201,0.04470421001315117,0.11485990136861801,-0.004583234898746014,-0.12674012780189514,-0.018900008872151375,0.0,0.0,0.0,-0.00011010843445546925,-0.003918009344488382,-0.0,0.0,0.0,0.0,0.0013104130048304796,-0.002231895923614502,0.003000000026077032,0.0,0.0,0.0,0.0,0.0,0.0,0.0,0.0,0.0,0.0,0.0,0.0,0.0,0.0,0.0,0.0,0.5933133363723755,-0.0673995119094087,0.026515523294549606,0.008456957733014185
44,11,0.0,0.0,0.0,-0.0025815998669713736,-0.003331082407385111,0.003072678344324231,-0.03929942101240158,0.046325214207172394,0.1147850751876831,0.0034339153207838535,-0.14970217645168304,-0.008432061411440372,0.0,0.0,0.0,0.0016977962804958224,-0.0013157993089407682,-0.0,0.0,0.0,0.0,0.0012877281988039613,-0.0024097238201647997,0.003000000026077032,0.0,0.0,0.0,0.0,0.0,0.0,0.0,0.0,0.0,0.0,0.0,0.0,0.0,0.0,0.0,0.0,0.5933101773262024,-0.06716503703148789,0.028211548985245003,0.008461773791579605
51,7,0.0,0.0,0.0,-0.0050039999186992645,-0.0023194323293864727,0.002379678189754486,-0.03929942101240158,0.046325214207172394,0.1147850751876831,0.0034339153207838535,-0.14970217645168304,-0.008432061411440372,0.0,0.0,0.0,0.0016977962804958224,-0.0013157993089407682,-0.0,0.0,0.0,0.0,0.0012877281988039613,-0.0024097238201647997,0.003000000026077032,0.0,0.0,0.0,0.0,0.0,0.0,0.0,0.0,0.0,0.0,0.0,0.0,0.0,0.0,0.0,0.0,0.5933101773262024,-0.06656846886497622,0.030139366020087002,0.008886687614016774
56,5,0.0,0.0,0.0,-0.003674668725579977,-0.004072635434567928,0.006288475822657347,-0.03929942101240158,0.046325214207172394,0.1147850751876831,0.0034339153207838535,-0.14970217645168304,-0.008432061411440372,0.0,0.0,0.0,0.002075750380754471,-0.0018729176372289658,-0.0,0.0,0.0,0.0,0.001297677750699222,-0.0026201545260846615,0.003000000026077032,0.0,0.0,0.0,0.0,0.0,0.0,0.0,0.0,0.0,0.0,0.0,0.0,0.0,0.0,0.0,0.0,0.5933111310005188,-0.0658578820637341,0.030751552673628814,0.009081850969513762
61,5,-2.9541597541538067e-05,2.8185440896777436e-05,5.344002420315519e-05,-0.005238224286586046,-0.005167752504348755,-0.005595060531049967,-0.03922567889094353,0.04994645714759827,0.11491535604000092,0.003710812423378229,-0.2096748799085617,-0.00022991914011072367,0.0,0.0,0.0,0.0026527855079621077,-0.0026896216440945864,-0.0,0.0,0.0,0.0,0.0012757155345752835,-0.002939297119155526,0.003000000026077032,50130.0,14450.0,57575.0,8634.0,0.2342635989189148,0.046818070113658905,0.28627365827560425,0.025957994163036346,0.0,0.0,0.0,0.0,50103.0,14476.0,57600.0,8605.0,0.5933130383491516,-0.06354923389467548,0.030366902018117342,0.00909852254112684
66,5,-1.362435614282731e-05,-5.180798325454816e-05,-0.0005173984100110829,0.0006569464458152652,0.009648753330111504,0.07823885977268219,-0.03922567889094353,0.04994645714759827,0.11491535604000092,0.003710812423378229,-0.2096748799085617,-0.00022991914011072367,0.0,0.0,0.0,-0.0049507939256727695,0.00032489231671206653,-0.0,0.0,0.0,0.0,0.0012757155345752835,-0.002939297119155526,0.003000000026077032,50130.0,14450.0,57575.0,8634.0,0.2342635989189148,0.046818070113658905,0.28627365827560425,0.025957994163036346,0.0,0.0,0.0,0.0,50103.0,14476.0,57600.0,8605.0,0.5933160781860352,-0.07802382441349472,0.0494694311949778,0.010221035973975421
71,5,-0.0001967102289199829,-0.00014105174341239035,-3.9864302380010486e-05,-0.025434937328100204,0.015388752333819866,-0.04338311403989792,-0.03922567889094353,0.04994645714759827,0.11491535604000092,0.003710812423378229,-0.2096748799085617,-0.00022991914011072367,0.0,0.0,0.0,-0.007936302572488785,-0.013094054535031319,-0.0,0.0,0.0,0.0,0.0012757155345752835,-0.002939297119155526,0.003000000026077032,50130.0,14450.0,57575.0,8634.0,0.2342635989189148,0.046818070113658905,0.28627365827560425,0.025957994163036346,0.0,0.0,0.0,0.0,50103.0,14476.0,57600.0,8605.0,0.5933783650398254,-0.07753336038077228,0.03878202207352965,0.0076879649321405195
81,10,-0.00023596030951011926,-0.00026059008087031543,-3.179394479957409e-05,-0.013125494122505188,0.021351993083953857,-0.014144784770905972,-0.03921883553266525,0.054414376616477966,0.11334165930747986,0.006628681439906359,-0.2037210315465927,-0.02548900432884693,0.0,0.0,0.0,-0.011072994209825993,-0.006867179647088051,-0.0,0.0,0.0,0.0,0.0010641299886628985,-0.003518938785418868,0.003000000026077032,49995.0,15429.0,57703.0,7502.0,0.23336264491081238,0.05059463530778885,0.28720715641975403,0.022213943302631378,0.0,0.0,0.0,0.0,49901.0,14501.0,57785.0,8577.0,0.5933591723442078,-0.08549363127599657,0.04399386104703532,0.008341731258340573
87,6,-0.0003826286701951176,-0.00019944968516938388,2.276851409988012e-05,-0.017506755888462067,-0.0003895948175340891,-0.006439490243792534,-0.03921883553266525,0.054414376616477966,0.11334165930747986,0.006628681439906359,-0.2037210315465927,-0.02548900432884693,0.0,0.0,0.0,4.756112684844993e-05,-0.009196381084620953,-0.0,0.0,0.0,0.0,0.0010641299886628985,-0.003518938785418868,0.003000000026077032,49995.0,15429.0,57703.0,7502.0,0.23336264491081238,0.05059463530778885,0.28720715641975403,0.022213943302631378,0.0,0.0,0.0,0.0,49901.0,14501.0,57785.0,8577.0,0.593333899974823,-0.07773364258169503,0.04154966674145668,0.005974772925769496
93,5,-0.0006364498403854668,-0.0003043166361749172,0.0004286231123842299,-0.040786996483802795,0.014564495533704758,-0.05875149369239807,-0.03921883553266525,0.054414376616477966,0.11334165930747986,0.006628681439906359,-0.2037210315465927,-0.02548900432884693,0.0,0.0,0.0,-0.00764820259064436,-0.02123890072107315,-0.0,0.0,0.0,0.0,0.0010641299886628985,-0.003518938785418868,0.003000000026077032,49995.0,15429.0,57703.0,7502.0,0.23336264491081238,0.05059463530778885,0.28720715641975403,0.022213943302631378,0.0,0.0,0.0,0.0,49901.0,14501.0,57785.0,8577.0,0.5934600234031677,-0.09825229953025932,0.05178651445377421,-0.0035317175892841082
98,5,-0.0007636619848199189,-0.00032342722988687456,0.0004442615027073771,-0.02502790279686451,-0.003565527033060789,-0.01578008010983467,-0.03933998942375183,0.056099940091371536,0.11217296123504639,0.006917324848473072,-0.16041523218154907,-0.15291813015937805,0.0,0.0,0.0,0.0015672005247324705,-0.013314793817698956,-0.0,0.0,0.0,0.0,0.0009901593439280987,-0.00266456650570035,0.003000000026077032,50768.0,14245.0,56989.0,8874.0,0.23854413628578186,0.0460347905755043,0.2820160388946533,0.0267641618847847,0.0,0.0,0.0,0.0,50260.0,15109.0,57460.0,7882.0,0.5933621525764465,-0.07588306919646222,0.04508427668662467,0.0023079555626183902
103,5,-0.0008131286595016718,4.894649828202091e-05,0.0006562097696587443,-0.014433708973228931,-0.053201980888843536,-0.03440677747130394,-0.03933998942375183,0.056099940091371536,0.11217296123504639,0.006917324848473072,-0.16041523218154907,-0.15291813015937805,0.0,0.0,0.0,0.027091579511761665,-0.007974840700626373,-0.0,0.0,0.0,0.0,0.0009901593439280987,-0.00266456650570035,0.003000000026077032,50768.0,14245.0,56989.0,8874.0,0.23854413628578186,0.0460347905755043,0.2820160388946533,0.0267641618847847,0.0,0.0,0.0,0.0,50260.0,15109.0,57460.0,7882.0,0.5935454964637756,-0.06306787307200556,0.05452270796772836,0.007308729963564915
108,5,-0.0008131286595016718,4.894649828202091e-05,0.0006562097696587443,-0.014433708973228931,-0.053201980888843536,-0.03440677747130394,-0.03935336321592331,0.05818522721529007,0.10874557495117188,0.012026325799524784,-0.05267779156565666,-0.14289025962352753,0.0,0.0,0.0,0.02709333971142769,-0.008004205301404,-0.0,0.0,0.0,0.0,0.0010164360282942653,-0.0027876340318471193,0.003000000026077032,50408.0,14808.0,57329.0,8246.0,0.2361249327659607,0.04818759113550186,0.28448575735092163,0.024661876261234283,0.0,0.0,0.0,0.0,50524.0,14646.0,57215.0,8418.0,0.5935456156730652,-0.06306787307200556,0.05452270796772836,0.007308729963564915
113,5,-0.0007719232235103846,9.268196299672127e-05,0.0005899856914766133,-0.013314932584762573,-0.01516260951757431,-0.006848084274679422,-0.03935336321592331,0.05818522721529007,0.10874557495117188,0.012026325799524784,-0.05267779156565666,-0.14289025962352753,0.0,0.0,0.0,0.007742818910628557,-0.007435148116201162,-0.0,0.0,0.0,0.0,0.0010164360282942653,-0.0027876340318471193,0.003000000026077032,50408.0,14808.0,57329.0,8246.0,0.2361249327659607,0.04818759113550186,0.28448575735092163,0.024661876261234283,0.0,0.0,0.0,0.0,50524.0,14646.0,57215.0,8418.0,0.5933429598808289,-0.05851150358980169,0.05158271183348245,0.0032927085679373643
118,5,-0.0010555743938311934,-7.751585508231074e-05,0.00047802439075894654,-0.04370563477277756,0.019278911873698235,0.013620158657431602,-0.03939471393823624,0.05760898441076279,0.10653380304574966,-0.03146732971072197,0.15707212686538696,-0.17549686133861542,0.0,0.0,0.0,-0.009916562587022781,-0.023134449496865273,-0.0,0.0,0.0,0.0,0.0022543463855981827,-0.0016910872654989362,0.003000000026077032,50708.0,10166.0,57057.0,13092.0,0.2381436824798584,0.031187690794467926,0.2825097143650055,0.041704483330249786,0.0,0.0,0.0,0.0,50912.0,13879.0,56861.0,9298.0,0.5934967994689941,-0.0755437849842735,0.04496276917136337,0.002703359738350658
123,5,-0.0010555743938311934,-7.751585508231074e-05,0.00047802439075894654,-0.04370563477277756,0.019278911873698235,0.013620158657431602,-0.03939471393823624,0.05760898441076279,0.10653380304574966,-0.03146732971072197,0.15707212686538696,-0.17549686133861542,0.0,0.0,0.0,-0.009919284842908382,-0.023171627894043922,-0.0,0.0,0.0,0.0,0.0022543463855981827,-0.0016910872654989362,0.003000000026077032,50708.0,10166.0,57057.0,13092.0,0.2381436824798584,0.031187690794467926,0.2825097143650055,0.041704483330249786,0.0,0.0,0.0,0.0,50912.0,13879.0,56861.0,9298.0,0.5934973359107971,-0.0755437849842735,0.04496276917136337,0.002703359738350658
128,5,-0.0009335100185126066,0.00011518521932885051,0.0006574771832674742,-0.0031798798590898514,-0.00641039852052927,-0.0021449849009513855,-0.03941056504845619,0.05640725418925285,0.10514246672391891,0.010797482915222645,0.19921202957630157,-0.1862829476594925,0.0,0.0,0.0,0.0032949738670140505,-0.002476588124409318,-0.0,0.0,0.0,0.0,0.0015374092618003488,-0.0008659989107400179,0.002965596504509449,51601.0,10935.0,55802.0,13116.0,0.24418401718139648,0.03388434648513794,0.27348214387893677,0.04179257154464722,0.0,0.0,0.0,0.0,50725.0,10214.0,57041.0,13047.0,0.5933138132095337,-0.0591182068550968,0.04546745304073282,-0.0012337630741357795
133,5,-0.0011115593370050192,5.2005823818035424e-05,0.0007507653208449483,-0.025880858302116394,0.006921995431184769,-0.01370383333414793,-0.03941056504845619,0.05640725418925285,0.10514246672391891,0.010797482915222645,0.19921202957630157,-0.1862829476594925,0.0,0.0,0.0,-0.0035373233258724213,-0.014196019619703293,-0.0,0.0,0.0,0.0,0.0015374092618003488,-0.0008659989107400179,0.002965596504509449,51601.0,10935.0,55802.0,13116.0,0.24418401718139648,0.03388434648513794,0.27348214387893677,0.04179257154464722,0.0,0.0,0.0,0.0,50725.0,10214.0,57041.0,13047.0,0.5933722853660583,-0.05998666248502032,0.04034598675762252,-0.0038384786879461633
138,5,-0.0011668456718325615,9.409228368895128e-06,0.000642208440694958,-0.015504353679716587,0.008040121756494045,0.011086813174188137,-0.03941056504845619,0.05640725418925285,0.10514246672391891,0.010797482915222645,0.19921202957630157,-0.1862829476594925,0.0,0.0,0.0,-0.004133604466915131,-0.008981500752270222,-0.0,0.0,0.0,0.0,0.0015374092618003488,-0.0008659989107400179,0.002965596504509449,51601.0,10935.0,55802.0,13116.0,0.24418401718139648,0.03388434648513794,0.27348214387893677,0.04179257154464722,0.0,0.0,0.0,0.0,50725.0,10214.0,57041.0,13047.0,0.5933377742767334,-0.0637789692122226,0.04439437735814421,-0.0015918920802774272
143,5,-0.001231300993822515,0.00016080343630164862,0.0008605810580775142,-0.013675053603947163,-0.018783152103424072,-0.02724611759185791,-0.039312634617090225,0.053492579609155655,0.103211410343647,0.02813902497291565,0.28269708156585693,-0.12229739874601364,0.0,0.0,0.0,0.009636610746383667,-0.008132594637572765,-0.0,0.0,0.0,0.0,0.0015571274561807513,-0.0002850171586032957,0.002980027813464403,52289.0,11658.0,55226.0,12293.0,0.24889162182807922,0.03646206855773926,0.26938024163246155,0.03876382112503052,0.0,0.0,0.0,0.0,52299.0,11851.0,55159.0,12214.0,0.5933559536933899,-0.052241331008175095,0.03400727050354475,-0.0011772974547825052
148,5,-0.0013853786513209343,0.00017597168334759772,0.001034552464261651,-0.025673389434814453,-0.007758500054478645,-0.03252984210848808,-0.039312634617090225,0.053492579609155655,0.103211410343647,0.02813902497291565,0.28269708156585693,-0.12229739874601364,0.0,0.0,0.0,0.004033230245113373,-0.01439096312969923,-0.0,0.0,0.0,0.0,0.0015571274561807513,-0.0002850171586032957,0.002980027813464403,52289.0,11658.0,55226.0,12293.0,0.24889162182807922,0.03646206855773926,0.26938024163246155,0.03876382112503052,0.0,0.0,0.0,0.0,52299.0,11851.0,55159.0,12214.0,0.5933750867843628,-0.04572518675335102,0.02983454936888962,0.0001512936689197037
153,5,-0.0013465823139995337,0.00010921376087935641,0.0009804354049265385,-0.0022705213632434607,0.007018558215349913,-0.002182550262659788,-0.03830031305551529,0.051010612398386,0.10208329558372498,0.21375221014022827,0.32261016964912415,-0.09274780005216599,0.0,0.0,0.0,-0.0035354038700461388,-0.0024884480517357588,-0.0,0.0,0.0,0.0,0.0006109093665145338,-0.0005055129295215011,0.0029437027405947447,52745.0,11989.0,54637.0,12248.0,0.2520245909690857,0.03765814006328583,0.26521533727645874,0.03859971463680267,0.0,0.0,0.0,0.0,53285.0,10550.0,54539.0,12773.0,0.5933143496513367,-0.04558685252067101,0.03273181702937797,0.0003335959094992564
158,5,-0.001541391247883439,0.0002458761155139655,0.0012282453244552016,-0.027954410761594772,-0.01702716015279293,-0.035348162055015564,-0.03830031305551529,0.051010612398386,0.10208329558372498,0.21375221014022827,0.32261016964912415,-0.09274780005216599,0.0,0.0,0.0,0.008812475018203259,-0.015752039849758148,-0.0,0.0,0.0,0.0,0.0006109093665145338,-0.0005055129295215011,0.0029437027405947447,52745.0,11989.0,54637.0,12248.0,0.2520245909690857,0.03765814006328583,0.26521533727645874,0.03859971463680267,0.0,0.0,0.0,0.0,53285.0,10550.0,54539.0,12773.0,0.5934054851531982,-0.04601727380839112,0.022184114368475494,-0.0010577879647370985
163,5,-0.0015995409339666367,0.00016267673345282674,0.0006331394542939961,-0.016527274623513222,0.006539764814078808,0.07271037250757217,-0.035467833280563354,0.047250907868146896,0.10141289979219437,0.21934694051742554,0.32093897461891174,-0.043265726417303085,0.0,0.0,0.0,-0.0032435478642582893,-0.010022187605500221,-0.0,0.0,0.0,0.0,0.0006589523982256651,8.210229680116754e-06,0.003000000026077032,53417.0,10445.0,54446.0,12801.0,0.2566796541213989,0.032162345945835114,0.26386985182762146,0.04062593728303909,0.0,0.0,0.0,0.0,52902.0,10428.0,54793.0,13130.0,0.5933417081832886,-0.05715775489742881,0.0288439193303915,-0.0004876719500690069
168,5,-0.001504038693383336,0.00014243042096495628,0.0007389826932922006,0.008412128314375877,0.004796411842107773,0.006995061412453651,-0.035467833280563354,0.047250907868146896,0.10141289979219437,0.21934694051742554,0.32093897461891174,-0.043265726417303085,0.0,0.0,0.0,-0.002362933475524187,0.0026972841005772352,-0.0,0.0,0.0,0.0,0.0006589523982256651,8.210229680116754e-06,0.003000000026077032,53417.0,10445.0,54446.0,12801.0,0.2566796541213989,0.032162345945835114,0.26386985182762146,0.04062593728303909,0.0,0.0,0.0,0.0,52902.0,10428.0,54793.0,13130.0,0.5933126211166382,-0.057119158743833845,0.03464669053856556,-0.0035765698059469953
173,5,-0.0018362515838816762,-4.4188003812450916e-05,0.000785780546721071,-0.04398616775870323,0.027565503492951393,-0.0044531854800879955,-0.0339571088552475,0.04481605440378189,0.10070700943470001,0.14187505841255188,0.2888098657131195,-0.100705087184906,0.0,0.0,0.0,-0.01408027671277523,-0.024274876341223717,-0.0,0.0,0.0,0.0,0.0009447358315810561,-0.00020833245071116835,0.0029200143180787563,52419.0,11254.0,54541.0,13717.0,0.2497827112674713,0.03501778841018677,0.26453834772109985,0.04403623938560486,0.0,0.0,0.0,0.0,52153.0,11137.0,54777.0,13878.0,0.5935425162315369,-0.06967379058318825,0.01658188137453491,0.002700599755092283
179,5,-0.001738568302243948,0.00021126732463017106,0.0008936832891777158,0.0004798060399480164,-0.027494095265865326,-0.01644234172999859,-0.0339571088552475,0.04481605440378189,0.10070700943470001,0.14187505841255188,0.2888098657131195,-0.100705087184906,0.0,0.0,0.0,-0.014081835746765137,-0.024340618401765823,-0.0,0.0,0.0,0.0,0.0009447358315810561,-0.00020833245071116835,0.0029200143180787563,52419.0,11254.0,54541.0,13717.0,0.2497827112674713,0.03501778841018677,0.26453834772109985,0.04403623938560486,0.0,0.0,0.0,0.0,52153.0,11137.0,54777.0,13878.0,0.5935434699058533,-0.05840644203098301,0.01822279328948159,-0.0049202554008956415
184,5,-0.001650913036428392,0.0003156957100145519,0.0009892325615510345,0.012415675446391106,-0.0228682029992342,-0.018309596925973892,-0.03239146247506142,0.04201582446694374,0.0996653363108635,0.12760554254055023,0.20813986659049988,-0.06478698551654816,0.0,0.0,0.0,0.011860918253660202,0.004462402313947678,-0.0,0.0,0.0,0.0,0.001151397475041449,-0.0006131117697805166,0.0029338018503040075,51972.0,11569.0,55089.0,13207.0,0.2467191219329834,0.03614372760057449,0.2684114873409271,0.042131222784519196,0.0,0.0,0.0,0.0,52663.0,11510.0,54306.0,13450.0,0.5933564305305481,-0.04866829156713814,0.016480392448002056,-0.008222040468259853
189,5,-0.0016653245547786355,0.00027071579825133085,0.000953303650021553,0.0017070971662178636,-0.0005632718675769866,-0.00046282968833111227,-0.03239146247506142,0.04201582446694374,0.0996653363108635,0.12760554254055023,0.20813986659049988,-0.06478698551654816,0.0,0.0,0.0,0.00047485411050729454,-0.0010636678198352456,-0.0,0.0,0.0,0.0,0.001151397475041449,-0.0006131117697805166,0.0029338018503040075,51972.0,11569.0,55089.0,13207.0,0.2467191219329834,0.03614372760057449,0.2684114873409271,0.042131222784519196,0.0,0.0,0.0,0.0,52663.0,11510.0,54306.0,13450.0,0.593309223651886,-0.04979786852661683,0.01631144722968407,-0.008825358655004329
194,5,-0.0017959019169211388,0.00011718242603819817,0.0008177668205462396,-0.017768699675798416,0.021325690671801567,0.018836308270692825,-0.031432390213012695,0.04090648144483566,0.09887567907571793,0.07123973220586777,0.11171116679906845,-0.1070806235074997,0.0,0.0,0.0,-0.010771709494292736,-0.011133519932627678,-0.0,0.0,0.0,0.0,0.0008056555525399745,-0.0005368137499317527,0.0028549768030643463,51927.0,12702.0,54383.0,13495.0,0.24641287326812744,0.040262430906295776,0.263433039188385,0.04320421814918518,0.0,0.0,0.0,0.0,51837.0,12791.0,54426.0,13492.0,0.5933799743652344,-0.04806101061103174,0.013000138084768397,-0.014128578665753273
199,5,-0.0019347460474818945,0.00012763407721649855,0.000929157598875463,-0.024768788367509842,0.0049344757571816444,-0.009943815879523754,-0.031432390213012695,0.04090648144483566,0.09887567907571793,0.07123973220586777,0.11171116679906845,-0.1070806235074997,0.0,0.0,0.0,-0.0024071282241493464,-0.01485616248100996,-0.0,0.0,0.0,0.0,0.0008056555525399745,-0.0005368137499317527,0.0028549768030643463,51927.0,12702.0,54383.0,13495.0,0.24641287326812744,0.040262430906295776,0.263433039188385,0.04320421814918518,0.0,0.0,0.0,0.0,51837.0,12791.0,54426.0,13492.0,0.5933759808540344,-0.04501551650799632,0.004784222049451023,-0.009915162245783008
204,5,-0.0017713223351165652,0.00019487034296616912,0.0007817617151886225,0.015448683872818947,-0.007932734675705433,0.017652276903390884,-0.030778076499700546,0.0401909165084362,0.0981382504105568,0.0173210296779871,-0.002629957627505064,0.0037123006768524647,0.0,0.0,0.0,0.004199224058538675,0.005680970847606659,-0.0,0.0,0.0,0.0,0.0010617781663313508,-0.0019460623152554035,0.0028905561193823814,51194.0,12024.0,55999.0,12431.0,0.24142447113990784,0.03778345137834549,0.27489522099494934,0.039265818893909454,0.0,0.0,0.0,0.0,51087.0,12099.0,56202.0,12157.0,0.5933235883712769,-0.04741298475252527,0.018865602178000006,-0.01437042663513846
209,5,-0.002063821069896221,0.0003624158853199333,0.0009509134106338024,-0.036315228790044785,-0.025836193934082985,-0.01838555932044983,-0.030778076499700546,0.0401909165084362,0.0981382504105568,0.0173210296779871,-0.002629957627505064,0.0037123006768524647,0.0,0.0,0.0,0.013437535613775253,-0.020954439416527748,-0.0,0.0,0.0,0.0,0.0010617781663313508,-0.0019460623152554035,0.0028905561193823814,51194.0,12024.0,55999.0,12431.0,0.24142447113990784,0.03778345137834549,0.27489522099494934,0.039265818893909454,0.0,0.0,0.0,0.0,51087.0,12099.0,56202.0,12157.0,0.5934926867485046,-0.044370455339927006,0.011614591769314108,-0.014254102538096296
214,5,-0.0018787087174132466,0.000268267176579684,0.0010092620505020022,0.015021163038909435,0.005429958924651146,-0.013684475794434547,-0.030801817774772644,0.04072242230176926,0.09800652414560318,-0.005190838128328323,-0.14248378574848175,-0.061359722167253494,0.0,0.0,0.0,-0.002543184207752347,0.005254659801721573,-0.0,0.0,0.0,0.0,0.0009076779242604971,-0.0028152393642812967,0.0028799744322896004,50510.0,14503.0,56001.0,11129.0,0.23681393265724182,0.04701764136552811,0.27490636706352234,0.03457129746675491,0.0,0.0,0.0,0.0,50251.0,14923.0,56107.0,10951.0,0.5933189392089844,-0.045688335192776805,0.02331567028305178,-0.01358067917568439
219,5,-0.0016923838993534446,0.0003993876453023404,0.0011164703173562884,0.03059183619916439,-0.016727877780795097,-0.01911449432373047,-0.030801817774772644,0.04072242230176926,0.09800652414560318,-0.005190838128328323,-0.14248378574848175,-0.061359722167253494,0.0,0.0,0.0,0.00884491391479969,0.01324436254799366,-0.0,0.0,0.0,0.0,0.0009076779242604971,-0.0028152393642812967,0.0028799744322896004,50510.0,14503.0,56001.0,11129.0,0.23681393265724182,0.04701764136552811,0.27490636706352234,0.03457129746675491,0.0,0.0,0.0,0.0,50251.0,14923.0,56107.0,10951.0,0.5933840274810791,-0.044744829822042864,0.041315883343918385,-0.012527476722820214
224,5,-0.002035937737673521,0.0002591608208604157,0.000988323357887566,-0.038919977843761444,0.014613392762839794,0.01220622193068266,-0.030804278329014778,0.042728543281555176,0.09737566858530045,0.028609806671738625,-0.15983088314533234,-0.04620785638689995,0.0,0.0,0.0,-0.007203597109764814,-0.022467579692602158,-0.0,0.0,0.0,0.0,0.0013274636585265398,-0.0033960724249482155,0.002898978302255273,49203.0,15888.0,57506.0,9012.0,0.2280987650156021,0.05239255726337433,0.28577327728271484,0.027228817343711853,0.0,0.0,0.0,0.0,49838.0,16226.0,56630.0,9212.0,0.5934739708900452,-0.05453738055539631,0.029900905683952712,-0.008712047996663419
230,5,-0.0018594616558402777,0.000380753685021773,0.0010858287569135427,0.013030637055635452,-0.012638983316719532,-0.009988895617425442,-0.030804278329014778,0.042728543281555176,0.09737566858530045,0.028609806671738625,-0.15983088314533234,-0.04620785638689995,0.0,0.0,0.0,0.006773546803742647,0.004049285780638456,-0.0,0.0,0.0,0.0,0.0013274636585265398,-0.0033960724249482155,0.002898978302255273,49203.0,15888.0,57506.0,9012.0,0.2280987650156021,0.05239255726337433,0.28577327728271484,0.027228817343711853,0.0,0.0,0.0,0.0,49838.0,16226.0,56630.0,9212.0,0.5933272838592529,-0.040479990616731666,0.036995212926226366,-0.010048684068176064
235,5,-0.0018731823656708002,0.0003163852379657328,0.0009342228877358139,0.001988302683457732,0.005219888407737017,0.018228158354759216,-0.03044450283050537,0.04432351514697075,0.09713718295097351,0.06243240460753441,-0.21232619881629944,-0.005742571782320738,0.0,0.0,0.0,-0.0023571536876261234,-0.0016549488063901663,-0.0,0.0,0.0,0.0,0.0010524765821173787,-0.00230127084068954,0.002881160005927086,50132.0,15420.0,56061.0,10743.0,0.23428061604499817,0.05055859684944153,0.2753383219242096,0.03320619463920593,0.0,0.0,0.0,0.0,49208.0,16002.0,57581.0,8707.0,0.5933112502098083,-0.05315084337510087,0.028134356114963267,-0.014438754924546346
240,5,-0.0020139177795499563,0.0003735665522981435,0.0010935841128230095,-0.019106458872556686,-0.0064394171349704266,-0.016842123121023178,-0.03044450283050537,0.04432351514697075,0.09713718295097351,0.06243240460753441,-0.21232619881629944,-0.005742571782320738,0.0,0.0,0.0,0.0036339524667710066,-0.012565403245389462,-0.0,0.0,0.0,0.0,0.0010524765821173787,-0.00230127084068954,0.002881160005927086,50132.0,15420.0,56061.0,10743.0,0.23428061604499817,0.05055859684944153,0.2753383219242096,0.03320619463920593,0.0,0.0,0.0,0.0,49208.0,16002.0,57581.0,8707.0,0.5933595299720764,-0.048108701719238714,0.024062893210226078,-0.010529164007168605
245,5,-0.0021621028427034616,0.0002677344309631735,0.0011658072471618652,-0.026477843523025513,0.012884669937193394,-0.015163879841566086,-0.027497511357069016,0.04844265431165695,0.09668180346488953,0.28401052951812744,-0.14747245609760284,-0.010315424762666225,0.0,0.0,0.0,-0.006270159501582384,-0.01649044081568718,-0.0,0.0,0.0,0.0,0.0007274852832779288,-0.002433161484077573,0.002882186323404312,50675.0,15387.0,55979.0,9889.0,0.23791798949241638,0.05043169856071472,0.27475062012672424,0.030226856470108032,0.0,0.0,0.0,0.0,50258.0,15297.0,55888.0,10992.0,0.5934011340141296,-0.04712660093576002,0.016099726006199144,-0.00986213469506373
250,5,-0.0020889961160719395,0.0002747702528722584,0.0006046027992852032,0.0022915571462363005,0.0028803881723433733,0.07401946187019348,-0.027497511357069016,0.04844265431165695,0.09668180346488953,0.28401052951812744,-0.14747245609760284,-0.010315424762666225,0.0,0.0,0.0,-0.0011577812256291509,-0.001858722884207964,-0.0,0.0,0.0,0.0,0.0007274852832779288,-0.002433161484077573,0.002882186323404312,50675.0,15387.0,55979.0,9889.0,0.23791798949241638,0.05043169856071472,0.27475062012672424,0.030226856470108032,0.0,0.0,0.0,0.0,50258.0,15297.0,55888.0,10992.0,0.5933102369308472,-0.05223450663363919,0.030662032312719613,-0.0053084915270002276
255,5,-0.0020866715349256992,0.0003424826427362859,0.0009535201825201511,0.001012939028441906,-0.008615621365606785,-0.02664259448647499,-0.027497511357069016,0.04844265431165695,0.09668180346488953,0.28401052951812744,-0.14747245609760284,-0.010315424762666225,0.0,0.0,0.0,0.00475569162517786,-0.002583111636340618,-0.0,0.0,0.0,0.0,0.0007274852832779288,-0.002433161484077573,0.002882186323404312,50675.0,15387.0,55979.0,9889.0,0.23791798949241638,0.05043169856071472,0.27475062012672424,0.030226856470108032,0.0,0.0,0.0,0.0,50258.0,15297.0,55888.0,10992.0,0.5933175086975098,-0.044160083733523266,0.016103283222829442,-0.007177318837061515
260,5,-0.002047582995146513,0.0002738548209890723,0.0007612722110934556,0.005776266101747751,0.007023211102932692,0.01892193779349327,-0.023402968421578407,0.04935423284769058,0.09650170058012009,0.38859620690345764,-0.022812655195593834,-0.014652589336037636,0.0,0.0,0.0,-0.0032476915512233973,-0.00020563273574225605,-0.0,0.0,0.0,0.0,0.0003444754984229803,-0.002273295307531953,0.002869486343115568,51038.0,15920.0,55453.0,9671.0,0.24036788940429688,0.052518270909786224,0.2709973156452179,0.029476575553417206,0.0,0.0,0.0,0.0,50884.0,15409.0,55741.0,9948.0,0.5933119654655457,-0.047079186389265296,0.018851512348973486,-0.007554900145385305
265,5,-0.002118245465680957,0.00019794706895481795,0.0013365063350647688,-0.008159873075783253,0.012734048999845982,-0.07485619932413101,-0.023402968421578407,0.04935423284769058,0.09650170058012009,0.38859620690345764,-0.022812655195593834,-0.014652589336037636,0.0,0.0,0.0,-0.006198333576321602,-0.0074270498007535934,-0.0,0.0,0.0,0.0,0.0003444754984229803,-0.002273295307531953,0.002869486343115568,51038.0,15920.0,55453.0,9671.0,0.24036788940429688,0.052518270909786224,0.2709973156452179,0.029476575553417206,0.0,0.0,0.0,0.0,50884.0,15409.0,55741.0,9948.0,0.5933365821838379,-0.040166137598007114,0.03376793247221721,-0.012054054121865292
270,5,-0.002152907894924283,0.00013147949357517064,0.0009722714894451201,-0.007300703786313534,0.013125675730407238,0.02853601798415184,-0.019734404981136322,0.0491289384663105,0.09634807705879211,0.46927836537361145,0.08366771042346954,-0.022257888689637184,0.0,0.0,0.0,-0.0064344825223088264,-0.0070878006517887115,-0.0,0.0,0.0,0.0,3.868400654027937e-06,-0.001385185052640736,0.0028687615413218737,52089.0,15027.0,54362.0,10821.0,0.24752086400985718,0.04903475195169449,0.26328137516975403,0.033480532467365265,0.0,0.0,0.0,0.0,51285.0,15845.0,55365.0,9452.0,0.5933359861373901,-0.036470045053974255,0.025773746208086888,-0.012191552477793199
275,5,-0.0023159519769251347,0.00015652661386411637,0.00138330296613276,-0.025016387924551964,0.00043110488331876695,-0.04898359999060631,-0.019734404981136322,0.0491289384663105,0.09634807705879211,0.46927836537361145,0.08366771042346954,-0.022257888689637184,0.0,0.0,0.0,5.658613736159168e-05,-0.016299359500408173,-0.0,0.0,0.0,0.0,3.868400654027937e-06,-0.001385185052640736,0.0028687615413218737,52089.0,15027.0,54362.0,10821.0,0.24752086400985718,0.04903475195169449,0.26328137516975403,0.033480532467365265,0.0,0.0,0.0,0.0,51285.0,15845.0,55365.0,9452.0,0.5933876037597656,-0.041844768301473226,0.020934796172935897,-0.014256634263892532
280,5,-0.002024321584030986,0.0002606083871796727,0.00116339058149606,0.033323343843221664,-0.01444211695343256,0.01609264872968197,-0.01334015466272831,0.0479375496506691,0.09590902924537659,0.5631400346755981,0.13430404663085938,-0.0477110929787159,0.0,0.0,0.0,0.007710326462984085,0.013540918938815594,-0.0,0.0,0.0,0.0,-0.00026864520623348653,-0.0010813368717208505,0.002829748671501875,52591.0,16164.0,53456.0,10382.0,0.2509627044200897,0.05348125100135803,0.2569520175457001,0.031940609216690063,0.0,0.0,0.0,0.0,52309.0,14970.0,54159.0,10861.0,0.5933808088302612,-0.019695202774034345,0.04581558062848618,-0.010536710326480654
285,5,-0.0021434167865663767,0.0001878248294815421,0.0012401125859469175,-0.006676315795630217,0.005857062991708517,-0.005913285072892904,-0.01334015466272831,0.0479375496506691,0.09590902924537659,0.5631400346755981,0.13430404663085938,-0.0477110929787159,0.0,0.0,0.0,-0.002673256676644087,-0.0069965822622179985,-0.0,0.0,0.0,0.0,-0.00026864520623348653,-0.0010813368717208505,0.002829748671501875,52591.0,16164.0,53456.0,10382.0,0.2509627044200897,0.05348125100135803,0.2569520175457001,0.031940609216690063,0.0,0.0,0.0,0.0,52309.0,14970.0,54159.0,10861.0,0.5933254361152649,-0.026345416555144052,0.03106490658744016,-0.010357819024576347
290,5,-0.0021521823946386576,0.00013532329467125237,0.0012790764449164271,-0.0032300816383212805,0.009107333607971668,-0.007228922564536333,-0.009029919281601906,0.046665266156196594,0.09599370509386063,0.5424849987030029,0.1733166128396988,0.022120608016848564,0.0,0.0,0.0,-0.004357477650046349,-0.005323943216353655,-0.0,0.0,0.0,0.0,-0.0008467320003546774,-0.0008659797022119164,0.0029132179915905,53030.0,15395.0,53890.0,9518.0,0.25399547815322876,0.05046258121728897,0.25997722148895264,0.028952516615390778,0.0,0.0,0.0,0.0,53183.0,15220.0,53600.0,9997.0,0.5933228135108948,-0.028265613213517032,0.03095866374685904,-0.011961621189869204
295,5,-0.0022460126783698797,9.354694338981062e-05,0.0012792241759598255,-0.014105269685387611,0.008580890484154224,-0.0021893521770834923,-0.009029919281601906,0.046665266156196594,0.09599370509386063,0.5424849987030029,0.1733166128396988,0.022120608016848564,0.0,0.0,0.0,-0.004111619666218758,-0.011003873310983181,-0.0,0.0,0.0,0.0,-0.0008467320003546774,-0.0008659797022119164,0.0029132179915905,53030.0,15395.0,53890.0,9518.0,0.25399547815322876,0.05046258121728897,0.25997722148895264,0.028952516615390778,0.0,0.0,0.0,0.0,53183.0,15220.0,53600.0,9997.0,0.5933497548103333,-0.02142510457472169,0.027514293986740497,-0.009778222947145164
300,5,-0.0023286768700927496,7.272949005709961e-05,0.001511419308371842,-0.015804581344127655,0.0054887100122869015,-0.033164121210575104,-0.002911604708060622,0.04427047818899155,0.09625506401062012,0.5024246573448181,0.1765671670436859,0.026034977287054062,0.0,0.0,0.0,-0.0025460035540163517,-0.012003901414573193,-0.0,0.0,0.0,0.0,-0.0006984821520745754,-0.0009947029175236821,0.0029223181772977114,53227.0,15232.0,53782.0,9527.0,0.2553566098213196,0.04982869327068329,0.25922054052352905,0.02898193895816803,0.0,0.0,0.0,0.0,53715.0,14746.0,53208.0,10225.0,0.5933534502983093,-0.01279682018199724,0.03133454884439596,-0.005426269830838268
306,5,-0.002379639772698283,0.00011547702160896733,0.0014497936936095357,-0.011876159347593784,-0.004338041413575411,-0.0013216547667980194,-0.002911604708060622,0.04427047818899155,0.09625506401062012,0.5024246573448181,0.1765671670436859,0.026034977287054062,0.0,0.0,0.0,0.0024929228238761425,-0.01012011244893074,-0.0,0.0,0.0,0.0,-0.0006984821520745754,-0.0009947029175236821,0.0029223181772977114,53227.0,15232.0,53782.0,9527.0,0.2553566098213196,0.04982869327068329,0.25922054052352905,0.02898193895816803,0.0,0.0,0.0,0.0,53715.0,14746.0,53208.0,10225.0,0.593341052532196,-0.016682294447119196,0.031020659277273658,-0.007900322662297656
311,5,-0.002493303269147873,5.1518021791707724e-05,0.0016841556644067168,-0.019475745037198067,0.007652848027646542,-0.03320717811584473,0.000508434372022748,0.04277723282575607,0.09643375873565674,0.3872174322605133,0.16434773802757263,0.018596692010760307,0.0,0.0,0.0,-0.0036559919826686382,-0.014152037911117077,-0.0,0.0,0.0,0.0,-0.0007837684242986143,-0.0005850068409927189,0.0029249624349176884,53626.0,14758.0,53388.0,10032.0,0.25813010334968567,0.047997862100601196,0.25647369027137756,0.030723899602890015,0.0,0.0,0.0,0.0,53486.0,15110.0,53489.0,9724.0,0.5933721661567688,-0.0032145161474965303,0.0284676158614241,-0.0022996836622630867
316,5,-0.0024827609304338694,-0.0001433960278518498,0.0009839265840128064,-0.004366799723356962,0.029583821073174477,0.08806991577148438,0.000508434372022748,0.04277723282575607,0.09643375873565674,0.3872174322605133,0.16434773802757263,0.018596692010760307,0.0,0.0,0.0,-0.01495894230902195,-0.0065359496511518955,-0.0,0.0,0.0,0.0,-0.0007837684242986143,-0.0005850068409927189,0.0029249624349176884,53626.0,14758.0,53388.0,10032.0,0.25813010334968567,0.047997862100601196,0.25647369027137756,0.030723899602890015,0.0,0.0,0.0,0.0,53486.0,15110.0,53489.0,9724.0,0.5933878421783447,-0.020727253941017525,0.03707391567903398,-0.002034351316567074
321,5,-0.0024362707044929266,5.121152207721025e-05,0.0015270280418917537,0.0051986039616167545,-0.01836990937590599,-0.04961322620511055,0.003960098139941692,0.04125078395009041,0.09692921489477158,0.21408671140670776,0.08694518357515335,0.05809919908642769,0.0,0.0,0.0,0.009603206999599934,-0.0017176970141008496,-0.0,0.0,0.0,0.0,-0.0006618686602450907,-0.0010690176859498024,0.002970026573166251,53305.0,14881.0,54247.0,8798.0,0.2558972239494324,0.04846968501806259,0.2624749541282654,0.02650805562734604,0.0,0.0,0.0,0.0,52968.0,14526.0,54391.0,9585.0,0.5933370590209961,-0.010825183342463336,0.028136588459035272,-0.005390312036553334
326,5,-0.002395259216427803,3.3397507195331855e-06,0.0014008943689987063,0.007301197852939367,0.001191074843518436,0.002774746622890234,0.003960098139941692,0.04125078395009041,0.09692921489477158,0.21408671140670776,0.08694518357515335,0.05809919908642769,0.0,0.0,0.0,-0.0003959515306632966,-0.0007085215183906257,-0.0,0.0,0.0,0.0,-0.0006618686602450907,-0.0010690176859498024,0.002970026573166251,53305.0,14881.0,54247.0,8798.0,0.2558972239494324,0.04846968501806259,0.2624749541282654,0.02650805562734604,0.0,0.0,0.0,0.0,52968.0,14526.0,54391.0,9585.0,0.5933089852333069,-0.015907864398631223,0.029395550133309824,-0.005709763126032449
331,5,-0.0024291977752000093,0.00011082708806497976,0.0014747354434803128,-0.002561056986451149,-0.014690904878079891,-0.009505323134362698,0.004597712308168411,0.04080352932214737,0.09714220464229584,0.047595515847206116,-0.010480733588337898,-0.0005668135709129274,0.0,0.0,0.0,0.007769228424876928,-0.005840384867042303,-0.0,0.0,0.0,0.0,-0.00015388164320029318,-0.0015670801512897015,0.002946333261206746,52230.0,15264.0,54914.0,9161.0,0.2484821081161499,0.04995197802782059,0.2671739161014557,0.027733303606510162,0.0,0.0,0.0,0.0,52410.0,16707.0,54162.0,8690.0,0.593336820602417,-0.013513620092758697,0.02340439485869384,-0.005854449138610132
336,5,-0.0024385028518736362,0.00016381987370550632,0.0014206479536369443,-0.0020710378885269165,-0.011826260015368462,0.0047206454910337925,0.004597712308168411,0.04080352932214737,0.09714220464229584,0.047595515847206116,-0.010480733588337898,-0.0005668135709129274,0.0,0.0,0.0,0.00634802458807826,-0.00568376574665308,-0.0,0.0,0.0,0.0,-0.00015388164320029318,-0.0015670801512897015,0.002946333261206746,52230.0,15264.0,54914.0,9161.0,0.2484821081161499,0.04995197802782059,0.2671739161014557,0.027733303606510162,0.0,0.0,0.0,0.0,52410.0,16707.0,54162.0,8690.0,0.5933303236961365,-0.017203570717248883,0.023868072527296478,-0.007057469340791847
341,5,-0.002435071626678109,0.0002059435355477035,0.0013142212992534041,-0.00014092361379880458,-0.00944519229233265,0.01631593145430088,0.004486432299017906,0.04167768359184265,0.09638889133930206,-0.046279873698949814,-0.10507550090551376,-0.10658448189496994,0.0,0.0,0.0,0.0051679410971701145,-0.0047837249003350735,-0.0,0.0,0.0,0.0,4.250136771588586e-05,-0.0025086405221372843,0.0027982103638350964,51487.0,17821.0,54341.0,8852.0,0.24341419339179993,0.06014999747276306,0.2631356418132782,0.02668824791908264,0.0,0.0,0.0,0.0,50825.0,17364.0,54453.0,10447.0,0.5933235287666321,-0.013887323693453869,0.021553292880801638,-0.005794786382170376
346,5,-0.002423621714115143,0.00025077714235521853,0.0011719985632225871,0.0015607151435688138,-0.00911026168614626,0.024805955588817596,0.004486432299017906,0.04167768359184265,0.09638889133930206,-0.046279873698949814,-0.10507550090551376,-0.10658448189496994,0.0,0.0,0.0,0.0050339787267148495,-0.003995455801486969,-0.0,0.0,0.0,0.0,4.250136771588586e-05,-0.0025086405221372843,0.0027982103638350964,51487.0,17821.0,54341.0,8852.0,0.24341419339179993,0.06014999747276306,0.2631356418132782,0.02668824791908264,0.0,0.0,0.0,0.0,50825.0,17364.0,54453.0,10447.0,0.5933210253715515,-0.015224077298013516,0.02012766500279791,-0.005992962080115341
351,5,-0.0026208835188299417,0.00022348503989633173,0.0010330210207030177,-0.02714843861758709,0.0010878155007958412,0.026898639276623726,0.004486432299017906,0.04167768359184265,0.09638889133930206,-0.046279873698949814,-0.10507550090551376,-0.10658448189496994,0.0,0.0,0.0,-0.00017262961773667485,-0.018842104822397232,-0.0,0.0,0.0,0.0,4.250136771588586e-05,-0.0025086405221372843,0.0027982103638350964,51487.0,17821.0,54341.0,8852.0,0.24341419339179993,0.06014999747276306,0.2631356418132782,0.02668824791908264,0.0,0.0,0.0,0.0,50825.0,17364.0,54453.0,10447.0,0.5934141278266907,-0.015384576527635729,0.008509395346664322,-0.005865055589267233
356,5,-0.002691007684916258,0.0002158350107492879,0.001374166808091104,-0.01796192303299904,0.0013973494060337543,-0.039690807461738586,0.0037721639964729548,0.04298204928636551,0.0956566259264946,-0.10305987298488617,-0.17912104725837708,-0.06808166950941086,0.0,0.0,0.0,-0.0003271491441410035,-0.014304137788712978,-0.0,0.0,0.0,0.0,0.00037252710899338126,-0.002681401092559099,0.002863968489691615,50570.0,17543.0,55084.0,9445.0,0.2372119128704071,0.05901629477739334,0.2683785557746887,0.028702296316623688,0.0,0.0,0.0,0.0,50678.0,17160.0,55095.0,9663.0,0.5933695435523987,-0.017100261587386752,0.005069352905352854,-0.0019479794076878573
361,5,-0.002587336115539074,0.00036897286190651357,0.0011559042613953352,0.00912543572485447,-0.02102009393274784,0.018649514764547348,0.0037721639964729548,0.04298204928636551,0.0956566259264946,-0.10305987298488617,-0.17912104725837708,-0.06808166950941086,0.0,0.0,0.0,0.011206206865608692,-0.0005259564495645463,-0.0,0.0,0.0,0.0,0.00037252710899338126,-0.002681401092559099,0.002863968489691615,50570.0,17543.0,55084.0,9445.0,0.2372119128704071,0.05901629477739334,0.2683785557746887,0.028702296316623688,0.0,0.0,0.0,0.0,50678.0,17160.0,55095.0,9663.0,0.593346118927002,-0.019941820562358752,0.01262313787834492,-0.0038067509873398763
367,5,-0.002614854834973812,0.00022008024097885936,0.0016774204559624195,-0.0011149762431159616,0.01453893817961216,-0.06741742789745331,0.002110734349116683,0.044882338494062424,0.09542588889598846,-0.160308375954628,-0.163878932595253,0.0026217869017273188,0.0,0.0,0.0,-0.007001396734267473,-0.005856000352650881,-0.0,0.0,0.0,0.0,0.00032386695966124535,-0.0028849123045802116,0.0028579221107065678,50501.0,16622.0,55833.0,9113.0,0.23675155639648438,0.055302880704402924,0.2737041711807251,0.02757199853658676,0.0,0.0,0.0,0.0,50647.0,16161.0,55935.0,9150.0,0.5933335423469543,-0.006810747397167649,0.033476707401822466,-0.00732350067528411
372,5,-0.0025028965901583433,0.00029582410934381187,0.0016706885071471334,0.015339640900492668,-0.0062424615025520325,-0.019282741472125053,0.002110734349116683,0.044882338494062424,0.09542588889598846,-0.160308375954628,-0.163878932595253,0.0026217869017273188,0.0,0.0,0.0,0.003647893201559782,0.002509547397494316,-0.0,0.0,0.0,0.0,0.00032386695966124535,-0.0028849123045802116,0.0028579221107065678,50501.0,16622.0,55833.0,9113.0,0.23675155639648438,0.055302880704402924,0.2737041711807251,0.02757199853658676,0.0,0.0,0.0,0.0,50647.0,16161.0,55935.0,9150.0,0.5933145880699158,0.01001913031537622,0.06019607423092554,-0.0018278829387330365
377,5,-0.002654993673786521,0.00023398933990392834,0.001769278314895928,-0.016691669821739197,0.006784131284803152,-0.019587399438023567,0.0004979214281775057,0.045991744846105576,0.09551131725311279,-0.2247578352689743,-0.1169188916683197,-0.015652554109692574,0.0,0.0,0.0,-0.003021110547706485,-0.014005572535097599,-0.0,0.0,0.0,0.0,0.0008568503544665873,-0.0020849311258643866,0.0028309787157922983,50314.0,17068.0,55866.0,8910.0,0.23549389839172363,0.05709473043680191,0.27394044399261475,0.02688506990671158,0.0,0.0,0.0,0.0,50237.0,16928.0,56146.0,8633.0,0.593369722366333,-0.009216572830255922,0.03868628419185039,-0.006811565413963446
382,5,-0.0027654904406517744,0.0003335786168463528,0.001891891355626285,-0.020477060228586197,-0.011907261796295643,-0.02304205112159252,0.0004979214281775057,0.045991744846105576,0.09551131725311279,-0.2247578352689743,-0.1169188916683197,-0.015652554109692574,0.0,0.0,0.0,0.006578236352652311,-0.01610364392399788,-0.0,0.0,0.0,0.0,0.0008568503544665873,-0.0020849311258643866,0.0028309787157922983,50314.0,17068.0,55866.0,8910.0,0.23549389839172363,0.05709473043680191,0.27394044399261475,0.02688506990671158,0.0,0.0,0.0,0.0,50237.0,16928.0,56146.0,8633.0,0.5933985710144043,-0.00667767710783384,0.03871072973241926,-0.00543195732108709
387,5,-0.0031592086888849735,0.00019989065185654908,0.0018193403957411647,-0.061263665556907654,0.015144137665629387,0.003244527382776141,-0.0026513244956731796,0.0473349429666996,0.09535783529281616,-0.28085505962371826,-0.07472657412290573,-0.02313535287976265,0.0,0.0,0.0,-0.007279233541339636,-0.037231795489788055,-0.0,0.0,0.0,0.0,0.0008330263081006706,-0.0014635390834882855,0.0028170146979391575,50972.0,14402.0,55067.0,12221.0,0.23992539942264557,0.04663307964801788,0.26825380325317383,0.0385022908449173,0.0,0.0,0.0,0.0,50472.0,14887.0,55750.0,11301.0,0.5937359929084778,-0.008767892077701067,0.006177060094632073,-0.0006998193591267187
392,5,-0.00286290654912591,0.0003175969759467989,0.001963431714102626,0.02310318872332573,-0.01193564385175705,-0.019199417904019356,-0.0026513244956731796,0.0473349429666996,0.09535783529281616,-0.28085505962371826,-0.07472657412290573,-0.02313535287976265,0.0,0.0,0.0,0.006602002773433924,0.005831777583807707,-0.0,0.0,0.0,0.0,0.0008330263081006706,-0.0014635390834882855,0.0028170146979391575,50972.0,14402.0,55067.0,12221.0,0.23992539942264557,0.04663307964801788,0.26825380325317383,0.0385022908449173,0.0,0.0,0.0,0.0,50472.0,14887.0,55750.0,11301.0,0.5933318138122559,-0.010816434560570212,0.036078750922827266,-0.005898378611514571
397,5,-0.002850522054359317,0.0003041427698917687,0.0019314419478178024,0.008664795197546482,-0.0016971032600849867,-0.0012812758795917034,-0.005127294454723597,0.04758401960134506,0.09508365392684937,-0.31440967321395874,-0.014341490343213081,-0.00938277505338192,0.0,0.0,0.0,0.001386425574310124,-0.0016224361024796963,-0.0,0.0,0.0,0.0,0.0009848461486399174,-0.0015768243465572596,0.0028094106819480658,50593.0,14641.0,55207.0,12422.0,0.23736968636512756,0.047548554837703705,0.26924753189086914,0.039233021438121796,0.0,0.0,0.0,0.0,50980.0,14382.0,55117.0,12131.0,0.5933101773262024,-0.00932791284978508,0.03928346472556298,-0.005280902336033421
402,5,-0.0029315229039639235,0.0003114995197393,0.002053954405710101,-0.008740677498281002,-0.0015390760963782668,-0.017536107450723648,-0.005127294454723597,0.04758401960134506,0.09508365392684937,-0.31440967321395874,-0.014341490343213081,-0.00938277505338192,0.0,0.0,0.0,0.0013216222869232297,-0.01064944639801979,-0.0,0.0,0.0,0.0,0.0009848461486399174,-0.0015768243465572596,0.0028094106819480658,50593.0,14641.0,55207.0,12422.0,0.23736968636512756,0.047548554837703705,0.26924753189086914,0.039233021438121796,0.0,0.0,0.0,0.0,50980.0,14382.0,55117.0,12131.0,0.5933429598808289,-0.015474173967980858,0.03202713216356371,-0.006021907393750949
407,5,-0.0027802814729511738,0.0003801099956035614,0.0018755757482722402,0.048153430223464966,-0.015613380819559097,0.007998666726052761,-0.010783242993056774,0.04599885642528534,0.09439943730831146,-0.28880998492240906,0.135462686419487,-0.05330303683876991,0.0,0.0,0.0,0.008549749851226807,0.018339436501264572,-0.0,0.0,0.0,0.0,0.0010456041200086474,-0.0006180491182021797,0.0028009843081235886,51325.0,13030.0,54237.0,14535.0,0.24231047928333282,0.041474297642707825,0.26240503787994385,0.04714186489582062,0.0,0.0,0.0,0.0,50787.0,14379.0,54899.0,12933.0,0.5934302806854248,-0.021063669772600713,0.037370111623541535,-0.008110286500552105
412,5,-0.00308719533495605,0.00039520871359854937,0.0020745648071169853,-0.02852191962301731,-0.006797834299504757,-0.025458848103880882,-0.010783242993056774,0.04599885642528534,0.09439943730831146,-0.28880998492240906,0.135462686419487,-0.05330303683876991,0.0,0.0,0.0,0.004081077873706818,-0.021038301289081573,-0.0,0.0,0.0,0.0,0.0010456041200086474,-0.0006180491182021797,0.0028009843081235886,51325.0,13030.0,54237.0,14535.0,0.24231047928333282,0.041474297642707825,0.26240503787994385,0.04714186489582062,0.0,0.0,0.0,0.0,50787.0,14379.0,54899.0,12933.0,0.5934450626373291,-0.03127558534218649,0.019973042945833686,-0.010826828395658674
418,5,-0.003128462005406618,0.0004366447974462062,0.0020780074410140514,-0.01433390099555254,-0.007840399630367756,-0.008119652979075909,-0.014322953298687935,0.04392696171998978,0.09430769085884094,-0.3201146125793457,0.214527890086174,0.01056420523673296,0.0,0.0,0.0,0.004654013551771641,-0.01394496951252222,-0.0,0.0,0.0,0.0,0.0009668287239037454,-0.0007817657315172255,0.002840969478711486,51602.0,12739.0,54521.0,13801.0,0.24419192969799042,0.04039730131626129,0.2643987536430359,0.04435528814792633,0.0,0.0,0.0,0.0,51503.0,12587.0,54088.0,14918.0,0.5933729410171509,-0.032703265522225924,0.016563848387458273,-0.009882469429462103
423,5,-0.0031630382873117924,0.0004953106981702149,0.0018604901852086186,-0.009140875190496445,-0.01056534331291914,0.02801653742790222,-0.014322953298687935,0.04392696171998978,0.09430769085884094,-0.3201146125793457,0.214527890086174,0.01056420523673296,0.0,0.0,0.0,0.006096625234931707,-0.0114305904135108,-0.0,0.0,0.0,0.0,0.0009668287239037454,-0.0007817657315172255,0.002840969478711486,51602.0,12739.0,54521.0,13801.0,0.24419192969799042,0.04039730131626129,0.2643987536430359,0.04435528814792633,0.0,0.0,0.0,0.0,51503.0,12587.0,54088.0,14918.0,0.59335857629776,-0.03148357994283345,0.01191037342678754,-0.009468391792915365
428,5,-0.0031559451017528772,0.0005214322591200471,0.002207523211836815,-0.0017492123879492283,-0.006826626602560282,-0.04017965868115425,-0.016726745292544365,0.04225727170705795,0.09456158429384232,-0.30518418550491333,0.21662943065166473,0.04539217799901962,0.0,0.0,0.0,0.004226410761475563,-0.007773097138851881,-0.0,0.0,0.0,0.0,0.0011927576269954443,-0.0007302742451429367,0.0028785420581698418,51590.0,12073.0,55032.0,13538.0,0.24410925805568695,0.0379643589258194,0.2680048942565918,0.04336734116077423,0.0,0.0,0.0,0.0,51838.0,12005.0,54563.0,14006.0,0.593332052230835,-0.032004985117826096,0.024220809877743516,-0.010324033831720822
433,5,-0.0030077339615672827,0.0005401368252933025,0.002050103386864066,0.020224792882800102,-0.004666623659431934,0.009984862990677357,-0.016726745292544365,0.04225727170705795,0.09456158429384232,-0.30518418550491333,0.21662943065166473,0.04539217799901962,0.0,0.0,0.0,0.0031561076175421476,0.0034134425222873688,-0.0,0.0,0.0,0.0,0.0011927576269954443,-0.0007302742451429367,0.0028785420581698418,51590.0,12073.0,55032.0,13538.0,0.24410925805568695,0.0379643589258194,0.2680048942565918,0.04336734116077423,0.0,0.0,0.0,0.0,51838.0,12005.0,54563.0,14006.0,0.5933151841163635,-0.03885426065387837,0.028686135863455677,-0.0142273942948188
438,5,-0.0030445747543126345,0.0005682876217179,0.0020776798482984304,0.0009097274742089212,-0.005341097246855497,-0.0008652477408759296,-0.020608149468898773,0.03989476338028908,0.09434986859560013,-0.31179380416870117,0.19698616862297058,-0.026369363069534302,0.0,0.0,0.0,0.003537312848493457,-0.006561188958585262,-0.0,0.0,0.0,0.0,0.001409510849043727,-0.0003943203773815185,0.0028054281137883663,51241.0,12085.0,54574.0,14976.0,0.24174350500106812,0.038005076348781586,0.2647716701030731,0.04883884638547897,0.0,0.0,0.0,0.0,51381.0,12254.0,55096.0,13621.0,0.5933252573013306,-0.04027940923008273,0.023123978192775216,-0.013832863649138409
443,5,-0.0029510613530874252,0.0005981941940262914,0.0016822336474433541,0.013364804908633232,-0.005789251998066902,0.05510290712118149,-0.020608149468898773,0.03989476338028908,0.09434986859560013,-0.31179380416870117,0.19698616862297058,-0.026369363069534302,0.0,0.0,0.0,0.0038059416692703962,-0.0002617489080876112,-0.0,0.0,0.0,0.0,0.001409510849043727,-0.0003943203773815185,0.0028054281137883663,51241.0,12085.0,54574.0,14976.0,0.24174350500106812,0.038005076348781586,0.2647716701030731,0.04883884638547897,0.0,0.0,0.0,0.0,51381.0,12254.0,55096.0,13621.0,0.5933130979537964,-0.030358260606743993,0.031255086405768795,-0.01531561196879666
448,5,-0.0029510613530874252,0.0005981941940262914,0.0016822336474433541,0.013364804908633232,-0.005789251998066902,0.05510290712118149,-0.023169048130512238,0.037878409028053284,0.09380258619785309,-0.31002575159072876,0.24531354010105133,-0.07481522113084793,0.0,0.0,0.0,0.0038278931751847267,-0.0003700447268784046,-0.0,0.0,0.0,0.0,0.0015173812862485647,-0.0002652870607562363,0.002747537335380912,51481.0,11561.0,53588.0,16787.0,0.2433682680130005,0.036116354167461395,0.257866233587265,0.05596419423818588,0.0,0.0,0.0,0.0,51828.0,10874.0,53339.0,17238.0,0.5933132171630859,-0.030358260606743993,0.031255086405768795,-0.01531561196879666
453,5,-0.002934663090854883,0.0007222848944365978,0.0018676768522709608,0.005176146514713764,-0.007086984347552061,0.003749047638848424,-0.023169048130512238,0.037878409028053284,0.09380258619785309,-0.31002575159072876,0.24531354010105133,-0.07481522113084793,0.0,0.0,0.0,0.004592641722410917,-0.004641174804419279,-0.0,0.0,0.0,0.0,0.0015173812862485647,-0.0002652870607562363,0.002747537335380912,51481.0,11561.0,53588.0,16787.0,0.2433682680130005,0.036116354167461395,0.257866233587265,0.05596419423818588,0.0,0.0,0.0,0.0,51828.0,10874.0,53339.0,17238.0,0.5933214426040649,-0.03352887185341264,0.03505244857922584,-0.013191640934574663
458,5,-0.0029979348182678223,0.0007796434802003205,0.0019193044863641262,-0.007305208593606949,-0.010156295262277126,-0.006103139370679855,-0.026988452300429344,0.03450242429971695,0.09366144239902496,-0.3371569514274597,0.2864269018173218,0.0390438437461853,0.0,0.0,0.0,0.006220601964741945,-0.011150687001645565,-0.0,0.0,0.0,0.0,0.0014997078105807304,0.0005157875129953027,0.0028199281077831984,52206.0,9799.0,53842.0,16657.0,0.2483198344707489,0.029916323721408844,0.2596363425254822,0.055442579090595245,0.0,0.0,0.0,0.0,52297.0,9339.0,54502.0,15728.0,0.5933571457862854,-0.03292480104434275,0.031811035611112766,-0.011688430273985572
463,5,-0.003005405655130744,0.0007813068223185837,0.0016317743575200438,-0.00323748798109591,-0.0032797588501125574,0.03842325881123543,-0.026988452300429344,0.03450242429971695,0.09366144239902496,-0.3371569514274597,0.2864269018173218,0.0390438437461853,0.0,0.0,0.0,0.0027446525637060404,-0.009188191033899784,-0.0,0.0,0.0,0.0,0.0014997078105807304,0.0005157875129953027,0.0028199281077831984,52206.0,9799.0,53842.0,16657.0,0.2483198344707489,0.029916323721408844,0.2596363425254822,0.055442579090595245,0.0,0.0,0.0,0.0,52297.0,9339.0,54502.0,15728.0,0.5933361053466797,-0.03452641165846456,0.025098978592708297,-0.012198323296606573
468,5,-0.0030909504275768995,0.0007734060054644942,0.0019270461052656174,-0.012947501614689827,0.00012219020572956651,-0.029811065644025803,-0.026988452300429344,0.03450242429971695,0.09366144239902496,-0.3371569514274597,0.2864269018173218,0.0390438437461853,0.0,0.0,0.0,0.001034007640555501,-0.0143020860850811,-0.0,0.0,0.0,0.0,0.0014997078105807304,0.0005157875129953027,0.0028199281077831984,52206.0,9799.0,53842.0,16657.0,0.2483198344707489,0.029916323721408844,0.2596363425254822,0.055442579090595245,0.0,0.0,0.0,0.0,52297.0,9339.0,54502.0,15728.0,0.5933697819709778,-0.03998460520954876,0.022467147947118238,-0.011100230452456334
473,5,-0.0030025888700038195,0.0008179019787348807,0.0017717235023155808,0.008486373350024223,-0.006192781962454319,0.012801844626665115,-0.02963361144065857,0.03235957399010658,0.09408261626958847,-0.32965394854545593,0.2547767162322998,0.04599520191550255,0.0,0.0,0.0,0.004309843759983778,-0.0034321662969887257,-0.0,0.0,0.0,0.0,0.001656492822803557,0.0006643239175900817,0.002862476045265794,52245.0,9186.0,54177.0,16526.0,0.24858668446540833,0.027820877730846405,0.2619844675064087,0.05492111295461655,0.0,0.0,0.0,0.0,51932.0,9561.0,54766.0,15699.0,0.5933178067207336,-0.0446063376976006,0.021937262148827467,-0.011809166966353766
479,5,-0.0031535665038973093,0.0008337378385476768,0.0019658354576677084,-0.01859097369015217,-0.004074857570230961,-0.023335104808211327,-0.02963361144065857,0.03235957399010658,0.09408261626958847,-0.32965394854545593,0.2547767162322998,0.04599520191550255,0.0,0.0,0.0,0.0032691252417862415,-0.01743614301085472,-0.0,0.0,0.0,0.0,0.001656492822803557,0.0006643239175900817,0.002862476045265794,52245.0,9186.0,54177.0,16526.0,0.24858668446540833,0.027820877730846405,0.2619844675064087,0.05492111295461655,0.0,0.0,0.0,0.0,51932.0,9561.0,54766.0,15699.0,0.5934021472930908,-0.05314851049905302,0.00959289095742225,-0.013478803854033779
484,5,-0.003166401758790016,0.0008841101662255824,0.0016312901861965656,-0.007374204695224762,-0.00827457569539547,0.03983579948544502,-0.03360139951109886,0.029328688979148865,0.09433111548423767,-0.3366996645927429,0.24146254360675812,0.01360736507922411,0.0,0.0,0.0,0.005472373217344284,-0.011840815655887127,-0.0,0.0,0.0,0.0,0.001784318359568715,0.000576573598664254,0.002844389295205474,51883.0,9456.0,54317.0,16672.0,0.24611231684684753,0.02873937040567398,0.2629653513431549,0.055504776537418365,0.0,0.0,0.0,0.0,51540.0,10453.0,54623.0,15862.0,0.5933592915534973,-0.05633240748743875,0.0031249411788577576,-0.017413204940542177
489,5,-0.003227576846256852,0.0009315520874224603,0.001978465821594,-0.010776786133646965,-0.00912424921989441,-0.03665383905172348,-0.03360139951109886,0.029328688979148865,0.09433111548423767,-0.3366996645927429,0.24146254360675812,0.01360736507922411,0.0,0.0,0.0,0.005968289449810982,-0.013729225844144821,-0.0,0.0,0.0,0.0,0.001784318359568715,0.000576573598664254,0.002844389295205474,51883.0,9456.0,54317.0,16672.0,0.24611231684684753,0.02873937040567398,0.2629653513431549,0.055504776537418365,0.0,0.0,0.0,0.0,51540.0,10453.0,54623.0,15862.0,0.5933752655982971,-0.061688128034929214,-0.0028944476035094643,-0.012953806761645275
494,5,-0.0031130858696997166,0.001036740024574101,0.0017645773477852345,0.012795703485608101,-0.01746358349919319,0.018948225304484367,-0.036371901631355286,0.027310552075505257,0.09417324513196945,-0.35915058851242065,0.25174659490585327,-0.041586149483919144,0.0,0.0,0.0,0.010250835679471493,-0.013842947781085968,-0.0,0.0,0.0,0.0,0.0018387280870229006,0.00012426408648025244,0.0028055915609002113,51256.0,10511.0,54362.0,16759.0,0.24184486269950867,0.03239145874977112,0.26327991485595703,0.05585360527038574,0.0,0.0,0.0,0.0,51166.0,10269.0,54483.0,16918.0,0.5933968424797058,-0.06460868914348869,0.00015551770914298978,-0.0151643384221148
499,5,-0.003242245875298977,0.0010644769063219428,0.001726777758449316,-0.014243698678910732,-0.009122244082391262,0.010976415127515793,-0.036371901631355286,0.027310552075505257,0.09417324513196945,-0.35915058851242065,0.25174659490585327,-0.041586149483919144,0.0,0.0,0.0,0.006124761421233416,-0.01573258638381958,-0.0,0.0,0.0,0.0,0.0018387280870229006,0.00012426408648025244,0.0028055915609002113,51256.0,10511.0,54362.0,16759.0,0.24184486269950867,0.03239145874977112,0.26327991485595703,0.05585360527038574,0.0,0.0,0.0,0.0,51166.0,10269.0,54483.0,16918.0,0.5933933854103088,-0.05965554352490264,-0.008593323707577937,-0.012029925433133347
504,5,-0.0032650951761752367,0.001108855940401554,0.0018619989277794957,-0.007472014054656029,-0.00894972588866949,-0.015638049691915512,-0.04068071395158768,0.02405230700969696,0.0940239354968071,-0.36044201254844666,0.28993892669677734,0.0028760023415088654,0.0,0.0,0.0,0.0061049810610711575,-0.012414851225912571,-0.0,0.0,0.0,0.0,0.0020325067453086376,0.00018751744937617332,0.0028204990085214376,51373.0,9643.0,54507.0,17065.0,0.24263852834701538,0.02937968820333481,0.26430195569992065,0.057082198560237885,0.0,0.0,0.0,0.0,51755.0,8838.0,54883.0,16438.0,0.5933656096458435,-0.06341654517396116,-0.011414700388659601,-0.009973311380959346
509,5,-0.0032790377736091614,0.0012115173740312457,0.0016876721056178212,-0.004193554166704416,-0.017057521268725395,0.019714338704943657,-0.04068071395158768,0.02405230700969696,0.0940239354968071,-0.36044201254844666,0.28993892669677734,0.0028760023415088654,0.0,0.0,0.0,0.006143722217530012,-0.012528947554528713,-0.0,0.0,0.0,0.0,0.0020325067453086376,0.00018751744937617332,0.0028204990085214376,51373.0,9643.0,54507.0,17065.0,0.24263852834701538,0.02937968820333481,0.26430195569992065,0.057082198560237885,0.0,0.0,0.0,0.0,51755.0,8838.0,54883.0,16438.0,0.593375563621521,-0.06354085825649779,-0.010325764415946573,-0.010622411465502997
