timestamp,dt,pos_x,pos_y,pos_z,vel_x,vel_y,vel_z,roll,pitch,yaw,agv_x,agv_y,agv_z,x_ref,y_ref,z_ref,roll_ref,pitch_ref,yaw_ref,x_vel_ref,y_vel_ref,z_vel_ref,x_torque,y_torque,z_torque,w0,w1,w2,w3,u0,u1,u2,u3,m0req,m1req,m2req,m3req,thrust0,thrust1,thrust2,thrust3,thrust_ref,roll_vicon,pitch_vicon,yaw_vicon,acc_x,acc_y,acc_z
5,5,0.0,0.0,0.0,0.0,-0.0,-0.0,0.021930737420916557,0.46609440445899963,0.01367668155580759,0.0006660065846517682,0.005322303622961044,0.003903269302099943,0.0,0.0,0.0,-0.0,-0.0,-0.0,0.0,0.0,0.0,-0.0007265586755238473,-0.004999999888241291,0.0004159442614763975,0.0,0.0,0.0,0.0,0.0,0.0,0.0,0.0,0.0,0.0,0.0,0.0,0.0,0.0,0.0,0.0,0.3390336036682129,0.0,0.0,0.0,0.0,0.0,0.0
32,27,0.0,0.0,0.0,0.0,-0.0,-0.0,0.021930737420916557,0.46609440445899963,0.01367668155580759,0.0006660065846517682,0.005322303622961044,0.003903269302099943,0.0,0.0,0.0,-0.0,-0.0,-0.0,0.0,0.0,0.0,-0.0007265586755238473,-0.004999999888241291,0.0004159442614763975,0.0,0.0,0.0,0.0,0.0,0.0,0.0,0.0,0.0,0.0,0.0,0.0,0.0,0.0,0.0,0.0,0.3390336036682129,0.0,0.0,0.0,0.0,0.0,0.0
37,5,0.0,0.0,0.0,0.0,-0.0,-0.0,0.021930737420916557,0.46609440445899963,0.01367668155580759,0.0006660065846517682,0.005322303622961044,0.003903269302099943,0.0,0.0,0.0,-0.0,-0.0,-0.0,0.0,0.0,0.0,-0.0007265586755238473,-0.004999999888241291,0.0004159442614763975,0.0,0.0,0.0,0.0,0.0,0.0,0.0,0.0,0.0,0.0,0.0,0.0,0.0,0.0,0.0,0.0,0.3390336036682129,0.0,0.0,0.0,0.0,0.0,0.0
48,10,0.0,0.0,0.0,0.0,-0.0,-0.0,0.021927570924162865,0.46607086062431335,0.013681917451322079,-0.002104992512613535,0.0037636179476976395,0.0015024743042886257,0.0,0.0,0.0,-0.0,-0.0,-0.0,0.0,0.0,0.0,-0.000711990927811712,-0.004999999888241291,0.0004131015157327056,0.0,0.0,0.0,0.0,0.0,0.0,0.0,0.0,0.0,0.0,0.0,0.0,0.0,0.0,0.0,0.0,0.3390336036682129,0.0,0.0,0.0,0.0,0.0,0.0
53,5,0.0,0.0,0.0,0.0,-0.0,-0.0,0.021924614906311035,0.4660816490650177,0.013686017133295536,0.0018662913935258985,0.0020298173185437918,0.0015087098581716418,0.0,0.0,0.0,-0.0,-0.0,-0.0,0.0,0.0,0.0,-0.0007200029795058072,-0.004999999888241291,0.0004117944336030632,21120.0,27649.0,32004.0,11096.0,0.0740845650434494,0.10423628985881805,0.12625612318515778,0.03445662930607796,0.0,0.0,0.0,0.0,0.0,0.0,0.0,0.0,0.3390336036682129,0.0,0.0,0.0,0.0,0.0,0.0
58,5,0.0,0.0,0.0,0.0,-0.0,-0.0,0.021924614906311035,0.4660816490650177,0.013686017133295536,0.0018662913935258985,0.0020298173185437918,0.0015087098581716418,0.0,0.0,0.0,-0.0,-0.0,-0.0,0.0,0.0,0.0,-0.0007200029795058072,-0.004999999888241291,0.0004117944336030632,21120.0,27649.0,32004.0,11096.0,0.0740845650434494,0.10423628985881805,0.12625612318515778,0.03445662930607796,0.0,0.0,0.0,0.0,0.0,0.0,0.0,0.0,0.3390336036682129,0.0,0.0,0.0,0.0,0.0,0.0
63,5,0.0,0.0,0.0,0.0,-0.0,-0.0,0.02192818559706211,0.4660078287124634,0.013764689676463604,0.006727687083184719,0.004111107904464006,0.008952655829489231,0.0,0.0,0.0,-0.0,-0.0,-0.0,0.0,0.0,0.0,-0.000734408968128264,-0.004999999888241291,0.00042651398689486086,21263.0,27561.0,32086.0,10921.0,0.07470766454935074,0.1038084402680397,0.12668396532535553,0.03383353352546692,0.0,0.0,0.0,0.0,21239.0,27567.0,32080.0,10950.0,0.3390336036682129,0.0,0.0,0.0,0.0,0.0,0.0
68,5,0.0,0.0,0.0,0.0,-0.0,-0.0,0.02192818559706211,0.4660078287124634,0.013764689676463604,0.006727687083184719,0.004111107904464006,0.008952655829489231,0.0,0.0,0.0,-0.0,-0.0,-0.0,0.0,0.0,0.0,-0.000734408968128264,-0.004999999888241291,0.00042651398689486086,21263.0,27561.0,32086.0,10921.0,0.07470766454935074,0.1038084402680397,0.12668396532535553,0.03383353352546692,0.0,0.0,0.0,0.0,21239.0,27567.0,32080.0,10950.0,0.3390336036682129,0.0,0.0,0.0,0.0,0.0,0.0
73,5,0.0,0.0,0.0,0.0,-0.0,-0.0,0.022038977593183517,0.4661129415035248,0.013624324463307858,-0.012934230268001556,-0.016373716294765472,-0.06558951735496521,0.0,0.0,0.0,-0.0,-0.0,-0.0,0.0,0.0,0.0,-0.0007163472473621368,-0.004999999888241291,0.0003619166382122785,20426.0,28214.0,31472.0,11934.0,0.07108238339424133,0.10700817406177521,0.12348423898220062,0.037458814680576324,0.0,0.0,0.0,0.0,21239.0,27567.0,32080.0,10950.0,0.3390336036682129,0.0,0.0,0.0,0.0,0.0,0.0
78,5,0.0,0.0,0.0,0.0,-0.0,-0.0,0.022038977593183517,0.4661129415035248,0.013624324463307858,-0.012934230268001556,-0.016373716294765472,-0.06558951735496521,0.0,0.0,0.0,-0.0,-0.0,-0.0,0.0,0.0,0.0,-0.0007163472473621368,-0.004999999888241291,0.0003619166382122785,20426.0,28214.0,31472.0,11934.0,0.07108238339424133,0.10700817406177521,0.12348423898220062,0.037458814680576324,0.0,0.0,0.0,0.0,21239.0,27567.0,32080.0,10950.0,0.3390336036682129,0.0,0.0,0.0,0.0,0.0,0.0
83,5,0.0,0.0,0.0,0.0,-0.0,-0.0,0.02201762981712818,0.4662657678127289,0.012951702810823917,-0.02343786135315895,-0.011142687872052193,0.02262704260647297,0.0,0.0,0.0,-0.0,-0.0,-0.0,0.0,0.0,0.0,-0.0006300696986727417,-0.004999999888241291,0.0003600781492423266,20874.0,27682.0,31973.0,11397.0,0.07301441580057144,0.10439790040254593,0.1260945051908493,0.035526782274246216,0.0,0.0,0.0,0.0,21364.0,27456.0,32183.0,10795.0,0.3390336036682129,0.0,0.0,0.0,0.0,0.0,0.0
88,5,0.0,0.0,0.0,0.0,-0.0,-0.0,0.02201762981712818,0.4662657678127289,0.012951702810823917,-0.02343786135315895,-0.011142687872052193,0.02262704260647297,0.0,0.0,0.0,-0.0,-0.0,-0.0,0.0,0.0,0.0,-0.0006300696986727417,-0.004999999888241291,0.0003600781492423266,20874.0,27682.0,31973.0,11397.0,0.07301441580057144,0.10439790040254593,0.1260945051908493,0.035526782274246216,0.0,0.0,0.0,0.0,21364.0,27456.0,32183.0,10795.0,0.3390336036682129,0.0,0.0,0.0,0.0,0.0,0.0
93,5,0.0,0.0,0.0,0.0,-0.0,-0.0,0.02201762981712818,0.4662657678127289,0.012951702810823917,-0.02343786135315895,-0.011142687872052193,0.02262704260647297,0.0,0.0,0.0,-0.0,-0.0,-0.0,0.0,0.0,0.0,-0.0006300696986727417,-0.004999999888241291,0.0003600781492423266,20874.0,27682.0,31973.0,11397.0,0.07301441580057144,0.10439790040254593,0.1260945051908493,0.035526782274246216,0.0,0.0,0.0,0.0,21364.0,27456.0,32183.0,10795.0,0.3390336036682129,0.0,0.0,0.0,0.0,0.0,0.0
98,5,0.0,0.0,0.0,0.0,-0.0,-0.0,0.022131184116005898,0.46606534719467163,0.013476457446813583,0.052606064826250076,0.039010416716337204,0.08037086576223373,0.0,0.0,0.0,-0.0,-0.0,-0.0,0.0,0.0,0.0,-0.0008811167790554464,-0.004999999888241291,0.0005246775108389556,22349.0,26902.0,32692.0,9545.0,0.07949724793434143,0.10061667859554291,0.12987573444843292,0.029043950140476227,0.0,0.0,0.0,0.0,21728.0,27235.0,32388.0,10340.0,0.3390336036682129,0.0,0.0,0.0,0.0,0.0,0.0
103,5,0.0,0.0,0.0,0.0,-0.0,-0.0,0.022067224606871605,0.46572041511535645,0.013410179875791073,-0.03698322921991348,0.04524664208292961,-0.04930998012423515,0.0,0.0,0.0,-0.0,-0.0,-0.0,0.0,0.0,0.0,-0.0006375353550538421,-0.004999999888241291,0.00033191454713232815,20265.0,28177.0,31507.0,12125.0,0.07038985937833786,0.1068277508020401,0.12366466224193573,0.0381513386964798,0.0,0.0,0.0,0.0,20317.0,28238.0,31449.0,12064.0,0.3390336036682129,0.0,0.0,0.0,0.0,0.0,0.0
108,5,0.0,0.0,0.0,0.0,-0.0,-0.0,0.022067224606871605,0.46572041511535645,0.013410179875791073,-0.03698322921991348,0.04524664208292961,-0.04930998012423515,0.0,0.0,0.0,-0.0,-0.0,-0.0,0.0,0.0,0.0,-0.0006375353550538421,-0.004999999888241291,0.00033191454713232815,20265.0,28177.0,31507.0,12125.0,0.07038985937833786,0.1068277508020401,0.12366466224193573,0.0381513386964798,0.0,0.0,0.0,0.0,20317.0,28238.0,31449.0,12064.0,0.3390336036682129,0.0,0.0,0.0,0.0,0.0,0.0
113,5,0.0,0.0,0.0,0.0,-0.0,-0.0,0.022067224606871605,0.46572041511535645,0.013410179875791073,-0.03698322921991348,0.04524664208292961,-0.04930998012423515,0.0,0.0,0.0,-0.0,-0.0,-0.0,0.0,0.0,0.0,-0.0006375353550538421,-0.004999999888241291,0.00033191454713232815,20265.0,28177.0,31507.0,12125.0,0.07038985937833786,0.1068277508020401,0.12366466224193573,0.0381513386964798,0.0,0.0,0.0,0.0,20317.0,28238.0,31449.0,12064.0,0.3390336036682129,0.0,0.0,0.0,0.0,0.0,0.0
118,5,0.0,0.0,0.0,0.0,-0.0,-0.0,0.022253651171922684,0.4657251834869385,0.01303850393742323,0.011286689899861813,0.034818582236766815,0.008853635750710964,0.0,0.0,0.0,-0.0,-0.0,-0.0,0.0,0.0,0.0,-0.0007468329858966172,-0.004999999888241291,0.0003421388100832701,20815.0,27994.0,31680.0,11468.0,0.07276123762130737,0.10592877864837646,0.12456363439559937,0.035779956728219986,0.0,0.0,0.0,0.0,21717.0,27206.0,32414.0,10354.0,0.3390336036682129,0.0,0.0,0.0,0.0,0.0,0.0
124,5,0.0,0.0,0.0,0.0,-0.0,-0.0,0.022253651171922684,0.4657251834869385,0.01303850393742323,0.011286689899861813,0.034818582236766815,0.008853635750710964,0.0,0.0,0.0,-0.0,-0.0,-0.0,0.0,0.0,0.0,-0.0007468329858966172,-0.004999999888241291,0.0003421388100832701,20815.0,27994.0,31680.0,11468.0,0.07276123762130737,0.10592877864837646,0.12456363439559937,0.035779956728219986,0.0,0.0,0.0,0.0,21717.0,27206.0,32414.0,10354.0,0.3390336036682129,0.0,0.0,0.0,0.0,0.0,0.0
129,5,0.0,0.0,0.0,0.0,-0.0,-0.0,0.02213476411998272,0.46456751227378845,0.013482766225934029,-0.0022681723348796368,0.11923358589410782,0.021255796775221825,0.0,0.0,0.0,-0.0,-0.0,-0.0,0.0,0.0,0.0,-0.0007317833951674402,-0.004999999888241291,0.00042529567144811153,21236.0,27558.0,32089.0,10954.0,0.07459071278572083,0.10379239916801453,0.1267000138759613,0.03395048528909683,0.0,0.0,0.0,0.0,21560.0,27243.0,32380.0,10550.0,0.3390336036682129,0.0,0.0,0.0,0.0,0.0,0.0
134,5,0.0,0.0,0.0,0.0,-0.0,-0.0,0.02213476411998272,0.46456751227378845,0.013482766225934029,-0.0022681723348796368,0.11923358589410782,0.021255796775221825,0.0,0.0,0.0,-0.0,-0.0,-0.0,0.0,0.0,0.0,-0.0007317833951674402,-0.004999999888241291,0.00042529567144811153,21236.0,27558.0,32089.0,10954.0,0.07459071278572083,0.10379239916801453,0.1267000138759613,0.03395048528909683,0.0,0.0,0.0,0.0,21560.0,27243.0,32380.0,10550.0,0.3390336036682129,0.0,0.0,0.0,0.0,0.0,0.0
139,5,0.0,0.0,0.0,0.0,-0.0,-0.0,0.022245652973651886,0.4635412096977234,0.013338218443095684,-0.02683093212544918,0.20864038169384003,-0.08640532195568085,0.0,0.0,0.0,-0.0,-0.0,-0.0,0.0,0.0,0.0,-0.0006608795374631882,-0.004999999888241291,0.0003468462382443249,19811.0,28768.0,30941.0,12655.0,0.06845223903656006,0.10974866151809692,0.1207437515258789,0.0400889590382576,0.0,0.0,0.0,0.0,20125.0,27867.0,31799.0,11896.0,0.3390336036682129,0.0,0.0,0.0,0.0,0.0,0.0
144,5,0.0,0.0,0.0,0.0,-0.0,-0.0,0.022245652973651886,0.4635412096977234,0.013338218443095684,-0.02683093212544918,0.20864038169384003,-0.08640532195568085,0.0,0.0,0.0,-0.0,-0.0,-0.0,0.0,0.0,0.0,-0.0006608795374631882,-0.004999999888241291,0.0003468462382443249,19811.0,28768.0,30941.0,12655.0,0.06845223903656006,0.10974866151809692,0.1207437515258789,0.0400889590382576,0.0,0.0,0.0,0.0,20125.0,27867.0,31799.0,11896.0,0.3390336036682129,0.0,0.0,0.0,0.0,0.0,0.0
149,5,0.0,0.0,0.0,0.0,-0.0,-0.0,0.021943962201476097,0.4618890583515167,0.013124017976224422,0.002198423258960247,0.22708167135715485,-0.058307189494371414,0.0,0.0,0.0,-0.0,-0.0,-0.0,0.0,0.0,0.0,-0.0006485948106274009,-0.004999999888241291,0.0003444815520197153,20263.0,28333.0,31359.0,12127.0,0.07038222998380661,0.10759541392326355,0.12289699912071228,0.03815896809101105,0.0,0.0,0.0,0.0,20489.0,28430.0,31266.0,11859.0,0.3390336036682129,0.0,0.0,0.0,0.0,0.0,0.0
154,5,0.0,0.0,0.0,0.0,-0.0,-0.0,0.021943962201476097,0.4618890583515167,0.013124017976224422,0.002198423258960247,0.22708167135715485,-0.058307189494371414,0.0,0.0,0.0,-0.0,-0.0,-0.0,0.0,0.0,0.0,-0.0006485948106274009,-0.004999999888241291,0.0003444815520197153,20263.0,28333.0,31359.0,12127.0,0.07038222998380661,0.10759541392326355,0.12289699912071228,0.03815896809101105,0.0,0.0,0.0,0.0,20489.0,28430.0,31266.0,11859.0,0.3390336036682129,0.0,0.0,0.0,0.0,0.0,0.0
159,5,0.0,0.0,0.0,0.0,-0.0,-0.0,0.02207762375473976,0.4585908055305481,0.012758453376591206,-0.0398329459130764,0.3092910349369049,-0.0033878316171467304,0.0,0.0,0.0,-0.0,-0.0,-0.0,0.0,0.0,0.0,-0.0007553416071459651,-0.004999999888241291,0.0003613729786593467,20628.0,28122.0,31559.0,11693.0,0.07195080816745758,0.10655718296766281,0.12393523007631302,0.036590393632650375,0.0,0.0,0.0,0.0,21007.0,27573.0,32074.0,11235.0,0.3390336036682129,0.0,0.0,0.0,0.0,0.0,0.0
164,5,0.0,0.0,0.0,0.0,-0.0,-0.0,0.02207762375473976,0.4585908055305481,0.012758453376591206,-0.0398329459130764,0.3092910349369049,-0.0033878316171467304,0.0,0.0,0.0,-0.0,-0.0,-0.0,0.0,0.0,0.0,-0.0007553416071459651,-0.004999999888241291,0.0003613729786593467,20628.0,28122.0,31559.0,11693.0,0.07195080816745758,0.10655718296766281,0.12393523007631302,0.036590393632650375,0.0,0.0,0.0,0.0,21007.0,27573.0,32074.0,11235.0,0.3390336036682129,0.0,0.0,0.0,0.0,0.0,0.0
169,5,0.0,0.0,0.0,0.0,-0.0,-0.0,0.02198486588895321,0.45577844977378845,0.012841940857470036,-8.775871538091451e-05,0.3485639989376068,-0.03141796961426735,0.0,0.0,0.0,-0.0,-0.0,-0.0,0.0,0.0,0.0,-0.0005770555580966175,-0.004999999888241291,0.0002883608976844698,19538.0,28550.0,31151.0,12970.0,0.06729242950677872,0.10866694152355194,0.12182547152042389,0.04124876856803894,0.0,0.0,0.0,0.0,19843.0,28939.0,30775.0,12618.0,0.3390336036682129,0.0,0.0,0.0,0.0,0.0,0.0
174,5,0.0,0.0,0.0,0.0,-0.0,-0.0,0.02198486588895321,0.45577844977378845,0.012841940857470036,-8.775871538091451e-05,0.3485639989376068,-0.03141796961426735,0.0,0.0,0.0,-0.0,-0.0,-0.0,0.0,0.0,0.0,-0.0005770555580966175,-0.004999999888241291,0.0002883608976844698,19538.0,28550.0,31151.0,12970.0,0.06729242950677872,0.10866694152355194,0.12182547152042389,0.04124876856803894,0.0,0.0,0.0,0.0,19843.0,28939.0,30775.0,12618.0,0.3390336036682129,0.0,0.0,0.0,0.0,0.0,0.0
180,5,0.0,0.0,0.0,0.0,-0.0,-0.0,0.022076906636357307,0.44984227418899536,0.012153972871601582,-0.09081751853227615,0.5796769857406616,-0.07966025918722153,0.0,0.0,0.0,-0.0,-0.0,-0.0,0.0,0.0,0.0,-0.0006376436213031411,-0.004999999888241291,0.00012696016347035766,18629.0,29646.0,30082.0,13988.0,0.06348253786563873,0.11414311081171036,0.11634930223226547,0.045058660209178925,0.0,0.0,0.0,0.0,18803.0,29237.0,30485.0,13796.0,0.3390336036682129,0.0,0.0,0.0,0.0,0.0,0.0
185,5,0.0,0.0,0.0,0.0,-0.0,-0.0,0.022076906636357307,0.44984227418899536,0.012153972871601582,-0.09081751853227615,0.5796769857406616,-0.07966025918722153,0.0,0.0,0.0,-0.0,-0.0,-0.0,0.0,0.0,0.0,-0.0006376436213031411,-0.004999999888241291,0.00012696016347035766,18629.0,29646.0,30082.0,13988.0,0.06348253786563873,0.11414311081171036,0.11634930223226547,0.045058660209178925,0.0,0.0,0.0,0.0,18803.0,29237.0,30485.0,13796.0,0.3390336036682129,0.0,0.0,0.0,0.0,0.0,0.0
190,5,0.0,0.0,0.0,0.0,-0.0,-0.0,0.021977191790938377,0.4441400468349457,0.011202802881598473,-0.021282343193888664,0.7942936420440674,-0.12436152994632721,0.0,0.0,0.0,-0.0,-0.0,-0.0,0.0,0.0,0.0,-0.0005713447462767363,-0.003145808819681406,2.3764881916576996e-05,19419.0,28538.0,27197.0,18172.0,0.06679056584835052,0.10860741138458252,0.1020423173904419,0.061593301594257355,0.0,0.0,0.0,0.0,17776.0,30174.0,29552.0,14908.0,0.3390336036682129,0.0,0.0,0.0,0.0,0.0,0.0
195,5,0.0,0.0,0.0,0.0,-0.0,-0.0,0.021977191790938377,0.4441400468349457,0.011202802881598473,-0.021282343193888664,0.7942936420440674,-0.12436152994632721,0.0,0.0,0.0,-0.0,-0.0,-0.0,0.0,0.0,0.0,-0.0005713447462767363,-0.003145808819681406,2.3764881916576996e-05,19419.0,28538.0,27197.0,18172.0,0.06679056584835052,0.10860741138458252,0.1020423173904419,0.061593301594257355,0.0,0.0,0.0,0.0,17776.0,30174.0,29552.0,14908.0,0.3390336036682129,0.0,0.0,0.0,0.0,0.0,0.0
200,5,0.0,0.0,0.0,0.0,-0.0,-0.0,0.021977191790938377,0.4441400468349457,0.011202802881598473,-0.021282343193888664,0.7942936420440674,-0.12436152994632721,0.0,0.0,0.0,-0.0,-0.0,-0.0,0.0,0.0,0.0,-0.0005713447462767363,-0.003145808819681406,2.3764881916576996e-05,19419.0,28538.0,27197.0,18172.0,0.06679056584835052,0.10860741138458252,0.1020423173904419,0.061593301594257355,0.0,0.0,0.0,0.0,17776.0,30174.0,29552.0,14908.0,0.3390336036682129,0.0,0.0,0.0,0.0,0.0,0.0
205,5,0.0,0.0,0.0,0.0,-0.0,-0.0,0.021980635821819305,0.42162367701530457,0.007798659615218639,-0.09234016388654709,1.4850322008132935,-0.25628435611724854,0.0,0.0,0.0,-0.0,-0.0,-0.0,0.0,0.0,0.0,-0.0005294540314935148,0.0009222074877470732,-0.00012112638069083914,25262.0,23208.0,19314.0,26045.0,0.09281507134437561,0.08335377275943756,0.06634961068630219,0.09651514887809753,0.0,0.0,0.0,0.0,23765.0,24824.0,22615.0,22838.0,0.3390336036682129,0.0,0.0,0.0,0.0,0.0,0.0
210,5,0.0,0.0,0.0,0.0,-0.0,-0.0,0.021980635821819305,0.42162367701530457,0.007798659615218639,-0.09234016388654709,1.4850322008132935,-0.25628435611724854,0.0,0.0,0.0,-0.0,-0.0,-0.0,0.0,0.0,0.0,-0.0005294540314935148,0.0009222074877470732,-0.00012112638069083914,25262.0,23208.0,19314.0,26045.0,0.09281507134437561,0.08335377275943756,0.06634961068630219,0.09651514887809753,0.0,0.0,0.0,0.0,23765.0,24824.0,22615.0,22838.0,0.3390336036682129,0.0,0.0,0.0,0.0,0.0,0.0
215,5,0.0,0.0,0.0,0.0,-0.0,-0.0,0.021937916055321693,0.4015973210334778,0.0046096546575427055,-0.13676685094833374,1.8671311140060425,-0.2945530414581299,0.0,0.0,0.0,-0.0,-0.0,-0.0,0.0,0.0,0.0,-0.00043936495785601437,0.003952161408960819,-0.0002946953463833779,27894.0,20020.0,12412.0,31774.0,0.1054374948143959,0.06934385746717453,0.03919734060764313,0.12505491077899933,0.0,0.0,0.0,0.0,25836.0,22623.0,16583.0,28342.0,0.3390336036682129,0.0,0.0,0.0,0.0,0.0,0.0
220,5,0.0,0.0,0.0,0.0,-0.0,-0.0,0.021937916055321693,0.4015973210334778,0.0046096546575427055,-0.13676685094833374,1.8671311140060425,-0.2945530414581299,0.0,0.0,0.0,-0.0,-0.0,-0.0,0.0,0.0,0.0,-0.00043936495785601437,0.003952161408960819,-0.0002946953463833779,27894.0,20020.0,12412.0,31774.0,0.1054374948143959,0.06934385746717453,0.03919734060764313,0.12505491077899933,0.0,0.0,0.0,0.0,25836.0,22623.0,16583.0,28342.0,0.3390336036682129,0.0,0.0,0.0,0.0,0.0,0.0
225,5,0.0,0.0,0.0,0.0,-0.0,-0.0,0.021950989961624146,0.38604116439819336,0.0020348692778497934,-0.12544569373130798,2.132540464401245,-0.4239552915096283,0.0,0.0,0.0,-0.0,-0.0,-0.0,0.0,0.0,0.0,-0.00047910420107655227,0.004999999888241291,-0.000551072764210403,25979.0,22314.0,9590.0,33523.0,0.09619807451963425,0.07934178411960602,0.029199417680501938,0.134294331073761,0.0,0.0,0.0,0.0,25705.0,22709.0,9072.0,33764.0,0.3390336036682129,0.0,0.0,0.0,0.0,0.0,0.0
230,5,0.0,0.0,0.0,0.0,-0.0,-0.0,0.021950989961624146,0.38604116439819336,0.0020348692778497934,-0.12544569373130798,2.132540464401245,-0.4239552915096283,0.0,0.0,0.0,-0.0,-0.0,-0.0,0.0,0.0,0.0,-0.00047910420107655227,0.004999999888241291,-0.000551072764210403,25979.0,22314.0,9590.0,33523.0,0.09619807451963425,0.07934178411960602,0.029199417680501938,0.134294331073761,0.0,0.0,0.0,0.0,25705.0,22709.0,9072.0,33764.0,0.3390336036682129,0.0,0.0,0.0,0.0,0.0,0.0
235,5,0.0,0.0,0.0,0.0,-0.0,-0.0,0.022088399156928062,0.3594883680343628,-0.0028311179485172033,-0.14029812812805176,2.2583045959472656,-0.45802295207977295,0.0,0.0,0.0,-0.0,-0.0,-0.0,0.0,0.0,0.0,-0.00044657968101091683,0.004999999888241291,-0.000722800730727613,24419.0,23884.0,7470.0,34874.0,0.08889476209878922,0.086433544754982,0.022107655182480812,0.1415976583957672,0.0,0.0,0.0,0.0,23045.0,25086.0,5726.0,36013.0,0.3390336036682129,0.0,0.0,0.0,0.0,0.0,0.0
240,5,0.0,0.0,0.0,0.0,-0.0,-0.0,0.022088399156928062,0.3594883680343628,-0.0028311179485172033,-0.14029812812805176,2.2583045959472656,-0.45802295207977295,0.0,0.0,0.0,-0.0,-0.0,-0.0,0.0,0.0,0.0,-0.00044657968101091683,0.004999999888241291,-0.000722800730727613,24419.0,23884.0,7470.0,34874.0,0.08889476209878922,0.086433544754982,0.022107655182480812,0.1415976583957672,0.0,0.0,0.0,0.0,23045.0,25086.0,5726.0,36013.0,0.3390336036682129,0.0,0.0,0.0,0.0,0.0,0.0
245,5,0.0,0.0,0.0,0.0,-0.0,-0.0,0.022247232496738434,0.3404994308948517,-0.006569006945937872,-0.11640866845846176,2.3615798950195312,-0.5178245902061462,0.0,0.0,0.0,-0.0,-0.0,-0.0,0.0,0.0,0.0,-0.0005872079636901617,0.004999999888241291,-0.0009775536600500345,22788.0,25732.0,4741.0,36221.0,0.08146454393863678,0.09502864629030228,0.01351255178451538,0.14902786910533905,0.0,0.0,0.0,0.0,21862.0,26533.0,3465.0,36958.0,0.3390336036682129,0.0,0.0,0.0,0.0,0.0,0.0
250,5,0.0,0.0,0.0,0.0,-0.0,-0.0,0.022247232496738434,0.3404994308948517,-0.006569006945937872,-0.11640866845846176,2.3615798950195312,-0.5178245902061462,0.0,0.0,0.0,-0.0,-0.0,-0.0,0.0,0.0,0.0,-0.0005872079636901617,0.004999999888241291,-0.0009775536600500345,22788.0,25732.0,4741.0,36221.0,0.08146454393863678,0.09502864629030228,0.01351255178451538,0.14902786910533905,0.0,0.0,0.0,0.0,21862.0,26533.0,3465.0,36958.0,0.3390336036682129,0.0,0.0,0.0,0.0,0.0,0.0
256,5,0.0,0.0,0.0,0.0,-0.0,-0.0,0.022470882162451744,0.3113745450973511,-0.012798834592103958,-0.19327646493911743,2.394312620162964,-0.6030163168907166,0.0,0.0,0.0,-0.0,-0.0,-0.0,0.0,0.0,0.0,-0.0004967537824995816,0.004999999888241291,-0.0012301227543503046,19698.0,28236.0,530.0,38602.0,0.06797336041927338,0.10711856186389923,0.0014226362109184265,0.16251905262470245,0.0,0.0,0.0,0.0,19690.0,28420.0,192.0,38608.0,0.3390336036682129,0.0,0.0,0.0,0.0,0.0,0.0
261,5,0.0,0.0,0.0,0.0,-0.0,-0.0,0.022470882162451744,0.3113745450973511,-0.012798834592103958,-0.19327646493911743,2.394312620162964,-0.6030163168907166,0.0,0.0,0.0,-0.0,-0.0,-0.0,0.0,0.0,0.0,-0.0004967537824995816,0.004999999888241291,-0.0012301227543503046,19698.0,28236.0,530.0,38602.0,0.06797336041927338,0.10711856186389923,0.0014226362109184265,0.16251905262470245,0.0,0.0,0.0,0.0,19690.0,28420.0,192.0,38608.0,0.3390336036682129,0.0,0.0,0.0,0.0,0.0,0.0
266,5,0.0,0.0,0.0,0.0,-0.0,-0.0,0.022825393825769424,0.29242274165153503,-0.017534619197249413,-0.11167977750301361,2.304208993911743,-0.659429132938385,0.0,0.0,0.0,-0.0,-0.0,-0.0,0.0,0.0,0.0,-0.0006196872564032674,0.004999999888241291,-0.001585141639225185,17848.0,30194.0,0.0,39929.0,0.060262810438871384,0.11691810935735703,-0.008376911282539368,0.17022959887981415,0.0,0.0,0.0,0.0,16945.0,30987.0,0.0,40550.0,0.3390336036682129,0.0,0.0,0.0,0.0,0.0,0.0
271,5,0.0,0.0,0.0,0.0,-0.0,-0.0,0.022825393825769424,0.29242274165153503,-0.017534619197249413,-0.11167977750301361,2.304208993911743,-0.659429132938385,0.0,0.0,0.0,-0.0,-0.0,-0.0,0.0,0.0,0.0,-0.0006196872564032674,0.004999999888241291,-0.001585141639225185,17848.0,30194.0,0.0,39929.0,0.060262810438871384,0.11691810935735703,-0.008376911282539368,0.17022959887981415,0.0,0.0,0.0,0.0,16945.0,30987.0,0.0,40550.0,0.3390336036682129,0.0,0.0,0.0,0.0,0.0,0.0
276,5,0.0,0.0,0.0,0.0,-0.0,-0.0,0.022825393825769424,0.29242274165153503,-0.017534619197249413,-0.11167977750301361,2.304208993911743,-0.659429132938385,0.0,0.0,0.0,-0.0,-0.0,-0.0,0.0,0.0,0.0,-0.0006196872564032674,0.004999999888241291,-0.001585141639225185,17848.0,30194.0,0.0,39929.0,0.060262810438871384,0.11691810935735703,-0.008376911282539368,0.17022959887981415,0.0,0.0,0.0,0.0,16945.0,30987.0,0.0,40550.0,0.3390336036682129,0.0,0.0,0.0,0.0,0.0,0.0
281,5,0.0,0.0,0.0,0.0,-0.0,-0.0,0.023238880559802055,0.2651590406894684,-0.024630211293697357,-0.10264658182859421,2.2004342079162598,-0.5600468516349792,0.0,0.0,0.0,-0.0,-0.0,-0.0,0.0,0.0,0.0,-0.0006168105755932629,0.004999999888241291,-0.001708144904114306,17234.0,30625.0,0.0,40354.0,0.05776248499751091,0.1191217228770256,-0.010580524802207947,0.17272992432117462,0.0,0.0,0.0,0.0,17385.0,30558.0,0.0,40250.0,0.3390336036682129,0.0,0.0,0.0,0.0,0.0,0.0
286,5,0.0,0.0,0.0,0.0,-0.0,-0.0,0.023238880559802055,0.2651590406894684,-0.024630211293697357,-0.10264658182859421,2.2004342079162598,-0.5600468516349792,0.0,0.0,0.0,-0.0,-0.0,-0.0,0.0,0.0,0.0,-0.0006168105755932629,0.004999999888241291,-0.001708144904114306,17234.0,30625.0,0.0,40354.0,0.05776248499751091,0.1191217228770256,-0.010580524802207947,0.17272992432117462,0.0,0.0,0.0,0.0,17385.0,30558.0,0.0,40250.0,0.3390336036682129,0.0,0.0,0.0,0.0,0.0,0.0
291,5,0.0,0.0,0.0,0.0,-0.0,-0.0,0.023371094837784767,0.24903391301631927,-0.028608174994587898,-0.15332439541816711,1.889522910118103,-0.5182018876075745,0.0,0.0,0.0,-0.0,-0.0,-0.0,0.0,0.0,0.0,-0.00025741063291206956,0.004999999888241291,-0.0018115632701665163,16709.0,30919.0,0.0,40710.0,0.05565233528614044,0.1206284910440445,-0.012087296694517136,0.1748400777578354,0.0,0.0,0.0,0.0,15504.0,31414.0,0.0,41509.0,0.3390336036682129,0.0,0.0,0.0,0.0,0.0,0.0
296,5,0.0,0.0,0.0,0.0,-0.0,-0.0,0.023371094837784767,0.24903391301631927,-0.028608174994587898,-0.15332439541816711,1.889522910118103,-0.5182018876075745,0.0,0.0,0.0,-0.0,-0.0,-0.0,0.0,0.0,0.0,-0.00025741063291206956,0.004999999888241291,-0.0018115632701665163,16709.0,30919.0,0.0,40710.0,0.05565233528614044,0.1206284910440445,-0.012087296694517136,0.1748400777578354,0.0,0.0,0.0,0.0,15504.0,31414.0,0.0,41509.0,0.3390336036682129,0.0,0.0,0.0,0.0,0.0,0.0
301,5,0.0,0.0,0.0,0.0,-0.0,-0.0,0.022225212305784225,0.2280202955007553,-0.03461004048585892,-0.19254358112812042,1.6138150691986084,-0.5175963044166565,0.0,0.0,0.0,-0.0,-0.0,-0.0,0.0,0.0,0.0,-0.0006464847829192877,0.004999999888241291,-0.001956226537004113,14574.0,31870.0,0.0,42107.0,0.04728966951370239,0.1255575716495514,-0.017016377300024033,0.18320274353027344,0.0,0.0,0.0,0.0,14740.0,32279.0,0.0,42001.0,0.35052594542503357,0.0,0.0,0.0,0.0,0.0,0.0
306,5,0.0,0.0,0.0,0.0,-0.0,-0.0,0.022225212305784225,0.2280202955007553,-0.03461004048585892,-0.19254358112812042,1.6138150691986084,-0.5175963044166565,0.0,0.0,0.0,-0.0,-0.0,-0.0,0.0,0.0,0.0,-0.0006464847829192877,0.004999999888241291,-0.001956226537004113,14574.0,31870.0,0.0,42107.0,0.04728966951370239,0.1255575716495514,-0.017016377300024033,0.18320274353027344,0.0,0.0,0.0,0.0,14740.0,32279.0,0.0,42001.0,0.35052594542503357,0.0,0.0,0.0,0.0,0.0,0.0
311,5,0.0,0.0,0.0,0.0,-0.0,-0.0,0.02236955426633358,0.21639759838581085,-0.038455042988061905,-0.10494598746299744,1.2438609600067139,-0.49532005190849304,0.0,0.0,0.0,-0.0,-0.0,-0.0,0.0,0.0,0.0,-0.0003075094136875123,0.002075742930173874,-0.0020203180611133575,6714.0,36910.0,0.0,40212.0,0.019665919244289398,0.15288472175598145,-0.005413658916950226,0.17189663648605347,0.0,0.0,0.0,0.0,12614.0,33683.0,0.0,42410.0,0.3601111173629761,0.0,0.0,0.0,0.0,0.0,0.0
317,5,0.0,0.0,0.0,0.0,-0.0,-0.0,0.02236955426633358,0.21639759838581085,-0.038455042988061905,-0.10494598746299744,1.2438609600067139,-0.49532005190849304,0.0,0.0,0.0,-0.0,-0.0,-0.0,0.0,0.0,0.0,-0.0003075094136875123,0.002075742930173874,-0.0020203180611133575,6714.0,36910.0,0.0,40212.0,0.019665919244289398,0.15288472175598145,-0.005413658916950226,0.17189663648605347,0.0,0.0,0.0,0.0,12614.0,33683.0,0.0,42410.0,0.3601111173629761,0.0,0.0,0.0,0.0,0.0,0.0
322,5,0.0,0.0,0.0,0.0,-0.0,-0.0,0.02118278481066227,0.19920822978019714,-0.04809001833200455,-0.13657401502132416,0.40454721450805664,-0.48156559467315674,0.0,0.0,0.0,-0.0,-0.0,-0.0,0.0,0.0,0.0,-0.00035548070445656776,-0.0014805975370109081,-0.002257100772112608,0.0,42255.0,4256.0,37940.0,-0.004335194826126099,0.18409369885921478,0.012046173214912415,0.15872126817703247,0.0,0.0,0.0,0.0,3668.0,38666.0,0.0,39339.0,0.3841300904750824,0.0,0.0,0.0,0.0,0.0,0.0
327,5,0.0,0.0,0.0,0.0,-0.0,-0.0,0.02118278481066227,0.19920822978019714,-0.04809001833200455,-0.13657401502132416,0.40454721450805664,-0.48156559467315674,0.0,0.0,0.0,-0.0,-0.0,-0.0,0.0,0.0,0.0,-0.00035548070445656776,-0.0014805975370109081,-0.002257100772112608,0.0,42255.0,4256.0,37940.0,-0.004335194826126099,0.18409369885921478,0.012046173214912415,0.15872126817703247,0.0,0.0,0.0,0.0,3668.0,38666.0,0.0,39339.0,0.3841300904750824,0.0,0.0,0.0,0.0,0.0,0.0
332,5,0.0,0.0,0.0,0.0,-0.0,-0.0,0.02036713995039463,0.1971355378627777,-0.053616493940353394,-0.19742341339588165,-0.05989118292927742,-0.40577957034111023,0.0,0.0,0.0,-0.0,-0.0,-0.0,0.0,0.0,0.0,-0.00021650119742844254,-0.004999999888241291,-0.0022822662722319365,0.0,46026.0,10836.0,35341.0,-0.02507856860756874,0.20749789476394653,0.033533282577991486,0.1441585272550583,0.0,0.0,0.0,0.0,0.0,45100.0,9170.0,35351.0,0.397907018661499,0.0,0.0,0.0,0.0,0.0,0.0
337,5,0.0,0.0,0.0,0.0,-0.0,-0.0,0.02036713995039463,0.1971355378627777,-0.053616493940353394,-0.19742341339588165,-0.05989118292927742,-0.40577957034111023,0.0,0.0,0.0,-0.0,-0.0,-0.0,0.0,0.0,0.0,-0.00021650119742844254,-0.004999999888241291,-0.0022822662722319365,0.0,46026.0,10836.0,35341.0,-0.02507856860756874,0.20749789476394653,0.033533282577991486,0.1441585272550583,0.0,0.0,0.0,0.0,0.0,45100.0,9170.0,35351.0,0.397907018661499,0.0,0.0,0.0,0.0,0.0,0.0
342,5,0.0,0.0,0.0,0.0,-0.0,-0.0,0.019268713891506195,0.19841699302196503,-0.05680680274963379,-0.17353585362434387,-0.2813682556152344,-0.3874540627002716,0.0,0.0,0.0,-0.0,-0.0,-0.0,0.0,0.0,0.0,-0.00013007987581659108,-0.004999999888241291,-0.0023534849751740694,0.0,47330.0,11857.0,36846.0,-0.02143707126379013,0.21585845947265625,0.03718218207359314,0.15252649784088135,0.0,0.0,0.0,0.0,0.0,46174.0,10569.0,35511.0,0.40586012601852417,0.0,0.0,0.0,0.0,0.0,0.0
347,5,0.0,0.0,0.0,0.0,-0.0,-0.0,0.019268713891506195,0.19841699302196503,-0.05680680274963379,-0.17353585362434387,-0.2813682556152344,-0.3874540627002716,0.0,0.0,0.0,-0.0,-0.0,-0.0,0.0,0.0,0.0,-0.00013007987581659108,-0.004999999888241291,-0.0023534849751740694,0.0,47330.0,11857.0,36846.0,-0.02143707126379013,0.21585845947265625,0.03718218207359314,0.15252649784088135,0.0,0.0,0.0,0.0,0.0,46174.0,10569.0,35511.0,0.40586012601852417,0.0,0.0,0.0,0.0,0.0,0.0
352,5,0.0,0.0,0.0,0.0,-0.0,-0.0,0.01795203424990177,0.20279206335544586,-0.06127975881099701,-0.14153875410556793,-0.46565014123916626,-0.3206961154937744,0.0,0.0,0.0,-0.0,-0.0,-0.0,0.0,0.0,0.0,-0.00022969694691710174,-0.004999999888241291,-0.0024200461339205503,0.0,48437.0,11770.0,38028.0,-0.02124393731355667,0.22306080162525177,0.03686830401420593,0.1592218279838562,0.0,0.0,0.0,0.0,0.0,48501.0,11654.0,38044.0,0.41701072454452515,0.0,0.0,0.0,0.0,0.0,0.0
357,5,0.0,0.0,0.0,0.0,-0.0,-0.0,0.01795203424990177,0.20279206335544586,-0.06127975881099701,-0.14153875410556793,-0.46565014123916626,-0.3206961154937744,0.0,0.0,0.0,-0.0,-0.0,-0.0,0.0,0.0,0.0,-0.00022969694691710174,-0.004999999888241291,-0.0024200461339205503,0.0,48437.0,11770.0,38028.0,-0.02124393731355667,0.22306080162525177,0.03686830401420593,0.1592218279838562,0.0,0.0,0.0,0.0,0.0,48501.0,11654.0,38044.0,0.41701072454452515,0.0,0.0,0.0,0.0,0.0,0.0
362,5,0.0,0.0,0.0,0.0,-0.0,-0.0,0.01784965582191944,0.20703332126140594,-0.06397407501935959,-0.05219368636608124,-0.6298611760139465,-0.3212887942790985,0.0,0.0,0.0,-0.0,-0.0,-0.0,0.0,0.0,0.0,-0.0004964260151609778,-0.004999999888241291,-0.002535862848162651,0.0,49346.0,11211.0,38585.0,-0.0204663947224617,0.2290429025888443,0.03486275672912598,0.1624208390712738,0.0,0.0,0.0,0.0,0.0,49794.0,10365.0,39046.0,0.41701072454452515,0.0,0.0,0.0,0.0,0.0,0.0
367,5,0.0,0.0,0.0,0.0,-0.0,-0.0,0.01784965582191944,0.20703332126140594,-0.06397407501935959,-0.05219368636608124,-0.6298611760139465,-0.3212887942790985,0.0,0.0,0.0,-0.0,-0.0,-0.0,0.0,0.0,0.0,-0.0004964260151609778,-0.004999999888241291,-0.002535862848162651,0.0,49346.0,11211.0,38585.0,-0.0204663947224617,0.2290429025888443,0.03486275672912598,0.1624208390712738,0.0,0.0,0.0,0.0,0.0,49794.0,10365.0,39046.0,0.4237273633480072,0.0,0.0,0.0,0.0,0.0,0.0
373,5,0.0,0.0,0.0,0.0,-0.0,-0.0,0.01784965582191944,0.20703332126140594,-0.06397407501935959,-0.05219368636608124,-0.6298611760139465,-0.3212887942790985,0.0,0.0,0.0,-0.0,-0.0,-0.0,0.0,0.0,0.0,-0.0004964260151609778,-0.004999999888241291,-0.002535862848162651,0.0,49346.0,11211.0,38585.0,-0.0204663947224617,0.2290429025888443,0.03486275672912598,0.1624208390712738,0.0,0.0,0.0,0.0,0.0,49794.0,10365.0,39046.0,0.4237273633480072,0.0,0.0,0.0,0.0,0.0,0.0
378,5,0.0,0.0,0.0,0.0,-0.0,-0.0,0.018092166632413864,0.21432438492774963,-0.0680631473660469,-0.06289994716644287,-0.6590419411659241,-0.3173578679561615,0.0,0.0,0.0,-0.0,-0.0,-0.0,0.0,0.0,0.0,-0.0004360605380497873,-0.004999999888241291,-0.002618485363200307,0.0,50133.0,9712.0,39537.0,-0.02598581463098526,0.2342866212129593,0.029619038105010986,0.16794025897979736,0.0,0.0,0.0,0.0,0.0,49794.0,10365.0,39046.0,0.4339210093021393,0.0,0.0,0.0,0.0,0.0,0.0
383,5,0.0,0.0,0.0,0.0,-0.0,-0.0,0.018092166632413864,0.21432438492774963,-0.0680631473660469,-0.06289994716644287,-0.6590419411659241,-0.3173578679561615,0.0,0.0,0.0,-0.0,-0.0,-0.0,0.0,0.0,0.0,-0.0004360605380497873,-0.004999999888241291,-0.002618485363200307,0.0,50133.0,9712.0,39537.0,-0.02598581463098526,0.2342866212129593,0.029619038105010986,0.16794025897979736,0.0,0.0,0.0,0.0,0.0,49794.0,10365.0,39046.0,0.4339210093021393,0.0,0.0,0.0,0.0,0.0,0.0
388,5,0.0,0.0,0.0,0.0,-0.0,-0.0,0.018196098506450653,0.21955622732639313,-0.07064209878444672,-0.04641599580645561,-0.6597447395324707,-0.31981950998306274,0.0,0.0,0.0,-0.0,-0.0,-0.0,0.0,0.0,0.0,-0.000405299972044304,-0.004999999888241291,-0.0027855767402797937,0.0,51238.0,9167.0,40793.0,-0.027800343930721283,0.24172544479370117,0.027755536139011383,0.17533010244369507,0.0,0.0,0.0,0.0,0.0,51590.0,9452.0,41180.0,0.4403500556945801,0.0,0.0,0.0,0.0,0.0,0.0
393,5,0.0,0.0,0.0,0.0,-0.0,-0.0,0.018196098506450653,0.21955622732639313,-0.07064209878444672,-0.04641599580645561,-0.6597447395324707,-0.31981950998306274,0.0,0.0,0.0,-0.0,-0.0,-0.0,0.0,0.0,0.0,-0.000405299972044304,-0.004999999888241291,-0.0027855767402797937,0.0,51238.0,9167.0,40793.0,-0.027800343930721283,0.24172544479370117,0.027755536139011383,0.17533010244369507,0.0,0.0,0.0,0.0,0.0,51590.0,9452.0,41180.0,0.4403500556945801,0.0,0.0,0.0,0.0,0.0,0.0
398,5,0.0,0.0,0.0,0.0,-0.0,-0.0,0.018215220421552658,0.2272961288690567,-0.07467356324195862,-0.08118492364883423,-0.6200209259986877,-0.33410173654556274,0.0,0.0,0.0,-0.0,-0.0,-0.0,0.0,0.0,0.0,-0.0004285192408133298,-0.004999999888241291,-0.0029099152889102697,0.0,52336.0,7933.0,42048.0,-0.03195413947105408,0.24921253323554993,0.02362675964832306,0.1828422099351883,0.0,0.0,0.0,0.0,0.0,52663.0,8789.0,42883.0,0.45040005445480347,0.0,0.0,0.0,0.0,0.0,0.0
403,5,0.0,0.0,0.0,0.0,-0.0,-0.0,0.018215220421552658,0.2272961288690567,-0.07467356324195862,-0.08118492364883423,-0.6200209259986877,-0.33410173654556274,0.0,0.0,0.0,-0.0,-0.0,-0.0,0.0,0.0,0.0,-0.0004285192408133298,-0.004999999888241291,-0.0029099152889102697,0.0,52336.0,7933.0,42048.0,-0.03195413947105408,0.24921253323554993,0.02362675964832306,0.1828422099351883,0.0,0.0,0.0,0.0,0.0,52663.0,8789.0,42883.0,0.45040005445480347,0.0,0.0,0.0,0.0,0.0,0.0
408,5,0.0,0.0,0.0,0.0,-0.0,-0.0,0.017506778240203857,0.23192086815834045,-0.07732180505990982,-0.2078959196805954,-0.5842170119285583,-0.2796117961406708,0.0,0.0,0.0,-0.0,-0.0,-0.0,0.0,0.0,0.0,-0.0001853311841841787,-0.004999999888241291,-0.003000000026077032,0.0,52706.0,8700.0,43074.0,-0.033099465072155,0.2517567574977875,0.026179365813732147,0.18908435106277466,0.0,0.0,0.0,0.0,0.0,52826.0,9405.0,43407.0,0.45700183510780334,0.0,0.0,0.0,0.0,0.0,0.0
413,5,0.0,0.0,0.0,0.0,-0.0,-0.0,0.015452641062438488,0.23720821738243103,-0.0804390013217926,-0.2550170421600342,-0.4064590632915497,-0.21521055698394775,0.0,0.0,0.0,-0.0,-0.0,-0.0,0.0,0.0,0.0,4.00212848035153e-05,-0.004999999888241291,-0.0029910458251833916,0.0,52752.0,9554.0,43546.0,-0.032780662178993225,0.25207555294036865,0.029075078666210175,0.19198007881641388,0.0,0.0,0.0,0.0,0.0,53127.0,10258.0,43940.0,0.46477270126342773,0.0,0.0,0.0,0.0,0.0,0.0
418,5,0.0,0.0,0.0,0.0,-0.0,-0.0,0.015452641062438488,0.23720821738243103,-0.0804390013217926,-0.2550170421600342,-0.4064590632915497,-0.21521055698394775,0.0,0.0,0.0,-0.0,-0.0,-0.0,0.0,0.0,0.0,4.00212848035153e-05,-0.004999999888241291,-0.0029910458251833916,0.0,52752.0,9554.0,43546.0,-0.032780662178993225,0.25207555294036865,0.029075078666210175,0.19198007881641388,0.0,0.0,0.0,0.0,0.0,53127.0,10258.0,43940.0,0.46477270126342773,0.0,0.0,0.0,0.0,0.0,0.0
423,5,0.0,0.0,0.0,0.0,-0.0,-0.0,0.015452641062438488,0.23720821738243103,-0.0804390013217926,-0.2550170421600342,-0.4064590632915497,-0.21521055698394775,0.0,0.0,0.0,-0.0,-0.0,-0.0,0.0,0.0,0.0,4.00212848035153e-05,-0.004999999888241291,-0.0029910458251833916,0.0,52752.0,9554.0,43546.0,-0.032780662178993225,0.25207555294036865,0.029075078666210175,0.19198007881641388,0.0,0.0,0.0,0.0,0.0,53127.0,10258.0,43940.0,0.46477270126342773,0.0,0.0,0.0,0.0,0.0,0.0
428,5,0.0,0.0,0.0,0.0,-0.0,-0.0,0.013936015777289867,0.23900461196899414,-0.08190488070249557,-0.1818607896566391,-0.1612366884946823,-0.14134471118450165,0.0,0.0,0.0,-0.0,-0.0,-0.0,0.0,0.0,0.0,-1.1285166010566172e-06,-0.004999999888241291,-0.0029746354557573795,0.0,53054.0,10403.0,43654.0,-0.02842249721288681,0.25416332483291626,0.032012298703193665,0.19264692068099976,0.0,0.0,0.0,0.0,0.0,53298.0,10863.0,43952.0,0.46842697262763977,0.0,0.0,0.0,0.0,0.0,0.0
433,5,0.0,0.0,0.0,0.0,-0.0,-0.0,0.013936015777289867,0.23900461196899414,-0.08190488070249557,-0.1818607896566391,-0.1612366884946823,-0.14134471118450165,0.0,0.0,0.0,-0.0,-0.0,-0.0,0.0,0.0,0.0,-1.1285166010566172e-06,-0.004999999888241291,-0.0029746354557573795,0.0,53054.0,10403.0,43654.0,-0.02842249721288681,0.25416332483291626,0.032012298703193665,0.19264692068099976,0.0,0.0,0.0,0.0,0.0,53298.0,10863.0,43952.0,0.46842697262763977,0.0,0.0,0.0,0.0,0.0,0.0
439,5,0.0,0.0,0.0,0.0,-0.0,-0.0,0.012278622947633266,0.23905526101589203,-0.08322837203741074,-0.12948419153690338,0.05311822518706322,-0.07091245800256729,0.0,0.0,0.0,-0.0,-0.0,-0.0,0.0,0.0,0.0,-0.00016206678992602974,-0.004999999888241291,-0.0029127304442226887,0.0,53123.0,11205.0,43515.0,-0.02426230162382126,0.25463420152664185,0.03484233468770981,0.19178760051727295,0.0,0.0,0.0,0.0,0.0,53598.0,11367.0,44129.0,0.47172629833221436,0.0,0.0,0.0,0.0,0.0,0.0
444,5,0.0,0.0,0.0,0.0,-0.0,-0.0,0.012278622947633266,0.23905526101589203,-0.08322837203741074,-0.12948419153690338,0.05311822518706322,-0.07091245800256729,0.0,0.0,0.0,-0.0,-0.0,-0.0,0.0,0.0,0.0,-0.00016206678992602974,-0.004999999888241291,-0.0029127304442226887,0.0,53123.0,11205.0,43515.0,-0.02426230162382126,0.25463420152664185,0.03484233468770981,0.19178760051727295,0.0,0.0,0.0,0.0,0.0,53598.0,11367.0,44129.0,0.47172629833221436,0.0,0.0,0.0,0.0,0.0,0.0
449,5,0.0,0.0,0.0,0.0,-0.0,-0.0,0.011555748991668224,0.23735356330871582,-0.0838845744729042,-0.12324342131614685,0.26221776008605957,-0.0534360408782959,0.0,0.0,0.0,-0.0,-0.0,-0.0,0.0,0.0,0.0,-0.0001714271493256092,-0.00396918086335063,-0.003000000026077032,0.0,53584.0,11396.0,44004.0,-0.02339503914117813,0.25783854722976685,0.03552338480949402,0.19480577111244202,0.0,0.0,0.0,0.0,0.0,53867.0,11354.0,44233.0,0.47336214780807495,0.0,0.0,0.0,0.0,0.0,0.0
454,5,0.0,0.0,0.0,0.0,-0.0,-0.0,0.011555748991668224,0.23735356330871582,-0.0838845744729042,-0.12324342131614685,0.26221776008605957,-0.0534360408782959,0.0,0.0,0.0,-0.0,-0.0,-0.0,0.0,0.0,0.0,-0.0001714271493256092,-0.00396918086335063,-0.003000000026077032,0.0,53584.0,11396.0,44004.0,-0.02339503914117813,0.25783854722976685,0.03552338480949402,0.19480577111244202,0.0,0.0,0.0,0.0,0.0,53867.0,11354.0,44233.0,0.47336214780807495,0.0,0.0,0.0,0.0,0.0,0.0
459,5,0.0,0.0,0.0,0.0,-0.0,-0.0,0.010604329407215118,0.232486292719841,-0.08466476202011108,-0.09097232669591904,0.45813992619514465,-0.07364347577095032,0.0,0.0,0.0,-0.0,-0.0,-0.0,0.0,0.0,0.0,-0.00022166300914250314,-0.0014190592337399721,-0.002926742425188422,0.0,53042.0,9334.0,45477.0,-0.01799187809228897,0.25407639145851135,0.028324760496616364,0.20401769876480103,0.0,0.0,0.0,0.0,0.0,51011.0,4188.0,47647.0,0.47530707716941833,0.0,0.0,0.0,0.0,0.0,0.0
464,5,0.0,0.0,0.0,0.0,-0.0,-0.0,0.010604329407215118,0.232486292719841,-0.08466476202011108,-0.09097232669591904,0.45813992619514465,-0.07364347577095032,0.0,0.0,0.0,-0.0,-0.0,-0.0,0.0,0.0,0.0,-0.00022166300914250314,-0.0014190592337399721,-0.002926742425188422,0.0,53042.0,9334.0,45477.0,-0.01799187809228897,0.25407639145851135,0.028324760496616364,0.20401769876480103,0.0,0.0,0.0,0.0,0.0,51011.0,4188.0,47647.0,0.47530707716941833,0.0,0.0,0.0,0.0,0.0,0.0
469,5,0.0,0.0,0.0,0.0,-0.0,-0.0,0.010296382009983063,0.22681012749671936,-0.08486609160900116,-0.04949270933866501,0.7573953866958618,0.02918090485036373,0.0,0.0,0.0,-0.0,-0.0,-0.0,0.0,0.0,0.0,-0.0002930860791821033,0.0021405790466815233,-0.0028333193622529507,1390.0,50251.0,4993.0,47753.0,0.0037763193249702454,0.2350737750530243,0.01428128033876419,0.21859490871429443,0.0,0.0,0.0,0.0,7361.0,47546.0,0.0,50203.0,0.4758089482784271,0.0,0.0,0.0,0.0,0.0,0.0
474,5,0.0,0.0,0.0,0.0,-0.0,-0.0,0.010296382009983063,0.22681012749671936,-0.08486609160900116,-0.04949270933866501,0.7573953866958618,0.02918090485036373,0.0,0.0,0.0,-0.0,-0.0,-0.0,0.0,0.0,0.0,-0.0002930860791821033,0.0021405790466815233,-0.0028333193622529507,1390.0,50251.0,4993.0,47753.0,0.0037763193249702454,0.2350737750530243,0.01428128033876419,0.21859490871429443,0.0,0.0,0.0,0.0,7361.0,47546.0,0.0,50203.0,0.4758089482784271,0.0,0.0,0.0,0.0,0.0,0.0
479,5,0.0,0.0,0.0,0.0,-0.0,-0.0,0.009522880427539349,0.21506774425506592,-0.0839771032333374,-0.023701678961515427,1.043969750404358,0.09027373045682907,0.0,0.0,0.0,-0.0,-0.0,-0.0,0.0,0.0,0.0,-0.0005791598814539611,0.004240186884999275,-0.002859846455976367,13330.0,45213.0,0.0,52116.0,0.042589060962200165,0.20235347747802734,-0.01733580231666565,0.24770033359527588,0.0,0.0,0.0,0.0,11940.0,45440.0,0.0,51722.0,0.4735928177833557,0.0,0.0,0.0,0.0,0.0,0.0
484,5,0.0,0.0,0.0,0.0,-0.0,-0.0,0.009522880427539349,0.21506774425506592,-0.0839771032333374,-0.023701678961515427,1.043969750404358,0.09027373045682907,0.0,0.0,0.0,-0.0,-0.0,-0.0,0.0,0.0,0.0,-0.0005791598814539611,0.004240186884999275,-0.002859846455976367,13330.0,45213.0,0.0,52116.0,0.042589060962200165,0.20235347747802734,-0.01733580231666565,0.24770033359527588,0.0,0.0,0.0,0.0,11940.0,45440.0,0.0,51722.0,0.4735928177833557,0.0,0.0,0.0,0.0,0.0,0.0
489,5,0.0,0.0,0.0,0.0,-0.0,-0.0,0.009737431071698666,0.2057366967201233,-0.08330823481082916,0.10392963141202927,1.159916639328003,0.0937255248427391,0.0,0.0,0.0,-0.0,-0.0,-0.0,0.0,0.0,0.0,-0.0008468852029182017,0.004476458299905062,-0.00263879238627851,16530.0,43756.0,0.0,50350.0,0.05493539571762085,0.19327476620674133,-0.008136793971061707,0.23573558032512665,0.0,0.0,0.0,0.0,14291.0,44866.0,0.0,51716.0,0.47192537784576416,0.0,0.0,0.0,0.0,0.0,0.0
494,5,0.0,0.0,0.0,0.0,-0.0,-0.0,0.009737431071698666,0.2057366967201233,-0.08330823481082916,0.10392963141202927,1.159916639328003,0.0937255248427391,0.0,0.0,0.0,-0.0,-0.0,-0.0,0.0,0.0,0.0,-0.0008468852029182017,0.004476458299905062,-0.00263879238627851,16530.0,43756.0,0.0,50350.0,0.05493539571762085,0.19327476620674133,-0.008136793971061707,0.23573558032512665,0.0,0.0,0.0,0.0,14291.0,44866.0,0.0,51716.0,0.47192537784576416,0.0,0.0,0.0,0.0,0.0,0.0
499,5,0.0,0.0,0.0,0.0,-0.0,-0.0,0.011958039365708828,0.1832953691482544,-0.07873338460922241,0.09522281587123871,0.9034637808799744,0.27134644985198975,0.0,0.0,0.0,-0.0,-0.0,-0.0,0.0,0.0,0.0,-0.0007261503487825394,0.0031717184465378523,-0.0024641049094498158,14451.0,44585.0,2077.0,48376.0,0.046819597482681274,0.1984190046787262,0.005696646869182587,0.22265754640102386,0.0,0.0,0.0,0.0,17276.0,43212.0,0.0,49566.0,0.46052077412605286,0.0,0.0,0.0,0.0,0.0,0.0
504,5,0.0,0.0,0.0,0.0,-0.0,-0.0,0.011958039365708828,0.1832953691482544,-0.07873338460922241,0.09522281587123871,0.9034637808799744,0.27134644985198975,0.0,0.0,0.0,-0.0,-0.0,-0.0,0.0,0.0,0.0,-0.0007261503487825394,0.0031717184465378523,-0.0024641049094498158,14451.0,44585.0,2077.0,48376.0,0.046819597482681274,0.1984190046787262,0.005696646869182587,0.22265754640102386,0.0,0.0,0.0,0.0,17276.0,43212.0,0.0,49566.0,0.46052077412605286,0.0,0.0,0.0,0.0,0.0,0.0
510,5,0.0,0.0,0.0,0.0,-0.0,-0.0,0.011958039365708828,0.1832953691482544,-0.07873338460922241,0.09522281587123871,0.9034637808799744,0.27134644985198975,0.0,0.0,0.0,-0.0,-0.0,-0.0,0.0,0.0,0.0,-0.0007112544844858348,0.001142195425927639,-0.0023545599542558193,13163.0,45287.0,7747.0,45494.0,0.04196710139513016,0.20281872153282166,0.023015186190605164,0.20412437617778778,0.0,0.0,0.0,0.0,14477.0,44467.0,2386.0,48338.0,0.46052077412605286,0.0,0.0,0.0,0.0,0.0,0.0
515,5,0.0,0.0,0.0,0.0,-0.0,-0.0,0.011958039365708828,0.1832953691482544,-0.07873338460922241,0.09522281587123871,0.9034637808799744,0.27134644985198975,0.0,0.0,0.0,-0.0,-0.0,-0.0,0.0,0.0,0.0,-0.0007112544844858348,0.001142195425927639,-0.0023545599542558193,13163.0,45287.0,7747.0,45494.0,0.04196710139513016,0.20281872153282166,0.023015186190605164,0.20412437617778778,0.0,0.0,0.0,0.0,14477.0,44467.0,2386.0,48338.0,0.46052077412605286,0.0,0.0,0.0,0.0,0.0,0.0
520,5,0.0,0.0,0.0,0.0,-0.0,-0.0,0.012861398048698902,0.16753964126110077,-0.07161405682563782,0.1730392873287201,0.441924124956131,0.5191688537597656,0.0,0.0,0.0,-0.0,-0.0,-0.0,0.0,0.0,0.0,-0.0008915310609154403,-0.0011103703873232007,-0.0020007407292723656,11997.0,45397.0,14309.0,40406.0,0.03768850862979889,0.20351719856262207,0.04627689719200134,0.17303816974163055,0.0,0.0,0.0,0.0,13542.0,45031.0,9737.0,44458.0,0.4427730441093445,0.0,0.0,0.0,0.0,0.0,0.0
525,5,0.0,0.0,0.0,0.0,-0.0,-0.0,0.012861398048698902,0.16753964126110077,-0.07161405682563782,0.1730392873287201,0.441924124956131,0.5191688537597656,0.0,0.0,0.0,-0.0,-0.0,-0.0,0.0,0.0,0.0,-0.0008915310609154403,-0.0011103703873232007,-0.0020007407292723656,11997.0,45397.0,14309.0,40406.0,0.03768850862979889,0.20351719856262207,0.04627689719200134,0.17303816974163055,0.0,0.0,0.0,0.0,13542.0,45031.0,9737.0,44458.0,0.4427730441093445,0.0,0.0,0.0,0.0,0.0,0.0
530,5,0.0,0.0,0.0,0.0,-0.0,-0.0,0.01376623660326004,0.16330265998840332,-0.06449338048696518,0.1808672845363617,0.16387297213077545,0.6012378931045532,0.0,0.0,0.0,-0.0,-0.0,-0.0,0.0,0.0,0.0,-0.0009405433083884418,-0.0038256607949733734,-0.0016581150703132153,11240.0,45928.0,21715.0,34945.0,0.03496764972805977,0.20687423646450043,0.07669039070606232,0.14198848605155945,0.0,0.0,0.0,0.0,12532.0,45027.0,17079.0,38609.0,0.4427730441093445,0.0,0.0,0.0,0.0,0.0,0.0
535,5,0.0,0.0,0.0,0.0,-0.0,-0.0,0.01376623660326004,0.16330265998840332,-0.06449338048696518,0.1808672845363617,0.16387297213077545,0.6012378931045532,0.0,0.0,0.0,-0.0,-0.0,-0.0,0.0,0.0,0.0,-0.0009405433083884418,-0.0038256607949733734,-0.0016581150703132153,11240.0,45928.0,21715.0,34945.0,0.03496764972805977,0.20687423646450043,0.07669039070606232,0.14198848605155945,0.0,0.0,0.0,0.0,12532.0,45027.0,17079.0,38609.0,0.4250219464302063,0.0,0.0,0.0,0.0,0.0,0.0
540,5,0.0,0.0,0.0,0.0,-0.0,-0.0,0.014865695498883724,0.16249416768550873,-0.060376472771167755,0.28854259848594666,-0.08576447516679764,0.46714842319488525,0.0,0.0,0.0,-0.0,-0.0,-0.0,0.0,0.0,0.0,-0.0012152115814387798,-0.004999999888241291,-0.001720094121992588,7892.0,46895.0,20012.0,34012.0,0.02348940819501877,0.21305420994758606,0.06930791586637497,0.1369214951992035,0.0,0.0,0.0,0.0,10079.0,46691.0,21669.0,34838.0,0.41475892066955566,0.0,0.0,0.0,0.0,0.0,0.0
545,5,0.0,0.0,0.0,0.0,-0.0,-0.0,0.014865695498883724,0.16249416768550873,-0.060376472771167755,0.28854259848594666,-0.08576447516679764,0.46714842319488525,0.0,0.0,0.0,-0.0,-0.0,-0.0,0.0,0.0,0.0,-0.0012152115814387798,-0.004999999888241291,-0.001720094121992588,7892.0,46895.0,20012.0,34012.0,0.02348940819501877,0.21305420994758606,0.06930791586637497,0.1369214951992035,0.0,0.0,0.0,0.0,10079.0,46691.0,21669.0,34838.0,0.41475892066955566,0.0,0.0,0.0,0.0,0.0,0.0
550,5,0.0,0.0,0.0,0.0,-0.0,-0.0,0.014865695498883724,0.16249416768550873,-0.060376472771167755,0.28854259848594666,-0.08576447516679764,0.46714842319488525,0.0,0.0,0.0,-0.0,-0.0,-0.0,0.0,0.0,0.0,-0.0012152115814387798,-0.004999999888241291,-0.001720094121992588,7892.0,46895.0,20012.0,34012.0,0.02348940819501877,0.21305420994758606,0.06930791586637497,0.1369214951992035,0.0,0.0,0.0,0.0,10079.0,46691.0,21669.0,34838.0,0.41475892066955566,0.0,0.0,0.0,0.0,0.0,0.0
555,5,0.0,0.0,0.0,0.0,-0.0,-0.0,0.016842998564243317,0.1642800271511078,-0.05392211303114891,0.20617100596427917,-0.2394331991672516,0.6173279285430908,0.0,0.0,0.0,-0.0,-0.0,-0.0,0.0,0.0,0.0,-0.0012068100040778518,-0.004999999888241291,-0.001435335143469274,10781.0,43826.0,22412.0,30444.0,0.03334179148077965,0.19370780885219574,0.0797787606716156,0.11819356679916382,0.0,0.0,0.0,0.0,8941.0,46454.0,20671.0,33360.0,0.39866888523101807,0.0,0.0,0.0,0.0,0.0,0.0
560,5,0.0,0.0,0.0,0.0,-0.0,-0.0,0.016842998564243317,0.1642800271511078,-0.05392211303114891,0.20617100596427917,-0.2394331991672516,0.6173279285430908,0.0,0.0,0.0,-0.0,-0.0,-0.0,0.0,0.0,0.0,-0.0012068100040778518,-0.004999999888241291,-0.001435335143469274,10781.0,43826.0,22412.0,30444.0,0.03334179148077965,0.19370780885219574,0.0797787606716156,0.11819356679916382,0.0,0.0,0.0,0.0,8941.0,46454.0,20671.0,33360.0,0.39866888523101807,0.0,0.0,0.0,0.0,0.0,0.0
565,5,0.0,0.0,0.0,0.0,-0.0,-0.0,0.017168724909424782,0.16628660261631012,-0.049024615436792374,0.12212840467691422,-0.2703659236431122,0.5393115878105164,0.0,0.0,0.0,-0.0,-0.0,-0.0,0.0,0.0,0.0,-0.0010111905867233872,-0.004999999888241291,-0.001254154136404395,10227.0,42903.0,22533.0,29816.0,0.03140096366405487,0.18803434073925018,0.08032073080539703,0.11500288546085358,0.0,0.0,0.0,0.0,11565.0,43007.0,23530.0,29896.0,0.38645994663238525,0.0,0.0,0.0,0.0,0.0,0.0
571,5,0.0,0.0,0.0,0.0,-0.0,-0.0,0.017168724909424782,0.16628660261631012,-0.049024615436792374,0.12212840467691422,-0.2703659236431122,0.5393115878105164,0.0,0.0,0.0,-0.0,-0.0,-0.0,0.0,0.0,0.0,-0.0010111905867233872,-0.004999999888241291,-0.001254154136404395,10227.0,42903.0,22533.0,29816.0,0.03140096366405487,0.18803434073925018,0.08032073080539703,0.11500288546085358,0.0,0.0,0.0,0.0,11565.0,43007.0,23530.0,29896.0,0.38645994663238525,0.0,0.0,0.0,0.0,0.0,0.0
576,5,0.0,0.0,0.0,0.0,-0.0,-0.0,0.017503753304481506,0.16878192126750946,-0.04241905361413956,0.11869945377111435,-0.22672367095947266,0.5693612694740295,0.0,0.0,0.0,-0.0,-0.0,-0.0,0.0,0.0,0.0,-0.0010054887970909476,-0.004999999888241291,-0.001146678812801838,11295.0,40943.0,23370.0,27435.0,0.035163071006536484,0.17622266709804535,0.08408738672733307,0.10319575667381287,0.0,0.0,0.0,0.0,11591.0,40790.0,23570.0,27217.0,0.3699929714202881,0.0,0.0,0.0,0.0,0.0,0.0
581,5,0.0,0.0,0.0,0.0,-0.0,-0.0,0.017503753304481506,0.16878192126750946,-0.04241905361413956,0.11869945377111435,-0.22672367095947266,0.5693612694740295,0.0,0.0,0.0,-0.0,-0.0,-0.0,0.0,0.0,0.0,-0.0010054887970909476,-0.004999999888241291,-0.001146678812801838,11295.0,40943.0,23370.0,27435.0,0.035163071006536484,0.17622266709804535,0.08408738672733307,0.10319575667381287,0.0,0.0,0.0,0.0,11591.0,40790.0,23570.0,27217.0,0.3699929714202881,0.0,0.0,0.0,0.0,0.0,0.0
586,5,0.0,0.0,0.0,0.0,-0.0,-0.0,0.01776779070496559,0.17018191516399384,-0.03789732605218887,0.12595124542713165,-0.19773021340370178,0.5845912098884583,0.0,0.0,0.0,-0.0,-0.0,-0.0,0.0,0.0,0.0,-0.0009709139121696353,-0.004999999888241291,-0.0009544692584313452,12568.0,40117.0,24436.0,26481.0,0.03976725786924362,0.17133614420890808,0.08897390216588974,0.09859157353639603,0.0,0.0,0.0,0.0,12914.0,39204.0,24270.0,24918.0,0.3587208092212677,0.0,0.0,0.0,0.0,0.0,0.0
591,5,0.0,0.0,0.0,0.0,-0.0,-0.0,0.01776779070496559,0.17018191516399384,-0.03789732605218887,0.12595124542713165,-0.19773021340370178,0.5845912098884583,0.0,0.0,0.0,-0.0,-0.0,-0.0,0.0,0.0,0.0,-0.0009709139121696353,-0.004999999888241291,-0.0009544692584313452,12568.0,40117.0,24436.0,26481.0,0.03976725786924362,0.17133614420890808,0.08897390216588974,0.09859157353639603,0.0,0.0,0.0,0.0,12914.0,39204.0,24270.0,24918.0,0.3587208092212677,0.0,0.0,0.0,0.0,0.0,0.0
596,5,0.0,0.0,0.0,0.0,-0.0,-0.0,0.018023766577243805,0.1714634895324707,-0.030551839619874954,0.11086107790470123,-0.02567298524081707,0.6132367253303528,0.0,0.0,0.0,-0.0,-0.0,-0.0,0.0,0.0,0.0,-0.0009342989651486278,-0.004999999888241291,-0.0007534818723797798,14362.0,37838.0,25951.0,23740.0,0.0464811697602272,0.15813703835010529,0.09606853872537613,0.08577319234609604,0.0,0.0,0.0,0.0,13886.0,36714.0,25553.0,22315.0,0.3404092788696289,0.0,0.0,0.0,0.0,0.0,0.0
601,5,0.0,0.0,0.0,0.0,-0.0,-0.0,0.018023766577243805,0.1714634895324707,-0.030551839619874954,0.11086107790470123,-0.02567298524081707,0.6132367253303528,0.0,0.0,0.0,-0.0,-0.0,-0.0,0.0,0.0,0.0,-0.0009342989651486278,-0.004999999888241291,-0.0007534818723797798,14362.0,37838.0,25951.0,23740.0,0.0464811697602272,0.15813703835010529,0.09606853872537613,0.08577319234609604,0.0,0.0,0.0,0.0,13886.0,36714.0,25553.0,22315.0,0.3404092788696289,0.0,0.0,0.0,0.0,0.0,0.0
606,5,0.0,0.0,0.0,0.0,-0.0,-0.0,0.0174470916390419,0.1712448000907898,-0.02544633485376835,-0.016154276207089424,0.13222730159759521,0.6659959554672241,0.0,0.0,0.0,-0.0,-0.0,-0.0,0.0,0.0,0.0,-0.0006451858789660037,-0.004999999888241291,-0.000482493604067713,14957.0,35300.0,27197.0,21389.0,0.04876343905925751,0.14393150806427002,0.10204058885574341,0.07525744289159775,0.0,0.0,0.0,0.0,15716.0,33464.0,28067.0,19406.0,0.3390336036682129,0.0,0.0,0.0,0.0,0.0,0.0
611,5,0.0,0.0,0.0,0.0,-0.0,-0.0,0.0174470916390419,0.1712448000907898,-0.02544633485376835,-0.016154276207089424,0.13222730159759521,0.6659959554672241,0.0,0.0,0.0,-0.0,-0.0,-0.0,0.0,0.0,0.0,-0.0006451858789660037,-0.004999999888241291,-0.000482493604067713,14957.0,35300.0,27197.0,21389.0,0.04876343905925751,0.14393150806427002,0.10204058885574341,0.07525744289159775,0.0,0.0,0.0,0.0,15716.0,33464.0,28067.0,19406.0,0.3390336036682129,0.0,0.0,0.0,0.0,0.0,0.0
616,5,0.0,0.0,0.0,0.0,-0.0,-0.0,0.015471309423446655,0.1685417890548706,-0.016608549281954765,-0.013506301678717136,0.2667377293109894,0.7123225331306458,0.0,0.0,0.0,-0.0,-0.0,-0.0,0.0,0.0,0.0,-0.0009285939740948379,-0.0024880480486899614,-2.1762332835351117e-05,17469.0,32212.0,28132.0,19244.0,0.058717917650938034,0.12734656035900116,0.10660342872142792,0.06605289876461029,0.0,0.0,0.0,0.0,18564.0,30243.0,25632.0,19105.0,0.3390336036682129,0.0,0.0,0.0,0.0,0.0,0.0
622,5,0.0,0.0,0.0,0.0,-0.0,-0.0,0.015471309423446655,0.1685417890548706,-0.016608549281954765,-0.013506301678717136,0.2667377293109894,0.7123225331306458,0.0,0.0,0.0,-0.0,-0.0,-0.0,0.0,0.0,0.0,-0.0009285939740948379,-0.0024880480486899614,-2.1762332835351117e-05,17469.0,32212.0,28132.0,19244.0,0.058717917650938034,0.12734656035900116,0.10660342872142792,0.06605289876461029,0.0,0.0,0.0,0.0,18564.0,30243.0,25632.0,19105.0,0.3390336036682129,0.0,0.0,0.0,0.0,0.0,0.0
627,5,0.0,0.0,0.0,0.0,-0.0,-0.0,0.015471309423446655,0.1685417890548706,-0.016608549281954765,-0.013506301678717136,0.2667377293109894,0.7123225331306458,0.0,0.0,0.0,-0.0,-0.0,-0.0,0.0,0.0,0.0,-0.0009285939740948379,-0.0024880480486899614,-2.1762332835351117e-05,17469.0,32212.0,28132.0,19244.0,0.058717917650938034,0.12734656035900116,0.10660342872142792,0.06605289876461029,0.0,0.0,0.0,0.0,18564.0,30243.0,25632.0,19105.0,0.3390336036682129,0.0,0.0,0.0,0.0,0.0,0.0
632,5,0.0,0.0,0.0,0.0,-0.0,-0.0,0.015516329556703568,0.16542792320251465,-0.011047719977796078,0.1533336192369461,0.514275074005127,0.6868283748626709,0.0,0.0,0.0,-0.0,-0.0,-0.0,0.0,0.0,0.0,-0.0005052972701378167,0.0019377710996195674,0.0009444064926356077,22111.0,27417.0,24717.0,19842.0,0.07844235748052597,0.10310760885477066,0.0902739092707634,0.06858540326356888,0.0,0.0,0.0,0.0,23619.0,25662.0,25512.0,19349.0,0.3390336036682129,0.0,0.0,0.0,0.0,0.0,0.0
637,5,0.0,0.0,0.0,0.0,-0.0,-0.0,0.015516329556703568,0.16542792320251465,-0.011047719977796078,0.1533336192369461,0.514275074005127,0.6868283748626709,0.0,0.0,0.0,-0.0,-0.0,-0.0,0.0,0.0,0.0,-0.0005052972701378167,0.0019377710996195674,0.0009444064926356077,22111.0,27417.0,24717.0,19842.0,0.07844235748052597,0.10310760885477066,0.0902739092707634,0.06858540326356888,0.0,0.0,0.0,0.0,23619.0,25662.0,25512.0,19349.0,0.3390336036682129,0.0,0.0,0.0,0.0,0.0,0.0
642,5,0.0,0.0,0.0,0.0,-0.0,-0.0,0.014878597110509872,0.15817447006702423,-0.0023572626523673534,0.039735790342092514,0.7169772982597351,0.6964497566223145,0.0,0.0,0.0,-0.0,-0.0,-0.0,0.0,0.0,0.0,-0.0006327257142402232,0.004999999888241291,0.0009475528495386243,36943.0,8265.0,23310.0,21881.0,0.1530684530735016,0.024723581969738007,0.08381761610507965,0.07742395997047424,0.0,0.0,0.0,0.0,35830.0,9854.0,26116.0,19046.0,0.3390336036682129,0.0,0.0,0.0,0.0,0.0,0.0
647,5,0.0,0.0,0.0,0.0,-0.0,-0.0,0.014878597110509872,0.15817447006702423,-0.0023572626523673534,0.039735790342092514,0.7169772982597351,0.6964497566223145,0.0,0.0,0.0,-0.0,-0.0,-0.0,0.0,0.0,0.0,-0.0006327257142402232,0.004999999888241291,0.0009475528495386243,36943.0,8265.0,23310.0,21881.0,0.1530684530735016,0.024723581969738007,0.08381761610507965,0.07742395997047424,0.0,0.0,0.0,0.0,35830.0,9854.0,26116.0,19046.0,0.3390336036682129,0.0,0.0,0.0,0.0,0.0,0.0
652,5,0.0,0.0,0.0,0.0,-0.0,-0.0,0.01463948842138052,0.15054605901241302,0.002576434053480625,0.09107382595539093,1.0274300575256348,0.4917077124118805,0.0,0.0,0.0,-0.0,-0.0,-0.0,0.0,0.0,0.0,-0.0006565132644027472,0.004999999888241291,0.0009488930809311569,37332.0,7509.0,23856.0,21382.0,0.15526288747787476,0.022236928343772888,0.08630426973104477,0.07522952556610107,0.0,0.0,0.0,0.0,36382.0,9143.0,22655.0,22589.0,0.3390336036682129,0.0,0.0,0.0,0.0,0.0,0.0
657,5,0.0,0.0,0.0,0.0,-0.0,-0.0,0.01463948842138052,0.15054605901241302,0.002576434053480625,0.09107382595539093,1.0274300575256348,0.4917077124118805,0.0,0.0,0.0,-0.0,-0.0,-0.0,0.0,0.0,0.0,-0.0006565132644027472,0.004999999888241291,0.0009488930809311569,37332.0,7509.0,23856.0,21382.0,0.15526288747787476,0.022236928343772888,0.08630426973104477,0.07522952556610107,0.0,0.0,0.0,0.0,36382.0,9143.0,22655.0,22589.0,0.3390336036682129,0.0,0.0,0.0,0.0,0.0,0.0
662,5,0.0,0.0,0.0,0.0,-0.0,-0.0,0.014930520206689835,0.13703210651874542,0.008431056514382362,0.12190902978181839,1.1650229692459106,0.49676746129989624,0.0,0.0,0.0,-0.0,-0.0,-0.0,0.0,0.0,0.0,-0.0006197525071911514,0.004999999888241291,0.0013175475178286433,39522.0,3132.0,26736.0,18426.0,0.16785253584384918,0.008725591003894806,0.09981560707092285,0.06263987720012665,0.0,0.0,0.0,0.0,38481.0,5669.0,25124.0,19863.0,0.3390336036682129,0.0,0.0,0.0,0.0,0.0,0.0
667,5,0.0,0.0,0.0,0.0,-0.0,-0.0,0.014930520206689835,0.13703210651874542,0.008431056514382362,0.12190902978181839,1.1650229692459106,0.49676746129989624,0.0,0.0,0.0,-0.0,-0.0,-0.0,0.0,0.0,0.0,-0.0006197525071911514,0.004999999888241291,0.0013175475178286433,39522.0,3132.0,26736.0,18426.0,0.16785253584384918,0.008725591003894806,0.09981560707092285,0.06263987720012665,0.0,0.0,0.0,0.0,38481.0,5669.0,25124.0,19863.0,0.3390336036682129,0.0,0.0,0.0,0.0,0.0,0.0
672,5,0.0,0.0,0.0,0.0,-0.0,-0.0,0.013315537944436073,0.11451573669910431,0.019234739243984222,-0.0659543052315712,1.09391450881958,0.4024197459220886,0.0,0.0,0.0,-0.0,-0.0,-0.0,0.0,0.0,0.0,-0.00015921684098429978,0.004999999888241291,0.0012396149104461074,38438.0,3685.0,26398.0,19921.0,0.1615706831216812,0.010346800088882446,0.09819439798593521,0.06892172992229462,0.0,0.0,0.0,0.0,39213.0,2780.0,26948.0,18859.0,0.3390336036682129,0.0,0.0,0.0,0.0,0.0,0.0
677,5,0.0,0.0,0.0,0.0,-0.0,-0.0,0.013315537944436073,0.11451573669910431,0.019234739243984222,-0.0659543052315712,1.09391450881958,0.4024197459220886,0.0,0.0,0.0,-0.0,-0.0,-0.0,0.0,0.0,0.0,-0.00015921684098429978,0.004999999888241291,0.0012396149104461074,38438.0,3685.0,26398.0,19921.0,0.1615706831216812,0.010346800088882446,0.09819439798593521,0.06892172992229462,0.0,0.0,0.0,0.0,39213.0,2780.0,26948.0,18859.0,0.3390336036682129,0.0,0.0,0.0,0.0,0.0,0.0
682,5,0.0,0.0,0.0,0.0,-0.0,-0.0,0.013991046696901321,0.10699068754911423,0.02096092887222767,0.24460794031620026,0.8555657267570496,0.1206459328532219,0.0,0.0,0.0,-0.0,-0.0,-0.0,0.0,0.0,0.0,-0.0009031024528667331,0.004999999888241291,0.0008597760461270809,36884.0,9449.0,22422.0,21956.0,0.15273821353912354,0.028715547174215317,0.07982565462589264,0.07775420695543289,0.0,0.0,0.0,0.0,37595.0,6135.0,24812.0,21039.0,0.3390336036682129,0.0,0.0,0.0,0.0,0.0,0.0
688,5,0.0,0.0,0.0,0.0,-0.0,-0.0,0.013991046696901321,0.10699068754911423,0.02096092887222767,0.24460794031620026,0.8555657267570496,0.1206459328532219,0.0,0.0,0.0,-0.0,-0.0,-0.0,0.0,0.0,0.0,-0.0009031024528667331,0.004999999888241291,0.0008597760461270809,36884.0,9449.0,22422.0,21956.0,0.15273821353912354,0.028715547174215317,0.07982565462589264,0.07775420695543289,0.0,0.0,0.0,0.0,37595.0,6135.0,24812.0,21039.0,0.3390336036682129,0.0,0.0,0.0,0.0,0.0,0.0
