timestamp,dt,pos_x,pos_y,pos_z,vel_x,vel_y,vel_z,roll,pitch,yaw,agv_x,agv_y,agv_z,x_ref,y_ref,z_ref,roll_ref,pitch_ref,yaw_ref,x_vel_ref,y_vel_ref,z_vel_ref,x_torque,y_torque,z_torque,w0,w1,w2,w3,u0,u1,u2,u3,m0req,m1req,m2req,m3req,thrust0,thrust1,thrust2,thrust3,thrust_ref,roll_vicon,pitch_vicon,yaw_vicon,acc_x,acc_y,acc_z
5,5,0.0,0.0,0.0,-0.00018224396626465023,0.0018804784631356597,0.00028831855161115527,-0.022724861279129982,0.5060901641845703,0.004475690424442291,-0.002867402508854866,-0.0016912160208448768,0.002475694753229618,0.0,0.0,0.0,-0.0017970914486795664,-0.00017416280752513558,-0.0,0.0,0.0,0.0,0.0009276348282583058,-0.004999999888241291,0.00013635706272907555,0.0,0.0,0.0,0.0,0.0,0.0,0.0,0.0,0.0,0.0,0.0,0.0,0.0,0.0,0.0,0.0,0.33903414011001587,-0.11171533555445425,-0.6063411231790812,-0.026882296375664482,0.0006834148662164807,-0.007051794324070215,-0.0008649556548334658
30,25,0.0,0.0,0.0,0.0005015465430915356,-0.0020143042784184217,0.001020685420371592,-0.022724861279129982,0.5060901641845703,0.004475690424442291,-0.002867402508854866,-0.0016912160208448768,0.002475694753229618,0.0,0.0,0.0,0.0019249824108555913,0.00047930667642503977,-0.0,0.0,0.0,0.0,0.0009276348282583058,-0.004999999888241291,0.00013635706272907555,0.0,0.0,0.0,0.0,0.0,0.0,0.0,0.0,0.0,0.0,0.0,0.0,0.0,0.0,0.0,0.0,0.3390342593193054,-0.11258067953784882,-0.6061981228872492,-0.027451643535504614,-0.0018807995365932584,0.007553641218692064,-0.003062056377530098
35,5,0.0,0.0,0.0,0.003596546361222863,-0.0007771580712869763,0.00574384955689311,-0.02272989973425865,0.5060844421386719,0.004472753964364529,0.0019286454189568758,0.003042896743863821,-0.0007167329313233495,0.0,0.0,0.0,0.0007426924421451986,0.003437052946537733,-0.0,0.0,0.0,0.0,0.0008604165050201118,-0.004999999888241291,0.00013306915934663266,0.0,0.0,0.0,0.0,0.0,0.0,0.0,0.0,0.0,0.0,0.0,0.0,0.0,0.0,0.0,0.0,0.33903568983078003,-0.11218713322287141,-0.6073179425817432,-0.027258544566123175,-0.01348704844713211,0.0029143427964299917,-0.017231548205018044
40,5,0.0,0.0,0.0,-0.0011284876381978393,-0.002494899556040764,0.004176691174507141,-0.02272989973425865,0.5060844421386719,0.004472753964364529,0.0019286454189568758,0.003042896743863821,-0.0007167329313233495,0.0,0.0,0.0,0.0023842633236199617,-0.0010784473270177841,-0.0,0.0,0.0,0.0,0.0008604165050201118,-0.004999999888241291,0.00013306915934663266,0.0,0.0,0.0,0.0,0.0,0.0,0.0,0.0,0.0,0.0,0.0,0.0,0.0,0.0,0.0,0.0,0.339034765958786,-0.11311723078222832,-0.6074008724390456,-0.027717626620746054,0.004231828730553389,0.009355872869491577,-0.012530073523521423
45,5,0.0,0.0,0.0,-0.002831567544490099,0.0003434178070165217,-0.0009092464460991323,-0.022733213379979134,0.5060675740242004,0.004475563298910856,0.0012282358948141336,-0.0005884009879082441,-0.0006356939557008445,0.0,0.0,0.0,-0.00032818858744576573,-0.0027060022111982107,-0.0,0.0,0.0,0.0,0.0010152648901566863,-0.004999999888241291,0.00012495441478677094,0.0,0.0,0.0,0.0,0.0,0.0,0.0,0.0,0.0,0.0,0.0,0.0,0.0,0.0,0.0,0.0,0.3390348553657532,-0.11214378763249712,-0.6065455353203804,-0.02720011319347393,0.010618378408253193,-0.0012878167908638716,0.002727739280089736
50,5,-6.501539360215247e-07,-1.8490311049390584e-05,-2.243033486593049e-05,-0.0009404917946085334,0.002691668923944235,0.002867473056539893,-0.022697163745760918,0.506102442741394,0.004428488202393055,0.00711541622877121,-0.006601257715374231,-0.001427510636858642,0.0,0.0,0.0,-0.0025995380710810423,-0.0008997453260235488,-0.0,0.0,0.0,0.0,0.0009095420246012509,-0.004999999888241291,0.00017847379785962403,16573.0,27452.0,32187.0,16152.0,0.05510786548256874,0.10327829420566559,0.12721474468708038,0.05343395844101906,0.0,0.0,0.0,0.0,16204.0,27620.0,32031.0,16521.0,0.33903488516807556,-0.11119318680949074,-0.606586407638078,-0.02693273378096858,0.0035306024365127087,-0.010200642049312592,-0.009043736383318901
57,7,0.00015684979734942317,0.0003766833106055856,-4.2434530769241974e-05,0.025171134620904922,-0.05339069664478302,0.011055183596909046,-0.022697163745760918,0.506102442741394,0.004428488202393055,0.00711541622877121,-0.006601257715374231,-0.001427510636858642,0.0,0.0,0.0,-0.0025995520409196615,-0.0008997457916848361,-0.0,0.0,0.0,0.0,0.0009095420246012509,-0.004999999888241291,0.00017847379785962403,16573.0,27452.0,32187.0,16152.0,0.05510786548256874,0.10327829420566559,0.12721474468708038,0.05343395844101906,0.0,0.0,0.0,0.0,16204.0,27620.0,32031.0,16521.0,0.33903488516807556,-0.09252851033660105,-0.6148218470381426,-0.012751864610482772,-0.09525448083877563,0.20228222012519836,-0.033908553421497345
62,5,0.0003694936749525368,0.0004961711820214987,-0.00033208495005965233,0.037321485579013824,-0.03274550661444664,0.04386761412024498,-0.022697163745760918,0.506102442741394,0.004428488202393055,0.00711541622877121,-0.006601257715374231,-0.001427510636858642,0.0,0.0,0.0,0.032477714121341705,0.03340376913547516,-0.0,0.0,0.0,0.0,0.0009095420246012509,-0.004999999888241291,0.00017847379785962403,16573.0,27452.0,32187.0,16152.0,0.05510786548256874,0.10327829420566559,0.12721474468708038,0.05343395844101906,0.0,0.0,0.0,0.0,16204.0,27620.0,32031.0,16521.0,0.3676008880138397,-0.06875194560628424,-0.6110177535715378,-0.002302148753128991,-0.14202021062374115,0.12559007108211517,-0.1369120329618454
67,5,0.00022902540513314307,-3.1565075914841145e-05,-9.059367584995925e-05,-0.00846911408007145,0.06405942142009735,-0.020648494362831116,-0.022715607658028603,0.5060322284698486,0.004617046099156141,0.00480582844465971,0.016120262444019318,0.020192937925457954,0.0,0.0,0.0,-0.05953527241945267,-0.006847144104540348,-0.0,0.0,0.0,0.0,0.000905808643437922,-0.004999999888241291,0.0002616428828332573,17154.0,27160.0,32456.0,15558.0,0.05744216963648796,0.10186240822076797,0.1286306381225586,0.05109966918826103,0.0,0.0,0.0,0.0,16810.0,27251.0,32373.0,15912.0,0.3838396966457367,-0.11181884526378862,-0.6197421249190986,-0.01759114934604409,0.030364571139216423,-0.24025481939315796,0.0590713731944561
72,5,0.00039452858618460596,0.00040662247920408845,-6.53061069897376e-05,0.02062970958650112,-0.04212843254208565,-0.009734808467328548,-0.022715607658028603,0.5060322284698486,0.004617046099156141,0.00480582844465971,0.016120262444019318,0.020192937925457954,0.0,0.0,0.0,0.04184793680906296,0.018910910934209824,-0.0,0.0,0.0,0.0,0.000905808643437922,-0.004999999888241291,0.0002616428828332573,17154.0,27160.0,32456.0,15558.0,0.05744216963648796,0.10186240822076797,0.1286306381225586,0.05109966918826103,0.0,0.0,0.0,0.0,16810.0,27251.0,32373.0,15912.0,0.3643452227115631,-0.07979150600248357,-0.6133158070388984,-0.006031330011743133,-0.0796719565987587,0.16036510467529297,0.026692671701312065
77,5,8.752205758355558e-05,0.000537786225322634,-0.0003844431776087731,-0.03679199889302254,-0.03100145421922207,0.04175874963402748,-0.022911343723535538,0.5075337290763855,0.005036910530179739,0.05206548422574997,-0.18492449820041656,-0.008104334585368633,0.0,0.0,0.0,0.03108573704957962,-0.03249812871217728,-0.0,0.0,0.0,0.0,0.002244170755147934,-0.004999999888241291,0.00012397480895742774,16126.0,27575.0,34748.0,20058.0,0.05333210527896881,0.10387899726629257,0.1409100741147995,0.06950574368238449,0.0,0.0,0.0,0.0,16363.0,27868.0,31799.0,16362.0,0.3652249276638031,-0.05824390707794127,-0.6002597944562649,-0.006130063942828481,0.13728362321853638,0.11943206191062927,-0.13282664120197296
82,5,0.0005761297070421278,-0.00010029575787484646,-3.550145265762694e-05,-0.03679199889302254,-0.03100145421922207,0.04175874963402748,-0.022911343723535538,0.5075337290763855,0.005036910530179739,0.05206548422574997,-0.18492449820041656,-0.008104334585368633,0.0,0.0,0.0,0.03029690869152546,-0.03197639063000679,-0.0,0.0,0.0,0.0,0.002244170755147934,-0.004999999888241291,0.00012397480895742774,16126.0,27575.0,34748.0,20058.0,0.05333210527896881,0.10387899726629257,0.1409100741147995,0.06950574368238449,0.0,0.0,0.0,0.0,16363.0,27868.0,31799.0,16362.0,0.36387985944747925,-0.14989426101776007,-0.6232575881385216,-0.021430722355040975,0.1345861405134201,0.11597393453121185,-0.12820939719676971
87,5,0.0004484632227104157,0.0002307732356712222,-0.00024229512200690806,-0.028910905122756958,-0.055650096386671066,0.04147873818874359,-0.022911343723535538,0.5075337290763855,0.005036910530179739,0.05206548422574997,-0.18492449820041656,-0.008104334585368633,0.0,0.0,0.0,0.05237753689289093,-0.023935429751873016,-0.0,0.0,0.0,0.0,0.0023612333461642265,-0.004999999888241291,8.570399586460553e-06,14319.0,27663.0,34369.0,21305.0,0.04631778225302696,0.10430749505758286,0.1388518512248993,0.07489035278558731,0.0,0.0,0.0,0.0,16219.0,28091.0,34283.0,19972.0,0.38171327114105225,-0.1114528028217074,-0.6058554023305478,-0.010119489142073237,0.10559042543172836,0.21023693680763245,-0.1310214251279831
92,5,0.0004828243108931929,0.00017674302216619253,-0.00023583606525789946,-0.003862718353047967,-0.00913079921156168,0.011539354920387268,-0.022911343723535538,0.5075337290763855,0.005036910530179739,0.05206548422574997,-0.18492449820041656,-0.008104334585368633,0.0,0.0,0.0,0.009955435991287231,-0.002910704119130969,-0.0,0.0,0.0,0.0,0.0023612333461642265,-0.004999999888241291,8.570399586460553e-06,14319.0,27663.0,34369.0,21305.0,0.04631778225302696,0.10430749505758286,0.1388518512248993,0.07489035278558731,0.0,0.0,0.0,0.0,16219.0,28091.0,34283.0,19972.0,0.33905184268951416,-0.1250135263734377,-0.6118646745177364,-0.01426913909566327,0.011421634815633297,0.03551487624645233,-0.04153226688504219
97,5,0.0004372781259007752,7.241486309794709e-05,-0.0001419653563061729,-0.007535282522439957,0.011866701766848564,-0.009680093266069889,-0.021874280646443367,0.5058476328849792,0.003921824507415295,0.21822766959667206,0.5115163922309875,-0.09013666212558746,0.0,0.0,0.0,-0.012269232422113419,-0.006463255733251572,-0.0,0.0,0.0,0.0,0.002795577747747302,-0.004999999888241291,6.343288259813562e-05,15203.0,29122.0,32977.0,20462.0,0.04971439391374588,0.11151699721813202,0.1313859522342682,0.07123734056949615,0.0,0.0,0.0,0.0,14392.0,26465.0,35429.0,21241.0,0.33906620740890503,-0.12450080114797146,-0.6085359888609153,-0.013468846691263879,0.02536151371896267,-0.04377032071352005,0.02287488430738449
102,5,0.000335308606736362,0.0004001455963589251,-0.00032311692484654486,-0.016536317765712738,-0.04232229292392731,0.022457189857959747,-0.022377129644155502,0.5004003643989563,0.00407183263450861,-0.26752009987831116,0.31820520758628845,0.07187822461128235,0.0,0.0,0.0,0.04235982522368431,-0.014221493154764175,-0.0,0.0,0.0,0.0,0.0023939190432429314,-0.004999999888241291,0.0002247783268103376,17070.0,27065.0,32546.0,15649.0,0.05710163712501526,0.10140340030193329,0.1291053146123886,0.05145586282014847,0.0,0.0,0.0,0.0,15718.0,29104.0,32994.0,19993.0,0.3621288239955902,-0.10165386866987011,-0.5959932369370561,-0.009490929510030359,0.05955062806606293,0.16133823990821838,-0.07772660255432129
109,6,0.000280938227660954,0.0004353407130111009,-0.00038655451498925686,-0.01257274765521288,-0.01762400195002556,0.015618420206010342,-0.022377129644155502,0.5004003643989563,0.00407183263450861,-0.26752009987831116,0.31820520758628845,0.07187822461128235,0.0,0.0,0.0,0.019260866567492485,-0.011387565173208714,-0.0,0.0,0.0,0.0,0.0023939190432429314,-0.004999999888241291,0.0002247783268103376,17070.0,27065.0,32546.0,15649.0,0.05710163712501526,0.10140340030193329,0.1291053146123886,0.05145586282014847,0.0,0.0,0.0,0.0,15718.0,29104.0,32994.0,19993.0,0.3391191363334656,-0.09981466891582587,-0.5920841647988162,-0.010422207315054865,0.04498535394668579,0.06891446560621262,-0.05817960202693939
114,5,0.0001776418212102726,0.00018404392176307738,-0.00033799948869273067,-0.018233321607112885,0.029894348233938217,-0.0021121767349541187,-0.022377129644155502,0.5004003643989563,0.00407183263450861,-0.26752009987831116,0.31820520758628845,0.07187822461128235,0.0,0.0,0.0,-0.030154844745993614,-0.016546960920095444,-0.0,0.0,0.0,0.0,0.0023939190432429314,-0.004999999888241291,0.0002247783268103376,17070.0,27065.0,32546.0,15649.0,0.05710163712501526,0.10140340030193329,0.1291053146123886,0.05145586282014847,0.0,0.0,0.0,0.0,15718.0,29104.0,32994.0,19993.0,0.348544180393219,-0.11994152652507478,-0.59977650252178,-0.014787575890547043,0.06671831011772156,-0.11056531220674515,-0.0056957583874464035
119,5,0.00018739541701506823,0.0005086793098598719,-0.0005246899672783911,-0.0041044931858778,-0.036480650305747986,0.025503015145659447,-0.02628394402563572,0.4987809658050537,0.007180991116911173,0.08388950675725937,0.5037654638290405,0.4173109829425812,0.0,0.0,0.0,0.03783251717686653,-0.003347993828356266,-0.0,0.0,0.0,0.0,0.0011051991023123264,-0.004999999888241291,0.0008082407875917852,21955.0,19938.0,40407.0,13263.0,0.07774915546178818,0.06899169087409973,0.17304803431034088,0.042339351028203964,0.0,0.0,0.0,0.0,20386.0,22794.0,38260.0,15064.0,0.35229507088661194,-0.08019085235500803,-0.5849559926337935,-0.002958576804512556,0.01364133320748806,0.14019358158111572,-0.09284432232379913
124,5,0.00011687894584611058,-3.734449273906648e-05,-0.00023995245283003896,-0.011103653348982334,0.06549913436174393,-0.03221234679222107,-0.02628394402563572,0.4987809658050537,0.007180991116911173,0.08388950675725937,0.5037654638290405,0.4173109829425812,0.0,0.0,0.0,-0.060456667095422745,-0.009033378213644028,-0.0,0.0,0.0,0.0,0.0011051991023123264,-0.004999999888241291,0.0008082407875917852,21955.0,19938.0,40407.0,13263.0,0.07774915546178818,0.06899169087409973,0.17304803431034088,0.042339351028203964,0.0,0.0,0.0,0.0,20386.0,22794.0,38260.0,15064.0,0.3857547342777252,-0.1235571333792514,-0.5970633884767464,-0.01582333404064023,0.04025740176439285,-0.2451842576265335,0.08370821177959442
129,5,6.838981789769605e-05,0.0003772836644202471,-0.0004102704697288573,-0.010119574144482613,-0.03839820250868797,0.014180819503962994,-0.02628394402563572,0.4987809658050537,0.007180991116911173,0.08388950675725937,0.5037654638290405,0.4173109829425812,0.0,0.0,0.0,0.039223670959472656,-0.00895247608423233,-0.0,0.0,0.0,0.0,0.0011051991023123264,-0.004999999888241291,0.0008082407875917852,21955.0,19938.0,40407.0,13263.0,0.07774915546178818,0.06899169087409973,0.17304803431034088,0.042339351028203964,0.0,0.0,0.0,0.0,20386.0,22794.0,38260.0,15064.0,0.35559654235839844,-0.07903323815923331,-0.5815192478106185,-0.0043685807532719105,0.036816760897636414,0.1467069685459137,-0.058622460812330246
134,5,-3.81559002562426e-05,0.00016976549522951245,-0.00028697270317934453,-0.017952272668480873,0.017533082515001297,-0.013007442466914654,-0.025445031002163887,0.4932820796966553,0.0072376723401248455,0.0013078564079478383,0.255989670753479,-0.12011498212814331,0.0,0.0,0.0,-0.01796775497496128,-0.017012568190693855,-0.0,0.0,0.0,0.0,0.002603670582175255,-0.004999999888241291,-1.5389665350085124e-05,13410.0,27779.0,34057.0,21831.0,0.04288705438375473,0.10487452894449234,0.13716518878936768,0.07720144838094711,0.0,0.0,0.0,0.0,14749.0,25806.0,34900.0,19517.0,0.33913740515708923,-0.10851200455393574,-0.5970061625889187,-0.015414758888184228,0.06676375865936279,-0.06411086022853851,0.02359074167907238
139,5,-3.7144858652027324e-05,0.0003540267061907798,-0.0003212893789168447,-0.005244135856628418,-0.020536642521619797,0.0009021015139296651,-0.025445031002163887,0.4932820796966553,0.0072376723401248455,0.0013078564079478383,0.255989670753479,-0.12011498212814331,0.0,0.0,0.0,0.022336384281516075,-0.004869672004133463,-0.0,0.0,0.0,0.0,0.002603670582175255,-0.004999999888241291,-1.5389665350085124e-05,13410.0,27779.0,34057.0,21831.0,0.04288705438375473,0.10487452894449234,0.13716518878936768,0.07720144838094711,0.0,0.0,0.0,0.0,14749.0,25806.0,34900.0,19517.0,0.3391222059726715,-0.092261420739094,-0.597656136434243,-0.011000671186995721,0.019108744338154793,0.07969187200069427,-0.01941569149494171
144,5,-5.581030927714892e-05,0.00039718952029943466,-0.00014933125930838287,-0.004186403937637806,-0.012203788384795189,-0.023803506046533585,-0.026340005919337273,0.4955860376358032,0.007619359530508518,-0.0917193666100502,-0.3377237617969513,0.061790306121110916,0.0,0.0,0.0,0.013670005835592747,-0.0038874594029039145,-0.0,0.0,0.0,0.0,0.003063138108700514,-0.004999999888241291,0.0002932758943643421,15573.0,24361.0,36125.0,18755.0,0.0511590838432312,0.0886244997382164,0.1484944373369217,0.06400864571332932,0.0,0.0,0.0,0.0,16391.0,24655.0,36179.0,18378.0,0.33906784653663635,-0.09952630257567754,-0.6055049268162964,-0.013727200646943133,0.0152545515447855,0.04876811429858208,0.05609048902988434
149,5,-4.4160122342873365e-05,-6.960990140214562e-05,-1.2606183190655429e-05,0.0003751047479454428,0.06169078126549721,-0.02628256194293499,-0.026340005919337273,0.4955860376358032,0.007619359530508518,-0.0917193666100502,-0.3377237617969513,0.061790306121110916,0.0,0.0,0.0,-0.05771782249212265,0.00043351264321245253,-0.0,0.0,0.0,0.0,0.003063138108700514,-0.004999999888241291,0.0002932758943643421,15573.0,24361.0,36125.0,18755.0,0.0511590838432312,0.0886244997382164,0.1484944373369217,0.06400864571332932,0.0,0.0,0.0,0.0,16391.0,24655.0,36179.0,18378.0,0.380384624004364,-0.12550765183138285,-0.6108583940139594,-0.02206733516092521,-0.0019054044969379902,-0.23083491623401642,0.06514515727758408
154,5,-0.00039501258288510144,0.0001220003396156244,-0.0002497683453839272,-0.049006812274456024,-0.008318198844790459,0.025317933410406113,-0.025225501507520676,0.4990178942680359,0.0063977790996432304,-0.04738806188106537,-0.3836389482021332,-0.19963626563549042,0.0,0.0,0.0,0.00847879983484745,-0.043611377477645874,-0.0,0.0,0.0,0.0,0.0024991710670292377,-0.004999999888241291,-7.257574907271191e-05,11598.0,28112.0,33143.0,22591.0,0.03624710440635681,0.10650894045829773,0.13226784765720367,0.08057846128940582,0.0,0.0,0.0,0.0,13075.0,27157.0,32467.0,19455.0,0.3671114146709442,-0.08826926486095717,-0.5926610257193659,-0.01722458999665861,0.18523883819580078,0.032750751823186874,-0.0935184508562088
160,5,-0.00021768000442534685,0.0002666505752131343,-4.474524757824838e-05,0.010124517604708672,-0.022746490314602852,-0.021107852458953857,-0.025225501507520676,0.4990178942680359,0.0063977790996432304,-0.04738806188106537,-0.3836389482021332,-0.19963626563549042,0.0,0.0,0.0,0.024570800364017487,0.009538719430565834,-0.0,0.0,0.0,0.0,0.0024991710670292377,-0.004999999888241291,-7.257574907271191e-05,11598.0,28112.0,33143.0,22591.0,0.03624710440635681,0.10650894045829773,0.13226784765720367,0.08057846128940582,0.0,0.0,0.0,0.0,13075.0,27157.0,32467.0,19455.0,0.33915138244628906,-0.09558621388367272,-0.6068335640013258,-0.015785463282120788,-0.037430744618177414,0.08766970783472061,0.048344504088163376
165,5,-0.0005347791011445224,-0.000618636142462492,0.00021211084094829857,-0.04135651886463165,0.11711619049310684,-0.04229220747947693,-0.02490774169564247,0.5002442002296448,0.006168193183839321,0.04113433137536049,-0.31178081035614014,-0.05735882371664047,0.0,0.0,0.0,-0.09352512657642365,-0.03037988394498825,-0.0,0.0,0.0,0.0,0.0016015276778489351,-0.004999999888241291,0.00017171875515487045,14838.0,26646.0,32933.0,17853.0,0.048305220901966095,0.0993848517537117,0.13115188479423523,0.06028030067682266,0.0,0.0,0.0,0.0,21895.0,33993.0,29686.0,15720.0,0.44968166947364807,-0.15662905042646486,-0.6154629618893624,-0.037605606653559866,0.15740209817886353,-0.44164547324180603,0.11564691364765167
170,5,-0.00033001453266479075,-0.00011115966481156647,-5.2744376262126025e-06,0.01626008376479149,-0.03591184690594673,0.017746277153491974,-0.02490774169564247,0.5002442002296448,0.006168193183839321,0.04113433137536049,-0.31178081035614014,-0.05735882371664047,0.0,0.0,0.0,0.03618403151631355,0.01456177793443203,-0.0,0.0,0.0,0.0,0.0016015276778489351,-0.004999999888241291,0.00017171875515487045,14838.0,26646.0,32933.0,17853.0,0.048305220901966095,0.0993848517537117,0.13115188479423523,0.06028030067682266,0.0,0.0,0.0,0.0,21895.0,33993.0,29686.0,15720.0,0.35440221428871155,-0.12159942204371454,-0.606338808766427,-0.03441458472791262,-0.059688929468393326,0.13488969206809998,-0.06709881871938705
175,5,-0.0007424167706631124,2.073750329145696e-05,-7.000339974183589e-05,-0.05285828933119774,-0.02923915721476078,0.014385937713086605,-0.02313331700861454,0.5009163618087769,0.005508344154804945,-0.0737561583518982,-0.05840635672211647,-0.02319561317563057,0.0,0.0,0.0,0.027653176337480545,-0.04591921716928482,-0.0,0.0,0.0,0.0,-0.001873996458016336,-0.004999999888241291,0.00017274882702622563,22391.0,32311.0,31437.0,15156.0,0.07968523353338242,0.12786580622196198,0.12330257147550583,0.04953193664550781,0.0,0.0,0.0,0.0,20846.0,32744.0,30995.0,16876.0,0.38009166717529297,-0.10016777682301276,-0.5955452539745187,-0.023468086771270342,0.20186005532741547,0.11057383567094803,-0.05804966017603874
180,5,-0.0009129415266215801,0.0004355015989858657,-0.0002040429535554722,-0.039730947464704514,-0.06683871895074844,0.02308131940662861,-0.02313331700861454,0.5009163618087769,0.005508344154804945,-0.0737561583518982,-0.05840635672211647,-0.02319561317563057,0.0,0.0,0.0,0.060331713408231735,-0.033241964876651764,-0.0,0.0,0.0,0.0,-0.001873996458016336,-0.004999999888241291,0.00017274882702622563,22391.0,32311.0,31437.0,15156.0,0.07968523353338242,0.12786580622196198,0.12330257147550583,0.04953193664550781,0.0,0.0,0.0,0.0,20846.0,32744.0,30995.0,16876.0,0.4002266526222229,-0.06592366842552788,-0.581216466666411,-0.01535676069145149,0.15367671847343445,0.2538575828075409,-0.08631935715675354
185,5,-0.00047832404379732907,0.0006341259577311575,0.00019536037871148437,0.012792037799954414,0.0016891240375116467,-0.025839824229478836,-0.023108063265681267,0.49909985065460205,0.0058011943474411964,0.23601223528385162,0.6070004105567932,0.17383910715579987,0.0,0.0,0.0,-0.0005502691492438316,0.011607847176492214,-0.0,0.0,0.0,0.0,0.0032495222985744476,-0.004999999888241291,8.222831093007699e-05,18165.0,24938.0,34442.0,14508.0,0.061562057584524155,0.09130250662565231,0.1392488181591034,0.04703805595636368,0.0,0.0,0.0,0.0,18732.0,24524.0,34796.0,13890.0,0.33905649185180664,-0.08480178219634509,-0.6040637840761428,-0.007321816680682959,-0.04555123671889305,-0.001963092479854822,0.0660652369260788
190,5,-0.0007043533260002732,0.0009343936108052731,-0.0003821436548605561,-0.027806483209133148,-0.041530732065439224,0.07309862226247787,-0.023108063265681267,0.49909985065460205,0.0058011943474411964,0.23601223528385162,0.6070004105567932,0.17383910715579987,0.0,0.0,0.0,0.04169321060180664,-0.02530832216143608,-0.0,0.0,0.0,0.0,0.0032495222985744476,-0.004999999888241291,8.222831093007699e-05,18165.0,24938.0,34442.0,14508.0,0.061562057584524155,0.09130250662565231,0.1392488181591034,0.04703805595636368,0.0,0.0,0.0,0.0,18732.0,24524.0,34796.0,13890.0,0.36919140815734863,-0.06827576376497817,-0.5723028961237684,0.0019951580874454796,0.10803817957639694,0.16189780831336975,-0.23878665268421173
195,5,-0.0008424446568824351,0.0008487552404403687,5.0499475037213415e-05,-0.027674732729792595,-0.0004698532575275749,-0.03864045441150665,-0.02452240139245987,0.4903973340988159,0.006147992797195911,-0.2727305591106415,0.8127998113632202,-0.03851662948727608,0.0,0.0,0.0,0.0021331130992621183,-0.027415290474891663,-0.0,0.0,0.0,0.0,0.0034403044264763594,-0.004999999888241291,0.0002818245848175138,17718.0,26413.0,38658.0,22332.0,0.05972963199019432,0.09826517850160599,0.16283732652664185,0.07942164689302444,0.0,0.0,0.0,0.0,14424.0,25287.0,35537.0,20058.0,0.3419782817363739,-0.06653911769158537,-0.5961928444427667,-0.002533295620041126,0.10849938541650772,0.007676752284169197,0.10213977098464966
200,5,-0.0009961362229660153,0.0006686100969091058,-2.6435942345415242e-05,-0.029819244518876076,0.02507936581969261,-0.0008211777312681079,-0.02452240139245987,0.4903973340988159,0.006147992797195911,-0.2727305591106415,0.8127998113632202,-0.03851662948727608,0.0,0.0,0.0,-0.023893075063824654,-0.028647609055042267,-0.0,0.0,0.0,0.0,0.0034403044264763594,-0.004999999888241291,0.0002818245848175138,17718.0,26413.0,38658.0,22332.0,0.05972963199019432,0.09826517850160599,0.16283732652664185,0.07942164689302444,0.0,0.0,0.0,0.0,14424.0,25287.0,35537.0,20058.0,0.35434508323669434,-0.0854423617397646,-0.6002413961391346,-0.007229298538576244,0.11744187027215958,-0.08906995505094528,-0.012425498105585575
205,5,-0.0013502632500603795,0.0010245138546451926,-0.00016673101345077157,-0.05852355435490608,-0.042302705347537994,0.019394956529140472,-0.02452240139245987,0.4903973340988159,0.006147992797195911,-0.2727305591106415,0.8127998113632202,-0.03851662948727608,0.0,0.0,0.0,0.03982400894165039,-0.04968719556927681,-0.0,0.0,0.0,0.0,0.0034403044264763594,-0.004999999888241291,0.0002818245848175138,17718.0,26413.0,38658.0,22332.0,0.05972963199019432,0.09826517850160599,0.16283732652664185,0.07942164689302444,0.0,0.0,0.0,0.0,14424.0,25287.0,35537.0,20058.0,0.3955211937427521,-0.05601839741162755,-0.5807650996489229,-0.0020073405407693683,0.22718580067157745,0.16567525267601013,-0.07526327669620514
210,5,-0.0013502632500603795,0.0010245138546451926,-0.00016673101345077157,-0.05852355435490608,-0.042302705347537994,0.019394956529140472,-0.024886107072234154,0.4866549074649811,0.006450123619288206,0.03208732232451439,0.14321966469287872,0.06321162730455399,0.0,0.0,0.0,0.03985770791769028,-0.04972725361585617,-0.0,0.0,0.0,0.0,0.0014005493139848113,-0.004999999888241291,0.0004673725925385952,17718.0,26413.0,38658.0,22332.0,0.05972963199019432,0.09826517850160599,0.16283732652664185,0.07942164689302444,0.0,0.0,0.0,0.0,18330.0,26164.0,38863.0,21764.0,0.3956093192100525,-0.05601839741162755,-0.5807650996489229,-0.0020073405407693683,0.2274187207221985,0.16585198044776917,-0.07574262470006943
215,5,-0.0013704670127481222,0.0009376538218930364,-2.6244928449159488e-05,-0.020385589450597763,-0.0005304155638441443,-0.013849564827978611,-0.024886107072234154,0.4866549074649811,0.006450123619288206,0.03208732232451439,0.14321966469287872,0.06321162730455399,0.0,0.0,0.0,0.0024860305711627007,-0.021582014858722687,-0.0,0.0,0.0,0.0,0.0014005493139848113,-0.004999999888241291,0.0004673725925385952,17718.0,26413.0,38658.0,22332.0,0.05972963199019432,0.09826517850160599,0.16283732652664185,0.07942164689302444,0.0,0.0,0.0,0.0,18330.0,26164.0,38863.0,21764.0,0.33911362290382385,-0.06494819199661914,-0.5844670896789061,-0.004054779327889301,0.08470097929239273,0.008870430290699005,0.025728140026330948
221,5,-0.0017979376716539264,0.0009431848884560168,-5.213924669078551e-05,-0.04517829790711403,4.7922258090693504e-05,-0.009280549362301826,-0.0259564071893692,0.4860343337059021,0.008106186054646969,-0.027769219130277634,0.2595592141151428,0.1160324215888977,0.0,0.0,0.0,0.001807033666409552,-0.042729850858449936,-0.0,0.0,0.0,0.0,0.002673601731657982,-0.004999999888241291,-0.00017578511324245483,12457.0,30835.0,34312.0,26236.0,0.03936372697353363,0.12019473314285278,0.13854146003723145,0.09742125868797302,0.0,0.0,0.0,0.0,17646.0,26103.0,33685.0,15421.0,0.36472374200820923,-0.07987611119154889,-0.5860015454825139,-0.011096911827460747,0.18032203614711761,0.006934633944183588,0.011536901816725731
226,5,-0.0017799995839595795,0.0003153849102091044,4.4221316784387454e-05,-0.011042166501283646,0.0879063755273819,-0.016274644061923027,-0.0259564071893692,0.4860343337059021,0.008106186054646969,-0.027769219130277634,0.2595592141151428,0.1160324215888977,0.0,0.0,0.0,-0.07561193406581879,-0.011086381040513515,-0.0,0.0,0.0,0.0,0.002673601731657982,-0.004999999888241291,-0.00017578511324245483,12457.0,30835.0,34312.0,26236.0,0.03936372697353363,0.12019473314285278,0.13854146003723145,0.09742125868797302,0.0,0.0,0.0,0.0,17646.0,26103.0,33685.0,15421.0,0.41010981798171997,-0.12025261257957494,-0.6023290460776314,-0.020420192476011328,0.05247431620955467,-0.32585588097572327,0.03385261073708534
231,5,-0.00209047575481236,0.0006136168958619237,-2.6988387617166154e-05,-0.04677930474281311,-0.015380561351776123,0.0050869653932750225,-0.025224585086107254,0.48322680592536926,0.006283375900238752,-0.21777842938899994,0.0017220400040969253,-0.2775307595729828,0.0,0.0,0.0,0.01621037907898426,-0.043996986001729965,-0.0,0.0,0.0,0.0,0.0013730328064411879,-0.004999999888241291,0.00036646847729571164,17037.0,25889.0,33610.0,15689.0,0.0569695383310318,0.09577453136444092,0.13475792109966278,0.05161169171333313,0.0,0.0,0.0,0.0,13576.0,29171.0,35852.0,25360.0,0.37045472860336304,-0.09798101585171014,-0.5896541421636223,-0.015930152783115853,0.18856468796730042,0.06318408995866776,-0.031193166971206665
236,5,-0.0023536288645118475,0.000615609809756279,-4.641843588615302e-06,-0.050875224173069,-0.004893175791949034,-0.0016024265205487609,-0.025224585086107254,0.48322680592536926,0.006283375900238752,-0.21777842938899994,0.0017220400040969253,-0.2775307595729828,0.0,0.0,0.0,0.0061029368080198765,-0.04765991494059563,-0.0,0.0,0.0,0.0,0.0013730328064411879,-0.004999999888241291,0.00036646847729571164,17037.0,25889.0,33610.0,15689.0,0.0569695383310318,0.09577453136444092,0.13475792109966278,0.05161169171333313,0.0,0.0,0.0,0.0,13576.0,29171.0,35852.0,25360.0,0.37297600507736206,-0.09799554335201338,-0.5902668467247508,-0.016688745469132796,0.20565907657146454,0.023950230330228806,-0.010843254625797272
241,5,-0.0026443228125572205,0.0004628507304005325,7.38805829314515e-05,-0.05595972388982773,0.01991831511259079,-0.011473868042230606,-0.026241153478622437,0.48315081000328064,0.005546801257878542,0.03247496485710144,-0.28458985686302185,-0.03965291753411293,0.0,0.0,0.0,-0.017357569187879562,-0.05130123719573021,-0.0,0.0,0.0,0.0,-0.0022326537873595953,-0.004999999888241291,7.258339610416442e-05,24355.0,35294.0,31210.0,16666.0,0.08859864622354507,0.14390119910240173,0.12212911993265152,0.055480457842350006,0.0,0.0,0.0,0.0,15288.0,27095.0,32523.0,17424.0,0.3822646141052246,-0.10727413655914063,-0.5933821115158935,-0.02106480889367888,0.22684532403945923,-0.06980923563241959,0.020002981647849083
246,5,-0.0028029545210301876,0.0004976352211087942,-0.00037690522731281817,-0.03899635747075081,0.0011056645307689905,0.05966785177588463,-0.026241153478622437,0.48315081000328064,0.005546801257878542,0.03247496485710144,-0.28458985686302185,-0.03965291753411293,0.0,0.0,0.0,0.00026219282881356776,-0.039512865245342255,-0.0,0.0,0.0,0.0,-0.0022326537873595953,-0.004999999888241291,7.258339610416442e-05,24355.0,35294.0,31210.0,16666.0,0.08859864622354507,0.14390119910240173,0.12212911993265152,0.055480457842350006,0.0,0.0,0.0,0.0,15288.0,27095.0,32523.0,17424.0,0.35971635580062866,-0.13565355953545397,-0.5826555976869908,-0.03113464157728626,0.16446802020072937,0.0009931150125339627,-0.20010603964328766
251,5,-0.0030992093961685896,0.0006015866529196501,-0.000532347708940506,-0.053174592554569244,-0.014221503399312496,0.039662301540374756,-0.026653701439499855,0.4861566424369812,0.006435404531657696,0.012852519750595093,-0.26029443740844727,0.01969970390200615,0.0,0.0,0.0,0.014826765283942223,-0.05013575404882431,-0.0,0.0,0.0,0.0,0.0013670256594195962,-0.004999999888241291,0.00036458438262343407,19074.0,27802.0,35036.0,17828.0,0.06534166634082794,0.10498855262994766,0.14248396456241608,0.06017964333295822,0.0,0.0,0.0,0.0,25247.0,34011.0,32548.0,15617.0,0.37936463952064514,-0.1381263142033914,-0.5832727835587704,-0.03419831891631289,0.22002404928207397,0.05918096750974655,-0.14429372549057007
256,5,-0.003512274706736207,0.0002779974020086229,-0.00037492086994461715,-0.07378150522708893,0.04103604704141617,-0.01014106348156929,-0.026653701439499855,0.4861566424369812,0.006435404531657696,0.012852519750595093,-0.26029443740844727,0.01969970390200615,0.0,0.0,0.0,-0.034602198749780655,-0.06305097788572311,-0.0,0.0,0.0,0.0,0.0013670256594195962,-0.004999999888241291,0.00036458438262343407,19074.0,27802.0,35036.0,17828.0,0.06534166634082794,0.10498855262994766,0.14248396456241608,0.06017964333295822,0.0,0.0,0.0,0.0,25247.0,34011.0,32548.0,15617.0,0.4114517867565155,-0.15059587167815378,-0.5843300245980951,-0.03765153710553923,0.29988545179367065,-0.14976036548614502,0.006642684806138277
261,5,-0.003840564051643014,0.0007467928808182478,-0.00034300240804441273,-0.06809499114751816,-0.05332055315375328,-0.007510904222726822,-0.0272379070520401,0.4889056980609894,0.006326222326606512,-0.12153028696775436,-0.44310662150382996,0.1367921680212021,0.0,0.0,0.0,0.04731512442231178,-0.05858737230300903,-0.0,0.0,0.0,0.0,0.0015129412058740854,-0.004999999888241291,0.00016009126557037234,18105.0,26595.0,34894.0,17188.0,0.06131506711244583,0.09913669526576996,0.1417083442211151,0.05757875367999077,0.0,0.0,0.0,0.0,17612.0,29265.0,33700.0,19285.0,0.4155369997024536,-0.11989430613134623,-0.5886252665221096,-0.014363806270268209,0.2813028395175934,0.20676986873149872,-0.00233250018209219
266,5,-0.004146483261138201,0.0006490113446488976,-0.00029803509823977947,-0.06325717270374298,-0.002306754235178232,-0.008548695594072342,-0.0272379070520401,0.4889056980609894,0.006326222326606512,-0.12153028696775436,-0.44310662150382996,0.1367921680212021,0.0,0.0,0.0,0.003647555597126484,-0.05866510048508644,-0.0,0.0,0.0,0.0,0.0015129412058740854,-0.004999999888241291,0.00016009126557037234,18105.0,26595.0,34894.0,17188.0,0.06131506711244583,0.09913669526576996,0.1417083442211151,0.05757875367999077,0.0,0.0,0.0,0.0,17612.0,29265.0,33700.0,19285.0,0.3908095955848694,-0.11869721262457807,-0.5877572640074202,-0.014626114036151026,0.2652035057544708,0.014998899772763252,0.0009304748964495957
271,5,-0.004506317898631096,0.0007318154093809426,-0.00038786546792834997,-0.06935397535562515,-0.012284597381949425,0.010011643171310425,-0.0272888895124197,0.4914303123950958,0.007809902541339397,0.04645777866244316,-0.28970927000045776,-0.02438325248658657,0.0,0.0,0.0,0.012598645873367786,-0.06289901584386826,-0.0,0.0,0.0,0.0,0.0007528670248575509,-0.004999999888241291,0.0003393653023522347,23280.0,32358.0,34324.0,18050.0,0.0836794376373291,0.1281147599220276,0.1386052370071411,0.06108933687210083,0.0,0.0,0.0,0.0,23469.0,32245.0,34433.0,17841.0,0.39976730942726135,-0.12259046794672361,-0.5930455237949862,-0.017660004276658283,0.29082009196281433,0.052992694079875946,-0.057035379111766815
277,5,-0.004941659048199654,0.0008075104560703039,-0.00029418262420222163,-0.08175399899482727,-0.01428268477320671,-0.010112105868756771,-0.0272888895124197,0.4914303123950958,0.007809902541339397,0.04645777866244316,-0.28970927000045776,-0.02438325248658657,0.0,0.0,0.0,0.013992669060826302,-0.07103534042835236,-0.0,0.0,0.0,0.0,0.0007528670248575509,-0.004999999888241291,0.0003393653023522347,23280.0,32358.0,34324.0,18050.0,0.0836794376373291,0.1281147599220276,0.1386052370071411,0.06108933687210083,0.0,0.0,0.0,0.0,23469.0,32245.0,34433.0,17841.0,0.41453996300697327,-0.1224856923630016,-0.5954387214817772,-0.019934906384111765,0.3405073583126068,0.06103061884641647,0.0036136291455477476
282,5,-0.0053593250922858715,0.0008669568924233317,-0.00029837226611562073,-0.08299945294857025,-0.012607301585376263,-0.002447081496939063,-0.02604629658162594,0.494066447019577,0.007579577621072531,0.05969582870602608,-0.29287955164909363,-0.007856505922973156,0.0,0.0,0.0,0.012601083144545555,-0.07233497500419617,-0.0,0.0,0.0,0.0,-0.0007856249576434493,-0.004999999888241291,0.0001518322533229366,19917.0,29962.0,34706.0,19129.0,0.06890152394771576,0.11574401706457138,0.14068157970905304,0.06557285040616989,0.0,0.0,0.0,0.0,20749.0,28526.0,36014.0,18271.0,0.4165072441101074,-0.12102973405128241,-0.5937920137693267,-0.01820276925365327,0.34838056564331055,0.05522284284234047,-0.02034175582230091
287,5,-0.005601644981652498,0.0011859204387292266,-0.00042538365232758224,-0.05882460996508598,-0.04843709245324135,0.017047472298145294,-0.02604629658162594,0.494066447019577,0.007579577621072531,0.05969582870602608,-0.29287955164909363,-0.007856505922973156,0.0,0.0,0.0,0.012627891264855862,-0.0724850669503212,-0.0,0.0,0.0,0.0,-0.0007856249576434493,-0.004999999888241291,0.0001518322533229366,19917.0,29962.0,34706.0,19129.0,0.06890152394771576,0.11574401706457138,0.14068157970905304,0.06557285040616989,0.0,0.0,0.0,0.0,20749.0,28526.0,36014.0,18271.0,0.4078879654407501,-0.08942420841969209,-0.5798189296284693,-0.005919092947828153,0.2600146532058716,0.19149409234523773,-0.08162142336368561
292,5,-0.006039159372448921,0.0010590942110866308,-0.00029057663050480187,-0.07889939844608307,0.0032245523761957884,-0.01375874225050211,-0.02621806599199772,0.49029016494750977,0.008748931810259819,0.017903244122862816,0.6227123737335205,0.1086382195353508,0.0,0.0,0.0,-0.0006283382535912097,-0.07101121544837952,-0.0,0.0,0.0,0.0,0.0011290021939203143,-0.004999999888241291,0.0004944252432323992,22872.0,27847.0,38705.0,18879.0,0.08184221386909485,0.10520516335964203,0.16311129927635193,0.06452304124832153,0.0,0.0,0.0,0.0,21185.0,30208.0,36632.0,20639.0,0.41242799162864685,-0.09544926463571868,-0.5751662804732949,-0.010295255893253804,0.33868518471717834,-0.002726686419919133,0.011578451842069626
297,5,-0.0062254746444523335,0.0009385796147398651,-0.00023809423146303743,-0.04975396394729614,0.017839403823018074,-0.011475159786641598,-0.02621806599199772,0.49029016494750977,0.008748931810259819,0.017903244122862816,0.6227123737335205,0.1086382195353508,0.0,0.0,0.0,-0.014408544637262821,-0.05229421332478523,-0.0,0.0,0.0,0.0,0.0011290021939203143,-0.004999999888241291,0.0004944252432323992,22872.0,27847.0,38705.0,18879.0,0.08184221386909485,0.10520516335964203,0.16311129927635193,0.06452304124832153,0.0,0.0,0.0,0.0,21185.0,30208.0,36632.0,20639.0,0.3826574683189392,-0.1219725430205877,-0.5890462024284925,-0.01205736262094607,0.2314843088388443,-0.05800829082727432,0.004661675542593002
302,5,-0.0069327810779213905,0.0008994145900942385,-0.00028896681033074856,-0.11394908279180527,0.010834924876689911,0.0036796152126044035,-0.02538125403225422,0.48042747378349304,0.007679782807826996,-0.20634061098098755,1.313594937324524,-0.08348231762647629,0.0,0.0,0.0,-0.006685227621346712,-0.09136256575584412,-0.0,0.0,0.0,0.0,0.0013072981964796782,-0.004999999888241291,0.00011180141882505268,18977.0,30344.0,36508.0,22781.0,0.06493386626243591,0.11768482625484467,0.1506316363811493,0.08143138885498047,0.0,0.0,0.0,0.0,16240.0,27854.0,38123.0,24502.0,0.45193883776664734,-0.11956498071359065,-0.5767562764520451,-0.013280801356889802,0.47722166776657104,-0.03178960084915161,-0.04227915406227112
307,5,-0.007440726272761822,0.0009349214960820973,-0.00034240007516928017,-0.1052970439195633,-0.0017204862087965012,0.008584539406001568,-0.02538125403225422,0.48042747378349304,0.007679782807826996,-0.20634061098098755,1.313594937324524,-0.08348231762647629,0.0,0.0,0.0,0.003351407591253519,-0.08747915923595428,-0.0,0.0,0.0,0.0,0.0013072981964796782,-0.004999999888241291,0.00011180141882505268,18977.0,30344.0,36508.0,22781.0,0.06493386626243591,0.11768482625484467,0.1506316363811493,0.08143138885498047,0.0,0.0,0.0,0.0,16240.0,27854.0,38123.0,24502.0,0.4438638687133789,-0.1050033870421544,-0.5738994552317724,-0.01355350193830148,0.44884350895881653,0.015653390437364578,-0.05868479236960411
312,5,-0.007783412467688322,0.00024737228523008525,-2.6857414923142642e-05,-0.0795651525259018,0.09574074298143387,-0.04160061106085777,-0.028581056743860245,0.46941623091697693,0.008685543201863766,-0.146786168217659,0.5500766634941101,0.20882731676101685,0.0,0.0,0.0,-0.07335738837718964,-0.06723852455615997,-0.0,0.0,0.0,0.0,0.003581051714718342,-0.004999999888241291,0.0004567517607938498,20301.0,24756.0,40662.0,20758.0,0.07054431736469269,0.09045419842004776,0.17455485463142395,0.07251352816820145,0.0,0.0,0.0,0.0,23303.0,25849.0,37606.0,14411.0,0.45846980810165405,-0.1603540739372685,-0.5910460666367401,-0.027913773374962005,0.3555644154548645,-0.35344600677490234,0.09562460333108902
317,5,-0.008187038823962212,0.0013380524469539523,-0.0002998394484166056,-0.0795651525259018,0.09574074298143387,-0.04160061106085777,-0.028581056743860245,0.46941623091697693,0.008685543201863766,-0.146786168217659,0.5500766634941101,0.20882731676101685,0.0,0.0,0.0,-0.07215927541255951,-0.06801560521125793,-0.0,0.0,0.0,0.0,0.003581051714718342,-0.004999999888241291,0.0004567517607938498,20301.0,24756.0,40662.0,20758.0,0.07054431736469269,0.09045419842004776,0.17455485463142395,0.07251352816820145,0.0,0.0,0.0,0.0,23303.0,25849.0,37606.0,14411.0,0.458040714263916,-0.07378979810804187,-0.5640195561651552,-0.004806234650830387,0.3593621551990509,-0.34736156463623047,0.09128975868225098
322,5,-0.008568783290684223,0.0014128409093245864,-0.00023800815688446164,-0.07731378823518753,0.018251841887831688,-0.021136563271284103,-0.02933356910943985,0.46418464183807373,0.009339599870145321,-0.10354846715927124,0.7414110898971558,-0.19027866423130035,0.0,0.0,0.0,-0.012763720005750656,-0.07325442880392075,-0.0,0.0,0.0,0.0,0.0006435156683437526,-0.004999999888241291,0.0005306201055645943,19354.0,29756.0,34156.0,18738.0,0.059491533786058426,0.12034185230731964,0.13206055760383606,0.0709596574306488,0.0,0.0,0.0,0.0,18415.0,34476.0,35239.0,26458.0,0.41822922229766846,-0.06961890065286733,-0.5643189538427645,-0.0041608485528590216,0.35425063967704773,-0.056165460497140884,0.0300847627222538
328,5,-0.008910117670893669,0.0013490358833223581,-4.213908323436044e-05,-0.07098092138767242,0.014408256858587265,-0.03376263752579689,-0.02933356910943985,0.46418464183807373,0.009339599870145321,-0.10354846715927124,0.7414110898971558,-0.19027866423130035,0.0,0.0,0.0,-0.009645219892263412,-0.07017313688993454,-0.0,0.0,0.0,0.0,0.0006435156683437526,-0.004999999888241291,0.0005306201055645943,19354.0,29756.0,34156.0,18738.0,0.059491533786058426,0.12034185230731964,0.13206055760383606,0.0709596574306488,0.0,0.0,0.0,0.0,18415.0,34476.0,35239.0,26458.0,0.41189292073249817,-0.08039102709742595,-0.561033603427762,-0.011526933533935845,0.3342582881450653,-0.0417984277009964,0.070180244743824
333,5,-0.009480844251811504,0.001306160818785429,1.97367317014141e-05,-0.10119596123695374,0.010324976406991482,-0.018791405484080315,-0.03029252588748932,0.4609901010990143,0.006685991771519184,-0.32357287406921387,0.11588830500841141,-0.06013486161828041,0.0,0.0,0.0,-0.005665792617946863,-0.08790094405412674,-0.0,0.0,0.0,0.0,0.002694381633773446,-0.004999999888241291,-0.00013797380961477757,19534.0,31554.0,38010.0,25472.0,0.06727808713912964,0.12390941381454468,0.1591212898492813,0.09380139410495758,0.0,0.0,0.0,0.0,26143.0,35555.0,35446.0,20441.0,0.4448956847190857,-0.07786070011428978,-0.5547689490745271,-0.008259286043770438,0.45203453302383423,-0.026522185653448105,0.026104316115379333
338,5,-0.00972618069499731,0.0008022045367397368,0.0004062918887939304,-0.06470593065023422,0.07365137338638306,-0.05975514277815819,-0.03029252588748932,0.4609901010990143,0.006685991771519184,-0.32357287406921387,0.11588830500841141,-0.06013486161828041,0.0,0.0,0.0,-0.05831968039274216,-0.06355398893356323,-0.0,0.0,0.0,0.0,0.002694381633773446,-0.004999999888241291,-0.00013797380961477757,19534.0,31554.0,38010.0,25472.0,0.06727808713912964,0.12390941381454468,0.1591212898492813,0.09380139410495758,0.0,0.0,0.0,0.0,26143.0,35555.0,35446.0,20441.0,0.434606671333313,-0.12411481881668446,-0.5721921892979813,-0.020518967882482152,0.3189414441585541,-0.26648232340812683,0.15540777146816254
343,5,-0.01025601476430893,0.0012474030954763293,0.00014798465417698026,-0.09358853846788406,-0.04023239016532898,0.018236467614769936,-0.03029252588748932,0.4609901010990143,0.006685991771519184,-0.32357287406921387,0.11588830500841141,-0.06013486161828041,0.0,0.0,0.0,0.03467436879873276,-0.08344654738903046,-0.0,0.0,0.0,0.0,0.002694381633773446,-0.004999999888241291,-0.00013797380961477757,19534.0,31554.0,38010.0,25472.0,0.06727808713912964,0.12390941381454468,0.1591212898492813,0.09380139410495758,0.0,0.0,0.0,0.0,26143.0,35555.0,35446.0,20441.0,0.4472089409828186,-0.09074798587073013,-0.5562396743457769,-0.01695760380299528,0.43116137385368347,0.16311554610729218,-0.08178326487541199
348,5,-0.010672048665583134,0.0013816680293530226,0.00026084852288477123,-0.08632132411003113,-0.03086680918931961,-0.010329999960958958,-0.029594043269753456,0.457085520029068,0.0036736594047397375,0.09767771512269974,0.5603176355361938,-0.5031986236572266,0.0,0.0,0.0,0.027988972142338753,-0.08061914145946503,-0.0,0.0,0.0,0.0,0.0014743056381121278,-0.004999999888241291,-0.0007848568493500352,21552.0,41280.0,29187.0,25119.0,0.07597564905881882,0.17823436856269836,0.1118406429886818,0.09214814752340317,0.0,0.0,0.0,0.0,18728.0,42888.0,27215.0,27647.0,0.43798530101776123,-0.08530720128539149,-0.56316284464381,-0.01624539694100565,0.4080781042575836,0.12896256148815155,0.006077380385249853
353,5,-0.011116145178675652,0.0013352609239518642,0.00030514944228343666,-0.0880698636174202,-0.002763043623417616,-0.00930112786591053,-0.029594043269753456,0.457085520029068,0.0036736594047397375,0.09767771512269974,0.5603176355361938,-0.5031986236572266,0.0,0.0,0.0,0.005140801426023245,-0.08319622278213501,-0.0,0.0,0.0,0.0,0.0014743056381121278,-0.004999999888241291,-0.0007848568493500352,21552.0,41280.0,29187.0,25119.0,0.07597564905881882,0.17823436856269836,0.1118406429886818,0.09214814752340317,0.0,0.0,0.0,0.0,18728.0,42888.0,27215.0,27647.0,0.43561604619026184,-0.09448191705682873,-0.5688471896969329,-0.018280037672911885,0.41898593306541443,0.023564482107758522,0.004436839837580919
358,5,-0.01168391015380621,0.0010243585566058755,0.0001694245293037966,-0.10590813308954239,0.042697418481111526,0.016211148351430893,-0.027892736718058586,0.45447179675102234,-0.0014487768057733774,-0.2682930529117584,0.0346023365855217,-0.2852162718772888,0.0,0.0,0.0,-0.03056957572698593,-0.0921008512377739,-0.0,0.0,0.0,0.0,0.0034211245365440845,-0.004999999888241291,-1.3002804735151585e-05,15005.0,36868.0,32861.0,29322.0,0.048949453979730606,0.1526477336883545,0.13076983392238617,0.11251690983772278,0.0,0.0,0.0,0.0,17587.0,34466.0,35320.0,27244.0,0.46143221855163574,-0.12856467555026996,-0.570313005311453,-0.02698734583916493,0.49095389246940613,-0.1483883410692215,-0.07324669510126114
363,5,-0.01206915732473135,0.0013526283437386155,8.214304398279637e-05,-0.08570694923400879,-0.033148545771837234,0.01708275079727173,-0.027892736718058586,0.45447179675102234,-0.0014487768057733774,-0.2682930529117584,0.0346023365855217,-0.2852162718772888,0.0,0.0,0.0,0.029698709025979042,-0.08216708898544312,-0.0,0.0,0.0,0.0,0.0034211245365440845,-0.004999999888241291,-1.3002804735151585e-05,15005.0,36868.0,32861.0,29322.0,0.048949453979730606,0.1526477336883545,0.13076983392238617,0.11251690983772278,0.0,0.0,0.0,0.0,17587.0,34466.0,35320.0,27244.0,0.44181567430496216,-0.10747767856287138,-0.567484688872828,-0.024797432268407672,0.4195125102996826,0.13803453743457794,-0.07665436714887619
368,5,-0.01227758638560772,0.00122547906357795,0.00013128819409757853,-0.05489218235015869,0.007856328040361404,-0.0017554945079609752,-0.03048102743923664,0.4566538333892822,-0.0022765123285353184,-0.08922469615936279,-0.1267436444759369,-0.03319454565644264,0.0,0.0,0.0,-0.0038155028596520424,-0.06586714088916779,-0.0,0.0,0.0,0.0,0.001875819987617433,-0.004999999888241291,-0.0008607907220721245,17863.0,31754.0,38101.0,27254.0,0.06032494828104973,0.12494956701993942,0.1596430391073227,0.10231643170118332,0.0,0.0,0.0,0.0,16368.0,33763.0,36218.0,28486.0,0.40333592891693115,-0.12241555855389767,-0.5695108115110115,-0.031003715049123252,0.30725908279418945,-0.01619238592684269,-0.019153160974383354
373,5,-0.013140768744051456,0.0014362646033987403,0.00023411815345752984,-0.13731317222118378,-0.027153069153428078,-0.014922844246029854,-0.03048102743923664,0.4566538333892822,-0.0022765123285353184,-0.08922469615936279,-0.1267436444759369,-0.03319454565644264,0.0,0.0,0.0,0.022433053702116013,-0.10938684642314911,-0.0,0.0,0.0,0.0,0.001875819987617433,-0.004999999888241291,-0.0008607907220721245,17863.0,31754.0,38101.0,27254.0,0.06032494828104973,0.12494956701993942,0.1596430391073227,0.10231643170118332,0.0,0.0,0.0,0.0,16368.0,33763.0,36218.0,28486.0,0.4936275780200958,-0.11154817021985405,-0.5737400389971825,-0.02964454786783803,0.6235554218292236,0.11650171875953674,0.022369002923369408
378,5,-0.013548883609473705,0.001177921541966498,7.71600243751891e-05,-0.09833000600337982,0.02802211418747902,0.017497286200523376,-0.02966979518532753,0.45603784918785095,-0.005345676094293594,-0.1475624442100525,0.04536493495106697,-0.40843236446380615,0.0,0.0,0.0,-0.019123109057545662,-0.09156587719917297,-0.0,0.0,0.0,0.0,0.0037049485836178064,-0.004999999888241291,-0.0004668927285820246,11742.0,37953.0,30799.0,30813.0,0.03676567226648331,0.1587924361228943,0.12001006305217743,0.12008561939001083,0.0,0.0,0.0,0.0,11285.0,36620.0,32250.0,31132.0,0.4552662670612335,-0.14455617769541224,-0.5699270410434877,-0.04464436391348017,0.48172470927238464,-0.09159713983535767,-0.07663518935441971
383,5,-0.014056508429348469,0.0013823764165863395,0.0002966639003716409,-0.10056647658348083,-0.020217059180140495,-0.02548135817050934,-0.02966979518532753,0.45603784918785095,-0.005345676094293594,-0.1475624442100525,0.04536493495106697,-0.40843236446380615,0.0,0.0,0.0,0.018778448924422264,-0.09348155558109283,-0.0,0.0,0.0,0.0,0.0037049485836178064,-0.004999999888241291,-0.0004668927285820246,11742.0,37953.0,30799.0,30813.0,0.03676567226648331,0.1587924361228943,0.12001006305217743,0.12008561939001083,0.0,0.0,0.0,0.0,11285.0,36620.0,32250.0,31132.0,0.45900237560272217,-0.12991911258987565,-0.5848859070174142,-0.0412209567567192,0.49583399295806885,0.09068673849105835,0.05604475364089012
388,5,-0.01484452374279499,0.0013318017590790987,0.00018461672880221158,-0.14049212634563446,0.0010153308976441622,0.008042197674512863,-0.032006774097681046,0.45951026678085327,-0.008691198192536831,-0.23958998918533325,-0.4700499176979065,-0.24817338585853577,0.0,0.0,0.0,0.0020932427141815424,-0.11329084634780884,-0.0,0.0,0.0,0.0,0.00235153385438025,-0.004999999888241291,-0.0012227395782247186,11782.0,41550.0,32332.0,36209.0,0.03690950199961662,0.17984750866889954,0.127975195646286,0.14896199107170105,0.0,0.0,0.0,0.0,10414.0,36525.0,32942.0,32321.0,0.4981324076652527,-0.12772943038392676,-0.5726096978778747,-0.04610504414111064,0.6517717242240906,0.010971286334097385,-0.045560553669929504
393,5,-0.015779022127389908,0.0015139407478272915,0.00021430694323498756,-0.17297737300395966,-0.025194847956299782,-0.001743970438838005,-0.032006774097681046,0.45951026678085327,-0.008691198192536831,-0.23958998918533325,-0.4700499176979065,-0.24817338585853577,0.0,0.0,0.0,0.019724393263459206,-0.12719543278217316,-0.0,0.0,0.0,0.0,0.00235153385438025,-0.004999999888241291,-0.0012227395782247186,11782.0,41550.0,32332.0,36209.0,0.03690950199961662,0.17984750866889954,0.127975195646286,0.14896199107170105,0.0,0.0,0.0,0.0,10414.0,36525.0,32942.0,32321.0,0.5328435897827148,-0.11184946103363762,-0.5654714791217081,-0.05150927138682105,0.7821940183639526,0.11057779937982559,-0.015020845457911491
398,5,-0.01571429707109928,0.001827182830311358,0.0004147021099925041,-0.04283174127340317,-0.05141235142946243,-0.028578516095876694,-0.03080018050968647,0.463411808013916,-0.012691738083958626,-0.08929672837257385,-0.6003286242485046,-0.41565242409706116,0.0,0.0,0.0,0.04777158424258232,-0.060989029705524445,-0.0,0.0,0.0,0.0,0.0023506630677729845,-0.004999999888241291,-0.0008006383432075381,11420.0,39261.0,31609.0,33274.0,0.03561077266931534,0.16633141040802002,0.12419427186250687,0.13296368718147278,0.0,0.0,0.0,0.0,13073.0,40547.0,33458.0,35356.0,0.41958698630332947,-0.11330900794148675,-0.5907900027619217,-0.04062415692285527,0.2956616282463074,0.21079613268375397,0.06891698390245438
403,5,-0.01639864221215248,0.0015002373838797212,0.0002457541413605213,-0.10865794122219086,0.030348649248480797,0.015079162083566189,-0.03080018050968647,0.463411808013916,-0.012691738083958626,-0.08929672837257385,-0.6003286242485046,-0.41565242409706116,0.0,0.0,0.0,-0.01953042484819889,-0.10038634389638901,-0.0,0.0,0.0,0.0,0.0023506630677729845,-0.004999999888241291,-0.0008006383432075381,11420.0,39261.0,31609.0,33274.0,0.03561077266931534,0.16633141040802002,0.12419427186250687,0.13296368718147278,0.0,0.0,0.0,0.0,13073.0,40547.0,33458.0,35356.0,0.47344380617141724,-0.1452154999053315,-0.5897286857827215,-0.045918674565118084,0.5490808486938477,-0.09728064388036728,-0.06336497515439987
408,5,-0.01722356304526329,0.0017463619587942958,0.00035781104816123843,-0.14808610081672668,-0.025352831929922104,-0.011164219118654728,-0.030081158503890038,0.46955904364585876,-0.01648126356303692,-0.05232277512550354,-0.5049887895584106,-0.3355097472667694,0.0,0.0,0.0,0.02094338834285736,-0.11874029785394669,-0.0,0.0,0.0,0.0,0.0024566424544900656,-0.004999999888241291,-0.0012105859350413084,14052.0,43555.0,33731.0,38197.0,0.04530169442296028,0.19203294813632965,0.13541103899478912,0.16019107401371002,0.0,0.0,0.0,0.0,8617.0,40410.0,30301.0,35071.0,0.5138160586357117,-0.12407023491294225,-0.5918902382562867,-0.047496137074076024,0.7043551802635193,0.11321799457073212,0.017773255705833435
414,5,-0.017941517755389214,0.0017718087183311582,0.00019848416559398174,-0.14493967592716217,-0.011168406344950199,0.01895649917423725,-0.030081158503890038,0.46955904364585876,-0.01648126356303692,-0.05232277512550354,-0.5049887895584106,-0.3355097472667694,0.0,0.0,0.0,0.011248632334172726,-0.11857227236032486,-0.0,0.0,0.0,0.0,0.0024566424544900656,-0.004999999888241291,-0.0012105859350413084,14052.0,43555.0,33731.0,38197.0,0.04530169442296028,0.19203294813632965,0.13541103899478912,0.16019107401371002,0.0,0.0,0.0,0.0,8617.0,40410.0,30301.0,35071.0,0.5109743475914001,-0.13507371149826466,-0.5987392144697852,-0.05216953670231627,0.6995566487312317,0.060475580394268036,-0.07393521070480347
419,5,-0.01850559189915657,0.001954698236659169,4.151997563894838e-05,-0.12245230376720428,-0.028955034911632538,0.027661936357617378,-0.02930470183491707,0.4734722971916199,-0.02015606127679348,-0.12280771136283875,-0.794788122177124,-0.32412946224212646,0.0,0.0,0.0,0.024739712476730347,-0.10902679711580276,-0.0,0.0,0.0,0.0,0.001248942338861525,-0.004999999888241291,-0.0007701072609052062,15283.0,40632.0,31477.0,31938.0,0.05002656206488609,0.174378901720047,0.1235092431306839,0.12591035664081573,0.0,0.0,0.0,0.0,14432.0,42423.0,35008.0,37944.0,0.4937407374382019,-0.11930775825468898,-0.5918300599995118,-0.04768238754987678,0.6216475367546082,0.12851014733314514,-0.1018231138586998
424,5,-0.01933157630264759,0.002027565846219659,0.00025351651129312813,-0.15237343311309814,-0.018887976184487343,-0.021380934864282608,-0.02930470183491707,0.4734722971916199,-0.02015606127679348,-0.12280771136283875,-0.794788122177124,-0.32412946224212646,0.0,0.0,0.0,0.01665113866329193,-0.12301009148359299,-0.0,0.0,0.0,0.0,0.001248942338861525,-0.004999999888241291,-0.0007701072609052062,15283.0,40632.0,31477.0,31938.0,0.05002656206488609,0.174378901720047,0.1235092431306839,0.12591035664081573,0.0,0.0,0.0,0.0,14432.0,42423.0,35008.0,37944.0,0.5222899317741394,-0.11709775383571293,-0.5957018459450374,-0.04920956242685996,0.7416511178016663,0.09150326251983643,0.048643991351127625
429,5,-0.02002011239528656,0.0022998363710939884,0.00020168552873656154,-0.14210696518421173,-0.04378427192568779,0.0008420583326369524,-0.02872551418840885,0.491242378950119,-0.026208756491541862,0.2432297170162201,-0.49134597182273865,-0.5795508027076721,0.0,0.0,0.0,0.034191686660051346,-0.1185632273554802,-0.0,0.0,0.0,0.0,0.00035324873169884086,-0.004999999888241291,-0.0017269121017307043,8306.0,47182.0,27149.0,39873.0,0.024859964847564697,0.21490180492401123,0.10181047767400742,0.16990110278129578,0.0,0.0,0.0,0.0,13027.0,42686.0,29054.0,33557.0,0.5191348791122437,-0.11278509239711403,-0.5981266203856431,-0.05597889047337768,0.7103345990180969,0.1867189258337021,-0.018064802512526512
434,5,-0.020842401310801506,0.0024054297246038914,4.6208660933189094e-05,-0.15775267779827118,-0.027918346226215363,0.02201937884092331,-0.02872551418840885,0.491242378950119,-0.026208756491541862,0.2432297170162201,-0.49134597182273865,-0.5795508027076721,0.0,0.0,0.0,0.022894762456417084,-0.12650160491466522,-0.0,0.0,0.0,0.0,0.00035324873169884086,-0.004999999888241291,-0.0017269121017307043,8306.0,47182.0,27149.0,39873.0,0.024859964847564697,0.21490180492401123,0.10181047767400742,0.16990110278129578,0.0,0.0,0.0,0.0,13027.0,42686.0,29054.0,33557.0,0.5322539806365967,-0.1105977019638895,-0.5970825815031982,-0.057095557230353214,0.7770133018493652,0.12820279598236084,-0.08334791660308838
439,5,-0.02164812572300434,0.0025082016363739967,0.00022639831877313554,-0.16012707352638245,-0.02276357263326645,-0.01862073875963688,-0.024437466636300087,0.4931950271129608,-0.033719006925821304,-0.35772204399108887,-0.06476146727800369,-0.43673306703567505,0.0,0.0,0.0,0.01949305646121502,-0.1284446120262146,-0.0,0.0,0.0,0.0,0.0018510501831769943,-0.004999999888241291,-0.0018725282279774547,5704.0,46846.0,28759.0,42241.0,0.016477733850479126,0.21273905038833618,0.10970423370599747,0.18401435017585754,0.0,0.0,0.0,0.0,8312.0,48366.0,25539.0,39869.0,0.5356959700584412,-0.09991566839335402,-0.5932928024314315,-0.055686066757967924,0.7940739989280701,0.109867624938488,0.041430771350860596
444,5,-0.022567683830857277,0.0026228013448417187,-4.3258547520963475e-05,-0.17677626013755798,-0.022873057052493095,0.03216573968529701,-0.024437466636300087,0.4931950271129608,-0.033719006925821304,-0.35772204399108887,-0.06476146727800369,-0.43673306703567505,0.0,0.0,0.0,0.019145576283335686,-0.13569672405719757,-0.0,0.0,0.0,0.0,0.0018510501831769943,-0.004999999888241291,-0.0018725282279774547,5704.0,46846.0,28759.0,42241.0,0.016477733850479126,0.21273905038833618,0.10970423370599747,0.18401435017585754,0.0,0.0,0.0,0.0,8312.0,48366.0,25539.0,39869.0,0.5528112053871155,-0.10595606335126896,-0.5956351527543897,-0.06185638243387688,0.8654384613037109,0.11135723441839218,-0.11434043198823929
449,5,-0.023525048047304153,0.0027586068026721478,-4.16774746554438e-05,-0.1870640069246292,-0.025874678045511246,0.009428371675312519,-0.024437466636300087,0.4931950271129608,-0.033719006925821304,-0.35772204399108887,-0.06476146727800369,-0.43673306703567505,0.0,0.0,0.0,0.020853742957115173,-0.14030538499355316,-0.0,0.0,0.0,0.0,0.002420853590592742,-0.004999999888241291,-0.0013168489094823599,12194.0,45031.0,32000.0,39392.0,0.038403935730457306,0.20121046900749207,0.12623527646064758,0.16709059476852417,0.0,0.0,0.0,0.0,7541.0,44750.0,31377.0,41267.0,0.5644606351852417,-0.11386569358923522,-0.5975695853578782,-0.0652184443193919,0.9134272933006287,0.123842254281044,-0.046236153692007065
454,5,-0.024562854319810867,0.002844893839210272,-8.823445386951789e-05,-0.20141203701496124,-0.019842589274048805,0.009346487931907177,-0.024437466636300087,0.4931950271129608,-0.033719006925821304,-0.35772204399108887,-0.06476146727800369,-0.43673306703567505,0.0,0.0,0.0,0.01678532361984253,-0.1464499533176422,-0.0,0.0,0.0,0.0,0.002420853590592742,-0.004999999888241291,-0.0013168489094823599,12194.0,45031.0,32000.0,39392.0,0.038403935730457306,0.20121046900749207,0.12623527646064758,0.16709059476852417,0.0,0.0,0.0,0.0,7541.0,44750.0,31377.0,41267.0,0.5785024166107178,-0.11349290120290233,-0.599419468609414,-0.0700073567129807,0.9769724607467651,0.10216899961233139,-0.04681462049484253
459,5,-0.0255048219114542,0.0029250450897961855,-0.00010048149852082133,-0.19229896366596222,-0.01717393472790718,0.0045185331255197525,-0.02398482710123062,0.49510905146598816,-0.038427408784627914,-0.12814457714557648,-0.05566617101430893,-0.17427387833595276,0.0,0.0,0.0,0.01546828355640173,-0.14431296288967133,-0.0,0.0,0.0,0.0,0.00168128521181643,-0.004999999888241291,-0.0015921740559861064,11849.0,47198.0,31324.0,41345.0,0.037151798605918884,0.21500642597675323,0.12271587550640106,0.17861928045749664,0.0,0.0,0.0,0.0,11910.0,45916.0,30922.0,39569.0,0.5729039907455444,-0.11711663685012572,-0.5902929815114597,-0.07058277571003849,0.9534830451011658,0.09323827177286148,-0.03285195305943489
