timestamp,dt,pos_x,pos_y,pos_z,vel_x,vel_y,vel_z,roll,pitch,yaw,agv_x,agv_y,agv_z,x_ref,y_ref,z_ref,roll_ref,pitch_ref,yaw_ref,x_vel_ref,y_vel_ref,z_vel_ref,x_torque,y_torque,z_torque,w0,w1,w2,w3,u0,u1,u2,u3,m0req,m1req,m2req,m3req,thrust0,thrust1,thrust2,thrust3,thrust_ref,roll_vicon,pitch_vicon,yaw_vicon,acc_x,acc_y,acc_z
5,5,0.0,0.0,0.0,-0.0006724702543579042,-0.002323199762031436,-0.001177959144115448,-0.015952810645103455,0.491908460855484,0.008537587709724903,0.0008047343580983579,0.006089747417718172,-0.000549333228264004,0.0,0.0,0.0,0.0022201791871339083,-0.0006426511681638658,-0.0,0.0,0.0,0.0,0.0005213102558627725,-0.004999999888241291,0.00025415682466700673,0.0,0.0,0.0,0.0,0.0,0.0,0.0,0.0,0.0,0.0,0.0,0.0,0.0,0.0,0.0,0.0,0.3390344977378845,-0.11554705746498825,-0.5933968398833914,-0.0650113419087546,0.0025217635557055473,0.008711999282240868,0.003533877432346344
24,19,0.0,0.0,0.0,0.0007295900722965598,0.0020808482076972723,-0.0019969569984823465,-0.015952810645103455,0.491908460855484,0.008537587709724903,0.0008047343580983579,0.006089747417718172,-0.000549333228264004,0.0,0.0,0.0,-0.0019885750953108072,0.0006972381379455328,-0.0,0.0,0.0,0.0,0.0005213102558627725,-0.004999999888241291,0.00025415682466700673,0.0,0.0,0.0,0.0,0.0,0.0,0.0,0.0,0.0,0.0,0.0,0.0,0.0,0.0,0.0,0.0,0.3390343487262726,-0.11572808458649372,-0.5932472684073544,-0.06501086853487341,-0.0027359628584235907,-0.00780318072065711,0.005990871228277683
29,5,0.0,0.0,0.0,0.0003926941426470876,0.0002808552235364914,0.001723156194202602,-0.015965288504958153,0.4918990731239319,0.008546401746571064,-0.0009386988240294158,-0.001458295388147235,0.0008950582123361528,0.0,0.0,0.0,-0.00026840137434192,0.00037528108805418015,-0.0,0.0,0.0,0.0,0.0005241588805802166,-0.004999999888241291,0.00025622747489251196,0.0,0.0,0.0,0.0,0.0,0.0,0.0,0.0,0.0,0.0,0.0,0.0,0.0,0.0,0.0,0.0,0.3390336334705353,-0.11614092352287682,-0.5938409271605465,-0.06530523293109304,-0.0014726030640304089,-0.0010532070882618427,-0.005169468466192484
35,7,0.0,0.0,0.0,0.0003926941426470876,0.0002808552235364914,0.001723156194202602,-0.015980197116732597,0.49191465973854065,0.008546866476535797,0.0016070555429905653,-0.004335271660238504,-0.0043868995271623135,0.0,0.0,0.0,-0.00026840137434192,0.00037528108805418015,-0.0,0.0,0.0,0.0,0.000602001033257693,-0.004999999888241291,0.00025170345907099545,0.0,0.0,0.0,0.0,0.0,0.0,0.0,0.0,0.0,0.0,0.0,0.0,18018.0,27418.0,32219.0,14650.0,0.3390336334705353,-0.11614092352287682,-0.5938409271605465,-0.06530523293109304,-0.0014726030640304089,-0.0010532070882618427,-0.005169468466192484
41,5,0.0,0.0,0.0,-0.0008280372712761164,-0.004842669703066349,-0.004641692154109478,-0.015980197116732597,0.49191465973854065,0.008546866476535797,0.0016070555429905653,-0.004335271660238504,-0.0043868995271623135,0.0,0.0,0.0,0.004627899266779423,-0.0007913198787719011,-0.0,0.0,0.0,0.0,0.000602001033257693,-0.004999999888241291,0.00025170345907099545,0.0,0.0,0.0,0.0,0.0,0.0,0.0,0.0,0.0,0.0,0.0,0.0,18018.0,27418.0,32219.0,14650.0,0.33903732895851135,-0.11468747676563454,-0.5935077611730618,-0.06517338915050672,0.0031051398254930973,0.018160011619329453,0.013925076462328434
46,5,0.00016265091835521162,5.014335329178721e-05,-0.00016022527415771037,0.022522717714309692,-0.008472870104014874,0.021039031445980072,-0.015980197116732597,0.49191465973854065,0.008546866476535797,0.0016070555429905653,-0.004335271660238504,-0.0043868995271623135,0.0,0.0,0.0,0.008165388368070126,0.0217487383633852,-0.0,0.0,0.0,0.0,0.000602001033257693,-0.004999999888241291,0.00025170345907099545,0.0,0.0,0.0,0.0,0.0,0.0,0.0,0.0,0.0,0.0,0.0,0.0,18018.0,27418.0,32219.0,14650.0,0.3391250967979431,-0.10979042427022095,-0.6004160692760663,-0.06271150650029791,-0.08535550534725189,0.0320492759346962,-0.06553249061107635
51,5,-8.179478027159348e-05,0.0001165575158665888,8.922551933210343e-05,-0.027465583756566048,-0.011839843355119228,-0.028611401095986366,-0.015970855951309204,0.4919377863407135,0.008588726632297039,0.000505019270349294,9.446904732612893e-05,0.01131097786128521,0.0,0.0,0.0,0.014795281924307346,-0.026127567514777184,-0.0,0.0,0.0,0.0,0.0005818916251882911,-0.004999999888241291,0.00027648889226838946,17815.0,27239.0,32384.0,14866.0,0.060126639902591705,0.10224253684282303,0.1282498836517334,0.048414573073387146,0.0,0.0,0.0,0.0,18356.0,27047.0,32560.0,14286.0,0.34204262495040894,-0.10825073866037448,-0.5905627991016235,-0.06352822059567337,0.10341153293848038,0.045052532106637955,0.08661139011383057
56,5,-0.00010827473306562752,0.00017832951562013477,6.0579928685911e-05,-0.011946868151426315,-0.01220003329217434,-0.004573038313537836,-0.015970855951309204,0.4919377863407135,0.008588726632297039,0.000505019270349294,9.446904732612893e-05,0.01131097786128521,0.0,0.0,0.0,0.01549267116934061,-0.011564149521291256,-0.0,0.0,0.0,0.0,0.0005818916251882911,-0.004999999888241291,0.00027648889226838946,17815.0,27239.0,32384.0,14866.0,0.060126639902591705,0.10224253684282303,0.1282498836517334,0.048414573073387146,0.0,0.0,0.0,0.0,18356.0,27047.0,32560.0,14286.0,0.33909696340560913,-0.10780682758579824,-0.5871055502483725,-0.06722479735162745,0.04537991061806679,0.0467696413397789,0.014347784221172333
61,5,-0.0003976564621552825,0.00039712581201456487,-0.00030609595705755055,-0.04409750550985336,-0.03429149091243744,0.049962710589170456,-0.016247401013970375,0.4923834502696991,0.008819546550512314,-0.026987941935658455,-0.11453454196453094,-0.0242630522698164,0.0,0.0,0.0,0.015502152033150196,-0.011568577960133553,-0.0,0.0,0.0,0.0,0.0007741139270365238,-0.004999999888241291,0.00021229786216281354,17395.0,27123.0,32499.0,15320.0,0.0584162212908268,0.10168178379535675,0.1288563758134842,0.05017072334885597,0.0,0.0,0.0,0.0,17086.0,27868.0,31799.0,15629.0,0.3647307753562927,-0.07328303443730085,-0.5680595310925607,-0.06304110116281986,0.16755421459674835,0.13084493577480316,-0.15460671484470367
66,5,-0.0002313613804290071,0.00015470055222976953,-7.220189581857994e-05,0.010052060708403587,0.0236520878970623,-0.017756354063749313,-0.016247401013970375,0.4923834502696991,0.008819546550512314,-0.026987941935658455,-0.11453454196453094,-0.0242630522698164,0.0,0.0,0.0,-0.029050977900624275,0.009263661690056324,-0.0,0.0,0.0,0.0,0.0007741139270365238,-0.004999999888241291,0.00021229786216281354,17395.0,27123.0,32499.0,15320.0,0.0584162212908268,0.10168178379535675,0.1288563758134842,0.05017072334885597,0.0,0.0,0.0,0.0,17086.0,27868.0,31799.0,15629.0,0.3391912579536438,-0.11442087621753126,-0.5739012415980037,-0.06918063900263424,-0.03635130077600479,-0.08770738542079926,0.051171641796827316
71,5,-0.00018457122496329248,0.0001683603913988918,-1.4740010556124616e-05,0.009566240012645721,0.005183248780667782,-0.013371570035815239,-0.016032112762331963,0.49370959401130676,0.00829536933451891,0.005119975656270981,-0.048603370785713196,0.0044480664655566216,0.0,0.0,0.0,-0.006074204575270414,0.00885167345404625,-0.0,0.0,0.0,0.0,0.0010851856786757708,-0.004999999888241291,0.000300215877359733,17572.0,26247.0,33290.0,15131.0,0.05913471803069115,0.09747717529535294,0.1330469250679016,0.04943815991282463,0.0,0.0,0.0,0.0,17663.0,26840.0,32758.0,15040.0,0.33905312418937683,-0.10703944288123579,-0.5821127503305068,-0.06975000595688366,-0.03473459929227829,-0.018335353583097458,0.0386686846613884
76,5,-8.200630691135302e-05,0.00020848412532359362,-8.106468885671347e-05,0.01722896099090576,-0.004062348511070013,0.0052739838138222694,-0.015855705365538597,0.491993248462677,0.008419385179877281,0.016760673373937607,0.03521997854113579,-0.01457279548048973,0.0,0.0,0.0,0.005501634441316128,0.016309652477502823,-0.0,0.0,0.0,0.0,-0.0005246037035249174,-0.004999999888241291,0.00022154538601171225,19140.0,28841.0,30886.0,13441.0,0.06561589986085892,0.11011474579572678,0.12045647948980331,0.0430041067302227,0.0,0.0,0.0,0.0,17487.0,26555.0,33013.0,15220.0,0.33908382058143616,-0.09929838449566857,-0.5824628348587004,-0.06566412197531989,-0.06400474905967712,0.01660878024995327,-0.01854196935892105
81,5,-0.00026985668228007853,8.70607909746468e-05,-4.586296563502401e-05,-0.021130364388227463,0.01578056439757347,-0.0033460459671914577,-0.015855705365538597,0.491993248462677,0.008419385179877281,0.016760673373937607,0.03521997854113579,-0.01457279548048973,0.0,0.0,0.0,-0.019363289698958397,-0.02060842700302601,-0.0,0.0,0.0,0.0,-0.0005246037035249174,-0.004999999888241291,0.00022154538601171225,19140.0,28841.0,30886.0,13441.0,0.06561589986085892,0.11011474579572678,0.12045647948980331,0.0430041067302227,0.0,0.0,0.0,0.0,17487.0,26555.0,33013.0,15220.0,0.3391691744327545,-0.11012826239590816,-0.5787785454155955,-0.07316365911099641,0.08087892085313797,-0.05846408009529114,0.007807373069226742
86,5,-0.00029930646996945143,6.16670586168766e-05,-4.278198684914969e-05,-0.010462078265845776,0.008289291523396969,-0.0014351509744301438,-0.015855705365538597,0.491993248462677,0.008419385179877281,0.016760673373937607,0.03521997854113579,-0.01457279548048973,0.0,0.0,0.0,-0.010101527906954288,-0.010471362620592117,-0.0,0.0,0.0,0.0,-0.0005246037035249174,-0.004999999888241291,0.00022154538601171225,19140.0,28841.0,30886.0,13441.0,0.06561589986085892,0.11011474579572678,0.12045647948980331,0.0430041067302227,0.0,0.0,0.0,0.0,17487.0,26555.0,33013.0,15220.0,0.3390694856643677,-0.11192058672512453,-0.5764038340139939,-0.074023502696686,0.041091129183769226,-0.03049335815012455,0.0019616063218563795
91,5,-0.0002736306341830641,0.0001301533920923248,5.071633495390415e-06,0.00045599270379170775,-0.007101299241185188,-0.007130051963031292,-0.016103137284517288,0.4922453761100769,0.008671973831951618,-0.020126642659306526,-0.07502204179763794,0.0036932695657014847,0.0,0.0,0.0,0.009147442877292633,-1.8267310224473476e-05,-0.0,0.0,0.0,0.0,0.0007710946956649423,-0.004999999888241291,0.0003001322038471699,17823.0,26783.0,32805.0,14865.0,0.060158610343933105,0.100043885409832,0.13047364354133606,0.048407696187496185,0.0,0.0,0.0,0.0,19450.0,28376.0,31333.0,13091.0,0.33904778957366943,-0.10733677833819623,-0.5807442809069365,-0.07051700375069898,7.168092270148918e-05,0.027611659839749336,0.019613686949014664
96,5,-0.00019385034102015197,0.00016429711831733584,4.650920891435817e-05,0.011306039057672024,-0.00691051222383976,-0.007940275594592094,-0.016103137284517288,0.4922453761100769,0.008671973831951618,-0.020126642659306526,-0.07502204179763794,0.0036932695657014847,0.0,0.0,0.0,0.008981303311884403,0.01044741552323103,-0.0,0.0,0.0,0.0,0.0007710946956649423,-0.004999999888241291,0.0003001322038471699,17823.0,26783.0,32805.0,14865.0,0.060158610343933105,0.100043885409832,0.13047364354133606,0.048407696187496185,0.0,0.0,0.0,0.0,19450.0,28376.0,31333.0,13091.0,0.3390657901763916,-0.1069265161048004,-0.5839114515407868,-0.06889988755854107,-0.04099715128540993,0.027111629024147987,0.02268587052822113
102,5,-0.000250363809755072,0.00010421441402286291,8.028004231164232e-05,-0.004520072601735592,0.006338425446301699,-0.007110000122338533,-0.015958569943904877,0.4930415749549866,0.008554325439035892,0.02238842099905014,-0.026849819347262383,-0.0010274918749928474,0.0,0.0,0.0,-0.007575605064630508,-0.004766339436173439,-0.0,0.0,0.0,0.0,0.0006470169755630195,-0.004999999888241291,0.00023276195861399174,18362.0,27917.0,31756.0,14283.0,0.06237787753343582,0.10554864257574081,0.1249617263674736,0.04618127644062042,0.0,0.0,0.0,0.0,17528.0,27127.0,32491.0,15176.0,0.3390471935272217,-0.11104846774999193,-0.5835047892336256,-0.06932236416533064,0.018703633919358253,-0.02286703512072563,0.02087072841823101
107,5,-0.00026013850583694875,-4.3629428546410054e-05,-0.00011272991105215624,-0.002724479418247938,0.022599665448069572,0.02488839253783226,-0.015958569943904877,0.4930415749549866,0.008554325439035892,0.02238842099905014,-0.026849819347262383,-0.0010274918749928474,0.0,0.0,0.0,-0.007568095810711384,-0.004780216608196497,-0.0,0.0,0.0,0.0,0.0006470169755630195,-0.004999999888241291,0.00023276195861399174,18362.0,27917.0,31756.0,14283.0,0.06237787753343582,0.10554864257574081,0.1249617263674736,0.04618127644062042,0.0,0.0,0.0,0.0,17528.0,27127.0,32491.0,15176.0,0.3390471935272217,-0.11732913482294037,-0.5854774053132816,-0.06855764090630259,0.012078388594090939,-0.08463738113641739,-0.07773340493440628
112,5,-0.0002649933157954365,-0.0003028797800652683,-0.00034474264248274267,-0.0014970196643844247,0.04307495057582855,0.03994830325245857,-0.01597045734524727,0.49268853664398193,0.00901664886623621,0.03491634875535965,0.08876974135637283,0.04323046654462814,0.0,0.0,0.0,-0.05177738517522812,-0.0018493845127522945,-0.0,0.0,0.0,0.0,0.0007240091217681766,-0.004999999888241291,0.00033707861439324915,18326.0,26450.0,33105.0,14323.0,0.06222713738679886,0.09844587743282318,0.132062628865242,0.046330153942108154,0.0,0.0,0.0,0.0,18980.0,27338.0,32296.0,13604.0,0.3535669147968292,-0.14491978378368445,-0.5741007053351922,-0.07046354956846734,0.007557922508567572,-0.162855327129364,-0.12680214643478394
117,5,-0.0002112527727149427,-0.0002880629035644233,-0.0003357024397701025,0.007074571680277586,0.010848120786249638,0.010718860663473606,-0.01597045734524727,0.49268853664398193,0.00901664886623621,0.03491634875535965,0.08876974135637283,0.04323046654462814,0.0,0.0,0.0,-0.01390677597373724,0.0063281492330133915,-0.0,0.0,0.0,0.0,0.0007240091217681766,-0.004999999888241291,0.00033707861439324915,18326.0,26450.0,33105.0,14323.0,0.06222713738679886,0.09844587743282318,0.132062628865242,0.046330153942108154,0.0,0.0,0.0,0.0,18980.0,27338.0,32296.0,13604.0,0.33907318115234375,-0.14452875309373886,-0.5761632009284817,-0.0692865733682151,-0.024831989780068398,-0.041979510337114334,-0.040046460926532745
122,5,-0.0004248014301992953,-6.548008968820795e-05,-0.00030373441404663026,-0.027774440124630928,-0.027907157316803932,-0.0012598633766174316,-0.015748096629977226,0.4915633201599121,0.009537088684737682,0.05956970900297165,0.07463022321462631,0.005618895869702101,0.0,0.0,0.0,0.03351181000471115,-0.026417577639222145,-0.0,0.0,0.0,0.0,0.0006783155258744955,-0.004999999888241291,0.000291305041173473,17978.0,26917.0,32682.0,14698.0,0.06079241260886192,0.1006896123290062,0.1298188865184784,0.04776487872004509,0.0,0.0,0.0,0.0,18773.0,25958.0,33545.0,13833.0,0.35042163729667664,-0.1364480946838772,-0.5715299434009078,-0.06588703532848365,0.10707195848226547,0.10451629757881165,-0.004820913542062044
127,5,-0.00035787932574748993,-0.00040084129432216287,-0.0003662850649561733,0.0010367602808400989,0.038578420877456665,0.008379132486879826,-0.015748096629977226,0.4915633201599121,0.009537088684737682,0.05956970900297165,0.07463022321462631,0.005618895869702101,0.0,0.0,0.0,-0.0471203438937664,0.0003118360764347017,-0.0,0.0,0.0,0.0,0.0006783155258744955,-0.004999999888241291,0.000291305041173473,17978.0,26917.0,32682.0,14698.0,0.06079241260886192,0.1006896123290062,0.1298188865184784,0.04776487872004509,0.0,0.0,0.0,0.0,18773.0,25958.0,33545.0,13833.0,0.3498310148715973,-0.14242156324970315,-0.5723463725082112,-0.07013779840733698,-0.0012612134451046586,-0.14666199684143066,-0.03559808433055878
132,5,-0.0004669387999456376,-0.00030552243697457016,-0.00034521648194640875,-0.014957297593355179,-0.0017711145337671041,-0.0004358635051175952,-0.015748096629977226,0.4915633201599121,0.009537088684737682,0.05956970900297165,0.07463022321462631,0.005618895869702101,0.0,0.0,0.0,0.001690736855380237,-0.015131089836359024,-0.0,0.0,0.0,0.0,0.0006783155258744955,-0.004999999888241291,0.000291305041173473,17978.0,26917.0,32682.0,14698.0,0.06079241260886192,0.1006896123290062,0.1298188865184784,0.04776487872004509,0.0,0.0,0.0,0.0,18773.0,25958.0,33545.0,13833.0,0.33907291293144226,-0.1404830379295849,-0.5714395805508782,-0.06896379912061573,0.05937892943620682,0.005103553179651499,-0.009898241609334946
137,5,-0.0004039292980451137,-0.0002686719235498458,-0.000325038970913738,0.0043341415002942085,-0.005690406542271376,-0.002955610165372491,-0.015772946178913116,0.4911787211894989,0.010089275427162647,-6.159172335173935e-05,-0.006974836811423302,0.09209363907575607,0.0,0.0,0.0,0.0066046821884810925,0.003365852404385805,-0.0,0.0,0.0,0.0,-0.00046429154463112354,-0.004999999888241291,0.000404898077249527,20822.0,27197.0,32435.0,11478.0,0.07279063016176224,0.10204299539327621,0.12851686775684357,0.03581802546977997,0.0,0.0,0.0,0.0,20663.0,26072.0,33444.0,11656.0,0.33904290199279785,-0.13465338088990014,-0.5718336906871881,-0.06349964825840736,-0.013207048177719116,0.019935861229896545,-0.0033126308117061853
142,5,-0.0006865491159260273,-0.00017402869707439095,-0.0003351909981574863,-0.03826652839779854,-0.014957171864807606,0.0005345993558876216,-0.015772946178913116,0.4911787211894989,0.010089275427162647,-6.159172335173935e-05,-0.006974836811423302,0.09209363907575607,0.0,0.0,0.0,0.017585380002856255,-0.036357227712869644,-0.0,0.0,0.0,0.0,-0.00046429154463112354,-0.004999999888241291,0.000404898077249527,20822.0,27197.0,32435.0,11478.0,0.07279063016176224,0.10204299539327621,0.12851686775684357,0.03581802546977997,0.0,0.0,0.0,0.0,20663.0,26072.0,33444.0,11656.0,0.35228344798088074,-0.13454694006390097,-0.5667389245526508,-0.06652822660700256,0.14818572998046875,0.05515008792281151,-0.01508155558258295
147,5,-0.000688306288793683,-0.00024236527679022402,-0.0003066890640184283,-0.011725966818630695,0.005079969298094511,-0.0038298896979540586,-0.015857696533203125,0.49045008420944214,0.011222691275179386,0.06687913835048676,0.13018646836280823,0.09719661623239517,0.0,0.0,0.0,-0.0067567783407866955,-0.012433839030563831,-0.0,0.0,0.0,0.0,-0.00012199221964692697,-0.004999999888241291,0.0004279788990970701,20732.0,26476.0,33082.0,11574.0,0.07239904999732971,0.09856867045164108,0.13194356858730316,0.03616196662187576,0.0,0.0,0.0,0.0,20357.0,25330.0,34096.0,12022.0,0.3390675485134125,-0.13727812735973136,-0.5688304108983621,-0.06504108635698688,0.048792898654937744,-0.02039683610200882,-0.0025730873458087444
152,5,-0.0006767942104488611,-0.0003396423126105219,-0.00027455409872345626,-0.001906098215840757,0.015142775140702724,-0.005647864192724228,-0.015857696533203125,0.49045008420944214,0.011222691275179386,0.06687913835048676,0.13018646836280823,0.09719661623239517,0.0,0.0,0.0,-0.019451480358839035,-0.0030704678501933813,-0.0,0.0,0.0,0.0,-0.00012199221964692697,-0.004999999888241291,0.0004279788990970701,20732.0,26476.0,33082.0,11574.0,0.07239904999732971,0.09856867045164108,0.13194356858730316,0.03616196662187576,0.0,0.0,0.0,0.0,20357.0,25330.0,34096.0,12022.0,0.33909934759140015,-0.13814932563660537,-0.5683384149829096,-0.06396434048145871,0.012049568817019463,-0.058718714863061905,0.002291858894750476
157,5,-0.000769699108786881,-0.0003328021557535976,-0.0002313943114131689,-0.013578515499830246,0.0035852135624736547,-0.007736727129667997,-0.016131337732076645,0.4890449345111847,0.012403332628309727,0.074177086353302,0.2895793616771698,0.15235784649848938,0.0,0.0,0.0,-0.005106053315103054,-0.01439234334975481,-0.0,0.0,0.0,0.0,0.0004855019797105342,-0.004999999888241291,0.0006116998265497386,21199.0,24575.0,34746.0,11005.0,0.07442969083786011,0.08961319923400879,0.14089886844158173,0.03413115814328194,0.0,0.0,0.0,0.0,21738.0,24275.0,36197.0,12187.0,0.33907315135002136,-0.13958241388072232,-0.5677949537409581,-0.06291794853641643,0.05648060888051987,-0.015414600260555744,0.008205880410969257
162,5,-0.0008156905532814562,-0.0003183169465046376,-0.0002247921220259741,-0.010512353852391243,-0.0009523681364953518,-0.0032453248277306557,-0.016131337732076645,0.4890449345111847,0.012403332628309727,0.074177086353302,0.2895793616771698,0.15235784649848938,0.0,0.0,0.0,0.0005332350847311318,-0.011569486930966377,-0.0,0.0,0.0,0.0,0.0004855019797105342,-0.004999999888241291,0.0006116998265497386,21199.0,24575.0,34746.0,11005.0,0.07442969083786011,0.08961319923400879,0.14089886844158173,0.03413115814328194,0.0,0.0,0.0,0.0,21738.0,24275.0,36197.0,12187.0,0.3390563428401947,-0.13835551025484913,-0.5671195218096856,-0.06010483712542387,0.0454019159078598,0.001609180006198585,-0.006001818459481001
167,5,-0.0008938723476603627,-0.00037562104989774525,-0.00021035739337094128,-0.01409915741533041,0.00773686682805419,-0.002994459355250001,-0.016231458634138107,0.48385220766067505,0.014739220030605793,0.11339588463306427,0.5441009402275085,0.18678751587867737,0.0,0.0,0.0,-0.010388310998678207,-0.01515238918364048,-0.0,0.0,0.0,0.0,0.0009017113479785621,-0.004999999888241291,0.000701438169926405,22329.0,23792.0,36593.0,11461.0,0.07941035181283951,0.08601263910531998,0.1511065512895584,0.03575762361288071,0.0,0.0,0.0,0.0,23753.0,24302.0,34979.0,7664.0,0.33909082412719727,-0.13586029754498283,-0.5634127379030937,-0.0579455376651611,0.0594625249505043,-0.03136098384857178,-0.007363283075392246
173,5,-0.0011363178491592407,-1.913311098178383e-05,-0.0002144184400094673,-0.038172122091054916,-0.04758725315332413,-0.0003297918592579663,-0.016231458634138107,0.48385220766067505,0.014739220030605793,0.11339588463306427,0.5441009402275085,0.18678751587867737,0.0,0.0,0.0,0.05413651093840599,-0.03541967645287514,-0.0,0.0,0.0,0.0,0.0009017113479785621,-0.004999999888241291,0.000701438169926405,22329.0,23792.0,36593.0,11461.0,0.07941035181283951,0.08601263910531998,0.1511065512895584,0.03575762361288071,0.0,0.0,0.0,0.0,23753.0,24302.0,34979.0,7664.0,0.36960116028785706,-0.11786740347903307,-0.5544016877754235,-0.05386496011670008,0.15126608312129974,0.17798395454883575,-0.01618620939552784
178,5,-0.0012078100116923451,-0.00012692892050836235,-0.0002166332706110552,-0.02146054245531559,0.0008152378723025322,0.0002111392532242462,-0.016240129247307777,0.4782208800315857,0.016784928739070892,0.09263717383146286,0.7906227111816406,0.293575257062912,0.0,0.0,0.0,-0.0013652525376528502,-0.02272687293589115,-0.0,0.0,0.0,0.0,-0.00035889603896066546,-0.004999999888241291,0.0009514697012491524,25174.0,22734.0,36271.0,5606.0,0.0924035906791687,0.08122052252292633,0.14930479228496552,0.016170505434274673,0.0,0.0,0.0,0.0,25639.0,22207.0,36692.0,4895.0,0.3391214907169342,-0.12591395287111667,-0.5549177891024095,-0.053375510112519294,0.08919741958379745,-0.004122218582779169,-0.018491007387638092
183,5,-0.001368397963233292,-0.0001814022398320958,-0.00012441955914255232,-0.028920471668243408,0.00787083525210619,-0.012846579775214195,-0.016240129247307777,0.4782208800315857,0.016784928739070892,0.09263717383146286,0.7906227111816406,0.293575257062912,0.0,0.0,0.0,-0.010087218135595322,-0.02970966137945652,-0.0,0.0,0.0,0.0,-0.00035889603896066546,-0.004999999888241291,0.0009514697012491524,25174.0,22734.0,36271.0,5606.0,0.0924035906791687,0.08122052252292633,0.14930479228496552,0.016170505434274673,0.0,0.0,0.0,0.0,25639.0,22207.0,36692.0,4895.0,0.3441760540008545,-0.12437598771157324,-0.5505383360249285,-0.05194561059504715,0.11832557618618011,-0.03090876154601574,0.0212607029825449
188,5,-0.0014586965553462505,6.338909588521346e-05,-0.00018561574688646942,-0.021317940205335617,-0.03190953657031059,0.0047134943306446075,-0.01671026647090912,0.4661448895931244,0.020947379991412163,0.14031262695789337,1.226981520652771,0.3567822277545929,0.0,0.0,0.0,0.03833490237593651,-0.022337613627314568,-0.0,0.0,0.0,0.0,0.0020271202083677053,-0.004999999888241291,0.0013983867829665542,26012.0,20049.0,38345.0,4306.0,0.0963556319475174,0.06946472823619843,0.1610390841960907,0.012196965515613556,0.0,0.0,0.0,0.0,26583.0,19670.0,38626.0,3387.0,0.3505306541919708,-0.09658170337527316,-0.5388029040201698,-0.04046574246681128,0.09055110067129135,0.11958315223455429,-0.032701339572668076
193,5,-0.001724342000670731,0.00011150542559335008,-0.0001457474718336016,-0.043585747480392456,-0.01630914770066738,-0.004167510196566582,-0.01671026647090912,0.4661448895931244,0.020947379991412163,0.14031262695789337,1.226981520652771,0.3567822277545929,0.0,0.0,0.0,0.03833441436290741,-0.022399449720978737,-0.0,0.0,0.0,0.0,0.0020271202083677053,-0.004999999888241291,0.0013983867829665542,26012.0,20049.0,38345.0,4306.0,0.0963556319475174,0.06946472823619843,0.1610390841960907,0.012196965515613556,0.0,0.0,0.0,0.0,26583.0,19670.0,38626.0,3387.0,0.3586440086364746,-0.09677301620463893,-0.5264828633443541,-0.03354288832033045,0.17577938735485077,0.06135781854391098,-0.00601615197956562
198,5,-0.0019540770445019007,1.0591164937068243e-05,4.70845443487633e-05,-0.045238614082336426,0.009235252626240253,-0.028246736153960228,-0.01702134683728218,0.4556484520435333,0.024305230006575584,0.14412614703178406,1.4718482494354248,0.43981876969337463,0.0,0.0,0.0,-0.010947857052087784,-0.044219598174095154,-0.0,0.0,0.0,0.0,-1.568530933582224e-05,-0.0030979772564023733,0.0017309276154264808,27269.0,17203.0,42921.0,7264.0,0.10239128768444061,0.05763876810669899,0.18814344704151154,0.021439719945192337,0.0,0.0,0.0,0.0,28176.0,15798.0,43832.0,5874.0,0.35877835750579834,-0.09231266822120025,-0.5221107703837581,-0.032031622838900646,0.18355225026607513,-0.034968942403793335,0.06868640333414078
203,5,-0.0024171590339392424,-0.0001916257751872763,0.0002376294432906434,-0.043201982975006104,0.007407269906252623,-0.0004476786416489631,-0.01702134683728218,0.4556484520435333,0.024305230006575584,0.14412614703178406,1.4718482494354248,0.43981876969337463,0.0,0.0,0.0,-0.010944847948849201,-0.04429534822702408,-0.0,0.0,0.0,0.0,-1.568530933582224e-05,-0.0030979772564023733,0.0017309276154264808,27269.0,17203.0,42921.0,7264.0,0.10239128768444061,0.05763876810669899,0.18814344704151154,0.021439719945192337,0.0,0.0,0.0,0.0,28176.0,15798.0,43832.0,5874.0,0.35885724425315857,-0.0970271288498331,-0.49897546294731376,-0.022330031855275254,0.17882013320922852,-0.029224565252661705,-0.011704222299158573
208,5,-0.0024171590339392424,-0.0001916257751872763,0.0002376294432906434,-0.043201982975006104,0.007407269906252623,-0.0004476786416489631,-0.01819070242345333,0.43499377369880676,0.030776025727391243,0.18339762091636658,1.9219489097595215,0.5955988168716431,0.0,0.0,0.0,-0.009190763346850872,-0.043328773230314255,-0.0,0.0,0.0,0.0,0.000999660580419004,0.0004323344910517335,0.0020737110171467066,38550.0,1619.0,40063.0,7142.0,0.16221566498279572,0.004412472248077393,0.17101562023162842,0.021044418215751648,0.0,0.0,0.0,0.0,35546.0,9251.0,39539.0,1082.0,0.3575935959815979,-0.0970271288498331,-0.49897546294731376,-0.022330031855275254,0.1792697161436081,-0.02926020883023739,-0.010967571288347244
213,5,-0.0030106513295322657,-0.0002722333010751754,0.0006704605184495449,-0.050718650221824646,0.008161594159901142,-0.033616069704294205,-0.01819070242345333,0.43499377369880676,0.030776025727391243,0.18339762091636658,1.9219489097595215,0.5955988168716431,0.0,0.0,0.0,-0.01002618856728077,-0.05002964660525322,-0.0,0.0,0.0,0.0,0.000999660580419004,0.0004323344910517335,0.0020737110171467066,38550.0,1619.0,40063.0,7142.0,0.16221566498279572,0.004412472248077393,0.17101562023162842,0.021044418215751648,0.0,0.0,0.0,0.0,35546.0,9251.0,39539.0,1082.0,0.36486244201660156,-0.09223177546436045,-0.48514598886296095,-0.017261442080855435,0.21117369830608368,-0.032568272203207016,0.09579918533563614
219,5,-0.0032498023938387632,-0.00025951178395189345,0.0007764274487271905,-0.04869675636291504,0.0006674691685475409,-0.02492019534111023,-0.018724806606769562,0.41761091351509094,0.03567193076014519,0.14058202505111694,2.3149189949035645,0.5897126197814941,0.0,0.0,0.0,-0.0013752932427451015,-0.048920903354883194,-0.0,0.0,0.0,0.0,0.0002282648638356477,0.0038814458530396223,0.0022180385421961546,45352.0,0.0,35507.0,11518.0,0.2032286673784256,-0.02668232098221779,0.14506928622722626,0.03596070408821106,0.0,0.0,0.0,0.0,40708.0,0.0,38736.0,9809.0,0.3630002439022064,-0.0982505852542987,-0.47954978317304103,-0.01569990881634996,0.20545858144760132,-0.0044451141729950905,0.07335126399993896
224,5,-0.0035654911771416664,-0.00023572977806907147,0.0009489133954048157,-0.05880546197295189,-0.0031292405910789967,-0.03162408992648125,-0.018724806606769562,0.41761091351509094,0.03567193076014519,0.14058202505111694,2.3149189949035645,0.5897126197814941,0.0,0.0,0.0,0.002980424091219902,-0.05706843361258507,-0.0,0.0,0.0,0.0,0.0002282648638356477,0.0038814458530396223,0.0022180385421961546,45352.0,0.0,35507.0,11518.0,0.2032286673784256,-0.02668232098221779,0.14506928622722626,0.03596070408821106,0.0,0.0,0.0,0.0,40708.0,0.0,38736.0,9809.0,0.37218305468559265,-0.09275634374417009,-0.46536032547523815,-0.011173826599451578,0.24569770693778992,0.009875893592834473,0.09842265397310257
229,5,-0.0038190707564353943,-0.0002035167854046449,0.0011015231721103191,-0.05314277112483978,-0.005448591895401478,-0.03085259161889553,-0.018724806606769562,0.41761091351509094,0.03567193076014519,0.14058202505111694,2.3149189949035645,0.5897126197814941,0.0,0.0,0.0,0.005710567347705364,-0.05321488529443741,-0.0,0.0,0.0,0.0,0.0002282648638356477,0.0038814458530396223,0.0022180385421961546,45352.0,0.0,35507.0,11518.0,0.2032286673784256,-0.02668232098221779,0.14506928622722626,0.03596070408821106,0.0,0.0,0.0,0.0,40708.0,0.0,38736.0,9809.0,0.36795154213905334,-0.09036080397465822,-0.4517826950677703,-0.007367350843493959,0.2265155166387558,0.018707187846302986,0.10131902992725372
234,5,-0.00418322067707777,-0.00026104520657099783,0.0014036366483196616,-0.06692380458116531,0.006419400218874216,-0.05155167356133461,-0.019697023555636406,0.3620368540287018,0.04687676206231117,0.19517458975315094,3.1570944786071777,0.5330917835235596,0.0,0.0,0.0,-0.007721260655671358,-0.06384185701608658,-0.0,0.0,0.0,0.0,-6.28030247753486e-05,0.004999999888241291,0.002315942896530032,46174.0,0.0,35907.0,11256.0,0.2084391713142395,-0.025772619992494583,0.14728477597236633,0.035024188458919525,0.0,0.0,0.0,0.0,45100.0,0.0,35022.0,12116.0,0.3804435729980469,-0.079383628942776,-0.4279416343049841,-0.0014172550955607126,0.28091439604759216,-0.02615251950919628,0.1714053452014923
239,5,-0.004549792502075434,-0.0002660404425114393,0.0019505949458107352,-0.07139719277620316,0.002625155495479703,-0.09203965961933136,-0.019697023555636406,0.3620368540287018,0.04687676206231117,0.19517458975315094,3.1570944786071777,0.5330917835235596,0.0,0.0,0.0,-0.0035037093330174685,-0.06753933429718018,-0.0,0.0,0.0,0.0,-6.28030247753486e-05,0.004999999888241291,0.002315942896530032,46174.0,0.0,35907.0,11256.0,0.2084391713142395,-0.025772619992494583,0.14728477597236633,0.035024188458919525,0.0,0.0,0.0,0.0,45100.0,0.0,35022.0,12116.0,0.384684294462204,-0.07626951603985614,-0.40611554376574815,0.002934971517951312,0.30048492550849915,-0.012000145390629768,0.30545228719711304
244,5,-0.004956855904310942,-0.0005554910749197006,0.0020291993860155344,-0.07840803265571594,0.041310638189315796,-0.03861650824546814,-0.019492777064442635,0.32227036356925964,0.051883209496736526,0.1334308385848999,3.4645285606384277,0.36962732672691345,0.0,0.0,0.0,-0.04461663216352463,-0.07141624391078949,-0.0,0.0,0.0,0.0,0.0006973191048018634,0.004999999888241291,0.0022136098705232143,45085.0,0.0,36285.0,13547.0,0.2015525847673416,-0.02638367936015129,0.14938384294509888,0.04339879751205444,0.0,0.0,0.0,0.0,46430.0,0.0,36320.0,10795.0,0.39979061484336853,-0.09543181131851017,-0.3907182793572308,0.003568243937778505,0.3298482596874237,-0.158712238073349,0.152315154671669
249,5,-0.0053548733703792095,-0.0006190015701577067,0.0018148908857256174,-0.07924487441778183,0.02128465659916401,0.018418218940496445,-0.019492777064442635,0.32227036356925964,0.051883209496736526,0.1334308385848999,3.4645285606384277,0.36962732672691345,0.0,0.0,0.0,-0.044623054563999176,-0.07157491892576218,-0.0,0.0,0.0,0.0,0.0006973191048018634,0.004999999888241291,0.0022136098705232143,45085.0,0.0,36285.0,13547.0,0.2015525847673416,-0.02638367936015129,0.14938384294509888,0.04339879751205444,0.0,0.0,0.0,0.0,46430.0,0.0,36320.0,10795.0,0.3951808214187622,-0.10670514029336632,-0.36273240670954143,0.010000042658775007,0.3360757827758789,-0.0840650349855423,-0.015870682895183563
254,5,-0.005536030512303114,-0.00035802493221126497,0.0018840116681531072,-0.04913543537259102,-0.030151333659887314,-0.004151445813477039,-0.019642194733023643,0.29372638463974,0.05495418235659599,0.02329099550843239,3.5288877487182617,0.47157666087150574,0.0,0.0,0.0,0.03314703330397606,-0.0521547868847847,-0.0,0.0,0.0,0.0,0.0005381529335863888,0.004999999888241291,0.0025113343726843596,47487.0,0.0,38696.0,11655.0,0.21686892211437225,-0.031687717884778976,0.16305972635746002,0.03645430505275726,0.0,0.0,0.0,0.0,45319.0,0.0,36491.0,13152.0,0.3733476400375366,-0.10300951710424736,-0.3539058254609588,0.01400944256734051,0.22515025734901428,0.11014188081026077,0.05845936760306358
259,5,-0.006054343190044165,-0.00040571618592366576,0.0019902451895177364,-0.08730440586805344,-0.0023686217609792948,-0.016118107363581657,-0.019642194733023643,0.29372638463974,0.05495418235659599,0.02329099550843239,3.5288877487182617,0.47157666087150574,0.0,0.0,0.0,0.0015764866257086396,-0.08026247471570969,-0.0,0.0,0.0,0.0,0.0005381529335863888,0.004999999888241291,0.0025113343726843596,47487.0,0.0,38696.0,11655.0,0.21686892211437225,-0.031687717884778976,0.16305972635746002,0.03645430505275726,0.0,0.0,0.0,0.0,45319.0,0.0,36491.0,13152.0,0.40103694796562195,-0.10259353896013024,-0.3297652484073802,0.0162474242285595,0.37215757369995117,0.00562821002677083,0.10175150632858276
264,5,-0.006418293807655573,2.6422903829370625e-05,0.0024437818210572004,-0.07714443653821945,-0.06121005862951279,-0.06833057105541229,-0.021044323220849037,0.2500073313713074,0.059498678892850876,-0.016598664224147797,3.668661594390869,0.4148368835449219,0.0,0.0,0.0,0.06278286874294281,-0.07135289907455444,-0.0,0.0,0.0,0.0,0.00012825342128053308,0.004999999888241291,0.0025297796819359064,48574.0,0.0,39113.0,11144.0,0.2239590883255005,-0.02883615344762802,0.16546931862831116,0.03462529182434082,0.0,0.0,0.0,0.0,48950.0,0.0,39274.0,10443.0,0.40943577885627747,-0.08209810097256515,-0.3031350751752706,0.014535183047497862,0.3371775150299072,0.228586807847023,0.27133461833000183
269,5,-0.006878368556499481,6.2617127696285024e-06,0.0028794575482606888,-0.08755380660295486,-0.015540451742708683,-0.08149376511573792,-0.021044323220849037,0.2500073313713074,0.059498678892850876,-0.016598664224147797,3.668661594390869,0.4148368835449219,0.0,0.0,0.0,0.015916747972369194,-0.08138936758041382,-0.0,0.0,0.0,0.0,0.00012825342128053308,0.004999999888241291,0.0025297796819359064,48574.0,0.0,39113.0,11144.0,0.2239590883255005,-0.02883615344762802,0.16546931862831116,0.03462529182434082,0.0,0.0,0.0,0.0,48950.0,0.0,39274.0,10443.0,0.40381449460983276,-0.0785780709747725,-0.2813303791337962,0.018061766396131426,0.3799382448196411,0.057219747453927994,0.32495686411857605
275,5,-0.00716566713526845,4.080224607605487e-05,0.003101272974163294,-0.06648791581392288,-0.009497810155153275,-0.05550230294466019,-0.021965621039271355,0.22109466791152954,0.06219960004091263,-0.03521892800927162,3.568450927734375,0.3519001007080078,0.0,0.0,0.0,0.0101165184751153,-0.06807847321033478,-0.0,0.0,0.0,0.0,0.00026323169004172087,0.004999999888241291,0.002590867690742016,48105.0,0.0,40310.0,12805.0,0.22088494896888733,-0.03289737552404404,0.17247352004051208,0.0406423956155777,0.0,0.0,0.0,0.0,48060.0,0.0,40353.0,12884.0,0.38584205508232117,-0.07679551359857503,-0.264452964399287,0.021286023420645478,0.3037809133529663,0.03475106507539749,0.25910311937332153
280,5,-0.0074777198024094105,0.00012984962086193264,0.003399921115487814,-0.0636337473988533,-0.015315975993871689,-0.05846143513917923,-0.021965621039271355,0.22109466791152954,0.06219960004091263,-0.03521892800927162,3.568450927734375,0.3519001007080078,0.0,0.0,0.0,0.01665438711643219,-0.0665312185883522,-0.0,0.0,0.0,0.0,0.00026323169004172087,0.004999999888241291,0.002590867690742016,48105.0,0.0,40310.0,12805.0,0.22088494896888733,-0.03289737552404404,0.17247352004051208,0.0406423956155777,0.0,0.0,0.0,0.0,48060.0,0.0,40353.0,12884.0,0.3848995864391327,-0.07176679664504619,-0.24478964417655769,0.020829906522502252,0.29613858461380005,0.057066865265369415,0.28216665983200073
285,5,-0.007891329005360603,0.00013827622751705348,0.0033889105543494225,-0.07699546217918396,-0.005774516612291336,-0.015996944159269333,-0.023146305233240128,0.1797790229320526,0.06454210728406906,-0.07318590581417084,3.3538310527801514,0.18296213448047638,0.0,0.0,0.0,0.006056379061192274,-0.07640393823385239,-0.0,0.0,0.0,0.0,0.000994018861092627,0.004999999888241291,0.0024487765040248632,46932.0,0.0,40104.0,15184.0,0.21329092979431152,-0.030275117605924606,0.17125707864761353,0.04964224249124527,0.0,0.0,0.0,0.0,46279.0,0.0,39266.0,16251.0,0.3960840702056885,-0.06638279994456192,-0.2274199403134229,0.020927858757838542,0.34991195797920227,0.021356914192438126,0.16514723002910614
290,5,-0.007982684299349785,0.00035916821798309684,0.0034508071839809418,-0.035888299345970154,-0.032657232135534286,-0.013464605435729027,-0.023146305233240128,0.1797790229320526,0.06454210728406906,-0.07318590581417084,3.3538310527801514,0.18296213448047638,0.0,0.0,0.0,0.03656508028507233,-0.045093610882759094,-0.0,0.0,0.0,0.0,0.000994018861092627,0.004999999888241291,0.0024487765040248632,46932.0,0.0,40104.0,15184.0,0.21329092979431152,-0.030275117605924606,0.17125707864761353,0.04964224249124527,0.0,0.0,0.0,0.0,46279.0,0.0,39266.0,16251.0,0.3792363107204437,-0.07069506883051777,-0.21360324436454903,0.02260026600697274,0.19774244725704193,0.12340859323740005,0.16907210648059845
295,5,-0.008397658355534077,0.0005059813847765326,0.003809712827205658,-0.06886293739080429,-0.03035101108253002,-0.05428618937730789,-0.023776596412062645,0.15376651287078857,0.06507793068885803,-0.08661139756441116,3.1243457794189453,0.13267803192138672,0.0,0.0,0.0,0.03289876878261566,-0.07123344391584396,-0.0,0.0,0.0,0.0,0.001589893247000873,0.004999999888241291,0.0024182437919080257,46573.0,0.0,39858.0,15775.0,0.21098563075065613,-0.02883322164416313,0.16981518268585205,0.051947541534900665,0.0,0.0,0.0,0.0,45570.0,0.0,38860.0,14988.0,0.3949182331562042,-0.059850199708179994,-0.2100604494028374,0.022834985214803618,0.32515373826026917,0.11563444137573242,0.3075496256351471
300,5,-0.00864686444401741,0.0005723998183384538,0.00395590253174305,-0.05554768443107605,-0.01840388961136341,-0.036752406507730484,-0.023776596412062645,0.15376651287078857,0.06507793068885803,-0.08661139756441116,3.1243457794189453,0.13267803192138672,0.0,0.0,0.0,0.020985886454582214,-0.06303111463785172,-0.0,0.0,0.0,0.0,0.001589893247000873,0.004999999888241291,0.0024182437919080257,46573.0,0.0,39858.0,15775.0,0.21098563075065613,-0.02883322164416313,0.16981518268585205,0.051947541534900665,0.0,0.0,0.0,0.0,45570.0,0.0,38860.0,14988.0,0.38161787390708923,-0.05775273602361817,-0.19426372778761808,0.023520156827018312,0.2781548798084259,0.07129234820604324,0.26895853877067566
305,5,-0.008961029350757599,0.0006564048235304654,0.003936679568141699,-0.06064743176102638,-0.01728186383843422,-0.008334510959684849,-0.024682456627488136,0.11777369678020477,0.06565890461206436,-0.0448109433054924,2.8376522064208984,0.10008800029754639,0.0,0.0,0.0,0.019667576998472214,-0.06727863848209381,-0.0,0.0,0.0,0.0,0.001568248844705522,0.004999999888241291,0.00238497881218791,45798.0,0.0,38864.0,14614.0,0.20604875683784485,-0.03249004855751991,0.16402986645698547,0.04744226485490799,0.0,0.0,0.0,0.0,44585.0,0.0,39011.0,15833.0,0.38640350103378296,-0.04671173739887445,-0.17565806747062945,0.025639773246025614,0.30060267448425293,0.06765251606702805,0.19558042287826538
310,5,-0.00928346998989582,0.0005907848244532943,0.004335373640060425,-0.0633358582854271,0.004002237226814032,-0.05831751972436905,-0.024682456627488136,0.11777369678020477,0.06565890461206436,-0.0448109433054924,2.8376522064208984,0.10008800029754639,0.0,0.0,0.0,-0.003591972403228283,-0.0700429230928421,-0.0,0.0,0.0,0.0,0.001568248844705522,0.004999999888241291,0.00238497881218791,45798.0,0.0,38864.0,14614.0,0.20604875683784485,-0.03249004855751991,0.16402986645698547,0.04744226485490799,0.0,0.0,0.0,0.0,44585.0,0.0,39011.0,15833.0,0.38780179619789124,-0.05232595818780321,-0.16828379002441787,0.024156909850199807,0.31413885951042175,-0.012400894425809383,0.36383190751075745
315,5,-0.009692461229860783,0.000653745315503329,0.004640802275389433,-0.07625960558652878,-0.007613794878125191,-0.060255296528339386,-0.02508966065943241,0.0963721051812172,0.06531766057014465,-0.06248858943581581,2.4831995964050293,-0.03725992888212204,0.0,0.0,0.0,0.00887615978717804,-0.07925137877464294,-0.0,0.0,0.0,0.0,0.00223958445712924,0.004999999888241291,0.00218655401840806,43551.0,0.0,37890.0,17438.0,0.19200700521469116,-0.02979287877678871,0.15843698382377625,0.05858830362558365,0.0,0.0,0.0,0.0,43893.0,0.0,37329.0,17236.0,0.40006574988365173,-0.05241251507025778,-0.1574766426327607,0.022444221290400735,0.36656638979911804,0.031614698469638824,0.3875732123851776
321,5,-0.010088445618748665,0.0008176236297003925,0.004758982453495264,-0.07831567525863647,-0.025227101519703865,-0.03462180495262146,-0.02508966065943241,0.0963721051812172,0.06531766057014465,-0.06248858943581581,2.4831995964050293,-0.03725992888212204,0.0,0.0,0.0,0.008900684304535389,-0.079554483294487,-0.0,0.0,0.0,0.0,0.00223958445712924,0.004999999888241291,0.00218655401840806,43551.0,0.0,37890.0,17438.0,0.19200700521469116,-0.02979287877678871,0.15843698382377625,0.05858830362558365,0.0,0.0,0.0,0.0,43893.0,0.0,37329.0,17236.0,0.405391126871109,-0.054153721642044364,-0.14727120756815834,0.01858117588951542,0.37824341654777527,0.09868679195642471,0.32671886682510376
326,5,-0.010396536439657211,0.0008309927652589977,0.004820067435503006,-0.06662748008966446,-0.009439807385206223,-0.01893841288983822,-0.025835160166025162,0.0689241886138916,0.06296644359827042,-0.05210765451192856,2.1231071949005127,-0.2085879147052765,0.0,0.0,0.0,0.01132819801568985,-0.07423745840787888,-0.0,0.0,0.0,0.0,0.001746606663800776,0.004999999888241291,0.0018447572365403175,42090.0,0.0,35183.0,19891.0,0.18310090899467468,-0.013347920030355453,0.14328916370868683,0.06879155337810516,0.0,0.0,0.0,0.0,42695.0,0.0,35677.0,19022.0,0.3937438130378723,-0.05441777091457363,-0.14030909551837145,0.017755620157169402,0.3379996716976166,0.03971131145954132,0.2954598367214203
331,5,-0.010817383415997028,0.0006864813040010631,0.00467650406062603,-0.07890680432319641,0.017399659380316734,0.014417328871786594,-0.025835160166025162,0.0689241886138916,0.06296644359827042,-0.05210765451192856,2.1231071949005127,-0.2085879147052765,0.0,0.0,0.0,-0.017042430117726326,-0.08276593685150146,-0.0,0.0,0.0,0.0,0.001746606663800776,0.004999999888241291,0.0018447572365403175,42090.0,0.0,35183.0,19891.0,0.18310090899467468,-0.013347920030355453,0.14328916370868683,0.06879155337810516,0.0,0.0,0.0,0.0,42695.0,0.0,35677.0,19022.0,0.4058681130409241,-0.04889302095460656,-0.1281756026188921,0.01647296318739052,0.38829681277275085,-0.06157737225294113,0.2081741988658905
336,5,-0.01105996873229742,0.0006976741715334356,0.004771764390170574,-0.05763395503163338,0.003652897896245122,-0.00901125930249691,-0.02600076235830784,0.05340944230556488,0.0608939565718174,-0.03437349945306778,1.756408452987671,-0.2379201054573059,0.0,0.0,0.0,-0.0028536044992506504,-0.06963273137807846,-0.0,0.0,0.0,0.0,0.001898212474770844,0.004999999888241291,0.0015112521359696984,42805.0,0.0,34050.0,19605.0,0.18743634223937988,-0.004062984138727188,0.1371246874332428,0.0675765722990036,0.0,0.0,0.0,0.0,42640.0,0.0,33876.0,19842.0,0.3872620463371277,-0.05006534253111123,-0.1277335613317098,0.01944935840761944,0.3118709921836853,-0.00983771774917841,0.2943931818008423
341,5,-0.01149828266352415,0.0008445829153060913,0.005104685667902231,-0.07865413278341293,-0.019471358507871628,-0.04931235313415527,-0.02600076235830784,0.05340944230556488,0.0608939565718174,-0.03437349945306778,1.756408452987671,-0.2379201054573059,0.0,0.0,0.0,-0.0028132223524153233,-0.08377585560083389,-0.0,0.0,0.0,0.0,0.001898212474770844,0.004999999888241291,0.0015112521359696984,42805.0,0.0,34050.0,19605.0,0.18743634223937988,-0.004062984138727188,0.1371246874332428,0.0675765722990036,0.0,0.0,0.0,0.0,42640.0,0.0,33876.0,19842.0,0.4080795645713806,-0.043052753921869344,-0.11715648439188683,0.01730764172988247,0.39513200521469116,0.07781413942575455,0.4348524808883667
346,5,-0.011890183202922344,0.0008478746749460697,0.005220180377364159,-0.07846235483884811,-0.006302249152213335,-0.03096291981637478,-0.02600076235830784,0.05340944230556488,0.0608939565718174,-0.03437349945306778,1.756408452987671,-0.2379201054573059,0.0,0.0,0.0,0.007886535488069057,-0.08465989679098129,-0.0,0.0,0.0,0.0,0.001898212474770844,0.004999999888241291,0.0015112521359696984,42805.0,0.0,34050.0,19605.0,0.18743634223937988,-0.004062984138727188,0.1371246874332428,0.0675765722990036,0.0,0.0,0.0,0.0,42640.0,0.0,33876.0,19842.0,0.40734827518463135,-0.04434236806243234,-0.11276954854430862,0.013625147636489492,0.3986552357673645,0.028601372614502907,0.3969782888889313
351,5,-0.012202698737382889,0.0009105920908041298,0.005278025753796101,-0.06729086488485336,-0.01067111361771822,-0.017387261614203453,-0.026265867054462433,0.0346197783946991,0.05679938942193985,-0.03260615095496178,1.3694931268692017,-0.3406042456626892,0.0,0.0,0.0,0.012803494930267334,-0.07818043977022171,-0.0,0.0,0.0,0.0,0.00045164336916059256,0.0029485218692570925,0.0012505885679274797,38106.0,12244.0,33927.0,20534.0,0.15966852009296417,0.038582682609558105,0.13646134734153748,0.0715450793504715,0.0,0.0,0.0,0.0,39962.0,3199.0,35609.0,22628.0,0.3990735709667206,-0.043564089262153306,-0.10950648042829189,0.011735399951163017,0.3607291579246521,0.045489996671676636,0.3735654354095459
356,5,-0.012608674354851246,0.001010993611998856,0.00508554233238101,-0.07702377438545227,-0.01725754700601101,0.021731533110141754,-0.026265867054462433,0.0346197783946991,0.05679938942193985,-0.03260615095496178,1.3694931268692017,-0.3406042456626892,0.0,0.0,0.0,0.019462566822767258,-0.08492016792297363,-0.0,0.0,0.0,0.0,0.00045164336916059256,0.0029485218692570925,0.0012505885679274797,38106.0,12244.0,33927.0,20534.0,0.15966852009296417,0.038582682609558105,0.13646134734153748,0.0715450793504715,0.0,0.0,0.0,0.0,39962.0,3199.0,35609.0,22628.0,0.4092676043510437,-0.041613836241315816,-0.09875146258320835,0.010505231565716129,0.4017130434513092,0.07090963423252106,0.2695421278476715
361,5,-0.012790429405868053,0.0008824517135508358,0.004917689599096775,-0.04855284467339516,0.012818594463169575,0.030018800869584084,-0.026444897055625916,0.025236401706933975,0.05343952029943466,0.008514015935361385,0.9596174359321594,-0.4396190941333771,0.0,0.0,0.0,0.019488146528601646,-0.0852985829114914,-0.0,0.0,0.0,0.0,0.001325131393969059,-0.0004319476429373026,0.0009594219154678285,31493.0,18660.0,36118.0,20573.0,0.12359310686588287,0.0636119693517685,0.14845292270183563,0.07171492278575897,0.0,0.0,0.0,0.0,36563.0,14556.0,34740.0,19523.0,0.38481605052948,-0.05287148090367594,-0.10571445037261334,0.008921326175407819,0.2982543706893921,-0.042398057878017426,0.25766924023628235
366,5,-0.013301349245011806,0.0010960425715893507,0.005115236155688763,-0.08609470725059509,-0.02605714276432991,-0.01865086890757084,-0.026444897055625916,0.025236401706933975,0.05343952029943466,0.008514015935361385,0.9596174359321594,-0.4396190941333771,0.0,0.0,0.0,0.027983183041214943,-0.09144910424947739,-0.0,0.0,0.0,0.0,0.001325131393969059,-0.0004319476429373026,0.0009594219154678285,31493.0,18660.0,36118.0,20573.0,0.12359310686588287,0.0636119693517685,0.14845292270183563,0.07171492278575897,0.0,0.0,0.0,0.0,36563.0,14556.0,34740.0,19523.0,0.4204496741294861,-0.04043948412378089,-0.10321172617312306,0.00565789698061614,0.4442262053489685,0.10472516715526581,0.4218912124633789
372,5,-0.01354924589395523,0.001249839668162167,0.005018637049943209,-0.06053394451737404,-0.02934872731566429,0.007928610779345036,-0.026707498356699944,0.01412267703562975,0.04215937852859497,-0.002273554215207696,0.1296110451221466,-0.5945596098899841,0.0,0.0,0.0,0.03309876099228859,-0.07600574940443039,-0.0,0.0,0.0,0.0,0.0016739338170737028,-0.002594962250441313,0.0006344844587147236,26326.0,23978.0,38030.0,19087.0,0.09785028547048569,0.08686164766550064,0.1592368185520172,0.06539695709943771,0.0,0.0,0.0,0.0,30410.0,20108.0,36954.0,19350.0,0.400961309671402,-0.03448253589055772,-0.10987988050138074,0.00044497901147759125,0.35221195220947266,0.11811904609203339,0.3565537631511688
377,5,-0.013834955170750618,0.0011593495728448033,0.004581877961754799,-0.05815945938229561,0.0038639958947896957,0.06352486461400986,-0.026707498356699944,0.01412267703562975,0.04215937852859497,-0.002273554215207696,0.1296110451221466,-0.5945596098899841,0.0,0.0,0.0,-0.0019023194909095764,-0.07598655670881271,-0.0,0.0,0.0,0.0,0.0016739338170737028,-0.002594962250441313,0.0006344844587147236,26326.0,23978.0,38030.0,19087.0,0.09785028547048569,0.08686164766550064,0.1592368185520172,0.06539695709943771,0.0,0.0,0.0,0.0,30410.0,20108.0,36954.0,19350.0,0.3953673243522644,-0.028205750914974178,-0.10256528866365043,-0.002318156361272587,0.3474009037017822,-0.006694433744996786,0.19872772693634033
382,5,-0.014211777597665787,0.0010475318413227797,0.004899082239717245,-0.07020299881696701,0.01681368425488472,-0.02535112574696541,-0.026330353692173958,0.014383234083652496,0.03420213609933853,0.03704477474093437,-0.09908279031515121,-0.7004295587539673,0.0,0.0,0.0,-0.01533518172800541,-0.08428625762462616,-0.0,0.0,0.0,0.0,0.0018416926031932235,-0.004999999888241291,0.00044997004442848265,22510.0,29017.0,38212.0,20714.0,0.07699459046125412,0.11099163442850113,0.16027718782424927,0.07232300192117691,0.0,0.0,0.0,0.0,24511.0,25788.0,37697.0,19562.0,0.4076821804046631,-0.0433953117136597,-0.10303868738769657,-0.0018918771008919484,0.39721226692199707,-0.05565579608082771,0.4843493103981018
387,5,-0.01463936734944582,0.000991661800071597,0.0048841009847819805,-0.0809234008193016,0.012865906581282616,-0.005507998634129763,-0.026330353692173958,0.014383234083652496,0.03420213609933853,0.03704477474093437,-0.09908279031515121,-0.7004295587539673,0.0,0.0,0.0,-0.011018193326890469,-0.09166540950536728,-0.0,0.0,0.0,0.0,0.0018416926031932235,-0.004999999888241291,0.00044997004442848265,22510.0,29017.0,38212.0,20714.0,0.07699459046125412,0.11099163442850113,0.16027718782424927,0.07232300192117691,0.0,0.0,0.0,0.0,24511.0,25788.0,37697.0,19562.0,0.4176085591316223,-0.05549108337742429,-0.10516482688030786,-0.007631561119695419,0.44241148233413696,-0.040964409708976746,0.4397808611392975
392,5,-0.01503419503569603,0.001154696918092668,0.004951758775860071,-0.07955296337604523,-0.01896515116095543,-0.011124439537525177,-0.02616848424077034,0.01655583642423153,0.028176192194223404,-0.028603745624423027,-0.32662147283554077,-0.791919469833374,0.0,0.0,0.0,0.021320950239896774,-0.09136375784873962,-0.0,0.0,0.0,0.0,0.0009713160688988864,-0.004999999888241291,8.41683940961957e-05,18762.0,31056.0,34106.0,20819.0,0.06403639167547226,0.12133529782295227,0.13743069767951965,0.07277838885784149,0.0,0.0,0.0,0.0,20785.0,29732.0,37583.0,21714.0,0.41876137256622314,-0.05161324879307587,-0.10346181963509614,-0.013182986333960865,0.4421032965183258,0.07947971671819687,0.47242623567581177
397,5,-0.01526734884828329,0.0011658314615488052,0.0049324664287269115,-0.05650732293725014,-0.007248371839523315,-0.0006364229484461248,-0.02616848424077034,0.01655583642423153,0.028176192194223404,-0.028603745624423027,-0.32662147283554077,-0.791919469833374,0.0,0.0,0.0,0.010092836804687977,-0.07806013524532318,-0.0,0.0,0.0,0.0,0.0009713160688988864,-0.004999999888241291,8.41683940961957e-05,18762.0,31056.0,34106.0,20819.0,0.06403639167547226,0.12133529782295227,0.13743069767951965,0.07277838885784149,0.0,0.0,0.0,0.0,20785.0,29732.0,37583.0,21714.0,0.398598849773407,-0.04862576684788459,-0.11006598554387582,-0.015908432982758878,0.3597396910190582,0.035816144198179245,0.4558975100517273
402,5,-0.015599607490003109,0.0012111067771911621,0.0049173301085829735,-0.06346841156482697,-0.00851305853575468,0.0019281357526779175,-0.025684906169772148,0.021913772448897362,0.018394023180007935,0.037831760942935944,-0.49709126353263855,-0.8603701591491699,0.0,0.0,0.0,0.011357168667018414,-0.08325839787721634,-0.0,0.0,0.0,0.0,0.0009012538939714432,-0.004999999888241291,-0.00025567584089003503,17699.0,34930.0,32340.0,24294.0,0.059652261435985565,0.14190314710140228,0.1280166655778885,0.08831634372472763,0.0,0.0,0.0,0.0,17526.0,35249.0,32007.0,24447.0,0.4057483375072479,-0.05245160543260996,-0.11049634627609825,-0.022582293070846405,0.3905363380908966,0.04102666303515434,0.4633888602256775
407,5,-0.015964370220899582,0.001281794044189155,0.004916141740977764,-0.07010741531848907,-0.01245013065636158,0.0007448149845004082,-0.025684906169772148,0.021913772448897362,0.018394023180007935,0.037831760942935944,-0.49709126353263855,-0.8603701591491699,0.0,0.0,0.0,0.015341170132160187,-0.08805430680513382,-0.0,0.0,0.0,0.0,0.0009012538939714432,-0.004999999888241291,-0.00025567584089003503,17699.0,34930.0,32340.0,24294.0,0.059652261435985565,0.14190314710140228,0.1280166655778885,0.08831634372472763,0.0,0.0,0.0,0.0,17526.0,35249.0,32007.0,24447.0,0.4129584729671478,-0.05020677906239695,-0.11242268549646553,-0.02433626484150235,0.42029625177383423,0.056401629000902176,0.48191869258880615
412,5,-0.01645013317465782,0.0009611214627511799,0.00453224265947938,-0.08903902024030685,0.04115911200642586,0.053969353437423706,-0.025149481371045113,0.02574140951037407,0.011924737133085728,0.0007113099563866854,-0.4354854226112366,-0.7946842312812805,0.0,0.0,0.0,-0.03778563812375069,-0.09898693859577179,-0.0,0.0,0.0,0.0,0.0006927322829142213,-0.004999999888241291,-0.0005616792477667332,12932.0,34800.0,30656.0,26234.0,0.041110049933195114,0.14119234681129456,0.11928001046180725,0.09741110354661942,0.0,0.0,0.0,0.0,12508.0,35259.0,30163.0,26560.0,0.4346805512905121,-0.06943340130503274,-0.12193884546195644,-0.02513878489188246,0.49686264991760254,-0.14616648852825165,0.3313099443912506
417,5,-0.016677452251315117,0.0013515067985281348,0.004834076855331659,-0.05853622406721115,-0.04230620712041855,-0.026066018268465996,-0.025149481371045113,0.02574140951037407,0.011924737133085728,0.0007113099563866854,-0.4354854226112366,-0.7946842312812805,0.0,0.0,0.0,0.04606933146715164,-0.08114082366228104,-0.0,0.0,0.0,0.0,0.0006927322829142213,-0.004999999888241291,-0.0005616792477667332,12932.0,34800.0,30656.0,26234.0,0.041110049933195114,0.14119234681129456,0.11928001046180725,0.09741110354661942,0.0,0.0,0.0,0.0,12508.0,35259.0,30163.0,26560.0,0.4126695692539215,-0.05231050111132916,-0.12006856168598434,-0.030418640737377732,0.38673949241638184,0.16915439069271088,0.5898046493530273
422,5,-0.017361532896757126,0.0016497201286256313,0.004585343413054943,-0.11333221942186356,-0.05444173142313957,0.027002869173884392,-0.02477044053375721,0.031941305845975876,0.0021793378982692957,0.03815346583724022,-0.48592865467071533,-0.8392577171325684,0.0,0.0,0.0,0.052650898694992065,-0.11233361810445786,-0.0,0.0,0.0,0.0,0.0013849007664248347,-0.004999999888241291,-0.0006797640235163271,11350.0,36069.0,29277.0,27428.0,0.035361118614673615,0.1481822282075882,0.1122901439666748,0.10316003859043121,0.0,0.0,0.0,0.0,10051.0,37823.0,28746.0,29806.0,0.46235761046409607,-0.04673704671583205,-0.10341362832845957,-0.04748796485759592,0.5990430116653442,0.21655189990997314,0.44158604741096497
427,5,-0.01723477430641651,0.0017382391961291432,0.0048413402400910854,-0.016253642737865448,-0.028725190088152885,-0.027738645672798157,-0.02477044053375721,0.031941305845975876,0.0021793378982692957,0.03815346583724022,-0.48592865467071533,-0.8392577171325684,0.0,0.0,0.0,0.03603795915842056,-0.054491061717271805,-0.0,0.0,0.0,0.0,0.0013849007664248347,-0.004999999888241291,-0.0006797640235163271,11350.0,36069.0,29277.0,27428.0,0.035361118614673615,0.1481822282075882,0.1122901439666748,0.10316003859043121,0.0,0.0,0.0,0.0,10051.0,37823.0,28746.0,29806.0,0.37697142362594604,-0.05633819886596933,-0.12136708451345525,-0.04640041690729741,0.23747774958610535,0.12090401351451874,0.6236550211906433
432,5,-0.017700601369142532,0.0017356015741825104,0.004957051482051611,-0.07009178400039673,-0.008248291909694672,-0.024521218612790108,-0.02382519841194153,0.03569696471095085,-0.004463384859263897,0.06751155108213425,-0.4311966300010681,-0.8117930293083191,0.0,0.0,0.0,0.011928831227123737,-0.09207799285650253,-0.0,0.0,0.0,0.0,0.0012690456351265311,-0.004999999888241291,-0.001043329481035471,8942.0,38814.0,27591.0,30552.0,0.02699332684278488,0.16373707354068756,0.10395491123199463,0.11874745041131973,0.0,0.0,0.0,0.0,5971.0,38129.0,28372.0,32398.0,0.41831156611442566,-0.05738292778231299,-0.11752941439264,-0.05093759351235589,0.4451671540737152,0.044427044689655304,0.6308791637420654
438,5,-0.017839232459664345,0.0018524331972002983,0.004866350442171097,-0.040435791015625,-0.018830912187695503,0.005341780837625265,-0.02382519841194153,0.03569696471095085,-0.004463384859263897,0.06751155108213425,-0.4311966300010681,-0.8117930293083191,0.0,0.0,0.0,0.024155644699931145,-0.07389877736568451,-0.0,0.0,0.0,0.0,0.0012690456351265311,-0.004999999888241291,-0.001043329481035471,8942.0,38814.0,27591.0,30552.0,0.02699332684278488,0.16373707354068756,0.10395491123199463,0.11874745041131973,0.0,0.0,0.0,0.0,5971.0,38129.0,28372.0,32398.0,0.3956684470176697,-0.053328124199233856,-0.12431131544609528,-0.054746915709563776,0.3380393385887146,0.0850805714726448,0.5554113984107971
443,5,-0.018177153542637825,0.0019465709337964654,0.004939418286085129,-0.059439703822135925,-0.018828563392162323,-0.008626933209598064,-0.02382519841194153,0.03569696471095085,-0.004463384859263897,0.06751155108213425,-0.4311966300010681,-0.8117930293083191,0.0,0.0,0.0,0.023383626714348793,-0.08686483651399612,-0.0,0.0,0.0,0.0,0.0012690456351265311,-0.004999999888241291,-0.001043329481035471,8942.0,38814.0,27591.0,30552.0,0.02699332684278488,0.16373707354068756,0.10395491123199463,0.11874745041131973,0.0,0.0,0.0,0.0,5971.0,38129.0,28372.0,32398.0,0.41278937458992004,-0.05404664813288702,-0.12491433859507887,-0.05873742082920153,0.41440242528915405,0.08592630177736282,0.6131415367126465
448,5,-0.018472209572792053,0.0019386089406907558,0.004798459820449352,-0.059139691293239594,-0.0045338766649365425,0.017146088182926178,-0.023572314530611038,0.03982046619057655,-0.014463990926742554,-0.0669652447104454,-0.24092502892017365,-0.8659899830818176,0.0,0.0,0.0,0.008899616077542305,-0.0878477543592453,-0.0,0.0,0.0,0.0,0.0025838417932391167,-0.004999999888241291,-0.0012726593995466828,3104.0,39155.0,27163.0,34025.0,0.008643817156553268,0.16571342945098877,0.10187530517578125,0.13699370622634888,0.0,0.0,0.0,0.0,236.0,38055.0,24747.0,32185.0,0.41191452741622925,-0.058860663049325565,-0.12710197924339783,-0.06458428077382877,0.4182828962802887,0.03263944759964943,0.5490062236785889
453,5,-0.018810080364346504,0.0022298190742731094,0.0045856148935854435,-0.06504382193088531,-0.04212959110736847,0.03494209796190262,-0.023572314530611038,0.03982046619057655,-0.014463990926742554,-0.0669652447104454,-0.24092502892017365,-0.8659899830818176,0.0,0.0,0.0,0.04634910449385643,-0.09066624939441681,-0.0,0.0,0.0,0.0,0.0025838417932391167,-0.004999999888241291,-0.0012726593995466828,3104.0,39155.0,27163.0,34025.0,0.008643817156553268,0.16571342945098877,0.10187530517578125,0.13699370622634888,0.0,0.0,0.0,0.0,236.0,38055.0,24747.0,32185.0,0.42578619718551636,-0.046133774633919156,-0.1408266112220674,-0.06908529039095967,0.44571954011917114,0.17558735609054565,0.5072794556617737
