timestamp,dt,pos_x,pos_y,pos_z,vel_x,vel_y,vel_z,roll,pitch,yaw,agv_x,agv_y,agv_z,x_ref,y_ref,z_ref,roll_ref,pitch_ref,yaw_ref,x_vel_ref,y_vel_ref,z_vel_ref,x_torque,y_torque,z_torque,w0,w1,w2,w3,u0,u1,u2,u3,m0req,m1req,m2req,m3req,thrust0,thrust1,thrust2,thrust3,thrust_ref,roll_vicon,pitch_vicon,yaw_vicon
5,5,0.0,0.0,0.0,0.00318242609500885,0.00041006362880580127,-0.00975754763931036,-0.029378842562437057,-0.0028334215749055147,-0.03109823912382126,-0.0010741166770458221,0.05205537751317024,-0.008171447552740574,0.0,0.0,0.0,-0.00017416889022570103,0.0013516922481358051,-0.0,0.0,0.0,0.0,0.0009616804891265929,0.0006045876070857048,-0.000931509945075959,0.0,0.0,0.0,0.0,0.0,0.0,0.0,0.0,0.0,0.0,0.0,0.0,0.0,0.0,0.0,0.0,0.5085508823394775,-0.07809533889621222,-0.02982597853841196,0.05356968394113335
26,21,0.0,0.0,0.0,-0.0028124540112912655,-0.0038394241128116846,-0.0024904466699808836,-0.029378842562437057,-0.0028334215749055147,-0.03109823912382126,-0.0010741166770458221,0.05205537751317024,-0.008171447552740574,0.0,0.0,0.0,-0.00017416889022570103,0.0013516922481358051,-0.0,0.0,0.0,0.0,0.0009616804891265929,0.0006045876070857048,-0.000931509945075959,0.0,0.0,0.0,0.0,0.0,0.0,0.0,0.0,0.0,0.0,0.0,0.0,0.0,0.0,0.0,0.0,0.5085508823394775,-0.07727622473880082,-0.03200905931831366,0.053713817507090984
37,11,0.0,0.0,0.0,-0.0004662877763621509,-0.0039021396078169346,-0.005207548849284649,-0.029372209683060646,-0.0034106795210391283,-0.03113388642668724,-0.001018257811665535,0.08980339765548706,0.006546235643327236,0.0,0.0,0.0,0.0016573801403865218,-0.00019804951443802565,-0.0,0.0,0.0,0.0,0.0009616804891265929,0.0006045876070857048,-0.000931509945075959,0.0,0.0,0.0,0.0,0.0,0.0,0.0,0.0,0.0,0.0,0.0,0.0,0.0,0.0,0.0,0.0,0.5085511207580566,-0.07639111061283949,-0.03318115110583771,0.05411424898918552
42,5,0.0,0.0,0.0,0.0034412152599543333,-0.002233996521681547,0.005441253073513508,-0.029376884922385216,-0.004793484695255756,-0.03104385733604431,-0.0006026282208040357,0.12788981199264526,0.016522757709026337,0.0,0.0,0.0,0.0009488589712418616,0.0014616092666983604,-0.0,0.0,0.0,0.0,0.0009622971992939711,0.0008881319081410766,-0.0009233676246367395,0.0,0.0,0.0,0.0,0.0,0.0,0.0,0.0,0.0,0.0,0.0,0.0,0.0,0.0,0.0,0.0,0.5085511803627014,-0.07624187721882943,-0.034851190805368804,0.05449351925148615
47,5,-1.6393094483646564e-05,2.2287622414296493e-05,-8.212822649511509e-06,-0.0012626687530428171,-0.0037904661148786545,0.002782170893624425,-0.029376884922385216,-0.004793484695255756,-0.03104385733604431,-0.0006026282208040357,0.12788981199264526,0.016522757709026337,0.0,0.0,0.0,0.0016270028427243233,-0.0005488457391038537,-0.0,0.0,0.0,0.0,0.0009622971992939711,0.0008881319081410766,-0.0009233676246367395,0.0,0.0,0.0,0.0,0.0,0.0,0.0,0.0,0.0,0.0,0.0,0.0,0.0,0.0,0.0,0.0,0.5085511207580566,-0.0761367272986098,-0.03472042589364154,0.054869701695513924
52,5,-2.0707393559860066e-05,-7.095454748196062e-06,0.0002786161203403026,-0.0009828022448346019,0.0029764908831566572,-0.039321400225162506,-0.02941116690635681,-0.005884698126465082,-0.030930936336517334,-0.003073198487982154,0.13899439573287964,0.015043196268379688,0.0,0.0,0.0,-0.0012692216550931334,-0.0004347844223957509,-0.0,0.0,0.0,0.0,0.0009617618634365499,0.001050369581207633,-0.0009109026286751032,25248.0,36228.0,25379.0,40461.0,0.09275014698505402,0.1490669995546341,0.0933685302734375,0.17336571216583252,0.0,0.0,0.0,0.0,25293.0,36169.0,25381.0,40480.0,0.5085508823394775,-0.07966159483252049,-0.04011839196772414,0.05573789677312264
58,7,-2.9771108529530466e-05,4.866104427492246e-05,0.0003600305353756994,-0.00156376080121845,-0.006912962533533573,-0.023194435983896255,-0.02941116690635681,-0.005884698126465082,-0.030930936336517334,-0.003073198487982154,0.13899439573287964,0.015043196268379688,0.0,0.0,0.0,0.002973870374262333,-0.0006885227630846202,-0.0,0.0,0.0,0.0,0.0009617618634365499,0.001050369581207633,-0.0009109026286751032,25248.0,36228.0,25379.0,40461.0,0.09275014698505402,0.1490669995546341,0.0933685302734375,0.17336571216583252,0.0,0.0,0.0,0.0,25293.0,36169.0,25381.0,40480.0,0.5085527896881104,-0.07862066880008123,-0.04270836488948587,0.05517549997552327
63,5,0.0006070504896342754,0.00036688707768917084,-0.0009878147393465042,0.08868589997291565,-0.0466255322098732,0.18174001574516296,-0.0294717438519001,-0.007591483183205128,-0.03047904558479786,0.0028876548167318106,0.13302907347679138,0.10780761390924454,0.0,0.0,0.0,0.013388831168413162,0.02541934698820114,-0.0,0.0,0.0,0.0,0.0009242341038770974,0.0009831245988607407,-0.0009947980288416147,26176.0,35501.0,25956.0,39938.0,0.09713661670684814,0.14503826200962067,0.09609150886535645,0.17028477787971497,0.0,0.0,0.0,0.0,26284.0,35393.0,25996.0,39919.0,0.7631404995918274,-0.08073699163010618,-0.04468465358765766,0.062451096363483866
70,6,0.0012307030847296119,0.0006525928620249033,-0.001997780753299594,0.11391712725162506,-0.05398646742105484,0.1959172487258911,-0.0294717438519001,-0.007591483183205128,-0.03047904558479786,0.0028876548167318106,0.13302907347679138,0.10780761390924454,0.0,0.0,0.0,0.0156216686591506,0.032887768000364304,-0.0,0.0,0.0,0.0,0.0009242341038770974,0.0009831245988607407,-0.0009947980288416147,26176.0,35501.0,25956.0,39938.0,0.09713661670684814,0.14503826200962067,0.09609150886535645,0.17028477787971497,0.0,0.0,0.0,0.0,26284.0,35393.0,25996.0,39919.0,0.7633314728736877,-0.07892595367842929,-0.02536205775661728,0.0451835223730797
75,5,0.0014005403500050306,0.0010179559467360377,-0.0024745245464146137,0.05795235186815262,-0.06734676659107208,0.1255192905664444,-0.0294717438519001,-0.007591483183205128,-0.03047904558479786,0.0028876548167318106,0.13302907347679138,0.10780761390924454,0.0,0.0,0.0,0.0196134764701128,0.01717173494398594,-0.0,0.0,0.0,0.0,0.0009242341038770974,0.0009831245988607407,-0.0009947980288416147,26176.0,35501.0,25956.0,39938.0,0.09713661670684814,0.14503826200962067,0.09609150886535645,0.17028477787971497,0.0,0.0,0.0,0.0,26284.0,35393.0,25996.0,39919.0,0.7630848288536072,-0.06420796191897161,-0.028864887643069066,0.05441009755457908
80,5,0.0010614211205393076,0.000950176443438977,-0.0019110937137156725,-0.030090976506471634,-0.010714906267821789,-0.04122452810406685,-0.02953396365046501,-0.00961811002343893,-0.030111202970147133,0.008478814736008644,0.07011954486370087,0.03863329067826271,0.0,0.0,0.0,0.005368503276258707,-0.011831539683043957,-0.0,0.0,0.0,0.0,0.001418874366208911,0.001713668112643063,-0.0007896717870607972,38333.0,45390.0,37944.0,50977.0,0.16097010672092438,0.20347271859645844,0.15874110162258148,0.2399565726518631,0.0,0.0,0.0,0.0,24833.0,36753.0,25189.0,40444.0,0.5085933208465576,-0.07456861279792015,-0.027599384018251124,0.04652203660300637
85,5,0.0010527302511036396,0.0009057321003638208,-0.0019241150002926588,-0.01024402305483818,0.003007735125720501,-0.01054438203573227,-0.029387064278125763,-0.010012779384851456,-0.030491456389427185,0.0020709738600999117,-0.011875255964696407,0.03293471783399582,0.0,0.0,0.0,-0.000450460851425305,-0.0033601035829633474,-0.0,0.0,0.0,0.0,0.001377865788526833,0.0012803219724446535,-0.000962581136263907,36861.0,46322.0,38354.0,50984.0,0.15260948240756989,0.20938359200954437,0.16108839213848114,0.2400035411119461,0.0,0.0,0.0,0.0,37688.0,46005.0,37057.0,51688.0,0.5085533261299133,-0.07683517396953445,-0.02442382558823133,0.04790682724544679
90,5,0.0010823155753314495,0.0008208248182199895,-0.001900092582218349,0.0010687459725886583,0.012789341621100903,-0.006526450626552105,-0.029387064278125763,-0.010012779384851456,-0.030491456389427185,0.0020709738600999117,-0.011875255964696407,0.03293471783399582,0.0,0.0,0.0,-0.004628561902791262,0.001520910649560392,-0.0,0.0,0.0,0.0,0.001377865788526833,0.0012803219724446535,-0.000962581136263907,36861.0,46322.0,38354.0,50984.0,0.15260948240756989,0.20938359200954437,0.16108839213848114,0.2400035411119461,0.0,0.0,0.0,0.0,37688.0,46005.0,37057.0,51688.0,0.5085564255714417,-0.07977567611304975,-0.022938371408760035,0.04835647225436047
96,6,0.0008705356158316135,0.00037756943493150175,-0.0013107359409332275,-0.01698256842792034,0.045329052954912186,-0.06050536409020424,-0.029387064278125763,-0.010012779384851456,-0.030491456389427185,0.0020709738600999117,-0.011875255964696407,0.03293471783399582,0.0,0.0,0.0,-0.018784891813993454,-0.006306643597781658,-0.0,0.0,0.0,0.0,0.001377865788526833,0.0012803219724446535,-0.000962581136263907,36861.0,46322.0,38354.0,50984.0,0.15260948240756989,0.20938359200954437,0.16108839213848114,0.2400035411119461,0.0,0.0,0.0,0.0,37688.0,46005.0,37057.0,51688.0,0.5086502432823181,-0.08408361221606284,-0.015267577532974752,0.049841619534176755
101,5,-0.00014482822734862566,0.00041175633668899536,0.0009553971467539668,-0.14724570512771606,0.008812546730041504,-0.3354102373123169,-0.029612338170409203,-0.00934539083391428,-0.030574340373277664,0.008610211312770844,-0.08068234473466873,-0.031375378370285034,0.0,0.0,0.0,-0.0021557058207690716,-0.04156138002872467,-0.0,0.0,0.0,0.0,0.001700214808806777,0.0004513526801019907,-0.0009718945948407054,23198.0,37954.0,26436.0,39559.0,0.08330830931663513,0.15880300104618073,0.09837666898965836,0.16806533932685852,0.0,0.0,0.0,0.0,23330.0,38067.0,26630.0,39185.0,0.7634866833686829,-0.03356219272415277,-0.02000518597921287,0.06661645664807567
106,5,-0.0001400650799041614,0.0005259205354377627,0.0007257214747369289,-0.04350687190890312,-0.01333922240883112,-0.06846848130226135,-0.029612338170409203,-0.00934539083391428,-0.030574340373277664,0.008610211312770844,-0.08068234473466873,-0.031375378370285034,0.0,0.0,0.0,0.006275361869484186,-0.018316514790058136,-0.0,0.0,0.0,0.0,0.001700214808806777,0.0004513526801019907,-0.0009718945948407054,23198.0,37954.0,26436.0,39559.0,0.08330830931663513,0.15880300104618073,0.09837666898965836,0.16806533932685852,0.0,0.0,0.0,0.0,23330.0,38067.0,26630.0,39185.0,0.5086457133293152,-0.0297310653215829,-0.01569901312715557,0.06836536956918064
111,5,-7.429366087308154e-05,0.0005660781753249466,0.0005920687690377235,-0.003844063961878419,-0.009623835794627666,-0.001829167827963829,-0.029438339173793793,-0.008155443705618382,-0.030546382069587708,-0.0030903250444680452,-0.23591426014900208,-0.024519428610801697,0.0,0.0,0.0,0.0047498540952801704,-0.0014275065623223782,-0.0,0.0,0.0,0.0,0.000933616072870791,-0.0008864643168635666,-0.0009028112981468439,22332.0,38731.0,27717.0,38391.0,0.07942450046539307,0.163258895277977,0.1045684814453125,0.16130146384239197,0.0,0.0,0.0,0.0,22949.0,39470.0,27317.0,37514.0,0.5085566639900208,-0.031264085089146625,-0.012695471061082889,0.06663579942724361
116,5,-4.1160124965244904e-05,0.0007704301970079541,0.0003406285250093788,0.0034854761324822903,-0.03149643540382385,0.034652888774871826,-0.029438339173793793,-0.008155443705618382,-0.030546382069587708,-0.0030903250444680452,-0.23591426014900208,-0.024519428610801697,0.0,0.0,0.0,0.014216856099665165,0.0017081304686143994,-0.0,0.0,0.0,0.0,0.000933616072870791,-0.0008864643168635666,-0.0009028112981468439,22332.0,38731.0,27717.0,38391.0,0.07942450046539307,0.163258895277977,0.1045684814453125,0.16130146384239197,0.0,0.0,0.0,0.0,22949.0,39470.0,27317.0,37514.0,0.5086025595664978,-0.020189627978258694,-0.015707145702983247,0.07254432811060393
121,5,-0.020148076117038727,-0.013603385537862778,0.042767200618982315,0.0034854761324822903,-0.03149643540382385,0.034652888774871826,-0.029550349339842796,-0.005001976620405912,-0.030711138620972633,0.028054654598236084,-0.27302995324134827,-0.00776824913918972,0.0,0.0,0.0,0.0021729525178670883,-0.009110266342759132,-0.0,0.0,0.0,0.0,0.00039857657975517213,-0.001961340196430683,-0.0009514592820778489,22264.0,40074.0,27885.0,36940.0,0.07911989837884903,0.1710842251777649,0.10539248585700989,0.15305358171463013,0.0,0.0,0.0,0.0,20882.0,39556.0,29419.0,37204.0,0.762859046459198,-0.03088918992678729,-0.04937495518130092,0.07866026480837447
126,5,-0.0035015796311199665,-0.0017006448470056057,0.007610805332660675,2.331555128097534,-1.6758326292037964,4.932291030883789,-0.029550349339842796,-0.005001976620405912,-0.030711138620972633,0.028054654598236084,-0.27302995324134827,-0.00776824913918972,0.0,0.0,0.0,0.37662243843078613,0.5819626450538635,-0.0,0.0,0.0,0.0,0.00039857657975517213,-0.001961340196430683,-0.0009514592820778489,22264.0,40074.0,27885.0,36940.0,0.07911989837884903,0.1710842251777649,0.10539248585700989,0.15305358171463013,0.0,0.0,0.0,0.0,20882.0,39556.0,29419.0,37204.0,0.981965959072113,-0.022788514425657897,-0.016749500273089656,0.073010294338063
132,5,-0.0009702599490992725,5.157314080861397e-05,0.0023031679447740316,1.0538512468338013,-0.7480602860450745,2.2227566242218018,-0.02905975468456745,-0.0021991124376654625,-0.030462931841611862,0.020729560405015945,-0.34164321422576904,0.03761092945933342,0.0,0.0,0.0,0.2000851333141327,0.2890489399433136,-0.0,0.0,0.0,0.0,0.0010501439683139324,-0.002747585065662861,-0.0008877930813468993,20641.0,39661.0,30212.0,36568.0,0.0720089003443718,0.16866040229797363,0.11700969934463501,0.15096676349639893,0.0,0.0,0.0,0.0,21001.0,38800.0,29853.0,37495.0,0.8120412230491638,-0.02655426754177084,-0.007340405064957296,0.07055913263882566
137,5,0.0025185781996697187,0.002542247762903571,-0.003779784543439746,0.8045927286148071,-0.5731125473976135,1.5184403657913208,-0.02905975468456745,-0.0021991124376654625,-0.030462931841611862,0.020729560405015945,-0.34164321422576904,0.03761092945933342,0.0,0.0,0.0,0.1578797996044159,0.22469237446784973,-0.0,0.0,0.0,0.0,0.0010501439683139324,-0.002747585065662861,-0.0008877930813468993,20641.0,39661.0,30212.0,36568.0,0.0720089003443718,0.16866040229797363,0.11700969934463501,0.15096676349639893,0.0,0.0,0.0,0.0,21001.0,38800.0,29853.0,37495.0,0.7923499941825867,-0.009042369144357151,0.036776077242783145,0.06905102560726803
142,5,0.0026209629140794277,0.0026005760300904512,-0.003872163826599717,0.2557116746902466,-0.1800997257232666,0.4684651792049408,-0.029187429696321487,0.001890655723400414,-0.030099529772996902,-0.003420241642743349,-0.29781854152679443,0.012386312708258629,0.0,0.0,0.0,0.05193927511572838,0.07312293350696564,-0.0,0.0,0.0,0.0,0.0014621124137192965,-0.0020488789305090904,-0.0008972117793746293,21216.0,38521.0,29509.0,37917.0,0.07450482994318008,0.16205215454101562,0.11345609277486801,0.15858957171440125,0.0,0.0,0.0,0.0,46738.0,47653.0,46738.0,64659.0,0.7659024596214294,-0.008221494957433401,0.04152197116303044,0.0687206744655429
147,5,0.0022668344900012016,0.0025275819934904575,-0.0035602981224656105,0.027135539799928665,-0.043810732662677765,0.09687834978103638,-0.029187429696321487,0.001890655723400414,-0.030099529772996902,-0.003420241642743349,-0.29781854152679443,0.012386312708258629,0.0,0.0,0.0,0.013565605506300926,0.008420310914516449,-0.0,0.0,0.0,0.0,0.0014621124137192965,-0.0020488789305090904,-0.0008972117793746293,21216.0,38521.0,29509.0,37917.0,0.07450482994318008,0.16205215454101562,0.11345609277486801,0.15858957171440125,0.0,0.0,0.0,0.0,46738.0,47653.0,46738.0,64659.0,0.7629228234291077,-0.004533563674839684,0.030596830562157496,0.07223510886005412
152,5,0.0025638004299253225,0.002658265409991145,-0.004167765844613314,0.04971586912870407,-0.0314389243721962,0.11410902440547943,-0.029076093807816505,0.0042794207111001015,-0.030028697103261948,0.027264531701803207,-0.2854524850845337,0.004968132358044386,0.0,0.0,0.0,0.010199873708188534,0.015028273686766624,-0.0,0.0,0.0,0.0,0.004999999888241291,0.004999999888241291,-0.0009197340114042163,46670.0,47720.0,46670.0,64715.0,0.21160584688186646,0.2183852195739746,0.21160584688186646,0.3403364419937134,0.0,0.0,0.0,0.0,46750.0,47641.0,46750.0,64649.0,0.7629514336585999,-0.010762501630597329,0.03525008115213151,0.06696820592372864
157,5,0.0026246621273458004,0.0025494899600744247,-0.003919148817658424,0.023435400798916817,0.005796909332275391,-0.0005736977909691632,-0.029076093807816505,0.0042794207111001015,-0.030028697103261948,0.027264531701803207,-0.2854524850845337,0.004968132358044386,0.0,0.0,0.0,-0.0004899376071989536,0.011530664749443531,-0.0,0.0,0.0,0.0,0.004999999888241291,0.004999999888241291,-0.0009197340114042163,46670.0,47720.0,46670.0,64715.0,0.21160584688186646,0.2183852195739746,0.21160584688186646,0.3403364419937134,0.0,0.0,0.0,0.0,46750.0,47641.0,46750.0,64649.0,0.5085842609405518,-0.013621298884546336,0.04446848443472578,0.0651224993788363
162,5,0.0026404699310660362,0.0025764356832951307,-0.0038842568174004555,0.009243731386959553,-0.0020333391148597,-0.0050569819286465645,-0.029076093807816505,0.0042794207111001015,-0.030028697103261948,0.027264531701803207,-0.2854524850845337,0.004968132358044386,0.0,0.0,0.0,0.0029586092568933964,0.005620727315545082,-0.0,0.0,0.0,0.0,0.004999999888241291,0.004999999888241291,-0.0009197340114042163,46670.0,47720.0,46670.0,64715.0,0.21160584688186646,0.2183852195739746,0.21160584688186646,0.3403364419937134,0.0,0.0,0.0,0.0,46750.0,47641.0,46750.0,64649.0,0.5085606575012207,-0.00901866563015987,0.04468885186203489,0.06549598777578677
167,5,0.0027231217827647924,0.002858466701582074,-0.003961379174143076,0.014344374649226665,-0.04009435698390007,0.009280005469918251,-0.02689966931939125,0.00707624526694417,-0.0299502182751894,0.39754703640937805,-0.22987650334835052,-0.019354673102498055,0.0,0.0,0.0,0.019436057657003403,0.007951621897518635,-0.0,0.0,0.0,0.0,0.0001243402366526425,-0.001405090093612671,-0.0009110603132285178,35731.0,50233.0,39625.0,46920.0,0.14630873501300812,0.23495270311832428,0.16845132410526276,0.2132110744714737,0.0,0.0,0.0,0.0,38699.0,40252.0,38699.0,58641.0,0.5086625218391418,0.008358781511083024,0.047944999873365875,0.07011656057640071
172,5,0.0028807742055505514,0.002713184803724289,-0.004111102316528559,0.026374639943242073,0.008311173878610134,0.02374527044594288,-0.02689966931939125,0.00707624526694417,-0.0299502182751894,0.39754703640937805,-0.22987650334835052,-0.019354673102498055,0.0,0.0,0.0,-0.001119808992370963,0.013287694193422794,-0.0,0.0,0.0,0.0,0.0001243402366526425,-0.001405090093612671,-0.0009110603132285178,35731.0,50233.0,39625.0,46920.0,0.14630873501300812,0.23495270311832428,0.16845132410526276,0.2132110744714737,0.0,0.0,0.0,0.0,38699.0,40252.0,38699.0,58641.0,0.5085956454277039,-0.0015634334327120163,0.05813917169942392,0.0660318667945543
177,5,0.002769253682345152,0.0028593884781003,-0.0040939850732684135,-0.007700472604483366,-0.017975155264139175,0.004727145656943321,-0.022082122042775154,0.009745301678776741,-0.0298739243298769,0.7464636564254761,-0.4407585859298706,0.04265838488936424,0.0,0.0,0.0,0.010262338444590569,-0.0011572031071409583,-0.0,0.0,0.0,0.0,-0.0011015150230377913,-0.004049292765557766,-0.000754118780605495,35731.0,50233.0,39625.0,46920.0,0.14630873501300812,0.23495270311832428,0.16845132410526276,0.2132110744714737,0.0,0.0,0.0,0.0,35506.0,50718.0,40334.0,45953.0,0.5085775256156921,0.013046237888225348,0.05433581483685696,0.07235245846604765
183,5,0.0032247810158878565,0.0028897018637508154,-0.004512510262429714,0.06146369129419327,-0.009636431001126766,0.060011688619852066,-0.022082122042775154,0.009745301678776741,-0.0298739243298769,0.7464636564254761,-0.4407585859298706,0.04265838488936424,0.0,0.0,0.0,0.006855871062725782,0.028671253472566605,-0.0,0.0,0.0,0.0,-0.0011015150230377913,-0.004049292765557766,-0.000754118780605495,35731.0,50233.0,39625.0,46920.0,0.14630873501300812,0.23495270311832428,0.16845132410526276,0.2132110744714737,0.0,0.0,0.0,0.0,35506.0,50718.0,40334.0,45953.0,0.5087714791297913,0.013968750567075621,0.0768323138883839,0.06575894109353812
188,5,0.002042237436398864,0.002492808038368821,-0.0032515444327145815,-0.1471169888973236,0.05267419293522835,-0.15853171050548553,-0.011656168848276138,0.016566792502999306,-0.028643133118748665,1.0111515522003174,-0.6969642639160156,0.1313946396112442,0.0,0.0,0.0,-0.013186190277338028,-0.040438298135995865,-0.0,0.0,0.0,0.0,-0.002161614364013076,-0.004651911556720734,-0.0007148922886699438,22952.0,44580.0,30187.0,29044.0,0.08219823241233826,0.19839021563529968,0.11688324809074402,0.11112400889396667,0.0,0.0,0.0,0.0,22916.0,43363.0,30435.0,30313.0,0.7635161280632019,0.01879801557627419,0.04465218870872417,0.0694655498261996
193,5,0.002042237436398864,0.002492808038368821,-0.0032515444327145815,-0.1471169888973236,0.05267419293522835,-0.15853171050548553,-0.011656168848276138,0.016566792502999306,-0.028643133118748665,1.0111515522003174,-0.6969642639160156,0.1313946396112442,0.0,0.0,0.0,-0.013118524104356766,-0.04038287326693535,-0.0,0.0,0.0,0.0,-0.002161614364013076,-0.004651911556720734,-0.0007148922886699438,22952.0,44580.0,30187.0,29044.0,0.08219823241233826,0.19839021563529968,0.11688324809074402,0.11112400889396667,0.0,0.0,0.0,0.0,22916.0,43363.0,30435.0,30313.0,0.7635137438774109,0.01879801557627419,0.04465218870872417,0.0694655498261996
198,5,0.0030027534812688828,0.0026665839832276106,-0.0041893357411026955,-0.1471169888973236,0.05267419293522835,-0.15853171050548553,0.012827105820178986,0.03245566412806511,-0.028167851269245148,1.3013713359832764,-0.9223498106002808,-0.1464868038892746,0.0,0.0,0.0,-0.012961985543370247,-0.039837781339883804,-0.0,0.0,0.0,0.0,-0.002371801296249032,-0.004746919963508844,-0.0009288047440350056,21531.0,46382.0,27927.0,30313.0,0.07588346302509308,0.20976535975933075,0.10559631884098053,0.11752699315547943,0.0,0.0,0.0,0.0,22967.0,45083.0,29565.0,29030.0,0.7634954452514648,0.017146723647076378,0.08842647453605115,0.06417568044417321
203,5,0.0010591880418360233,0.0018715104088187218,-0.0020838642958551645,-0.28660744428634644,0.12765800952911377,-0.32753828167915344,0.012827105820178986,0.03245566412806511,-0.028167851269245148,1.3013713359832764,-0.9223498106002808,-0.1464868038892746,0.0,0.0,0.0,-0.03441386669874191,-0.08009438216686249,-0.0,0.0,0.0,0.0,-0.002371801296249032,-0.004746919963508844,-0.0009288047440350056,21531.0,46382.0,27927.0,30313.0,0.07588346302509308,0.20976535975933075,0.10559631884098053,0.11752699315547943,0.0,0.0,0.0,0.0,22967.0,45083.0,29565.0,29030.0,0.7657323479652405,0.02028520870453051,0.03378020344587315,0.06291099761025945
208,5,0.002911324379965663,0.002745384583249688,-0.004125986713916063,0.1733168363571167,-0.08404498547315598,0.18763567507266998,0.023504381999373436,0.03896540775895119,-0.02975435182452202,1.2797448635101318,-0.8125690221786499,-0.20208436250686646,0.0,0.0,0.0,0.025865789502859116,0.05089540407061577,-0.0,0.0,0.0,0.0,-0.003507884917780757,-0.004999999888241291,-0.0011133648222312331,34580.0,57382.0,37790.0,41706.0,0.13999894261360168,0.2848687767982483,0.15786334872245789,0.18078196048736572,0.0,0.0,0.0,0.0,21359.0,46548.0,27644.0,30523.0,0.7640702128410339,0.045457821077694534,0.1001381235156984,0.06620439775129423
213,5,0.002650466049090028,0.0031622028909623623,-0.004151571076363325,0.015474908985197544,-0.08356805145740509,0.05987247824668884,0.023504381999373436,0.03896540775895119,-0.02975435182452202,1.2797448635101318,-0.8125690221786499,-0.20208436250686646,0.0,0.0,0.0,0.026050830259919167,0.006191272754222155,-0.0,0.0,0.0,0.0,-0.003507884917780757,-0.004999999888241291,-0.0011133648222312331,34580.0,57382.0,37790.0,41706.0,0.13999894261360168,0.2848687767982483,0.15786334872245789,0.18078196048736572,0.0,0.0,0.0,0.0,21359.0,46548.0,27644.0,30523.0,0.7630991339683533,0.08134492854364021,0.09242566568362375,0.0762129900788495
218,5,0.0019444437930360436,0.002423146739602089,-0.003276075469329953,-0.09420064836740494,0.07839743793010712,-0.10460761189460754,0.03820524737238884,0.046839598566293716,-0.03156135603785515,1.1314963102340698,-0.49983346462249756,-0.08155996352434158,0.0,0.0,0.0,-0.020083539187908173,-0.025144392624497414,-0.0,0.0,0.0,0.0,-0.004367670509964228,-0.004999999888241291,-0.0010355485137552023,36242.0,57857.0,37376.0,40356.0,0.14914722740650177,0.2883285582065582,0.15551279485225677,0.17274291813373566,0.0,0.0,0.0,0.0,34799.0,57409.0,37755.0,41508.0,0.7632207274436951,0.056213523331400186,0.07940676232154463,0.06966569098069042
223,5,0.0017231814563274384,0.002564614173024893,-0.0030889692716300488,-0.059236932545900345,0.0037137921899557114,-0.05757714807987213,0.03820524737238884,0.046839598566293716,-0.03156135603785515,1.1314963102340698,-0.49983346462249756,-0.08155996352434158,0.0,0.0,0.0,0.0017902235267683864,-0.022958839312195778,-0.0,0.0,0.0,0.0,-0.004367670509964228,-0.004999999888241291,-0.0010355485137552023,36242.0,57857.0,37376.0,40356.0,0.14914722740650177,0.2883285582065582,0.15551279485225677,0.17274291813373566,0.0,0.0,0.0,0.0,34799.0,57409.0,37755.0,41508.0,0.508685290813446,0.07120723074745983,0.07015214566626543,0.0754749832094307
228,5,0.0012133524287492037,0.0021426042076200247,-0.002504048403352499,-0.08914713561534882,0.06019555404782295,-0.09916206449270248,0.046665843576192856,0.04964321106672287,-0.03203471377491951,0.8695253133773804,-0.11274641752243042,0.03149747848510742,0.0,0.0,0.0,-0.014941350556910038,-0.023987699300050735,-0.0,0.0,0.0,0.0,-0.004525464028120041,-0.004999999888241291,-0.0009986094664782286,36951.0,53460.0,37624.0,44211.0,0.15311259031295776,0.25697755813598633,0.15692022442817688,0.19608959555625916,0.0,0.0,0.0,0.0,36157.0,57749.0,37514.0,40437.0,0.7631303071975708,0.06211355185911928,0.05794683096066132,0.07480020619038757
233,5,0.001339551992714405,0.002344155916944146,-0.002695325296372175,-0.009076210670173168,-0.010158590972423553,-0.0029698587022721767,0.046665843576192856,0.04964321106672287,-0.03203471377491951,0.8695253133773804,-0.11274641752243042,0.03149747848510742,0.0,0.0,0.0,0.007704722695052624,-0.0018325255950912833,-0.0,0.0,0.0,0.0,-0.004525464028120041,-0.004999999888241291,-0.0009986094664782286,36951.0,53460.0,37624.0,44211.0,0.15311259031295776,0.25697755813598633,0.15692022442817688,0.19608959555625916,0.0,0.0,0.0,0.0,36157.0,57749.0,37514.0,40437.0,0.5085663199424744,0.06439680613580653,0.0527356777316028,0.06883150778039357
238,5,0.00026691320817917585,0.0015006043249741197,-0.0012131676776334643,-0.15289229154586792,0.11504965275526047,-0.20839303731918335,0.054339006543159485,0.049039147794246674,-0.03354501351714134,0.3961760401725769,0.26332077383995056,-0.27942296862602234,0.0,0.0,0.0,-0.030648795887827873,-0.04243107885122299,-0.0,0.0,0.0,0.0,-0.0019611907191574574,-0.0010930250864475965,-0.001246021711267531,23033.0,45243.0,20647.0,36670.0,0.08256426453590393,0.20254778861999512,0.0720340758562088,0.15153872966766357,0.0,0.0,0.0,0.0,24338.0,43896.0,19507.0,37966.0,0.7638715505599976,0.043901301526450096,0.0284136351725761,0.0735340278856141
243,5,0.000797067943494767,0.002039155224338174,-0.0018354523926973343,0.02835397608578205,-0.04088224098086357,0.024601951241493225,0.054339006543159485,0.049039147794246674,-0.03354501351714134,0.3961760401725769,0.26332077383995056,-0.27942296862602234,0.0,0.0,0.0,0.020669879391789436,0.013712882064282894,-0.0,0.0,0.0,0.0,-0.0019611907191574574,-0.0010930250864475965,-0.001246021711267531,23033.0,45243.0,20647.0,36670.0,0.08256426453590393,0.20254778861999512,0.0720340758562088,0.15153872966766357,0.0,0.0,0.0,0.0,24338.0,43896.0,19507.0,37966.0,0.5087068676948547,0.06667078980673041,0.04171208960526032,0.07026195605870955
248,5,0.0007667919853702188,0.0020497660152614117,-0.001616350025869906,0.004267557058483362,-0.013750167563557625,-0.023293739184737206,0.055813830345869064,0.04585803300142288,-0.03586472198367119,-0.05733077973127365,0.6197816729545593,-0.3167586624622345,0.0,0.0,0.0,0.00923964474350214,0.003491873387247324,-0.0,0.0,0.0,0.0,-0.0019575892947614193,0.0005893843481317163,-0.0014172171941027045,25292.0,41529.0,16582.0,41699.0,0.09295840561389923,0.17972363531589508,0.055144794285297394,0.18073971569538116,0.0,0.0,0.0,0.0,26454.0,40290.0,15469.0,42732.0,0.5085752010345459,0.06645456326195631,0.03944758137705713,0.07012623009481357
254,5,0.0005648485384881496,0.0019338136771693826,-0.0013347647618502378,-0.026991810649633408,0.012108275666832924,-0.04641007259488106,0.055813830345869064,0.04585803300142288,-0.03586472198367119,-0.05733077973127365,0.6197816729545593,-0.3167586624622345,0.0,0.0,0.0,-0.001750215538777411,-0.009908831678330898,-0.0,0.0,0.0,0.0,-0.0019575892947614193,0.0005893843481317163,-0.0014172171941027045,25292.0,41529.0,16582.0,41699.0,0.09295840561389923,0.17972363531589508,0.055144794285297394,0.18073971569538116,0.0,0.0,0.0,0.0,26454.0,40290.0,15469.0,42732.0,0.5085761547088623,0.06294338522242153,0.026917154151128855,0.06908964741252768
259,5,-0.0007163532427512109,0.0009267224813811481,0.0005374807515181601,-0.18746578693389893,0.1446252465248108,-0.27603739500045776,0.05269276723265648,0.03632412850856781,-0.03842678293585777,-0.48081690073013306,0.9328349828720093,-0.24119523167610168,0.0,0.0,0.0,-0.03907867893576622,-0.0526358038187027,-0.0,0.0,0.0,0.0,-0.0008467885199934244,0.0036698468029499054,-0.0013773724203929305,27362.0,38074.0,14365.0,44797.0,0.10284304618835449,0.15948620438575745,0.046490561217069626,0.199746772646904,0.0,0.0,0.0,0.0,27825.0,36384.0,13605.0,46427.0,0.764467179775238,0.01965897005771339,-0.02161645451857272,0.07011300195188319
264,5,0.00031262930133379996,0.001753671676851809,-0.0010619193781167269,0.08781781792640686,-0.07238531112670898,0.1411048024892807,0.05269276723265648,0.03632412850856781,-0.03842678293585777,-0.48081690073013306,0.9328349828720093,-0.24119523167610168,0.0,0.0,0.0,0.02273184061050415,0.02576332539319992,-0.0,0.0,0.0,0.0,-0.0008467885199934244,0.0036698468029499054,-0.0013773724203929305,27362.0,38074.0,14365.0,44797.0,0.10284304618835449,0.15948620438575745,0.046490561217069626,0.199746772646904,0.0,0.0,0.0,0.0,27825.0,36384.0,13605.0,46427.0,0.7632760405540466,0.04756086327217133,0.013649609983729397,0.06580172964552972
269,5,0.00047492230078205466,0.0021476931869983673,-0.001526085427030921,0.049066364765167236,-0.076878622174263,0.10731469094753265,0.04751231148838997,0.0282422062009573,-0.040187083184719086,-0.7761622071266174,1.0135678052902222,-0.28752943873405457,0.0,0.0,0.0,0.024257734417915344,0.014886620454490185,-0.0,0.0,0.0,0.0,0.0004114479525014758,0.004999999888241291,-0.0015094378031790257,26415.0,36475.0,13422.0,47515.0,0.0982789397239685,0.15044599771499634,0.04293224588036537,0.21705052256584167,0.0,0.0,0.0,0.0,27134.0,37018.0,12582.0,46969.0,0.7631346583366394,0.056696637649186636,0.008651016104314353,0.06402993042491473
274,5,0.0024425897281616926,0.002951219445094466,-0.003672360209748149,0.049066364765167236,-0.076878622174263,0.10731469094753265,0.04751231148838997,0.0282422062009573,-0.040187083184719086,-0.7761622071266174,1.0135678052902222,-0.28752943873405457,0.0,0.0,0.0,0.024726152420043945,0.01590406708419323,-0.0,0.0,0.0,0.0,0.0004114479525014758,0.004999999888241291,-0.0015094378031790257,26415.0,36475.0,13422.0,47515.0,0.0982789397239685,0.15044599771499634,0.04293224588036537,0.21705052256584167,0.0,0.0,0.0,0.0,27134.0,37018.0,12582.0,46969.0,0.7631553411483765,0.04545714774459081,0.07860668734495604,0.05253150796353252
279,5,0.0007199415122158825,0.00246506673283875,-0.0019493460422381759,-0.2264508306980133,0.04499778524041176,-0.20902757346630096,0.04751231148838997,0.0282422062009573,-0.040187083184719086,-0.7761622071266174,1.0135678052902222,-0.28752943873405457,0.0,0.0,0.0,-0.00992264598608017,-0.06283865123987198,-0.0,0.0,0.0,0.0,0.0004114479525014758,0.004999999888241291,-0.0015094378031790257,26415.0,36475.0,13422.0,47515.0,0.0982789397239685,0.15044599771499634,0.04293224588036537,0.21705052256584167,0.0,0.0,0.0,0.0,27134.0,37018.0,12582.0,46969.0,0.7643717527389526,0.04774687585681129,0.01842123517770302,0.060945292569931454
284,5,0.0010885457741096616,0.00268559786491096,-0.0022858628071844578,-0.0163306575268507,-0.017375031486153603,-0.015595919452607632,0.03702133148908615,0.016140837222337723,-0.04213937371969223,-0.9751483201980591,0.931993842124939,-0.132553368806839,0.0,0.0,0.0,0.011847538873553276,-0.00482479901984334,-0.0,0.0,0.0,0.0,0.00025278821703977883,0.004949777852743864,-0.0014273582492023706,26811.0,36166.0,14953.0,46564.0,0.10017535835504532,0.14872151613235474,0.04874933511018753,0.2109297811985016,0.0,0.0,0.0,0.0,38361.0,45513.0,30094.0,56915.0,0.5085920095443726,0.04618670149921575,0.02957457520369554,0.06144843991984609
289,5,0.0009132387349382043,0.002662418410181999,-0.0021376903168857098,-0.029442178085446358,-0.0019673723727464676,-0.025422921404242516,0.03702133148908615,0.016140837222337723,-0.04213937371969223,-0.9751483201980591,0.931993842124939,-0.132553368806839,0.0,0.0,0.0,0.005392690189182758,-0.010484444908797741,-0.0,0.0,0.0,0.0,0.00025278821703977883,0.004949777852743864,-0.0014273582492023706,26811.0,36166.0,14953.0,46564.0,0.10017535835504532,0.14872151613235474,0.04874933511018753,0.2109297811985016,0.0,0.0,0.0,0.0,38361.0,45513.0,30094.0,56915.0,0.5085857510566711,0.04027317780723792,0.01860741570134336,0.06051743121694344
294,5,0.0012593134306371212,0.00289174634963274,-0.0023942242842167616,0.03961780294775963,-0.03269612416625023,0.0282878614962101,0.028345612809062004,0.009770956821739674,-0.042871467769145966,-1.1421605348587036,0.705560028553009,-0.1020389124751091,0.0,0.0,0.0,0.018719704821705818,0.019146304577589035,-0.0,0.0,0.0,0.0,0.0017979842377826571,0.004999999888241291,-0.0014191922964528203,37314.0,45413.0,30976.0,57204.0,0.1551639437675476,0.20361322164535522,0.12092134356498718,0.283578485250473,0.0,0.0,0.0,0.0,35158.0,49067.0,33661.0,53747.0,0.508732795715332,0.037645085304056275,0.031431826130081504,0.06037759384306467
299,5,0.0013944394886493683,0.003081405069679022,-0.0024865667801350355,0.030802996829152107,-0.03636108338832855,0.021414322778582573,0.028345612809062004,0.009770956821739674,-0.042871467769145966,-1.1421605348587036,0.705560028553009,-0.1020389124751091,0.0,0.0,0.0,0.020536940544843674,0.015557064674794674,-0.0,0.0,0.0,0.0,0.0017979842377826571,0.004999999888241291,-0.0014191922964528203,37314.0,45413.0,30976.0,57204.0,0.1551639437675476,0.20361322164535522,0.12092134356498718,0.283578485250473,0.0,0.0,0.0,0.0,35158.0,49067.0,33661.0,53747.0,0.5087192058563232,0.039343366844649154,0.03259136775752132,0.061423351198674925
304,5,0.0019224433926865458,0.0030231294222176075,-0.00318704079836607,0.08316143602132797,-0.002749725943431258,0.10449065268039703,0.014093699865043163,0.0036632344126701355,-0.04345192387700081,-1.1992148160934448,0.33654144406318665,-0.0329282209277153,0.0,0.0,0.0,0.0042280456982553005,0.025499174371361732,-0.0,0.0,0.0,0.0,0.00220912741497159,-0.00018349470337852836,-0.0013784135226160288,32827.0,50192.0,36248.0,52441.0,0.13058704137802124,0.2346774935722351,0.14917659759521484,0.24993056058883667,0.0,0.0,0.0,0.0,20283.0,38277.0,22731.0,44238.0,0.7630804777145386,0.009224683439793387,0.04929404307845362,0.05025802282085471
309,5,0.0016340316506102681,0.0034746192395687103,-0.0028674628119915724,-0.015429208986461163,-0.06403348594903946,-0.013393730856478214,0.014093699865043163,0.0036632344126701355,-0.04345192387700081,-1.1992148160934448,0.33654144406318665,-0.0329282209277153,0.0,0.0,0.0,0.03283403813838959,-0.003758729435503483,-0.0,0.0,0.0,0.0,0.00220912741497159,-0.00018349470337852836,-0.0013784135226160288,32827.0,50192.0,36248.0,52441.0,0.13058704137802124,0.2346774935722351,0.14917659759521484,0.24993056058883667,0.0,0.0,0.0,0.0,20283.0,38277.0,22731.0,44238.0,0.5088282227516174,0.0390164633994749,0.03756219556921848,0.06169723011007699
314,5,0.0012049837969243526,0.003208183217793703,-0.002337460173293948,-0.06469546258449554,0.01809099316596985,-0.07821846753358841,0.004231710452586412,0.002560383640229702,-0.04382439702749252,-1.201305866241455,-0.08820658177137375,-0.09553463011980057,0.0,0.0,0.0,-0.0013992851600050926,-0.01662992686033249,-0.0,0.0,0.0,0.0,0.002986029488965869,-0.001970455050468445,-0.0014624209143221378,17154.0,39883.0,25126.0,43062.0,0.05743881314992905,0.16995954513549805,0.09218133985996246,0.189006045460701,0.0,0.0,0.0,0.0,14722.0,41131.0,26279.0,42529.0,0.7629318237304688,0.02386550077043319,0.03378969834575093,0.058023090171190145
319,5,0.0008402494713664055,0.003001739736646414,-0.0020273164846003056,-0.07047144323587418,0.03432939574122429,-0.06688567996025085,0.004231710452586412,0.002560383640229702,-0.04382439702749252,-1.201305866241455,-0.08820658177137375,-0.09553463011980057,0.0,0.0,0.0,-0.00601335009559989,-0.018418148159980774,-0.0,0.0,0.0,0.0,0.002986029488965869,-0.001970455050468445,-0.0014624209143221378,17154.0,39883.0,25126.0,43062.0,0.05743881314992905,0.16995954513549805,0.09218133985996246,0.189006045460701,0.0,0.0,0.0,0.0,14722.0,41131.0,26279.0,42529.0,0.7629687786102295,0.012476219825153128,0.027698342976677833,0.05870353203901038
324,5,0.0006728124571964145,0.003012091852724552,-0.0018471400253474712,-0.04458261653780937,0.008849513716995716,-0.045290399342775345,-0.010111908428370953,0.00609990069642663,-0.04517439007759094,-1.1853644847869873,-0.5281492471694946,-0.10139746963977814,0.0,0.0,0.0,0.0019316610414534807,-0.016726773232221603,-0.0,0.0,0.0,0.0,0.0037372512742877007,-0.004999999888241291,-0.0013090090360492468,8594.0,42167.0,33060.0,39482.0,0.025823242962360382,0.1835663914680481,0.13182374835014343,0.16761568188667297,0.0,0.0,0.0,0.0,11106.0,41865.0,29439.0,41473.0,0.5086225271224976,0.00548588641988091,0.028055073835577895,0.05696201616001173
329,5,0.0005215068813413382,0.002898448146879673,-0.0017353284638375044,-0.03455756977200508,0.018564969301223755,-0.02924073301255703,-0.010111908428370953,0.00609990069642663,-0.04517439007759094,-1.1853644847869873,-0.5281492471694946,-0.10139746963977814,0.0,0.0,0.0,-0.002162833232432604,-0.012559185735881329,-0.0,0.0,0.0,0.0,0.0037372512742877007,-0.004999999888241291,-0.0013090090360492468,8594.0,42167.0,33060.0,39482.0,0.025823242962360382,0.1835663914680481,0.13182374835014343,0.16761568188667297,0.0,0.0,0.0,0.0,11106.0,41865.0,29439.0,41473.0,0.5085917115211487,-0.005881929784416376,0.03025706020336657,0.056814517999942735
334,5,0.0003228189889341593,0.0029354675207287073,-0.0015873904339969158,-0.03818357363343239,0.00038678356213495135,-0.029483551159501076,-0.019240854308009148,0.01182169746607542,-0.04507937282323837,-1.0848966836929321,-0.924207866191864,0.06786952912807465,0.0,0.0,0.0,0.005698933266103268,-0.014230911619961262,-0.0,0.0,0.0,0.0,0.0025824529584497213,-0.004999999888241291,-0.001376961823552847,24668.0,53768.0,42129.0,49559.0,0.0900479182600975,0.25912320613861084,0.18333664536476135,0.23046070337295532,0.0,0.0,0.0,0.0,8650.0,41957.0,33298.0,39450.0,0.5086101293563843,-0.006862420585442072,0.02521690417690048,0.05598813454098794
340,5,-0.002898335689678788,8.72411037562415e-05,0.005110899917781353,-0.46241673827171326,0.39886772632598877,-0.9466057419776917,-0.019240854308009148,0.01182169746607542,-0.04507937282323837,-1.0848966836929321,-0.924207866191864,0.06786952912807465,0.0,0.0,0.0,-0.10903799533843994,-0.13050316274166107,-0.0,0.0,0.0,0.0,0.0025824529584497213,-0.004999999888241291,-0.001376961823552847,24668.0,53768.0,42129.0,49559.0,0.0900479182600975,0.25912320613861084,0.18333664536476135,0.23046070337295532,0.0,0.0,0.0,0.0,8650.0,41957.0,33298.0,39450.0,0.7739642858505249,-0.04902138599566737,0.026146879431854474,0.04699081183910453
345,5,-0.0011506978189572692,0.001371927559375763,0.0009208741248585284,0.10594429075717926,-0.06019577756524086,0.30262190103530884,-0.03176682069897652,0.024906862527132034,-0.04471897333860397,-0.9836884140968323,-1.1976675987243652,-0.1134198009967804,0.0,0.0,0.0,0.02022312954068184,0.030489642173051834,-0.0,0.0,0.0,0.0,0.002730316948145628,-0.004999999888241291,-0.0014945919392630458,8555.0,44097.0,30774.0,39484.0,0.025691557675600052,0.1953858584165573,0.11988551914691925,0.16762860119342804,0.0,0.0,0.0,0.0,24068.0,54287.0,41526.0,49976.0,0.7633364200592041,-0.08162642945998605,0.016442992748562996,0.03366779769724224
350,5,-0.0013905399246141315,0.0012922510504722595,0.0014150890056043863,-0.0017946080770343542,-0.0069040339440107346,0.02159648947417736,-0.03176682069897652,0.024906862527132034,-0.04471897333860397,-0.9836884140968323,-1.1976675987243652,-0.1134198009967804,0.0,0.0,0.0,0.007713597267866135,-0.00024365739955101162,-0.0,0.0,0.0,0.0,0.002730316948145628,-0.004999999888241291,-0.0014945919392630458,8555.0,44097.0,30774.0,39484.0,0.025691557675600052,0.1953858584165573,0.11988551914691925,0.16762860119342804,0.0,0.0,0.0,0.0,24068.0,54287.0,41526.0,49976.0,0.5085655450820923,-0.07761906211316974,0.023439870690059317,0.037611812794622196
355,5,-0.0019927036482840776,0.0011401815572753549,0.00235559418797493,-0.0848412960767746,0.019218523055315018,-0.125191792845726,-0.03883727267384529,0.03504149615764618,-0.04549739137291908,-0.8282715082168579,-1.2279859781265259,-0.06417201459407806,0.0,0.0,0.0,-0.0022976885084062815,-0.02401708997786045,-0.0,0.0,0.0,0.0,-0.0008241500472649932,-0.004999999888241291,-0.0014425382250919938,29746.0,56833.0,39388.0,46631.0,0.11464989185333252,0.28088951110839844,0.16707104444503784,0.211359441280365,0.0,0.0,0.0,0.0,8969.0,43916.0,30993.0,39245.0,0.7630476951599121,-0.07253870879014229,0.02303044741522887,0.04242772666976038
360,5,-0.0011572169605642557,0.001417263294570148,0.0006906847702339292,0.09151573479175568,-0.033025890588760376,0.1955297887325287,-0.03883727267384529,0.03504149615764618,-0.04549739137291908,-0.8282715082168579,-1.2279859781265259,-0.06417201459407806,0.0,0.0,0.0,0.012663758359849453,0.026280477643013,-0.0,0.0,0.0,0.0,-0.0008241500472649932,-0.004999999888241291,-0.0014425382250919938,29746.0,56833.0,39388.0,46631.0,0.11464989185333252,0.28088951110839844,0.16707104444503784,0.211359441280365,0.0,0.0,0.0,0.0,8969.0,43916.0,30993.0,39245.0,0.7631502747535706,-0.08749569120939496,0.04111175764937837,0.03246475036399252
365,5,-0.0008220869349315763,0.0016906714299693704,-0.00012538711598608643,0.07437292486429214,-0.04818490147590637,0.17290900647640228,-0.05287472903728485,0.05637403205037117,-0.04450559988617897,-0.5644547343254089,-0.7668256759643555,0.003008023602887988,0.0,0.0,0.0,0.017134811729192734,0.021568162366747856,-0.0,0.0,0.0,0.0,0.0030145824421197176,-0.004999999888241291,-0.0012647518888115883,9463.0,42940.0,32145.0,38953.0,0.028765063732862473,0.18826177716255188,0.1269966959953308,0.16454219818115234,0.0,0.0,0.0,0.0,30631.0,56518.0,39777.0,45926.0,0.7631151080131531,-0.09448170262434875,0.050849016474975715,0.02790662644129505
370,5,-0.022629152983427048,-0.013218360021710396,0.04526421055197716,0.07437292486429214,-0.04818490147590637,0.17290900647640228,-0.05287472903728485,0.05637403205037117,-0.04450559988617897,-0.5644547343254089,-0.7668256759643555,0.003008023602887988,0.0,0.0,0.0,0.009561244398355484,0.010393811389803886,-0.0,0.0,0.0,0.0,0.0030145824421197176,-0.004999999888241291,-0.0012647518888115883,9463.0,42940.0,32145.0,38953.0,0.028765063732862473,0.18826177716255188,0.1269966959953308,0.16454219818115234,0.0,0.0,0.0,0.0,30631.0,56518.0,39777.0,45926.0,0.7629016041755676,-0.06119513004383354,0.009421723211318749,0.06155103094198763
375,5,-0.0011503065470606089,0.0019809331279248,-0.000207548015168868,0.07437292486429214,-0.04818490147590637,0.17290900647640228,-0.05287472903728485,0.05637403205037117,-0.04450559988617897,-0.5644547343254089,-0.7668256759643555,0.003008023602887988,0.0,0.0,0.0,0.01692262478172779,0.020681215450167656,-0.0,0.0,0.0,0.0,0.0030145824421197176,-0.004999999888241291,-0.0012647518888115883,9463.0,42940.0,32145.0,38953.0,0.028765063732862473,0.18826177716255188,0.1269966959953308,0.16454219818115234,0.0,0.0,0.0,0.0,30631.0,56518.0,39777.0,45926.0,0.7630980014801025,-0.0907414515905944,0.038234911595579846,0.04189429198558648
380,5,0.000377756601665169,0.0028286806773394346,-0.0019699325785040855,0.2362407147884369,-0.13314013183116913,0.2986065447330475,-0.05938994884490967,0.06274435669183731,-0.044326648116111755,-0.5122959613800049,-0.30939385294914246,-0.061443571001291275,0.0,0.0,0.0,0.04135556146502495,0.0671660453081131,-0.0,0.0,0.0,0.0,0.003370075486600399,-0.003644525073468685,-0.0013485138770192862,25992.0,51456.0,42001.0,51145.0,0.09626083076000214,0.24320046603679657,0.182563915848732,0.2410898357629776,0.0,0.0,0.0,0.0,9213.0,43098.0,31961.0,39100.0,0.7652037739753723,-0.07528426725519748,0.09721356316614593,0.037901592538107674
385,5,0.00022330497449729592,0.0027390180621296167,-0.0017424216493964195,0.049248989671468735,-0.027389295399188995,0.057730428874492645,-0.05938994884490967,0.06274435669183731,-0.044326648116111755,-0.5122959613800049,-0.30939385294914246,-0.061443571001291275,0.0,0.0,0.0,0.01733272150158882,0.021372279152274132,-0.0,0.0,0.0,0.0,0.003370075486600399,-0.003644525073468685,-0.0013485138770192862,25992.0,51456.0,42001.0,51145.0,0.09626083076000214,0.24320046603679657,0.182563915848732,0.2410898357629776,0.0,0.0,0.0,0.0,9213.0,43098.0,31961.0,39100.0,0.5087429881095886,-0.07999675449886903,0.09435477348607574,0.038149771294496496
390,5,5.633776163449511e-05,0.00263525964692235,-0.0016412778059020638,-0.008600713685154915,0.006309387274086475,0.0031589865684509277,-0.06285277009010315,0.06371622532606125,-0.04519578814506531,-0.43654853105545044,0.060642894357442856,-0.09078122675418854,0.0,0.0,0.0,0.0030555734410881996,-0.0033144380431622267,-0.0,0.0,0.0,0.0,0.00339551642537117,-0.001525171217508614,-0.0014948660973459482,28004.0,50014.0,39042.0,53690.0,0.10597595572471619,0.23348596692085266,0.16505661606788635,0.2585795223712921,0.0,0.0,0.0,0.0,27048.0,50911.0,40205.0,52513.0,0.5085555911064148,-0.08738989118115595,0.09128085456034081,0.03688668185793629
395,5,-0.0014981242129579186,0.0017268637893721461,0.0004338758299127221,-0.2202048897743225,0.12906824052333832,-0.2895738184452057,-0.06285277009010315,0.06371622532606125,-0.04519578814506531,-0.43654853105545044,0.060642894357442856,-0.09078122675418854,0.0,0.0,0.0,-0.03303966298699379,-0.06283740699291229,-0.0,0.0,0.0,0.0,0.00339551642537117,-0.001525171217508614,-0.0014948660973459482,28004.0,50014.0,39042.0,53690.0,0.10597595572471619,0.23348596692085266,0.16505661606788635,0.2585795223712921,0.0,0.0,0.0,0.0,27048.0,50911.0,40205.0,52513.0,0.7647514939308167,-0.1111458564190671,0.040859286498747496,0.03015643387168602
400,5,-0.0015234921593219042,0.0014916672371327877,0.0010796955320984125,-0.06961297988891602,0.0716479942202568,-0.17728690803050995,-0.06688504666090012,0.06088656187057495,-0.04621679335832596,-0.22664538025856018,0.3500613272190094,-0.05586152896285057,0.0,0.0,0.0,-0.016925524920225143,-0.020330894738435745,-0.0,0.0,0.0,0.0,0.003259618766605854,0.0007824320928193629,-0.0014804942766204476,17289.0,37728.0,24369.0,45566.0,0.05798463523387909,0.15751242637634277,0.08866249769926071,0.20458364486694336,0.0,0.0,0.0,0.0,18799.0,36984.0,22571.0,46537.0,0.763092577457428,-0.10077742618832654,0.0771080980778606,0.034657278426924364
405,5,-0.00238954764790833,0.0008943451684899628,0.0024917838163673878,-0.14213167130947113,0.105119489133358,-0.2508784234523773,-0.06688504666090012,0.06088656187057495,-0.04621679335832596,-0.22664538025856018,0.3500613272190094,-0.05586152896285057,0.0,0.0,0.0,-0.026643237099051476,-0.04132946953177452,-0.0,0.0,0.0,0.0,0.003259618766605854,0.0007824320928193629,-0.0014804942766204476,17289.0,37728.0,24369.0,45566.0,0.05798463523387909,0.15751242637634277,0.08866249769926071,0.20458364486694336,0.0,0.0,0.0,0.0,18799.0,36984.0,22571.0,46537.0,0.7637486457824707,-0.11083781181010474,0.0699296129759483,0.03182477502035123
410,5,-0.002258909400552511,0.0011975091183558106,0.0020001058001071215,-0.02435014396905899,-0.010907103307545185,-0.006428626831620932,-0.0675731673836708,0.05650102347135544,-0.04727061465382576,0.009049000218510628,0.5348501205444336,-0.0943773090839386,0.0,0.0,0.0,0.009539744816720486,-0.011999338865280151,-0.0,0.0,0.0,0.0,0.002875469857826829,0.002226531971246004,-0.0015364099526777864,31477.0,51698.0,35468.0,52674.0,0.12350931763648987,0.24484923481941223,0.1448560357093811,0.25153714418411255,0.0,0.0,0.0,0.0,32139.0,51488.0,35004.0,52751.0,0.508610188961029,-0.09870669896884507,0.059392887520654615,0.033723758716580655
415,5,-0.0027851606719195843,0.0013114348985254765,0.0020249574445188046,-0.08098021149635315,-0.01922173798084259,-0.005407797172665596,-0.0675731673836708,0.05650102347135544,-0.04727061465382576,0.009049000218510628,0.5348501205444336,-0.0943773090839386,0.0,0.0,0.0,0.01319801900535822,-0.036530498415231705,-0.0,0.0,0.0,0.0,0.002875469857826829,0.002226531971246004,-0.0015364099526777864,31477.0,51698.0,35468.0,52674.0,0.12350931763648987,0.24484923481941223,0.1448560357093811,0.25153714418411255,0.0,0.0,0.0,0.0,32139.0,51488.0,35004.0,52751.0,0.5089342594146729,-0.10685000300614877,0.01403284278388607,0.03533265917450516
420,5,-0.005817685276269913,-0.001335664070211351,0.010257398709654808,-0.5127736926078796,0.41542497277259827,-1.185925006866455,-0.06578588485717773,0.05008834972977638,-0.048946965485811234,0.2840576767921448,0.541916012763977,-0.15196223556995392,0.0,0.0,0.0,-0.1138436496257782,-0.14718304574489594,-0.0,0.0,0.0,0.0,0.0007509480929002166,-0.0004512885643634945,-0.0015894954558461905,31231.0,52924.0,34001.0,52799.0,0.12223494052886963,0.25326311588287354,0.13685905933380127,0.2523946166038513,0.0,0.0,0.0,0.0,31490.0,52484.0,32867.0,53771.0,0.7761877179145813,-0.07778525367494822,0.08482356857784738,0.030250485263271207
425,5,-0.0019961476791650057,0.0017980762058869004,0.001529936445876956,0.3811831772327423,-0.3140961527824402,0.8660672307014465,-0.06578588485717773,0.05008834972977638,-0.048946965485811234,0.2840576767921448,0.541916012763977,-0.15196223556995392,0.0,0.0,0.0,0.09176245331764221,0.10625044256448746,-0.0,0.0,0.0,0.0,0.0007509480929002166,-0.0004512885643634945,-0.0015894954558461905,31231.0,52924.0,34001.0,52799.0,0.12223494052886963,0.25326311588287354,0.13685905933380127,0.2523946166038513,0.0,0.0,0.0,0.0,31490.0,52484.0,32867.0,53771.0,0.7703929543495178,-0.06599035262774092,0.0727104031388166,0.033186241073073115
431,5,-0.0019961476791650057,0.0017980762058869004,0.001529936445876956,0.3811831772327423,-0.3140961527824402,0.8660672307014465,-0.062284063547849655,0.045825693756341934,-0.050858236849308014,0.5009508728981018,0.49847355484962463,-0.20760208368301392,0.0,0.0,0.0,0.0918111726641655,0.1061967983841896,-0.0,0.0,0.0,0.0,0.0003394740051589906,9.30936002987437e-05,-0.0017819734057411551,31483.0,53151.0,31799.0,53922.0,0.12354003638029099,0.2548285126686096,0.1251828968524933,0.26019784808158875,0.0,0.0,0.0,0.0,16281.0,42228.0,19889.0,45200.0,0.7703920602798462,-0.06599035262774092,0.0727104031388166,0.033186241073073115
436,5,-0.002840454690158367,0.0015548043884336948,0.00252356450073421,-0.09739656746387482,0.018446173518896103,-0.1721409261226654,-0.062284063547849655,0.045825693756341934,-0.050858236849308014,0.5009508728981018,0.49847355484962463,-0.20760208368301392,0.0,0.0,0.0,-0.0016426551155745983,-0.029395924881100655,-0.0,0.0,0.0,0.0,0.0003394740051589906,9.30936002987437e-05,-0.0017819734057411551,31483.0,53151.0,31799.0,53922.0,0.12354003638029099,0.2548285126686096,0.1251828968524933,0.26019784808158875,0.0,0.0,0.0,0.0,16281.0,42228.0,19889.0,45200.0,0.7631563544273376,-0.048113249004490106,0.05264979139866206,0.038665299438952194
441,5,-0.000479559792438522,0.003148289630189538,-0.0027553378604352474,0.3013063073158264,-0.21755407750606537,0.6874040365219116,-0.054536137729883194,0.040716882795095444,-0.053694162517786026,0.7376298308372498,0.4064624011516571,-0.23304422199726105,0.0,0.0,0.0,0.06571004539728165,0.08441822975873947,-0.0,0.0,0.0,0.0,0.0010937161277979612,-0.0001471716386731714,-0.0018039718270301819,15600.0,43614.0,18805.0,45007.0,0.05126307159662247,0.19239559769630432,0.06421546638011932,0.20106138288974762,0.0,0.0,0.0,0.0,31667.0,47888.0,29948.0,60875.0,0.7672075629234314,-0.05252848058480227,0.056438254264514744,0.031685809567797686
446,5,0.0008369464776478708,0.00401288690045476,-0.005488956347107887,0.274702787399292,-0.1863098442554474,0.5889278054237366,-0.054536137729883194,0.040716882795095444,-0.053694162517786026,0.7376298308372498,0.4064624011516571,-0.23304422199726105,0.0,0.0,0.0,0.05748418718576431,0.077590212225914,-0.0,0.0,0.0,0.0,0.0010937161277979612,-0.0001471716386731714,-0.0018039718270301819,15600.0,43614.0,18805.0,45007.0,0.05126307159662247,0.19239559769630432,0.06421546638011932,0.20106138288974762,0.0,0.0,0.0,0.0,31667.0,47888.0,29948.0,60875.0,0.7663934826850891,-0.04880538853289682,0.0677965915166449,0.02842889071478915
451,5,0.004278906155377626,0.006922619417309761,-0.014162902720272541,0.564285159111023,-0.46325546503067017,1.3910307884216309,-0.04751107841730118,0.03865152969956398,-0.05642901360988617,0.9561555981636047,0.19195696711540222,-0.288306325674057,0.0,0.0,0.0,0.13514778017997742,0.16014347970485687,-0.0,0.0,0.0,0.0,-0.0006116704316809773,-0.0023762250784784555,-0.0020594128873199224,30952.0,49402.0,29364.0,60437.0,0.12079746276140213,0.22941547632217407,0.11272928863763809,0.30745014548301697,0.0,0.0,0.0,0.0,28764.0,56240.0,30912.0,53350.0,0.7798240780830383,-0.07286517571118246,0.010511293714634891,0.024760872477745843
456,5,0.0022299012634903193,0.005343486089259386,-0.009816995821893215,-0.11757512390613556,0.08210201561450958,-0.19111762940883636,-0.04751107841730118,0.03865152969956398,-0.05642901360988617,0.9561555981636047,0.19195696711540222,-0.288306325674057,0.0,0.0,0.0,-0.017261184751987457,-0.03244924545288086,-0.0,0.0,0.0,0.0,-0.0006116704316809773,-0.0023762250784784555,-0.0020594128873199224,30952.0,49402.0,29364.0,60437.0,0.12079746276140213,0.22941547632217407,0.11272928863763809,0.30745014548301697,0.0,0.0,0.0,0.0,28764.0,56240.0,30912.0,53350.0,0.7633411288261414,-0.07323926040471956,0.015590897752070223,0.017933602836468013
461,5,0.00596966315060854,0.00792582705616951,-0.01832161284983158,0.4882941246032715,-0.33689719438552856,1.1333110332489014,-0.04751107841730118,0.03865152969956398,-0.05642901360988617,0.9561555981636047,0.19195696711540222,-0.288306325674057,0.0,0.0,0.0,0.1014920100569725,0.14014895260334015,-0.0,0.0,0.0,0.0,-0.0006116704316809773,-0.0023762250784784555,-0.0020594128873199224,30952.0,49402.0,29364.0,60437.0,0.12079746276140213,0.22941547632217407,0.11272928863763809,0.30745014548301697,0.0,0.0,0.0,0.0,28764.0,56240.0,30912.0,53350.0,0.7743638157844543,-0.08750915224159328,0.008909928330466298,0.017218812370698527
466,5,0.004895436577498913,0.007267753593623638,-0.01561046950519085,-0.0039035009685903788,-0.008938855491578579,-0.03956679627299309,-0.0350884348154068,0.03807128965854645,-0.059565093368291855,1.0976859331130981,-0.051875289529561996,-0.2513587176799774,0.0,0.0,0.0,0.009902623482048512,0.0013454308500513434,-0.0,0.0,0.0,0.0,0.0006625489331781864,-0.0006460518925450742,-0.0022306605242192745,27212.0,58035.0,31370.0,52226.0,0.10211236774921417,0.28963589668273926,0.122953400015831,0.2484559267759323,0.0,0.0,0.0,0.0,28471.0,54166.0,30217.0,56596.0,0.7628636956214905,-0.06276391818671355,0.029249769750840163,0.009541856272070345
471,5,-0.0033645075745880604,0.0014339181361719966,0.0016516633331775665,-1.1575632095336914,0.814055323600769,-2.4285686016082764,-0.0350884348154068,0.03807128965854645,-0.059565093368291855,1.0976859331130981,-0.051875289529561996,-0.2513587176799774,0.0,0.0,0.0,-0.21134929358959198,-0.3182007670402527,-0.0,0.0,0.0,0.0,0.0006625489331781864,-0.0006460518925450742,-0.0022306605242192745,27212.0,58035.0,31370.0,52226.0,0.10211236774921417,0.28963589668273926,0.122953400015831,0.2484559267759323,0.0,0.0,0.0,0.0,28471.0,54166.0,30217.0,56596.0,0.8214211463928223,-0.053628727857305575,0.021259645170481147,0.014953185261384562
476,5,-0.0039552790112793446,0.0011876184726133943,0.002556546125560999,-0.4299769997596741,0.27869853377342224,-0.8552541732788086,-0.02570885233581066,0.04006721451878548,-0.06178781017661095,1.1845369338989258,-0.4040674865245819,-0.2947888970375061,0.0,0.0,0.0,-0.07369248569011688,-0.12313999980688095,-0.0,0.0,0.0,0.0,0.0017842273227870464,9.13113181013614e-05,-0.0023008091375231743,26693.0,56176.0,30211.0,55822.0,0.09960756450891495,0.27616024017333984,0.11700434237718582,0.27362677454948425,0.0,0.0,0.0,0.0,25839.0,56866.0,30398.0,55563.0,0.7707377076148987,-0.03918154288123759,0.019774290031346287,0.02188464862487597
481,5,-0.004137883894145489,0.0012746392749249935,0.0028925740625709295,-0.1545577496290207,0.07142665982246399,-0.3036201596260071,-0.02570885233581066,0.04006721451878548,-0.06178781017661095,1.1845369338989258,-0.4040674865245819,-0.2947888970375061,0.0,0.0,0.0,-0.015603232197463512,-0.045951154083013535,-0.0,0.0,0.0,0.0,0.0017842273227870464,9.13113181013614e-05,-0.0023008091375231743,26693.0,56176.0,30211.0,55822.0,0.09960756450891495,0.27616024017333984,0.11700434237718582,0.27362677454948425,0.0,0.0,0.0,0.0,25839.0,56866.0,30398.0,55563.0,0.763724684715271,-0.014755407998881621,0.022252945251713625,0.025378905529128616
486,5,-0.004083286039531231,0.0012732105096802115,0.0025999697390943766,-0.038723647594451904,0.021628016605973244,-0.050121452659368515,-0.011488141492009163,0.04595538601279259,-0.06505555659532547,1.197595238685608,-0.5316373109817505,-0.26442956924438477,0.0,0.0,0.0,-0.0022271156776696444,-0.01990615390241146,-0.0,0.0,0.0,0.0,-0.004999999888241291,-0.004999999888241291,-0.002430796856060624,28382.0,65535.0,28382.0,48976.0,0.11439809203147888,0.3572891056537628,0.11439809203147888,0.23533788323402405,0.0,0.0,0.0,0.0,25677.0,55590.0,30796.0,57761.0,0.5086524486541748,-0.015731746242257736,0.027429539050690146,0.02042319261895686
491,5,-0.004146693740040064,0.0013709089253097773,0.002649142174050212,-0.02049417234957218,-0.0071893660351634026,-0.021920572966337204,-0.011488141492009163,0.04595538601279259,-0.06505555659532547,1.197595238685608,-0.5316373109817505,-0.26442956924438477,0.0,0.0,0.0,0.01013705600053072,-0.012377750128507614,-0.0,0.0,0.0,0.0,-0.004999999888241291,-0.004999999888241291,-0.002430796856060624,28382.0,65535.0,28382.0,48976.0,0.11439809203147888,0.3572891056537628,0.11439809203147888,0.23533788323402405,0.0,0.0,0.0,0.0,25677.0,55590.0,30796.0,57761.0,0.5086154937744141,0.005199386325064052,0.03391777749732777,0.02431543845454489
497,5,-0.004267193842679262,0.0009371905471198261,0.002400095108896494,-0.02301827073097229,0.05856376141309738,0.02829042822122574,-0.0018024112796410918,0.051165517419576645,-0.06717118620872498,1.2285196781158447,-0.776446521282196,-0.28032559156417847,0.0,0.0,0.0,-0.01806514523923397,-0.013702557422220707,-0.0,0.0,0.0,0.0,-0.0028719264082610607,-0.004999999888241291,-0.0024912268854677677,23517.0,63748.0,28831.0,50408.0,0.08475803583860397,0.3327749967575073,0.11006345599889755,0.23612919449806213,0.0,0.0,0.0,0.0,29581.0,66921.0,29581.0,50377.0,0.5086811184883118,-0.029562635085044663,0.03108450545423975,0.017107678750845564
502,5,-0.00430184043943882,0.0010547875426709652,0.0022336591500788927,-0.011755994521081448,0.0011055557988584042,0.031788136810064316,-0.0018024112796410918,0.051165517419576645,-0.06717118620872498,1.2285196781158447,-0.776446521282196,-0.28032559156417847,0.0,0.0,0.0,0.006462845951318741,-0.009115864522755146,-0.0,0.0,0.0,0.0,-0.0028719264082610607,-0.004999999888241291,-0.0024912268854677677,23517.0,63748.0,28831.0,50408.0,0.08475803583860397,0.3327749967575073,0.11006345599889755,0.23612919449806213,0.0,0.0,0.0,0.0,29581.0,66921.0,29581.0,50377.0,0.5085821747779846,-0.012719122784740848,0.03918569301004046,0.021492098322446144
