timestamp,dt,pos_x,pos_y,pos_z,vel_x,vel_y,vel_z,roll,pitch,yaw,agv_x,agv_y,agv_z,x_ref,y_ref,z_ref,roll_ref,pitch_ref,yaw_ref,x_vel_ref,y_vel_ref,z_vel_ref,x_torque,y_torque,z_torque,w0,w1,w2,w3,u0,u1,u2,u3,m0req,m1req,m2req,m3req,thrust0,thrust1,thrust2,thrust3,thrust_ref,roll_vicon,pitch_vicon,yaw_vicon,acc_x,acc_y,acc_z
5,5,0.0,0.0,0.0,0.0009335778886452317,0.00021581027249339968,-0.006092119496315718,0.014882794581353664,0.41450703144073486,-0.004454410634934902,0.00037706675357185304,-0.002637749770656228,0.0013130602892488241,0.0,0.0,0.0,-0.00020624061289709061,0.000892180425580591,-0.0,0.0,0.0,0.0,-0.0006270399317145348,-0.004999999888241291,-0.0001358112640446052,0.0,0.0,0.0,0.0,0.0,0.0,0.0,0.0,0.0,0.0,0.0,0.0,0.0,0.0,0.0,0.0,0.33903375267982483,-0.09093751666274412,-0.5122161907589852,-0.06808109321861945,-0.0035009169951081276,-0.0008092885254882276,0.018276358023285866
22,17,0.0,0.0,0.0,-0.0010582171380519867,-0.0013058603508397937,-0.002339498605579138,0.014882794581353664,0.41450703144073486,-0.004454410634934902,0.00037706675357185304,-0.002637749770656228,0.0013130602892488241,0.0,0.0,0.0,0.0012479539727792144,-0.0010112927993759513,-0.0,0.0,0.0,0.0,-0.0006270399317145348,-0.004999999888241291,-0.0001358112640446052,0.0,0.0,0.0,0.0,0.0,0.0,0.0,0.0,0.0,0.0,0.0,0.0,0.0,0.0,0.0,0.0,0.3390340507030487,-0.09071357937032783,-0.5086033934604502,-0.06742951089953428,0.00396831426769495,0.0048969765193760395,0.007018495816737413
28,5,0.0,0.0,0.0,0.0003173637669533491,0.0013390996027737856,-0.013824296183884144,0.014882794581353664,0.41450703144073486,-0.004454410634934902,0.00037706675357185304,-0.002637749770656228,0.0013130602892488241,0.0,0.0,0.0,-0.0012797197559848428,0.0003032910462934524,-0.0,0.0,0.0,0.0,-0.0006270399317145348,-0.004999999888241291,-0.0001358112640446052,0.0,0.0,0.0,0.0,0.0,0.0,0.0,0.0,0.0,0.0,0.0,0.0,0.0,0.0,0.0,0.0,0.33903390169143677,-0.09208304953082737,-0.5118053411041632,-0.06890997689209345,-0.0011901140678673983,-0.005021623335778713,0.041472889482975006
33,5,0.0,0.0,0.0,0.0013744819443672895,-0.0018298057839274406,0.009232483804225922,0.014861496165394783,0.4144970178604126,-0.00447006244212389,0.0019050537375733256,0.002789683872833848,-0.003588319756090641,0.0,0.0,0.0,0.001748664304614067,0.001313533284701407,-0.0,0.0,0.0,0.0,-0.0006158738397061825,-0.004999999888241291,-0.00014213686517905444,0.0,0.0,0.0,0.0,0.0,0.0,0.0,0.0,0.0,0.0,0.0,0.0,0.0,0.0,0.0,0.0,0.33903440833091736,-0.09142707117477734,-0.5089456353324691,-0.06764853325385042,-0.0051543074660003185,0.006861771456897259,-0.027697451412677765
38,5,0.0,0.0,0.0,0.0013744819443672895,-0.0018298057839274406,0.009232483804225922,0.014861496165394783,0.4144970178604126,-0.00447006244212389,0.0019050537375733256,0.002789683872833848,-0.003588319756090641,0.0,0.0,0.0,0.001748664304614067,0.001313533284701407,-0.0,0.0,0.0,0.0,-0.0006158738397061825,-0.004999999888241291,-0.00014213686517905444,0.0,0.0,0.0,0.0,0.0,0.0,0.0,0.0,0.0,0.0,0.0,0.0,0.0,0.0,0.0,0.0,0.33903440833091736,-0.09142707117477734,-0.5089456353324691,-0.06764853325385042,-0.0051543074660003185,0.006861771456897259,-0.027697451412677765
43,5,-1.0521923286432866e-05,-0.00010795206617331132,-0.0001156282305601053,-0.002143673598766327,0.015079406090080738,0.016778938472270966,0.014861496165394783,0.4144970178604126,-0.00447006244212389,0.0019050537375733256,0.002789683872833848,-0.003588319756090641,0.0,0.0,0.0,-0.014568504877388477,-0.0020640946459025145,-0.0,0.0,0.0,0.0,-0.0006158738397061825,-0.004999999888241291,-0.00014213686517905444,0.0,0.0,0.0,0.0,0.0,0.0,0.0,0.0,0.0,0.0,0.0,0.0,0.0,0.0,0.0,0.0,0.33907029032707214,-0.09674491776225186,-0.5117940393357141,-0.06897225930653594,0.008099518716335297,-0.05717097967863083,-0.052597347646951675
50,7,-6.21076615061611e-05,-4.9497364670969546e-05,0.00014811722212471068,-0.007865105755627155,-0.0036598369479179382,-0.03189068287611008,0.014861496165394783,0.4144970178604126,-0.00447006244212389,0.0019050537375733256,0.002789683872833848,-0.003588319756090641,0.0,0.0,0.0,0.0034204719122499228,-0.00760403648018837,-0.0,0.0,0.0,0.0,-0.0006158738397061825,-0.004999999888241291,-0.00014213686517905444,0.0,0.0,0.0,0.0,0.0,0.0,0.0,0.0,0.0,0.0,0.0,0.0,0.0,0.0,0.0,0.0,0.33904537558555603,-0.09516997669202507,-0.5108426953452164,-0.0720101329397534,0.029838813468813896,0.013422371819615364,0.09737221151590347
55,5,-0.00014764735533390194,0.00012710998998954892,-0.0005623710458166897,-0.014335088431835175,-0.02582298032939434,0.0899011492729187,0.014883974567055702,0.4144798219203949,-0.004484642297029495,-0.001205294393002987,0.0027914256788790226,-0.0021239721681922674,0.0,0.0,0.0,0.0034178229980170727,-0.007607359904795885,-0.0,0.0,0.0,0.0,-0.0006682402454316616,-0.004999999888241291,-7.688745972700417e-05,16597.0,30981.0,28727.0,16128.0,0.055202655494213104,0.12094710767269135,0.10954570770263672,0.05333894491195679,0.0,0.0,0.0,0.0,16059.0,31646.0,28030.0,16665.0,0.3390454053878784,-0.09209374530450165,-0.4965711005120844,-0.06108051245100156,0.05458485335111618,0.09749503433704376,-0.27813848853111267
60,5,-0.00012989841343369335,9.740392124513164e-05,-0.0005530296475626528,-0.0018156754085794091,-0.003588044084608555,0.025662554427981377,0.014883974567055702,0.4144798219203949,-0.004484642297029495,-0.001205294393002987,0.0027914256788790226,-0.0021239721681922674,0.0,0.0,0.0,0.003916559275239706,-0.001927556935697794,-0.0,0.0,0.0,0.0,-0.0006682402454316616,-0.004999999888241291,-7.688745972700417e-05,16597.0,30981.0,28727.0,16128.0,0.055202655494213104,0.12094710767269135,0.10954570770263672,0.05333894491195679,0.0,0.0,0.0,0.0,16059.0,31646.0,28030.0,16665.0,0.33903682231903076,-0.09412483600471006,-0.4981498142115291,-0.06305116786893569,0.007563742808997631,0.013971520587801933,-0.08682864159345627
65,5,-0.00011137720866827294,0.00013083625526633114,-0.0005023590638302267,0.0020482661202549934,-0.0057569402270019054,0.0006048842333257198,0.014898529276251793,0.41455405950546265,-0.004329541232436895,-0.004188602790236473,-0.0054535772651433945,-0.0286424458026886,0.0,0.0,0.0,0.006253768224269152,0.0017841862281784415,-0.0,0.0,0.0,0.0,-0.0005500664701685309,-0.004999999888241291,-0.0001501010701758787,15682.0,31663.0,28012.0,17035.0,0.051582563668489456,0.12447842955589294,0.10601438581943512,0.056959036737680435,0.0,0.0,0.0,0.0,16584.0,31032.0,28674.0,16140.0,0.33904075622558594,-0.09371868441264085,-0.49824944553352635,-0.06365754584293111,-0.00700098741799593,0.02230936847627163,-0.012809749692678452
70,5,1.5664027159800753e-05,0.00010243536235066131,-0.0006109122768975794,0.018400253728032112,0.002249042736366391,0.015378909185528755,0.014898529276251793,0.41455405950546265,-0.004329541232436895,-0.004188602790236473,-0.0054535772651433945,-0.0286424458026886,0.0,0.0,0.0,-0.0022004724014550447,0.017583392560482025,-0.0,0.0,0.0,0.0,-0.0005500664701685309,-0.004999999888241291,-0.0001501010701758787,15682.0,31663.0,28012.0,17035.0,0.051582563668489456,0.12447842955589294,0.10601438581943512,0.056959036737680435,0.0,0.0,0.0,0.0,16584.0,31032.0,28674.0,16140.0,0.3390868306159973,-0.10260977082731403,-0.5037880696752427,-0.06661095375280104,-0.06900434195995331,-0.007850909605622292,-0.05994609370827675
75,5,6.464748730650172e-05,9.678555215941742e-05,-0.0006729090237058699,0.012377760373055935,0.0014656860148534179,0.013293224386870861,0.01499381847679615,0.41446930170059204,-0.0050322203896939754,-0.02193264476954937,0.051028233021497726,-0.04963960871100426,0.0,0.0,0.0,-0.0013772024540230632,0.011900808662176132,-0.0,0.0,0.0,0.0,-0.0003801555430982262,-0.004999999888241291,-0.00028375076362863183,14478.0,32224.0,27413.0,18180.0,0.04692312702536583,0.1274069845676422,0.10309130698442459,0.0616239570081234,0.0,0.0,0.0,0.0,15507.0,31524.0,28159.0,17204.0,0.33905792236328125,-0.09618493724116259,-0.4993552475371279,-0.06587426156522413,-0.04670097678899765,-0.004913207143545151,-0.05793677642941475
80,5,3.958954039262608e-06,-1.4446241038967855e-05,-0.0005263836937956512,-0.004783066920936108,0.016012156382203102,-0.01652558520436287,0.01499381847679615,0.41446930170059204,-0.0050322203896939754,-0.02193264476954937,0.051028233021497726,-0.04963960871100426,0.0,0.0,0.0,-0.016836725175380707,-0.004582191817462444,-0.0,0.0,0.0,0.0,-0.0003801555430982262,-0.004999999888241291,-0.00028375076362863183,14478.0,32224.0,27413.0,18180.0,0.04692312702536583,0.1274069845676422,0.10309130698442459,0.0616239570081234,0.0,0.0,0.0,0.0,15507.0,31524.0,28159.0,17204.0,0.3390852212905884,-0.10766662482444674,-0.5010898996402126,-0.07277590679821427,0.01798064075410366,-0.06006653606891632,0.03273014724254608
85,5,0.000137533585075289,-0.00015362697013188154,-0.0005866910796612501,0.017265526577830315,0.024288950487971306,0.0034853604156523943,0.014903257600963116,0.41325774788856506,-0.004557341802865267,0.031417641788721085,0.1253528594970703,0.048973195254802704,0.0,0.0,0.0,-0.02532164566218853,0.016399549320340157,-0.0,0.0,0.0,0.0,-0.0005545360036194324,-0.004999999888241291,-6.378490797942504e-05,16597.0,31000.0,28707.0,16128.0,0.05520224571228027,0.12104582041501999,0.10944820195436478,0.05334056168794632,0.0,0.0,0.0,0.0,16981.0,31210.0,28494.0,15744.0,0.34487926959991455,-0.1153456292882202,-0.5075817617775118,-0.07794526248813191,-0.0654376819729805,-0.09187369048595428,-0.03006732650101185
90,5,0.00014008824655320495,-5.599951691692695e-05,-0.0005534193478524685,0.005537312477827072,-0.00638115918263793,-0.00361243705265224,0.014903257600963116,0.41325774788856506,-0.004557341802865267,0.031417641788721085,0.1253528594970703,0.048973195254802704,0.0,0.0,0.0,0.006630857940763235,0.005476691760122776,-0.0,0.0,0.0,0.0,-0.0005545360036194324,-0.004999999888241291,-6.378490797942504e-05,16597.0,31000.0,28707.0,16128.0,0.05520224571228027,0.12104582041501999,0.10944820195436478,0.05334056168794632,0.0,0.0,0.0,0.0,16981.0,31210.0,28494.0,15744.0,0.3390461504459381,-0.11066603423934895,-0.5055149683072816,-0.07533996175131845,-0.021490752696990967,0.02365463599562645,-0.009679589420557022
95,5,0.00012620814959518611,-0.00021626314264722168,-0.0005977898836135864,-0.00028202065732330084,0.02052256092429161,0.005128146149218082,0.014751543290913105,0.4119777977466583,-0.004337850492447615,-0.017010696232318878,0.12524114549160004,-0.03917883709073067,0.0,0.0,0.0,-0.021909603849053383,-9.218334162142128e-05,-0.0,0.0,0.0,0.0,-0.0006556717562489212,-0.004999999888241291,-0.00013398838927969337,15824.0,31828.0,27842.0,16902.0,0.052142851054668427,0.12533773481845856,0.10518129169940948,0.05642496049404144,0.0,0.0,0.0,0.0,15970.0,33067.0,26494.0,16758.0,0.3391149938106537,-0.11625733239973551,-0.505353381645774,-0.07912827570981787,0.00036172743421047926,-0.0781678706407547,-0.03995415195822716
100,5,6.392705108737573e-05,-0.0003117006563115865,-0.0006084553897380829,-0.00880395993590355,0.019518017768859863,0.003031616797670722,0.014751543290913105,0.4119777977466583,-0.004337850492447615,-0.017010696232318878,0.12524114549160004,-0.03917883709073067,0.0,0.0,0.0,-0.02100154012441635,-0.00832280982285738,-0.0,0.0,0.0,0.0,-0.0006556717562489212,-0.004999999888241291,-0.00013398838927969337,15824.0,31828.0,27842.0,16902.0,0.052142851054668427,0.12533773481845856,0.10518129169940948,0.05642496049404144,0.0,0.0,0.0,0.0,15970.0,33067.0,26494.0,16758.0,0.33912011981010437,-0.11686318023914533,-0.5041921264673923,-0.08039804385655389,0.03265945985913277,-0.07492992281913757,-0.034004416316747665
105,5,9.815594967221841e-05,-0.0003020278818439692,-0.0005522339488379657,0.0021508580539375544,0.00450121657922864,-0.006961515638977289,0.014835650101304054,0.41037338972091675,-0.004801158327609301,-0.0022179121151566505,0.12789899110794067,-0.006152575369924307,0.0,0.0,0.0,-0.005222300533205271,0.0021975485142320395,-0.0,0.0,0.0,0.0,-0.001273616566322744,-0.004999999888241291,-0.00015196872118394822,16962.0,32437.0,27186.0,15762.0,0.056668296456336975,0.1285286545753479,0.10198956727981567,0.051898710429668427,0.0,0.0,0.0,0.0,16604.0,32738.0,26857.0,16127.0,0.33903902769088745,-0.1146065966252607,-0.5044958784848848,-0.08135708884381747,-0.008623341098427773,-0.018630007281899452,-0.005331874825060368
111,5,0.00027044513262808323,-0.000276732724159956,-0.0008235713467001915,0.02476574294269085,-0.002190954750403762,0.03589877486228943,0.014835650101304054,0.41037338972091675,-0.004801158327609301,-0.0022179121151566505,0.12789899110794067,-0.006152575369924307,0.0,0.0,0.0,0.0018326035933569074,0.02405235730111599,-0.0,0.0,0.0,0.0,-0.001273616566322744,-0.004999999888241291,-0.00015196872118394822,16962.0,32437.0,27186.0,15762.0,0.056668296456336975,0.1285286545753479,0.10198956727981567,0.051898710429668427,0.0,0.0,0.0,0.0,16604.0,32738.0,26857.0,16127.0,0.33913224935531616,-0.11017486409319677,-0.5112044381009926,-0.07946094195203926,-0.09439965337514877,0.006539294496178627,-0.14002536237239838
116,5,0.00014367577387019992,-0.00025741380522958934,-0.00040848396020010114,-0.010317987762391567,-0.003361937589943409,-0.04734259471297264,0.014654994942247868,0.4091103672981262,-0.004554539453238249,-0.0035373850259929895,0.2003098726272583,0.08193092793226242,0.0,0.0,0.0,0.0030778092332184315,-0.009634354151785374,-0.0,0.0,0.0,0.0,-0.0015045058680698276,-0.004999999888241291,-5.312145731295459e-05,16828.0,30225.0,29502.0,15895.0,0.0561266653239727,0.11707597225904465,0.11342271417379379,0.052420806139707565,0.0,0.0,0.0,0.0,16279.0,30781.0,28935.0,16448.0,0.33905094861984253,-0.11497255011000791,-0.5090185480715411,-0.08252381876507056,0.037806376814842224,0.01097992341965437,0.11312508583068848
121,5,0.00014288636157289147,-0.000280186184681952,-0.0006858551641926169,-0.003205913584679365,0.0021795553620904684,0.02462918870151043,0.014654994942247868,0.4091103672981262,-0.004554539453238249,-0.0035373850259929895,0.2003098726272583,0.08193092793226242,0.0,0.0,0.0,-0.002797858789563179,-0.0028312455397099257,-0.0,0.0,0.0,0.0,-0.0015045058680698276,-0.004999999888241291,-5.312145731295459e-05,16828.0,30225.0,29502.0,15895.0,0.0561266653239727,0.11707597225904465,0.11342271417379379,0.052420806139707565,0.0,0.0,0.0,0.0,16279.0,30781.0,28935.0,16448.0,0.3390362858772278,-0.10891086326069287,-0.49159476141971176,-0.0802377333570166,0.01110962312668562,-0.009981206618249416,-0.10842502862215042
126,5,8.246710785897449e-05,1.128338226408232e-05,-0.00044555956264957786,-0.009420469403266907,-0.04015187546610832,-0.0262526273727417,0.0146627277135849,0.40605586767196655,-0.004093887750059366,0.028758758679032326,0.2963069975376129,0.028518550097942352,0.0,0.0,0.0,0.03934577479958534,-0.008265100419521332,-0.0,0.0,0.0,0.0,-0.00042289626435376704,-0.004999999888241291,-0.00017994300287682563,18128.0,32094.0,27561.0,14544.0,0.061409562826156616,0.1267281025648117,0.10380761325359344,0.047174934297800064,0.0,0.0,0.0,0.0,17438.0,32693.0,26910.0,15275.0,0.3631872236728668,-0.09914267705569602,-0.48672394828243903,-0.07747520733286099,0.034715525805950165,0.15030424296855927,0.04534463211894035
131,5,-1.4173720956023317e-05,-0.00012682052329182625,-0.000528467760886997,-0.016355857253074646,0.00728898448869586,0.0037313622888177633,0.0146627277135849,0.40605586767196655,-0.004093887750059366,0.028758758679032326,0.2963069975376129,0.028518550097942352,0.0,0.0,0.0,-0.007948110811412334,-0.01560546550899744,-0.0,0.0,0.0,0.0,-0.00042289626435376704,-0.004999999888241291,-0.00017994300287682563,18128.0,32094.0,27561.0,14544.0,0.061409562826156616,0.1267281025648117,0.10380761325359344,0.047174934297800064,0.0,0.0,0.0,0.0,17438.0,32693.0,26910.0,15275.0,0.3390856087207794,-0.09920257224742247,-0.4782574449802617,-0.08041603882502718,0.06124084070324898,-0.028357217088341713,-0.04714930057525635
136,5,-1.943582719832193e-05,-0.0004781680181622505,-0.00043325359001755714,-0.005643452052026987,0.05137534439563751,-0.01221058052033186,0.0146627277135849,0.40605586767196655,-0.004093887750059366,0.028758758679032326,0.2963069975376129,0.028518550097942352,0.0,0.0,0.0,-0.04875665158033371,-0.0047838278114795685,-0.0,0.0,0.0,0.0,-0.00042289626435376704,-0.004999999888241291,-0.00017994300287682563,18128.0,32094.0,27561.0,14544.0,0.061409562826156616,0.1267281025648117,0.10380761325359344,0.047174934297800064,0.0,0.0,0.0,0.0,17438.0,32693.0,26910.0,15275.0,0.38156381249427795,-0.08163092357678092,-0.4706446519186842,-0.07271559047348508,0.02110138349235058,-0.19564230740070343,0.0001805954525480047
141,5,-0.0005223253392614424,-0.0005065749282948673,0.0006386708118952811,-0.07209756970405579,0.019389575347304344,-0.15373258292675018,0.014586446806788445,0.4027342200279236,-0.004266301169991493,-0.01649285852909088,0.5369428396224976,-0.04077133163809776,0.0,0.0,0.0,-0.017281489446759224,-0.05653109401464462,-0.0,0.0,0.0,0.0,-0.000721222604624927,-0.004999999888241291,-0.00011906627332791686,16586.0,31451.0,28236.0,16139.0,0.055160440504550934,0.12337788194417953,0.10711587220430374,0.05338209867477417,0.0,0.0,0.0,0.0,15657.0,31499.0,28195.0,17070.0,0.4176436960697174,-0.12090903489499455,-0.45326091377218297,-0.08258209481458313,0.2730759084224701,-0.07593667507171631,0.4396277666091919
146,5,-0.0004303667228668928,-0.00043542374623939395,0.0005978086264804006,-0.008755066432058811,-0.004144295118749142,-0.04039906710386276,0.014586446806788445,0.4027342200279236,-0.004266301169991493,-0.01649285852909088,0.5369428396224976,-0.04077133163809776,0.0,0.0,0.0,0.0035365712828934193,-0.008952033706009388,-0.0,0.0,0.0,0.0,-0.000721222604624927,-0.004999999888241291,-0.00011906627332791686,16586.0,31451.0,28236.0,16139.0,0.055160440504550934,0.12337788194417953,0.10711587220430374,0.05338209867477417,0.0,0.0,0.0,0.0,15657.0,31499.0,28195.0,17070.0,0.3390493094921112,-0.1106643716827435,-0.4529441232652455,-0.08022351538338564,0.035128720104694366,0.012616463005542755,0.10091228783130646
151,5,-0.0004602401750162244,0.0001705744070932269,0.0006034172256477177,-0.006808803416788578,-0.08608303219079971,-0.01290492620319128,0.014368821866810322,0.3956715762615204,-0.0040885163471102715,0.009840959683060646,0.6526416540145874,0.031145164743065834,0.0,0.0,0.0,0.07079150527715683,-0.00560156861320138,-0.0,0.0,0.0,0.0,-0.002483759541064501,-0.004999999888241291,-6.781808042433113e-05,21786.0,35201.0,28489.0,15992.0,0.07700461149215698,0.14338919520378113,0.10836878418922424,0.052802152931690216,0.0,0.0,0.0,0.0,16721.0,31265.0,28431.0,16002.0,0.43430009484291077,-0.07356586751229681,-0.452339571171131,-0.0614854739524266,0.028086984530091286,0.3231290578842163,0.02065158076584339
156,5,-0.00023694893752690405,0.00045431911712512374,0.0012967524817213416,0.02921813353896141,-0.06554917246103287,-0.10093842446804047,0.014368821866810322,0.3956715762615204,-0.0040885163471102715,0.009840959683060646,0.6526416540145874,0.031145164743065834,0.0,0.0,0.0,0.05713292583823204,0.022700652480125427,-0.0,0.0,0.0,0.0,-0.002483759541064501,-0.004999999888241291,-6.781808042433113e-05,21786.0,35201.0,28489.0,15992.0,0.07700461149215698,0.14338919520378113,0.10836878418922424,0.052802152931690216,0.0,0.0,0.0,0.0,16721.0,31265.0,28431.0,16002.0,0.4123791754245758,-0.048180888199940715,-0.47855615854372574,-0.0624491014578589,-0.1081620305776596,0.2477184534072876,0.2969517707824707
161,5,-0.00022056736634112895,0.0004065191315021366,0.001367250457406044,0.011058860458433628,-0.012972752563655376,-0.040151238441467285,0.014109582640230656,0.37809857726097107,-0.0034659092780202627,0.04328535124659538,1.100791096687317,-0.010653397999703884,0.0,0.0,0.0,0.014120050705969334,0.010221943259239197,-0.0,0.0,0.0,0.0,-0.0003934715350624174,-0.004999999888241291,-0.00010074854071717709,16080.0,31237.0,28461.0,16646.0,0.053149811923503876,0.1222701445221901,0.1082301214337349,0.05539923906326294,0.0,0.0,0.0,0.0,22057.0,35146.0,28550.0,15687.0,0.33908510208129883,-0.05145578721958639,-0.4749564997564657,-0.06364133478973812,-0.04011230170726776,0.05037546902894974,0.11954498291015625
166,5,-9.174615843221545e-05,-2.610172850836534e-05,0.0012585469521582127,0.021352628245949745,0.05667509511113167,0.0031731179915368557,0.014109582640230656,0.37809857726097107,-0.0034659092780202627,0.04328535124659538,1.100791096687317,-0.010653397999703884,0.0,0.0,0.0,-0.0513630211353302,0.017406253144145012,-0.0,0.0,0.0,0.0,-0.0003934715350624174,-0.004999999888241291,-0.00010074854071717709,16080.0,31237.0,28461.0,16646.0,0.053149811923503876,0.1222701445221901,0.1082301214337349,0.05539923906326294,0.0,0.0,0.0,0.0,22057.0,35146.0,28550.0,15687.0,0.394541472196579,-0.07022261847971664,-0.46907987075050084,-0.06938157068013902,-0.0793759897351265,-0.21309804916381836,-0.0072417971678078175
171,5,-0.00028443741030059755,9.626641258364543e-06,0.001254073460586369,-0.020570985972881317,0.012000557035207748,0.001578223891556263,0.013843541033565998,0.36854681372642517,-0.0034629807341843843,-0.05510224401950836,1.3179700374603271,0.0054430835880339146,0.0,0.0,0.0,-0.012717070989310741,-0.020107867196202278,-0.0,0.0,0.0,0.0,0.0018891762010753155,-0.0015755622880533338,-0.00010593371553113684,22399.0,27416.0,30520.0,29014.0,0.07972197234630585,0.10310308635234833,0.11858448386192322,0.11097580194473267,0.0,0.0,0.0,0.0,16584.0,30886.0,27301.0,18001.0,0.33912956714630127,-0.06325124504016058,-0.4496252509331085,-0.0745946660711463,0.07891390472650528,-0.045376453548669815,0.0011253453558310866
177,5,-0.0005728659452870488,-0.0005154930404387414,0.0006187150720506907,-0.04655129462480545,0.07711692154407501,0.08942364156246185,0.013843541033565998,0.36854681372642517,-0.0034629807341843843,-0.05510224401950836,1.3179700374603271,0.0054430835880339146,0.0,0.0,0.0,-0.06302543729543686,-0.0349162258207798,-0.0,0.0,0.0,0.0,0.0018891762010753155,-0.0015755622880533338,-0.00010593371553113684,22399.0,27416.0,30520.0,29014.0,0.07972197234630585,0.10310308635234833,0.11858448386192322,0.11097580194473267,0.0,0.0,0.0,0.0,16584.0,30886.0,27301.0,18001.0,0.4413968622684479,-0.09042737374692841,-0.40360028121747304,-0.08751169728530596,0.1779891550540924,-0.2924504578113556,-0.2674270272254944
182,5,-0.0005914167268201709,-0.0003684113034978509,0.0009571097907610238,-0.02175428345799446,0.022656923159956932,0.00885634683072567,0.01358010433614254,0.3502534329891205,-0.0035498314537107944,-0.018709339201450348,1.6055508852005005,-0.04897317290306091,0.0,0.0,0.0,-0.023831278085708618,-0.021099315956234932,-0.0,0.0,0.0,0.0,-0.002632794203236699,0.0030902689322829247,-0.00016005754878278822,31930.0,27476.0,17413.0,28168.0,0.1258702129125595,0.10339701175689697,0.05849045515060425,0.10678355395793915,0.0,0.0,0.0,0.0,25587.0,24349.0,27818.0,31649.0,0.34902775287628174,-0.08913357354397075,-0.3925914139996883,-0.0807640989311521,0.08520470559597015,-0.08750808984041214,-0.01879163272678852
187,5,-0.0005701332120224833,-8.904343121685088e-05,0.0011996995890513062,-0.003546597436070442,-0.032314423471689224,-0.03130565956234932,0.01358010433614254,0.3502534329891205,-0.0035498314537107944,-0.018709339201450348,1.6055508852005005,-0.04897317290306091,0.0,0.0,0.0,0.03274642676115036,-0.004193417727947235,-0.0,0.0,0.0,0.0,-0.002632794203236699,0.0030902689322829247,-0.00016005754878278822,31930.0,27476.0,17413.0,28168.0,0.1258702129125595,0.10339701175689697,0.05849045515060425,0.10678355395793915,0.0,0.0,0.0,0.0,25587.0,24349.0,27818.0,31649.0,0.34866833686828613,-0.0689378852133435,-0.3874462034830021,-0.08147269251990559,0.016914324834942818,0.1201060563325882,0.10819276422262192
192,5,-0.0003940362366847694,-0.00032318331068381667,0.0011376446345821023,0.023589598014950752,0.023085255175828934,-0.0007040118216536939,0.013408512808382511,0.33547723293304443,-0.003413744969293475,-0.03998325765132904,1.9759957790374756,-0.04469165578484535,0.0,0.0,0.0,-0.02418065257370472,0.021188324317336082,-0.0,0.0,0.0,0.0,-0.003070815233513713,0.004501474555581808,-0.00014182749146129936,37075.0,27646.0,16675.0,32313.0,0.15381427109241486,0.1042221337556839,0.055514462292194366,0.12787353992462158,0.0,0.0,0.0,0.0,36414.0,27969.0,16562.0,32801.0,0.3496435284614563,-0.09026529789237848,-0.38677324269752605,-0.0771960224561332,-0.08571343868970871,-0.08894675225019455,0.019024550914764404
197,5,-0.00044770108070224524,-3.437422856222838e-05,0.0014215336414054036,-0.0004361980827525258,-0.03350769355893135,-0.03995566442608833,0.013408512808382511,0.33547723293304443,-0.003413744969293475,-0.03998325765132904,1.9759957790374756,-0.04469165578484535,0.0,0.0,0.0,0.03387386351823807,-0.0011714785359799862,-0.0,0.0,0.0,0.0,-0.003070815233513713,0.004501474555581808,-0.00014182749146129936,37075.0,27646.0,16675.0,32313.0,0.15381427109241486,0.1042221337556839,0.055514462292194366,0.12787353992462158,0.0,0.0,0.0,0.0,36414.0,27969.0,16562.0,32801.0,0.3502698838710785,-0.06297063116521602,-0.3673150854273285,-0.07637047999230884,0.004747177939862013,0.12480989098548889,0.14435121417045593
202,5,-0.0004754074034281075,-0.00023822966613806784,0.001468521193601191,-0.004009744618088007,0.01848745346069336,-0.018564965575933456,0.012748722918331623,0.3109513819217682,-0.0034579960629343987,-0.035987675189971924,2.1032958030700684,-0.027621546760201454,0.0,0.0,0.0,-0.019985031336545944,-0.004684758838266134,-0.0,0.0,0.0,0.0,-0.0030081949662417173,0.004999999888241291,-0.00014414243923965842,28104.0,16917.0,17013.0,32496.0,0.1064697876572609,0.056485336273908615,0.056873004883527756,0.12883976101875305,0.0,0.0,0.0,0.0,27877.0,17379.0,16548.0,32708.0,0.3391050398349762,-0.0848333826969289,-0.35858556491612853,-0.07294147536208281,0.018383841961622238,-0.07130104303359985,0.08529655635356903
207,5,-0.00027387955924496055,-0.0008510617190040648,0.0009316278737969697,0.027010973542928696,0.09134271740913391,0.0695955827832222,0.012748722918331623,0.3109513819217682,-0.0034579960629343987,-0.035987675189971924,2.1032958030700684,-0.027621546760201454,0.0,0.0,0.0,-0.07372806966304779,0.019092729315161705,-0.0,0.0,0.0,0.0,-0.0030081949662417173,0.004999999888241291,-0.00014414243923965842,28104.0,16917.0,17013.0,32496.0,0.1064697876572609,0.056485336273908615,0.056873004883527756,0.12883976101875305,0.0,0.0,0.0,0.0,27877.0,17379.0,16548.0,32708.0,0.44904908537864685,-0.09634895164159503,-0.34518681411585844,-0.0804778019417215,-0.09895516186952591,-0.3479296565055847,-0.18223565816879272
212,5,-0.0001525701372884214,-0.0002588859060779214,0.0016795239644125104,0.02508661150932312,-0.055501796305179596,-0.08382678031921387,0.012497009709477425,0.2932669520378113,-0.003484896617010236,-0.062024250626564026,2.2042503356933594,-0.033358100801706314,0.0,0.0,0.0,0.04970816150307655,0.02029058150947094,-0.0,0.0,0.0,0.0,0.000858783780131489,0.004999999888241291,-0.0001456303580198437,27974.0,17056.0,16874.0,32617.0,0.10583086311817169,0.057045046240091324,0.05631329491734505,0.12947869300842285,0.0,0.0,0.0,0.0,28171.0,16593.0,17532.0,32586.0,0.39378464221954346,-0.0724256353985355,-0.3598850912016674,-0.07228545097320895,-0.09235748648643494,0.20584410429000854,0.2920588552951813
217,5,-0.00015629222616553307,-0.0003691240563057363,0.001411168952472508,0.007004891522228718,-0.0012171946000307798,0.012421668507158756,0.012497009709477425,0.2932669520378113,-0.003484896617010236,-0.062024250626564026,2.2042503356933594,-0.033358100801706314,0.0,0.0,0.0,0.00045491335913538933,0.006244217976927757,-0.0,0.0,0.0,0.0,0.000858783780131489,0.004999999888241291,-0.0001456303580198437,27974.0,17056.0,16874.0,32617.0,0.10583086311817169,0.057045046240091324,0.05631329491734505,0.12947869300842285,0.0,0.0,0.0,0.0,28171.0,16593.0,17532.0,32586.0,0.33904024958610535,-0.0736426872864483,-0.3427297440279504,-0.07313508277848703,-0.02450239472091198,0.0016222781268879771,0.004432604648172855
222,5,2.8584311166923726e-06,0.00031408510403707623,0.002402887213975191,0.024382559582591057,-0.09601444005966187,-0.13511407375335693,0.012497009709477425,0.2932669520378113,-0.003484896617010236,-0.062024250626564026,2.2042503356933594,-0.033358100801706314,0.0,0.0,0.0,0.07578480243682861,0.0173118207603693,-0.0,0.0,0.0,0.0,0.000858783780131489,0.004999999888241291,-0.0001456303580198437,27974.0,17056.0,16874.0,32617.0,0.10583086311817169,0.057045046240091324,0.05631329491734505,0.12947869300842285,0.0,0.0,0.0,0.0,28171.0,16593.0,17532.0,32586.0,0.4530433714389801,-0.04973245521175539,-0.3501245466587234,-0.05110688082866287,-0.09051045775413513,0.360790878534317,0.46702060103416443
227,5,7.403433846775442e-05,0.00021376495715230703,0.0026016575284302235,0.01727939397096634,-0.014759514480829239,-0.06836206465959549,0.011806433089077473,0.2664450705051422,-0.00339345820248127,-0.03754343464970589,2.20525860786438,-0.047648269683122635,0.0,0.0,0.0,0.015579942613840103,0.016376128420233727,-0.0,0.0,0.0,0.0,0.0010540725197643042,0.004999999888241291,-0.0001568695588503033,27824.0,17146.0,16983.0,32908.0,0.1050952598452568,0.05740698426961899,0.056751798838377,0.13101473450660706,0.0,0.0,0.0,0.0,37990.0,28484.0,16604.0,32055.0,0.33912020921707153,-0.05238658858337869,-0.35019698650451353,-0.05713669328110302,-0.06426578015089035,0.05558939650654793,0.2769647240638733
232,5,-6.0512036725413054e-05,0.0005070551997050643,0.002363534178584814,-0.013652673922479153,-0.04548848420381546,0.012828649021685123,0.011806433089077473,0.2664450705051422,-0.00339345820248127,-0.03754343464970589,2.20525860786438,-0.047648269683122635,0.0,0.0,0.0,0.015593060292303562,0.01638025976717472,-0.0,0.0,0.0,0.0,0.0010540725197643042,0.004999999888241291,-0.0001568695588503033,27824.0,17146.0,16983.0,32908.0,0.1050952598452568,0.05740698426961899,0.056751798838377,0.13101473450660706,0.0,0.0,0.0,0.0,37990.0,28484.0,16604.0,32055.0,0.3391203284263611,-0.03638436258151945,-0.31862230850130596,-0.04022704262266251,0.05245346575975418,0.1724833846092224,0.03931083902716637
237,5,-8.60533764353022e-05,0.0005411755410023034,0.0023530730977654457,-0.007671589497476816,-0.018423397094011307,0.005313169676810503,0.011671400628983974,0.248346745967865,-0.0034407987259328365,-0.03396258130669594,2.3277344703674316,-0.024054577574133873,0.0,0.0,0.0,0.019975611940026283,-0.007689930498600006,-0.0,0.0,0.0,0.0,-0.0034201419912278652,0.004999999888241291,-0.00018322809773962945,37774.0,28544.0,16530.0,32289.0,0.15777570009231567,0.10863804817199707,0.05493509769439697,0.12774866819381714,0.0,0.0,0.0,0.0,37493.0,28487.0,16600.0,32593.0,0.3391112685203552,-0.03328419612919954,-0.30298797174556213,-0.03966025374658417,0.03017588146030903,0.07126839458942413,0.06879018247127533
243,5,-2.238318529634853e-06,0.0004030947166029364,0.0024762253742665052,0.009432630613446236,0.013804295100271702,-0.015647372230887413,0.011671400628983974,0.248346745967865,-0.0034407987259328365,-0.03396258130669594,2.3277344703674316,-0.024054577574133873,0.0,0.0,0.0,-0.014078523963689804,0.008768271654844284,-0.0,0.0,0.0,0.0,-0.0034201419912278652,0.004999999888241291,-0.00018322809773962945,37774.0,28544.0,16530.0,32289.0,0.15777570009231567,0.10863804817199707,0.05493509769439697,0.12774866819381714,0.0,0.0,0.0,0.0,37493.0,28487.0,16600.0,32593.0,0.33908024430274963,-0.039101988078129146,-0.29645212052783304,-0.04385963629529547,-0.03440757840871811,-0.0502266064286232,0.14218202233314514
248,5,-6.923128239577636e-05,0.00024152618425432593,0.0024723466485738754,-0.0065492261201143265,0.0267608854919672,-0.004151188302785158,0.0111007709056139,0.22244538366794586,-0.0034740278497338295,-0.03378767892718315,2.1237826347351074,-0.01679067127406597,0.0,0.0,0.0,-0.027811827138066292,-0.0065733566880226135,-0.0,0.0,0.0,0.0,0.0013488101540133357,0.004999999888241291,-0.00014396470214705914,31147.0,20334.0,25696.0,39152.0,0.12180396914482117,0.07068542391061783,0.09486126899719238,0.16569393873214722,0.0,0.0,0.0,0.0,31096.0,20691.0,25370.0,39197.0,0.34047776460647583,-0.045121465619746386,-0.2806179240081843,-0.053956138119881626,0.025893518701195717,-0.09961767494678497,0.11636379361152649
253,5,-2.751665704181505e-07,0.0004800031892955303,0.00248802755959332,0.007689088582992554,-0.025358516722917557,-0.0034406878985464573,0.0111007709056139,0.22244538366794586,-0.0034740278497338295,-0.03378767892718315,2.1237826347351074,-0.01679067127406597,0.0,0.0,0.0,0.027198079973459244,0.007091296836733818,-0.0,0.0,0.0,0.0,0.0013488101540133357,0.004999999888241291,-0.00014396470214705914,31147.0,20334.0,25696.0,39152.0,0.12180396914482117,0.07068542391061783,0.09486126899719238,0.16569393873214722,0.0,0.0,0.0,0.0,31096.0,20691.0,25370.0,39197.0,0.33965933322906494,-0.03495871544247615,-0.2747514515099392,-0.04247821093891382,-0.027867062017321587,0.0971866175532341,0.12194753438234329
258,5,5.237122604739852e-05,0.0004441831260919571,0.0024623682256788015,0.00967722199857235,-0.0025927445385605097,0.0025600839871913195,0.010984668508172035,0.2061580866575241,-0.0033680517226457596,-0.016356097534298897,1.9519611597061157,-0.015897877514362335,0.0,0.0,0.0,0.0032808338291943073,0.009075281210243702,-0.0,0.0,0.0,0.0,-0.0008705758373253047,0.004999999888241291,-0.0001527025451650843,28895.0,17867.0,19214.0,34182.0,0.11038067191839218,0.06033822149038315,0.06592842191457748,0.13783718645572662,0.0,0.0,0.0,0.0,28689.0,17777.0,19301.0,34371.0,0.33904939889907837,-0.034707741692680386,-0.2657128756782245,-0.043219920814726115,-0.035612381994724274,0.011704145930707455,0.11102184653282166
263,5,0.00012506410712376237,0.0004580292443279177,0.002587399911135435,0.013080168515443802,-0.0027162800543010235,-0.016736404970288277,0.010984668508172035,0.2061580866575241,-0.0033680517226457596,-0.016356097534298897,1.9519611597061157,-0.015897877514362335,0.0,0.0,0.0,0.0034591977018862963,0.012431835755705833,-0.0,0.0,0.0,0.0,-0.0008705758373253047,0.004999999888241291,-0.0001527025451650843,28895.0,17867.0,19214.0,34182.0,0.11038067191839218,0.06033822149038315,0.06592842191457748,0.13783718645572662,0.0,0.0,0.0,0.0,28689.0,17777.0,19301.0,34371.0,0.33906182646751404,-0.03458344606228406,-0.25946791270385905,-0.04467653895831909,-0.04878522828221321,0.012341583147644997,0.17984849214553833
268,5,0.0001530311128590256,0.00044327115756459534,0.002688509412109852,0.007839432917535305,0.0012512458488345146,-0.01917625404894352,0.010568639263510704,0.18453626334667206,-0.0035209916532039642,-0.04772648215293884,1.6771055459976196,-0.04684252664446831,0.0,0.0,0.0,-0.0007059189374558628,0.007470211945474148,-0.0,0.0,0.0,0.0,0.0006898591527715325,0.004999999888241291,-0.0001753980031935498,27793.0,16912.0,15889.0,31930.0,0.10494314134120941,0.05646628513932228,0.052396927028894424,0.12587128579616547,0.0,0.0,0.0,0.0,29883.0,19117.0,13452.0,29850.0,0.33904314041137695,-0.03403770395916817,-0.2541936425933723,-0.04558816327944774,-0.02931365743279457,-0.002518275985494256,0.1980741173028946
273,5,0.00013563672837335616,0.0006041528540663421,0.002305497182533145,-8.338478801306337e-05,-0.02214806154370308,0.047868844121694565,0.010568639263510704,0.18453626334667206,-0.0035209916532039642,-0.04772648215293884,1.6771055459976196,-0.04684252664446831,0.0,0.0,0.0,0.02416366897523403,-0.00011702224583132192,-0.0,0.0,0.0,0.0,0.0006898591527715325,0.004999999888241291,-0.0001753980031935498,27793.0,16912.0,15889.0,31930.0,0.10494314134120941,0.05646628513932228,0.052396927028894424,0.12587128579616547,0.0,0.0,0.0,0.0,29883.0,19117.0,13452.0,29850.0,0.3391326069831848,-0.023758179717893405,-0.23911628754886707,-0.038956399530415915,0.0004589918244164437,0.08621316403150558,0.0010164594277739525
278,5,0.00021885204478166997,0.0003597963077481836,0.0027132092509418726,0.011625129729509354,0.027565496042370796,-0.042719028890132904,0.01042865589261055,0.17187005281448364,-0.0036900381091982126,-0.024328794330358505,1.4081165790557861,-0.034906819462776184,0.0,0.0,0.0,-0.028037777170538902,0.011043219827115536,-0.0,0.0,0.0,0.0,-0.00011843301763292402,0.004999999888241291,-9.336018410976976e-05,29570.0,17380.0,15328.0,30160.0,0.11376091837882996,0.058354057371616364,0.05020126700401306,0.11674562096595764,0.0,0.0,0.0,0.0,28004.0,16323.0,16483.0,31732.0,0.3438764214515686,-0.03743229556605927,-0.24674482464540184,-0.047060552500094305,-0.043934762477874756,-0.10142868757247925,0.2871006727218628
283,5,0.00022664153948426247,0.0004702222649939358,0.0029174769297242165,0.004578067921102047,-0.0071899848990142345,-0.04141317307949066,0.01042865589261055,0.17187005281448364,-0.0036900381091982126,-0.024328794330358505,1.4081165790557861,-0.034906819462776184,0.0,0.0,0.0,0.008291308768093586,0.004482951480895281,-0.0,0.0,0.0,0.0,-0.00011843301763292402,0.004999999888241291,-9.336018410976976e-05,29570.0,17380.0,15328.0,30160.0,0.11376091837882996,0.058354057371616364,0.05020126700401306,0.11674562096595764,0.0,0.0,0.0,0.0,28004.0,16323.0,16483.0,31732.0,0.3390486538410187,-0.031998734466549,-0.24071177298884486,-0.047519562936920716,-0.017591219395399094,0.02957821637392044,0.2945428192615509
288,5,0.00025427769287489355,0.00021042214939370751,0.0028753061778843403,0.0052424827590584755,0.03421502187848091,-0.0065200673416256905,0.009832636453211308,0.1508457511663437,-0.003347592195495963,-0.011194252409040928,0.6428271532058716,0.0010070123244076967,0.0,0.0,0.0,-0.0343116894364357,0.004983024671673775,-0.0,0.0,0.0,0.0,0.000568531861063093,0.00220978120341897,-9.731116006150842e-05,23072.0,22305.0,22273.0,26342.0,0.08274002373218536,0.079302117228508,0.07916219532489777,0.0979284793138504,0.0,0.0,0.0,0.0,28228.0,19027.0,16607.0,29139.0,0.35191938281059265,-0.03889427429804151,-0.2418760037808074,-0.0493978767657057,-0.020284531638026237,-0.12701764702796936,0.1998765766620636
293,5,0.00023499465896748006,0.00031070347176864743,0.002890640636906028,-0.0011268809903413057,-0.0037748771719634533,-0.004102854523807764,0.009832636453211308,0.1508457511663437,-0.003347592195495963,-0.011194252409040928,0.6428271532058716,0.0010070123244076967,0.0,0.0,0.0,0.0044948202557861805,-0.0009329647873528302,-0.0,0.0,0.0,0.0,0.000568531861063093,0.00220978120341897,-9.731116006150842e-05,23072.0,22305.0,22273.0,26342.0,0.08274002373218536,0.079302117228508,0.07916219532489777,0.0979284793138504,0.0,0.0,0.0,0.0,28228.0,19027.0,16607.0,29139.0,0.3390371799468994,-0.035734997707194835,-0.24134841306413576,-0.04773817342899977,0.003660602495074272,0.016034811735153198,0.2015542834997177
298,5,0.00025574080063961446,0.0003652482700999826,0.00301888445392251,0.0025663955602794886,-0.008768735453486443,-0.019184991717338562,0.009743883274495602,0.14660324156284332,-0.003317243419587612,-0.008683905936777592,0.22291935980319977,-0.0017560290871188045,0.0,0.0,0.0,0.009847602806985378,0.0026388512924313545,-0.0,0.0,0.0,0.0,-2.68435942416545e-05,-0.0014939962420612574,-9.452355880057439e-05,19613.0,27294.0,25740.0,21068.0,0.06761160492897034,0.10250969231128693,0.09506955742835999,0.07385788857936859,0.0,0.0,0.0,0.0,23148.0,22353.0,22296.0,26204.0,0.339051216840744,-0.03472122692571632,-0.2393207718112125,-0.049310898770416,-0.010354876518249512,0.03513014689087868,0.2592880129814148
303,5,0.0002391882735537365,0.0003876484406646341,0.003082648618146777,-0.0015474350657314062,-0.005766646470874548,-0.014682449400424957,0.009743883274495602,0.14660324156284332,-0.003317243419587612,-0.008683905936777592,0.22291935980319977,-0.0017560290871188045,0.0,0.0,0.0,0.0067484718747437,-0.0013017946621403098,-0.0,0.0,0.0,0.0,-2.68435942416545e-05,-0.0014939962420612574,-9.452355880057439e-05,19613.0,27294.0,25740.0,21068.0,0.06761160492897034,0.10250969231128693,0.09506955742835999,0.07385788857936859,0.0,0.0,0.0,0.0,23148.0,22353.0,22296.0,26204.0,0.3390416204929352,-0.034203531621266374,-0.2400733687501801,-0.049856062033794175,0.005108245182782412,0.02407396212220192,0.2575341463088989
309,5,0.0003135435108561069,0.00028075274894945323,0.003078355686739087,0.009945501573383808,0.013235405087471008,-0.0038037251215428114,0.009743883274495602,0.14660324156284332,-0.003317243419587612,-0.008683905936777592,0.22291935980319977,-0.0017560290871188045,0.0,0.0,0.0,-0.01336635835468769,0.00979903806000948,-0.0,0.0,0.0,0.0,-2.68435942416545e-05,-0.0014939962420612574,-9.452355880057439e-05,19613.0,27294.0,25740.0,21068.0,0.06761160492897034,0.10250969231128693,0.09506955742835999,0.07385788857936859,0.0,0.0,0.0,0.0,23148.0,22353.0,22296.0,26204.0,0.33908015489578247,-0.03942583711012817,-0.24325802193410775,-0.05050384390436664,-0.0384531244635582,-0.0476856604218483,0.2363160103559494
314,5,0.00016201924881897867,0.0005882566911168396,0.0021953238174319267,-0.01822974719107151,-0.0390799306333065,0.12248332798480988,0.00981054361909628,0.1457340270280838,-0.003540949895977974,0.018116367980837822,-0.06432782858610153,-0.029888290911912918,0.0,0.0,0.0,0.03883576765656471,-0.015979072079062462,-0.0,0.0,0.0,0.0,-0.00010573088366072625,-0.004999999888241291,-0.00016499165212735534,15287.0,31381.0,28310.0,17416.0,0.05004386603832245,0.12301206588745117,0.10748215019702911,0.058499135076999664,0.0,0.0,0.0,0.0,16709.0,29632.0,27699.0,18955.0,0.3678189218044281,-0.023492330127059764,-0.2205952876601986,-0.038670383375387356,0.06797109544277191,0.15025018155574799,-0.14487379789352417
319,5,0.0002625067427288741,0.00039096514228731394,0.0031418148428201675,0.008599327877163887,0.015896836295723915,-0.09576374292373657,0.00981054361909628,0.1457340270280838,-0.003540949895977974,0.018116367980837822,-0.06432782858610153,-0.029888290911912918,0.0,0.0,0.0,-0.015947841107845306,0.008465461432933807,-0.0,0.0,0.0,0.0,-0.00010573088366072625,-0.004999999888241291,-0.00016499165212735534,15287.0,31381.0,28310.0,17416.0,0.05004386603832245,0.12301206588745117,0.10748215019702911,0.058499135076999664,0.0,0.0,0.0,0.0,16709.0,29632.0,27699.0,18955.0,0.3390888571739197,-0.03829480838981913,-0.2476676472397058,-0.05222336156622876,-0.033219654113054276,-0.05689573660492897,0.5305807590484619
324,5,0.0002494527434464544,0.0003729249001480639,0.003107444616034627,0.0007522365194745362,0.007294683251529932,-0.023917287588119507,0.009698833338916302,0.14825046062469482,-0.0037393788807094097,0.01870359480381012,-0.3050656318664551,0.0026976410299539566,0.0,0.0,0.0,-0.006910651922225952,0.0009627694962546229,-0.0,0.0,0.0,0.0,-0.00012024759780615568,-0.004999999888241291,-0.00013107921404298395,16595.0,31864.0,27803.0,16135.0,0.05519634857773781,0.1255238950252533,0.10499179363250732,0.05336812511086464,0.0,0.0,0.0,0.0,15060.0,31307.0,28388.0,17632.0,0.3390418589115143,-0.0395056899919565,-0.25033563272275094,-0.05221672018371615,-0.0037779086269438267,-0.024652516469359398,0.325833797454834
329,5,0.0003895368135999888,0.00016978451458271593,0.002908587222918868,0.01983744092285633,0.030628059059381485,0.020664850249886513,0.009698833338916302,0.14825046062469482,-0.0037393788807094097,0.01870359480381012,-0.3050656318664551,0.0026976410299539566,0.0,0.0,0.0,-0.030279166996479034,0.01852976530790329,-0.0,0.0,0.0,0.0,-0.00012024759780615568,-0.004999999888241291,-0.00013107921404298395,16595.0,31864.0,27803.0,16135.0,0.05519634857773781,0.1255238950252533,0.10499179363250732,0.05336812511086464,0.0,0.0,0.0,0.0,15060.0,31307.0,28388.0,17632.0,0.35535475611686707,-0.046168926235248355,-0.2585911485806841,-0.051674441838269615,-0.07617239654064178,-0.11319030821323395,0.20027638971805573
334,5,0.00033244313090108335,0.0003167155955452472,0.0030581236351281404,-0.0020418844651430845,-0.011381931602954865,-0.014735654927790165,0.009820939972996712,0.154067724943161,-0.0036619864404201508,0.009814251214265823,-0.667046844959259,0.012958956882357597,0.0,0.0,0.0,0.012666240334510803,-0.0015597323654219508,-0.0,0.0,0.0,0.0,-0.0009920564480125904,-0.004999999888241291,-8.598394197179005e-05,16945.0,31651.0,28030.0,15780.0,0.056597720831632614,0.12441299110651016,0.10610269755125046,0.05196675285696983,0.0,0.0,0.0,0.0,17505.0,31882.0,27784.0,15200.0,0.3390612006187439,-0.04014740800480058,-0.2579217828389327,-0.05265830924503421,0.006120394915342331,0.045185986906290054,0.3173125088214874
339,5,0.0002228231605840847,0.0004149856395088136,0.0030337146017700434,-0.01595935970544815,-0.01717238686978817,-0.0010034266160801053,0.009820939972996712,0.154067724943161,-0.0036619864404201508,0.009814251214265823,-0.667046844959259,0.012958956882357597,0.0,0.0,0.0,0.01892140507698059,-0.014993828721344471,-0.0,0.0,0.0,0.0,-0.0009920564480125904,-0.004999999888241291,-8.598394197179005e-05,16945.0,31651.0,28030.0,15780.0,0.056597720831632614,0.12441299110651016,0.10610269755125046,0.05196675285696983,0.0,0.0,0.0,0.0,17505.0,31882.0,27784.0,15200.0,0.3391324281692505,-0.036688001889028224,-0.25717130535015287,-0.05125915049849161,0.05884019285440445,0.06751205772161484,0.28713876008987427
344,5,0.0002466868609189987,0.00014657698920927942,0.002754385117441416,-0.001446890993975103,0.032425496727228165,0.03880510851740837,0.010056900791823864,0.15899914503097534,-0.0035704264882951975,-0.019685279577970505,-0.7177125811576843,0.02002241276204586,0.0,0.0,0.0,-0.0327373743057251,-0.0010527083650231361,-0.0,0.0,0.0,0.0,-0.0011313168797641993,-0.004999999888241291,-7.492987788282335e-05,17302.0,31679.0,28001.0,15413.0,0.05803773179650307,0.12455949187278748,0.10596054792404175,0.050531093031167984,0.0,0.0,0.0,0.0,19069.0,33187.0,28041.0,15631.0,0.34806954860687256,-0.04759619695945331,-0.2693378901898554,-0.05298325280341393,0.004238279536366463,-0.11986657977104187,0.1745753139257431
349,5,0.00021415344963315874,0.0001378880551783368,0.002698474330827594,-0.004988743923604488,0.01094409916549921,0.01946902833878994,0.010056900791823864,0.15899914503097534,-0.0035704264882951975,-0.019685279577970505,-0.7177125811576843,0.02002241276204586,0.0,0.0,0.0,-0.01102546788752079,-0.004499086644500494,-0.0,0.0,0.0,0.0,-0.0011313168797641993,-0.004999999888241291,-7.492987788282335e-05,17302.0,31679.0,28001.0,15413.0,0.05803773179650307,0.12455949187278748,0.10596054792404175,0.050531093031167984,0.0,0.0,0.0,0.0,19069.0,33187.0,28041.0,15631.0,0.3390576243400574,-0.04979286086025939,-0.27441841075039064,-0.05286557068024593,0.017654214054346085,-0.03933235630393028,0.2401401698589325
354,5,0.0001847281091613695,0.00011199406435480341,0.0027175263967365026,-0.0056161717511713505,0.006908389274030924,0.0031734297517687082,0.010109208524227142,0.16783711314201355,-0.0035285591147840023,0.01628820411860943,-0.6787161827087402,0.004819224588572979,0.0,0.0,0.0,-0.006814714055508375,-0.005127839278429747,-0.0,0.0,0.0,0.0,-0.001698342035524547,-0.004999999888241291,-9.994098218157887e-05,18969.0,33421.0,27785.0,15737.0,0.06490147113800049,0.13374999165534973,0.10490390658378601,0.05180121213197708,0.0,0.0,0.0,0.0,14912.0,30084.0,29653.0,17784.0,0.3390459418296814,-0.05266141221439266,-0.2802928307744677,-0.05395706208086356,0.020121540874242783,-0.024310406297445297,0.2992990016937256
359,5,7.62580893933773e-05,0.00012542016338557005,0.0025306621100753546,-0.016870655119419098,0.00019286236783955246,0.02711302414536476,0.010109208524227142,0.16783711314201355,-0.0035285591147840023,0.01628820411860943,-0.6787161827087402,0.004819224588572979,0.0,0.0,0.0,0.00027213769499212503,-0.016023864969611168,-0.0,0.0,0.0,0.0,-0.001698342035524547,-0.004999999888241291,-9.994098218157887e-05,18969.0,33421.0,27785.0,15737.0,0.06490147113800049,0.13374999165534973,0.10490390658378601,0.05180121213197708,0.0,0.0,0.0,0.0,14912.0,30084.0,29653.0,17784.0,0.3390771448612213,-0.05386733936327501,-0.27741653833532004,-0.05216876342439176,0.06288302689790726,0.000970914086792618,0.23444634675979614
364,5,8.584924216847867e-05,8.474119385937229e-05,0.0026403595693409443,-0.0037184348329901695,0.005752915050834417,-0.0072237467393279076,0.01005235780030489,0.17413300275802612,-0.003597961040213704,-0.004822868853807449,-0.868118941783905,-0.012961937114596367,0.0,0.0,0.0,-0.005627566482871771,-0.003438435960561037,-0.0,0.0,0.0,0.0,0.00040810892824083567,-0.004999999888241291,-0.00012186176172690466,14475.0,30319.0,29416.0,18193.0,0.04691025987267494,0.11755475401878357,0.11298708617687225,0.06168036535382271,0.0,0.0,0.0,0.0,16661.0,31857.0,27809.0,16066.0,0.33904096484184265,-0.05360933555668134,-0.2830954062230716,-0.05513207650266933,0.013492347672581673,-0.020075229927897453,0.348539799451828
369,5,1.9485178199829534e-05,0.0001171892654383555,0.0026922104880213737,-0.010406498797237873,-0.0028168559074401855,-0.00942624919116497,0.01005235780030489,0.17413300275802612,-0.003597961040213704,-0.004822868853807449,-0.868118941783905,-0.012961937114596367,0.0,0.0,0.0,0.003436185186728835,-0.009917926043272018,-0.0,0.0,0.0,0.0,0.00040810892824083567,-0.004999999888241291,-0.00012186176172690466,14475.0,30319.0,29416.0,18193.0,0.04691025987267494,0.11755475401878357,0.11298708617687225,0.06168036535382271,0.0,0.0,0.0,0.0,16661.0,31857.0,27809.0,16066.0,0.33905228972435,-0.05381540493372905,-0.28465945374651935,-0.056130740556273956,0.03891918808221817,0.012258628383278847,0.36556756496429443
374,5,-1.5071843336045276e-05,0.00013297886471264064,0.0026091989129781723,-0.007959933020174503,-0.0030555997509509325,0.008793754503130913,0.010033445432782173,0.183716282248497,-0.0038245597388595343,-0.017513860017061234,-0.8512686491012573,-0.013180556707084179,0.0,0.0,0.0,0.0037187254056334496,-0.007627419661730528,-0.0,0.0,0.0,0.0,-0.0008984062005765736,-0.004999999888241291,-0.00013101000513415784,16367.0,31869.0,27795.0,16362.0,0.054286208003759384,0.12554994225502014,0.10495448857545853,0.054267000406980515,0.0,0.0,0.0,0.0,16346.0,31871.0,27793.0,16383.0,0.33904579281806946,-0.05145512167882684,-0.28486399202134327,-0.056006487736883714,0.02993059903383255,0.013266343623399734,0.31941336393356323
380,5,-0.0001647060998948291,0.00019752458319999278,0.0021012865472584963,-0.023336775600910187,-0.009953081607818604,0.07374586910009384,0.010033445432782173,0.183716282248497,-0.0038245597388595343,-0.017513860017061234,-0.8512686491012573,-0.013180556707084179,0.0,0.0,0.0,0.01107427291572094,-0.022529499605298042,-0.0,0.0,0.0,0.0,-0.0008984062005765736,-0.004999999888241291,-0.00013101000513415784,16367.0,31869.0,27795.0,16362.0,0.054286208003759384,0.12554994225502014,0.10495448857545853,0.054267000406980515,0.0,0.0,0.0,0.0,16346.0,31871.0,27793.0,16383.0,0.3391404449939728,-0.06113049661366818,-0.27876546330277907,-0.04870813567614929,0.08842096477746964,0.03951661288738251,0.12647633254528046
385,5,-0.00016328718629665673,0.0001825534418458119,0.0020150942727923393,-0.0068023852072656155,-0.0008899654494598508,0.034190673381090164,0.010034321807324886,0.18981890380382538,-0.00399778364226222,0.011454632505774498,-0.6576462388038635,-0.019695675000548363,0.0,0.0,0.0,0.0015389228938147426,-0.006739072967320681,-0.0,0.0,0.0,0.0,-0.00029814825393259525,-0.004999999888241291,-0.00017286416550632566,15548.0,31496.0,28193.0,17170.0,0.05105908215045929,0.12360966205596924,0.10690450668334961,0.057503871619701385,0.0,0.0,0.0,0.0,15753.0,31515.0,28173.0,16971.0,0.33904170989990234,-0.06601585194814075,-0.2837712668822242,-0.050802472350849774,0.02644476667046547,0.0054901596158742905,0.2514050602912903
390,5,-0.00017877179197967052,0.000397933938074857,0.001780671183951199,-0.004208559636026621,-0.03042025864124298,0.04307642951607704,0.010034321807324886,0.18981890380382538,-0.00399778364226222,0.011454632505774498,-0.6576462388038635,-0.019695675000548363,0.0,0.0,0.0,0.03213082253932953,-0.004188852850347757,-0.0,0.0,0.0,0.0,-0.00029814825393259525,-0.004999999888241291,-0.00017286416550632566,15548.0,31496.0,28193.0,17170.0,0.05105908215045929,0.12360966205596924,0.10690450668334961,0.057503871619701385,0.0,0.0,0.0,0.0,15753.0,31515.0,28173.0,16971.0,0.34749677777290344,-0.044472878125017976,-0.2734277070175953,-0.04397050517089509,0.01683889329433441,0.11745397746562958,0.22857481241226196
395,5,-0.00019058430916629732,0.00021294585894793272,0.0020818260964006186,-0.0029163213912397623,0.016772253438830376,-0.02923876978456974,0.010241391137242317,0.1978541612625122,-0.00437047379091382,-0.010657317005097866,-0.6527838110923767,-0.012438858859241009,0.0,0.0,0.0,-0.016948049888014793,-0.003081217873841524,-0.0,0.0,0.0,0.0,9.711213351693004e-06,-0.004999999888241291,-0.000146005506394431,15208.0,31359.0,28335.0,17494.0,0.04973386600613594,0.12289735674858093,0.10760439932346344,0.05881667509675026,0.0,0.0,0.0,0.0,15421.0,31308.0,28388.0,17290.0,0.3390839099884033,-0.06236357973578648,-0.2878195876562844,-0.05150819098077217,0.012091022916138172,-0.0604630671441555,0.4555433988571167
400,5,-4.357947182143107e-05,0.00026493589393794537,0.002065225038677454,0.01970578171312809,-0.0022469277027994394,-0.006447469349950552,0.010241391137242317,0.1978541612625122,-0.00437047379091382,-0.010657317005097866,-0.6527838110923767,-0.012438858859241009,0.0,0.0,0.0,0.00313667138107121,0.018731141462922096,-0.0,0.0,0.0,0.0,9.711213351693004e-06,-0.004999999888241291,-0.000146005506394431,15208.0,31359.0,28335.0,17494.0,0.04973386600613594,0.12289735674858093,0.10760439932346344,0.05881667509675026,0.0,0.0,0.0,0.0,15421.0,31308.0,28388.0,17290.0,0.33909475803375244,-0.05998620239755888,-0.2975567708220496,-0.0516481753057562,-0.07350953668355942,0.01119175273925066,0.3945175111293793
405,5,-0.00046617057523690164,0.00030451934435404837,0.002198586706072092,-0.05325102061033249,-0.006215761415660381,-0.020604876801371574,0.010182485915720463,0.20215633511543274,-0.004423646721988916,0.013921497389674187,-0.48659205436706543,-0.001348404330201447,0.0,0.0,0.0,0.006511231418699026,-0.04548672214150429,-0.0,0.0,0.0,0.0,0.0009549586684443057,-0.004999999888241291,-0.00022514371084980667,13009.0,30994.0,29563.0,20498.0,0.04139452427625656,0.1210131049156189,0.1137257069349289,0.07139307260513306,0.0,0.0,0.0,0.0,14816.0,30958.0,28762.0,17875.0,0.3846147954463959,-0.0550840438280057,-0.2768427569422288,-0.05452335764601239,0.20241346955299377,0.02635033056139946,0.4464832544326782
410,5,-0.0002574909303802997,0.00031262903939932585,0.0021722496021538973,0.013239843770861626,-0.003000085474923253,-0.0024942695163190365,0.010182485915720463,0.20215633511543274,-0.004423646721988916,0.013921497389674187,-0.48659205436706543,-0.001348404330201447,0.0,0.0,0.0,0.004034117329865694,0.01222958043217659,-0.0,0.0,0.0,0.0,0.0009549586684443057,-0.004999999888241291,-0.00022514371084980667,13009.0,30994.0,29563.0,20498.0,0.04139452427625656,0.1210131049156189,0.1137257069349289,0.07139307260513306,0.0,0.0,0.0,0.0,14816.0,30958.0,28762.0,17875.0,0.3390617072582245,-0.05669875413324838,-0.29093017413059297,-0.05380344101423322,-0.04799126461148262,0.014391937293112278,0.3984587788581848
415,5,-0.0002922879357356578,0.00040926795918494463,0.002288996474817395,-0.0008996254182420671,-0.014429477974772453,-0.017092829570174217,0.010182485915720463,0.20215633511543274,-0.004423646721988916,0.013921497389674187,-0.48659205436706543,-0.001348404330201447,0.0,0.0,0.0,0.016216179355978966,-0.0013452989514917135,-0.0,0.0,0.0,0.0,0.0009549586684443057,-0.004999999888241291,-0.00022514371084980667,13009.0,30994.0,29563.0,20498.0,0.04139452427625656,0.1210131049156189,0.1137257069349289,0.07139307260513306,0.0,0.0,0.0,0.0,14816.0,30958.0,28762.0,17875.0,0.33907848596572876,-0.05191283139435583,-0.289553520789018,-0.054489861078191176,0.005279394797980785,0.05785239487886429,0.4518946707248688
420,5,-0.0003373004437889904,0.0005983430310152471,0.002507139928638935,-0.006571640260517597,-0.03079935535788536,-0.03566795215010643,0.010288248769938946,0.20718879997730255,-0.0049027628265321255,-0.0006730447057634592,-0.24767613410949707,-0.0717412456870079,0.0,0.0,0.0,0.03273314982652664,-0.006642401218414307,-0.0,0.0,0.0,0.0,-4.710461507784203e-05,-0.004999999888241291,-0.00021660426864400506,17454.0,33583.0,30537.0,20795.0,0.05865706503391266,0.13461454212665558,0.11866846680641174,0.0726747214794159,0.0,0.0,0.0,0.0,13049.0,30895.0,29664.0,20464.0,0.34957173466682434,-0.04562298661771434,-0.286559407724647,-0.05539028693751978,0.026860356330871582,0.1203685998916626,0.5191489458084106
425,5,-0.00036017069942317903,0.0008002757676877081,0.0021637638565152884,-0.005173325538635254,-0.03751038387417793,0.037372272461652756,0.010288248769938946,0.20718879997730255,-0.0049027628265321255,-0.0006730447057634592,-0.24767613410949707,-0.0717412456870079,0.0,0.0,0.0,0.03869052976369858,-0.005227772984653711,-0.0,0.0,0.0,0.0,-4.710461507784203e-05,-0.004999999888241291,-0.00021660426864400506,17454.0,33583.0,30537.0,20795.0,0.05865706503391266,0.13461454212665558,0.11866846680641174,0.0726747214794159,0.0,0.0,0.0,0.0,13049.0,30895.0,29664.0,20464.0,0.3606089949607849,-0.023468532779543826,-0.27501885800543796,-0.047793396501396766,0.021802807226777077,0.14675360918045044,0.3023020029067993
430,5,-0.00036382596590556204,0.0004511352744884789,0.001743877655826509,-0.002063736319541931,0.03762655332684517,0.06999574601650238,0.010045665316283703,0.20906391739845276,-0.005831090267747641,0.005374125204980373,0.17753292620182037,-0.047965630888938904,0.0,0.0,0.0,-0.03656024485826492,-0.002485827077180147,-0.0,0.0,0.0,0.0,0.00033633026760071516,-0.004999999888241291,-0.00023918710940051824,13515.0,31392.0,28303.0,19061.0,0.04327862337231636,0.12306831777095795,0.10744655132293701,0.06528502702713013,0.0,0.0,0.0,0.0,16982.0,33881.0,30223.0,21234.0,0.35569116473197937,-0.041309509177381194,-0.2813665539611851,-0.04355156670143566,0.010226793587207794,-0.13678717613220215,0.20460359752178192
435,5,-0.0006414058152586222,-0.00021830455807503313,0.0022382817696779966,-0.0394802987575531,0.1050095409154892,-0.04821786284446716,0.010045665316283703,0.20906391739845276,-0.005831090267747641,0.005374125204980373,0.17753292620182037,-0.047965630888938904,0.0,0.0,0.0,-0.0792631208896637,-0.02794061228632927,-0.0,0.0,0.0,0.0,0.00033633026760071516,-0.004999999888241291,-0.00023918710940051824,13515.0,31392.0,28303.0,19061.0,0.04327862337231636,0.12306831777095795,0.10744655132293701,0.06528502702713013,0.0,0.0,0.0,0.0,16982.0,33881.0,30223.0,21234.0,0.47198113799095154,-0.0961958432534349,-0.28258254025620677,-0.04242023931444342,0.15213438868522644,-0.393076092004776,0.5720723271369934
441,5,-0.0007774310070089996,0.00013441946066450328,0.0021235861349850893,-0.030887620523571968,-0.017878498882055283,0.0015920322621241212,0.009763872250914574,0.20705266296863556,-0.006132901180535555,-0.03463577851653099,0.3863943815231323,-0.056532613933086395,0.0,0.0,0.0,0.01856345310807228,-0.029268549755215645,-0.0,0.0,0.0,0.0,0.0013048636028543115,-0.004999999888241291,-0.0002512155915610492,13186.0,31291.0,30552.0,21850.0,0.0420534722507,0.12254699319601059,0.11874338239431381,0.07728568464517593,0.0,0.0,0.0,0.0,13641.0,31094.0,28614.0,18947.0,0.3566538691520691,-0.07040432067125485,-0.2707967238669425,-0.04652364632818208,0.12078070640563965,0.06965714693069458,0.42784082889556885
446,5,-0.0008505741716362536,0.0003045015037059784,0.0020417398773133755,-0.019506322219967842,-0.029175035655498505,0.01193610392510891,0.009763872250914574,0.20705266296863556,-0.006132901180535555,-0.03463577851653099,0.3863943815231323,-0.056532613933086395,0.0,0.0,0.0,0.03017694503068924,-0.019101068377494812,-0.0,0.0,0.0,0.0,0.0013048636028543115,-0.004999999888241291,-0.0002512155915610492,13186.0,31291.0,30552.0,21850.0,0.0420534722507,0.12254699319601059,0.11874338239431381,0.07728568464517593,0.0,0.0,0.0,0.0,13641.0,31094.0,28614.0,18947.0,0.35589081048965454,-0.0527520459522079,-0.25947962081198983,-0.05048222097068529,0.07863873243331909,0.11297876387834549,0.4017331898212433
