timestamp,dt,pos_x,pos_y,pos_z,vel_x,vel_y,vel_z,roll,pitch,yaw,agv_x,agv_y,agv_z,x_ref,y_ref,z_ref,roll_ref,pitch_ref,yaw_ref,x_vel_ref,y_vel_ref,z_vel_ref,x_torque,y_torque,z_torque,w0,w1,w2,w3,u0,u1,u2,u3,m0req,m1req,m2req,m3req,thrust0,thrust1,thrust2,thrust3,thrust_ref,roll_vicon,pitch_vicon,yaw_vicon,acc_x,acc_y,acc_z
5,5,0.0,0.0,0.0,-0.001840165932662785,0.0006191995926201344,0.0010495515307411551,-0.02615581825375557,-0.04990066587924957,-0.007957358844578266,-0.004004259128123522,-0.00021262637164909393,0.00010391290561528876,0.0,0.0,0.0,-0.0006311910692602396,-0.0018758040387183428,-0.0,0.0,0.0,0.0,0.0008650904637761414,0.00165158964227885,-0.0002464200078975409,0.0,0.0,0.0,0.0,0.0,0.0,0.0,0.0,0.0,0.0,0.0,0.0,0.0,0.0,0.0,0.0,0.3390342593193054,-0.05358910171273508,0.0662454421808313,0.05523675406583133,0.00736066373065114,-0.0024767983704805374,-0.0031486544758081436
28,23,0.0,0.0,0.0,-0.0006819404079578817,-0.003464882029220462,0.0014978303806856275,-0.02615581825375557,-0.04990066587924957,-0.007957358844578266,-0.004004259128123522,-0.00021262637164909393,0.00010391290561528876,0.0,0.0,0.0,0.0035319742746651173,-0.0006951481336727738,-0.0,0.0,0.0,0.0,0.0008650904637761414,0.00165158964227885,-0.0002464200078975409,0.0,0.0,0.0,0.0,0.0,0.0,0.0,0.0,0.0,0.0,0.0,0.0,0.0,0.0,0.0,0.0,0.3390358090400696,-0.054544934206583566,0.06580916297840728,0.055458351021567515,0.0027277616318315268,0.013859528116881847,-0.004493491258472204
33,5,0.0,0.0,0.0,-0.0012622319627553225,0.0010919988853856921,0.0024768472649157047,-0.02615581825375557,-0.04990066587924957,-0.007957358844578266,-0.004004259128123522,-0.00021262637164909393,0.00010391290561528876,0.0,0.0,0.0,-0.0011131473584100604,-0.0012866781326010823,-0.0,0.0,0.0,0.0,0.0008650904637761414,0.00165158964227885,-0.0002464200078975409,0.0,0.0,0.0,0.0,0.0,0.0,0.0,0.0,0.0,0.0,0.0,0.0,0.0,0.0,0.0,0.0,0.3390340805053711,-0.054489865465003874,0.06565807361965113,0.0552407164962059,0.00504892785102129,-0.0043679955415427685,-0.007430541794747114
38,5,0.0,0.0,0.0,-0.0007137876818887889,-0.0009044493781402707,-0.00031432093237526715,-0.02616613358259201,-0.049916237592697144,-0.007903489284217358,-0.00045069927000440657,0.0007366285426542163,0.007141516078263521,0.0,0.0,0.0,0.0009219662169925869,-0.0007276121759787202,-0.0,0.0,0.0,0.0,0.0008421671809628606,0.0015812464989721775,-0.0002299979969393462,0.0,0.0,0.0,0.0,0.0,0.0,0.0,0.0,0.0,0.0,0.0,0.0,0.0,0.0,0.0,0.0,0.339033842086792,-0.05427717991704105,0.06516461229930273,0.055218159980195636,0.0028551507275551558,0.003617797512561083,0.0009429628262296319
43,5,0.0,0.0,0.0,0.0015905776526778936,0.004349579568952322,0.002080507343634963,-0.02616725116968155,-0.049906838685274124,-0.007905565202236176,-0.00021237944019958377,0.0008293224964290857,0.0024299845099449158,0.0,0.0,0.0,-0.004433787427842617,0.0016213825438171625,-0.0,0.0,0.0,0.0,0.0008380390936508775,0.0015866950852796435,-0.00023625291942153126,0.0,0.0,0.0,0.0,0.0,0.0,0.0,0.0,0.0,0.0,0.0,0.0,0.0,0.0,0.0,0.0,0.33903738856315613,-0.0540493904141405,0.06505059337631659,0.055166590211024,-0.0063623106107115746,-0.017398318275809288,-0.0062415217980742455
51,8,0.0,0.0,0.0,-0.017164459452033043,0.0019182063406333327,0.024370592087507248,-0.02616725116968155,-0.049906838685274124,-0.007905565202236176,-0.00021237944019958377,0.0008293224964290857,0.0024299845099449158,0.0,0.0,0.0,-0.001955056330189109,-0.017495116218924522,-0.0,0.0,0.0,0.0,0.0008380390936508775,0.0015866950852796435,-0.00023625291942153126,0.0,0.0,0.0,0.0,0.0,0.0,0.0,0.0,0.0,0.0,0.0,0.0,0.0,0.0,0.0,0.0,0.3390861451625824,-0.061205302952074846,0.059359827607744796,0.05722975919861539,0.06865783780813217,-0.007672825362533331,-0.07311177253723145
56,5,-1.1204851034563035e-05,5.081879862700589e-06,2.1454163743328536e-06,-0.006718017160892487,-0.00013600126840174198,0.007010819390416145,-0.026165766641497612,-0.0499093234539032,-0.007891756482422352,0.0010174782946705818,0.0028055959846824408,0.0013125418918207288,0.0,0.0,0.0,0.0001469488488510251,-0.006866361480206251,-0.0,0.0,0.0,0.0,0.0007185993599705398,0.001692060730420053,-0.00022524187806993723,22629.0,22182.0,20428.0,28503.0,0.08074824512004852,0.0787571519613266,0.07109060883522034,0.10843807458877563,0.0,0.0,0.0,0.0,22995.0,22118.0,20240.0,28392.0,0.3390415906906128,-0.06142651293352069,0.05909944821909646,0.05757127758541703,0.026944026350975037,0.0005766408867202699,-0.020988959819078445
65,9,-0.00015693747263867408,0.0003098743036389351,0.00018900170107372105,-0.024151401594281197,-0.04095340892672539,-0.02980625256896019,-0.026165766641497612,-0.0499093234539032,-0.007891756482422352,0.0010174782946705818,0.0028055959846824408,0.0013125418918207288,0.0,0.0,0.0,0.00014695143909193575,-0.006866367068141699,-0.0,0.0,0.0,0.0,0.0007185993599705398,0.001692060730420053,-0.00022524187806993723,22629.0,22182.0,20428.0,28503.0,0.08074824512004852,0.0787571519613266,0.07109060883522034,0.10843807458877563,0.0,0.0,0.0,0.0,22995.0,22118.0,20240.0,28392.0,0.3390415906906128,-0.06565772089781223,0.07257215422981889,0.05790496743212661,0.09755229949951172,0.16567565500736237,0.0922698825597763
70,5,-5.94632510910742e-05,2.19418197957566e-05,-0.00016752812371123582,0.00640097027644515,0.028024526312947273,0.04097229987382889,-0.026162132620811462,-0.049910955131053925,-0.007817201316356659,-0.005669293459504843,-0.0009293410112150013,0.005301816388964653,0.0,0.0,0.0,-0.042351555079221725,0.006362019572407007,-0.0,0.0,0.0,0.0,0.0007956189219839871,0.001054595923051238,-0.000204589799977839,22939.0,22136.0,20284.0,28389.0,0.08214253932237625,0.07855429500341415,0.07046932727098465,0.10787122696638107,0.0,0.0,0.0,0.0,23043.0,22018.0,20263.0,28419.0,0.3426263630390167,-0.06467420630999107,0.065495610347382,0.059814611752763557,-0.025206321850419044,-0.11189506947994232,-0.12493585050106049
75,5,-2.69064348685788e-05,-1.0028181350207888e-05,-0.00027514214161783457,0.006478245835751295,0.012883158400654793,0.02735765092074871,-0.026198023930191994,-0.04991962015628815,-0.007652557920664549,0.00010772411769721657,-0.0060952468775212765,0.01954522356390953,0.0,0.0,0.0,-0.019692230969667435,0.006548475474119186,-0.0,0.0,0.0,0.0,0.0028346136678010225,0.0008207879145629704,-0.00020923196279909462,22181.0,22707.0,21489.0,27505.0,0.07875272631645203,0.08109834790229797,0.07569772005081177,0.10353735089302063,0.0,0.0,0.0,0.0,22146.0,22721.0,21606.0,27419.0,0.33910661935806274,-0.0674431536369271,0.06155226190069837,0.05978586140834994,-0.025696532800793648,-0.05151895806193352,-0.08655617386102676
80,5,-0.0001484942768001929,0.00011377788177924231,9.567099914420396e-05,-0.015078824013471603,-0.013467901386320591,-0.04370654374361038,-0.026198023930191994,-0.04991962015628815,-0.007652557920664549,0.00010772411769721657,-0.0060952468775212765,0.01954522356390953,0.0,0.0,0.0,0.020890718325972557,-0.015621957369148731,-0.0,0.0,0.0,0.0,0.0028346136678010225,0.0008207879145629704,-0.00020923196279909462,22181.0,22707.0,21489.0,27505.0,0.07875272631645203,0.08109834790229797,0.07569772005081177,0.10353735089302063,0.0,0.0,0.0,0.0,22146.0,22721.0,21606.0,27419.0,0.33914896845817566,-0.07320471158326683,0.07116623960523008,0.0624795883480615,0.06130554899573326,0.05466032400727272,0.13235041499137878
85,5,-2.9075868951622397e-05,6.834541272837669e-05,-0.00011601053847698495,0.012194929644465446,0.0023201750591397285,0.016523452475667,-0.026198023930191994,-0.04991962015628815,-0.007652557920664549,0.00010772411769721657,-0.0060952468775212765,0.01954522356390953,0.0,0.0,0.0,-0.0033499207347631454,0.012360624969005585,-0.0,0.0,0.0,0.0,0.0028346136678010225,0.0008207879145629704,-0.00020923196279909462,22181.0,22707.0,21489.0,27505.0,0.07875272631645203,0.08109834790229797,0.07569772005081177,0.10353735089302063,0.0,0.0,0.0,0.0,22146.0,22721.0,21606.0,27419.0,0.3390614092350006,-0.0639183001575474,0.06643941968896651,0.058380954105208466,-0.04850556328892708,-0.008764076977968216,-0.05151820182800293
90,5,0.00018576013098936528,0.00015253665333148092,-0.0005582256126217544,0.03373551741242409,-0.011090721003711224,0.0668671503663063,-0.02621452324092388,-0.049850139766931534,-0.007525451015681028,-0.009494819678366184,-0.013658486306667328,0.009728943929076195,0.0,0.0,0.0,-0.0033426585141569376,0.012358564883470535,-0.0,0.0,0.0,0.0,0.0002050798066193238,0.0018518147990107536,-0.00022298915428109467,23898.0,22585.0,19330.0,27935.0,0.0864972397685051,0.08055510371923447,0.06641509383916855,0.10563918203115463,0.0,0.0,0.0,0.0,20139.0,21412.0,25643.0,30901.0,0.3390613794326782,-0.04512553290361233,0.06155647800872971,0.060855530117024964,-0.13594922423362732,0.04540396109223366,-0.20959961414337158
95,5,-3.740272177310544e-06,0.00016085342213045806,2.4893177396734245e-05,-0.01640940085053444,-0.0044915638864040375,-0.061576489359140396,-0.02621452324092388,-0.049850139766931534,-0.007525451015681028,-0.009494819678366184,-0.013658486306667328,0.009728943929076195,0.0,0.0,0.0,0.016877491027116776,0.033682115375995636,-0.0,0.0,0.0,0.0,0.0002050798066193238,0.0018518147990107536,-0.00022298915428109467,23898.0,22585.0,19330.0,27935.0,0.0864972397685051,0.08055510371923447,0.06641509383916855,0.10563918203115463,0.0,0.0,0.0,0.0,20139.0,21412.0,25643.0,30901.0,0.34895768761634827,-0.06039905220438534,0.06926848023202556,0.05698868345432658,0.06572436541318893,0.019092941656708717,0.1828598529100418
100,5,0.0003535259747877717,0.0004872414574492723,0.0006034615798853338,0.045094456523656845,-0.047041796147823334,-0.0994725227355957,-0.02623388171195984,-0.04980379343032837,-0.0074523440562188625,0.016338739544153214,-0.002823435002937913,0.0008992652292363346,0.0,0.0,0.0,0.06589000672101974,0.041930973529815674,-0.0,0.0,0.0,0.0,0.0007453878060914576,0.0020747827365994453,-0.0002311802818439901,23404.0,21602.0,19712.0,28936.0,0.08424528688192368,0.07619532197713852,0.06803315132856369,0.11058764904737473,0.0,0.0,0.0,0.0,23990.0,22626.0,19415.0,27740.0,0.3768377900123596,-0.03526645754583391,0.03328265233598499,0.05628231964110024,-0.1824343502521515,0.19129660725593567,0.30532559752464294
105,5,0.00022593408357352018,0.00021922388987150043,0.00037560658529400826,-0.004334529396146536,0.023409921675920486,0.00205793883651495,-0.02623388171195984,-0.04980379343032837,-0.0074523440562188625,0.016338739544153214,-0.002823435002937913,0.0008992652292363346,0.0,0.0,0.0,0.0659240186214447,0.04194662347435951,-0.0,0.0,0.0,0.0,0.0007453878060914576,0.0020747827365994453,-0.0002311802818439901,23404.0,21602.0,19712.0,28936.0,0.08424528688192368,0.07619532197713852,0.06803315132856369,0.11058764904737473,0.0,0.0,0.0,0.0,23990.0,22626.0,19415.0,27740.0,0.33924612402915955,-0.044603906854986726,0.05160488009790219,0.04562131313825944,0.01596396043896675,-0.09200391918420792,-0.0009091105312108994
110,5,6.498331640614197e-05,-0.00021874184312764555,-4.461133721633814e-05,-0.023833466693758965,0.06833817809820175,0.059447892010211945,-0.02617133967578411,-0.0496143214404583,-0.00737591041252017,0.019751498475670815,-0.012204679660499096,0.02256244607269764,0.0,0.0,0.0,-0.09304556250572205,-0.021482571959495544,-0.0,0.0,0.0,0.0,0.0010862115304917097,0.000919736921787262,-0.00017505120194982737,21836.0,22253.0,22294.0,27505.0,0.0772257000207901,0.07907292246818542,0.07925587892532349,0.10353569686412811,0.0,0.0,0.0,0.0,22975.0,21834.0,19558.0,29251.0,0.38320866227149963,-0.0724063456873931,0.05852061762370485,0.054321592573254196,0.09486189484596252,-0.2742842435836792,-0.1780698448419571
115,5,0.0001999783271458,-2.357290213694796e-05,-0.00014531973283737898,0.011749261990189552,-0.006822197698056698,0.03193354234099388,-0.02617133967578411,-0.0496143214404583,-0.00737591041252017,0.019751498475670815,-0.012204679660499096,0.02256244607269764,0.0,0.0,0.0,0.010502958670258522,0.01230697426944971,-0.0,0.0,0.0,0.0,0.0010862115304917097,0.000919736921787262,-0.00017505120194982737,21836.0,22253.0,22294.0,27505.0,0.0772257000207901,0.07907292246818542,0.07925587892532349,0.10353569686412811,0.0,0.0,0.0,0.0,22975.0,21834.0,19558.0,29251.0,0.33907797932624817,-0.06233803190899087,0.039898926605624815,0.050359728502509894,-0.04829500615596771,0.02747827023267746,-0.0971754640340805
120,5,0.0003857818664982915,-0.00012183932267362252,-0.00015136093134060502,0.029537273570895195,0.011710640043020248,0.010425830259919167,-0.02606135793030262,-0.049444518983364105,-0.007751869969069958,-0.013661054894328117,-0.04153374210000038,-0.015986312180757523,0.0,0.0,0.0,-0.01770862378180027,0.030143873766064644,-0.0,0.0,0.0,0.0,0.0010643162531778216,0.0008994178497232497,-0.0003178485785610974,23225.0,24619.0,18834.0,27117.0,0.08343393355607986,0.08981800824403763,0.06433870643377304,0.10165520757436752,0.0,0.0,0.0,0.0,21773.0,22457.0,21741.0,27877.0,0.34583476185798645,-0.06029002058797209,0.0342846235770835,0.04440870592020861,-0.12062021344900131,-0.04724986106157303,-0.033266399055719376
126,5,0.0002559274435043335,-0.00016538149793632329,-0.000165624194778502,-0.009318437427282333,0.009609096683561802,0.005124606192111969,-0.02606135793030262,-0.049444518983364105,-0.007751869969069958,-0.013661054894328117,-0.04153374210000038,-0.015986312180757523,0.0,0.0,0.0,-0.01495842169970274,-0.009044608101248741,-0.0,0.0,0.0,0.0,0.0010643162531778216,0.0008994178497232497,-0.0003178485785610974,23225.0,24619.0,18834.0,27117.0,0.08343393355607986,0.08981800824403763,0.06433870643377304,0.10165520757436752,0.0,0.0,0.0,0.0,21773.0,22457.0,21741.0,27877.0,0.3390854001045227,-0.07122453652353225,0.03921637465298465,0.04559662561697632,0.03549201041460037,-0.039134129881858826,-0.018024973571300507
131,5,0.00028962554642930627,-0.00022638117661699653,0.000396568066207692,0.0019222056725993752,0.01142268255352974,-0.07716953754425049,-0.02606135793030262,-0.049444518983364105,-0.007751869969069958,-0.013661054894328117,-0.04153374210000038,-0.015986312180757523,0.0,0.0,0.0,-0.01788978837430477,0.002483626129105687,-0.0,0.0,0.0,0.0,0.0010643162531778216,0.0008994178497232497,-0.0003178485785610974,23225.0,24619.0,18834.0,27117.0,0.08343393355607986,0.08981800824403763,0.06433870643377304,0.10165520757436752,0.0,0.0,0.0,0.0,21773.0,22457.0,21741.0,27877.0,0.33908891677856445,-0.0491078463116663,0.03789911966659413,0.04616428220084392,-0.009745769202709198,-0.04680205136537552,0.23677265644073486
136,5,0.00023231182422023267,-0.00022594697657041252,0.0004109879082534462,-0.007447260431945324,0.0033660184126347303,-0.02516963705420494,-0.026204418390989304,-0.04925044998526573,-0.007708038669079542,0.035225074738264084,-0.006321279797703028,-0.041284650564193726,0.0,0.0,0.0,-0.005595045164227486,-0.007133943494409323,-0.0,0.0,0.0,0.0,-0.0003324591089040041,0.0013634171336889267,-0.00027471824432723224,23527.0,24498.0,18578.0,27171.0,0.08480273932218552,0.08925830572843552,0.06326914578676224,0.10191566497087479,0.0,0.0,0.0,0.0,24555.0,22568.0,17930.0,29806.0,0.33904752135276794,-0.05812558616283125,0.03970664577321827,0.0453541175986279,0.02799360267817974,-0.014637529850006104,0.08240842074155807
141,5,0.00023475014313589782,-0.0002376975171500817,0.00041646926547400653,-0.001892812899313867,0.0026548809837549925,-0.008318280801177025,-0.026204418390989304,-0.04925044998526573,-0.007708038669079542,0.035225074738264084,-0.006321279797703028,-0.041284650564193726,0.0,0.0,0.0,-0.004559680819511414,-0.0014512547058984637,-0.0,0.0,0.0,0.0,-0.0003324591089040041,0.0013634171336889267,-0.00027471824432723224,23527.0,24498.0,18578.0,27171.0,0.08480273932218552,0.08925830572843552,0.06326914578676224,0.10191566497087479,0.0,0.0,0.0,0.0,24555.0,22568.0,17930.0,29806.0,0.3390374779701233,-0.060372557122530666,0.04128571041017772,0.043731866191632586,0.005694727413356304,-0.011928174644708633,0.03340626135468483
146,5,7.2185714088846e-05,-0.0003266309795435518,0.00041257074917666614,-0.02332686446607113,0.013247146271169186,-0.001949693076312542,-0.02619738131761551,-0.04899103194475174,-0.007863973267376423,0.008012623526155949,-0.0044810594990849495,-0.003913441672921181,0.0,0.0,0.0,-0.020876197144389153,-0.023413637652993202,-0.0,0.0,0.0,0.0,0.0003221750957891345,0.002401226432994008,-0.0002079583064187318,25027.0,21884.0,18941.0,29142.0,0.09171603620052338,0.07743635773658752,0.06478410959243774,0.11161436140537262,0.0,0.0,0.0,0.0,23050.0,23387.0,18725.0,28495.0,0.3408578932285309,-0.07030238798956895,0.047285268721868036,0.0475096094620177,0.09234076738357544,-0.0548982247710228,0.015709880739450455
151,5,2.9690616429434158e-05,-0.00034496220177970827,0.00039961072616279125,-0.01294737309217453,0.00654051685705781,0.0012294970219954848,-0.02619738131761551,-0.04899103194475174,-0.007863973267376423,0.008012623526155949,-0.0044810594990849495,-0.003913441672921181,0.0,0.0,0.0,-0.01080169714987278,-0.013011634349822998,-0.0,0.0,0.0,0.0,0.0003221750957891345,0.002401226432994008,-0.0002079583064187318,25027.0,21884.0,18941.0,29142.0,0.09171603620052338,0.07743635773658752,0.06478410959243774,0.11161436140537262,0.0,0.0,0.0,0.0,23050.0,23387.0,18725.0,28495.0,0.33908209204673767,-0.06838540492364371,0.04967581678711046,0.047892062327683116,0.051060475409030914,-0.028260810300707817,0.007225289009511471
156,5,5.6870048865675926e-05,-0.00034034246345981956,0.00038689302164129913,-7.909142004791647e-05,0.0013153923209756613,0.0021493248641490936,-0.026173442602157593,-0.048788733780384064,-0.008073908276855946,0.004127321764826775,-0.023286132141947746,-0.0013046592939645052,0.0,0.0,0.0,-0.0028404153417795897,0.00014890966122038662,-0.0,0.0,0.0,0.0,0.000282413064269349,0.0014671474928036332,-0.0002201105817221105,23382.0,22927.0,19893.0,27612.0,0.08414622396230698,0.08208657056093216,0.06879851967096329,0.10405760258436203,0.0,0.0,0.0,0.0,21906.0,23235.0,20162.0,28430.0,0.3390349745750427,-0.06458730588781449,0.04915135998167332,0.048663218645733454,-0.0005843215039931238,-0.007430535741150379,0.005692704115062952
161,5,1.4363901755132247e-05,-0.0002865855349227786,0.00034285025321878493,-0.005974587984383106,-0.007131352089345455,0.006810788065195084,-0.026173442602157593,-0.048788733780384064,-0.008073908276855946,0.004127321764826775,-0.023286132141947746,-0.0013046592939645052,0.0,0.0,0.0,0.010159586556255817,-0.00592142716050148,-0.0,0.0,0.0,0.0,0.000282413064269349,0.0014671474928036332,-0.0002201105817221105,23382.0,22927.0,19893.0,27612.0,0.08414622396230698,0.08208657056093216,0.06879851967096329,0.10405760258436203,0.0,0.0,0.0,0.0,21906.0,23235.0,20162.0,28430.0,0.3390570282936096,-0.06330535205217526,0.050143212801236826,0.04985248506728936,0.023235952481627464,0.026578349992632866,-0.007521923631429672
167,5,9.852268703980371e-06,-0.0002384661347605288,0.0004059842030983418,-0.002424004953354597,-0.008876122534275055,-0.006795517168939114,-0.026370929554104805,-0.04841833934187889,-0.008239159360527992,-0.017713703215122223,-0.05540255084633827,-0.022254524752497673,0.0,0.0,0.0,0.0129054244607687,-0.002307961694896221,-0.0,0.0,0.0,0.0,0.0008054872741922736,0.001444105408154428,-0.00025630733580328524,21975.0,22903.0,20462.0,28411.0,0.07784093916416168,0.08197757601737976,0.07123683393001556,0.10798212885856628,0.0,0.0,0.0,0.0,21796.0,23969.0,20733.0,27356.0,0.33906275033950806,-0.06137112237902763,0.04962702344580726,0.049018955189542454,0.009056437760591507,0.03376103565096855,0.0355258546769619
172,5,-3.129751348751597e-05,-0.00022529334819409996,0.00040330394404008985,-0.0064881714060902596,-0.004507026169449091,-0.0016634201165288687,-0.026370929554104805,-0.04841833934187889,-0.008239159360527992,-0.017713703215122223,-0.05540255084633827,-0.022254524752497673,0.0,0.0,0.0,0.006228091195225716,-0.0065129478462040424,-0.0,0.0,0.0,0.0,0.0008054872741922736,0.001444105408154428,-0.00025630733580328524,21975.0,22903.0,20462.0,28411.0,0.07784093916416168,0.08197757601737976,0.07123683393001556,0.10798212885856628,0.0,0.0,0.0,0.0,21796.0,23969.0,20733.0,27356.0,0.339047372341156,-0.05915647009975378,0.05124242744874644,0.04989010454718034,0.02555716782808304,0.016293125227093697,0.0215914323925972
177,5,-7.333383109653369e-05,-0.00015405331214424223,0.0005393075407482684,-0.007831535302102566,-0.011325713247060776,-0.01953953132033348,-0.02626190520823002,-0.048074182122945786,-0.00829306896775961,0.010835819877684116,-0.06389040499925613,-0.0046953605487942696,0.0,0.0,0.0,0.01679128222167492,-0.00794889684766531,-0.0,0.0,0.0,0.0,0.0004953586030751467,0.0007442667265422642,-0.0002633889380376786,21680.0,24018.0,21024.0,27154.0,0.07653884589672089,0.08704417943954468,0.073667511343956,0.1018315851688385,0.0,0.0,0.0,0.0,21140.0,22666.0,21416.0,28534.0,0.33909210562705994,-0.05729544558129694,0.05383378037845055,0.048162986987651465,0.031192127615213394,0.043929219245910645,0.07874536514282227
182,5,-0.00020591248176060617,-4.929089845973067e-05,0.0007178569212555885,-0.02091047167778015,-0.018064452335238457,-0.03085876815021038,-0.02626190520823002,-0.048074182122945786,-0.00829306896775961,0.010835819877684116,-0.06389040499925613,-0.0046953605487942696,0.0,0.0,0.0,0.02712281420826912,-0.021338222548365593,-0.0,0.0,0.0,0.0,0.0004953586030751467,0.0007442667265422642,-0.0002633889380376786,21680.0,24018.0,21024.0,27154.0,0.07653884589672089,0.08704417943954468,0.073667511343956,0.1018315851688385,0.0,0.0,0.0,0.0,21140.0,22666.0,21416.0,28534.0,0.34158727526664734,-0.04610692948283649,0.05834743617167992,0.052713527520259505,0.0843244343996048,0.07146921008825302,0.11730031669139862
187,5,-0.00023479682567995042,1.4104825822869316e-05,0.0007326359627768397,-0.010316950269043446,-0.01429473701864481,-0.011326699517667294,-0.026369133964180946,-0.047450341284275055,-0.008360358886420727,-0.007653730921447277,-0.03473349288105965,-0.031072748824954033,0.0,0.0,0.0,0.021694069728255272,-0.010747176595032215,-0.0,0.0,0.0,0.0,0.0012479621218517423,0.0012771227629855275,-0.00024167395895347,21387.0,22292.0,21119.0,28914.0,0.07525274157524109,0.0792468786239624,0.07407860457897186,0.11047877371311188,0.0,0.0,0.0,0.0,20115.0,23631.0,21769.0,28233.0,0.33913299441337585,-0.041442206171979704,0.059872220844356505,0.05229268130937053,0.04217354580760002,0.05675892159342766,0.06109768524765968
192,5,-0.00019604603585321456,5.1438099035294726e-05,0.0007490579155273736,0.002330024726688862,-0.00951507966965437,-0.005697084125131369,-0.026369133964180946,-0.047450341284275055,-0.008360358886420727,-0.007653730921447277,-0.03473349288105965,-0.031072748824954033,0.0,0.0,0.0,0.014475182630121708,0.0021867253817617893,-0.0,0.0,0.0,0.0,0.0012479621218517423,0.0012771227629855275,-0.00024167395895347,21387.0,22292.0,21119.0,28914.0,0.07525274157524109,0.0792468786239624,0.07407860457897186,0.11047877371311188,0.0,0.0,0.0,0.0,20115.0,23631.0,21769.0,28233.0,0.3390699326992035,-0.03783869442237433,0.057585012623706876,0.051991986134237195,-0.008580331690609455,0.0378684476017952,0.04705684632062912
197,5,-0.0002519760746508837,0.0001057802073773928,0.0008489919127896428,-0.007131197489798069,-0.01046241819858551,-0.01569988578557968,-0.026257172226905823,-0.04688415303826332,-0.008413277566432953,0.036454182118177414,-0.14144814014434814,-0.014295761473476887,0.0,0.0,0.0,0.01605338603258133,-0.007557402830570936,-0.0,0.0,0.0,0.0,0.0017720897449180484,0.00014078003005124629,-0.0002918487007264048,20734.0,23590.0,21648.0,27836.0,0.07240763306617737,0.0850888043642044,0.0763978362083435,0.10515306890010834,0.0,0.0,0.0,0.0,20913.0,23287.0,21707.0,27905.0,0.33908697962760925,-0.03795126017797779,0.059968075969677556,0.05054605435804789,0.029656318947672844,0.04199867323040962,0.08124464005231857
202,5,-5.380915536079556e-05,0.0002616241399664432,0.0007575681665912271,0.0256040096282959,-0.024956876412034035,0.008089357987046242,-0.026257172226905823,-0.04688415303826332,-0.008413277566432953,0.036454182118177414,-0.14144814014434814,-0.014295761473476887,0.0,0.0,0.0,0.037485379725694656,0.02536085620522499,-0.0,0.0,0.0,0.0,0.0017720897449180484,0.00014078003005124629,-0.0002918487007264048,20734.0,23590.0,21648.0,27836.0,0.07240763306617737,0.0850888043642044,0.0763978362083435,0.10515306890010834,0.0,0.0,0.0,0.0,20913.0,23287.0,21707.0,27905.0,0.34915849566459656,-0.022709026294614167,0.049956317049756865,0.05366370641129833,-0.10240497440099716,0.10094033926725388,0.011392127722501755
207,5,-0.0003424628812354058,7.87309036240913e-05,0.0009625695529393852,-0.03273031860589981,0.018117990344762802,-0.02627338282763958,-0.02630062960088253,-0.045589081943035126,-0.008547088131308556,-0.01135605201125145,-0.116981640458107,-0.018305160105228424,0.0,0.0,0.0,-0.026757698506116867,-0.03269924595952034,-0.0,0.0,0.0,0.0,0.0012533519184216857,0.0004989008302800357,-0.000289751507807523,18900.0,23473.0,23375.0,28477.0,0.0646127387881279,0.0845564678311348,0.0841141864657402,0.10830796509981155,0.0,0.0,0.0,0.0,18744.0,23460.0,24026.0,28018.0,0.35075441002845764,-0.030984488521790133,0.06470612295825545,0.051007672411331674,0.13267725706100464,-0.07239966094493866,0.11964893341064453
212,5,-0.0003621387586463243,-0.00010528203711146489,0.000739051029086113,-0.01257371623069048,0.031197208911180496,0.023410577327013016,-0.02630062960088253,-0.045589081943035126,-0.008547088131308556,-0.01135605201125145,-0.116981640458107,-0.018305160105228424,0.0,0.0,0.0,-0.04695149511098862,-0.013003423810005188,-0.0,0.0,0.0,0.0,0.0012533519184216857,0.0004989008302800357,-0.000289751507807523,18900.0,23473.0,23375.0,28477.0,0.0646127387881279,0.0845564678311348,0.0841141864657402,0.10830796509981155,0.0,0.0,0.0,0.0,18744.0,23460.0,24026.0,28018.0,0.3475249707698822,-0.043581945058261275,0.05777911764495069,0.05109615664959925,0.05224500596523285,-0.1258038729429245,-0.030095770955085754
217,5,-0.000312995893182233,0.00014959386317059398,0.0010050733108073473,0.0031078862957656384,-0.026323463767766953,-0.030219940468668938,-0.02630062960088253,-0.045589081943035126,-0.008547088131308556,-0.01135605201125145,-0.116981640458107,-0.018305160105228424,0.0,0.0,0.0,0.04025955870747566,0.002712805988267064,-0.0,0.0,0.0,0.0,0.0012533519184216857,0.0004989008302800357,-0.000289751507807523,18900.0,23473.0,23375.0,28477.0,0.0646127387881279,0.0845564678311348,0.0841141864657402,0.10830796509981155,0.0,0.0,0.0,0.0,18744.0,23460.0,24026.0,28018.0,0.3407209515571594,-0.028368344136524847,0.05665011764218473,0.04967638145076259,-0.01068872306495905,0.10578311234712601,0.13702839612960815
222,5,-0.0004703224403783679,3.7406807678053156e-05,0.0009160987683571875,-0.009733165614306927,0.009055804461240768,0.019152771681547165,-0.026232559233903885,-0.044527437537908554,-0.0086207939311862,-0.005572116933763027,-0.14868535101413727,-0.029535997658967972,0.0,0.0,0.0,-0.01390225999057293,-0.010625205934047699,-0.0,0.0,0.0,0.0,0.002211965387687087,0.0016360529698431492,-0.00032988894963636994,20521.0,21619.0,21817.0,31623.0,0.07148860394954681,0.07626780867576599,0.07713957130908966,0.12426841259002686,0.0,0.0,0.0,0.0,20166.0,23139.0,21113.0,29220.0,0.33908551931381226,-0.02227587420721287,0.058055424979511806,0.0511444867963343,0.04169487580657005,-0.03637140616774559,-0.009411361999809742
228,5,-0.0006581442430615425,3.228613059036434e-05,0.0009614272275939584,-0.029215002432465553,0.003433635924011469,-0.0006001496803946793,-0.026232559233903885,-0.044527437537908554,-0.0086207939311862,-0.005572116933763027,-0.14868535101413727,-0.029535997658967972,0.0,0.0,0.0,-0.0052372789941728115,-0.03036428615450859,-0.0,0.0,0.0,0.0,0.002211965387687087,0.0016360529698431492,-0.00032988894963636994,20521.0,21619.0,21817.0,31623.0,0.07148860394954681,0.07626780867576599,0.07713957130908966,0.12426841259002686,0.0,0.0,0.0,0.0,20166.0,23139.0,21113.0,29220.0,0.34403330087661743,-0.03301981842235001,0.0737428157993003,0.04943866173661405,0.12088630348443985,-0.013902630656957626,0.0538504533469677
233,5,-0.0005126356263644993,0.00015006154717411846,0.0010094107128679752,0.011606702581048012,-0.015458466485142708,-0.0068977391347289085,-0.026463154703378677,-0.04316171631217003,-0.008989687077701092,-0.021667636930942535,-0.07955194264650345,-0.04098832607269287,0.0,0.0,0.0,0.023842621594667435,0.010986518114805222,-0.0,0.0,0.0,0.0,0.0021572469267994165,0.0012364150024950504,-0.00035039783688262105,19582.0,21729.0,21946.0,30559.0,0.06747879087924957,0.07675160467624664,0.07771037518978119,0.11878032982349396,0.0,0.0,0.0,0.0,21265.0,21166.0,21959.0,31262.0,0.33915045857429504,-0.039550368435535666,0.05817427480777432,0.04375502957176299,-0.04311283305287361,0.0623813159763813,0.07642415910959244
238,5,-0.0005876959767192602,8.115886157611385e-05,0.0010972019517794251,-0.00702643534168601,0.005008835811167955,-0.014360085129737854,-0.026463154703378677,-0.04316171631217003,-0.008989687077701092,-0.021667636930942535,-0.07955194264650345,-0.04098832607269287,0.0,0.0,0.0,-0.007590624503791332,-0.008159915916621685,-0.0,0.0,0.0,0.0,0.0021572469267994165,0.0012364150024950504,-0.00035039783688262105,19582.0,21729.0,21946.0,30559.0,0.06747879087924957,0.07675160467624664,0.07771037518978119,0.11878032982349396,0.0,0.0,0.0,0.0,21265.0,21166.0,21959.0,31262.0,0.3390546441078186,-0.03144463261556942,0.05947709482394058,0.04907491398050889,0.03202139586210251,-0.0198577418923378,0.10384643077850342
243,5,-0.0007290481007657945,3.0883486033417284e-05,0.0010411273688077927,-0.021897228434681892,0.00854120310395956,0.003542413003742695,-0.02643399126827717,-0.041348718106746674,-0.0097197862342,-0.02591470442712307,-0.11685831099748611,-0.061750542372465134,0.0,0.0,0.0,-0.013094386085867882,-0.02357522025704384,-0.0,0.0,0.0,0.0,0.0007288054330274463,-0.00012071865057805553,-0.0003431342192925513,19313.0,26023.0,22049.0,27419.0,0.06634649634361267,0.09640920162200928,0.07816480100154877,0.10311834514141083,0.0,0.0,0.0,0.0,18687.0,22468.0,22647.0,30040.0,0.3391569256782532,-0.03165825368087593,0.0663498188107685,0.04644601847921758,0.09252776950597763,-0.034265242516994476,0.053351856768131256
248,5,-0.0007142120157368481,0.0001981329987756908,0.001131022465415299,-0.004492111969739199,-0.020852571353316307,-0.011522592976689339,-0.02643399126827717,-0.041348718106746674,-0.0097197862342,-0.02591470442712307,-0.11685831099748611,-0.061750542372465134,0.0,0.0,0.0,0.032228343188762665,-0.005869583692401648,-0.0,0.0,0.0,0.0,0.0007288054330274463,-0.00012071865057805553,-0.0003431342192925513,19313.0,26023.0,22049.0,27419.0,0.06634649634361267,0.09640920162200928,0.07816480100154877,0.10311834514141083,0.0,0.0,0.0,0.0,18687.0,22468.0,22647.0,30040.0,0.33921557664871216,-0.03593889540893411,0.055845855229706254,0.0476147820610365,0.02303393930196762,0.08432416617870331,0.10375870764255524
253,5,-0.0007332888199016452,0.00011896806972799823,0.0010384039487689734,-0.004018389619886875,0.004827318713068962,0.00950982142239809,-0.02640722505748272,-0.04053237661719322,-0.010075798258185387,0.012689405120909214,-0.08792348951101303,-0.05263664200901985,0.0,0.0,0.0,-0.00719141261652112,-0.0054694185964763165,-0.0,0.0,0.0,0.0,0.0006126532098278403,0.0003697110223583877,-0.0004046293324790895,19916.0,25352.0,20342.0,28048.0,0.06889921426773071,0.09323973953723907,0.07072152197360992,0.10619419813156128,0.0,0.0,0.0,0.0,19166.0,26116.0,21622.0,27842.0,0.3390474319458008,-0.03784600366853817,0.06324018529290831,0.04505487591626368,0.02146221324801445,-0.018813161179423332,0.043391160666942596
258,5,-0.0007599296513944864,6.080490129534155e-05,0.0009312293259426951,-0.004935229197144508,0.009591039270162582,0.017857391387224197,-0.02640722505748272,-0.04053237661719322,-0.010075798258185387,0.012689405120909214,-0.08792348951101303,-0.05263664200901985,0.0,0.0,0.0,-0.014594992622733116,-0.006499708630144596,-0.0,0.0,0.0,0.0,0.0006126532098278403,0.0003697110223583877,-0.0004046293324790895,19916.0,25352.0,20342.0,28048.0,0.06889921426773071,0.09323973953723907,0.07072152197360992,0.10619419813156128,0.0,0.0,0.0,0.0,19166.0,26116.0,21622.0,27842.0,0.3390768766403198,-0.03831029620789436,0.06868142067193621,0.04793874883713131,0.02550521492958069,-0.03818251192569733,0.02054624818265438
263,5,-0.0005261492333374918,4.283591260900721e-05,0.0006002720911055803,0.031248684972524643,0.005392969585955143,0.05169122666120529,-0.026362664997577667,-0.03937125951051712,-0.010631714016199112,0.0010825208155438304,-0.07074951380491257,-0.0457616001367569,0.0,0.0,0.0,-0.00808846578001976,0.030231859534978867,-0.0,0.0,0.0,0.0,0.0006275037885643542,0.0004888313706032932,-0.0003697456559166312,18436.0,23261.0,22253.0,29590.0,0.06268195807933807,0.08359676599502563,0.07907220721244812,0.11386479437351227,0.0,0.0,0.0,0.0,20122.0,25291.0,20383.0,27891.0,0.3441780209541321,-0.034409680053110174,0.04885025340747133,0.045361967244073285,-0.1204075962305069,-0.021479999646544456,-0.08246733248233795
268,5,-0.0007531528826802969,7.625487342011184e-05,0.0009507464710623026,-0.022405903786420822,-0.0030607632361352444,-0.03355904296040535,-0.026362664997577667,-0.03937125951051712,-0.010631714016199112,0.0010825208155438304,-0.07074951380491257,-0.0457616001367569,0.0,0.0,0.0,0.004794525448232889,-0.024384571239352226,-0.0,0.0,0.0,0.0,0.0006275037885643542,0.0004888313706032932,-0.0003697456559166312,18436.0,23261.0,22253.0,29590.0,0.06268195807933807,0.08359676599502563,0.07907220721244812,0.11386479437351227,0.0,0.0,0.0,0.0,20122.0,25291.0,20383.0,27891.0,0.33913832902908325,-0.03702307726098519,0.06364448870812678,0.04801589282393253,0.09570402652025223,0.012546250596642494,0.18042147159576416
273,5,-0.0009787915041670203,-0.0001442303619114682,0.0004267961485311389,-0.038311176002025604,0.029949704185128212,0.06328533589839935,-0.026388514786958694,-0.03891700506210327,-0.01109367422759533,0.015580289997160435,-0.06517986953258514,-0.051467493176460266,0.0,0.0,0.0,-0.043249670416116714,-0.03842654824256897,-0.0,0.0,0.0,0.0,0.0018963105976581573,0.0008340021013282239,-0.00044663037988357246,20385.0,25569.0,19193.0,28429.0,0.07090570777654648,0.09425895661115646,0.0658404752612114,0.10807179659605026,0.0,0.0,0.0,0.0,20421.0,25571.0,19887.0,27799.0,0.36221227049827576,-0.06072727312471461,0.05689931241492922,0.05162528605966332,0.16090624034404755,-0.12079697847366333,-0.11444491147994995
278,5,-0.0014038922963663936,-8.559966227039695e-05,0.000679544813465327,-0.07100746780633926,0.0007766124908812344,-0.016399210318922997,-0.026388514786958694,-0.03891700506210327,-0.01109367422759533,0.015580289997160435,-0.06517986953258514,-0.051467493176460266,0.0,0.0,0.0,-0.0012806968297809362,-0.06643454730510712,-0.0,0.0,0.0,0.0,0.0018963105976581573,0.0008340021013282239,-0.00044663037988357246,20385.0,25569.0,19193.0,28429.0,0.07090570777654648,0.09425895661115646,0.0658404752612114,0.10807179659605026,0.0,0.0,0.0,0.0,20421.0,25571.0,19887.0,27799.0,0.38326358795166016,-0.05732784682917908,0.07790274640270071,0.05177345822939897,0.29448142647743225,-0.0037873778492212296,0.12970997393131256
283,5,-0.0014071713667362928,-0.00011319795885356143,0.0005469184834510088,-0.02176130749285221,0.0040967450477182865,0.013647920452058315,-0.026330096647143364,-0.03793337196111679,-0.011640066280961037,-0.011160850524902344,-0.08127454668283463,-0.05624185875058174,0.0,0.0,0.0,-0.006593856029212475,-0.024934858083724976,-0.0,0.0,0.0,0.0,0.0003868885396514088,0.0006305105634965003,-0.0004190162580925971,19942.0,25851.0,19752.0,28065.0,0.06901007890701294,0.09559208154678345,0.0682012289762497,0.10627354681491852,0.0,0.0,0.0,0.0,18944.0,25134.0,20509.0,28956.0,0.3391464054584503,-0.05656957516188513,0.07733533704823367,0.05403989514447088,0.09786748141050339,-0.017255228012800217,0.039682865142822266
288,5,-0.0013738005654886365,-2.329668859601952e-05,0.00042275190935470164,-0.0018564841011539102,-0.01135715376585722,0.02147769369184971,-0.026330096647143364,-0.03793337196111679,-0.011640066280961037,-0.011160850524902344,-0.08127454668283463,-0.05624185875058174,0.0,0.0,0.0,0.017226511612534523,-0.004704723600298166,-0.0,0.0,0.0,0.0,0.0003868885396514088,0.0006305105634965003,-0.0004190162580925971,19942.0,25851.0,19752.0,28065.0,0.06901007890701294,0.09559208154678345,0.0682012289762497,0.10627354681491852,0.0,0.0,0.0,0.0,18944.0,25134.0,20509.0,28956.0,0.33908766508102417,-0.048187029006220794,0.07916410221206606,0.05420709559477534,0.018461471423506737,0.04506703466176987,0.016331659629940987
294,5,-0.0013083613011986017,-3.04330369544914e-05,0.0004572505713440478,0.008604551665484905,-0.002408057451248169,0.0016134986653923988,-0.026375362649559975,-0.03760918229818344,-0.012044916860759258,0.03539213910698891,-0.045388367027044296,-0.04076839238405228,0.0,0.0,0.0,0.003524659899994731,0.005952578503638506,-0.0,0.0,0.0,0.0,0.001012650434859097,0.0002700361073948443,-0.0004263662558514625,18952.0,25285.0,20836.0,28522.0,0.06482991576194763,0.09292615950107574,0.07285048067569733,0.10853210091590881,0.0,0.0,0.0,0.0,19201.0,30028.0,25491.0,28309.0,0.33904170989990234,-0.05362007388846898,0.07069354978445909,0.0524341987691277,-0.023355579003691673,0.009220629930496216,0.07806306332349777
299,5,-0.0012840032577514648,0.00011119574628537521,0.00026417846675030887,0.00599149614572525,-0.020550446584820747,0.027514144778251648,-0.026375362649559975,-0.03760918229818344,-0.012044916860759258,0.03539213910698891,-0.045388367027044296,-0.04076839238405228,0.0,0.0,0.0,0.03158238157629967,0.0032275731209665537,-0.0,0.0,0.0,0.0,0.001012650434859097,0.0002700361073948443,-0.0004263662558514625,18952.0,25285.0,20836.0,28522.0,0.06482991576194763,0.09292615950107574,0.07285048067569733,0.10853210091590881,0.0,0.0,0.0,0.0,19201.0,30028.0,25491.0,28309.0,0.3392045199871063,-0.03632093742908829,0.08024737710663514,0.0545532909209985,-0.012665040791034698,0.0826321467757225,-0.0008738687611185014
304,5,-0.001162283238954842,-1.193765001517022e-05,0.00037170437281019986,0.018838247284293175,0.011073540896177292,-0.00679938355460763,-0.026375362649559975,-0.03760918229818344,-0.012044916860759258,0.03539213910698891,-0.045388367027044296,-0.04076839238405228,0.0,0.0,0.0,-0.017034513875842094,0.016410470008850098,-0.0,0.0,0.0,0.0,0.001012650434859097,0.0002700361073948443,-0.0004263662558514625,18952.0,25285.0,20836.0,28522.0,0.06482991576194763,0.09292615950107574,0.07285048067569733,0.10853210091590881,0.0,0.0,0.0,0.0,19201.0,30028.0,25491.0,28309.0,0.3391284644603729,-0.05237463666762132,0.06454173508362149,0.052152427848989415,-0.0643981397151947,-0.044570233672857285,0.10468102991580963
309,5,-0.001114544807933271,0.0001301453885389492,0.00022906689264345914,0.012334858998656273,-0.01656956411898136,0.017929429188370705,-0.026332220062613487,-0.03694191947579384,-0.012454135343432426,-0.021183807402849197,-0.034072816371917725,-0.012919541448354721,0.0,0.0,0.0,0.02555154822766781,0.00976535864174366,-0.0,0.0,0.0,0.0,0.0008235163404606283,-0.0010578858200460672,-0.00044257621630094945,19578.0,29540.0,25181.0,28780.0,0.06746269762516022,0.11361217498779297,0.09243804216384888,0.10981161892414093,0.0,0.0,0.0,0.0,19918.0,23184.0,20325.0,30070.0,0.3391604721546173,-0.03912473488048547,0.0709512153058068,0.052806041389601266,-0.03832048550248146,0.06685250252485275,0.029740380123257637
314,5,-0.0010310537181794643,3.365491647855379e-05,0.0003963223425671458,0.015389211475849152,0.008537797257304192,-0.01803693361580372,-0.026332220062613487,-0.03694191947579384,-0.012454135343432426,-0.021183807402849197,-0.034072816371917725,-0.012919541448354721,0.0,0.0,0.0,-0.013040881603956223,0.012923353351652622,-0.0,0.0,0.0,0.0,0.0008235163404606283,-0.0010578858200460672,-0.00044257621630094945,19578.0,29540.0,25181.0,28780.0,0.06746269762516022,0.11361217498779297,0.09243804216384888,0.10981161892414093,0.0,0.0,0.0,0.0,19918.0,23184.0,20325.0,30070.0,0.3390907347202301,-0.050926178531380394,0.059772590767040105,0.05042424679410614,-0.05071406066417694,-0.0341186560690403,0.1410011202096939
319,5,-0.0009772921912372112,0.00010121871309820563,0.00035895200562663376,0.012143373489379883,-0.006897591985762119,-0.00017923132691066712,-0.026307230815291405,-0.037059564143419266,-0.012731237336993217,0.011111274361610413,0.025737721472978592,-0.049170877784490585,0.0,0.0,0.0,0.010717692784965038,0.00961701013147831,-0.0,0.0,0.0,0.0,0.0014278911985456944,0.001168516930192709,-0.0004388483357615769,19385.0,23712.0,19878.0,30417.0,0.06664876639842987,0.08564761281013489,0.06873752176761627,0.11805391311645508,0.0,0.0,0.0,0.0,22110.0,24140.0,17912.0,29331.0,0.339068740606308,-0.04733173931781933,0.06066941526116515,0.04995488014362388,-0.03773635998368263,0.028039461001753807,0.08838769048452377
324,5,-0.0008411788730882108,0.0001595892827026546,0.00036025626468472183,0.02269887737929821,-0.010241156443953514,-0.0002363651874475181,-0.026307230815291405,-0.037059564143419266,-0.012731237336993217,0.011111274361610413,0.025737721472978592,-0.049170877784490585,0.0,0.0,0.0,0.01597232185304165,0.02050955407321453,-0.0,0.0,0.0,0.0,0.0014278911985456944,0.001168516930192709,-0.0004388483357615769,19385.0,23712.0,19878.0,30417.0,0.06664876639842987,0.08564761281013489,0.06873752176761627,0.11805391311645508,0.0,0.0,0.0,0.0,22110.0,24140.0,17912.0,29331.0,0.3391481637954712,-0.04659062375489464,0.05308591698296035,0.04922763410876518,-0.08048909157514572,0.04179428517818451,0.08989796787500381
329,5,-0.0009189773700200021,2.8229040253791027e-05,0.00027650027186609805,-0.004082128871232271,0.015318086370825768,0.011654927395284176,-0.026260513812303543,-0.036988385021686554,-0.012901793234050274,-0.006778547540307045,-0.035989273339509964,-0.0040100086480379105,0.0,0.0,0.0,-0.023386269807815552,-0.0069701955653727055,-0.0,0.0,0.0,0.0,0.0003035415429621935,0.001832036068663001,-0.00038541038520634174,22126.0,24054.0,18371.0,29017.0,0.07850909233093262,0.08721327781677246,0.062414780259132385,0.11099131405353546,0.0,0.0,0.0,0.0,22189.0,23990.0,17541.0,29699.0,0.3391345739364624,-0.04716550773920172,0.0547788761518165,0.04940853811498999,0.027351491153240204,-0.061184924095869064,0.05429023131728172
334,5,-0.0008387005655094981,0.000147320402902551,0.0004593196208588779,0.010014114901423454,-0.01207736600190401,-0.022098232060670853,-0.026260513812303543,-0.036988385021686554,-0.012901793234050274,-0.006778547540307045,-0.035989273339509964,-0.0040100086480379105,0.0,0.0,0.0,0.01877540722489357,0.007452871184796095,-0.0,0.0,0.0,0.0,0.0003035415429621935,0.001832036068663001,-0.00038541038520634174,22126.0,24054.0,18371.0,29017.0,0.07850909233093262,0.08721327781677246,0.062414780259132385,0.11099131405353546,0.0,0.0,0.0,0.0,22189.0,23990.0,17541.0,29699.0,0.33910277485847473,-0.050742405203437244,0.05554563266709986,0.04695480280661465,-0.029245607554912567,0.04912068694829941,0.15933099389076233
339,5,-0.0007921512005850673,0.00017968851898331195,0.000524899223819375,0.00952114537358284,-0.008154744282364845,-0.015810612589120865,-0.02633407525718212,-0.03720644488930702,-0.013047282584011555,0.019651055335998535,0.03894321247935295,-0.002014279831200838,0.0,0.0,0.0,0.012869258411228657,0.006959216203540564,-0.0,0.0,0.0,0.0,0.0013812617398798466,0.001987224444746971,-0.00038994141505099833,22347.0,23535.0,17819.0,29740.0,0.07948890328407288,0.08484052121639252,0.06014389917254448,0.11461737751960754,0.0,0.0,0.0,0.0,21955.0,23964.0,18579.0,29072.0,0.3390698730945587,-0.04933465177466546,0.05684324757313627,0.04598572461303665,-0.027306819334626198,0.03366797789931297,0.14314638078212738
344,5,-0.0009466627961955965,-1.0310298421245534e-05,0.0003817412944044918,-0.018775274977087975,0.024153411388397217,0.015298925340175629,-0.02633407525718212,-0.03720644488930702,-0.013047282584011555,0.019651055335998535,0.03894321247935295,-0.002014279831200838,0.0,0.0,0.0,-0.03621411323547363,-0.021748380735516548,-0.0,0.0,0.0,0.0,0.0013812617398798466,0.001987224444746971,-0.00038994141505099833,22347.0,23535.0,17819.0,29740.0,0.07948890328407288,0.08484052121639252,0.06014389917254448,0.11461737751960754,0.0,0.0,0.0,0.0,21955.0,23964.0,18579.0,29072.0,0.34604915976524353,-0.06216452032197385,0.053271220879800005,0.04648742771760985,0.08704260736703873,-0.09665185213088989,0.049618493765592575
349,5,-0.000750447332393378,0.00010015835869126022,0.0007201059488579631,0.02183758281171322,-0.008219588547945023,-0.042781371623277664,-0.02629760093986988,-0.03731862083077431,-0.012995707802474499,-0.01957729086279869,-0.00825860258191824,0.014984899200499058,0.0,0.0,0.0,0.012803575955331326,0.019455954432487488,-0.0,0.0,0.0,0.0,0.0014606097247451544,0.0017282732296735048,-0.0003821283171419054,20563.0,22521.0,19722.0,30619.0,0.07167177647352219,0.08026743680238724,0.0680730864405632,0.1190904751420021,0.0,0.0,0.0,0.0,21534.0,21756.0,19185.0,30908.0,0.3391255736351013,-0.044763593148923926,0.05837166163069376,0.04572086551981398,-0.07635480165481567,0.03350130841135979,0.23014254868030548
354,5,-0.0008476402144879103,6.387379835359752e-05,0.0004596606595441699,-0.0070557305589318275,0.002613961696624756,0.023627927526831627,-0.02629760093986988,-0.03731862083077431,-0.012995707802474499,-0.01957729086279869,-0.00825860258191824,0.014984899200499058,0.0,0.0,0.0,-0.0038308000657707453,-0.01019847672432661,-0.0,0.0,0.0,0.0,0.0014606097247451544,0.0017282732296735048,-0.0003821283171419054,20563.0,22521.0,19722.0,30619.0,0.07167177647352219,0.08026743680238724,0.0680730864405632,0.1190904751420021,0.0,0.0,0.0,0.0,21534.0,21756.0,19185.0,30908.0,0.3390537202358246,-0.05199796400059113,0.05468576923851168,0.0462301454289168,0.040020208805799484,-0.010021915659308434,0.02958579733967781
359,5,-0.0008064791909419,0.0001270749926334247,0.0009842118015512824,0.003645825432613492,-0.00806397758424282,-0.06634879112243652,-0.026249423623085022,-0.03757470101118088,-0.012927121482789516,0.013147545978426933,0.013421287760138512,-0.004244511481374502,0.0,0.0,0.0,0.012648191303014755,0.0007090747239999473,-0.0,0.0,0.0,0.0,-0.0003044332843273878,0.00046768394531682134,-0.0003267104330006987,22109.0,26417.0,20186.0,26629.0,0.07843160629272461,0.09828490018844604,0.07005093991756439,0.099300816655159,0.0,0.0,0.0,0.0,20225.0,22693.0,20646.0,29977.0,0.33906081318855286,-0.0392913236920169,0.06514877998598612,0.04588931163895904,-0.002782409777864814,0.03308846056461334,0.3091374337673187
364,5,-0.0007561079110018909,0.00018012139480561018,0.0009330184548161924,0.008145725354552269,-0.009845690801739693,-0.01273756381124258,-0.026249423623085022,-0.03757470101118088,-0.012927121482789516,0.013147545978426933,0.013421287760138512,-0.004244511481374502,0.0,0.0,0.0,0.015508358366787434,0.005311955232173204,-0.0,0.0,0.0,0.0,-0.0003044332843273878,0.00046768394531682134,-0.0003267104330006987,22109.0,26417.0,20186.0,26629.0,0.07843160629272461,0.09828490018844604,0.07005093991756439,0.099300816655159,0.0,0.0,0.0,0.0,20225.0,22693.0,20646.0,29977.0,0.3390791714191437,-0.04150688856281635,0.06551660381482576,0.045611360092454256,-0.02084430865943432,0.04057188332080841,0.1511969119310379
369,5,-0.0009515928686596453,0.0001624961441848427,0.0010200889082625508,-0.024924177676439285,-0.0004861722991336137,-0.016011128202080727,-0.026273401454091072,-0.03774716332554817,-0.012689506635069847,0.0033405693247914314,-0.051673758774995804,0.02076735533773899,0.0,0.0,0.0,0.0011676361318677664,-0.028505653142929077,-0.0,0.0,0.0,0.0,0.0007317070267163217,0.0012133264681324363,-0.0003738580853678286,20814.0,24242.0,20159.0,28473.0,0.072754867374897,0.08807412534952164,0.06993488222360611,0.10828999429941177,0.0,0.0,0.0,0.0,22495.0,26185.0,19178.0,27386.0,0.342044860124588,-0.04613616380017279,0.07787852002847033,0.04593208347144567,0.11283431202173233,0.003081664675846696,0.16580350697040558
375,5,-0.0007451787823811173,0.000184734002687037,0.0007879705517552793,0.021420717239379883,-0.0032591517083346844,0.027693230658769608,-0.026273401454091072,-0.03774716332554817,-0.012689506635069847,0.0033405693247914314,-0.051673758774995804,0.02076735533773899,0.0,0.0,0.0,0.005483260378241539,0.018742147833108902,-0.0,0.0,0.0,0.0,0.0007317070267163217,0.0012133264681324363,-0.0003738580853678286,20814.0,24242.0,20159.0,28473.0,0.072754867374897,0.08807412534952164,0.06993488222360611,0.10828999429941177,0.0,0.0,0.0,0.0,22495.0,26185.0,19178.0,27386.0,0.3390982449054718,-0.042481863372598835,0.07158819779874881,0.047657544614753876,-0.07355131208896637,0.014347161166369915,0.034322213381528854
380,5,-0.0007913309382274747,-7.032202847767621e-05,0.0005840130615979433,-3.508712325128727e-05,0.03473009914159775,0.03686201944947243,-0.02634032629430294,-0.037516430020332336,-0.012430279515683651,0.01146857999265194,0.03083166293799877,0.019543230533599854,0.0,0.0,0.0,-0.05179480463266373,-0.0031703286804258823,-0.0,0.0,0.0,0.0,0.0014297148445621133,0.0012348322197794914,-0.0003511571849230677,20666.0,22556.0,20605.0,29754.0,0.07211446762084961,0.08042216300964355,0.07185406982898712,0.11468847095966339,0.0,0.0,0.0,0.0,20470.0,24330.0,20719.0,28204.0,0.3483513295650482,-0.040741214036673905,0.06788776653772609,0.0439579415154436,0.012765107676386833,-0.13908763229846954,0.006602680776268244
385,5,-0.0008324703085236251,0.0002755585592240095,0.0007224297733046114,-0.005770035088062286,-0.038004253059625626,-0.00831973273307085,-0.02634032629430294,-0.037516430020332336,-0.012430279515683651,0.01146857999265194,0.03083166293799877,0.019543230533599854,0.0,0.0,0.0,0.056638844311237335,-0.008872711099684238,-0.0,0.0,0.0,0.0,0.0014297148445621133,0.0012348322197794914,-0.0003511571849230677,20666.0,22556.0,20605.0,29754.0,0.07211446762084961,0.08042216300964355,0.07185406982898712,0.11468847095966339,0.0,0.0,0.0,0.0,20470.0,24330.0,20719.0,28204.0,0.35257142782211304,-0.04089452400435271,0.08419509836706662,0.05143147210004954,0.036149896681308746,0.15391024947166443,0.14606307446956635
390,5,-0.0008473972557112575,0.0003990433760918677,0.0009346037404611707,-0.0038207881152629852,-0.028689149767160416,-0.03220027685165405,-0.02634032629430294,-0.037516430020332336,-0.012430279515683651,0.01146857999265194,0.03083166293799877,0.019543230533599854,0.0,0.0,0.0,0.0442776121199131,-0.007202220149338245,-0.0,0.0,0.0,0.0,0.0014297148445621133,0.0012348322197794914,-0.0003511571849230677,20666.0,22556.0,20605.0,29754.0,0.07211446762084961,0.08042216300964355,0.07185406982898712,0.11468847095966339,0.0,0.0,0.0,0.0,20470.0,24330.0,20719.0,28204.0,0.3440423309803009,-0.047729635012383066,0.06910239133801897,0.04470375926603396,0.028652373701334,0.1174611747264862,0.22318418323993683
395,5,-0.0007402573246508837,0.00020281110482756048,0.0006974647403694689,0.013853355310857296,0.01886577345430851,0.023539379239082336,-0.026303797960281372,-0.03777388855814934,-0.01233916636556387,-0.015105209313333035,0.00543573871254921,0.02363915555179119,0.0,0.0,0.0,-0.02822059765458107,0.010824635624885559,-0.0,0.0,0.0,0.0,0.0010081976652145386,0.002070116810500622,-0.00035046247649006546,21831.0,22365.0,19493.0,29859.0,0.0772019624710083,0.07957197725772858,0.06710197031497955,0.1152220368385315,0.0,0.0,0.0,0.0,20777.0,22539.0,20239.0,29984.0,0.33918851613998413,-0.032313883772074295,0.07676319268834615,0.0507655748250754,-0.042476046830415726,-0.07383771985769272,0.05530505254864693
400,5,-0.0008674452546983957,0.00015636651369277388,0.0008513150969520211,-0.013650302775204182,0.012161974795162678,-0.014477239921689034,-0.026303797960281372,-0.03777388855814934,-0.01233916636556387,-0.015105209313333035,0.00543573871254921,0.02363915555179119,0.0,0.0,0.0,-0.018054598942399025,-0.01746160164475441,-0.0,0.0,0.0,0.0,0.0010081976652145386,0.002070116810500622,-0.00035046247649006546,21831.0,22365.0,19493.0,29859.0,0.0772019624710083,0.07957197725772858,0.06710197031497955,0.1152220368385315,0.0,0.0,0.0,0.0,20777.0,22539.0,20239.0,29984.0,0.33914056420326233,-0.0376107897443312,0.07912545561281495,0.048079915018254246,0.06852801889181137,-0.047240000218153,0.17433226108551025
405,5,-0.0006221403018571436,0.00017670582747086883,0.0005181272863410413,0.030247600749135017,0.000801088463049382,0.04230312258005142,-0.026311248540878296,-0.03821265324950218,-0.012151462957262993,0.017298895865678787,0.03477724641561508,0.014184348285198212,0.0,0.0,0.0,-0.0006192076252773404,0.027439231052994728,-0.0,0.0,0.0,0.0,0.0010320282308384776,0.0020454267505556345,-0.0003475214180070907,19454.0,21876.0,22289.0,30889.0,0.06693975627422333,0.077400341629982,0.07923069596290588,0.1204739511013031,0.0,0.0,0.0,0.0,22260.0,21946.0,18711.0,30496.0,0.3410130739212036,-0.029157102598406065,0.06976253668219519,0.052335084004651526,-0.1082853376865387,-0.0016289511695504189,0.0020543865393847227
410,5,-0.0007450859993696213,0.00019261374836787581,0.0006692126044072211,-0.008138112723827362,-0.001986783929169178,-0.008461004123091698,-0.026311248540878296,-0.03821265324950218,-0.012151462957262993,0.017298895865678787,0.03477724641561508,0.014184348285198212,0.0,0.0,0.0,0.003692867700010538,-0.01175990141928196,-0.0,0.0,0.0,0.0,0.0010320282308384776,0.0020454267505556345,-0.0003475214180070907,19454.0,21876.0,22289.0,30889.0,0.06693975627422333,0.077400341629982,0.07923069596290588,0.1204739511013031,0.0,0.0,0.0,0.0,22260.0,21946.0,18711.0,30496.0,0.33905935287475586,-0.030882704688553718,0.07498952195302645,0.05078801454159646,0.04614797979593277,0.009661229327321053,0.1582084447145462
415,5,-0.0007726934854872525,0.00030967796919867396,0.0007634724024683237,-0.0063064852729439735,-0.016985023394227028,-0.01573467254638672,-0.026344340294599533,-0.03788265958428383,-0.012109024450182915,-0.023809311911463737,-0.02867017313838005,-0.008949755690991879,0.0,0.0,0.0,0.026912545785307884,-0.009991468861699104,-0.0,0.0,0.0,0.0,0.0023601811844855547,0.0005252361879684031,-0.00036401787656359375,20208.0,25779.0,20493.0,27265.0,0.07014669477939606,0.09525085985660553,0.07137122750282288,0.10237184166908264,0.0,0.0,0.0,0.0,21038.0,25205.0,20099.0,27433.0,0.3391733467578888,-0.036981953314843025,0.07308826774739334,0.04823756272758417,0.03920936957001686,0.07041490823030472,0.18394558131694794
420,5,-0.0007346604252234101,0.00022453140991274267,0.0006656130426563323,0.003432688070461154,0.006825009826570749,0.00897990446537733,-0.026344340294599533,-0.03788265958428383,-0.012109024450182915,-0.023809311911463737,-0.02867017313838005,-0.008949755690991879,0.0,0.0,0.0,-0.00964966882020235,-6.52353119221516e-05,-0.0,0.0,0.0,0.0,0.0023601811844855547,0.0005252361879684031,-0.00036401787656359375,20208.0,25779.0,20493.0,27265.0,0.07014669477939606,0.09525085985660553,0.07137122750282288,0.10237184166908264,0.0,0.0,0.0,0.0,21038.0,25205.0,20099.0,27433.0,0.33904939889907837,-0.03415507114970403,0.07658036915407251,0.05060196278100762,0.0002559833519626409,-0.025243882089853287,0.11118720471858978
425,5,-0.0006220084032975137,0.00014213677786756307,0.0006734863272868097,0.016801083460450172,0.013582750223577023,0.0015917113050818443,-0.02640710026025772,-0.03760090842843056,-0.012148446403443813,0.009022701531648636,-0.028265809640288353,-0.01282843854278326,0.0,0.0,0.0,-0.020142890512943268,0.013677108101546764,-0.0,0.0,0.0,0.0,0.00019867262744810432,0.0007362127653323114,-0.00035928841680288315,21000.0,25401.0,19835.0,27508.0,0.07356466352939606,0.09347142279148102,0.06855253875255585,0.10355199873447418,0.0,0.0,0.0,0.0,20192.0,24156.0,20385.0,28899.0,0.3391340970993042,-0.043489353628505055,0.0690432872389471,0.04517399434098926,-0.05367107316851616,-0.052701614797115326,0.13599999248981476
431,5,-0.0009131783153861761,-0.00011773443111451343,-0.0001178964739665389,-0.035723455250263214,0.04045679420232773,0.11127110570669174,-0.02640710026025772,-0.03760090842843056,-0.012148446403443813,0.009022701531648636,-0.028265809640288353,-0.01282843854278326,0.0,0.0,0.0,-0.057007212191820145,-0.03724215552210808,-0.0,0.0,0.0,0.0,0.00019867262744810432,0.0007362127653323114,-0.00035928841680288315,21000.0,25401.0,19835.0,27508.0,0.07356466352939606,0.09347142279148102,0.06855253875255585,0.10355199873447418,0.0,0.0,0.0,0.0,20192.0,24156.0,20385.0,28899.0,0.3680664300918579,-0.0541670985116396,0.06290836433840521,0.061064832134303505,0.15835995972156525,-0.1617165058851242,-0.2024763822555542
436,5,-0.001305948942899704,-0.0008454109192825854,0.000482074887258932,-0.06570491939783096,0.1140117421746254,-0.05061466246843338,-0.026395142078399658,-0.03801380842924118,-0.012183432467281818,0.0011025088606402278,0.09624461084604263,-0.0019292811630293727,0.0,0.0,0.0,-0.13593453168869019,-0.05547208711504936,-0.0,0.0,0.0,0.0,0.0010165792191401124,0.0013537006452679634,-0.0003610121493693441,21136.0,23167.0,19776.0,29504.0,0.07415257394313812,0.08317239582538605,0.06830137968063354,0.11343309283256531,0.0,0.0,0.0,0.0,21763.0,23680.0,18929.0,29202.0,0.4417564868927002,-0.08647251630832664,0.07872522507117091,0.06983419581004939,0.2808665633201599,-0.4603366553783417,0.2918838560581207
441,5,-0.0012453473173081875,-0.0007034643203951418,0.0003786073066294193,-0.011227257549762726,0.014331002719700336,-0.0006989362882450223,-0.026395142078399658,-0.03801380842924118,-0.012183432467281818,0.0011025088606402278,0.09624461084604263,-0.0019292811630293727,0.0,0.0,0.0,-0.023300625383853912,-0.01603085920214653,-0.0,0.0,0.0,0.0,0.0010165792191401124,0.0013537006452679634,-0.0003610121493693441,21136.0,23167.0,19776.0,29504.0,0.07415257394313812,0.08317239582538605,0.06830137968063354,0.11343309283256531,0.0,0.0,0.0,0.0,21763.0,23680.0,18929.0,29202.0,0.3391692340373993,-0.08180941850054865,0.07618824598057716,0.06822774781757225,0.06291048228740692,-0.06096717342734337,0.14204464852809906
446,5,-0.001110033830627799,-0.0003353435604367405,0.0004109135770704597,0.015575717203319073,-0.04723760485649109,-0.004732558969408274,-0.026491912081837654,-0.03859420493245125,-0.012303539551794529,0.006273655220866203,-0.0077665094286203384,-0.007607275620102882,0.0,0.0,0.0,0.06744258850812912,0.010749648325145245,-0.0,0.0,0.0,0.0,0.0005708347889594734,0.0013308734633028507,-0.00037634168984368443,21304.0,24141.0,19310.0,28861.0,0.07488948106765747,0.08761216700077057,0.06633263826370239,0.11021505296230316,0.0,0.0,0.0,0.0,23376.0,29408.0,20540.0,26661.0,0.3605250120162964,-0.06922904135746168,0.07170993447092201,0.059613192457881575,-0.04475046694278717,0.1873127818107605,0.15601444244384766
451,5,-0.0010385323548689485,-0.0002437509538140148,0.00039374621701426804,0.01468291599303484,-0.02699424885213375,0.000983665231615305,-0.026491912081837654,-0.03859420493245125,-0.012303539551794529,0.006273655220866203,-0.0077665094286203384,-0.007607275620102882,0.0,0.0,0.0,0.040429484099149704,0.010432888753712177,-0.0,0.0,0.0,0.0,0.0005708347889594734,0.0013308734633028507,-0.00037634168984368443,21304.0,24141.0,19310.0,28861.0,0.07488948106765747,0.08761216700077057,0.06633263826370239,0.11021505296230316,0.0,0.0,0.0,0.0,23376.0,29408.0,20540.0,26661.0,0.3425717353820801,-0.06531899304699905,0.06947516143789674,0.05691788978950672,-0.04133133590221405,0.10680580884218216,0.139890655875206
456,5,-0.0009679014910943806,-0.0001374345156364143,0.00021965269115753472,0.01429319754242897,-0.022982574999332428,0.024668190628290176,-0.026463264599442482,-0.03820876404643059,-0.012448526918888092,-0.013226517476141453,-0.12316185235977173,-0.01691598631441593,0.0,0.0,0.0,0.03490690886974335,0.010178341530263424,-0.0,0.0,0.0,0.0,-0.0009868191555142403,-0.0003119699249509722,-0.00042746926192194223,22418.0,30049.0,20936.0,26527.0,0.07980495691299438,0.11618541181087494,0.07328683137893677,0.09881128370761871,0.0,0.0,0.0,0.0,22032.0,30332.0,21088.0,26447.0,0.3392578363418579,-0.06093305623623597,0.06619343860708514,0.056889688320516676,-0.03993925452232361,0.0913374125957489,0.06742887198925018
