timestamp,dt,pos_x,pos_y,pos_z,vel_x,vel_y,vel_z,roll,pitch,yaw,agv_x,agv_y,agv_z,x_ref,y_ref,z_ref,roll_ref,pitch_ref,yaw_ref,x_vel_ref,y_vel_ref,z_vel_ref,x_torque,y_torque,z_torque,w0,w1,w2,w3,u0,u1,u2,u3,m0req,m1req,m2req,m3req,thrust0,thrust1,thrust2,thrust3,thrust_ref,roll_vicon,pitch_vicon,yaw_vicon,acc_x,acc_y,acc_z
5,5,0.0,0.0,0.0,-0.0023442658130079508,-0.005961896851658821,0.007204421330243349,-0.020712437108159065,0.019527191296219826,0.04467727616429329,0.0014999269042164087,0.10217998176813126,-0.05946458876132965,0.0,0.0,0.0,0.008685262873768806,-0.002276770770549774,-0.0,0.0,0.0,0.0,0.0009522481122985482,-0.00025682616978883743,0.0012254356406629086,0.0,0.0,0.0,0.0,0.0,0.0,0.0,0.0,0.0,0.0,0.0,0.0,0.0,0.0,0.0,0.0,0.35585907101631165,-0.04263373724516916,0.0002888076912560863,0.05048849661207727,0.009377063252031803,0.023847587406635284,-0.021613264456391335
28,23,0.0,0.0,0.0,-0.005061801057308912,-0.0009077009162865579,0.00011291614646324888,-0.020712437108159065,0.019527191296219826,0.04467727616429329,0.0014999269042164087,0.10217998176813126,-0.05946458876132965,0.0,0.0,0.0,0.0013223361456766725,-0.004916032776236534,-0.0,0.0,0.0,0.0,0.0009522481122985482,-0.00025682616978883743,0.0012254356406629086,0.0,0.0,0.0,0.0,0.0,0.0,0.0,0.0,0.0,0.0,0.0,0.0,0.0,0.0,0.0,0.0,0.35584932565689087,-0.042974085524872696,0.0025292370317260356,0.04907271352408807,0.02024720422923565,0.0036308036651462317,-0.00033874844666570425
33,5,0.0,0.0,0.0,-0.005945916753262281,-0.0023553892970085144,0.0019148081773892045,-0.020712437108159065,0.019527191296219826,0.04467727616429329,0.0014999269042164087,0.10217998176813126,-0.05946458876132965,0.0,0.0,0.0,0.0034313038922846317,-0.005774670746177435,-0.0,0.0,0.0,0.0,0.0009522481122985482,-0.00025682616978883743,0.0012254356406629086,0.0,0.0,0.0,0.0,0.0,0.0,0.0,0.0,0.0,0.0,0.0,0.0,0.0,0.0,0.0,0.0,0.35585275292396545,-0.0439942643594033,0.0025160854171825866,0.04823554783073524,0.023783667013049126,0.009421557188034058,-0.005744424648582935
43,10,0.0,0.0,0.0,-0.0027719291392713785,-0.0016305102035403252,0.0008339405758306384,-0.020649772137403488,0.018866175785660744,0.044174835085868835,0.001015514601022005,0.06568917632102966,-0.06353363394737244,0.0,0.0,0.0,0.002379189245402813,-0.0026964801363646984,-0.0,0.0,0.0,0.0,0.0009521835017949343,-0.0004937218618579209,0.0011895073112100363,0.0,0.0,0.0,0.0,0.0,0.0,0.0,0.0,0.0,0.0,0.0,0.0,0.0,0.0,0.0,0.0,0.35527151823043823,-0.0435727843691319,0.002605810237929043,0.04761737387465698,0.011087716557085514,0.006522040814161301,-0.0025018216110765934
48,5,0.0,0.0,0.0,-0.005659532733261585,-0.0012684573885053396,0.005781357176601887,-0.0205517765134573,0.01838829554617405,0.04331771656870842,0.009680899791419506,0.018072446808218956,-0.07974263280630112,0.0,0.0,0.0,0.0018560009775683284,-0.005520699080079794,-0.0,0.0,0.0,0.0,0.0009542902698740363,-0.0008097226382233202,0.001135055790655315,0.0,0.0,0.0,0.0,0.0,0.0,0.0,0.0,0.0,0.0,0.0,0.0,0.0,0.0,0.0,0.0,0.35429349541664124,-0.043261158799702555,0.0029854953370904,0.04704288153541899,0.02263813093304634,0.0050738295540213585,-0.017344072461128235
53,5,-6.011355799273588e-05,-1.3232534911367111e-05,1.3897418284614105e-05,-0.010113758035004139,0.001472017727792263,-0.00021123135229572654,-0.0205517765134573,0.01838829554617405,0.04331771656870842,0.009680899791419506,0.018072446808218956,-0.07974263280630112,0.0,0.0,0.0,-0.0021828266326338053,-0.00995341781526804,-0.0,0.0,0.0,0.0,0.0009542902698740363,-0.0008097226382233202,0.001135055790655315,0.0,0.0,0.0,0.0,0.0,0.0,0.0,0.0,0.0,0.0,0.0,0.0,0.0,0.0,0.0,0.0,0.3543058931827545,-0.04232067102113374,0.003961934485342196,0.04679180546457684,0.04081583395600319,-0.005967492703348398,0.0008425027481280267
58,5,-7.410036778310314e-05,1.8841423297999427e-05,3.487673166091554e-05,-0.004992280155420303,-0.0040487488731741905,-0.0030004731379449368,-0.020434919744729996,0.0191180519759655,0.04150887578725815,0.012513102032244205,-0.07099766284227371,-0.07929220795631409,0.0,0.0,0.0,0.006000935565680265,-0.005015111993998289,-0.0,0.0,0.0,0.0,0.0007302259909920394,-0.0011663486948236823,0.001113855978474021,30628.0,15198.0,35021.0,13718.0,0.11913728713989258,0.04969605430960655,0.1424010694026947,0.04404079541563988,0.0,0.0,0.0,0.0,30610.0,15077.0,34903.0,14190.0,0.35222646594047546,-0.042037401661674856,0.0036649710775607186,0.04651228751245516,0.020444627851247787,0.016309116035699844,0.009663569740951061
63,5,-8.165788312908262e-05,8.657897706143558e-05,8.757030445849523e-05,-0.002555736806243658,-0.010697881691157818,-0.008277242071926594,-0.020434919744729996,0.0191180519759655,0.04150887578725815,0.012513102032244205,-0.07099766284227371,-0.07929220795631409,0.0,0.0,0.0,0.01578683778643608,-0.002624551998451352,-0.0,0.0,0.0,0.0,0.0007302259909920394,-0.0011663486948236823,0.001113855978474021,30628.0,15198.0,35021.0,13718.0,0.11913728713989258,0.04969605430960655,0.1424010694026947,0.04404079541563988,0.0,0.0,0.0,0.0,30610.0,15077.0,34903.0,14190.0,0.3522607982158661,-0.0405180966212599,0.005057961404907257,0.04509032770065199,0.010744703933596611,0.0433124341070652,0.026290830224752426
68,5,-0.0001945860276464373,-7.575351628474891e-05,-0.00014618883142247796,-0.01657666079699993,0.019517185166478157,0.030243108049035072,-0.020434919744729996,0.0191180519759655,0.04150887578725815,0.012513102032244205,-0.07099766284227371,-0.07929220795631409,0.0,0.0,0.0,-0.028877979144454002,-0.01656283810734749,-0.0,0.0,0.0,0.0,0.0007302259909920394,-0.0011663486948236823,0.001113855978474021,30628.0,15198.0,35021.0,13718.0,0.11913728713989258,0.04969605430960655,0.1424010694026947,0.04404079541563988,0.0,0.0,0.0,0.0,30610.0,15077.0,34903.0,14190.0,0.3524109423160553,-0.045015058083354764,-1.9214627688771788e-05,0.04723784970306902,0.06752614676952362,-0.07850269228219986,-0.0925416499376297
73,5,-0.0002066262240987271,4.928513226332143e-05,0.00031267027952708304,-0.0066586267203092575,-0.011650255881249905,-0.055167343467473984,-0.020371343940496445,0.019822226837277412,0.04067165032029152,-0.017792342230677605,-0.092984639108181,-0.24594184756278992,0.0,0.0,0.0,0.017305785790085793,-0.006884674075990915,-0.0,0.0,0.0,0.0,0.0008707375964149833,-0.0013934028102084994,0.0010283536976203322,29029.0,16647.0,34380.0,15001.0,0.11105254292488098,0.05540240928530693,0.1389087289571762,0.048934515565633774,0.0,0.0,0.0,0.0,30559.0,15302.0,35278.0,13328.0,0.3513176739215851,-0.030939034435393115,0.013284018746613667,0.04424922427981916,0.027990302070975304,0.04690741375088692,0.17064952850341797
78,5,-0.00032638240372762084,0.00017812222358770669,0.00046873706742189825,-0.018763454630970955,-0.021532269194722176,-0.038399554789066315,-0.020371343940496445,0.019822226837277412,0.04067165032029152,-0.017792342230677605,-0.092984639108181,-0.24594184756278992,0.0,0.0,0.0,0.03218632563948631,-0.018995651975274086,-0.0,0.0,0.0,0.0,0.001026470330543816,-0.0013298545964062214,0.00106492277700454,29029.0,16647.0,34380.0,15001.0,0.11105254292488098,0.05540240928530693,0.1389087289571762,0.048934515565633774,0.0,0.0,0.0,0.0,27475.0,18173.0,33244.0,16922.0,0.3515021800994873,-0.038517843886155846,0.015236317587095673,0.03959713318626233,0.07723557204008102,0.08726419508457184,0.12462470680475235
85,6,-0.000547477335203439,0.00017709904932416975,0.00042684233631007373,-0.027449794113636017,-0.0007173381745815277,2.957315336971078e-05,-0.020371343940496445,0.019822226837277412,0.04067165032029152,-0.017792342230677605,-0.092984639108181,-0.24594184756278992,0.0,0.0,0.0,0.0014749160036444664,-0.02786390855908394,-0.0,0.0,0.0,0.0,0.001026470330543816,-0.0013298545964062214,0.00106492277700454,29029.0,16647.0,34380.0,15001.0,0.11105254292488098,0.05540240928530693,0.1389087289571762,0.048934515565633774,0.0,0.0,0.0,0.0,27475.0,18173.0,33244.0,16922.0,0.35139352083206177,-0.04059301659381276,0.024796239303949762,0.03838505398493637,0.11330924928188324,0.003999039530754089,0.008731295354664326
90,5,-0.0006884815520606935,0.00034315348602831364,0.0002821599773596972,-0.027975531294941902,-0.023462824523448944,0.0202644020318985,-0.020371343940496445,0.019822226837277412,0.04067165032029152,-0.017792342230677605,-0.092984639108181,-0.24594184756278992,0.0,0.0,0.0,0.035411033779382706,-0.028627483174204826,-0.0,0.0,0.0,0.0,0.001026470330543816,-0.0013298545964062214,0.00106492277700454,29029.0,16647.0,34380.0,15001.0,0.11105254292488098,0.05540240928530693,0.1389087289571762,0.048934515565633774,0.0,0.0,0.0,0.0,27475.0,18173.0,33244.0,16922.0,0.351621150970459,-0.041011634308211364,0.021656791069856744,0.038971845229835184,0.11641740053892136,0.09603290259838104,-0.05270029604434967
95,5,-0.0006453029345721006,0.00021853639918845147,0.0003445862093940377,-0.002347655361518264,0.010407545603811741,-0.002660354133695364,-0.02089805342257023,0.02078409306704998,0.03870459273457527,-0.02810460515320301,-0.0671229362487793,-0.026732677593827248,0.0,0.0,0.0,-0.01490616612136364,-0.0034052859991788864,-0.0,0.0,0.0,0.0,-0.00042924348963424563,-0.0016151841264218092,0.0009187406394630671,29814.0,19326.0,32661.0,12986.0,0.11499356478452682,0.06640087813138962,0.1297079622745514,0.04130857437849045,0.0,0.0,0.0,0.0,30617.0,18021.0,33880.0,11572.0,0.3490445017814636,-0.0461872163546544,0.009786777942360875,0.03756767032590915,0.013755347579717636,-0.040142811834812164,0.01757231168448925
100,5,-0.0007557071512565017,2.4378099624300376e-05,0.0004972463939338923,-0.016160884872078896,0.030304426327347755,-0.022170528769493103,-0.02089805342257023,0.02078409306704998,0.03870459273457527,-0.02810460515320301,-0.0671229362487793,-0.026732677593827248,0.0,0.0,0.0,-0.04485497623682022,-0.017283255234360695,-0.0,0.0,0.0,0.0,-0.00042924348963424563,-0.0016151841264218092,0.0009187406394630671,29814.0,19326.0,32661.0,12986.0,0.11499356478452682,0.06640087813138962,0.1297079622745514,0.04130857437849045,0.0,0.0,0.0,0.0,30617.0,18021.0,33880.0,11572.0,0.34940728545188904,-0.05824685715782787,0.013956604268264068,0.03915184503852526,0.06982235610485077,-0.12084531038999557,0.07941210269927979
105,5,-0.0007715063402429223,3.9666872908128425e-05,0.0004156510694883764,-0.007060148287564516,0.006950899492949247,0.004772183485329151,-0.020794354379177094,0.021552706137299538,0.03666611388325691,-0.030105972662568092,-0.021090572699904442,-0.09815097600221634,0.0,0.0,0.0,-0.010217908769845963,-0.008398869074881077,-0.0,0.0,0.0,0.0,0.001889329869300127,-0.0015302508836612105,0.0010936647886410356,28219.0,14163.0,36207.0,15224.0,0.10703399777412415,0.045723285526037216,0.14894859492778778,0.049796056002378464,0.0,0.0,0.0,0.0,28279.0,14417.0,36033.0,15147.0,0.34669917821884155,-0.05584330561874578,0.01138286126031114,0.039559759830264156,0.03370017185807228,-0.027333414182066917,-0.0011150105856359005
110,5,-0.0008177835843525827,2.05295727084831e-08,0.000387427891837433,-0.008596857078373432,0.00763575779274106,0.005382901057600975,-0.020794354379177094,0.021552706137299538,0.03666611388325691,-0.030105972662568092,-0.021090572699904442,-0.09815097600221634,0.0,0.0,0.0,-0.011327249929308891,-0.010044918395578861,-0.0,0.0,0.0,0.0,0.001889329869300127,-0.0015302508836612105,0.0010936647886410356,28219.0,14163.0,36207.0,15224.0,0.10703399777412415,0.045723285526037216,0.14894859492778778,0.049796056002378464,0.0,0.0,0.0,0.0,28279.0,14417.0,36033.0,15147.0,0.34670859575271606,-0.061784607106934133,0.01609490950611258,0.03783959922469591,0.040306929498910904,-0.030301522463560104,-0.0021457516122609377
115,5,-0.000816208659671247,8.588776108808815e-05,0.00040736995288170874,-0.0023585695307701826,-0.009730684570968151,-0.001177016762085259,-0.02028452418744564,0.021485628560185432,0.036038752645254135,0.032368071377277374,0.00859338603913784,-0.032683808356523514,0.0,0.0,0.0,0.014864195138216019,-0.003882420714944601,-0.0,0.0,0.0,0.0,0.0016611909959465265,-0.001635578228160739,0.001095484127290547,28672.0,14224.0,36373.0,14372.0,0.10927538573741913,0.04595362767577171,0.14987397193908691,0.04651821777224541,0.0,0.0,0.0,0.0,31290.0,17951.0,33091.0,11021.0,0.3459911048412323,-0.05628077206423293,0.012296009170099874,0.03716880764285028,0.015545501373708248,0.0396796278655529,0.01902497187256813
120,5,-0.0008407699060626328,6.505654891952872e-05,0.0004876392486039549,-0.004146148916333914,-2.835957275237888e-06,-0.011590808629989624,-0.02028452418744564,0.021485628560185432,0.036038752645254135,0.032368071377277374,0.00859338603913784,-0.032683808356523514,0.0,0.0,0.0,0.014871849678456783,-0.0039309351705014706,-0.0,0.0,0.0,0.0,0.0016611909959465265,-0.001635578228160739,0.001095484127290547,28672.0,14224.0,36373.0,14372.0,0.10927538573741913,0.04595362767577171,0.14987397193908691,0.04651821777224541,0.0,0.0,0.0,0.0,31290.0,17951.0,33091.0,11021.0,0.34599122405052185,-0.053248031878549956,0.01544749650048577,0.03908604361344862,0.02303912676870823,0.0006638159393332899,0.05269450321793556
125,5,-0.0007761615561321378,4.093200004717801e-06,0.0003449282085057348,0.007801325060427189,0.008534017950296402,0.01650230400264263,-0.020388014614582062,0.021120212972164154,0.035055845975875854,-0.013474399223923683,0.05954369530081749,-0.10877847671508789,0.0,0.0,0.0,-0.012715640477836132,0.006247709505259991,-0.0,0.0,0.0,0.0,-0.0007129574078135192,-0.0009020997676998377,0.0009976947912946343,31404.0,17890.0,31835.0,12759.0,0.12313130497932434,0.06043187901377678,0.12537220120429993,0.040472012013196945,0.0,0.0,0.0,0.0,30692.0,15232.0,33179.0,13962.0,0.3448590934276581,-0.06162944447507496,0.01143690168862386,0.028921790093472347,-0.024933530017733574,-0.03383374959230423,-0.03224533423781395
130,5,-0.0008563909796066582,0.00014594422827940434,0.00039282406214624643,-0.008891718462109566,-0.01729893870651722,-0.001754729077219963,-0.020388014614582062,0.021120212972164154,0.035055845975875854,-0.013474399223923683,0.05954369530081749,-0.10877847671508789,0.0,0.0,0.0,0.026116661727428436,-0.010527914389967918,-0.0,0.0,0.0,0.0,-0.0007129574078135192,-0.0009020997676998377,0.0009976947912946343,31404.0,17890.0,31835.0,12759.0,0.12313130497932434,0.06043187901377678,0.12537220120429993,0.040472012013196945,0.0,0.0,0.0,0.0,30692.0,15232.0,33179.0,13962.0,0.3449612259864807,-0.05361520628402885,0.012498949776741434,0.03734907039303471,0.04250180348753929,0.07035042345523834,0.024254314601421356
135,5,-0.0007066031103022397,0.00041473587043583393,-2.841927084773488e-07,0.018302787095308304,-0.042820513248443604,0.05450873821973801,-0.020263390615582466,0.020356254652142525,0.03464829921722412,0.009453481994569302,0.06052793562412262,-0.07448256760835648,0.0,0.0,0.0,0.06291745603084564,0.016145789995789528,-0.0,0.0,0.0,0.0,0.0007346663624048233,-0.00039555173134431243,0.0010257611284032464,31092.0,14917.0,33287.0,13586.0,0.1215212270617485,0.0486084446310997,0.13303440809249878,0.04354464262723923,0.0,0.0,0.0,0.0,30289.0,14409.0,32639.0,15865.0,0.35908952355384827,-0.04217035070274212,0.018177913951815027,0.038579311218025276,-0.06696829944849014,0.17408587038516998,-0.14926406741142273
141,5,-0.0009354397188872099,0.0001651082857279107,0.0002011010074056685,-0.026546292006969452,0.022101709619164467,-0.01184130646288395,-0.020263390615582466,0.020356254652142525,0.03464829921722412,0.009453481994569302,0.06052793562412262,-0.07448256760835648,0.0,0.0,0.0,-0.03231517970561981,-0.028232835233211517,-0.0,0.0,0.0,0.0,0.0007346663624048233,-0.00039555173134431243,0.0010257611284032464,31092.0,14917.0,33287.0,13586.0,0.1215212270617485,0.0486084446310997,0.13303440809249878,0.04354464262723923,0.0,0.0,0.0,0.0,30289.0,14409.0,32639.0,15865.0,0.34903207421302795,-0.05807764463514633,0.018351071239282302,0.03984676554363419,0.1139800176024437,-0.08699727803468704,0.052816011011600494
146,5,-0.0008437571814283729,0.0002642501494847238,0.00022213970078155398,0.004871665500104427,-0.007249350193887949,-0.006497809663414955,-0.020263390615582466,0.020356254652142525,0.03464829921722412,0.009453481994569302,0.06052793562412262,-0.07448256760835648,0.0,0.0,0.0,0.011682519689202309,0.003014802932739258,-0.0,0.0,0.0,0.0,0.0007346663624048233,-0.00039555173134431243,0.0010257611284032464,31092.0,14917.0,33287.0,13586.0,0.1215212270617485,0.0486084446310997,0.13303440809249878,0.04354464262723923,0.0,0.0,0.0,0.0,30289.0,14409.0,32639.0,15865.0,0.34438276290893555,-0.05511433404120348,0.016510852928521554,0.0375643413419249,-0.012015899643301964,0.03104216791689396,0.037710484117269516
151,5,-0.0008448816370218992,0.0004757204733323306,0.0002617153513710946,0.0013040793128311634,-0.03178064525127411,-0.007489932235330343,-0.02030196599662304,0.01898721419274807,0.03365035355091095,-0.00776886148378253,0.16267606616020203,-0.05179901421070099,0.0,0.0,0.0,0.04888615012168884,-0.0006159145850688219,-0.0,0.0,0.0,0.0,0.002732005435973406,0.000607832393143326,0.0010924002854153514,30547.0,14058.0,33103.0,15238.0,0.11872151494026184,0.0453268326818943,0.13205552101135254,0.04985225573182106,0.0,0.0,0.0,0.0,30304.0,9365.0,35258.0,20051.0,0.3462556302547455,-0.0507795090555239,0.01809408185929593,0.034460250135786546,0.0024670728016644716,0.13050149381160736,0.041959989815950394
156,5,-0.0009319562814198434,0.0004300284490454942,0.0003098211018368602,-0.011799225583672523,-0.0031373139936476946,-0.008981787599623203,-0.02030196599662304,0.01898721419274807,0.03365035355091095,-0.00776886148378253,0.16267606616020203,-0.05179901421070099,0.0,0.0,0.0,0.005953876301646233,-0.013997547328472137,-0.0,0.0,0.0,0.0,0.002732005435973406,0.000607832393143326,0.0010924002854153514,30547.0,14058.0,33103.0,15238.0,0.11872151494026184,0.0453268326818943,0.13205552101135254,0.04985225573182106,0.0,0.0,0.0,0.0,30304.0,9365.0,35258.0,20051.0,0.34325435757637024,-0.04913468151348942,0.02329097479534601,0.03401982290526938,0.055609241127967834,0.01576990820467472,0.047957781702280045
161,5,-0.0007793899858370423,0.0005725949304178357,0.00015703539247624576,0.017819514498114586,-0.020900500938296318,0.018695464357733727,-0.020201463252305984,0.017753513529896736,0.033365607261657715,0.007162636145949364,0.1603468954563141,-0.06580711156129837,0.0,0.0,0.0,0.03316948562860489,0.016012856736779213,-0.0,0.0,0.0,0.0,0.0011929540196433663,0.00043241438106633723,0.001089894911274314,31582.0,10863.0,32887.0,16743.0,0.12405508756637573,0.033630385994911194,0.13090793788433075,0.05578935146331787,0.0,0.0,0.0,0.0,30069.0,9594.0,34683.0,20878.0,0.343121200799942,-0.03766380751212043,0.02437208537695598,0.036604430510478875,-0.06355433166027069,0.08778355270624161,-0.03642844408750534
166,5,-0.0009247636771760881,0.00042309670243412256,0.0003151877026539296,-0.015006465837359428,0.01465960405766964,-0.01653268188238144,-0.020201463252305984,0.017753513529896736,0.033365607261657715,0.007162636145949364,0.1603468954563141,-0.06580711156129837,0.0,0.0,0.0,-0.020866399630904198,-0.0173358041793108,-0.0,0.0,0.0,0.0,0.0011929540196433663,0.00043241438106633723,0.001089894911274314,31582.0,10863.0,32887.0,16743.0,0.12405508756637573,0.033630385994911194,0.13090793788433075,0.05578935146331787,0.0,0.0,0.0,0.0,30069.0,9594.0,34683.0,20878.0,0.3430147171020508,-0.04797310468647499,0.022039710260368297,0.03514454633104753,0.06880790740251541,-0.055218178778886795,0.07210336625576019
171,5,-0.0008408682188019156,0.0004764289187733084,0.00025564018869772553,0.007243427913635969,-0.003068629652261734,0.0033768441062420607,-0.020375842228531837,0.015565349720418453,0.03276479244232178,-0.026979533955454826,0.21536614000797272,-0.007145246956497431,0.0,0.0,0.0,0.006103577092289925,0.005169118754565716,-0.0,0.0,0.0,0.0,0.0010880233021453023,-4.800444730790332e-05,0.0010784255573526025,30259.0,12847.0,33427.0,15642.0,0.11725093424320221,0.04079679027199745,0.13377819955348969,0.051428500562906265,0.0,0.0,0.0,0.0,31355.0,11122.0,33434.0,16077.0,0.3422113060951233,-0.04890588582412836,0.0191369687847473,0.0340971203025088,-0.020473264157772064,0.016116401180624962,0.012425649911165237
176,5,-0.0009620354394428432,0.0003109569370280951,0.0003255491319578141,-0.014790387824177742,0.022245489060878754,-0.008774197660386562,-0.020375842228531837,0.015565349720418453,0.03276479244232178,-0.026979533955454826,0.21536614000797272,-0.007145246956497431,0.0,0.0,0.0,-0.032568395137786865,-0.01731560193002224,-0.0,0.0,0.0,0.0,0.0010880233021453023,-4.800444730790332e-05,0.0010784255573526025,30259.0,12847.0,33427.0,15642.0,0.11725093424320221,0.04079679027199745,0.13377819955348969,0.051428500562906265,0.0,0.0,0.0,0.0,31355.0,11122.0,33434.0,16077.0,0.34243324398994446,-0.04137653345145608,0.029965597171895664,0.03596135869559542,0.06858792901039124,-0.08602113276720047,0.05068504437804222
181,5,-0.0008415980264544487,0.00043662721873261034,0.00023342484200838953,0.012424122542142868,-0.01092019584029913,0.010265141725540161,-0.022192293778061867,0.011526658199727535,0.03198030963540077,-0.0824103131890297,0.22032667696475983,-0.013981356285512447,0.0,0.0,0.0,0.018024977296590805,0.01031605526804924,-0.0,0.0,0.0,0.0,0.00043346104212105274,7.257951074279845e-05,0.0011010256130248308,31886.0,12892.0,32578.0,14535.0,0.12564155459403992,0.04096328839659691,0.12927016615867615,0.0471397303044796,0.0,0.0,0.0,0.0,30570.0,11820.0,33063.0,16678.0,0.3413754403591156,-0.04359583764177055,0.02302216841090332,0.03590809516756665,-0.04075246676802635,0.04747362062335014,-0.006799801718443632
186,5,-0.0008116924436762929,0.0005567182670347393,0.0001720037398627028,0.00791401881724596,-0.020088806748390198,0.011678497307002544,-0.022192293778061867,0.011526658199727535,0.03198030963540077,-0.0824103131890297,0.22032667696475983,-0.013981356285512447,0.0,0.0,0.0,0.032259903848171234,0.005745040252804756,-0.0,0.0,0.0,0.0,0.00043346104212105274,7.257951074279845e-05,0.0011010256130248308,31886.0,12892.0,32578.0,14535.0,0.12564155459403992,0.04096328839659691,0.12927016615867615,0.0471397303044796,0.0,0.0,0.0,0.0,30570.0,11820.0,33063.0,16678.0,0.3414851129055023,-0.03725430982564034,0.028819770421934315,0.035850904428682405,-0.022692987695336342,0.08497213572263718,-0.011275652796030045
191,5,-0.0008498067618347704,0.00035175372613593936,0.00024128360382746905,-0.0029618011321872473,0.022668398916721344,-0.006195631343871355,-0.022406134754419327,0.009777690283954144,0.03160106763243675,0.008680722676217556,0.25082436203956604,-0.04830382764339447,0.0,0.0,0.0,-0.033129945397377014,-0.005382957402616739,-0.0,0.0,0.0,0.0,-0.00023453705944120884,0.0001135877610067837,0.001065396936610341,32258.0,14368.0,31364.0,14082.0,0.1275891810655594,0.04650408402085304,0.12292338907718658,0.04541662707924843,0.0,0.0,0.0,0.0,31749.0,13672.0,32308.0,14334.0,0.34105953574180603,-0.04358874601138439,0.024601730468841173,0.03607249172938352,0.02123718336224556,-0.08715145289897919,0.043914005160331726
196,5,-0.0007460558554157615,0.00016527909610886127,0.0002126303588738665,0.013636586256325245,0.032906968146562576,0.0021527644712477922,-0.022406134754419327,0.009777690283954144,0.03160106763243675,0.008680722676217556,0.25082436203956604,-0.04830382764339447,0.0,0.0,0.0,-0.04817519709467888,0.011339598335325718,-0.0,0.0,0.0,0.0,-0.00023453705944120884,0.0001135877610067837,0.001065396936610341,32258.0,14368.0,31364.0,14082.0,0.1275891810655594,0.04650408402085304,0.12292338907718658,0.04541662707924843,0.0,0.0,0.0,0.0,31749.0,13672.0,32308.0,14334.0,0.3477010428905487,-0.046980083829720146,0.023537004073486613,0.032768774150352925,-0.04558022320270538,-0.1291426420211792,0.019144058227539062
201,5,-0.000795530213508755,0.0003070250677410513,0.0001654585066717118,-0.0028354295063763857,-0.009972347877919674,0.007249888963997364,-0.022373532876372337,0.007192108314484358,0.03098803199827671,-0.04277419671416283,0.18954046070575714,-0.039781879633665085,0.0,0.0,0.0,0.016483593732118607,-0.005281577818095684,-0.0,0.0,0.0,0.0,0.0018301907693967223,0.0009314534836448729,0.0010753493988886476,30618.0,9450.0,33158.0,18109.0,0.11908559501171112,0.028719663619995117,0.1323460340499878,0.061334118247032166,0.0,0.0,0.0,0.0,32192.0,14644.0,31444.0,13786.0,0.3402162492275238,-0.04018966857018278,0.027664378046444307,0.035848310234502835,0.020795874297618866,0.043267976492643356,0.003823166014626622
206,5,-0.000861946668010205,0.0003839530691038817,0.00030942176817916334,-0.01014893501996994,-0.013761624693870544,-0.01797988824546337,-0.022373532876372337,0.007192108314484358,0.03098803199827671,-0.04277419671416283,0.18954046070575714,-0.039781879633665085,0.0,0.0,0.0,0.022460129112005234,-0.012861821800470352,-0.0,0.0,0.0,0.0,0.0018301907693967223,0.0009314534836448729,0.0010753493988886476,30618.0,9450.0,33158.0,18109.0,0.11908559501171112,0.028719663619995117,0.1323460340499878,0.061334118247032166,0.0,0.0,0.0,0.0,32192.0,14644.0,31444.0,13786.0,0.3402792513370514,-0.04211485479435735,0.033816541863346906,0.03214563811151502,0.050642769783735275,0.05896187201142311,0.08218379318714142
212,5,-0.0006511377869173884,0.00039837227086536586,6.701859820168465e-05,0.026468563824892044,-0.006147171836346388,0.028542475774884224,-0.02302803285419941,0.005541957449167967,0.030651139095425606,-0.0827246829867363,0.144838348031044,-0.0544675774872303,0.0,0.0,0.0,0.010936494916677475,0.02463189698755741,-0.0,0.0,0.0,0.0,0.002132496563717723,0.0009190782438963652,0.0010757747804746032,33806.0,13792.0,30405.0,15163.0,0.1358094960451126,0.044319216161966324,0.11799663305282593,0.04955955222249031,0.0,0.0,0.0,0.0,30600.0,8844.0,33268.0,18488.0,0.3399028182029724,-0.03340452029121331,0.031098753925960645,0.03858439100787949,-0.09688647836446762,0.028682811185717583,-0.06010926142334938
217,5,-0.0006604433292523026,0.0004028752737212926,0.00012856762623414397,0.006637797690927982,-0.00247457274235785,-5.412106474977918e-05,-0.02302803285419941,0.005541957449167967,0.030651139095425606,-0.0827246829867363,0.144838348031044,-0.0544675774872303,0.0,0.0,0.0,0.005384958814829588,0.00441077770665288,-0.0,0.0,0.0,0.0,0.002132496563717723,0.0009190782438963652,0.0010757747804746032,33806.0,13792.0,30405.0,15163.0,0.1358094960451126,0.044319216161966324,0.11799663305282593,0.04955955222249031,0.0,0.0,0.0,0.0,30600.0,8844.0,33268.0,18488.0,0.33978763222694397,-0.033367969542576176,0.03208877413108822,0.038183118972787124,-0.017344757914543152,0.014119044877588749,0.026816274970769882
222,5,-0.0002418602234683931,0.0004734662070404738,0.0003470591618679464,0.06059297174215317,-0.010625104419887066,-0.030605049803853035,-0.023842213675379753,0.003552383044734597,0.029951514676213264,-0.03054526075720787,0.14491423964500427,-0.053011488169431686,0.0,0.0,0.0,0.016508296132087708,0.05489581078290939,-0.0,0.0,0.0,0.0,-0.0005839667865075171,0.0012022386072203517,0.0010544114047661424,30129.0,10650.0,33183.0,17374.0,0.11658982932567596,0.0328802652657032,0.13247765600681305,0.058331895619630814,0.0,0.0,0.0,0.0,29968.0,11380.0,33136.0,16998.0,0.37091630697250366,-0.023690548296955924,0.004611779371846993,0.039697797184829915,-0.2355179637670517,0.04724235460162163,0.12214081734418869
227,5,-0.0002483241551090032,0.0005155238322913647,-4.911487121717073e-05,0.017272939905524254,-0.00907560158520937,0.046282850205898285,-0.023842213675379753,0.003552383044734597,0.029951514676213264,-0.03054526075720787,0.14491423964500427,-0.053011488169431686,0.0,0.0,0.0,0.0158292967826128,0.01583406887948513,-0.0,0.0,0.0,0.0,-0.0005839667865075171,0.0012022386072203517,0.0010544114047661424,30129.0,10650.0,33183.0,17374.0,0.11658982932567596,0.0328802652657032,0.13247765600681305,0.058331895619630814,0.0,0.0,0.0,0.0,29968.0,11380.0,33136.0,16998.0,0.3391185998916626,-0.02545076203693613,0.020440393248087756,0.04149068437112963,-0.06213807687163353,0.041416168212890625,-0.11339206993579865
232,5,-0.000590697571169585,0.00046748440945520997,0.0003117135784123093,-0.042750392109155655,0.004002843983471394,-0.036631129682064056,-0.023842213675379753,0.003552383044734597,0.029951514676213264,-0.03054526075720787,0.14491423964500427,-0.053011488169431686,0.0,0.0,0.0,-0.004000769928097725,-0.04355951398611069,-0.0,0.0,0.0,0.0,-0.0005839667865075171,0.0012022386072203517,0.0010544114047661424,30129.0,10650.0,33183.0,17374.0,0.11658982932567596,0.0328802652657032,0.13247765600681305,0.058331895619630814,0.0,0.0,0.0,0.0,29968.0,11380.0,33136.0,16998.0,0.3573135435581207,-0.03516485455674872,0.03522307659915292,0.03993381895563605,0.1800851672887802,-0.011030256748199463,0.14058591425418854
237,5,-0.0007869860855862498,0.0002667437947820872,0.0007141396636143327,-0.04030551761388779,0.029304537922143936,-0.06732898950576782,-0.023752717301249504,0.0020285528153181076,0.029512790963053703,-0.0037144909147173166,0.1612853854894638,-0.027370868250727654,0.0,0.0,0.0,-0.04046109691262245,-0.0408729650080204,-0.0,0.0,0.0,0.0,0.0016127272974699736,0.0002924934378825128,0.0010585328564047813,30313.0,10657.0,33169.0,17155.0,0.11752644181251526,0.03290337324142456,0.13240644335746765,0.05744338035583496,0.0,0.0,0.0,0.0,31407.0,11301.0,32562.0,15856.0,0.3632034957408905,-0.03937368105720323,0.05309155813291179,0.04140707574123469,0.1716310679912567,-0.11332674324512482,0.23971237242221832
242,5,-0.0007950940052978694,0.0002714431320782751,0.0007328344509005547,-0.013226755894720554,0.008133451454341412,-0.022815972566604614,-0.023752717301249504,0.0020285528153181076,0.029512790963053703,-0.0037144909147173166,0.1612853854894638,-0.027370868250727654,0.0,0.0,0.0,-0.010911435820162296,-0.016195908188819885,-0.0,0.0,0.0,0.0,0.0016127272974699736,0.0002924934378825128,0.0010585328564047813,30313.0,10657.0,33169.0,17155.0,0.11752644181251526,0.03290337324142456,0.13240644335746765,0.05744338035583496,0.0,0.0,0.0,0.0,31407.0,11301.0,32562.0,15856.0,0.3390982449054718,-0.039262833185360904,0.0541346181375953,0.04156792889869361,0.06355830281972885,-0.02854856476187706,0.10865066200494766
247,5,-0.0009603254147805274,-5.770374264102429e-05,0.00042874488281086087,-0.027100425213575363,0.04852059856057167,0.03572775050997734,-0.023405224084854126,0.0005700584151782095,0.029183922335505486,0.020338645204901695,0.12444711476564407,-0.025460869073867798,0.0,0.0,0.0,-0.06767706573009491,-0.028289590030908585,-0.0,0.0,0.0,0.0,0.0009486693888902664,0.00039254044531844556,0.0010873308638110757,31284.0,11410.0,32474.0,16037.0,0.12251187860965729,0.03557410463690758,0.12872199714183807,0.052979644387960434,0.0,0.0,0.0,0.0,30343.0,15847.0,35524.0,13236.0,0.3682522773742676,-0.06217843279603748,0.042825103721768676,0.04736027440149094,0.12028515338897705,-0.19199137389659882,-0.06879060715436935
252,5,-0.0007819005404599011,0.0003367282042745501,0.0007117108907550573,0.016849352046847343,-0.04066429287195206,-0.028896912932395935,-0.023405224084854126,0.0005700584151782095,0.029183922335505486,0.020338645204901695,0.12444711476564407,-0.025460869073867798,0.0,0.0,0.0,0.06078276410698891,0.013672826811671257,-0.0,0.0,0.0,0.0,0.0009486693888902664,0.00039254044531844556,0.0010873308638110757,31284.0,11410.0,32474.0,16037.0,0.12251187860965729,0.03557410463690758,0.12872199714183807,0.052979644387960434,0.0,0.0,0.0,0.0,30343.0,15847.0,35524.0,13236.0,0.3567548096179962,-0.034745185366002365,0.050076784573855365,0.042277398701401875,-0.056348979473114014,0.1671021580696106,0.13066041469573975
257,5,-0.0008445218554697931,0.0002992673544213176,0.0007921968353912234,-0.0037121782079339027,-0.006954771000891924,-0.01993710547685623,-0.02328748069703579,0.0004899479681625962,0.029087195172905922,0.03462362661957741,0.011956647038459778,-0.04354313015937805,0.0,0.0,0.0,0.012278755195438862,-0.00674480851739645,-0.0,0.0,0.0,0.0,0.0006450869259424508,-0.0019086500396952033,0.0011146983597427607,29823.0,16731.0,35640.0,12830.0,0.11503971368074417,0.05573848634958267,0.1458040475845337,0.04073181003332138,0.0,0.0,0.0,0.0,28545.0,16872.0,31418.0,15518.0,0.33906686305999756,-0.03709783556009327,0.052043771520423436,0.0420186976021722,0.02646871842443943,0.032123271375894547,0.1072184145450592
262,5,-0.000858489191159606,0.00029449956491589546,0.0007745985640212893,-0.003069079015403986,-0.0014189410721883178,-0.003517377423122525,-0.02328748069703579,0.0004899479681625962,0.029087195172905922,0.03462362661957741,0.011956647038459778,-0.04354313015937805,0.0,0.0,0.0,0.003838947508484125,-0.006176935974508524,-0.0,0.0,0.0,0.0,0.0006450869259424508,-0.0019086500396952033,0.0011146983597427607,29823.0,16731.0,35640.0,12830.0,0.11503971368074417,0.05573848634958267,0.1458040475845337,0.04073181003332138,0.0,0.0,0.0,0.0,28545.0,16872.0,31418.0,15518.0,0.3390425741672516,-0.03604555947358118,0.05017818288503007,0.04109085595010097,0.024238605052232742,0.01004290021955967,0.06072452664375305
267,5,-0.0008674641721881926,0.0003092133265454322,0.0007743770256638527,-0.0021772212348878384,-0.002485609380528331,-0.001024195458739996,-0.022811856120824814,0.0011469933670014143,0.028913114219903946,0.074704110622406,-0.07275917381048203,-0.010218273848295212,0.0,0.0,0.0,0.005536783020943403,-0.00534588610753417,-0.0,0.0,0.0,0.0,0.00029261692543514073,-0.001282865065149963,0.0008886440773494542,28586.0,17169.0,31956.0,14431.0,0.10884515941143036,0.05750167369842529,0.1260061115026474,0.046745359897613525,0.0,0.0,0.0,0.0,27150.0,13756.0,34185.0,20849.0,0.33904364705085754,-0.03613056112606407,0.04783188214571875,0.0404578829873606,0.02097919210791588,0.014485116116702557,0.05610765516757965
272,5,-0.0010614624479785562,5.40411529073026e-05,0.0004379271122161299,-0.027812927961349487,0.03497842326760292,0.04679572954773903,-0.022811856120824814,0.0011469933670014143,0.028913114219903946,0.074704110622406,-0.07275917381048203,-0.010218273848295212,0.0,0.0,0.0,-0.04948008432984352,-0.030138516798615456,-0.0,0.0,0.0,0.0,0.00029261692543514073,-0.001282865065149963,0.0008886440773494542,28586.0,17169.0,31956.0,14431.0,0.10884515941143036,0.05750167369842529,0.1260061115026474,0.046745359897613525,0.0,0.0,0.0,0.0,27150.0,13756.0,34185.0,20849.0,0.35865578055381775,-0.054961185904711496,0.036318792954933045,0.04351953346041472,0.12493834644556046,-0.13681340217590332,-0.0896085724234581
278,5,-0.0010149339213967323,0.00012093908298993483,0.0003405501483939588,-0.0018298743525519967,0.001127817202359438,0.027671491727232933,-0.022337084636092186,0.0022967651020735502,0.02906068041920662,0.1243288666009903,-0.11988689750432968,0.019958755001425743,0.0,0.0,0.0,-0.0003807275206781924,-0.005347981583327055,-0.0,0.0,0.0,0.0,0.0006347176386043429,-0.0017647641943767667,0.0008828327991068363,27631.0,13415.0,35549.0,18848.0,0.10415036976337433,0.042905766516923904,0.1453053504228592,0.06439487636089325,0.0,0.0,0.0,0.0,27378.0,17147.0,32141.0,15722.0,0.3390384614467621,-0.0508976216573383,0.03037677123874605,0.04290114073996774,0.02098567970097065,-0.0009959974559023976,-0.032368142157793045
283,5,-0.001025776844471693,0.00013797810242976993,0.00031368908821605146,-0.0020669822115451097,-0.0020471184980124235,0.012061996385455132,-0.022337084636092186,0.0022967651020735502,0.02906068041920662,0.1243288666009903,-0.11988689750432968,0.019958755001425743,0.0,0.0,0.0,0.004526440519839525,-0.005681793205440044,-0.0,0.0,0.0,0.0,0.0006347176386043429,-0.0017647641943767667,0.0008828327991068363,27631.0,13415.0,35549.0,18848.0,0.10415036976337433,0.042905766516923904,0.1453053504228592,0.06439487636089325,0.0,0.0,0.0,0.0,27378.0,17147.0,32141.0,15722.0,0.3390425443649292,-0.04968784711948044,0.026810384164935863,0.04113822342938401,0.022295596078038216,0.011841395869851112,0.015298422425985336
288,5,-0.0011051009641960263,0.00014338783512357622,0.0002820286026690155,-0.011725462041795254,-0.001371497637592256,0.00805106945335865,-0.02106289193034172,0.004587545525282621,0.029040521010756493,0.17743124067783356,-0.195364311337471,0.02176845073699951,0.0,0.0,0.0,0.003521054284647107,-0.015724852681159973,-0.0,0.0,0.0,0.0,-0.0012700734660029411,-0.002661952516064048,0.0009332953486591578,27798.0,17228.0,33084.0,13810.0,0.10496660321950912,0.05773810297250748,0.1319497525691986,0.044388167560100555,0.0,0.0,0.0,0.0,27482.0,17738.0,32264.0,14807.0,0.3390776216983795,-0.050766387741985115,0.023605896154204126,0.03875037336348212,0.061711616814136505,0.009212520904839039,0.028022414073348045
293,5,-0.0008873381884768605,0.00028374241082929075,8.579338464187458e-05,0.026969142258167267,-0.02006109058856964,0.029888249933719635,-0.02106289193034172,0.004587545525282621,0.029040521010756493,0.17743124067783356,-0.195364311337471,0.02176845073699951,0.0,0.0,0.0,0.031864386051893234,0.02354888804256916,-0.0,0.0,0.0,0.0,-0.0012700734660029411,-0.002661952516064048,0.0009332953486591578,27798.0,17228.0,33084.0,13810.0,0.10496660321950912,0.05773810297250748,0.1319497525691986,0.044388167560100555,0.0,0.0,0.0,0.0,27482.0,17738.0,32264.0,14807.0,0.3452526926994324,-0.03941080181569829,0.015265764484891307,0.040609647590095006,-0.09404271841049194,0.08485659956932068,-0.039384860545396805
298,5,-0.0008577078697271645,0.00036721458309330046,-3.0345277082233224e-06,0.01223899144679308,-0.017704429104924202,0.021402383223176003,-0.0198403000831604,0.006219574715942144,0.0291792843490839,0.17171889543533325,-0.2247723489999771,0.032953593879938126,0.0,0.0,0.0,0.029046960175037384,0.008941431529819965,-0.0,0.0,0.0,0.0,0.00034218249493278563,-0.0019033494172617793,0.000914204225409776,27963.0,17774.0,33179.0,12864.0,0.10577310621738434,0.05995723232626915,0.13245515525341034,0.040857162326574326,0.0,0.0,0.0,0.0,29624.0,22990.0,32316.0,11073.0,0.3391902446746826,-0.03304655105088211,0.014668815792338488,0.038689788447560845,-0.03508539870381355,0.07600011676549911,-0.015009037218987942
303,5,-0.0012035995023325086,0.0003380740818101913,8.776736649451777e-05,-0.04475313425064087,-0.0012316597858443856,-0.006291550118476152,-0.0198403000831604,0.006219574715942144,0.0291792843490839,0.17171889543533325,-0.2247723489999771,0.032953593879938126,0.0,0.0,0.0,0.0036073895171284676,-0.046773217618465424,-0.0,0.0,0.0,0.0,0.00034218249493278563,-0.0019033494172617793,0.000914204225409776,27963.0,17774.0,33179.0,12864.0,0.10577310621738434,0.05995723232626915,0.13245515525341034,0.040857162326574326,0.0,0.0,0.0,0.0,29624.0,22990.0,32316.0,11073.0,0.360724538564682,-0.03625294455671922,0.02252460853897646,0.039378453328153866,0.1952102929353714,0.010041308589279652,0.06942825764417648
308,5,-0.001100748311728239,0.0003674598701763898,6.783418939448893e-05,0.0009732238831929862,-0.004483506549149752,0.0009031792287714779,-0.0164425540715456,0.01064991857856512,0.029027828946709633,0.19922906160354614,-0.20294660329818726,-0.059956252574920654,0.0,0.0,0.0,0.008909516036510468,-0.003053204156458378,-0.0,0.0,0.0,0.0,0.0011944662546738982,-0.0010442397324368358,0.0008798695052973926,28007.0,15951.0,32929.0,16664.0,0.1059892475605011,0.05264131352305412,0.13113068044185638,0.05547234043478966,0.0,0.0,0.0,0.0,27163.0,18626.0,32285.0,14227.0,0.3390486240386963,-0.04099791515402697,0.013149223078503157,0.0373273895941017,0.011980810202658176,0.02330767549574375,0.04781126603484154
313,5,-0.001075522042810917,0.00014500327233690768,9.890666842693463e-05,0.0038236407563090324,0.029798870906233788,-0.004079192876815796,-0.0164425540715456,0.01064991857856512,0.029027828946709633,0.19922906160354614,-0.20294660329818726,-0.059956252574920654,0.0,0.0,0.0,-0.04353516176342964,-0.0001906978286569938,-0.0,0.0,0.0,0.0,0.0011944662546738982,-0.0010442397324368358,0.0008798695052973926,28007.0,15951.0,32929.0,16664.0,0.1059892475605011,0.05264131352305412,0.13113068044185638,0.05547234043478966,0.0,0.0,0.0,0.0,27163.0,18626.0,32285.0,14227.0,0.342715322971344,-0.04688437026938805,0.009693675214424222,0.036543335813388374,0.000755707616917789,-0.11504796147346497,0.06347870826721191
318,5,-0.0011386167025193572,7.886201638029888e-05,0.0004183137498330325,-0.0076861572451889515,0.018199436366558075,-0.04594074934720993,-0.0164425540715456,0.01064991857856512,0.029027828946709633,0.19922906160354614,-0.20294660329818726,-0.059956252574920654,0.0,0.0,0.0,-0.026376180350780487,-0.012087585404515266,-0.0,0.0,0.0,0.0,0.0011944662546738982,-0.0010442397324368358,0.0008798695052973926,28007.0,15951.0,32929.0,16664.0,0.1059892475605011,0.05264131352305412,0.13113068044185638,0.05547234043478966,0.0,0.0,0.0,0.0,27163.0,18626.0,32285.0,14227.0,0.33917635679244995,-0.04124533686231241,0.0013920075124819384,0.03235293031223205,0.04743627458810806,-0.06901208311319351,0.19418010115623474
323,5,-0.0010569024598225951,3.1869156373431906e-05,0.0002066740271402523,0.009134158492088318,0.01203883159905672,0.015847336500883102,-0.014151936396956444,0.013497005216777325,0.028106683865189552,0.21770618855953217,-0.21555720269680023,-0.11520858854055405,0.0,0.0,0.0,-0.01705874688923359,0.005094774067401886,-0.0,0.0,0.0,0.0,0.00017147672770079225,-0.003298648865893483,0.0007836547447368503,26692.0,22411.0,33979.0,13881.0,0.09960638731718063,0.07977759093046188,0.13674534857273102,0.044656090438365936,0.0,0.0,0.0,0.0,27424.0,16655.0,31885.0,18033.0,0.3390873372554779,-0.03792016766290473,-0.00988993088063673,0.033365055929377885,-0.01999206654727459,-0.04462818428874016,0.007199218031018972
328,5,-0.001236157026141882,0.00017490463505964726,0.0005003607366234064,-0.022355400025844574,-0.016413317993283272,-0.0363619364798069,-0.014151936396956444,0.013497005216777325,0.028106683865189552,0.21770618855953217,-0.21555720269680023,-0.11520858854055405,0.0,0.0,0.0,0.026277394965291023,-0.02685563638806343,-0.0,0.0,0.0,0.0,0.00017147672770079225,-0.003298648865893483,0.0007836547447368503,26692.0,22411.0,33979.0,13881.0,0.09960638731718063,0.07977759093046188,0.13674534857273102,0.044656090438365936,0.0,0.0,0.0,0.0,27424.0,16655.0,31885.0,18033.0,0.34556588530540466,-0.03284461245945222,-0.0008764564388923416,0.033039438767890394,0.10736195743083954,0.07004911452531815,0.16903455555438995
333,5,-0.0011797936167567968,0.0001998770167119801,0.00042304949602112174,0.0011842550011351705,-0.00842012744396925,-8.500745025230572e-05,-0.011971669271588326,0.015143031254410744,0.02753514051437378,0.2133774608373642,-0.22487136721611023,-0.0760410875082016,0.0,0.0,0.0,0.014628414064645767,-0.003355979220941663,-0.0,0.0,0.0,0.0,-0.0010441456688567996,-0.0020026592537760735,0.0007443864014931023,28199.0,21754.0,29847.0,12691.0,0.10693361610174179,0.07686213403940201,0.11515849083662033,0.04022211581468582,0.0,0.0,0.0,0.0,26231.0,23077.0,33943.0,13726.0,0.33907178044319153,-0.030056630146826253,-0.0033735676717717177,0.032509853990018565,0.013171270489692688,0.038269758224487305,0.06058749184012413
338,5,-0.0011131855426356196,0.00020473770564422011,0.0003598454059101641,0.009680407121777534,-0.0032065357081592083,0.00882306694984436,-0.011971669271588326,0.015143031254410744,0.02753514051437378,0.2133774608373642,-0.22487136721611023,-0.0760410875082016,0.0,0.0,0.0,0.006691507995128632,0.005314610432833433,-0.0,0.0,0.0,0.0,-0.0010441456688567996,-0.0020026592537760735,0.0007443864014931023,28199.0,21754.0,29847.0,12691.0,0.10693361610174179,0.07686213403940201,0.11515849083662033,0.04022211581468582,0.0,0.0,0.0,0.0,26231.0,23077.0,33943.0,13726.0,0.3390459716320038,-0.027770214099007984,-0.006532381453959378,0.02993710511884495,-0.020854728296399117,0.017505347728729248,0.034518051892519
344,5,-0.0012687892885878682,0.00012782574049197137,0.00019491810235194862,-0.018880395218729973,0.009805715642869473,0.025736743584275246,-0.009021056815981865,0.017812704667448997,0.027136581018567085,0.2283930629491806,-0.23572462797164917,-0.031206496059894562,0.0,0.0,0.0,-0.013345425948500633,-0.024104760959744453,-0.0,0.0,0.0,0.0,-0.0011861438397318125,-0.0019359833095222712,0.0007746152114123106,26144.0,19924.0,33414.0,14222.0,0.09698638319969177,0.06893165409564972,0.1337110847234726,0.04594698175787926,0.0,0.0,0.0,0.0,25997.0,20252.0,33866.0,13391.0,0.33936434984207153,-0.03307944910186498,-0.009346091834676449,0.03224085138175997,0.09466175734996796,-0.03494350239634514,-0.017345966771245003
349,5,-0.0013090791180729866,0.00016515505558345467,0.0004321109445299953,-0.011304693296551704,-0.0022843899205327034,-0.025485971942543983,-0.009021056815981865,0.017812704667448997,0.027136581018567085,0.2283930629491806,-0.23572462797164917,-0.031206496059894562,0.0,0.0,0.0,0.005225876346230507,-0.01654171012341976,-0.0,0.0,0.0,0.0,-0.0011861438397318125,-0.0019359833095222712,0.0007746152114123106,26144.0,19924.0,33414.0,14222.0,0.09698638319969177,0.06893165409564972,0.1337110847234726,0.04594698175787926,0.0,0.0,0.0,0.0,25997.0,20252.0,33866.0,13391.0,0.3390846252441406,-0.029552221852522608,8.522703118622801e-05,0.029115824136125748,0.06491820514202118,0.013673149049282074,0.14051291346549988
354,5,-0.001344118150882423,0.0001407140225637704,0.000589895760640502,-0.008296881802380085,0.00273642735555768,-0.029735669493675232,-0.006845591124147177,0.019467907026410103,0.026917528361082077,0.22949661314487457,-0.27810290455818176,-0.05194300785660744,0.0,0.0,0.0,-0.0024868242908269167,-0.01363339088857174,-0.0,0.0,0.0,0.0,0.0004999018274247646,-0.0025802194140851498,0.0007796479621902108,25648.0,20646.0,33557.0,13824.0,0.09463486075401306,0.07202820479869843,0.13447362184524536,0.044439420104026794,0.0,0.0,0.0,0.0,27787.0,19646.0,30848.0,14267.0,0.33906614780426025,-0.022857807784234435,-0.0009126353782393734,0.030408913621869385,0.053500741720199585,-0.006506142672151327,0.15731212496757507
359,5,-0.0014349150005728006,6.941711762920022e-05,0.0003082795301452279,-0.015200616791844368,0.010802495293319225,0.030505573377013206,-0.006845591124147177,0.019467907026410103,0.026917528361082077,0.22949661314487457,-0.27810290455818176,-0.05194300785660744,0.0,0.0,0.0,-0.01496443897485733,-0.020909728482365608,-0.0,0.0,0.0,0.0,0.0004999018274247646,-0.0025802194140851498,0.0007796479621902108,25648.0,20646.0,33557.0,13824.0,0.09463486075401306,0.07202820479869843,0.13447362184524536,0.044439420104026794,0.0,0.0,0.0,0.0,27787.0,19646.0,30848.0,14267.0,0.339145690202713,-0.030307192334723468,-0.00824918200282926,0.03363855537390406,0.08206173777580261,-0.03915683180093765,-0.025466645136475563
364,5,-0.00129143544472754,0.0002200644521508366,0.0006507802754640579,0.015526951290667057,-0.01784987933933735,-0.03879842907190323,-0.003887828439474106,0.02200508862733841,0.02627064287662506,0.23998241126537323,-0.20989158749580383,-0.0478915311396122,0.0,0.0,0.0,0.029191678389906883,0.01051673199981451,-0.0,0.0,0.0,0.0,-0.00019452639389783144,-0.001649157959036529,0.000643108447548002,26521.0,20959.0,30562.0,14779.0,0.09878456592559814,0.07338482141494751,0.11879943311214447,0.04807712137699127,0.0,0.0,0.0,0.0,27355.0,20446.0,31888.0,12483.0,0.3391968607902527,-0.01037919654770295,0.0007226589401865597,0.034289934243341015,-0.04126917943358421,0.07637973874807358,0.18882112205028534
369,5,-0.0014120633713901043,0.0002247953088954091,0.0006828557816334069,-0.012229833751916885,-0.006017283070832491,-0.016130099073052406,-0.003887828439474106,0.02200508862733841,0.02627064287662506,0.23998241126537323,-0.20989158749580383,-0.0478915311396122,0.0,0.0,0.0,0.011138580739498138,-0.018058843910694122,-0.0,0.0,0.0,0.0,-0.00019452639389783144,-0.001649157959036529,0.000643108447548002,26521.0,20959.0,30562.0,14779.0,0.09878456592559814,0.07338482141494751,0.11879943311214447,0.04807712137699127,0.0,0.0,0.0,0.0,27355.0,20446.0,31888.0,12483.0,0.3391099274158478,-0.006060050391948424,0.00415219427207193,0.0338418367766552,0.07087060809135437,0.029143813997507095,0.12374250590801239
374,5,-0.0013778354041278362,0.00027465453604236245,0.00044764266931451857,0.001122977351769805,-0.008785477839410305,0.02809080481529236,-0.0020599530544131994,0.023519843816757202,0.026250192895531654,0.25218436121940613,-0.11894980818033218,0.031095778569579124,0.0,0.0,0.0,0.015513312071561813,-0.004506302531808615,-0.0,0.0,0.0,0.0,-0.00035898262285627425,-0.002212787512689829,0.0007623601704835892,27301.0,20489.0,32171.0,12099.0,0.10254587233066559,0.07135093212127686,0.12712936103343964,0.03805866837501526,0.0,0.0,0.0,0.0,27976.0,21408.0,30906.0,11919.0,0.33907783031463623,-0.02172894976338148,-0.015003415326761796,0.034063284204263355,0.01768285036087036,0.040584683418273926,-0.009888834320008755
379,5,-0.0016658398089930415,0.00026273084222339094,0.0006588174146600068,-0.03998372331261635,-0.0009663241798989475,-0.02113722451031208,-0.0020599530544131994,0.023519843816757202,0.026250192895531654,0.25218436121940613,-0.11894980818033218,0.031095778569579124,0.0,0.0,0.0,0.0033707651309669018,-0.04445160552859306,-0.0,0.0,0.0,0.0,-0.00035898262285627425,-0.002212787512689829,0.0007623601704835892,27301.0,20489.0,32171.0,12099.0,0.10254587233066559,0.07135093212127686,0.12712936103343964,0.03805866837501526,0.0,0.0,0.0,0.0,27976.0,21408.0,30906.0,11919.0,0.3582324981689453,-0.0049883798516533176,0.013962731871002911,0.036377813869617685,0.1842472404241562,0.009317752905189991,0.14264027774333954
384,5,-0.0015529589727520943,0.00011632477981038392,0.0004911571159027517,-0.003644098760560155,0.011178813874721527,0.02893841080367565,0.0009400355047546327,0.024601392447948456,0.026477660983800888,0.22617828845977783,-0.04751003533601761,0.025804994627833366,0.0,0.0,0.0,-0.015318484045565128,-0.009844260290265083,-0.0,0.0,0.0,0.0,-0.0011338042095303535,-0.00223212456330657,0.0008722941274754703,28937.0,20648.0,31609.0,10491.0,0.11058913171291351,0.07203882932662964,0.1241968423128128,0.03232124447822571,0.0,0.0,0.0,0.0,27972.0,19325.0,31917.0,12929.0,0.3390898108482361,-0.023481610599277072,-0.013214317767227878,0.03207741602305386,0.03863012418150902,-0.04007649049162865,-0.008047222159802914
389,5,-0.0014974975492805243,0.0001027306352625601,0.0007238650578074157,0.00667137885466218,0.005256824195384979,-0.02389759011566639,0.0009400355047546327,0.024601392447948456,0.026477660983800888,0.22617828845977783,-0.04751003533601761,0.025804994627833366,0.0,0.0,0.0,-0.006282305344939232,0.0006345034344121814,-0.0,0.0,0.0,0.0,-0.0011338042095303535,-0.00223212456330657,0.0008722941274754703,28937.0,20648.0,31609.0,10491.0,0.11058913171291351,0.07203882932662964,0.1241968423128128,0.03232124447822571,0.0,0.0,0.0,0.0,27972.0,19325.0,31917.0,12929.0,0.3390403687953949,-0.005237216592393516,-0.000877896884425978,0.03153621962524141,-0.002486796583980322,-0.016434404999017715,0.1558714359998703
394,5,-0.0014650493394583464,0.00011489161261124536,0.0007874444709159434,0.006544158793985844,-0.00012548950326163322,-0.016070393845438957,0.0028559817001223564,0.025092726573348045,0.02678004465997219,0.25349801778793335,-0.004259532317519188,0.0344095453619957,0.0,0.0,0.0,0.001987212337553501,0.00044002951472066343,-0.0,0.0,0.0,0.0,-0.00029036327032372355,-0.0015735782217234373,0.0008719759061932564,28791.0,18609.0,31590.0,13104.0,0.1098671555519104,0.0633985698223114,0.12409627437591553,0.04174834489822388,0.0,0.0,0.0,0.0,28377.0,22283.0,33858.0,11301.0,0.3390342891216278,-0.006282550360201365,0.00033661283303628125,0.02939303229349523,-0.0017266758950427175,0.0051985508762300014,0.13604788482189178
399,5,-0.00151959212962538,0.00044103836989961565,0.0007949881255626678,-0.005672743543982506,-0.04569819197058678,-0.005877231247723103,0.0028559817001223564,0.025092726573348045,0.02678004465997219,0.25349801778793335,-0.004259532317519188,0.0344095453619957,0.0,0.0,0.0,0.06810100376605988,-0.011484325863420963,-0.0,0.0,0.0,0.0,-0.00029036327032372355,-0.0015735782217234373,0.0008719759061932564,28791.0,18609.0,31590.0,13104.0,0.1098671555519104,0.0633985698223114,0.12409627437591553,0.04174834489822388,0.0,0.0,0.0,0.0,28377.0,22283.0,33858.0,11301.0,0.3611825108528137,-0.012779347207802714,0.008124813830508877,0.024988540559723205,0.047899242490530014,0.1894819736480713,0.10847598314285278
405,5,-0.00151959212962538,0.00044103836989961565,0.0007949881255626678,-0.005672743543982506,-0.04569819197058678,-0.005877231247723103,0.0060422527603805065,0.02502233348786831,0.027092162519693375,0.2449362576007843,0.0216666366904974,-0.004740058910101652,0.0,0.0,0.0,0.06813281029462814,-0.011576124466955662,-0.0,0.0,0.0,0.0,-0.0007247974863275886,-0.0021073000971227884,0.0008899662643671036,29095.0,21454.0,33113.0,12431.0,0.11137847602367401,0.0755433738231659,0.13210533559322357,0.03926840052008629,0.0,0.0,0.0,0.0,30755.0,17940.0,30401.0,12806.0,0.36122989654541016,-0.012779347207802714,0.008124813830508877,0.024988540559723205,0.0482882559299469,0.18959487974643707,0.11101994663476944
410,5,-0.001271499553695321,0.0001968922297237441,0.0005952436476945877,0.012715128250420094,0.004322599153965712,0.007575239520519972,0.0060422527603805065,0.02502233348786831,0.027092162519693375,0.2449362576007843,0.0216666366904974,-0.004740058910101652,0.0,0.0,0.0,-0.004528407007455826,0.006722617894411087,-0.0,0.0,0.0,0.0,-0.0007247974863275886,-0.0021073000971227884,0.0008899662643671036,29095.0,21454.0,33113.0,12431.0,0.11137847602367401,0.0755433738231659,0.13210533559322357,0.03926840052008629,0.0,0.0,0.0,0.0,30755.0,17940.0,30401.0,12806.0,0.3390447497367859,-0.01579986475403543,0.0026173003047793558,0.023299760939702048,-0.02637995034456253,-0.011846616864204407,0.07009097933769226
415,5,-0.0014129772316664457,0.00044943130342289805,0.0007253605290316045,-0.015992332249879837,-0.03405868634581566,-0.015943793579936028,0.0060422527603805065,0.02502233348786831,0.027092162519693375,0.2449362576007843,0.0216666366904974,-0.004740058910101652,0.0,0.0,0.0,0.05234898254275322,-0.02185964398086071,-0.0,0.0,0.0,0.0,-0.0007247974863275886,-0.0021073000971227884,0.0008899662643671036,29095.0,21454.0,33113.0,12431.0,0.11137847602367401,0.0755433738231659,0.13210533559322357,0.03926840052008629,0.0,0.0,0.0,0.0,30755.0,17940.0,30401.0,12806.0,0.35499802231788635,-0.005255074084291303,0.006947472530442393,0.028796689371120187,0.08968614041805267,0.14325512945652008,0.1448715180158615
420,5,-0.0013117727357894182,0.00031310319900512695,0.0005870823515579104,0.009370935149490833,0.008868325501680374,0.014575807377696037,0.007593029644340277,0.024561379104852676,0.027651632204651833,0.22622773051261902,0.051924191415309906,0.08075825124979019,0.0,0.0,0.0,-0.011145907454192638,0.0030622922349721193,-0.0,0.0,0.0,0.0,0.0015386531595140696,-0.0008852584287524223,0.0008848273428156972,30990.0,17482.0,30201.0,13259.0,0.12099248170852661,0.05876744166016579,0.1169549971818924,0.042325396090745926,0.0,0.0,0.0,0.0,29071.0,15651.0,34561.0,17442.0,0.33905625343322754,-0.003960786083227399,0.008612763743894185,0.028049328760277277,-0.012016472406685352,-0.029158366844058037,0.053520817309617996
425,5,-0.0013465111842378974,0.0002818254579324275,0.0007362638134509325,-0.002052116207778454,0.007039384450763464,-0.016512660309672356,0.007593029644340277,0.024561379104852676,0.027651632204651833,0.22622773051261902,0.051924191415309906,0.08075825124979019,0.0,0.0,0.0,-0.00838513858616352,-0.00873524509370327,-0.0,0.0,0.0,0.0,0.0015386531595140696,-0.0008852584287524223,0.0008848273428156972,30990.0,17482.0,30201.0,13259.0,0.12099248170852661,0.05876744166016579,0.1169549971818924,0.042325396090745926,0.0,0.0,0.0,0.0,29071.0,15651.0,34561.0,17442.0,0.33905845880508423,-0.008796972596366309,0.008048977369661373,0.026410317672739034,0.03428066521883011,-0.021936023607850075,0.15125882625579834
430,5,-0.0013094039168208838,0.00031509724794887006,0.0007085541728883982,0.004579394124448299,-0.0025462370831519365,-0.0010744496248662472,0.009860726073384285,0.024106336757540703,0.028275322169065475,0.20841869711875916,0.027452757582068443,0.04741307720541954,0.0,0.0,0.0,0.006381176877766848,-0.002025038469582796,-0.0,0.0,0.0,0.0,0.0008889081655070186,-0.001788022113032639,0.0008665336645208299,28540.0,16327.0,34458.0,17574.0,0.10862080752849579,0.054128456860780716,0.13933221995830536,0.05914180353283882,0.0,0.0,0.0,0.0,29000.0,15761.0,34214.0,17885.0,0.33904120326042175,-0.01315537148351312,0.007082748332226488,0.024289489062817998,0.007946262136101723,0.016693294048309326,0.10735900700092316
435,5,-0.0012816074304282665,0.00021973199909552932,0.0006823872681707144,0.005265313666313887,0.012587263248860836,0.003341029165312648,0.009860726073384285,0.024106336757540703,0.028275322169065475,0.20841869711875916,0.027452757582068443,0.04741307720541954,0.0,0.0,0.0,-0.016940418630838394,-0.0013847049558535218,-0.0,0.0,0.0,0.0,0.0008889081655070186,-0.001788022113032639,0.0008665336645208299,28540.0,16327.0,34458.0,17574.0,0.10862080752849579,0.054128456860780716,0.13933221995830536,0.05914180353283882,0.0,0.0,0.0,0.0,29000.0,15761.0,34214.0,17885.0,0.3390825688838959,-0.009944882309593131,0.004560163406249388,0.02638961747589013,0.005436148960143328,-0.04431762173771858,0.09642636030912399
440,5,-0.0012799884425476193,0.00021659262711182237,0.0006846697651781142,0.001806254149414599,0.004215691704303026,0.0006827578763477504,0.01151333749294281,0.02394045703113079,0.02840510942041874,0.23383337259292603,0.055940426886081696,-0.0037391886580735445,0.0,0.0,0.0,-0.004122538957744837,-0.0050062211230397224,-0.0,0.0,0.0,0.0,-0.00121498538646847,-0.0010797926224768162,0.0007851617410778999,30026.0,19976.0,29048.0,13357.0,0.1160692423582077,0.06915295124053955,0.11114726960659027,0.04268902912735939,0.0,0.0,0.0,0.0,26995.0,19169.0,33099.0,16836.0,0.33904072642326355,-0.00830516681636165,0.004132457646679187,0.027401557187534828,0.019647136330604553,-0.010784291662275791,0.10699471086263657
445,5,-0.0012936820276081562,0.0002029036113526672,0.0006919625448063016,-0.001375223626382649,0.003181168809533119,-0.0008161604055203497,0.01151333749294281,0.02394045703113079,0.02840510942041874,0.23383337259292603,0.055940426886081696,-0.0037391886580735445,0.0,0.0,0.0,-0.0025477567687630653,-0.008366024121642113,-0.0,0.0,0.0,0.0,-0.00121498538646847,-0.0010797926224768162,0.0007851617410778999,30026.0,19976.0,29048.0,13357.0,0.1160692423582077,0.06915295124053955,0.11114726960659027,0.04268902912735939,0.0,0.0,0.0,0.0,26995.0,19169.0,33099.0,16836.0,0.33904656767845154,-0.00813051954318121,0.004406575346163744,0.027046233790913504,0.03283163532614708,-0.0066647655330598354,0.11411774903535843
450,5,-0.001256653806194663,0.0002083680737996474,0.0006628702394664288,0.004771384410560131,0.00018932625243905932,0.003828075947239995,0.013937210664153099,0.024243783205747604,0.02765924297273159,0.20194324851036072,-0.013005373068153858,-0.08264435827732086,0.0,0.0,0.0,0.002062798012048006,-0.0021434512455016375,-0.0,0.0,0.0,0.0,-0.00155423185788095,-0.000580452848225832,0.0007226849556900561,30297.0,20513.0,27948.0,13835.0,0.11744390428066254,0.0714556872844696,0.10570237040519714,0.04448060318827629,0.0,0.0,0.0,0.0,29285.0,20837.0,29060.0,13351.0,0.3390350937843323,-0.007935714026861879,0.006075376582551292,0.028917564744492145,0.008410915732383728,0.005396295338869095,0.10234133154153824
455,5,-0.0011909534223377705,0.00022779674327466637,0.0005601278389804065,0.010629464872181416,-0.00266321562230587,0.0155323576182127,0.013937210664153099,0.024243783205747604,0.02765924297273159,0.20194324851036072,-0.013005373068153858,-0.08264435827732086,0.0,0.0,0.0,0.006493061315268278,0.003831911366432905,-0.0,0.0,0.0,0.0,-0.00155423185788095,-0.000580452848225832,0.0007226849556900561,30297.0,20513.0,27948.0,13835.0,0.11744390428066254,0.0714556872844696,0.10570237040519714,0.04448060318827629,0.0,0.0,0.0,0.0,29285.0,20837.0,29060.0,13351.0,0.3390432298183441,-0.003933642840706042,0.0030271998956079354,0.02862931685457095,-0.015034111216664314,0.016986533999443054,0.06819598376750946
