timestamp,dt,pos_x,pos_y,pos_z,vel_x,vel_y,vel_z,roll,pitch,yaw,agv_x,agv_y,agv_z,x_ref,y_ref,z_ref,roll_ref,pitch_ref,yaw_ref,x_vel_ref,y_vel_ref,z_vel_ref,x_torque,y_torque,z_torque,w0,w1,w2,w3,u0,u1,u2,u3,m0req,m1req,m2req,m3req,thrust0,thrust1,thrust2,thrust3,thrust_ref,roll_vicon,pitch_vicon,yaw_vicon,acc_x,acc_y,acc_z
5,5,0.0,0.0,0.0,-0.00015736563364043832,-0.0017044076230376959,-0.005344025790691376,-0.019140997901558876,0.4920779764652252,0.0003595217131078243,-0.0024958187714219093,0.00033832210465334356,-0.0028778028208762407,0.0,0.0,0.0,0.0021717697381973267,-0.0002005168644245714,-0.0,0.0,0.0,0.0,0.0010437406599521637,-0.004999999888241291,4.263184564479161e-06,0.0,0.0,0.0,0.0,0.0,0.0,0.0,0.0,0.0,0.0,0.0,0.0,0.0,0.0,0.0,0.0,0.2542757987976074,-0.0989464460584008,-0.5740182419182451,-0.04376660268658868,0.0005901211407035589,0.006391528528183699,0.016032077372074127
24,19,0.0,0.0,0.0,0.00018332638137508184,0.0016394555568695068,0.003705692710354924,-0.019140997901558876,0.4920779764652252,0.0003595217131078243,-0.0024958187714219093,0.00033832210465334356,-0.0028778028208762407,0.0,0.0,0.0,-0.0020890075247734785,0.00023359629267361015,-0.0,0.0,0.0,0.0,0.0010437406599521637,-0.004999999888241291,4.263184564479161e-06,0.0,0.0,0.0,0.0,0.0,0.0,0.0,0.0,0.0,0.0,0.0,0.0,0.0,0.0,0.0,0.0,0.25427576899528503,-0.09908716701356256,-0.5733350447776187,-0.04374488498526699,-0.0006874739192426205,-0.006147958338260651,-0.011117078363895416
30,5,0.0,0.0,0.0,0.0013694969238713384,0.0016514627495780587,-0.002026485977694392,-0.019131159409880638,0.4921059310436249,0.00033786677522584796,0.0016910096164792776,-0.004007487557828426,-0.004568659700453281,0.0,0.0,0.0,-0.0021043040324002504,0.0017450249288231134,-0.0,0.0,0.0,0.0,0.0010311168152838945,-0.004999999888241291,4.503157924773404e-06,0.0,0.0,0.0,0.0,0.0,0.0,0.0,0.0,0.0,0.0,0.0,0.0,0.0,0.0,0.0,0.0,0.2542761564254761,-0.09815514890079097,-0.5739064889579759,-0.04342456066867854,-0.005135613493621349,-0.0061929854564368725,0.006079457700252533
49,19,0.0,0.0,0.0,-0.008870531804859638,0.0008002161630429327,0.026566505432128906,-0.019091367721557617,0.4921407699584961,0.00031226599821820855,-0.004101509228348732,-0.002188564045354724,0.001404656213708222,0.0,0.0,0.0,-0.0010195779614150524,-0.011302439495921135,-0.0,0.0,0.0,0.0,0.0008475200738757849,-0.004999999888241291,7.734410246484913e-06,9318.0,24335.0,26693.0,12054.0,0.028269805014133453,0.08850625157356262,0.09960724413394928,0.037892479449510574,0.0,0.0,0.0,0.0,9352.0,24348.0,26681.0,12022.0,0.2542915642261505,-0.08883644951726997,-0.5638492101472943,-0.046696125983487304,0.03326449543237686,-0.003000810509547591,-0.07969951629638672
54,5,-0.00012966665963176638,-0.00029064988484606147,2.583360947028268e-05,-0.02081449329853058,0.04093104973435402,0.004353246185928583,-0.019245875999331474,0.49209728837013245,0.0005584819009527564,-0.00848673190921545,-0.01943274773657322,0.04452589526772499,0.0,0.0,0.0,-0.04648849368095398,-0.02147793583571911,-0.0,0.0,0.0,0.0,0.0008594632381573319,-0.004999999888241291,8.63334207679145e-05,10164.0,23653.0,27341.0,11244.0,0.031181566417217255,0.08537517488002777,0.10273832082748413,0.034980714321136475,0.0,0.0,0.0,0.0,9899.0,23862.0,27144.0,11501.0,0.31731000542640686,-0.10784455147003542,-0.5618186679829896,-0.0559434670080904,0.07878813147544861,-0.15513622760772705,-0.012603775598108768
59,5,-3.5715838748728856e-05,-0.0008013705955818295,3.330456593175768e-06,0.006908767856657505,0.0837802141904831,0.004456415306776762,-0.019245875999331474,0.49209728837013245,0.0005584819009527564,-0.00848673190921545,-0.01943274773657322,0.04452589526772499,0.0,0.0,0.0,-0.07847992330789566,0.005762243643403053,-0.0,0.0,0.0,0.0,0.0008594632381573319,-0.004999999888241291,8.63334207679145e-05,10164.0,23653.0,27341.0,11244.0,0.031181566417217255,0.08537517488002777,0.10273832082748413,0.034980714321136475,0.0,0.0,0.0,0.0,9899.0,23862.0,27144.0,11501.0,0.3864000737667084,-0.1370633556501496,-0.5737065867981848,-0.06395448422965368,-0.025690577924251556,-0.31863120198249817,-0.01325010135769844
64,5,-0.00011363498197169974,-0.0004785116470884532,-0.0003005797043442726,-0.0088360495865345,-0.020066190510988235,0.04388434812426567,-0.019245875999331474,0.49209728837013245,0.0005584819009527564,-0.00848673190921545,-0.01943274773657322,0.04452589526772499,0.0,0.0,0.0,0.02551371417939663,-0.0108209028840065,-0.0,0.0,0.0,0.0,0.0008594632381573319,-0.004999999888241291,8.63334207679145e-05,10164.0,23653.0,27341.0,11244.0,0.031181566417217255,0.08537517488002777,0.10273832082748413,0.034980714321136475,0.0,0.0,0.0,0.0,9899.0,23862.0,27144.0,11501.0,0.26986968517303467,-0.10438049883610702,-0.5647422527917425,-0.057947773952991104,0.03378751128911972,0.07243585586547852,-0.13611361384391785
69,5,-4.050370989716612e-05,-0.0005655132699757814,-0.00030151352984830737,0.007587563246488571,0.006160365883260965,0.0132960369810462,-0.019231809303164482,0.49339309334754944,0.00037945277290418744,-0.011057455092668533,-0.1812916100025177,-0.05068719759583473,0.0,0.0,0.0,-0.009932023473083973,0.00957475509494543,-0.0,0.0,0.0,0.0,0.000882952066604048,-0.004999999888241291,-4.141520548728295e-05,8563.0,24799.0,26244.0,12751.0,0.025718996301293373,0.09065262228250504,0.09746106714010239,0.04044347628951073,0.0,0.0,0.0,0.0,8252.0,25027.0,26021.0,13032.0,0.2542994022369385,-0.1133883101961477,-0.5700041240610705,-0.05922023924104813,-0.02817930281162262,-0.026575466617941856,-0.046094268560409546
75,6,-2.450489228067454e-05,-0.0005865150014869869,-0.0003040623851120472,0.004516103304922581,0.0047883540391922,0.0043456535786390305,-0.019231809303164482,0.49339309334754944,0.00037945277290418744,-0.011057455092668533,-0.1812916100025177,-0.05068719759583473,0.0,0.0,0.0,-0.00805717334151268,0.0056910086423158646,-0.0,0.0,0.0,0.0,0.000882952066604048,-0.004999999888241291,-4.141520548728295e-05,8563.0,24799.0,26244.0,12751.0,0.025718996301293373,0.09065262228250504,0.09746106714010239,0.04044347628951073,0.0,0.0,0.0,0.0,8252.0,25027.0,26021.0,13032.0,0.25428757071495056,-0.11226137069616364,-0.5709505643905222,-0.059073165959690914,-0.0167488195002079,-0.021557336673140526,-0.019380109384655952
80,5,-1.4969454241509084e-05,-0.0005454333731904626,-0.00044536220957525074,0.0026897923089563847,-0.004314920864999294,0.021085672080516815,-0.018939360976219177,0.4956139326095581,-8.497062663082033e-05,0.03354339674115181,-0.2513315975666046,0.000945612380746752,0.0,0.0,0.0,0.004745697136968374,0.0033802443649619818,-0.0,0.0,0.0,0.0,0.002102659083902836,-0.004999999888241291,7.040340278763324e-05,16853.0,30778.0,26715.0,13022.0,0.05622810497879982,0.11990456283092499,0.09971688687801361,0.041442129760980606,0.0,0.0,0.0,0.0,17948.0,30017.0,27518.0,11807.0,0.2542795240879059,-0.11003900119560765,-0.5660624210085756,-0.057314768155643105,-0.00994807481765747,0.012696229852735996,-0.07268752157688141
85,5,-0.00012022392911603674,-0.0007653831271454692,-0.000547494855709374,-0.013928689062595367,0.02949848584830761,0.020624270662665367,-0.018939360976219177,0.4956139326095581,-8.497062663082033e-05,0.03354339674115181,-0.2513315975666046,0.000945612380746752,0.0,0.0,0.0,-0.03733716905117035,-0.01557973027229309,-0.0,0.0,0.0,0.0,0.002102659083902836,-0.004999999888241291,7.040340278763324e-05,16853.0,30778.0,26715.0,13022.0,0.05622810497879982,0.11990456283092499,0.09971688687801361,0.041442129760980606,0.0,0.0,0.0,0.0,17948.0,30017.0,27518.0,11807.0,0.2938768267631531,-0.115744529884235,-0.5646795413685425,-0.06234739565970331,0.052953071892261505,-0.1154155507683754,-0.07421848177909851
90,5,0.0003254731127526611,-0.00033240157063119113,-0.00019064404477830976,0.05821898207068443,-0.05176787078380585,-0.043771833181381226,-0.018929440528154373,0.4962804913520813,0.0004960244987159967,0.007489578332751989,0.09399646520614624,0.010112103074789047,0.0,0.0,0.0,0.04876814782619476,0.05099358409643173,-0.0,0.0,0.0,0.0,0.0007094430038705468,-0.004999999888241291,-5.4319440096151084e-05,8587.0,23164.0,29368.0,14799.0,0.02580070123076439,0.08315739780664444,0.11274857819080353,0.048154063522815704,0.0,0.0,0.0,0.0,7846.0,23405.0,29151.0,15434.0,0.37348613142967224,-0.10683501123798136,-0.5801253004742701,-0.053488530103429986,-0.2200753390789032,0.19154566526412964,0.12241125106811523
95,5,9.320981916971505e-06,-0.0005490295006893575,-0.0004442772769834846,-0.026795605197548866,0.014797551557421684,0.022377101704478264,-0.018929440528154373,0.4962804913520813,0.0004960244987159967,0.007489578332751989,0.09399646520614624,0.010112103074789047,0.0,0.0,0.0,-0.01953364908695221,-0.03007991798222065,-0.0,0.0,0.0,0.0,0.0007094430038705468,-0.004999999888241291,-5.4319440096151084e-05,8587.0,23164.0,29368.0,14799.0,0.02580070123076439,0.08315739780664444,0.11274857819080353,0.048154063522815704,0.0,0.0,0.0,0.0,7846.0,23405.0,29151.0,15434.0,0.2886359393596649,-0.10713970597569589,-0.5685423913533777,-0.057113526824963484,0.10045339167118073,-0.059319283813238144,-0.0805002897977829
100,5,0.0002469049650244415,-0.0006656911573372781,-0.0005722319474443793,0.025223076343536377,0.020771894603967667,0.02462678775191307,-0.0192243829369545,0.49479958415031433,0.0002136168914148584,-0.04985520616173744,0.18187208473682404,-0.02765551768243313,0.0,0.0,0.0,-0.026685385033488274,0.028242411091923714,-0.0,0.0,0.0,0.0,-0.0009609562112018466,-0.004999999888241291,7.357783033512533e-05,15674.0,28273.0,26905.0,11088.0,0.05155261978507042,0.1072993054986,0.10063192993402481,0.034427400678396225,0.0,0.0,0.0,0.0,9528.0,24724.0,26318.0,11858.0,0.2936030328273773,-0.12078256970474728,-0.5782702890730675,-0.06071074328254907,-0.0959261804819107,-0.08242570608854294,-0.08999547362327576
106,6,0.0002469049650244415,-0.0006656911573372781,-0.0005722319474443793,0.025223076343536377,0.020771894603967667,0.02462678775191307,-0.0192243829369545,0.49479958415031433,0.0002136168914148584,-0.04985520616173744,0.18187208473682404,-0.02765551768243313,0.0,0.0,0.0,-0.02671680971980095,0.02824958600103855,-0.0,0.0,0.0,0.0,-0.0009609562112018466,-0.004999999888241291,7.357783033512533e-05,15674.0,28273.0,26905.0,11088.0,0.05155261978507042,0.1072993054986,0.10063192993402481,0.034427400678396225,0.0,0.0,0.0,0.0,9528.0,24724.0,26318.0,11858.0,0.2936551868915558,-0.12078256970474728,-0.5782702890730675,-0.06071074328254907,-0.09596765786409378,-0.08253753930330276,-0.09159772098064423
112,5,0.0004111897142138332,-0.0005017285002395511,-0.0005146143375895917,0.03106081113219261,-0.03240203857421875,-0.022516759112477303,-0.019243454560637474,0.4935794472694397,0.00044895889004692435,0.03319164738059044,0.03433734551072121,0.032881442457437515,0.0,0.0,0.0,0.035621464252471924,0.03273046761751175,-0.0,0.0,0.0,0.0,-0.0009609562112018466,-0.004999999888241291,7.357783033512533e-05,15674.0,28273.0,26905.0,11088.0,0.05155261978507042,0.1072993054986,0.10063192993402481,0.034427400678396225,0.0,0.0,0.0,0.0,15499.0,28420.0,26755.0,11281.0,0.31393930315971375,-0.1167042181522204,-0.5867803732718239,-0.05625847849605948,-0.11883196234703064,0.11763174086809158,0.04864772409200668
117,5,0.00034758844412863255,-0.000671279791276902,-0.0007673190557397902,0.00041406633681617677,0.014016570523381233,0.028623634949326515,-0.019243454560637474,0.4935794472694397,0.00044895889004692435,0.03319164738059044,0.03433734551072121,0.032881442457437515,0.0,0.0,0.0,-0.02113199420273304,0.0012025573523715138,-0.0,0.0,0.0,0.0,-0.0009609562112018466,-0.004999999888241291,7.357783033512533e-05,15674.0,28273.0,26905.0,11088.0,0.05155261978507042,0.1072993054986,0.10063192993402481,0.034427400678396225,0.0,0.0,0.0,0.0,15499.0,28420.0,26755.0,11281.0,0.2582522928714752,-0.12155869638083784,-0.58705245434686,-0.05962688841573619,-0.0035941998939961195,-0.05741724744439125,-0.10936776548624039
122,5,0.0003747184236999601,-0.0006755313370376825,-0.0007751693483442068,0.003922417294234037,0.004800192546099424,0.009686127305030823,-0.019246527925133705,0.4937213659286499,0.0005138430278748274,-0.019870731979608536,-0.07129310071468353,-0.022447800263762474,0.0,0.0,0.0,-0.008595996536314487,0.005763393826782703,-0.0,0.0,0.0,0.0,-0.000365415500709787,-0.004999999888241291,3.3568712751730345e-06,14215.0,27915.0,27246.0,12616.0,0.045919161289930344,0.10553828626871109,0.10227667540311813,0.03994458541274071,0.0,0.0,0.0,0.0,12405.0,27743.0,26898.0,13753.0,0.25428882241249084,-0.12089607669744173,-0.5872303263558728,-0.05901463907982916,-0.01696241833269596,-0.023000061511993408,-0.05497554689645767
127,5,0.0005266775842756033,-0.00026125789736397564,-0.00023287760268431157,0.0224510096013546,-0.05655822902917862,-0.0730150043964386,-0.019246527925133705,0.4937213659286499,0.0005138430278748274,-0.019870731979608536,-0.07129310071468353,-0.022447800263762474,0.0,0.0,0.0,0.05802809074521065,0.022048357874155045,-0.0,0.0,0.0,0.0,-0.000365415500709787,-0.004999999888241291,3.3568712751730345e-06,14215.0,27915.0,27246.0,12616.0,0.045919161289930344,0.10553828626871109,0.10227667540311813,0.03994458541274071,0.0,0.0,0.0,0.0,12405.0,27743.0,26898.0,13753.0,0.3429417312145233,-0.11082956569971225,-0.5909034005314119,-0.051796730660270573,-0.0873606875538826,0.20922987163066864,0.19853748381137848
132,5,0.00042799036600627005,-0.0007188519230112433,-0.0007334604160860181,-0.007080909796059132,0.04709569364786148,0.048177096992731094,-0.019207263365387917,0.49517595767974854,0.0004036080790683627,-0.010848518460988998,-0.019947946071624756,0.04129438102245331,0.0,0.0,0.0,-0.05375745892524719,-0.00640346622094512,-0.0,0.0,0.0,0.0,-0.00011482717673061416,-0.004999999888241291,6.419201963581145e-05,11960.0,25221.0,26253.0,10003.0,0.03755379840731621,0.0926244929432869,0.09750323742628098,0.03062271699309349,0.0,0.0,0.0,0.0,14199.0,28024.0,27135.0,12632.0,0.32203975319862366,-0.12325067234210947,-0.5888368960830702,-0.059093639555163606,0.023833075538277626,-0.1820371001958847,-0.17326539754867554
137,5,0.0004258248955011368,-0.0006938918959349394,-0.0007453307625837624,-0.002427437109872699,0.01063430868089199,0.0161149725317955,-0.019207263365387917,0.49517595767974854,0.0004036080790683627,-0.010848518460988998,-0.019947946071624756,0.04129438102245331,0.0,0.0,0.0,-0.016929157078266144,-0.0021470263600349426,-0.0,0.0,0.0,0.0,-0.00011482717673061416,-0.004999999888241291,6.419201963581145e-05,11960.0,25221.0,26253.0,10003.0,0.03755379840731621,0.0926244929432869,0.09750323742628098,0.03062271699309349,0.0,0.0,0.0,0.0,14199.0,28024.0,27135.0,12632.0,0.2543122172355652,-0.12754735391492958,-0.5903834133274235,-0.06062462707353521,0.006318708416074514,-0.04529687017202377,-0.0794207900762558
142,5,0.000429998297477141,-0.00065921078203246,-0.0007350496016442776,-0.00014395335165318102,-0.0016650647157803178,0.003395128296688199,-0.019207263365387917,0.49517595767974854,0.0004036080790683627,-0.010848518460988998,-0.019947946071624756,0.04129438102245331,0.0,0.0,0.0,0.00032359399483539164,0.0008018839289434254,-0.0,0.0,0.0,0.0,-0.00011482717673061416,-0.004999999888241291,6.419201963581145e-05,11960.0,25221.0,26253.0,10003.0,0.03755379840731621,0.0926244929432869,0.09750323742628098,0.03062271699309349,0.0,0.0,0.0,0.0,14199.0,28024.0,27135.0,12632.0,0.25427529215812683,-0.12413488894361349,-0.5888416809844635,-0.059338061936551015,-0.002359944861382246,0.00086576136527583,-0.043808091431856155
147,5,0.000511176185682416,-0.0005596059490926564,-0.0012765571009367704,0.0113217169418931,-0.014444197528064251,0.07682958990335464,-0.019299106672406197,0.4940947890281677,0.0003912606043741107,-0.014151796698570251,0.11661721020936966,0.02769416570663452,0.0,0.0,0.0,0.01775653474032879,0.01506217010319233,-0.0,0.0,0.0,0.0,-5.9124547988176346e-05,-0.004999999888241291,7.416252628900111e-06,10737.0,24955.0,34776.0,21855.0,0.033184561878442764,0.09138226509094238,0.14106270670890808,0.07730919122695923,0.0,0.0,0.0,0.0,10744.0,25014.0,34725.0,21849.0,0.2633187472820282,-0.11582616956265912,-0.5716202357488528,-0.05341865125663971,-0.04589633271098137,0.04919210821390152,-0.27491217851638794
152,5,0.0004624245048034936,-3.888411811203696e-05,-0.000890109920874238,-0.0034287222661077976,-0.07723431289196014,-0.031053727492690086,-0.019299106672406197,0.4940947890281677,0.0003912606043741107,-0.014151796698570251,0.11661721020936966,0.02769416570663452,0.0,0.0,0.0,0.07358930259943008,-0.0022366030607372522,-0.0,0.0,0.0,0.0,-5.9124547988176346e-05,-0.004999999888241291,7.416252628900111e-06,10737.0,24955.0,34776.0,21855.0,0.033184561878442764,0.09138226509094238,0.14106270670890808,0.07730919122695923,0.0,0.0,0.0,0.0,10744.0,25014.0,34725.0,21849.0,0.3716524839401245,-0.0915961396169649,-0.5647824550345437,-0.02920886221904894,0.009594082832336426,0.287419855594635,0.050724130123853683
157,5,-3.061643951696169e-07,-0.0004745437763631344,-0.0005403758259490132,-0.0658109113574028,0.03782205656170845,-0.058278895914554596,-0.01935567520558834,0.49260956048965454,0.00038157854578457773,0.004193873144686222,0.21699734032154083,0.033507462590932846,0.0,0.0,0.0,-0.03753495588898659,-0.057371269911527634,-0.0,0.0,0.0,0.0,0.0038391216658055782,-0.004999999888241291,4.822097616852261e-05,11094.0,24752.0,34949.0,21568.0,0.0344478115439415,0.0904385894536972,0.14200638234615326,0.0760459452867508,0.0,0.0,0.0,0.0,9321.0,24138.0,26881.0,12051.0,0.37092238664627075,-0.11778943306104349,-0.5475970024746922,-0.05482962080128883,0.24599115550518036,-0.14644591510295868,0.13501505553722382
162,5,2.622722604428418e-05,-6.382750143529847e-05,-0.0004793494299519807,-0.016028597950935364,-0.046153660863637924,-0.026027362793684006,-0.01935567520558834,0.49260956048965454,0.00038157854578457773,0.004193873144686222,0.21699734032154083,0.033507462590932846,0.0,0.0,0.0,0.050618987530469894,-0.015966512262821198,-0.0,0.0,0.0,0.0,0.0038391216658055782,-0.004999999888241291,4.822097616852261e-05,11094.0,24752.0,34949.0,21568.0,0.0344478115439415,0.0904385894536972,0.14200638234615326,0.0760459452867508,0.0,0.0,0.0,0.0,9321.0,24138.0,26881.0,12051.0,0.32056647539138794,-0.1056284329825086,-0.5501304748588187,-0.029273363681861536,0.05916152149438858,0.17063777148723602,0.037557777017354965
167,5,3.602195647545159e-05,-0.00021266058320179582,-0.0003450884250923991,-0.0034373169764876366,0.006990532856434584,-0.026604749262332916,-0.019200894981622696,0.489169716835022,0.0002724219230003655,0.006168700754642487,0.3611834943294525,-0.021592674776911736,0.0,0.0,0.0,-0.011019609868526459,-0.004038572311401367,-0.0,0.0,0.0,0.0,0.000924039981327951,-0.004999999888241291,1.716638325888198e-05,9050.0,24327.0,26700.0,12305.0,0.02735685184597969,0.08846843242645264,0.09964482486248016,0.038805194199085236,0.0,0.0,0.0,0.0,10794.0,25977.0,36505.0,24973.0,0.25429272651672363,-0.11906939949803554,-0.5518571955240399,-0.031802261844737646,0.011885582469403744,-0.029483690857887268,0.03987587243318558
172,5,-7.573977927677333e-05,0.00012465410691220313,-0.00048505800077691674,-0.016677837818861008,-0.04512689635157585,0.011614317074418068,-0.019200894981622696,0.489169716835022,0.0002724219230003655,0.006168700754642487,0.3611834943294525,-0.021592674776911736,0.0,0.0,0.0,-0.011036538518965244,-0.004035965073853731,-0.0,0.0,0.0,0.0,0.000924039981327951,-0.004999999888241291,1.716638325888198e-05,9050.0,24327.0,26700.0,12305.0,0.02735685184597969,0.08846843242645264,0.09964482486248016,0.038805194199085236,0.0,0.0,0.0,0.0,10794.0,25977.0,36505.0,24973.0,0.3197324275970459,-0.08689906153881612,-0.5363036591959437,-0.02532388346633908,0.06214466691017151,0.16776679456233978,-0.07811805605888367
177,5,2.6738705855677836e-05,-8.383477688767016e-05,-0.000374021619791165,0.009343636222183704,0.015650374814867973,-0.01206079963594675,-0.019580062478780746,0.4858046770095825,0.00047272731899283826,-0.025731194764375687,0.48594221472740173,0.026938486844301224,0.0,0.0,0.0,-0.021954108029603958,0.011723526753485203,-0.0,0.0,0.0,0.0,0.0046746497973799706,-0.004999999888241291,6.536494038300589e-05,11522.0,25264.0,37104.0,24415.0,0.03597681224346161,0.09282620996236801,0.1539752185344696,0.08887339383363724,0.0,0.0,0.0,0.0,10284.0,23850.0,33651.0,19636.0,0.26528239250183105,-0.09845268071233478,-0.5413141614586895,-0.028309848455711398,-0.03598639369010925,-0.061273228377103806,-0.0068525332026183605
182,5,1.8873812223318964e-05,-3.821524660452269e-05,-0.00035982864210382104,0.0017020058585330844,-0.001691622193902731,-0.005605254787951708,-0.019580062478780746,0.4858046770095825,0.00047272731899283826,-0.025731194764375687,0.48594221472740173,0.026938486844301224,0.0,0.0,0.0,0.001493274699896574,0.00247766962274909,-0.0,0.0,0.0,0.0,0.0046746497973799706,-0.004999999888241291,6.536494038300589e-05,11522.0,25264.0,37104.0,24415.0,0.03597681224346161,0.09282620996236801,0.1539752185344696,0.08887339383363724,0.0,0.0,0.0,0.0,10284.0,23850.0,33651.0,19636.0,0.2542762756347656,-0.10247052178957299,-0.5415711599756765,-0.030959895412807945,-0.007291796617209911,0.003995203413069248,-0.02711898647248745
187,5,1.348179648630321e-05,7.874720176914707e-05,-0.0002831521851476282,-0.0002442805271130055,-0.01688222959637642,-0.012416282668709755,-0.019467642530798912,0.47811388969421387,0.0005351303261704743,0.020830493420362473,0.7653157711029053,0.009899918921291828,0.0,0.0,0.0,0.02248581126332283,-1.0704849955800455e-05,-0.0,0.0,0.0,0.0,0.00336730619892478,-0.004999999888241291,2.553777221692144e-06,9745.0,24527.0,33067.0,20074.0,0.029732724651694298,0.08939389884471893,0.13186408579349518,0.06957405060529709,0.0,0.0,0.0,0.0,9699.0,24296.0,33191.0,20015.0,0.2603708505630493,-0.09249544539921742,-0.5350328128171082,-0.03258718262306631,3.223124076612294e-05,0.06159508600831032,-0.006872284691780806
192,5,-5.298766336636618e-05,0.0002509191108401865,-0.00019658400560729206,-0.009379008784890175,-0.029168738052248955,-0.015844428911805153,-0.019467642530798912,0.47811388969421387,0.0005351303261704743,0.020830493420362473,0.7653157711029053,0.009899918921291828,0.0,0.0,0.0,0.03594348952174187,-0.010426754131913185,-0.0,0.0,0.0,0.0,0.00336730619892478,-0.004999999888241291,2.553777221692144e-06,9745.0,24527.0,33067.0,20074.0,0.029732724651694298,0.08939389884471893,0.13186408579349518,0.06957405060529709,0.0,0.0,0.0,0.0,9699.0,24296.0,33191.0,20015.0,0.2873227894306183,-0.07378602012064615,-0.5233700462726733,-0.032731853713005625,0.034651175141334534,0.108632393181324,0.0038600480183959007
198,5,0.0001262724690604955,-0.00019950333808083087,8.63017703522928e-05,0.022282715886831284,0.05430852249264717,-0.044357337057590485,-0.019830500707030296,0.47102198004722595,0.0006190349813550711,-0.06270857155323029,0.9609459638595581,0.047963060438632965,0.0,0.0,0.0,-0.05761897936463356,0.021560264751315117,-0.0,0.0,0.0,0.0,0.0036341813392937183,-0.004999999888241291,0.00010962013766402379,10191.0,23348.0,34000.0,19615.0,0.03127414733171463,0.08398862928152084,0.1368556171655655,0.06761888414621353,0.0,0.0,0.0,0.0,9595.0,23440.0,27540.0,11792.0,0.34147369861602783,-0.1088772508483277,-0.5387455609075534,-0.042112726927968615,-0.08506357669830322,-0.20686793327331543,0.09341143071651459
203,5,3.233921597711742e-05,6.796453817514703e-05,0.00027569400845095515,-0.006465839687734842,-0.02115294523537159,-0.039822112768888474,-0.019830500707030296,0.47102198004722595,0.0006190349813550711,-0.06270857155323029,0.9609459638595581,0.047963060438632965,0.0,0.0,0.0,0.027262533083558083,-0.007428666111081839,-0.0,0.0,0.0,0.0,0.0036341813392937183,-0.004999999888241291,0.00010962013766402379,10191.0,23348.0,34000.0,19615.0,0.03127414733171463,0.08398862928152084,0.1368556171655655,0.06761888414621353,0.0,0.0,0.0,0.0,9595.0,23440.0,27540.0,11792.0,0.2704036831855774,-0.08582363422826682,-0.5259515267375481,-0.04063891095041901,0.023240437731146812,0.07755323499441147,0.08289644122123718
208,5,0.0001089702345780097,0.00019677406817208976,0.0004984262632206082,0.00878859031945467,-0.024379217997193336,-0.04312915354967117,-0.019819160923361778,0.45662060379981995,0.0008981181890703738,0.04504900053143501,1.3640576601028442,0.025262119248509407,0.0,0.0,0.0,0.030848074704408646,0.010674961842596531,-0.0,0.0,0.0,0.0,0.0009475198457948864,-0.004999999888241291,8.84958790265955e-05,9847.0,23748.0,27251.0,11551.0,0.030083734542131424,0.08581200242042542,0.10230174660682678,0.0360788032412529,0.0,0.0,0.0,0.0,9783.0,23557.0,27431.0,11612.0,0.2784873843193054,-0.08059188274783277,-0.5251951425322867,-0.036618362499232976,-0.034390874207019806,0.09037210047245026,0.0969403013586998
213,5,-0.00010420998296467587,0.00031523211509920657,0.0007497634505853057,-0.027208654209971428,-0.023897893726825714,-0.04812595248222351,-0.019819160923361778,0.45662060379981995,0.0008981181890703738,0.04504900053143501,1.3640576601028442,0.025262119248509407,0.0,0.0,0.0,0.02846406400203705,-0.029510609805583954,-0.0,0.0,0.0,0.0,0.0009475198457948864,-0.004999999888241291,8.84958790265955e-05,9847.0,23748.0,27251.0,11551.0,0.030083734542131424,0.08581200242042542,0.10230174660682678,0.0360788032412529,0.0,0.0,0.0,0.0,9783.0,23557.0,27431.0,11612.0,0.29806944727897644,-0.07667299106941701,-0.5097004326335619,-0.038466667419908944,0.1017521470785141,0.08925472944974899,0.11722106486558914
218,5,0.00046479387674480677,-0.00018090265803039074,0.00048767385305836797,0.07149793952703476,0.06228950247168541,0.022254759445786476,-0.020225048065185547,0.4444975256919861,0.0010203561978414655,-0.06669357419013977,1.6515642404556274,0.08917144685983658,0.0,0.0,0.0,-0.05563629791140556,0.0581180565059185,-0.0,0.0,0.0,0.0,0.002396640833467245,-0.0031215131748467684,3.087494405917823e-05,10097.0,21825.0,31741.0,16376.0,0.03094903752207756,0.07717475295066833,0.124881312251091,0.05432234704494476,0.0,0.0,0.0,0.0,10338.0,21213.0,31247.0,17473.0,0.4044896960258484,-0.10381919687834212,-0.5233692422516949,-0.047535511547586604,-0.27151191234588623,-0.23662345111370087,-0.09564808011054993
223,5,-9.487643546890467e-05,-0.0002596686244942248,0.0008194074034690857,-0.01855079084634781,0.01780684106051922,-0.008060651831328869,-0.020225048065185547,0.4444975256919861,0.0010203561978414655,-0.06669357419013977,1.6515642404556274,0.08917144685983658,0.0,0.0,0.0,-0.02390427328646183,-0.021392246708273888,-0.0,0.0,0.0,0.0,0.002396640833467245,-0.0031215131748467684,3.087494405917823e-05,10097.0,21825.0,31741.0,16376.0,0.03094903752207756,0.07717475295066833,0.124881312251091,0.05432234704494476,0.0,0.0,0.0,0.0,10338.0,21213.0,31247.0,17473.0,0.2794555723667145,-0.10653417495627998,-0.4893290696159836,-0.04191521591890707,0.06916702538728714,-0.07027948647737503,0.0017537646926939487
228,5,-4.975579940946773e-05,-0.0002458173839841038,0.0009114411659538746,0.000751652114558965,0.003402878763154149,-0.015302923507988453,-0.020592331886291504,0.4224325716495514,0.0009912316454574466,0.006829656660556793,1.9874180555343628,0.014109060168266296,0.0,0.0,0.0,-0.0060673970729112625,0.0011719325557351112,-0.0,0.0,0.0,0.0,0.0026697576977312565,0.0002596947306301445,0.00016627069271635264,11691.0,20067.0,26985.0,18576.0,0.036583781242370605,0.06954371184110641,0.1010168120265007,0.06326226145029068,0.0,0.0,0.0,0.0,15844.0,16438.0,25396.0,20214.0,0.25428006052970886,-0.10347714162469532,-0.48002526579308186,-0.04003663750218434,-0.003448999021202326,-0.01623322069644928,0.02721918374300003
233,5,-4.137663199799135e-05,-0.0003301326069049537,0.0010335042607039213,0.0013985791010782123,0.012824991717934608,-0.0216797087341547,-0.020592331886291504,0.4224325716495514,0.0009912316454574466,0.006829656660556793,1.9874180555343628,0.014109060168266296,0.0,0.0,0.0,-0.01936991885304451,0.001998180290684104,-0.0,0.0,0.0,0.0,0.0026697576977312565,0.0002596947306301445,0.00016627069271635264,11691.0,20067.0,26985.0,18576.0,0.036583781242370605,0.06954371184110641,0.1010168120265007,0.06326226145029068,0.0,0.0,0.0,0.0,15844.0,16438.0,25396.0,20214.0,0.2555851936340332,-0.11011376447886904,-0.46902426257727453,-0.03845819439518733,-0.005909766536206007,-0.05208643153309822,0.05165616795420647
238,5,8.609355063526891e-06,-0.00026057084323838353,0.0012253017630428076,0.00741761177778244,-0.005891148000955582,-0.03335556760430336,-0.020592331886291504,0.4224325716495514,0.0009912316454574466,0.006829656660556793,1.9874180555343628,0.014109060168266296,0.0,0.0,0.0,0.0068849059753119946,0.00976814515888691,-0.0,0.0,0.0,0.0,0.0026697576977312565,0.0002596947306301445,0.00016627069271635264,11691.0,20067.0,26985.0,18576.0,0.036583781242370605,0.06954371184110641,0.1010168120265007,0.06326226145029068,0.0,0.0,0.0,0.0,15844.0,16438.0,25396.0,20214.0,0.2542933523654938,-0.09453572205175281,-0.45444661127631675,-0.03502436656984102,-0.02874857746064663,0.018420981243252754,0.09274832159280777
243,5,4.747667844640091e-05,-0.00036448330502025783,0.0013098614290356636,0.007666708901524544,0.012780399061739445,-0.02184501849114895,-0.021206600591540337,0.40480369329452515,0.0013664376456290483,-0.0625692754983902,2.3186686038970947,0.06596246361732483,0.0,0.0,0.0,-0.019118962809443474,0.009951591491699219,-0.0,0.0,0.0,0.0,-0.00013506737013813108,0.002395590767264366,0.000170028637512587,25208.0,14768.0,17284.0,22665.0,0.09256287664175034,0.048034556210041046,0.057966552674770355,0.08091319352388382,0.0,0.0,0.0,0.0,19156.0,15497.0,25096.0,24552.0,0.2596302330493927,-0.1049125917365733,-0.44731334336412065,-0.034493866756690215,-0.029898367822170258,-0.052224885672330856,0.06386763602495193
248,5,1.6940794012043625e-05,-0.00037513262941502035,0.0015066820196807384,-0.0019750113133341074,0.005325024481862783,-0.03410838544368744,-0.021206600591540337,0.40480369329452515,0.0013664376456290483,-0.0625692754983902,2.3186686038970947,0.06596246361732483,0.0,0.0,0.0,-0.009117129258811474,-0.002180547919124365,-0.0,0.0,0.0,0.0,-0.00013506737013813108,0.002395590767264366,0.000170028637512587,25208.0,14768.0,17284.0,22665.0,0.09256287664175034,0.048034556210041046,0.057966552674770355,0.08091319352388382,0.0,0.0,0.0,0.0,19156.0,15497.0,25096.0,24552.0,0.25428637862205505,-0.10781084744704637,-0.43045517690259605,-0.03267146198405422,0.006417362950742245,-0.024393081665039062,0.10764770954847336
254,5,-0.0002678863238543272,-0.00019470846746116877,0.0016070452984422445,-0.04046829789876938,-0.023661872372031212,-0.02428337186574936,-0.02196630649268627,0.34967225790023804,0.0017927414737641811,-0.10254311561584473,3.175276517868042,0.1255195438861847,0.0,0.0,0.0,0.025509566068649292,-0.041473399847745895,-0.0,0.0,0.0,0.0,0.0017071159090846777,0.004999999888241291,0.00025675332290120423,25389.0,4400.0,16217.0,25664.0,0.0934140756726265,0.01247924193739891,0.05369182676076889,0.09470820426940918,0.0,0.0,0.0,0.0,27320.0,12312.0,14635.0,24762.0,0.3175395727157593,-0.09400321988467064,-0.396943459604172,-0.03257404687362005,0.15233086049556732,0.08521793782711029,0.08522019535303116
259,5,-0.00027129266527481377,-0.00015373008500318974,0.0018630274571478367,-0.012617379426956177,-0.01283553522080183,-0.04312252625823021,-0.02196630649268627,0.34967225790023804,0.0017927414737641811,-0.10254311561584473,3.175276517868042,0.1255195438861847,0.0,0.0,0.0,0.01622697524726391,-0.01578942872583866,-0.0,0.0,0.0,0.0,0.0017071159090846777,0.004999999888241291,0.00025675332290120423,25389.0,4400.0,16217.0,25664.0,0.0934140756726265,0.01247924193739891,0.05369182676076889,0.09470820426940918,0.0,0.0,0.0,0.0,27320.0,12312.0,14635.0,24762.0,0.26246410608291626,-0.08704617092696204,-0.3782480836748331,-0.032415528706757825,0.04795648530125618,0.04481004551053047,0.15038394927978516
264,5,5.7677632867125794e-05,0.00020240776939317584,0.0023604175075888634,0.04227063059806824,-0.0537099614739418,-0.0825713574886322,-0.022433973848819733,0.3095760941505432,0.00205503823235631,-0.011248381808400154,3.5271618366241455,0.09028318524360657,0.0,0.0,0.0,0.05331605672836304,0.038722600787878036,-0.0,0.0,0.0,0.0,0.0006035833503119648,0.004999999888241291,0.00023327370581682771,26394.0,7138.0,14008.0,24646.0,0.09817536175251007,0.021031595766544342,0.0451359823346138,0.08994343131780624,0.0,0.0,0.0,0.0,24835.0,5231.0,15573.0,26210.0,0.35678088665008545,-0.06170300963235011,-0.38106964221779344,-0.029419764062094848,-0.15963439643383026,0.20002144575119019,0.28201642632484436
269,5,-3.2997118978528306e-05,0.0001751852541929111,0.002479799557477236,-1.3276562640385237e-05,-0.012301835231482983,-0.041484907269477844,-0.022433973848819733,0.3095760941505432,0.00205503823235631,-0.011248381808400154,3.5271618366241455,0.09028318524360657,0.0,0.0,0.0,0.01667938195168972,0.00019737194816116244,-0.0,0.0,0.0,0.0,0.0006035833503119648,0.004999999888241291,0.00023327370581682771,26394.0,7138.0,14008.0,24646.0,0.09817536175251007,0.021031595766544342,0.0451359823346138,0.08994343131780624,0.0,0.0,0.0,0.0,24835.0,5231.0,15573.0,26210.0,0.25431057810783386,-0.06040426104194184,-0.35753892716327756,-0.03009916660789469,-0.0005808656569570303,0.04462834820151329,0.16782398521900177
274,5,1.965651972568594e-05,0.0001072539234883152,0.002782427938655019,0.007367526181042194,0.0058198352344334126,-0.0548134371638298,-0.022943586111068726,0.2804882824420929,0.002381971338763833,-0.0805063247680664,3.7738213539123535,0.1363280862569809,0.0,0.0,0.0,-0.00884412694722414,0.009697840549051762,-0.0,0.0,0.0,0.0,0.0021909591741859913,0.004999999888241291,0.00028344400925561786,25448.0,3851.0,17642.0,26465.0,0.09369151294231415,0.010837018489837646,0.059420399367809296,0.09851711988449097,0.0,0.0,0.0,0.0,26254.0,6937.0,14179.0,24790.0,0.2542971074581146,-0.05935228675463125,-0.3384870884106819,-0.02848025733834084,-0.02854163944721222,-0.023663682863116264,0.22143809497356415
279,5,1.965651972568594e-05,0.0001072539234883152,0.002782427938655019,0.007367526181042194,0.0058198352344334126,-0.0548134371638298,-0.022943586111068726,0.2804882824420929,0.002381971338763833,-0.0805063247680664,3.7738213539123535,0.1363280862569809,0.0,0.0,0.0,-0.008835469372570515,0.009699283167719841,-0.0,0.0,0.0,0.0,0.0021909591741859913,0.004999999888241291,0.00028344400925561786,25448.0,3851.0,17642.0,26465.0,0.09369151294231415,0.010837018489837646,0.059420399367809296,0.09851711988449097,0.0,0.0,0.0,0.0,26254.0,6937.0,14179.0,24790.0,0.25429707765579224,-0.05935228675463125,-0.3384870884106819,-0.02848025733834084,-0.028545884415507317,-0.02364051714539528,0.23145484924316406
284,5,9.022498124977574e-05,-0.0001914250897243619,0.003078525187447667,0.07084401696920395,-0.04058846831321716,-0.1543954461812973,-0.02368345856666565,0.2348175346851349,0.002901738043874502,-0.019437599927186966,3.8285489082336426,0.11577346175909042,0.0,0.0,0.0,-0.00882699154317379,0.060807906091213226,-0.0,0.0,0.0,0.0,0.002057506935670972,0.004999999888241291,0.00031651745666749775,25140.0,3448.0,16928.0,25913.0,0.09224393963813782,0.009648950770497322,0.056530747562646866,0.09588697552680969,0.0,0.0,0.0,0.0,25135.0,3740.0,17723.0,26771.0,0.37983354926109314,-0.08127223307851456,-0.30432190654764163,-0.02648055809267653,-0.26697513461112976,0.1487702876329422,0.5445273518562317
289,5,-4.279509812477045e-05,0.0001945730036823079,0.0033876001834869385,0.002630394184961915,-0.06621627509593964,-0.08958915621042252,-0.02368345856666565,0.2348175346851349,0.002901738043874502,-0.019437599927186966,3.8285489082336426,0.11577346175909042,0.0,0.0,0.0,0.06661266833543777,0.0025676439981907606,-0.0,0.0,0.0,0.0,0.002057506935670972,0.004999999888241291,0.00031651745666749775,25140.0,3448.0,16928.0,25913.0,0.09224393963813782,0.009648950770497322,0.056530747562646866,0.09588697552680969,0.0,0.0,0.0,0.0,25135.0,3740.0,17723.0,26771.0,0.35270825028419495,-0.05506490042953987,-0.273256032225574,-0.026747117755702078,-0.010458497330546379,0.2469639629125595,0.36423423886299133
294,5,0.00022463792993221432,0.0002341607032576576,0.0035500514786690474,0.03822974115610123,-0.025407159700989723,-0.04961990937590599,-0.02442561835050583,0.20315487682819366,0.003109225071966648,-0.1015886440873146,3.986339807510376,0.11283940821886063,0.0,0.0,0.0,0.02825058065354824,0.03967282548546791,-0.0,0.0,0.0,0.0,0.0011507997987791896,0.004999999888241291,0.00022490450646728277,25921.0,5968.0,14984.0,25130.0,0.09592553973197937,0.01730409264564514,0.04886884242296219,0.09219861030578613,0.0,0.0,0.0,0.0,26696.0,4674.0,16008.0,24334.0,0.3169083893299103,-0.05407580486122807,-0.2610641603185045,-0.023151610023517993,-0.14542058110237122,0.09418394416570663,0.257281094789505
299,5,0.00019295889069326222,0.00025794096291065216,0.0037519647739827633,0.007033857982605696,-0.010951383970677853,-0.043153855949640274,-0.02442561835050583,0.20315487682819366,0.003109225071966648,-0.1015886440873146,3.986339807510376,0.11283940821886063,0.0,0.0,0.0,0.015004636719822884,0.009616658091545105,-0.0,0.0,0.0,0.0,0.0011507997987791896,0.004999999888241291,0.00022490450646728277,25921.0,5968.0,14984.0,25130.0,0.09592553973197937,0.01730409264564514,0.04886884242296219,0.09219861030578613,0.0,0.0,0.0,0.0,26696.0,4674.0,16008.0,24334.0,0.254315584897995,-0.05258823225034964,-0.23996090532050568,-0.021341609541966747,-0.028302986174821854,0.040148958563804626,0.25185325741767883
304,5,0.0002353625895921141,0.00011535739031387493,0.0038532977923750877,0.00804667454212904,0.01667628437280655,-0.027132751420140266,-0.025742072612047195,0.15540163218975067,0.0033979325089603662,-0.09434877336025238,3.982055902481079,0.1529744416475296,0.0,0.0,0.0,-0.022959526628255844,0.010530785657465458,-0.0,0.0,0.0,0.0,0.0010512140579521656,0.004999999888241291,0.0002878685190808028,27127.0,5586.0,26623.0,33772.0,0.10170352458953857,0.016108818352222443,0.09927497804164886,0.1356314867734909,0.0,0.0,0.0,0.0,26548.0,5943.0,26390.0,34289.0,0.26571154594421387,-0.057372844060119534,-0.21901759152737338,-0.019854377413866094,-0.03237687796354294,-0.0641823410987854,0.2191009521484375
309,5,-0.00016216140647884458,-0.0003973189159296453,0.003394279396161437,0.00804667454212904,0.01667628437280655,-0.027132751420140266,-0.025742072612047195,0.15540163218975067,0.0033979325089603662,-0.09434877336025238,3.982055902481079,0.1529744416475296,0.0,0.0,0.0,-0.023887479677796364,0.009802078828215599,-0.0,0.0,0.0,0.0,0.0010512140579521656,0.004999999888241291,0.0002878685190808028,27127.0,5586.0,26623.0,33772.0,0.10170352458953857,0.016108818352222443,0.09927497804164886,0.1356314867734909,0.0,0.0,0.0,0.0,26548.0,5943.0,26390.0,34289.0,0.2665424346923828,-0.09510048407754651,-0.15650334055756407,-0.015422732811656518,-0.030229881405830383,-0.06698514521121979,0.22371819615364075
314,5,-0.000175754219526425,-0.0003946087381336838,0.0036714973393827677,0.0005110070342198014,0.004623460583388805,-0.0469503253698349,-0.02648722194135189,0.12316762655973434,0.0036593929398804903,-0.08153308928012848,4.119626045227051,0.1382340043783188,0.0,0.0,0.0,-0.00816431175917387,0.000634419615380466,-0.0,0.0,0.0,0.0,0.004885740112513304,0.004999999888241291,0.00040480299503542483,27365.0,4861.0,27086.0,33557.0,0.10285753011703491,0.01387895829975605,0.10150483250617981,0.13447746634483337,0.0,0.0,0.0,0.0,25159.0,2481.0,17621.0,25895.0,0.25428372621536255,-0.09670634321043124,-0.13361483947601654,-0.010329398199992465,-0.0018668335396796465,-0.02184424176812172,0.29763153195381165
319,5,-6.912302342243493e-05,-0.0002674732240848243,0.003981283865869045,0.015081671066582203,-0.016411935910582542,-0.05745520815253258,-0.02648722194135189,0.12316762655973434,0.0036593929398804903,-0.08153308928012848,4.119626045227051,0.1382340043783188,0.0,0.0,0.0,0.02026042714715004,0.01823064498603344,-0.0,0.0,0.0,0.0,0.004885740112513304,0.004999999888241291,0.00040480299503542483,27365.0,4861.0,27086.0,33557.0,0.10285753011703491,0.01387895829975605,0.10150483250617981,0.13447746634483337,0.0,0.0,0.0,0.0,25159.0,2481.0,17621.0,25895.0,0.27047455310821533,-0.08204297514576865,-0.11848578569286418,-0.009340240404487169,-0.057055916637182236,0.057653479278087616,0.34693408012390137
324,5,0.0002679362951312214,2.274769030918833e-05,0.003835638053715229,0.05171280726790428,-0.0455545075237751,0.0031538440380245447,-0.02648722194135189,0.12316762655973434,0.0036593929398804903,-0.08153308928012848,4.119626045227051,0.1382340043783188,0.0,0.0,0.0,0.0447428822517395,0.04742547869682312,-0.0,0.0,0.0,0.0,0.004885740112513304,0.004999999888241291,0.00040480299503542483,27365.0,4861.0,27086.0,33557.0,0.10285753011703491,0.01387895829975605,0.10150483250617981,0.13447746634483337,0.0,0.0,0.0,0.0,25159.0,2481.0,17621.0,25895.0,0.3580506443977356,-0.06790072380533323,-0.1027393232801699,-0.0006143189364648053,-0.19626587629318237,0.16848713159561157,0.17505058646202087
329,5,0.00015722977695986629,-8.022752444958314e-05,0.004255675245076418,1.4928518794476986e-05,0.0007501775398850441,-0.05785904452204704,-0.02718214876949787,0.0750299021601677,0.004073491785675287,-0.04022982344031334,3.9837646484375,0.11811644583940506,0.0,0.0,0.0,-0.002137357834726572,0.00062458252068609,-0.0,0.0,0.0,0.0,0.002280044136568904,0.004999999888241291,0.0003087796503677964,24935.0,3024.0,17236.0,26115.0,0.09128642082214355,0.008411145769059658,0.05777109041810036,0.09684702754020691,0.0,0.0,0.0,0.0,28425.0,6869.0,15825.0,23835.0,0.2542758285999298,-0.07149647172691098,-0.08040513248856915,-0.0049477989468752846,-0.0018383824499323964,-0.005718532484024763,0.3762474060058594
334,5,0.00017717608716338873,-0.00012350332690402865,0.0044642421416938305,0.002796962158754468,0.00628366693854332,-0.04655710980296135,-0.02718214876949787,0.0750299021601677,0.004073491785675287,-0.04022982344031334,3.9837646484375,0.11811644583940506,0.0,0.0,0.0,-0.009988670237362385,0.004218710120767355,-0.0,0.0,0.0,0.0,0.002280044136568904,0.004999999888241291,0.0003087796503677964,24935.0,3024.0,17236.0,26115.0,0.09128642082214355,0.008411145769059658,0.05777109041810036,0.09684702754020691,0.0,0.0,0.0,0.0,28425.0,6869.0,15825.0,23835.0,0.2542901337146759,-0.0786231891873931,-0.06223738621537413,0.0014894767858092033,-0.01241600327193737,-0.026725390926003456,0.36134856939315796
340,5,1.8552531400928274e-05,-0.0003011333756148815,0.004768738057464361,-0.021368209272623062,0.02675330638885498,-0.05659652128815651,-0.027882201597094536,0.043536633253097534,0.004296665079891682,-0.054646436125040054,3.923015594482422,0.18527093529701233,0.0,0.0,0.0,-0.033570028841495514,-0.023093082010746002,-0.0,0.0,0.0,0.0,0.00044598837848752737,0.004999999888241291,0.00036327927955426276,28727.0,6313.0,16274.0,23507.0,0.10954876989126205,0.018390297889709473,0.05391725152730942,0.08470999449491501,0.0,0.0,0.0,0.0,29344.0,6802.0,26378.0,32218.0,0.2959003150463104,-0.09279016492893456,-0.036759302075732136,0.008196604587328805,0.07903693616390228,-0.10449190437793732,0.41268637776374817
345,5,7.19900635886006e-05,-0.0004278941487427801,0.005004669539630413,0.0010707913897931576,0.025772498920559883,-0.050009410828351974,-0.027882201597094536,0.043536633253097534,0.004296665079891682,-0.054646436125040054,3.923015594482422,0.18527093529701233,0.0,0.0,0.0,-0.03435446321964264,0.0016631503822281957,-0.0,0.0,0.0,0.0,0.00044598837848752737,0.004999999888241291,0.00036327927955426276,28727.0,6313.0,16274.0,23507.0,0.10954876989126205,0.018390297889709473,0.05391725152730942,0.08470999449491501,0.0,0.0,0.0,0.0,29344.0,6802.0,26378.0,32218.0,0.28105583786964417,-0.081378255066801,-0.020856974349323504,0.006067971076353839,-0.0054069687612354755,-0.10156738013029099,0.4111514687538147
350,5,0.0008119710837490857,2.7435073207016103e-05,0.005142259411513805,0.10391857475042343,-0.05601434037089348,-0.03426535800099373,-0.028351059183478355,-0.0022256989032030106,0.004963994957506657,-0.04895452782511711,3.6807327270507812,0.14765648543834686,0.0,0.0,0.0,0.044674452394247055,0.07744152098894119,-0.0,0.0,0.0,0.0,0.0036861752159893513,0.004999999888241291,0.0004028355469927192,29193.0,7275.0,26058.0,32361.0,0.1118721216917038,0.021474048495292664,0.09657566249370575,0.1281288117170334,0.0,0.0,0.0,0.0,29007.0,7490.0,25911.0,32538.0,0.4417688250541687,-0.06045310067457887,-0.030664581047287837,-0.007521353831291749,-0.39517322182655334,0.207564577460289,0.38076069951057434
355,5,0.0009747584699653089,0.00018974054546561092,0.005357400514185429,0.05396581441164017,-0.03952706977725029,-0.04039939492940903,-0.028351059183478355,-0.0022256989032030106,0.004963994957506657,-0.04895452782511711,3.6807327270507812,0.14765648543834686,0.0,0.0,0.0,0.03911469504237175,0.050699058920145035,-0.0,0.0,0.0,0.0,0.0036861752159893513,0.004999999888241291,0.0004028355469927192,29193.0,7275.0,26058.0,32361.0,0.1118721216917038,0.021474048495292664,0.09657566249370575,0.1281288117170334,0.0,0.0,0.0,0.0,29007.0,7490.0,25911.0,32538.0,0.3564150631427765,-0.05256032842994035,-0.019851249229914276,-0.0048333280975036445,-0.2088940590620041,0.14663593471050262,0.4179667830467224
360,5,0.001281586941331625,0.0005158786661922932,0.0058135464787483215,0.0591457337141037,-0.05751745402812958,-0.07598021626472473,-0.028816726058721542,-0.03186700865626335,0.0054113175719976425,-0.05833258107304573,3.7050204277038574,0.1439632922410965,0.0,0.0,0.0,0.053415123373270035,0.051829639822244644,-0.0,0.0,0.0,0.0,-0.00011591184011194855,0.004999999888241291,0.000381199992261827,27350.0,3536.0,16862.0,23644.0,0.10278364270925522,0.009906597435474396,0.05626288056373596,0.08533705025911331,0.0,0.0,0.0,0.0,26901.0,4421.0,16200.0,24119.0,0.3844459652900696,-0.03244323143612894,-0.017457484857052858,-0.010572943580753062,-0.2301894575357437,0.21593089401721954,0.5482049584388733
365,5,0.0011313263094052672,0.00035828971886076033,0.005827265325933695,-0.0032927701249718666,0.004807210993021727,-0.024714739993214607,-0.028816726058721542,-0.03186700865626335,0.0054113175719976425,-0.05833258107304573,3.7050204277038574,0.1439632922410965,0.0,0.0,0.0,-0.006937685888260603,-0.0015470756916329265,-0.0,0.0,0.0,0.0,-0.00011591184011194855,0.004999999888241291,0.000381199992261827,27350.0,3536.0,16862.0,23644.0,0.10278364270925522,0.009906597435474396,0.05626288056373596,0.08533705025911331,0.0,0.0,0.0,0.0,26901.0,4421.0,16200.0,24119.0,0.254281610250473,-0.04335549433787691,0.00875785744360937,-0.0033457955521677646,0.004551350604742765,-0.018561195582151413,0.41205599904060364
370,5,0.001182875712402165,0.0003406380710657686,0.006036916747689247,0.006229082588106394,0.0039133974350988865,-0.03676561266183853,-0.029201801866292953,-0.0733853206038475,0.005827106535434723,-0.007258342579007149,3.304858446121216,0.14039406180381775,0.0,0.0,0.0,-0.005691377446055412,0.010766474530100822,-0.0,0.0,0.0,0.0,0.003564080921933055,0.004999999888241291,0.0004302827292121947,30025.0,8758.0,16088.0,23668.0,0.1160641759634018,0.026373423635959625,0.05318319797515869,0.0854436606168747,0.0,0.0,0.0,0.0,30316.0,8318.0,16460.0,23343.0,0.2542940676212311,-0.045354710479888864,0.023605456764279397,-0.0011556248600698912,-0.03168873116374016,-0.015227528288960457,0.4727790653705597
375,5,0.0010740516008809209,-7.342232129303738e-05,0.005583513528108597,-0.013366659171879292,0.059142474085092545,0.05244677886366844,-0.029201801866292953,-0.0733853206038475,0.005827106535434723,-0.007258342579007149,3.304858446121216,0.14039406180381775,0.0,0.0,0.0,-0.06212891638278961,-0.010609274730086327,-0.0,0.0,0.0,0.0,0.003564080921933055,0.004999999888241291,0.0004302827292121947,30025.0,8758.0,16088.0,23668.0,0.1160641759634018,0.026373423635959625,0.05318319797515869,0.0854436606168747,0.0,0.0,0.0,0.0,30316.0,8318.0,16460.0,23343.0,0.34378013014793396,-0.059781770316191626,0.05553203983749077,-0.003137559828532843,0.04213139787316322,-0.2245388925075531,0.22066611051559448
380,5,0.0014287035446614027,0.0005133685772307217,0.006585764233022928,0.04564128443598747,-0.06440798193216324,-0.12458106875419617,-0.02956457994878292,-0.09930809587240219,0.006333305966109037,-0.048035379499197006,3.1800358295440674,0.1480105221271515,0.0,0.0,0.0,0.060827191919088364,0.04148193448781967,-0.0,0.0,0.0,0.0,0.0011610172223299742,0.004999999888241291,0.00043466032366268337,27463.0,3410.0,16953.0,23523.0,0.10333049297332764,0.009536512196063995,0.056628674268722534,0.08478590846061707,0.0,0.0,0.0,0.0,29973.0,6201.0,26610.0,31455.0,0.378415584564209,-0.031078521728651706,0.042738792623128526,-0.0030519550755258207,-0.18129712343215942,0.24199186265468597,0.7838882803916931
385,5,0.001577939372509718,0.0005546956090256572,0.006685934029519558,0.03458540141582489,-0.025108179077506065,-0.051398102194070816,-0.02956457994878292,-0.09930809587240219,0.006333305966109037,-0.048035379499197006,3.1800358295440674,0.1480105221271515,0.0,0.0,0.0,0.0286258514970541,0.03864597529172897,-0.0,0.0,0.0,0.0,0.0011610172223299742,0.004999999888241291,0.00043466032366268337,27463.0,3410.0,16953.0,23523.0,0.10333049297332764,0.009536512196063995,0.056628674268722534,0.08478590846061707,0.0,0.0,0.0,0.0,29973.0,6201.0,26610.0,31455.0,0.31526535749435425,-0.02713054053066058,0.0534671762754714,-0.002519785660836627,-0.14092262089252472,0.09493980556726456,0.586100697517395
390,5,0.0016241128323599696,0.0006315696518868208,0.006921278778463602,0.016839908435940742,-0.018294820562005043,-0.0483677014708519,-0.03000088967382908,-0.15618708729743958,0.007389670237898827,-0.06511180847883224,2.542546272277832,0.12978358566761017,0.0,0.0,0.0,0.023613058030605316,0.023008467629551888,-0.0,0.0,0.0,0.0,-0.0014636939158663154,0.004999999888241291,0.00037109569530002773,34434.0,15002.0,18265.0,25237.0,0.1401602327823639,0.04893754422664642,0.06197350099682808,0.09270203113555908,0.0,0.0,0.0,0.0,27577.0,3262.0,17060.0,23401.0,0.281428724527359,-0.022769480059754627,0.06421539641657716,-0.00042105440158400636,-0.07491745054721832,0.06991331279277802,0.6007704734802246
395,5,0.0018914133543148637,0.0007643485441803932,0.006724360398948193,0.042474035173654556,-0.024077489972114563,0.013058271259069443,-0.03000088967382908,-0.15618708729743958,0.007389670237898827,-0.06511180847883224,2.542546272277832,0.12978358566761017,0.0,0.0,0.0,0.026788614690303802,0.04555035009980202,-0.0,0.0,0.0,0.0,-0.0014636939158663154,0.004999999888241291,0.00037109569530002773,34434.0,15002.0,18265.0,25237.0,0.1401602327823639,0.04893754422664642,0.06197350099682808,0.09270203113555908,0.0,0.0,0.0,0.0,27577.0,3262.0,17060.0,23401.0,0.3280288875102997,-0.011274389804006907,0.07276078344515385,0.001689603830437996,-0.1728188693523407,0.09244667738676071,0.43497997522354126
401,5,0.0018584931967779994,0.0006509508821181953,0.007005458697676659,0.00813338253647089,0.008652426302433014,-0.035436246544122696,-0.03031400963664055,-0.1852237433195114,0.008080658502876759,-0.004597758874297142,2.325453519821167,0.14957423508167267,0.0,0.0,0.0,-0.011410961858928204,0.01490087527781725,-0.0,0.0,0.0,0.0,0.0029958547092974186,0.004999999888241291,0.0004472133587114513,28540.0,4544.0,23305.0,28826.0,0.10861968249082565,0.012913955375552177,0.08379580825567245,0.1100412979722023,0.0,0.0,0.0,0.0,34708.0,14612.0,18627.0,25123.0,0.2563326358795166,-0.01897457425828717,0.08698917863169074,-0.0024276406165491668,-0.04420638456940651,-0.030774660408496857,0.60520339012146
406,5,0.0019357267301529646,0.0006561019690707326,0.007061314303427935,0.013252714648842812,0.0018745706183835864,-0.018450701609253883,-0.03031400963664055,-0.1852237433195114,0.008080658502876759,-0.004597758874297142,2.325453519821167,0.14957423508167267,0.0,0.0,0.0,-0.0018910266226157546,0.021179113537073135,-0.0,0.0,0.0,0.0,0.0029958547092974186,0.004999999888241291,0.0004472133587114513,28540.0,4544.0,23305.0,28826.0,0.10861968249082565,0.012913955375552177,0.08379580825567245,0.1100412979722023,0.0,0.0,0.0,0.0,34708.0,14612.0,18627.0,25123.0,0.26180875301361084,-0.019868111184004687,0.09988030476194774,-0.0023690351915501523,-0.06417190283536911,-0.0052092475816607475,0.5766305327415466
411,5,0.001792979659512639,0.0004744968027807772,0.007064989302307367,-0.01600877195596695,0.02598709799349308,-0.006049701012670994,-0.0304710753262043,-0.20249995589256287,0.008367473259568214,-0.03928493708372116,2.0373475551605225,0.10853923112154007,0.0,0.0,0.0,-0.032338812947273254,-0.014014620333909988,-0.0,0.0,0.0,0.0,0.002970778150483966,0.004999999888241291,0.00044323367183096707,29010.0,5841.0,23836.0,29639.0,0.11095720529556274,0.01690446026623249,0.08621059358119965,0.11410906165838242,0.0,0.0,0.0,0.0,28440.0,4742.0,23172.0,28926.0,0.28370192646980286,-0.033175674041915466,0.11801523465849417,0.005599554713543571,0.04598996788263321,-0.09651052951812744,0.5610198378562927
416,5,0.0018330815946683288,0.00025812778039835393,0.006546457763761282,0.0008116331300698221,0.038087792694568634,0.07077953219413757,-0.0304710753262043,-0.20249995589256287,0.008367473259568214,-0.03928493708372116,2.0373475551605225,0.10853923112154007,0.0,0.0,0.0,-0.044950056821107864,0.005044182296842337,-0.0,0.0,0.0,0.0,0.002970778150483966,0.004999999888241291,0.00044323367183096707,29010.0,5841.0,23836.0,29639.0,0.11095720529556274,0.01690446026623249,0.08621059358119965,0.11410906165838242,0.0,0.0,0.0,0.0,28440.0,4742.0,23172.0,28926.0,0.30246952176094055,-0.029434521962679434,0.13998063823600215,-0.01117752467342166,-0.01764078438282013,-0.14299088716506958,0.34461677074432373
421,5,0.0012975010322406888,0.00037359772250056267,0.006222013384103775,-0.0747377797961235,-0.0047394526191055775,0.06665602326393127,-0.0304710753262043,-0.20249995589256287,0.008367473259568214,-0.03928493708372116,2.0373475551605225,0.10853923112154007,0.0,0.0,0.0,0.0047921668738126755,-0.0639372169971466,-0.0,0.0,0.0,0.0,0.002970778150483966,0.004999999888241291,0.00044323367183096707,29010.0,5841.0,23836.0,29639.0,0.11095720529556274,0.01690446026623249,0.08621059358119965,0.11410906165838242,0.0,0.0,0.0,0.0,28440.0,4742.0,23172.0,28926.0,0.36279112100601196,-0.021547619206169846,0.18085904950859896,-0.008419126613734212,0.26828330755233765,0.018293393775820732,0.3719155490398407
426,5,0.0019062672508880496,0.0003582746721804142,0.00674036331474781,0.06280594319105148,0.0007233895594254136,-0.05257219076156616,-0.030564701184630394,-0.22473762929439545,0.008703288622200489,0.0013439514441415668,1.71988046169281,0.07621289789676666,0.0,0.0,0.0,-0.0005918426322750747,0.06124946102499962,-0.0,0.0,0.0,0.0,0.001486688619479537,0.004999999888241291,0.0004280230787117034,27312.0,3765.0,17644.0,24521.0,0.10259737074375153,0.010582943446934223,0.05942918732762337,0.08936597406864166,0.0,0.0,0.0,0.0,28774.0,6407.0,23444.0,29871.0,0.3544265627861023,-0.027795402825417818,0.15537116136755816,-0.007675700025654892,-0.2510979473590851,-0.0022071206476539373,0.7567025423049927
431,5,0.001916898530907929,0.0003430939686950296,0.006798760034143925,0.020330149680376053,0.0023423132952302694,-0.023947197943925858,-0.030564701184630394,-0.22473762929439545,0.008703288622200489,0.0013439514441415668,1.71988046169281,0.07621289789676666,0.0,0.0,0.0,-0.0028533628210425377,0.02883370965719223,-0.0,0.0,0.0,0.0,0.001486688619479537,0.004999999888241291,0.0004280230787117034,27312.0,3765.0,17644.0,24521.0,0.10259737074375153,0.010582943446934223,0.05942918732762337,0.08936597406864166,0.0,0.0,0.0,0.0,28774.0,6407.0,23444.0,29871.0,0.2763634920120239,-0.028592601354370577,0.16427286772026894,-0.0055689331996179505,-0.09221822768449783,-0.008296620100736618,0.6920974850654602
436,5,0.001985441194847226,0.0004224600561428815,0.006863549817353487,0.015695007517933846,-0.010408557951450348,-0.016254672780632973,-0.0304805189371109,-0.23667339980602264,0.009067113511264324,0.01298148836940527,1.3460716009140015,0.07487154006958008,0.0,0.0,0.0,0.013946211896836758,0.023943843320012093,-0.0,0.0,0.0,0.0,0.0017725506331771612,0.004999999888241291,0.0004441512865014374,32136.0,10635.0,24136.0,29898.0,0.1269494891166687,0.03282827138900757,0.08759035915136337,0.11542034894227982,0.0,0.0,0.0,0.0,31756.0,11338.0,23592.0,30290.0,0.2727328836917877,-0.02590611636192117,0.16937481542153046,-0.0038296350830619888,-0.07556729763746262,0.0400191992521286,0.6909012198448181
441,5,0.002019935753196478,0.0004260884888935834,0.0069305854849517345,0.009537747129797935,-0.003630547085776925,-0.014261443167924881,-0.0304805189371109,-0.23667339980602264,0.009067113511264324,0.01298148836940527,1.3460716009140015,0.07487154006958008,0.0,0.0,0.0,0.005437450483441353,0.017835376784205437,-0.0,0.0,0.0,0.0,0.0017725506331771612,0.004999999888241291,0.0004441512865014374,32136.0,10635.0,24136.0,29898.0,0.1269494891166687,0.03282827138900757,0.08759035915136337,0.11542034894227982,0.0,0.0,0.0,0.0,31756.0,11338.0,23592.0,30290.0,0.2569449245929718,-0.02629569060908656,0.1770718907380305,-0.001338244566838126,-0.05303971841931343,0.014700843021273613,0.7073806524276733
446,5,0.002171823289245367,0.0006830837810412049,0.007428966928273439,0.0241255983710289,-0.037068504840135574,-0.07405181974172592,-0.03046509437263012,-0.2500268518924713,0.009471248835325241,-0.005490749608725309,0.9079388380050659,0.0451582595705986,0.0,0.0,0.0,0.04212209954857826,0.0294862762093544,-0.0,0.0,0.0,0.0,0.0014425765257328749,0.004999999888241291,0.00041572441114112735,27890.0,5365.0,18220.0,25461.0,0.1054166704416275,0.01542595960199833,0.06179101765155792,0.09375151991844177,0.0,0.0,0.0,0.0,27900.0,5595.0,18047.0,25450.0,0.31958988308906555,-0.01577634778412152,0.16074471990975153,-0.0016406728571957253,-0.10895593464374542,0.1415870636701584,0.915749728679657
451,5,0.002409137785434723,0.0004894090234301984,0.007167665753513575,0.040461696684360504,0.015993915498256683,0.014366616494953632,-0.03046509437263012,-0.2500268518924713,0.009471248835325241,-0.005490749608725309,0.9079388380050659,0.0451582595705986,0.0,0.0,0.0,-0.01727484166622162,0.046302564442157745,-0.0,0.0,0.0,0.0,0.0014425765257328749,0.004999999888241291,0.00041572441114112735,27890.0,5365.0,18220.0,25461.0,0.1054166704416275,0.01542595960199833,0.06179101765155792,0.09375151991844177,0.0,0.0,0.0,0.0,27900.0,5595.0,18047.0,25450.0,0.3209679424762726,-0.015693604169280104,0.16208408762168725,-0.0005239352612914275,-0.17192259430885315,-0.05833648145198822,0.6694124341011047
457,5,0.0024063473101705313,0.00044412497663870454,0.007030712906271219,0.01174783706665039,0.011137943714857101,0.023483386263251305,-0.030372433364391327,-0.25571542978286743,0.009837977588176727,0.014113168232142925,0.4974724352359772,0.0351531095802784,0.0,0.0,0.0,-0.014290579594671726,0.02085927501320839,-0.0,0.0,0.0,0.0,0.0013166865101084113,0.004999999888241291,0.000421547912992537,28270.0,5179.0,18360.0,25062.0,0.10728491097688675,0.01485050842165947,0.062366463243961334,0.09188327193260193,0.0,0.0,0.0,0.0,26719.0,2977.0,17598.0,24600.0,0.26793235540390015,-0.017945117991509597,0.1657386175540378,-0.003256042990630647,-0.06467835605144501,-0.04028482362627983,0.6622173190116882
462,5,0.002378053730353713,0.0006207957630977035,0.007165026850998402,-0.00043674028711393476,-0.02139252983033657,-0.011758897453546524,-0.030372433364391327,-0.25571542978286743,0.009837977588176727,0.014113168232142925,0.4974724352359772,0.0351531095802784,0.0,0.0,0.0,0.02887190878391266,0.006112182512879372,-0.0,0.0,0.0,0.0,0.0013166865101084113,0.004999999888241291,0.000421547912992537,28270.0,5179.0,18360.0,25062.0,0.10728491097688675,0.01485050842165947,0.062366463243961334,0.09188327193260193,0.0,0.0,0.0,0.0,26719.0,2977.0,17598.0,24600.0,0.27247071266174316,-0.017620296423592256,0.17008469698763218,-0.0019990695468272137,-0.01926720142364502,0.08275754749774933,0.7912368774414062
