timestamp,dt,pos_x,pos_y,pos_z,vel_x,vel_y,vel_z,roll,pitch,yaw,agv_x,agv_y,agv_z,x_ref,y_ref,z_ref,roll_ref,pitch_ref,yaw_ref,x_vel_ref,y_vel_ref,z_vel_ref,x_torque,y_torque,z_torque,w0,w1,w2,w3,u0,u1,u2,u3,m0req,m1req,m2req,m3req,thrust0,thrust1,thrust2,thrust3,thrust_ref,roll_vicon,pitch_vicon,yaw_vicon,acc_x,acc_y,acc_z
5,5,0.0,0.0,0.0,0.002651991555467248,-0.0002002898690989241,0.0016442390624433756,0.01016900036484003,0.018488474190235138,-0.04421239346265793,0.006689634174108505,-0.16405725479125977,0.06086338683962822,0.0,0.0,0.0,0.00029222163720987737,0.0025794953107833862,-0.0,0.0,0.0,0.0,-0.00035280559677630663,-0.0016209781169891357,-0.0012242102529853582,0.0,0.0,0.0,0.0,0.0,0.0,0.0,0.0,0.0,0.0,0.0,0.0,0.0,0.0,0.0,0.0,0.3553134500980377,1.2977507693523007,0.007975351147172434,-1.0113300091539552,-0.010607966221868992,0.0008011594763956964,-0.00493271742016077
23,18,0.0,0.0,0.0,-0.0005315141170285642,-0.004774961620569229,0.004978158976882696,0.01016900036484003,0.018488474190235138,-0.04421239346265793,0.006689634174108505,-0.16405725479125977,0.06086338683962822,0.0,0.0,0.0,0.006966610439121723,-0.0005169854266569018,-0.0,0.0,0.0,0.0,-0.00035280559677630663,-0.0016209781169891357,-0.0012242102529853582,0.0,0.0,0.0,0.0,0.0,0.0,0.0,0.0,0.0,0.0,0.0,0.0,0.0,0.0,0.0,0.0,0.35532090067863464,1.2964417450665995,0.011674418197768191,-1.0118629994148,0.002126056468114257,0.019099846482276917,-0.014934476464986801
28,5,0.0,0.0,0.0,0.002223760588094592,-0.0014544407604262233,0.006604385562241077,0.01016900036484003,0.018488474190235138,-0.04421239346265793,0.006689634174108505,-0.16405725479125977,0.06086338683962822,0.0,0.0,0.0,0.002122020348906517,0.0021629719994962215,-0.0,0.0,0.0,0.0,-0.00035280559677630663,-0.0016209781169891357,-0.0012242102529853582,0.0,0.0,0.0,0.0,0.0,0.0,0.0,0.0,0.0,0.0,0.0,0.0,0.0,0.0,0.0,0.0,0.35531386733055115,1.2953326795149276,0.011551787186169936,-1.0121830602774577,-0.008895042352378368,0.005817763041704893,-0.019813157618045807
33,5,0.0,0.0,0.0,0.0017443574033677578,0.003185279667377472,-0.001910632592625916,0.01016900036484003,0.018488474190235138,-0.04421239346265793,0.006689634174108505,-0.16405725479125977,0.06086338683962822,0.0,0.0,0.0,0.002122020348906517,0.0021629719994962215,-0.0,0.0,0.0,0.0,-0.00035280559677630663,-0.0016209781169891357,-0.0012242102529853582,0.0,0.0,0.0,0.0,0.0,0.0,0.0,0.0,0.0,0.0,0.0,0.0,0.0,0.0,0.0,0.0,0.35531386733055115,1.2964476408533114,0.011225729305222278,-1.0122571819218267,-0.008895042352378368,0.005817763041704893,-0.019813157618045807
38,5,0.0,0.0,0.0,0.0036151909735053778,-0.0013443117495626211,-0.001370058162137866,0.010121524333953857,0.020025281235575676,-0.04372940585017204,-0.015298832207918167,-0.10449759662151337,0.0274327602237463,0.0,0.0,0.0,0.0019643940031528473,0.00352184078656137,-0.0,0.0,0.0,0.0,-0.00033505226019769907,-0.0010447159875184298,-0.0013419102178886533,0.0,0.0,0.0,0.0,0.0,0.0,0.0,0.0,0.0,0.0,0.0,0.0,0.0,0.0,0.0,0.0,0.35476192831993103,1.2961384566235734,0.009599710554100489,-1.012390878501721,-0.014460763894021511,0.0053772469982504845,0.004110174253582954
43,5,-4.384596104500815e-05,4.41990778199397e-05,-6.414362587747746e-07,-0.005053877364844084,-0.006591164041310549,-0.0003212163574062288,0.010121524333953857,0.020025281235575676,-0.04372940585017204,-0.015298832207918167,-0.10449759662151337,0.0274327602237463,0.0,0.0,0.0,0.009728149510920048,-0.004987449385225773,-0.0,0.0,0.0,0.0,-0.00033505226019769907,-0.0010447159875184298,-0.0013419102178886533,0.0,0.0,0.0,0.0,0.0,0.0,0.0,0.0,0.0,0.0,0.0,0.0,0.0,0.0,0.0,0.0,0.3547802269458771,1.2966469132125475,0.011428559628214298,-1.0114123479726111,0.020478760823607445,0.02663002721965313,0.0009539954480715096
48,5,2.4773029508651234e-05,2.640580760271405e-06,-6.118396413512528e-05,0.008090496063232422,0.0038408401887863874,0.008379588834941387,0.01015712134540081,0.021619955077767372,-0.04410810023546219,-0.0004941961960867047,-0.0864996686577797,-0.03068181686103344,0.0,0.0,0.0,-0.005595771595835686,0.007906571961939335,-0.0,0.0,0.0,0.0,-0.00031395239057019353,-0.001096045016311109,-0.0013717320980504155,10503.0,36114.0,13410.0,33024.0,0.032362744212150574,0.14843197166919708,0.04288613796234131,0.13163301348686218,0.0,0.0,0.0,0.0,0.0,0.0,0.0,0.0,0.35520943999290466,1.296293111504597,0.011276765710598758,-1.0128036523396502,-0.0325048603117466,-0.015336792916059494,-0.02619452029466629
53,5,-3.34839423885569e-05,-9.298267286794726e-06,-2.715825758059509e-05,-0.005728827323764563,0.0028236908838152885,-0.002249722369015217,0.01015712134540081,0.021619955077767372,-0.04410810023546219,-0.0004941961960867047,-0.0864996686577797,-0.03068181686103344,0.0,0.0,0.0,-0.004137763287872076,-0.0056247347965836525,-0.0,0.0,0.0,0.0,-0.00031395239057019353,-0.001096045016311109,-0.0013717320980504155,10503.0,36114.0,13410.0,33024.0,0.032362744212150574,0.14843197166919708,0.04288613796234131,0.13163301348686218,0.0,0.0,0.0,0.0,0.0,0.0,0.0,0.0,0.35520145297050476,1.297206988960816,0.010731504306894693,-1.0117135661450605,0.02312375046312809,-0.011340533383190632,0.006135005969554186
58,5,-2.048841088253539e-05,4.638383416022407e-06,-4.749837898998521e-05,0.00010072632721858099,-0.0011040238896384835,0.0021727001294493675,0.010215177200734615,0.022489536553621292,-0.044201795011758804,-0.006178424693644047,-0.07741562277078629,0.03863387554883957,0.0,0.0,0.0,0.001624168362468481,6.510627281386405e-05,-0.0,0.0,0.0,0.0,-0.0002645791682880372,-0.0012149900430813432,-0.001335797132924199,10204.0,35706.0,14881.0,32491.0,0.03132099658250809,0.14617198705673218,0.048472411930561066,0.12881487607955933,0.0,0.0,0.0,0.0,10773.0,35332.0,15049.0,32382.0,0.35530057549476624,1.2966717345500707,0.01189068684936875,-1.0121650716799622,-0.00026773454737849534,0.004452680703252554,-0.007486586458981037
63,5,-7.798693332006223e-06,-3.961924812756479e-05,-3.884688703692518e-05,0.0018067782511934638,0.00586486142128706,-0.0005593987880274653,0.010215177200734615,0.022489536553621292,-0.044201795011758804,-0.006178424693644047,-0.07741562277078629,0.03863387554883957,0.0,0.0,0.0,-0.0086403489112854,0.0017420450458303094,-0.0,0.0,0.0,0.0,-0.0002645791682880372,-0.0012149900430813432,-0.001335797132924199,10204.0,35706.0,14881.0,32491.0,0.03132099658250809,0.14617198705673218,0.048472411930561066,0.12881487607955933,0.0,0.0,0.0,0.0,10773.0,35332.0,15049.0,32382.0,0.35531389713287354,1.297680398847731,0.0103682670533656,-1.0122459109756314,-0.0071637509390711784,-0.023688005283474922,0.0007103761308826506
68,5,-3.005313737958204e-05,3.248835855629295e-05,-5.460752799990587e-05,-0.002573588630184531,-0.008335607126355171,0.002038670238107443,0.010249502025544643,0.022787567228078842,-0.04421999305486679,0.003883961122483015,0.059215519577264786,-0.04741475731134415,0.0,0.0,0.0,0.012232393957674503,-0.002551488811150193,-0.0,0.0,0.0,0.0,-1.736422382236924e-05,-0.0007802326581440866,-0.0014018582878634334,10278.0,35689.0,12561.0,34098.0,0.03157641366124153,0.14607566595077515,0.03974160924553871,0.13738657534122467,0.0,0.0,0.0,0.0,11255.0,36158.0,11108.0,34027.0,0.35534870624542236,1.2954899576153105,0.011531727260421596,-1.0119152313914384,0.010493048466742039,0.0335380882024765,-0.007427857723087072
73,5,-6.16521792835556e-05,-1.094184335670434e-05,2.3579927074024454e-05,-0.005195942707359791,0.0035795464646071196,-0.010334642603993416,0.010249502025544643,0.022787567228078842,-0.04421999305486679,0.003883961122483015,0.059215519577264786,-0.04741475731134415,0.0,0.0,0.0,-0.005244323518127203,-0.005149273667484522,-0.0,0.0,0.0,0.0,-1.736422382236924e-05,-0.0007802326581440866,-0.0014018582878634334,10278.0,35689.0,12561.0,34098.0,0.03157641366124153,0.14607566595077515,0.03974160924553871,0.13738657534122467,0.0,0.0,0.0,0.0,11255.0,36158.0,11108.0,34027.0,0.35533055663108826,1.2974946640011311,0.01017284572936517,-1.0114689476829817,0.021176880225539207,-0.014378517866134644,0.03076895698904991
78,5,-2.545576080592582e-06,4.4127250475867186e-06,-1.4091244793235091e-06,0.006716141942888498,-0.001075775595381856,0.00039807442226447165,0.010249502025544643,0.022787567228078842,-0.04421999305486679,0.003883961122483015,0.059215519577264786,-0.04741475731134415,0.0,0.0,0.0,0.0015804292634129524,0.006519766058772802,-0.0,0.0,0.0,0.0,-0.0005301485653035343,0.00023181535652838647,-0.0013945141108706594,13185.0,34935.0,10283.0,34512.0,0.04204772412776947,0.14193254709243774,0.031594663858413696,0.13962651789188385,0.0,0.0,0.0,0.0,11255.0,36158.0,11108.0,34027.0,0.3553289473056793,1.2963002076334245,0.009847365420642906,-1.012458044255968,-0.02681298553943634,0.004333124496042728,-0.0017447298159822822
84,5,-3.717683284776285e-05,-2.0400051653268747e-05,5.871011671843007e-05,-0.00035910477163270116,0.003133949125185609,-0.0029669543728232384,0.010249502025544643,0.022787567228078842,-0.04421999305486679,0.003883961122483015,0.059215519577264786,-0.04741475731134415,0.0,0.0,0.0,-0.004615689627826214,-0.0004127149877604097,-0.0,0.0,0.0,0.0,-0.0005301485653035343,0.00023181535652838647,-0.0013945141108706594,13185.0,34935.0,10283.0,34512.0,0.04204772412776947,0.14193254709243774,0.031594663858413696,0.13962651789188385,0.0,0.0,0.0,0.0,11255.0,36158.0,11108.0,34027.0,0.35532477498054504,1.29755360799507,0.009912388421073918,-1.0117177340392105,0.0016972949961200356,-0.012654757127165794,0.00927344523370266
89,5,-3.717683284776285e-05,-2.0400051653268747e-05,5.871011671843007e-05,-0.00035910477163270116,0.003133949125185609,-0.0029669543728232384,0.010249502025544643,0.022787567228078842,-0.04421999305486679,0.003883961122483015,0.059215519577264786,-0.04741475731134415,0.0,0.0,0.0,-0.004616894759237766,-0.00041417943430133164,-0.0,0.0,0.0,0.0,-0.0005301485653035343,0.00023181535652838647,-0.0013945141108706594,13185.0,34935.0,10283.0,34512.0,0.04204772412776947,0.14193254709243774,0.031594663858413696,0.13962651789188385,0.0,0.0,0.0,0.0,11255.0,36158.0,11108.0,34027.0,0.35532477498054504,1.29755360799507,0.009912388421073918,-1.0117177340392105,0.0017033918993547559,-0.012658102437853813,0.009393800981342793
94,5,-5.443609188660048e-05,-2.53930629696697e-05,5.451818651636131e-05,-0.0025240276008844376,0.0016392064280807972,-0.000303215638268739,0.010499587282538414,0.018207745626568794,-0.04501773789525032,-0.010395362973213196,0.3012799620628357,-0.07037007808685303,0.0,0.0,0.0,-0.002443999983370304,-0.002542861271649599,-0.0,0.0,0.0,0.0,-0.0006426324252970517,0.0010852358536794782,-0.0015477119013667107,13129.0,35215.0,7029.0,36275.0,0.04184168949723244,0.14346539974212646,0.020678136497735977,0.14932870864868164,0.0,0.0,0.0,0.0,13240.0,34367.0,7934.0,36504.0,0.35623687505722046,1.297175247925559,0.009020838027784446,-1.011585676190899,0.010484459809958935,-0.006717910058796406,0.0016073653241619468
99,5,-7.049985288176686e-05,-2.6949199309456162e-05,7.975836342666298e-05,-0.003554006339982152,-0.005445109214633703,-0.0011433711042627692,0.010499587282538414,0.018207745626568794,-0.04501773789525032,-0.010395362973213196,0.3012799620628357,-0.07037007808685303,0.0,0.0,0.0,0.007861487567424774,-0.003565798979252577,-0.0,0.0,0.0,0.0,-0.0006426324252970517,0.0010852358536794782,-0.0015477119013667107,13129.0,35215.0,7029.0,36275.0,0.04184168949723244,0.14346539974212646,0.020678136497735977,0.14932870864868164,0.0,0.0,0.0,0.0,13240.0,34367.0,7934.0,36504.0,0.3562479615211487,1.2984127949287996,0.008714564688700016,-1.011312034816861,0.014702300541102886,0.021609343588352203,0.00452667661011219
104,5,-2.346152723475825e-05,4.358329169917852e-05,-4.027026807307266e-05,0.005519163329154253,-0.01150808110833168,0.016460997983813286,0.010725386440753937,0.016243238002061844,-0.04522472247481346,0.02344757877290249,0.20215150713920593,-0.03889920189976692,0.0,0.0,0.0,0.01682428829371929,0.005297301337122917,-0.0,0.0,0.0,0.0,-0.00039931334322318435,0.000838862732052803,-0.001498987665399909,12564.0,35072.0,8462.0,35949.0,0.03975442796945572,0.14267918467521667,0.02538023144006729,0.14751508831977844,0.0,0.0,0.0,0.0,12359.0,35478.0,8553.0,35625.0,0.3565272092819214,1.2960079490216874,0.010784455013054266,-1.012010341524048,-0.021855970844626427,0.0462786965072155,-0.0498616024851799
109,5,-2.4075192413874902e-05,4.17901246692054e-05,-3.3781157981138676e-05,0.0015698359347879887,-0.003201381303369999,0.004029823467135429,0.010725386440753937,0.016243238002061844,-0.04522472247481346,0.02344757877290249,0.20215150713920593,-0.03889920189976692,0.0,0.0,0.0,0.004744952544569969,0.0014662437606602907,-0.0,0.0,0.0,0.0,-0.00039931334322318435,0.000838862732052803,-0.001498987665399909,12564.0,35072.0,8462.0,35949.0,0.03975442796945572,0.14267918467521667,0.02538023144006729,0.14751508831977844,0.0,0.0,0.0,0.0,12359.0,35478.0,8553.0,35625.0,0.35647615790367126,1.2967358653563978,0.011569624355064138,-1.011954382357724,-0.006049429532140493,0.01305138785392046,-0.012587916105985641
114,5,-1.06176648841938e-05,-1.440956680198724e-06,-3.60625926987268e-05,0.002355004660785198,0.005091937258839607,0.0015283479588106275,0.010752019472420216,0.014386049471795559,-0.0457829050719738,0.007180897984653711,0.10530635714530945,-0.035931672900915146,0.0,0.0,0.0,-0.007393206469714642,0.0022416822612285614,-0.0,0.0,0.0,0.0,-0.00015471992082893848,-0.0004397595184855163,-0.0015661651268601418,10824.0,36493.0,8893.0,35396.0,0.03349067270755768,0.1505431830883026,0.026828333735466003,0.14446258544921875,0.0,0.0,0.0,0.0,11612.0,36068.0,9803.0,34749.0,0.3571217358112335,1.2977608867762531,0.011980911903913222,-1.0122511706400636,-0.009265382774174213,-0.02037210203707218,-0.005217821802943945
119,5,9.9530343504739e-06,2.4485218091285788e-05,-9.920107549987733e-05,0.003586399368941784,-0.00210208329372108,0.009297892451286316,0.010752019472420216,0.014386049471795559,-0.0457829050719738,0.007180897984653711,0.10530635714530945,-0.035931672900915146,0.0,0.0,0.0,0.0031063316855579615,0.003462704597041011,-0.0,0.0,0.0,0.0,-0.00015471992082893848,-0.0004397595184855163,-0.0015661651268601418,10824.0,36493.0,8893.0,35396.0,0.03349067270755768,0.1505431830883026,0.026828333735466003,0.14446258544921875,0.0,0.0,0.0,0.0,11612.0,36068.0,9803.0,34749.0,0.3571149408817291,1.295769162098725,0.011576716992821869,-1.0124215031750865,-0.014312212355434895,0.008559519425034523,-0.029585782438516617
124,5,-3.5504664992913604e-05,3.642504816525616e-05,-5.660055103362538e-05,-0.00528815807774663,-0.0023022012319415808,-0.003174705896526575,0.010931098833680153,0.013902773149311543,-0.046025317162275314,0.00478360103443265,0.05140865221619606,-0.006328254006803036,0.0,0.0,0.0,0.003422317560762167,-0.00518721854314208,-0.0,0.0,0.0,0.0,-0.0002288965624757111,-0.00018358189845457673,-0.001562160556204617,9858.0,36353.0,10796.0,35125.0,0.03012046217918396,0.14976444840431213,0.03339293599128723,0.14297008514404297,0.0,0.0,0.0,0.0,9499.0,36479.0,10455.0,35439.0,0.35739564895629883,1.295225979784179,0.010346048587219886,-1.0118006621050453,0.021456830203533173,0.009437626227736473,0.008178743533790112
129,5,-6.321329419733956e-05,3.131266566924751e-05,-2.825807132467162e-05,-0.005465655587613583,2.5073350116144866e-05,-0.004920358769595623,0.010931098833680153,0.013902773149311543,-0.046025317162275314,0.00478360103443265,0.05140865221619606,-0.006328254006803036,0.0,0.0,0.0,3.8435522583313286e-05,-0.005400996655225754,-0.0,0.0,0.0,0.0,-0.0002288965624757111,-0.00018358189845457673,-0.001562160556204617,9858.0,36353.0,10796.0,35125.0,0.03012046217918396,0.14976444840431213,0.03339293599128723,0.14297008514404297,0.0,0.0,0.0,0.0,9499.0,36479.0,10455.0,35439.0,0.35739395022392273,1.2952812713454487,0.01117744210284071,-1.0114301990099641,0.022341135889291763,0.00010599246161291376,0.013683774508535862
134,5,-4.516298940870911e-05,-3.673683022498153e-05,3.357370587764308e-05,0.0008873457554727793,0.009534451179206371,-0.010132556781172752,0.010963025502860546,0.01321809645742178,-0.04650058597326279,-0.005183843430131674,0.060139741748571396,-0.044446226209402084,0.0,0.0,0.0,-0.013878963887691498,0.0007637536618858576,-0.0,0.0,0.0,0.0,-0.0003105425857938826,0.00017436292546335608,-0.0016755488468334079,9647.0,36972.0,8071.0,36468.0,0.029393114149570465,0.15323302149772644,0.024080239236354828,0.1504085659980774,0.0,0.0,0.0,0.0,9280.0,36918.0,9260.0,35917.0,0.35796767473220825,1.2971725674253192,0.010190971707059855,-1.0123174076978727,-0.003163946559652686,-0.038332510739564896,0.030165456235408783
140,5,-2.0650610167649575e-05,-1.1062352314183954e-05,2.417405448795762e-05,0.00369793688878417,-0.0007340915617533028,-0.0017238156870007515,0.010963025502860546,0.01321809645742178,-0.04650058597326279,-0.005183843430131674,0.060139741748571396,-0.044446226209402084,0.0,0.0,0.0,0.0010454084258526564,0.0035104600246995687,-0.0,0.0,0.0,0.0,-0.0003105425857938826,0.00017436292546335608,-0.0016755488468334079,9647.0,36972.0,8071.0,36468.0,0.029393114149570465,0.15323302149772644,0.024080239236354828,0.1504085659980774,0.0,0.0,0.0,0.0,9280.0,36918.0,9260.0,35917.0,0.35793551802635193,1.2969276045752562,0.010775287358645197,-1.0121404360576365,-0.014542956836521626,0.0028872359544038773,0.004895366728305817
145,5,-4.921157960779965e-05,-1.7700125681585632e-05,6.542592745972797e-05,-0.002889154478907585,0.0007090608705766499,-0.006292407400906086,0.011087787337601185,0.012671515345573425,-0.04689155891537666,0.0284709632396698,0.0634564608335495,-0.05893871188163757,0.0,0.0,0.0,-0.001058802823536098,-0.0028886364307254553,-0.0,0.0,0.0,0.0,-0.00042580769513733685,-0.0005581674631685019,-0.0016982101369649172,8694.0,37691.0,8559.0,36078.0,0.026156410574913025,0.15729951858520508,0.025705769658088684,0.14823225140571594,0.0,0.0,0.0,0.0,9289.0,37153.0,8612.0,36181.0,0.35838261246681213,1.2981280969840014,0.010839692370181031,-1.0115636139540938,0.011981984600424767,-0.0029279396403580904,0.019296744838356972
150,5,-2.456893344060518e-05,-7.418303084705258e-06,7.198757430160185e-06,0.0025832238607108593,-0.0012267370475456119,0.006264082156121731,0.011087787337601185,0.012671515345573425,-0.04689155891537666,0.0284709632396698,0.0634564608335495,-0.05893871188163757,0.0,0.0,0.0,0.0017621605657041073,0.002421473152935505,-0.0,0.0,0.0,0.0,-0.00042580769513733685,-0.0005581674631685019,-0.0016982101369649172,8694.0,37691.0,8559.0,36078.0,0.026156410574913025,0.15729951858520508,0.025705769658088684,0.14823225140571594,0.0,0.0,0.0,0.0,9289.0,37153.0,8612.0,36181.0,0.35838252305984497,1.2973689294788968,0.011223370895443107,-1.012099466483931,-0.010044114664196968,0.004872892517596483,-0.01905948668718338
155,5,-2.9637498300871812e-05,-7.205220026662573e-05,3.680599184008315e-05,6.536813452839851e-05,0.008680724538862705,-0.002265788381919265,0.011168258264660835,0.011648875661194324,-0.04755568876862526,-0.0120423324406147,0.11982691287994385,-0.05739622563123703,0.0,0.0,0.0,-0.012682734988629818,-1.529492874396965e-05,-0.0,0.0,0.0,0.0,-0.0004219338297843933,0.00040239974623546004,-0.0017247718060389161,8694.0,37691.0,8559.0,36078.0,0.026156410574913025,0.15729951858520508,0.025705769658088684,0.14823225140571594,0.0,0.0,0.0,0.0,9445.0,37279.0,7682.0,36561.0,0.35917049646377563,1.2993264604627466,0.009985304671663215,-1.011596284425402,6.363618012983352e-05,-0.035146795213222504,0.006997309159487486
160,5,4.3745467337430455e-06,4.106671622139402e-05,-6.65508268866688e-05,0.004781296476721764,-0.013232431374490261,0.013790218159556389,0.011168258264660835,0.011648875661194324,-0.04755568876862526,-0.0120423324406147,0.11982691287994385,-0.05739622563123703,0.0,0.0,0.0,0.01918523758649826,0.004570286720991135,-0.0,0.0,0.0,0.0,-0.0004219338297843933,0.00040239974623546004,-0.0017247718060389161,8694.0,37691.0,8559.0,36078.0,0.026156410574913025,0.15729951858520508,0.025705769658088684,0.14823225140571594,0.0,0.0,0.0,0.0,9445.0,37279.0,7682.0,36561.0,0.35921144485473633,1.2958079776954243,0.012436674440073396,-1.0124715667913118,-0.018997587263584137,0.05316871032118797,-0.04262225329875946
165,5,-5.564489583775867e-06,1.8233678929391317e-05,-2.0559948097798042e-05,4.292390440241434e-05,-0.0007731039077043533,-0.0023016573395580053,0.011168258264660835,0.011648875661194324,-0.04755568876862526,-0.0120423324406147,0.11982691287994385,-0.05739622563123703,0.0,0.0,0.0,0.0011563291773200035,-3.4932670587295434e-06,-0.0,0.0,0.0,0.0,-0.0004219338297843933,0.00040239974623546004,-0.0017247718060389161,8694.0,37691.0,8559.0,36078.0,0.026156410574913025,0.15729951858520508,0.025705769658088684,0.14823225140571594,0.0,0.0,0.0,0.0,9445.0,37279.0,7682.0,36561.0,0.35914182662963867,1.2969222348869236,0.011505060666946985,-1.0122398011425562,1.4520573131449055e-05,0.003204367123544216,0.0061420416459441185
170,5,-6.802406278438866e-05,1.245325074705761e-05,2.3866215997259133e-05,-0.008731462992727757,0.0005773287266492844,-0.006910160183906555,0.011659662239253521,0.009693401865661144,-0.04884955659508705,0.02353704907000065,0.1393640786409378,-0.07111689448356628,0.0,0.0,0.0,-0.0008006193093024194,-0.008502272889018059,-0.0,0.0,0.0,0.0,-0.0004192329361103475,0.00032614549854770303,-0.0017885123379528522,9144.0,37588.0,6078.0,37522.0,0.027675919234752655,0.15671879053115845,0.017648957669734955,0.15633884072303772,0.0,0.0,0.0,0.0,9076.0,37637.0,6675.0,37099.0,0.36063674092292786,1.296769871768336,0.009354102271957933,-1.0112575801453,0.035488490015268326,-0.002227850491181016,0.020577650517225266
175,5,-7.939046918181702e-05,3.4728218452073634e-05,5.5143831559689716e-05,-0.00421073567122221,-0.0029452969320118427,-0.006451914086937904,0.011659662239253521,0.009693401865661144,-0.04884955659508705,0.02353704907000065,0.1393640786409378,-0.07111689448356628,0.0,0.0,0.0,0.004312223754823208,-0.004190282896161079,-0.0,0.0,0.0,0.0,-0.0004192329361103475,0.00032614549854770303,-0.0017885123379528522,9144.0,37588.0,6078.0,37522.0,0.027675919234752655,0.15671879053115845,0.017648957669734955,0.15633884072303772,0.0,0.0,0.0,0.0,9076.0,37637.0,6675.0,37099.0,0.3606300950050354,1.2975022927729767,0.010793501773648505,-1.0111018571491213,0.017490016296505928,0.01199935469776392,0.019744642078876495
180,5,-6.931725511094555e-05,3.63718208973296e-05,4.723807069240138e-05,0.00014702932094223797,-0.0011136934626847506,-0.0008287675445899367,0.011669068597257137,0.00840318389236927,-0.049241453409194946,0.01826016791164875,0.20600248873233795,-0.04132208973169327,0.0,0.0,0.0,0.004309854470193386,-0.004189632833003998,-0.0,0.0,0.0,0.0,-0.00039888033643364906,0.0006828257464803755,-0.0017816954059526324,9836.0,37202.0,5580.0,37897.0,0.03004436194896698,0.1545322835445404,0.016091182827949524,0.15847399830818176,0.0,0.0,0.0,0.0,9094.0,37459.0,6286.0,37564.0,0.36107897758483887,1.2967322252329203,0.009449805412720207,-1.0113091063133317,0.017508910968899727,0.012007620185613632,0.019908694550395012
185,5,-6.163751822896302e-05,-1.6872492778929882e-05,6.301428948063403e-05,0.0011192719684913754,0.007120095659047365,-0.0024573008995503187,0.011669068597257137,0.00840318389236927,-0.049241453409194946,0.01826016791164875,0.20600248873233795,-0.04132208973169327,0.0,0.0,0.0,-0.010249221697449684,0.0009335993672721088,-0.0,0.0,0.0,0.0,-0.00039888033643364906,0.0006828257464803755,-0.0017816954059526324,9836.0,37202.0,5580.0,37897.0,0.03004436194896698,0.1545322835445404,0.016091182827949524,0.15847399830818176,0.0,0.0,0.0,0.0,9094.0,37459.0,6286.0,37564.0,0.36109158396720886,1.2978104708042288,0.009555243659686278,-1.0112703646678507,-0.0039014634676277637,-0.028555363416671753,0.008182267658412457
190,5,-8.390571747440845e-05,-1.6417774531873874e-05,5.254845746094361e-05,-0.0027817669324576855,0.002072368049994111,0.0007280262070707977,0.011697179637849331,0.0057133943773806095,-0.049202896654605865,-0.026091916486620903,0.24617283046245575,0.015866907313466072,0.0,0.0,0.0,-0.003003072226420045,-0.002836134983226657,-0.0,0.0,0.0,0.0,-0.0003811547940131277,0.001014207606203854,-0.0017089375760406256,10752.0,36404.0,6538.0,37855.0,0.033239565789699554,0.15004882216453552,0.019103743135929108,0.15823796391487122,0.0,0.0,0.0,0.0,10503.0,36861.0,5762.0,37728.0,0.36103135347366333,1.2978877084310203,0.010865142189830874,-1.0113359368162569,0.011851183138787746,-0.008365771733224392,-0.0013421819312497973
195,5,-3.5186247259844095e-05,-4.992350659449585e-05,8.585281648265664e-06,0.005986196454614401,0.005312513094395399,0.0063732522539794445,0.011697179637849331,0.0057133943773806095,-0.049202896654605865,-0.026091916486620903,0.24617283046245575,0.015866907313466072,0.0,0.0,0.0,-0.007728963159024715,0.005622429773211479,-0.0,0.0,0.0,0.0,-0.0003811547940131277,0.001014207606203854,-0.0017089375760406256,10752.0,36404.0,6538.0,37855.0,0.033239565789699554,0.15004882216453552,0.019103743135929108,0.15823796391487122,0.0,0.0,0.0,0.0,10503.0,36861.0,5762.0,37728.0,0.3610447645187378,1.2980771185750846,0.011266712687308037,-1.0121030959268853,-0.02349388413131237,-0.021531296893954277,-0.018788428977131844
200,5,8.101916137093212e-06,2.0385014067869633e-05,-0.00010953523451462388,0.007856201380491257,-0.008249439299106598,0.0184488482773304,0.011491411365568638,0.0038915115874260664,-0.04899217560887337,-0.028250623494386673,0.22925621271133423,0.02057831920683384,0.0,0.0,0.0,0.011898954398930073,0.0074775805696845055,-0.0,0.0,0.0,0.0,-0.00023279299784917384,0.0009031716617755592,-0.001709152478724718,11768.0,36763.0,5289.0,37635.0,0.036858201026916504,0.15205734968185425,0.015190094709396362,0.15698593854904175,0.0,0.0,0.0,0.0,11860.0,36803.0,6021.0,37134.0,0.36082255840301514,1.294777405659572,0.01183419882667638,-1.0125463050155803,-0.03122527338564396,0.03312652185559273,-0.05676422268152237
206,5,6.923632554389769e-06,-8.078541577560827e-05,-9.00939412531443e-05,0.0021919007413089275,0.011689027771353722,0.002812873339280486,0.011491411365568638,0.0038915115874260664,-0.04899217560887337,-0.028250623494386673,0.22925621271133423,0.02057831920683384,0.0,0.0,0.0,-0.016964927315711975,0.002050597919151187,-0.0,0.0,0.0,0.0,-0.00023279299784917384,0.0009031716617755592,-0.001709152478724718,11768.0,36763.0,5289.0,37635.0,0.036858201026916504,0.15205734968185425,0.015190094709396362,0.15698593854904175,0.0,0.0,0.0,0.0,11860.0,36803.0,6021.0,37134.0,0.3608396053314209,1.2969064493236484,0.010951709389368514,-1.0126025131994174,-0.008562861010432243,-0.047230083495378494,-0.009878619574010372
211,5,-6.173917427076958e-06,-3.653218664112501e-05,-3.933804691769183e-05,-0.0011760867200791836,-0.0026887431740760803,-0.006261962931603193,0.011469641700387001,0.0019300916464999318,-0.04823613539338112,0.014219217002391815,0.1505466103553772,0.075926773250103,0.0,0.0,0.0,0.003790620481595397,-0.001196911558508873,-0.0,0.0,0.0,0.0,-0.0007570972666144371,0.0006344632129184902,-0.0016468833200633526,11964.0,36780.0,6828.0,36635.0,0.03756793588399887,0.15215438604354858,0.020031653344631195,0.1513376235961914,0.0,0.0,0.0,0.0,12187.0,36627.0,7110.0,36472.0,0.3599238097667694,1.2971731520918541,0.011014430123685387,-1.012566027918034,0.004986038897186518,0.010527219623327255,0.017838215455412865
216,5,-4.513745807344094e-05,9.073019464267418e-05,-5.482585038407706e-05,-0.005807721521705389,-0.018623357638716698,0.0002897036320064217,0.011469641700387001,0.0019300916464999318,-0.04823613539338112,0.014219217002391815,0.1505466103553772,0.075926773250103,0.0,0.0,0.0,0.027010101824998856,-0.005700712092220783,-0.0,0.0,0.0,0.0,-0.0007570972666144371,0.0006344632129184902,-0.0016468833200633526,11964.0,36780.0,6828.0,36635.0,0.03756793588399887,0.15215438604354858,0.020031653344631195,0.1513376235961914,0.0,0.0,0.0,0.0,12187.0,36627.0,7110.0,36472.0,0.36005815863609314,1.2946856369270847,0.01157190185479894,-1.0114287240605073,0.02374809980392456,0.07502110302448273,-0.00217024446465075
221,5,-1.0406629371573217e-05,6.677478086203337e-05,-1.8214128431282006e-05,0.003119999310001731,-0.0022332489024847746,-0.005038730334490538,0.011393171735107899,0.00100715400185436,-0.04761631041765213,-0.004226161632686853,0.07799576222896576,0.08733761310577393,0.0,0.0,0.0,0.003369133686646819,0.002924959175288677,-0.0,0.0,0.0,0.0,-0.0006304747075773776,0.0005824985564686358,-0.0016232639318332076,11866.0,36581.0,7595.0,36444.0,0.03721464425325394,0.15103906393051147,0.022516541182994843,0.15027451515197754,0.0,0.0,0.0,0.0,11923.0,37089.0,7967.0,35637.0,0.3592146039009094,1.295766545752472,0.01100512236748394,-1.0120014163172688,-0.012160634621977806,0.009338383562862873,0.01420387253165245
226,5,8.343333774973871e-07,3.944208219763823e-05,2.620987652335316e-05,0.002509734593331814,0.0031566033139824867,-0.007730979472398758,0.011393171735107899,0.00100715400185436,-0.04761631041765213,-0.004226161632686853,0.07799576222896576,0.08733761310577393,0.0,0.0,0.0,-0.004462575074285269,0.0023534507490694523,-0.0,0.0,0.0,0.0,-0.0006304747075773776,0.0005824985564686358,-0.0016232639318332076,11866.0,36581.0,7595.0,36444.0,0.03721464425325394,0.15103906393051147,0.022516541182994843,0.15027451515197754,0.0,0.0,0.0,0.0,11923.0,37089.0,7967.0,35637.0,0.3592156171798706,1.2969468436139202,0.010648914833231977,-1.011969578932894,-0.009784573689103127,-0.012368868105113506,0.022896524518728256
231,5,-5.5836193496361375e-05,5.426508141681552e-05,4.132239337195642e-05,-0.007180953398346901,-0.0011282386258244514,-0.004435046575963497,0.011064319871366024,0.0004941764636896551,-0.046370863914489746,-0.00190762709826231,0.04560259357094765,0.1169513612985611,0.0,0.0,0.0,0.0017636393895372748,-0.007079909555613995,-0.0,0.0,0.0,0.0,-0.0009270018781535327,0.00022221692779567093,-0.0015764114214107394,12298.0,37029.0,8224.0,35298.0,0.03878182917833328,0.1535516083240509,0.024587027728557587,0.1439191699028015,0.0,0.0,0.0,0.0,9761.0,35073.0,11806.0,36501.0,0.35779404640197754,1.2965455144015183,0.010384317411592892,-1.0111816366638997,0.029318569228053093,0.004868973512202501,0.013315276242792606
236,5,-9.323959238827229e-05,-3.603959385145572e-06,7.588267180835828e-05,-0.007390761747956276,0.007763193920254707,-0.006168952211737633,0.011064319871366024,0.0004941764636896551,-0.046370863914489746,-0.00190762709826231,0.04560259357094765,0.1169513612985611,0.0,0.0,0.0,-0.011240127496421337,-0.007339953910559416,-0.0,0.0,0.0,0.0,-0.0009270018781535327,0.00022221692779567093,-0.0015764114214107394,12298.0,37029.0,8224.0,35298.0,0.03878182917833328,0.1535516083240509,0.024587027728557587,0.1439191699028015,0.0,0.0,0.0,0.0,9761.0,35073.0,11806.0,36501.0,0.35781675577163696,1.2981408582456992,0.010325095689067228,-1.0110160624685207,0.030395662412047386,-0.031031852588057518,0.01916058547794819
241,5,-6.653570744674653e-05,-2.8527760150609538e-05,3.6252578865969554e-05,0.001521314843557775,0.005818290635943413,0.0036975271068513393,0.00984931830316782,0.00016621763643343002,-0.04506736993789673,-0.2814621925354004,0.020130962133407593,0.17881017923355103,0.0,0.0,0.0,-0.008512631058692932,0.0013073375448584557,-0.0,0.0,0.0,0.0,0.0010058905463665724,-0.0002031953918049112,-0.0014374334132298827,9327.0,34304.0,13959.0,36091.0,0.028300203382968903,0.13850033283233643,0.044951118528842926,0.14830651879310608,0.0,0.0,0.0,0.0,11895.0,34439.0,12221.0,35343.0,0.35630473494529724,1.2974924844983873,0.00928165601982197,-1.0112460019062537,-0.0053911288268864155,-0.023402880877256393,-0.010814403183758259
246,5,-7.01505778124556e-05,-3.01997806673171e-05,2.461169788148254e-05,-4.9687641876516864e-05,0.001979569671675563,0.0027389812748879194,0.00984931830316782,0.00016621763643343002,-0.04506736993789673,-0.2814621925354004,0.020130962133407593,0.17881017923355103,0.0,0.0,0.0,-0.0029335555154830217,-0.00022562859521713108,-0.0,0.0,0.0,0.0,0.0010058905463665724,-0.0002031953918049112,-0.0014374334132298827,9327.0,34304.0,13959.0,36091.0,0.028300203382968903,0.13850033283233643,0.044951118528842926,0.14830651879310608,0.0,0.0,0.0,0.0,11895.0,34439.0,12221.0,35343.0,0.35629305243492126,1.297003463025232,0.009675988648164682,-1.0112841005396278,0.0009305749554187059,-0.008064893074333668,-0.008006076328456402
251,5,-8.622120367363095e-05,-6.759521784260869e-05,6.6286331275478e-05,-0.002264793263748288,0.005829231813549995,-0.005012754816561937,0.006371600553393364,-0.0008704601787030697,-0.04265598580241203,-0.26915860176086426,0.11006366461515427,0.21224915981292725,0.0,0.0,0.0,-0.008686352521181107,-0.002420492935925722,-0.0,0.0,0.0,0.0,0.00023153959773480892,0.0004182699485681951,-0.0013446768280118704,12986.0,33731.0,12138.0,35366.0,0.04131019487977028,0.13541056215763092,0.038199279457330704,0.1442955881357193,0.0,0.0,0.0,0.0,13520.0,33533.0,12237.0,35132.0,0.3535439372062683,1.2987786762699824,0.008958602184534727,-1.0110478956082236,0.009904137812554836,-0.023695414885878563,0.015952065587043762
256,5,-6.365580338751897e-05,-7.380012539215386e-05,6.395801028702408e-05,0.0024797176010906696,0.002617457415908575,-0.001177861005999148,0.006371600553393364,-0.0008704601787030697,-0.04265598580241203,-0.26915860176086426,0.11006366461515427,0.21224915981292725,0.0,0.0,0.0,-0.003996416460722685,0.0022457095328718424,-0.0,0.0,0.0,0.0,0.00023153959773480892,0.0004182699485681951,-0.0013446768280118704,12986.0,33731.0,12138.0,35366.0,0.04131019487977028,0.13541056215763092,0.038199279457330704,0.1442955881357193,0.0,0.0,0.0,0.0,13520.0,33533.0,12237.0,35132.0,0.3535332679748535,1.2990861538114518,0.010393135378289156,-1.0116280644717954,-0.009188958443701267,-0.010901683941483498,0.004609427880495787
261,5,-1.9206199795007706e-05,-2.163357294193702e-06,-1.65018154802965e-05,0.00696686003357172,-0.009243911132216454,0.010911017656326294,0.0047593675553798676,-0.0020125394221395254,-0.04089920222759247,-0.1521872580051422,0.15716254711151123,0.22427955269813538,0.0,0.0,0.0,0.013624805957078934,0.006732011213898659,-0.0,0.0,0.0,0.0,-0.00014871094026602805,0.0005178277497179806,-0.001264635706320405,14323.0,33541.0,12139.0,34377.0,0.04633055627346039,0.13439138233661652,0.03820203244686127,0.13889281451702118,0.0,0.0,0.0,0.0,14922.0,33278.0,12223.0,34156.0,0.35155797004699707,1.2970254995572044,0.012094306879943697,-1.0122824559665609,-0.027389520779252052,0.03695676103234291,-0.03268388658761978
266,5,-1.603288546903059e-05,3.2111820473801345e-05,-1.7046044376911595e-05,0.0025343219749629498,-0.0075716981664299965,0.003349497215822339,0.0047593675553798676,-0.0020125394221395254,-0.04089920222759247,-0.1521872580051422,0.15716254711151123,0.22427955269813538,0.0,0.0,0.0,0.011234907433390617,0.0023777319584041834,-0.0,0.0,0.0,0.0,-0.00014871094026602805,0.0005178277497179806,-0.001264635706320405,14323.0,33541.0,12139.0,34377.0,0.04633055627346039,0.13439138233661652,0.03820203244686127,0.13889281451702118,0.0,0.0,0.0,0.0,14922.0,33278.0,12223.0,34156.0,0.35154053568840027,1.296174428300331,0.01185051240739955,-1.0121584327801096,-0.00967375934123993,0.03047344461083412,-0.010057901963591576
271,5,-4.302696470404044e-05,-1.822572448872961e-05,1.6192203474929556e-05,-0.0030188746750354767,0.00477574672549963,-0.0036485055461525917,0.0032003996893763542,-0.003960657399147749,-0.03837474063038826,-0.10983604192733765,0.14090609550476074,0.1899823397397995,0.0,0.0,0.0,-0.007082822732627392,-0.0031227983999997377,-0.0,0.0,0.0,0.0,-0.00014242177712731063,0.0009388963808305562,-0.0012695316690951586,14311.0,33098.0,11655.0,34861.0,0.0462854728102684,0.13202506303787231,0.03645431250333786,0.14152821898460388,0.0,0.0,0.0,0.0,14231.0,33145.0,11774.0,34793.0,0.3515278995037079,1.2975865401722302,0.010946809281066878,-1.0117020854472218,0.01270510908216238,-0.01921115629374981,0.011387696489691734
276,5,-2.308631519554183e-05,2.5129932055278914e-06,1.87440946319839e-05,0.0018860286800190806,-0.0014706965303048491,-0.0014518164098262787,0.0032003996893763542,-0.003960657399147749,-0.03837474063038826,-0.10983604192733765,0.14090609550476074,0.1899823397397995,0.0,0.0,0.0,0.0021914029493927956,0.0017407835694029927,-0.0,0.0,0.0,0.0,-0.00014242177712731063,0.0009388963808305562,-0.0012695316690951586,14311.0,33098.0,11655.0,34861.0,0.0462854728102684,0.13202506303787231,0.03645431250333786,0.14152821898460388,0.0,0.0,0.0,0.0,14231.0,33145.0,11774.0,34793.0,0.3486272692680359,1.2973313334551384,0.010675383446075984,-1.012068936870173,-0.007024060934782028,0.005894923582673073,0.004884866997599602
281,5,-4.177148366579786e-05,4.3352265493012965e-05,-1.1103414180979598e-05,-0.002050114795565605,-0.006158707197755575,0.0037431062664836645,0.0032003996893763542,-0.003960657399147749,-0.03837474063038826,-0.10983604192733765,0.14090609550476074,0.1899823397397995,0.0,0.0,0.0,0.009253720752894878,-0.002190417842939496,-0.0,0.0,0.0,0.0,-0.00014242177712731063,0.0009388963808305562,-0.0012695316690951586,14311.0,33098.0,11655.0,34861.0,0.0462854728102684,0.13202506303787231,0.03645431250333786,0.14152821898460388,0.0,0.0,0.0,0.0,14231.0,33145.0,11774.0,34793.0,0.34864166378974915,1.296439519742463,0.011968755673141197,-1.0117448862975393,0.00883839838206768,0.02489301934838295,-0.011094643734395504
287,5,-3.173578443238512e-05,7.034389909676975e-06,-1.016191890812479e-05,0.0007899631164036691,0.0032368905376642942,0.0009911225643008947,0.002515185624361038,-0.0051407539285719395,-0.03699451684951782,-0.050511814653873444,0.13294631242752075,0.15324795246124268,0.0,0.0,0.0,-0.004816314205527306,0.0006403889856301248,-0.0,0.0,0.0,0.0,-0.00026529605383984745,0.0003919430309906602,-0.00126419507432729,14656.0,32885.0,11086.0,34693.0,0.04760613664984703,0.13089734315872192,0.03441932424902916,0.1406104564666748,0.0,0.0,0.0,0.0,14241.0,33191.0,11470.0,34434.0,0.34704911708831787,1.2965236629407058,0.009648892881815774,-1.0120537729433288,-0.002572203055024147,-0.01289723813533783,-0.0028577628545463085
292,5,-1.9620125385699794e-05,-8.16158062661998e-05,1.2301962669880595e-05,0.0019331814255565405,0.013382094912230968,-0.0028476067818701267,0.002515185624361038,-0.0051407539285719395,-0.03699451684951782,-0.050511814653873444,0.13294631242752075,0.15324795246124268,0.0,0.0,0.0,-0.0048157102428376675,0.0006385718006640673,-0.0,0.0,0.0,0.0,-0.00026529605383984745,0.0003919430309906602,-0.00126419507432729,14656.0,32885.0,11086.0,34693.0,0.04760613664984703,0.13089734315872192,0.03441932424902916,0.1406104564666748,0.0,0.0,0.0,0.0,14241.0,33191.0,11470.0,34434.0,0.3470490872859955,1.2982502702597167,0.008312652855150648,-1.0118620980491713,-0.007210495416074991,-0.054008517414331436,0.008966729044914246
297,5,-5.2594332373701036e-05,8.61829084897181e-06,-1.6639367458992638e-05,-0.004036434460431337,-0.008618145249783993,0.0031975042074918747,0.0019538518972694874,-0.006227764766663313,-0.03521114960312843,-0.027418997138738632,0.07205348461866379,0.13855083286762238,0.0,0.0,0.0,-0.020294180139899254,0.001804594649001956,-0.0,0.0,0.0,0.0,0.0003166502865497023,-5.9108762798132375e-05,-0.0013401315081864595,13727.0,33669.0,11546.0,33900.0,0.044073931872844696,0.13507893681526184,0.036059848964214325,0.13631516695022583,0.0,0.0,0.0,0.0,13520.0,33858.0,11580.0,33833.0,0.3450344502925873,1.2966980032221485,0.010751030221539705,-1.0114412744892323,0.016870509833097458,0.03451476991176605,-0.009567156434059143
302,5,-2.7042648071073927e-05,-4.847497621085495e-06,-1.0875064617721364e-05,0.002366305561736226,-0.0007002332131378353,0.00015224883100017905,0.0019538518972694874,-0.006227764766663313,-0.03521114960312843,-0.027418997138738632,0.07205348461866379,0.13855083286762238,0.0,0.0,0.0,0.0010384370107203722,0.0022241133265197277,-0.0,0.0,0.0,0.0,0.0003166502865497023,-5.9108762798132375e-05,-0.0013401315081864595,13727.0,33669.0,11546.0,33900.0,0.044073931872844696,0.13507893681526184,0.036059848964214325,0.13631516695022583,0.0,0.0,0.0,0.0,13520.0,33858.0,11580.0,33833.0,0.3450033962726593,1.2971121949378794,0.01030724695214002,-1.011798835844121,-0.008881029672920704,0.0027643742505460978,-0.00039538744022138417
307,5,-2.1732825189246796e-05,-3.921478128177114e-05,-3.4165463148383424e-05,0.0014532668283209205,0.004601349588483572,0.003306330181658268,0.0015690886648371816,-0.006435413379222155,-0.03440990298986435,-0.029093608260154724,-0.01321113295853138,0.08634296804666519,0.0,0.0,0.0,-0.007024257443845272,0.0013193748891353607,-0.0,0.0,0.0,0.0,-0.000743066193535924,-0.00026600097771734,-0.001399609143845737,11797.0,35619.0,10160.0,33336.0,0.03696378320455551,0.14568859338760376,0.031167976558208466,0.13329583406448364,0.0,0.0,0.0,0.0,11036.0,34056.0,12017.0,34485.0,0.3440934121608734,1.2973812566419212,0.011297513257890728,-1.0120450665373217,-0.005254318471997976,-0.018649451434612274,-0.010240505449473858
312,5,-1.1766487659770064e-05,-2.4985465643112548e-05,-8.39266704133479e-06,0.001831267261877656,-0.0006116993608884513,-0.0026162920985370874,0.0015690886648371816,-0.006435413379222155,-0.03440990298986435,-0.029093608260154724,-0.01321113295853138,0.08634296804666519,0.0,0.0,0.0,-0.007027831859886646,0.001318054273724556,-0.0,0.0,0.0,0.0,-0.000743066193535924,-0.00026600097771734,-0.001399609143845737,11797.0,35619.0,10160.0,33336.0,0.03696378320455551,0.14568859338760376,0.031167976558208466,0.13329583406448364,0.0,0.0,0.0,0.0,11036.0,34056.0,12017.0,34485.0,0.3440934419631958,1.2973206833002318,0.011764768968468174,-1.0122768953114814,-0.006820878945291042,0.002278658328577876,0.007811247371137142
317,5,1.6017163943615742e-05,2.623983527882956e-05,-2.7858040994033217e-05,0.004439091309905052,-0.007355052046477795,0.0019402648322284222,0.0012923988979309797,-0.006037537008523941,-0.033811166882514954,-0.015886537730693817,-0.05963922291994095,0.030188262462615967,0.0,0.0,0.0,0.011153298430144787,0.004381908103823662,-0.0,0.0,0.0,0.0,-8.539435657439753e-05,-0.00032110168831422925,-0.0015241379151120782,9222.0,35603.0,10059.0,34699.0,0.02794279158115387,0.1456003040075302,0.030817270278930664,0.14064303040504456,0.0,0.0,0.0,0.0,11492.0,35816.0,9760.0,33596.0,0.3434235155582428,1.2959462787016671,0.011611751488215943,-1.0129069016253684,-0.017416108399629593,0.029553527012467384,-0.006176068913191557
322,5,-5.555371899390593e-05,7.207944145193323e-05,1.7078125893021934e-05,-0.00868819560855627,-0.008624060079455376,-0.005708984099328518,0.0012923988979309797,-0.006037537008523941,-0.033811166882514954,-0.015886537730693817,-0.05963922291994095,0.030188262462615967,0.0,0.0,0.0,0.013174597173929214,-0.008936351165175438,-0.0,0.0,0.0,0.0,-8.539435657439753e-05,-0.00032110168831422925,-0.0015241379151120782,9222.0,35603.0,10059.0,34699.0,0.02794279158115387,0.1456003040075302,0.030817270278930664,0.14064303040504456,0.0,0.0,0.0,0.0,11492.0,35816.0,9760.0,33596.0,0.3434423804283142,1.2961449619388787,0.013137920335959525,-1.0118209924112582,0.03551868349313736,0.034910790622234344,0.017363538965582848
327,5,-2.013863377214875e-05,-2.3062106265570037e-05,1.8134727724827826e-05,0.0023516530636698008,0.010732598602771759,-0.0018606194062158465,0.0015436832327395678,-0.005023433361202478,-0.034529831260442734,0.047717463225126266,-0.0010757794370874763,-0.0758267194032669,0.0,0.0,0.0,-0.016214989125728607,0.002218762179836631,-0.0,0.0,0.0,0.0,-0.00015273304597940296,0.00012388067261781543,-0.0016282277647405863,8966.0,35886.0,7883.0,35745.0,0.027072720229625702,0.147166907787323,0.023462332785129547,0.14638331532478333,0.0,0.0,0.0,0.0,8773.0,35846.0,9914.0,34824.0,0.3442681133747101,1.297823450418493,0.009806640184761154,-1.0119939710556813,-0.008839676156640053,-0.04306934401392937,0.0058868625201284885
332,5,-4.992537651560269e-05,1.3299454622028861e-05,5.1626400818349794e-05,-0.0034646482672542334,-0.001870838925242424,-0.005247020162642002,0.0015436832327395678,-0.005023433361202478,-0.034529831260442734,0.047717463225126266,-0.0010757794370874763,-0.0758267194032669,0.0,0.0,0.0,0.002845240058377385,-0.003666890086606145,-0.0,0.0,0.0,0.0,-0.00015273304597940296,0.00012388067261781543,-0.0016282277647405863,8966.0,35886.0,7883.0,35745.0,0.027072720229625702,0.147166907787323,0.023462332785129547,0.14638331532478333,0.0,0.0,0.0,0.0,8773.0,35846.0,9914.0,34824.0,0.3442257046699524,1.2977188136789326,0.009459914568552998,-1.0116232016865605,0.014609142206609249,0.007557113654911518,0.016603680327534676
337,5,-6.303201371338218e-05,-4.445394370122813e-05,3.955887950723991e-05,-0.0028743238653987646,0.0075242239981889725,0.0001153467019321397,0.0019317399710416794,-0.005155682098120451,-0.03533352166414261,0.07811886817216873,0.08718403428792953,-0.11094106733798981,0.0,0.0,0.0,-0.011402297765016556,-0.0030886768363416195,-0.0,0.0,0.0,0.0,0.0001322600874118507,8.184496982721612e-05,-0.0017265054630115628,7169.0,36212.0,7359.0,36679.0,0.02113133668899536,0.14897692203521729,0.021746158599853516,0.15158796310424805,0.0,0.0,0.0,0.0,8129.0,36292.0,7532.0,36050.0,0.3451666235923767,1.2981977621583636,0.009147075149034654,-1.0111515230560721,0.012338519096374512,-0.030366698279976845,0.0004898436018265784
342,5,-5.963543662801385e-05,-1.6299480193993077e-05,3.388973345863633e-05,-0.00038677616976201534,-0.0016843577614054084,0.0008282844792120159,0.0019317399710416794,-0.005155682098120451,-0.03533352166414261,0.07811886817216873,0.08718403428792953,-0.11094106733798981,0.0,0.0,0.0,0.0024880317505449057,-0.0005965270684100688,-0.0,0.0,0.0,0.0,0.0001322600874118507,8.184496982721612e-05,-0.0017265054630115628,7169.0,36212.0,7359.0,36679.0,0.02113133668899536,0.14897692203521729,0.021746158599853516,0.15158796310424805,0.0,0.0,0.0,0.0,8129.0,36292.0,7532.0,36050.0,0.3451436460018158,1.2976293163036603,0.009447989515882146,-1.0112906940150272,0.0023830696009099483,0.006625943351536989,-0.0016154720215126872
347,5,-4.2735631723189726e-05,5.884935035282979e-06,3.2965133414109005e-06,0.002249940298497677,-0.003611125284805894,0.004531536251306534,0.0028899293392896652,-0.006279811728745699,-0.03686285763978958,0.0850682407617569,0.1403634250164032,-0.13692745566368103,0.0,0.0,0.0,0.00540307629853487,0.0020550305489450693,-0.0,0.0,0.0,0.0,-0.00022135654580779374,0.0005519191036000848,-0.001848496263846755,7689.0,36729.0,4200.0,37754.0,0.022823825478553772,0.15186555683612823,0.011877954006195068,0.15765836834907532,0.0,0.0,0.0,0.0,7208.0,36302.0,6640.0,36980.0,0.34690001606941223,1.2968089312962365,0.010721723945950565,-1.0118340100924141,-0.008250830695033073,0.014462264254689217,-0.01308313850313425
353,5,-5.611474989564158e-05,-2.003098779823631e-05,7.4013137236761395e-06,-0.0011980944545939565,0.002544891554862261,0.0007847888628020883,0.0028899293392896652,-0.006279811728745699,-0.03686285763978958,0.0850682407617569,0.1403634250164032,-0.13692745566368103,0.0,0.0,0.0,-0.003854036331176758,-0.0014026914723217487,-0.0,0.0,0.0,0.0,-0.00022135654580779374,0.0005519191036000848,-0.001848496263846755,7689.0,36729.0,4200.0,37754.0,0.022823825478553772,0.15186555683612823,0.011877954006195068,0.15765836834907532,0.0,0.0,0.0,0.0,7208.0,36302.0,6640.0,36980.0,0.3468971252441406,1.2971849251822678,0.010510248708275532,-1.0118111043003968,0.005631892941892147,-0.010315990075469017,-0.0017712299013510346
358,5,-4.608394010574557e-05,-1.5660478311474435e-05,-1.870847881946247e-05,0.0010448845569044352,0.00015159610484261066,0.003890807507559657,0.0037411826197057962,-0.007373277097940445,-0.03779588267207146,0.10914403200149536,0.15888506174087524,-0.12824152410030365,0.0,0.0,0.0,-0.0002686701773200184,0.0008409633301198483,-0.0,0.0,0.0,0.0,-0.0002989541389979422,0.0007953990716487169,-0.0018536633579060435,7914.0,36788.0,3641.0,37858.0,0.023562759160995483,0.15219587087631226,0.01021699607372284,0.15825007855892181,0.0,0.0,0.0,0.0,8388.0,36769.0,2148.0,38516.0,0.34796300530433655,1.296965024706161,0.01148815562261392,-1.0118909659880206,-0.0033867605961859226,-0.0007213837816379964,-0.011459381319582462
363,5,4.369576799945207e-06,2.6976336812367663e-05,-3.747593655134551e-05,0.007376958150416613,-0.005923675373196602,0.003794686635956168,0.0037411826197057962,-0.007373277097940445,-0.03779588267207146,0.10914403200149536,0.15888506174087524,-0.12824152410030365,0.0,0.0,0.0,0.008875946514308453,0.007202381733804941,-0.0,0.0,0.0,0.0,-0.0002989541389979422,0.0007953990716487169,-0.0018536633579060435,7914.0,36788.0,3641.0,37858.0,0.023562759160995483,0.15219587087631226,0.01021699607372284,0.15825007855892181,0.0,0.0,0.0,0.0,8388.0,36769.0,2148.0,38516.0,0.3479856252670288,1.2963011685145995,0.011225218444203483,-1.0124177357193838,-0.02900701016187668,0.023831967264413834,-0.011509126983582973
368,5,1.8792301261782995e-06,4.1256829717895016e-05,-5.618023351416923e-05,0.0018644388765096664,-0.00377637124620378,0.0037570076528936625,0.004671443719416857,-0.008775968104600906,-0.03881996124982834,0.11120613664388657,0.18365398049354553,-0.12396294623613358,0.0,0.0,0.0,0.005692306440323591,0.0017181760631501675,-0.0,0.0,0.0,0.0,-0.0004553277394734323,0.0010879726614803076,-0.0019109550630673766,8724.0,37225.0,1642.0,38426.0,0.026258908212184906,0.15466046333312988,0.004476554691791534,0.1615011990070343,0.0,0.0,0.0,0.0,8388.0,36769.0,2148.0,38516.0,0.34914201498031616,1.2956772978486053,0.012439625165233783,-1.0123347180995232,-0.006943029351532459,0.015334964729845524,-0.0117900175973773
373,5,3.83614542442956e-06,1.630908991501201e-05,-2.260927612951491e-05,0.000833299767691642,0.002359772101044655,-0.0035728320945054293,0.004671443719416857,-0.008775968104600906,-0.03881996124982834,0.11120613664388657,0.18365398049354553,-0.12396294623613358,0.0,0.0,0.0,-0.0034705393481999636,0.0007004985236562788,-0.0,0.0,0.0,0.0,-0.0004553277394734323,0.0010879726614803076,-0.0019109550630673766,8724.0,37225.0,1642.0,38426.0,0.026258908212184906,0.15466046333312988,0.004476554691791534,0.1615011990070343,0.0,0.0,0.0,0.0,8388.0,36769.0,2148.0,38516.0,0.3491380214691162,1.2969434950563044,0.011707198825867706,-1.0123843405521404,-0.002830669516697526,-0.009349443949759007,0.010535364970564842
378,5,-1.2732566574413795e-05,-3.739040403161198e-05,2.6418044285492215e-07,-0.002069629728794098,0.008225861005485058,-0.004274133592844009,0.005827105604112148,-0.010871090926229954,-0.04010331258177757,0.0773843452334404,0.15286237001419067,-0.08237163722515106,0.0,0.0,0.0,-0.012298548594117165,-0.002197433263063431,-0.0,0.0,0.0,0.0,-0.0005965783493593335,0.001136382925324142,-0.0019181601237505674,8569.0,37215.0,1764.0,38466.0,0.02573876827955246,0.15460512042045593,0.0048178210854530334,0.1617354154586792,0.0,0.0,0.0,0.0,8521.0,36355.0,2880.0,38970.0,0.34916308522224426,1.2977214640247359,0.0099638346945262,-1.0119082602447855,0.008879700675606728,-0.03313256427645683,0.01291514839977026
383,5,-2.345026223338209e-05,3.757633749046363e-05,-2.739624869718682e-05,-0.0021213663276284933,-0.008027586154639721,0.0025902201887220144,0.005827105604112148,-0.010871090926229954,-0.04010331258177757,0.0773843452334404,0.15286237001419067,-0.08237163722515106,0.0,0.0,0.0,0.011947792023420334,-0.002255867701023817,-0.0,0.0,0.0,0.0,-0.0005965783493593335,0.001136382925324142,-0.0019181601237505674,8569.0,37215.0,1764.0,38466.0,0.02573876827955246,0.15460512042045593,0.0048178210854530334,0.1617354154586792,0.0,0.0,0.0,0.0,8521.0,36355.0,2880.0,38970.0,0.3506316840648651,1.2960407218590206,0.010974070194662143,-1.0121535545028064,0.009154231287539005,0.03232310339808464,-0.008097546175122261
388,5,-4.1856950701912865e-05,3.3968270145123824e-05,2.8504839519882808e-06,-0.0032133462373167276,-0.0019031461561098695,-0.003457476617768407,0.005827105604112148,-0.010871090926229954,-0.04010331258177757,0.0773843452334404,0.15286237001419067,-0.08237163722515106,0.0,0.0,0.0,0.002887820592150092,-0.00336087285540998,-0.0,0.0,0.0,0.0,-0.0005965783493593335,0.001136382925324142,-0.0019181601237505674,8569.0,37215.0,1764.0,38466.0,0.02573876827955246,0.15460512042045593,0.0048178210854530334,0.1617354154586792,0.0,0.0,0.0,0.0,8521.0,36355.0,2880.0,38970.0,0.3506092131137848,1.296340199283795,0.009848141716207326,-1.0116905843626534,0.013638346455991268,0.007812517695128918,0.0104229636490345
393,5,-4.664005246013403e-05,-4.202792842988856e-05,3.7321809941204265e-05,-0.0016336380504071712,0.010068523697555065,-0.0058632283471524715,0.006473888643085957,-0.012249521911144257,-0.040510956197977066,0.07547888159751892,0.1526738554239273,-0.019651217386126518,0.0,0.0,0.0,-0.014958602376282215,-0.0018109189113602042,-0.0,0.0,0.0,0.0,-0.00018247126718051732,0.001489063142798841,-0.001848889864049852,9339.0,36043.0,3016.0,38725.0,0.028339117765426636,0.14803525805473328,0.008387699723243713,0.16322354972362518,0.0,0.0,0.0,0.0,10182.0,37159.0,3027.0,37322.0,0.3511125445365906,1.2978760302810144,0.009565793245737388,-1.0119433672400155,0.007358482573181391,-0.04052276164293289,0.018171153962612152
398,5,-7.07903309375979e-05,1.6831079847179353e-05,3.4851629607146606e-05,-0.003871130757033825,-0.005219704005867243,-0.0014131433563306928,0.006473888643085957,-0.012249521911144257,-0.040510956197977066,0.07547888159751892,0.1526738554239273,-0.019651217386126518,0.0,0.0,0.0,0.007742482237517834,-0.004052022006362677,-0.0,0.0,0.0,0.0,-0.00018247126718051732,0.001489063142798841,-0.001848889864049852,9339.0,36043.0,3016.0,38725.0,0.028339117765426636,0.14803525805473328,0.008387699723243713,0.16322354972362518,0.0,0.0,0.0,0.0,10182.0,37159.0,3027.0,37322.0,0.3510860800743103,1.2970800993295577,0.011567834283714292,-1.011342329082835,0.016464838758111,0.020973922684788704,0.004895440302789211
403,5,-1.44543821534171e-06,-9.924225423674216e-07,-4.579710366670042e-05,0.009504242800176144,0.0025542781222611666,0.012876703403890133,0.007575527764856815,-0.01409951038658619,-0.04040785878896713,0.11514771729707718,0.1460317224264145,0.03205467015504837,0.0,0.0,0.0,-0.0037760729901492596,0.009216992184519768,-0.0,0.0,0.0,0.0,-0.0009360464755445719,0.0011999141424894333,-0.0017793567385524511,11125.0,36710.0,2934.0,37231.0,0.034559689462184906,0.15176022052764893,0.0081486776471138,0.15469449758529663,0.0,0.0,0.0,0.0,10118.0,36357.0,4990.0,37423.0,0.3509719967842102,1.296318058478008,0.010652597623677009,-1.0125889765999119,-0.03744024410843849,-0.010225999169051647,-0.03911517187952995
409,5,-1.44543821534171e-06,-9.924225423674216e-07,-4.579710366670042e-05,0.009504242800176144,0.0025542781222611666,0.012876703403890133,0.007575527764856815,-0.01409951038658619,-0.04040785878896713,0.11514771729707718,0.1460317224264145,0.03205467015504837,0.0,0.0,0.0,-0.0037761556450277567,0.009216913022100925,-0.0,0.0,0.0,0.0,-0.0009360464755445719,0.0011999141424894333,-0.0017793567385524511,11125.0,36710.0,2934.0,37231.0,0.034559689462184906,0.15176022052764893,0.0081486776471138,0.15469449758529663,0.0,0.0,0.0,0.0,10118.0,36357.0,4990.0,37423.0,0.3509719967842102,1.296318058478008,0.010652597623677009,-1.0125889765999119,-0.037439923733472824,-0.010226220823824406,-0.03924340382218361
414,5,1.4735551303601824e-05,-4.201049159746617e-05,-1.6340640286216512e-05,0.0055778115056455135,0.0030761088710278273,0.00037523030187003314,0.008222769945859909,-0.014974410645663738,-0.04009557515382767,0.06676093488931656,0.10202993452548981,0.033714644610881805,0.0,0.0,0.0,-0.004642886575311422,0.005379955284297466,-0.0,0.0,0.0,0.0,-0.00042440075776539743,0.0008614335674792528,-0.0017530996119603515,9840.0,36484.0,4945.0,37448.0,0.030060142278671265,0.15049341320991516,0.014134153723716736,0.15592150390148163,0.0,0.0,0.0,0.0,9513.0,36717.0,5077.0,37345.0,0.3506057560443878,1.2971772827335386,0.009569120259229038,-1.012444264944271,-0.021831179037690163,-0.012560348957777023,-0.0014106463640928268
419,5,-3.241070226067677e-05,-2.7613083148025908e-05,-1.9598395738285035e-05,-0.004927131813019514,-0.0010928044794127345,0.0005686547956429422,0.008222769945859909,-0.014974410645663738,-0.04009557515382767,0.06676093488931656,0.10202993452548981,0.033714644610881805,0.0,0.0,0.0,0.0015494725666940212,-0.005044166464358568,-0.0,0.0,0.0,0.0,-0.00042440075776539743,0.0008614335674792528,-0.0017530996119603515,9840.0,36484.0,4945.0,37448.0,0.030060142278671265,0.15049341320991516,0.014134153723716736,0.15592150390148163,0.0,0.0,0.0,0.0,9513.0,36717.0,5077.0,37345.0,0.35060179233551025,1.2977769896180829,0.011598202044338403,-1.0120272012716292,0.020468629896640778,0.00419166823849082,-0.0020902766846120358
424,5,-3.241070226067677e-05,-2.7613083148025908e-05,-1.9598395738285035e-05,-0.004927131813019514,-0.0010928044794127345,0.0005686547956429422,0.008916621096432209,-0.01565922610461712,-0.03970189765095711,0.057442400604486465,0.036334481090307236,0.030444568023085594,0.0,0.0,0.0,0.0015490762889385223,-0.005052533000707626,-0.0,0.0,0.0,0.0,-0.0005544049781747162,0.000458709109807387,-0.00180872343480587,8732.0,36710.0,5962.0,37419.0,0.02628500759601593,0.1517597883939743,0.017284557223320007,0.15575672686100006,0.0,0.0,0.0,0.0,8463.0,36877.0,5851.0,37473.0,0.3501508831977844,1.2977769896180829,0.011598202044338403,-1.0120272012716292,0.020476214587688446,0.004185206722468138,-0.0021476021502166986
429,5,-0.9267339110374451,1.6549466848373413,-0.4395621418952942,-0.0045378971844911575,-0.0028754938393831253,-0.008623503148555756,0.008916621096432209,-0.01565922610461712,-0.03970189765095711,0.057442400604486465,0.036334481090307236,0.030444568023085594,0.0,0.0,0.0,0.9137357473373413,-0.5644527077674866,-0.0,0.0,0.0,0.0,-0.0005544049781747162,0.000458709109807387,-0.00180872343480587,8732.0,36710.0,5962.0,37419.0,0.02628500759601593,0.1517597883939743,0.017284557223320007,0.15575672686100006,0.0,0.0,0.0,0.0,8463.0,36877.0,5851.0,37473.0,1.4782097339630127,0.017575994980746003,-0.005495886807263391,0.03141553438945477,5.590256690979004,9.961014747619629,-6.633700370788574
434,5,-0.9258824586868286,1.6547619104385376,-0.4402139484882355,0.11784317344427109,0.025012793019413948,0.0886688232421875,0.009056631475687027,-0.015462110750377178,-0.03953981399536133,0.02154611423611641,-0.021057702600955963,-0.0036397993098944426,0.0,0.0,0.0,0.9270727038383484,-0.5392962694168091,-0.0,0.0,0.0,0.0,-0.00035526807187125087,-0.00024762930115684867,-0.0019794225227087736,8804.0,37426.0,4574.0,37399.0,0.026527777314186096,0.15579812228679657,0.0130043625831604,0.15564173460006714,0.0,0.0,0.0,0.0,8362.0,37722.0,4033.0,37649.0,1.4812294244766235,0.004835360349253863,0.03081056180988064,0.008768263564084127,5.28392219543457,10.028520584106445,-8.506903648376465
439,5,-0.9255614280700684,1.6543256044387817,-0.4403388798236847,0.08029362559318542,0.06858234852552414,0.04408854618668556,0.009056631475687027,-0.015462110750377178,-0.03953981399536133,0.02154611423611641,-0.021057702600955963,-0.0036397993098944426,0.0,0.0,0.0,0.9119372963905334,-0.5515698194503784,-0.0,0.0,0.0,0.0,-0.00035526807187125087,-0.00024762930115684867,-0.0019794225227087736,8804.0,37426.0,4574.0,37399.0,0.026527777314186096,0.15579812228679657,0.0130043625831604,0.15564173460006714,0.0,0.0,0.0,0.0,8362.0,37722.0,4033.0,37649.0,1.462962031364441,-0.01946917039299449,0.025997532517197507,-0.010138172758031312,5.432194232940674,9.851624488830566,-9.237348556518555
444,5,-0.925255298614502,1.6545265913009644,-0.4403459131717682,0.0669478103518486,-0.007553917355835438,0.01421015802770853,0.009186622686684132,-0.01462184265255928,-0.04012562707066536,0.023652436211705208,-0.08793780952692032,-0.09453032910823822,0.0,0.0,0.0,0.9286967515945435,-0.5557938814163208,-0.0,0.0,0.0,0.0,0.004999999888241291,-0.004999999888241291,-0.0020383603405207396,38284.0,65535.0,54772.0,65535.0,0.23820346593856812,0.45154696702957153,0.3601546883583069,0.45154696702957153,0.0,0.0,0.0,0.0,4661.0,39379.0,3878.0,38058.0,1.4994523525238037,-0.014925696039045248,0.021450730423221535,-0.004659792981258938,5.483740329742432,10.15737533569336,-9.147819519042969
