timestamp,dt,pos_x,pos_y,pos_z,vel_x,vel_y,vel_z,roll,pitch,yaw,agv_x,agv_y,agv_z,x_ref,y_ref,z_ref,roll_ref,pitch_ref,yaw_ref,x_vel_ref,y_vel_ref,z_vel_ref,x_torque,y_torque,z_torque,w0,w1,w2,w3,u0,u1,u2,u3,m0req,m1req,m2req,m3req,thrust0,thrust1,thrust2,thrust3,thrust_ref,roll_vicon,pitch_vicon,yaw_vicon,acc_x,acc_y,acc_z
5,5,0.0,0.0,0.0,-0.0021408002357929945,0.0004667587927542627,0.000449842686066404,-0.04673704877495766,0.4586908519268036,0.011021592654287815,0.0006721733370795846,-0.0033504341263324022,-0.0017157774418592453,0.0,0.0,0.0,-0.0008921153494156897,-0.004091720562428236,-0.0,0.0,0.0,0.0,0.002254686551168561,-0.004999999888241291,0.00032926592393778265,0.0,0.0,0.0,0.0,0.0,0.0,0.0,0.0,0.0,0.0,0.0,0.0,0.0,0.0,0.0,0.0,0.16951829195022583,-0.18552249433069165,-0.5358140120815871,-0.14701419939087937,0.008028000593185425,-0.0017503454582765698,-0.0013495280873030424
36,30,0.0,0.0,0.0,0.0017549035837873816,0.0012120305327698588,-0.0018810457549989223,-0.04673704877495766,0.4586908519268036,0.011021592654287815,0.0006721733370795846,-0.0033504341263324022,-0.0017157774418592453,0.0,0.0,0.0,-0.002316555008292198,0.003354160813614726,-0.0,0.0,0.0,0.0,0.002254686551168561,-0.004999999888241291,0.00032926592393778265,0.0,0.0,0.0,0.0,0.0,0.0,0.0,0.0,0.0,0.0,0.0,0.0,0.0,0.0,0.0,0.0,0.16951820254325867,-0.18605757403047135,-0.535571759993648,-0.14731100492406035,-0.006580888293683529,-0.00454511446878314,0.005643137264996767
41,5,0.0,0.0,0.0,7.712579099461436e-05,-0.0020736928563565016,0.001545717823319137,-0.04673704877495766,0.4586908519268036,0.011021592654287815,0.0006721733370795846,-0.0033504341263324022,-0.0017157774418592453,0.0,0.0,0.0,0.003963459748774767,0.0001474116725148633,-0.0,0.0,0.0,0.0,0.002254686551168561,-0.004999999888241291,0.00032926592393778265,0.0,0.0,0.0,0.0,0.0,0.0,0.0,0.0,0.0,0.0,0.0,0.0,0.0,0.0,0.0,0.0,0.1695181280374527,-0.18483724262392418,-0.5349385338476906,-0.14701663914650884,-0.00028922170167788863,0.007776348385959864,-0.0046371533535420895
50,9,0.0,0.0,0.0,0.004009951371699572,0.0005667675868608057,0.008026818744838238,-0.04674592614173889,0.4586949050426483,0.011018084362149239,-0.0020599369890987873,0.0028058087918907404,-0.0025141488295048475,0.0,0.0,0.0,-0.0010832390980795026,0.0076641300693154335,-0.0,0.0,0.0,0.0,0.002262867521494627,-0.004999999888241291,0.00033640797482803464,0.0,0.0,0.0,0.0,0.0,0.0,0.0,0.0,0.0,0.0,0.0,0.0,0.0,0.0,0.0,0.0,0.16952188313007355,-0.1860611837955325,-0.535899034742157,-0.1469853586052266,-0.015037317760288715,-0.002125378465279937,-0.02408045530319214
58,8,0.0,0.0,0.0,0.0001512270828243345,-0.0024262925144284964,-0.001188825466670096,-0.04674592614173889,0.4586949050426483,0.011018084362149239,-0.0020599369890987873,0.0028058087918907404,-0.0025141488295048475,0.0,0.0,0.0,0.0046373759396374226,0.0002890425967052579,-0.0,0.0,0.0,0.0,0.002262867521494627,-0.004999999888241291,0.00033640797482803464,0.0,0.0,0.0,0.0,0.0,0.0,0.0,0.0,0.0,0.0,0.0,0.0,0.0,0.0,0.0,0.0,0.1695186346769333,-0.1875744141161754,-0.5367927532648102,-0.14783129366456876,-0.0005671015824191272,0.0090985968708992,0.0035664765164256096
63,5,1.0783008292492013e-05,-3.933150946977548e-05,-8.260194590548053e-05,0.002389016328379512,0.006013617385178804,0.01465634722262621,-0.04677216708660126,0.458660751581192,0.01103532500565052,-2.2869930035085417e-05,0.0001710029027890414,0.008131030015647411,0.0,0.0,0.0,-0.011607589200139046,0.004597471095621586,-0.0,0.0,0.0,0.0,0.0024910499341785908,-0.004999999888241291,0.0003314705390948802,3310.0,13997.0,26907.0,5077.0,0.009244423359632492,0.045093514025211334,0.1006411537528038,0.01453903317451477,0.0,0.0,0.0,0.0,0.0,0.0,0.0,0.0,0.1695300191640854,-0.19128443104123027,-0.5392467425497054,-0.1489750170113111,-0.00902031734585762,-0.02277541160583496,-0.04548891633749008
68,5,4.297399937058799e-05,-3.8946305721765384e-05,-6.697186472592875e-05,0.005223443731665611,0.001750156399793923,0.0022086920216679573,-0.04677216708660126,0.458660751581192,0.01103532500565052,-2.2869930035085417e-05,0.0001710029027890414,0.008131030015647411,0.0,0.0,0.0,-0.0034607069101184607,0.010107658803462982,-0.0,0.0,0.0,0.0,0.0024910499341785908,-0.004999999888241291,0.0003314705390948802,3310.0,13997.0,26907.0,5077.0,0.009244423359632492,0.045093514025211334,0.1006411537528038,0.01453903317451477,0.0,0.0,0.0,0.0,0.0,0.0,0.0,0.0,0.16952647268772125,-0.19353860623944422,-0.5407783585204704,-0.14993604449296535,-0.01983196660876274,-0.006790339481085539,-0.008055880665779114
73,5,5.025096470490098e-05,-1.0806877071445342e-05,2.1616477170027792e-05,0.0025858082808554173,-0.003414472797885537,-0.01173975970596075,-0.046847354620695114,0.4585384726524353,0.011242480017244816,0.0041919853538274765,0.009752637706696987,0.0030619262252002954,0.0,0.0,0.0,0.006486975587904453,0.005091337952762842,-0.0,0.0,0.0,0.0,0.0022390480153262615,-0.004999999888241291,0.00035944124101661146,4027.0,14258.0,26702.0,4381.0,0.011363368481397629,0.046085424721241,0.09965112060308456,0.012421965599060059,0.0,0.0,0.0,0.0,2953.0,14186.0,26759.0,5415.0,0.16952256858348846,-0.1926683264376609,-0.5391941001141758,-0.1502032407107976,-0.009989291429519653,0.012727789580821991,0.03507408872246742
78,5,0.00029170187190175056,-0.0001907183905132115,-0.0002321688225492835,0.03457886725664139,0.024163270369172096,0.03200801461935043,-0.046847354620695114,0.4585384726524353,0.011242480017244816,0.0041919853538274765,0.009752637706696987,0.0030619262252002954,0.0,0.0,0.0,-0.03546831011772156,0.04620983079075813,-0.0,0.0,0.0,0.0,0.0022390480153262615,-0.004999999888241291,0.00035944124101661146,4027.0,14258.0,26702.0,4381.0,0.011363368481397629,0.046085424721241,0.09965112060308456,0.012421965599060059,0.0,0.0,0.0,0.0,2953.0,14186.0,26759.0,5415.0,0.24573193490505219,-0.21794645230823845,-0.5542400084710759,-0.1599038270616542,-0.13129688799381256,-0.0916796624660492,-0.09994453191757202
84,5,7.788532093400136e-05,-0.00022275633818935603,9.312920883530751e-05,-0.01956065557897091,0.011734292842447758,-0.03593932092189789,-0.04644758626818657,0.4586043655872345,0.01048263069242239,-0.02684214897453785,0.002668189350515604,-0.08779312670230865,0.0,0.0,0.0,-0.02121761254966259,-0.03105989471077919,-0.0,0.0,0.0,0.0,0.002550927922129631,-0.004999999888241291,0.00014114922669250518,675.0,15687.0,25542.0,7427.0,0.0018142340704798698,0.05160290375351906,0.09413202106952667,0.021969474852085114,0.0,0.0,0.0,0.0,1834.0,14576.0,26449.0,6433.0,0.2027876079082489,-0.22490530704948036,-0.5440217739672155,-0.161541463758789,0.07287189364433289,-0.04526761546730995,0.10838111490011215
89,5,0.0002919848484452814,-0.0002163285535061732,-0.00015857783728279173,0.0241057388484478,0.002620398299768567,0.024457190185785294,-0.04644758626818657,0.4586043655872345,0.01048263069242239,-0.02684214897453785,0.002668189350515604,-0.08779312670230865,0.0,0.0,0.0,-0.0051033650524914265,0.03847186267375946,-0.0,0.0,0.0,0.0,0.002550927922129631,-0.004999999888241291,0.00014114922669250518,675.0,15687.0,25542.0,7427.0,0.0018142340704798698,0.05160290375351906,0.09413202106952667,0.021969474852085114,0.0,0.0,0.0,0.0,1834.0,14576.0,26449.0,6433.0,0.20687337219715118,-0.21061175881677618,-0.5515220906008558,-0.15766313946717592,-0.09209218621253967,-0.011108729057013988,-0.07657182961702347
94,5,0.0003822200233116746,-0.0003860939177684486,-0.0001857601891970262,0.01986464485526085,0.024553269147872925,0.011142685078084469,-0.04694027826189995,0.4585423767566681,0.010418826714158058,0.004364601336419582,0.017044363543391228,-0.007614197675138712,0.0,0.0,0.0,-0.04009637609124184,0.029668405652046204,-0.0,0.0,0.0,0.0,0.0003405796305742115,-0.004999999888241291,0.00045763340312987566,3599.0,14795.0,26273.0,4801.0,0.010093015618622303,0.048138126730918884,0.09760071337223053,0.013694613240659237,0.0,0.0,0.0,0.0,3950.0,15003.0,26104.0,4458.0,0.22369235754013062,-0.20382042096177042,-0.5482602245212309,-0.15443824595175262,-0.07673945277929306,-0.09433938562870026,-0.037506796419620514
99,5,0.0002828666183631867,-0.00021712935995310545,-0.00022993517632130533,-0.007950080558657646,-0.016289057210087776,0.009527304209768772,-0.04694027826189995,0.4585423767566681,0.010418826714158058,0.004364601336419582,0.017044363543391228,-0.007614197675138712,0.0,0.0,0.0,0.02969972789287567,-0.01269396860152483,-0.0,0.0,0.0,0.0,0.0003405796305742115,-0.004999999888241291,0.00045763340312987566,3599.0,14795.0,26273.0,4801.0,0.010093015618622303,0.048138126730918884,0.09760071337223053,0.013694613240659237,0.0,0.0,0.0,0.0,3950.0,15003.0,26104.0,4458.0,0.1910831779241562,-0.21499098275062659,-0.5525283958112253,-0.15832449336268517,0.02806098572909832,0.05970112234354019,-0.03383295610547066
104,5,0.0003884948091581464,-0.00017874667537398636,-0.000171175372088328,0.012402919121086597,-0.010260291397571564,-0.005368180572986603,-0.04694027826189995,0.4585423767566681,0.010418826714158058,0.004364601336419582,0.017044363543391228,-0.007614197675138712,0.0,0.0,0.0,0.018810730427503586,0.02241702377796173,-0.0,0.0,0.0,0.0,0.0003405796305742115,-0.004999999888241291,0.00045763340312987566,3599.0,14795.0,26273.0,4801.0,0.010093015618622303,0.048138126730918884,0.09760071337223053,0.013694613240659237,0.0,0.0,0.0,0.0,3950.0,15003.0,26104.0,4458.0,0.18840132653713226,-0.2150265564211946,-0.5483706180406439,-0.1606262978335947,-0.04886917024850845,0.03728624805808067,0.01141898799687624
109,5,0.0003752844932023436,-0.00015127919323276728,-0.0004976371419616044,0.0018714345060288906,-0.00692353630438447,0.04409419372677803,-0.04670794680714607,0.4582156836986542,0.010914517566561699,0.04076937958598137,0.06373555213212967,0.08686784654855728,0.0,0.0,0.0,0.01395566388964653,0.004776451271027327,-0.0,0.0,0.0,0.0,0.0004592011100612581,-0.004999999888241291,0.0003596747701521963,14266.0,20664.0,29168.0,5482.0,0.04611428081989288,0.07210478186607361,0.11174701154232025,0.015786297619342804,0.0,0.0,0.0,0.0,13858.0,20582.0,29239.0,5977.0,0.16953524947166443,-0.2182509388994173,-0.5387671570337386,-0.1569342120205153,-0.009372031316161156,0.024893222376704216,-0.1424434781074524
114,5,7.396186992991716e-05,-0.00021256553009152412,-7.677714893361554e-05,-0.041623737663030624,0.006503027398139238,-0.045692142099142075,-0.04670794680714607,0.4582156836986542,0.010914517566561699,0.04076937958598137,0.06373555213212967,0.08686784654855728,0.0,0.0,0.0,-0.010049141012132168,-0.05499032884836197,-0.0,0.0,0.0,0.0,0.0004592011100612581,-0.004999999888241291,0.0003596747701521963,14266.0,20664.0,29168.0,5482.0,0.04611428081989288,0.07210478186607361,0.11174701154232025,0.015786297619342804,0.0,0.0,0.0,0.0,13858.0,20582.0,29239.0,5977.0,0.24419131875038147,-0.23083142534092685,-0.5174957050453138,-0.15799158785291134,0.15533237159252167,-0.025819206610322,0.13191060721874237
119,5,2.775084794848226e-05,-0.00011895521311089396,-8.305163646582514e-05,-0.018956664949655533,-0.01115453615784645,-0.012829214334487915,-0.04695923998951912,0.4564596116542816,0.011216935701668262,-0.016131548210978508,0.18626047670841217,0.010027563199400902,0.0,0.0,0.0,0.01939571648836136,-0.030452672392129898,-0.0,0.0,0.0,0.0,0.003225162858143449,-0.004999999888241291,0.00025660081882961094,2392.0,14694.0,28299.0,8836.0,0.006592707708477974,0.04775109887123108,0.10742732137441635,0.026634497568011284,0.0,0.0,0.0,0.0,11713.0,20518.0,27052.0,4967.0,0.20029370486736298,-0.2230616113274266,-0.5163909249902443,-0.156146159983198,0.07057163119316101,0.04087238758802414,0.032980140298604965
124,5,-0.0001914234453579411,-0.00020680547459051013,-0.0003911540552508086,-0.03637139871716499,0.008952674455940723,0.0392855741083622,-0.04695923998951912,0.4564596116542816,0.011216935701668262,-0.016131548210978508,0.18626047670841217,0.010027563199400902,0.0,0.0,0.0,-0.014162064529955387,-0.05040585249662399,-0.0,0.0,0.0,0.0,0.003225162858143449,-0.004999999888241291,0.00025660081882961094,2392.0,14694.0,28299.0,8836.0,0.006592707708477974,0.04775109887123108,0.10742732137441635,0.026634497568011284,0.0,0.0,0.0,0.0,11713.0,20518.0,27052.0,4967.0,0.23509164154529572,-0.21112838852637322,-0.49589225094222256,-0.15746574142563102,0.13708089292049408,-0.035029809921979904,-0.12822654843330383
129,5,3.02271237160312e-05,0.00016949622659012675,7.658258982701227e-05,0.02011965960264206,-0.04999643564224243,-0.053697459399700165,-0.04691396281123161,0.4513748586177826,0.011129389517009258,0.020761864259839058,0.29850614070892334,0.05917415767908096,0.0,0.0,0.0,0.06633298099040985,0.024384424090385437,-0.0,0.0,0.0,0.0,0.0018052132800221443,-0.004999999888241291,0.00042655906872823834,11466.0,18900.0,30495.0,8452.0,0.03577326983213425,0.06461387872695923,0.11845677345991135,0.025346171110868454,0.0,0.0,0.0,0.0,3187.0,13865.0,28936.0,8150.0,0.26972272992134094,-0.2017013182969125,-0.5265825795520551,-0.13081531667819823,-0.07594813406467438,0.18806661665439606,0.15666846930980682
134,5,-5.3969961300026625e-05,0.00020369743288028985,-3.234573523513973e-05,-0.0057516940869390965,-0.019787099212408066,-0.0008592723752371967,-0.04691396281123161,0.4513748586177826,0.011129389517009258,0.020761864259839058,0.29850614070892334,0.05917415767908096,0.0,0.0,0.0,0.03596625477075577,-0.009390067309141159,-0.0,0.0,0.0,0.0,0.0018052132800221443,-0.004999999888241291,0.00042655906872823834,11466.0,18900.0,30495.0,8452.0,0.03577326983213425,0.06461387872695923,0.11845677345991135,0.025346171110868454,0.0,0.0,0.0,0.0,3187.0,13865.0,28936.0,8150.0,0.198227658867836,-0.1945922450628113,-0.5186029140006604,-0.1359375179769266,0.021529478952288628,0.07499437034130096,-0.0033253650180995464
139,5,-0.00016732572112232447,0.0001955853367689997,2.4706445401534438e-05,-0.017595315352082253,-0.004800436086952686,-0.00824508722871542,-0.04675673693418503,0.44873061776161194,0.011558285914361477,0.031749140471220016,0.3785342574119568,0.04681149870157242,0.0,0.0,0.0,0.00925462506711483,-0.029815658926963806,-0.0,0.0,0.0,0.0,0.0014635279076173902,-0.004999999888241291,0.0004430387634783983,11429.0,18706.0,29761.0,7108.0,0.03564232587814331,0.06380335241556168,0.11472386121749878,0.02093367464840412,0.0,0.0,0.0,0.0,11957.0,18675.0,30679.0,7919.0,0.1929774433374405,-0.20414847489138913,-0.5131135085995603,-0.1362464642513168,0.0665818527340889,0.018791325390338898,0.019612735137343407
145,5,-0.0002049712056759745,0.0002927939931396395,0.0001090632431441918,-0.010548962280154228,-0.0150493448600173,-0.014283477328717709,-0.04675673693418503,0.44873061776161194,0.011558285914361477,0.031749140471220016,0.3785342574119568,0.04681149870157242,0.0,0.0,0.0,0.028346367180347443,-0.018015434965491295,-0.0,0.0,0.0,0.0,0.0014635279076173902,-0.004999999888241291,0.0004430387634783983,11429.0,18706.0,29761.0,7108.0,0.03564232587814331,0.06380335241556168,0.11472386121749878,0.02093367464840412,0.0,0.0,0.0,0.0,11957.0,18675.0,30679.0,7919.0,0.19376793503761292,-0.19497754867415099,-0.5092078063500933,-0.13328047441663798,0.04038451984524727,0.057782262563705444,0.03904503583908081
150,5,-2.5560824724379927e-05,0.0008986987522803247,-0.00011746234667953104,0.021952765062451363,-0.08934146910905838,0.027428539469838142,-0.047026295214891434,0.4438468813896179,0.011969614773988724,-0.014795580878853798,0.4536188840866089,0.024743065237998962,0.0,0.0,0.0,0.09297949820756912,0.020558210089802742,-0.0,0.0,0.0,0.0,0.004130171146243811,-0.004999999888241291,0.00047389185056090355,3818.0,12084.0,31203.0,9064.0,0.010741006582975388,0.038003645837306976,0.12209297716617584,0.027404403313994408,0.0,0.0,0.0,0.0,11508.0,18303.0,30091.0,7021.0,0.3480263948440552,-0.1430390364915343,-0.5017817119308104,-0.1230636927088779,-0.0824466273188591,0.33982136845588684,-0.08930748701095581
155,5,-1.9836852516164072e-05,0.0007946054101921618,-9.453325037611648e-05,0.0073871854692697525,-0.012229368090629578,0.00501848803833127,-0.047026295214891434,0.4438468813896179,0.011969614773988724,-0.014795580878853798,0.4536188840866089,0.024743065237998962,0.0,0.0,0.0,0.02564857341349125,0.012944728136062622,-0.0,0.0,0.0,0.0,0.004130171146243811,-0.004999999888241291,0.00047389185056090355,3818.0,12084.0,31203.0,9064.0,0.010741006582975388,0.038003645837306976,0.12209297716617584,0.027404403313994408,0.0,0.0,0.0,0.0,11508.0,18303.0,30091.0,7021.0,0.18598021566867828,-0.154229808058347,-0.49847941759136416,-0.12119751352986831,-0.027854185551404953,0.05018451064825058,-0.021963665261864662
160,5,1.976065141207073e-05,0.000760644325055182,8.584749593865126e-05,0.0077598062343895435,0.0010857420274987817,-0.023747757077217102,-0.04670390859246254,0.43986210227012634,0.011392624117434025,-0.02229822427034378,0.5321862697601318,0.013586662709712982,0.0,0.0,0.0,0.00012342054105829448,0.015018125995993614,-0.0,0.0,0.0,0.0,0.004098398145288229,-0.004999999888241291,0.00032115067006088793,2997.0,13362.0,29848.0,9119.0,0.008332811295986176,0.04270867258310318,0.1151663213968277,0.02759096585214138,0.0,0.0,0.0,0.0,2695.0,13024.0,30533.0,10021.0,0.16953592002391815,-0.153984075389654,-0.5003605888430296,-0.12511929002453992,-0.029467806220054626,0.00022130315483082086,0.06691370904445648
165,5,0.0001811415859265253,0.0007674852968193591,0.00013574860349763185,0.024921271950006485,-0.0006320137763395905,-0.014110482297837734,-0.04670390859246254,0.43986210227012634,0.011392624117434025,-0.02229822427034378,0.5321862697601318,0.013586662709712982,0.0,0.0,0.0,0.003106677206233144,0.03932277485728264,-0.0,0.0,0.0,0.0,0.004098398145288229,-0.004999999888241291,0.00032115067006088793,2997.0,13362.0,29848.0,9119.0,0.008332811295986176,0.04270867258310318,0.1151663213968277,0.02759096585214138,0.0,0.0,0.0,0.0,2695.0,13024.0,30533.0,10021.0,0.20816095173358917,-0.16032468401900296,-0.5051286846045561,-0.12915135377764575,-0.09471432119607925,0.00680437171831727,0.038949448615312576
170,5,0.00015009092749096453,0.0005903673591092229,0.0001500348880654201,0.0031292904168367386,0.02460690587759018,-0.006233225576579571,-0.04670390859246254,0.43986210227012634,0.011392624117434025,-0.02229822427034378,0.5321862697601318,0.013586662709712982,0.0,0.0,0.0,-0.04112723097205162,0.005418324377387762,-0.0,0.0,0.0,0.0,0.004098398145288229,-0.004999999888241291,0.00032115067006088793,2997.0,13362.0,29848.0,9119.0,0.008332811295986176,0.04270867258310318,0.1151663213968277,0.02759096585214138,0.0,0.0,0.0,0.0,2695.0,13024.0,30533.0,10021.0,0.20506906509399414,-0.16976740646419256,-0.5046745924579292,-0.1307436066545543,-0.012849596329033375,-0.08870618045330048,0.015864022076129913
175,5,0.00016880390467122197,0.0004840941692236811,0.000261566397966817,0.0035586024168878794,0.02226031944155693,-0.017484379932284355,-0.046804722398519516,0.43197575211524963,0.011089090257883072,0.001804490340873599,0.747747004032135,-0.03116616979241371,0.0,0.0,0.0,-0.038136497139930725,0.00629458948969841,-0.0,0.0,0.0,0.0,0.003792146220803261,-0.004999999888241291,0.00033158977748826146,2152.0,13450.0,29011.0,8686.0,0.005911591462790966,0.04303542524576187,0.11095818877220154,0.026130810379981995,0.0,0.0,0.0,0.0,3124.0,12894.0,29423.0,7847.0,0.2003994733095169,-0.179390808648694,-0.5046346296274224,-0.13245974859688597,-0.014589453116059303,-0.08038687705993652,0.05175911635160446
180,5,0.00015752097533550113,0.00046186320832930505,0.00030884824809618294,-0.0005120289279147983,0.009790429845452309,-0.011864771135151386,-0.046804722398519516,0.43197575211524963,0.011089090257883072,0.001804490340873599,0.747747004032135,-0.03116616979241371,0.0,0.0,0.0,-0.018637923523783684,-0.00035960364039056003,-0.0,0.0,0.0,0.0,0.003792146220803261,-0.004999999888241291,0.00033158977748826146,2152.0,13450.0,29011.0,8686.0,0.005911591462790966,0.04303542524576187,0.11095818877220154,0.026130810379981995,0.0,0.0,0.0,0.0,3124.0,12894.0,29423.0,7847.0,0.17176690697669983,-0.1761766891412851,-0.49941774718286003,-0.13079761329327558,0.0007145470008254051,-0.03368121758103371,0.03621285781264305
185,5,0.00018281467782799155,0.000536206818651408,0.00041232112562283874,0.0033875098451972008,-0.007470973767340183,-0.018045637756586075,-0.04686108976602554,0.42548027634620667,0.011433012783527374,0.012723649851977825,0.9065638780593872,0.04536198079586029,0.0,0.0,0.0,0.017400609329342842,0.0070603289641439915,-0.0,0.0,0.0,0.0,0.003536617150530219,-0.004999999888241291,0.000514002691488713,4412.0,11881.0,30156.0,6670.0,0.012516405433416367,0.03726833313703537,0.11672528833150864,0.019526001065969467,0.0,0.0,0.0,0.0,11180.0,18791.0,26639.0,2466.0,0.17227748036384583,-0.17130967863720822,-0.49537489462454193,-0.13043517443925476,-0.014075711369514465,0.031539659947156906,0.057226452976465225
190,5,5.012408291804604e-05,0.0005335445166565478,0.000417017174186185,-0.017560429871082306,-0.0018685756949707866,-0.006071137730032206,-0.04686108976602554,0.42548027634620667,0.011433012783527374,0.012723649851977825,0.9065638780593872,0.04536198079586029,0.0,0.0,0.0,0.0052672578021883965,-0.029473701491951942,-0.0,0.0,0.0,0.0,0.003536617150530219,-0.004999999888241291,0.000514002691488713,4412.0,11881.0,30156.0,6670.0,0.012516405433416367,0.03726833313703537,0.11672528833150864,0.019526001065969467,0.0,0.0,0.0,0.0,11180.0,18791.0,26639.0,2466.0,0.1911115199327469,-0.15690852186587548,-0.4852215803173779,-0.13125820822667356,0.0651836022734642,0.010592418722808361,0.022353125736117363
195,5,0.0002197405556216836,0.0004825865034945309,0.0008393760654143989,0.01847817748785019,0.006573553197085857,-0.06095157936215401,-0.047044165432453156,0.41285440325737,0.011753004975616932,0.0009074999834410846,1.0963643789291382,0.09770352393388748,0.0,0.0,0.0,-0.010312691330909729,0.031287673860788345,-0.0,0.0,0.0,0.0,0.0003607958205975592,-0.004999999888241291,0.0005723853246308863,12586.0,17414.0,27808.0,640.0,0.03983590379357338,0.05849194526672363,0.10501620918512344,0.0017210319638252258,0.0,0.0,0.0,0.0,7344.0,14597.0,26665.0,1183.0,0.19584199786186218,-0.168727046448965,-0.4890878066785372,-0.12922885642157,-0.0709044337272644,-0.021249378100037575,0.19464410841464996
201,5,1.0363692126702517e-05,0.0006556094158440828,0.000492586346808821,-0.023769307881593704,-0.022251145914196968,0.0302650835365057,-0.047044165432453156,0.41285440325737,0.011753004975616932,0.0009074999834410846,1.0963643789291382,0.09770352393388748,0.0,0.0,0.0,0.03703978285193443,-0.03398694097995758,-0.0,0.0,0.0,0.0,0.0003607958205975592,-0.004999999888241291,0.0005723853246308863,12586.0,17414.0,27808.0,640.0,0.03983590379357338,0.05849194526672363,0.10501620918512344,0.0017210319638252258,0.0,0.0,0.0,0.0,7344.0,14597.0,26665.0,1183.0,0.22553884983062744,-0.15442334154780948,-0.45979279549281765,-0.11570267386657207,0.08864153176546097,0.08787263929843903,-0.08201806247234344
206,5,0.00018332642503082752,0.0007589466404169798,0.0010242726420983672,0.017083989456295967,-0.02114255726337433,-0.0653565526008606,-0.046999890357255936,0.40198999643325806,0.011519400402903557,-0.036624494940042496,1.4389688968658447,0.09634410589933395,0.0,0.0,0.0,0.037303563207387924,0.02633371762931347,-0.0,0.0,0.0,0.0,0.001455914112739265,-0.0036265922244638205,0.0005025839200243354,10597.0,11230.0,25284.0,3975.0,0.032694507390260696,0.03493303433060646,0.09292128682136536,0.01120799407362938,0.0,0.0,0.0,0.0,10004.0,11626.0,25976.0,3087.0,0.21513120830059052,-0.1398248143064994,-0.4750365361099218,-0.12412514049376171,-0.06551658362150192,0.08441457897424698,0.21467560529708862
211,5,0.00021410867339000106,0.00048243621131405234,0.0010543145472183824,0.009434711188077927,0.032368697226047516,-0.02381283789873123,-0.046999890357255936,0.40198999643325806,0.011519400402903557,-0.036624494940042496,1.4389688968658447,0.09634410589933395,0.0,0.0,0.0,-0.049793243408203125,0.01425424125045538,-0.0,0.0,0.0,0.0,0.001455914112739265,-0.0036265922244638205,0.0005025839200243354,10597.0,11230.0,25284.0,3975.0,0.032694507390260696,0.03493303433060646,0.09292128682136536,0.01120799407362938,0.0,0.0,0.0,0.0,10004.0,11626.0,25976.0,3087.0,0.22471868991851807,-0.1638210025178102,-0.46845773729396883,-0.12557156266814223,-0.03702712431550026,-0.11766808480024338,0.09290512651205063
216,5,0.000139087118441239,0.0005395975313149393,0.0010793686378747225,-0.007672604639083147,0.0017080223187804222,-0.010651418939232826,-0.0472688302397728,0.38278642296791077,0.011486534960567951,-0.01149053405970335,1.7862416505813599,0.09610556066036224,0.0,0.0,0.0,-0.0012599551118910313,-0.014011304825544357,-0.0,0.0,0.0,0.0,0.0026436701882630587,-0.0029527349397540092,0.0004902943619526923,11490.0,9083.0,26491.0,9573.0,0.03586079925298691,0.027470877394080162,0.0986403226852417,0.029141074046492577,0.0,0.0,0.0,0.0,12880.0,7561.0,26424.0,9669.0,0.16953358054161072,-0.15953167962201523,-0.45260552719715985,-0.12353499270095596,0.027491770684719086,-0.0022467137314379215,0.05832449346780777
221,5,-6.726368155796081e-05,0.0007279844139702618,0.0007106048869900405,-0.031190892681479454,-0.02586175501346588,0.04843150079250336,-0.0472688302397728,0.38278642296791077,0.011486534960567951,-0.01149053405970335,1.7862416505813599,0.09610556066036224,0.0,0.0,0.0,0.04000658169388771,-0.04158468544483185,-0.0,0.0,0.0,0.0,0.0026436701882630587,-0.0029527349397540092,0.0004902943619526923,11490.0,9083.0,26491.0,9573.0,0.03586079925298691,0.027470877394080162,0.0986403226852417,0.029141074046492577,0.0,0.0,0.0,0.0,12880.0,7561.0,26424.0,9669.0,0.24295376241207123,-0.1400000607612498,-0.419543377799823,-0.11353539596896096,0.11680753529071808,0.10223443061113358,-0.12262213975191116
226,5,6.080092134652659e-05,0.0006072977557778358,0.0011575750540941954,0.008571776561439037,0.009137608110904694,-0.048046380281448364,-0.047268398106098175,0.367382675409317,0.011591706424951553,-0.012132419273257256,2.118567705154419,0.13406391441822052,0.0,0.0,0.0,-0.01575396955013275,0.016010720282793045,-0.0,0.0,0.0,0.0,-2.9411641662591137e-05,0.0034743703436106443,0.000591711257584393,15765.0,3423.0,27758.0,17613.0,0.05190969631075859,0.009574087336659431,0.10477031022310257,0.059300102293491364,0.0,0.0,0.0,0.0,16987.0,1437.0,27595.0,18005.0,0.17813454568386078,-0.14478901621766582,-0.42205099421155157,-0.11810143703006197,-0.03300447762012482,-0.029526200145483017,0.17690056562423706
231,5,0.00014703493798151612,0.0006136905285529792,0.0014679996529594064,0.014644295908510685,0.0018462882144376636,-0.057873353362083435,-0.047268398106098175,0.367382675409317,0.011591706424951553,-0.012132419273257256,2.118567705154419,0.13406391441822052,0.0,0.0,0.0,-0.0010738413548097014,0.026232203468680382,-0.0,0.0,0.0,0.0,-2.9411641662591137e-05,0.0034743703436106443,0.000591711257584393,15765.0,3423.0,27758.0,17613.0,0.05190969631075859,0.009574087336659431,0.10477031022310257,0.059300102293491364,0.0,0.0,0.0,0.0,16987.0,1437.0,27595.0,18005.0,0.18531444668769836,-0.14326104817129254,-0.417628704017662,-0.11648313559757793,-0.0562576986849308,-0.0020929165184497833,0.21288852393627167
236,5,0.0001722260203678161,0.0006805822486057878,0.0017892603063955903,0.007920038886368275,-0.008810953237116337,-0.06233849748969078,-0.04754531383514404,0.33967897295951843,0.011922855861485004,-0.0055800690315663815,2.471925973892212,0.14103926718235016,0.0,0.0,0.0,0.02011050097644329,0.014880968257784843,-0.0,0.0,0.0,0.0,0.004436254035681486,0.004615998826920986,0.0005630215746350586,27224.0,3788.0,16807.0,16756.0,0.10217392444610596,0.010650066658854485,0.05604357272386551,0.055837735533714294,0.0,0.0,0.0,0.0,28616.0,1277.0,16243.0,17404.0,0.18122389912605286,-0.14013007911681563,-0.4090845744118736,-0.1152690889360387,-0.03120550885796547,0.03834446519613266,0.23531420528888702
241,5,4.9746820877771825e-05,0.0008049341849982738,0.0017624243628233671,-0.014771075919270515,-0.020052550360560417,-0.014944519847631454,-0.04754531383514404,0.33967897295951843,0.011922855861485004,-0.0055800690315663815,2.471925973892212,0.14103926718235016,0.0,0.0,0.0,0.036822475492954254,-0.022463250905275345,-0.0,0.0,0.0,0.0,0.004436254035681486,0.004615998826920986,0.0005630215746350586,27224.0,3788.0,16807.0,16756.0,0.10217392444610596,0.010650066658854485,0.05604357272386551,0.055837735533714294,0.0,0.0,0.0,0.0,28616.0,1277.0,16243.0,17404.0,0.20990359783172607,-0.12688033758371078,-0.3826687675546934,-0.11229543046991097,0.054531458765268326,0.08130189031362534,0.09782510250806808
247,5,-4.300089130993001e-05,0.0009688361315056682,0.001820300822146237,-0.017416002228856087,-0.028962038457393646,-0.012586059980094433,-0.04765836521983147,0.31872323155403137,0.011853613890707493,-0.025779740884900093,2.823493003845215,0.10807423293590546,0.0,0.0,0.0,0.047830723226070404,-0.024417933076620102,-0.0,0.0,0.0,0.0,0.0025340134743601084,0.004999999888241291,0.0006403043516911566,23631.0,0.0,16490.0,19790.0,0.08527550101280212,-0.02309098094701767,0.054776880890131,0.06836161017417908,0.0,0.0,0.0,0.0,24051.0,0.0,22682.0,25782.0,0.230112686753273,-0.10815796350873234,-0.35725814154247904,-0.1091634500628424,0.06495245546102524,0.11574918031692505,0.09651583433151245
252,5,-1.9145183614455163e-05,0.0005464412970468402,0.0019896712619811296,-0.001885001896880567,0.05044666305184364,-0.02748768776655197,-0.04765836521983147,0.31872323155403137,0.011853613890707493,-0.025779740884900093,2.823493003845215,0.10807423293590546,0.0,0.0,0.0,-0.06755033135414124,-0.0021989166270941496,-0.0,0.0,0.0,0.0,0.0025340134743601084,0.004999999888241291,0.0006403043516911566,23631.0,0.0,16490.0,19790.0,0.08527550101280212,-0.02309098094701767,0.054776880890131,0.06836161017417908,0.0,0.0,0.0,0.0,24051.0,0.0,22682.0,25782.0,0.25941726565361023,-0.13157993243384883,-0.3461838723389858,-0.10835352690663133,0.006587245501577854,-0.18419285118579865,0.14896182715892792
257,5,9.87817402346991e-05,4.350256494944915e-05,0.002322762506082654,0.01594426855444908,0.08554542064666748,-0.05487905815243721,-0.04811098799109459,0.2571653127670288,0.011628583073616028,-0.03075115755200386,3.3496627807617188,0.11758072674274445,0.0,0.0,0.0,-0.09053817391395569,0.015779588371515274,-0.0,0.0,0.0,0.0,0.004287659656256437,0.004999999888241291,0.0006020838627591729,22255.0,0.0,20343.0,23981.0,0.07907908409833908,-0.026723474264144897,0.07072639465332031,0.0868750512599945,0.0,0.0,0.0,0.0,23937.0,0.0,16687.0,19459.0,0.33493757247924805,-0.17044845444133513,-0.3476106776441165,-0.1091681075017617,-0.060918111354112625,-0.31848496198654175,0.24196875095367432
262,5,-2.6691906896303408e-05,0.0005080253467895091,0.001951407641172409,-0.012783030048012733,-0.03936956450343132,0.03552594780921936,-0.04811098799109459,0.2571653127670288,0.011628583073616028,-0.03075115755200386,3.3496627807617188,0.11758072674274445,0.0,0.0,0.0,0.059076059609651566,-0.016737770289182663,-0.0,0.0,0.0,0.0,0.004287659656256437,0.004999999888241291,0.0006020838627591729,22255.0,0.0,20343.0,23981.0,0.07907908409833908,-0.026723474264144897,0.07072639465332031,0.0868750512599945,0.0,0.0,0.0,0.0,23937.0,0.0,16687.0,19459.0,0.24555064737796783,-0.1396612444664857,-0.3020560021618684,-0.09458794206184165,0.0474838986992836,0.1525125950574875,-0.028368553146719933
267,5,6.251906597753987e-05,0.0006344145513139665,0.0021302644163370132,0.00865462701767683,-0.029505353420972824,-0.014382166787981987,-0.04811098799109459,0.2571653127670288,0.011628583073616028,-0.03075115755200386,3.3496627807617188,0.11758072674274445,0.0,0.0,0.0,0.0495152622461319,0.012933673337101936,-0.0,0.0,0.0,0.0,0.004287659656256437,0.004999999888241291,0.0006020838627591729,22255.0,0.0,20343.0,23981.0,0.07907908409833908,-0.026723474264144897,0.07072639465332031,0.0868750512599945,0.0,0.0,0.0,0.0,23937.0,0.0,16687.0,19459.0,0.22335855662822723,-0.13012960406654334,-0.2868549273779473,-0.09055448306156103,-0.03339390829205513,0.11630533635616302,0.12966682016849518
272,5,6.429868517443538e-05,0.0008098781108856201,0.0022919184993952513,0.002845534821972251,-0.0334165059030056,-0.02694621868431568,-0.04850319027900696,0.21512162685394287,0.011653045192360878,0.008684366010129452,3.6016485691070557,0.17790423333644867,0.0,0.0,0.0,0.05459608510136604,0.0043750605545938015,-0.0,0.0,0.0,0.0,-0.0007811576942913234,0.004999999888241291,0.0007201968692243099,32155.0,4474.0,16797.0,18660.0,0.12704746425151825,0.012702185660600662,0.056004248559474945,0.06361018121242523,0.0,0.0,0.0,0.0,22468.0,0.0,20801.0,23773.0,0.23003382980823517,-0.11964290716369579,-0.26665733657448537,-0.08689791766171978,-0.011630892753601074,0.1320553570985794,0.17623519897460938
277,5,0.0001461120555177331,0.0007952323067001998,0.0023664471227675676,0.01230753306299448,-0.007974543608725071,-0.018517887219786644,-0.04850319027900696,0.21512162685394287,0.011653045192360878,0.008684366010129452,3.6016485691070557,0.17790423333644867,0.0,0.0,0.0,0.018595566973090172,0.021918833255767822,-0.0,0.0,0.0,0.0,-0.0007811576942913234,0.004999999888241291,0.0007201968692243099,32155.0,4474.0,16797.0,18660.0,0.12704746425151825,0.012702185660600662,0.056004248559474945,0.06361018121242523,0.0,0.0,0.0,0.0,22468.0,0.0,20801.0,23773.0,0.18757691979408264,-0.12231077295697776,-0.2523751903690594,-0.08671973050475236,-0.04757438972592354,0.03669853135943413,0.1582656353712082
282,5,0.0001612746564205736,0.0007732400554232299,0.002619589911773801,0.005815023556351662,0.0006865532486699522,-0.04099534451961517,-0.04867177456617355,0.18544551730155945,0.01167887169867754,-0.018146973103284836,3.7432332038879395,0.1472775638103485,0.0,0.0,0.0,0.002392663387581706,0.01189697440713644,-0.0,0.0,0.0,0.0,0.004967399872839451,0.004999999888241291,0.0007014205330051482,22780.0,0.0,22723.0,24922.0,0.08142898976802826,-0.03046487830579281,0.08117072284221649,0.09122806787490845,0.0,0.0,0.0,0.0,32253.0,4287.0,16937.0,18536.0,0.1695292890071869,-0.11641698116857785,-0.23092277716526508,-0.08274486748665714,-0.02334320731461048,0.0042691100388765335,0.23822952806949615
287,5,0.0002244467759737745,0.0008137781405821443,0.002879943000152707,0.010588603094220161,-0.005469368305057287,-0.048748016357421875,-0.04867177456617355,0.18544551730155945,0.01167887169867754,-0.018146973103284836,3.7432332038879395,0.1472775638103485,0.0,0.0,0.0,0.0145039027556777,0.019809119403362274,-0.0,0.0,0.0,0.0,0.004967399872839451,0.004999999888241291,0.0007014205330051482,22780.0,0.0,22723.0,24922.0,0.08142898976802826,-0.03046487830579281,0.08117072284221649,0.09122806787490845,0.0,0.0,0.0,0.0,32253.0,4287.0,16937.0,18536.0,0.18155544996261597,-0.10929287470930378,-0.21160509189488977,-0.08129457692058256,-0.04161852225661278,0.02770557999610901,0.272668719291687
292,5,0.00025157572235912085,0.0008582737646065652,0.0031636497005820274,0.006974635645747185,-0.007870196364820004,-0.05434335023164749,-0.049255579710006714,0.13985341787338257,0.011721014976501465,-0.032169897109270096,3.8059961795806885,0.21482345461845398,0.0,0.0,0.0,0.01965816505253315,0.013603964820504189,-0.0,0.0,0.0,0.0,0.003589305095374584,0.004999999888241291,0.0007935307221487164,23612.0,0.0,19677.0,20075.0,0.08519183099269867,-0.03506367653608322,0.06788189709186554,0.06957760453224182,0.0,0.0,0.0,0.0,22685.0,0.0,22640.0,25014.0,0.17956826090812683,-0.10458840758666893,-0.1935406804326213,-0.07998399148250504,-0.02826765738427639,0.0371401347219944,0.3048374354839325
297,5,0.00033617072040215135,0.0010599879315122962,0.0031872279942035675,0.013935687951743603,-0.03060104511678219,-0.019603975117206573,-0.049255579710006714,0.13985341787338257,0.011721014976501465,-0.032169897109270096,3.8059961795806885,0.21482345461845398,0.0,0.0,0.0,0.05075975880026817,0.020500997081398964,-0.0,0.0,0.0,0.0,0.003589305095374584,0.004999999888241291,0.0007935307221487164,23612.0,0.0,19677.0,20075.0,0.08519183099269867,-0.03506367653608322,0.06788189709186554,0.06957760453224182,0.0,0.0,0.0,0.0,22685.0,0.0,22640.0,25014.0,0.23155629634857178,-0.08864854798376923,-0.17165035577723273,-0.0804037153130681,-0.05486958473920822,0.12360157072544098,0.2077760100364685
302,5,0.00048075817176140845,0.001063841162249446,0.003502622013911605,0.02442295290529728,-0.009719762951135635,-0.05003635957837105,-0.049238044768571854,0.10885576158761978,0.01161361113190651,-0.04348064586520195,3.8466262817382812,0.2001197785139084,0.0,0.0,0.0,0.020188581198453903,0.03834768384695053,-0.0,0.0,0.0,0.0,0.003383852541446686,0.004999999888241291,0.0007335992995649576,23520.0,0.0,19145.0,20174.0,0.0847715362906456,-0.032821912318468094,0.06564013659954071,0.06999790668487549,0.0,0.0,0.0,0.0,23091.0,0.0,18634.0,19925.0,0.21425718069076538,-0.08600172650334871,-0.15463734930280174,-0.0775223872509495,-0.09505300223827362,0.04550876095890999,0.31338152289390564
307,5,0.00032741125323809683,0.0007610889733769,0.0036284809466451406,-0.014141684398055077,0.03946937620639801,-0.03263114392757416,-0.049238044768571854,0.10885576158761978,0.01161361113190651,-0.04348064586520195,3.8466262817382812,0.2001197785139084,0.0,0.0,0.0,-0.05575653538107872,-0.0181809701025486,-0.0,0.0,0.0,0.0,0.003383852541446686,0.004999999888241291,0.0007335992995649576,23520.0,0.0,19145.0,20174.0,0.0847715362906456,-0.032821912318468094,0.06564013659954071,0.06999790668487549,0.0,0.0,0.0,0.0,23091.0,0.0,18634.0,19925.0,0.2395436018705368,-0.10692812924066211,-0.1356205823935869,-0.0727074932180085,0.050325553864240646,-0.14043349027633667,0.273133248090744
312,5,0.0003853381786029786,0.0007984325056895614,0.003780916566029191,0.003867264138534665,0.006612719502300024,-0.031130336225032806,-0.04955194145441055,0.0780334323644638,0.01147419586777687,-0.0635535717010498,3.888824462890625,0.20548133552074432,0.0,0.0,0.0,-0.009466857649385929,0.008961161598563194,-0.0,0.0,0.0,0.0,0.0033571075182408094,0.004999999888241291,0.0007434500148519874,23256.0,0.0,18770.0,19749.0,0.0835743322968483,-0.03425588831305504,0.06406831741333008,0.06818930804729462,0.0,0.0,0.0,0.0,24010.0,0.0,24010.0,24608.0,0.1695311963558197,-0.10024397843663975,-0.11779766796370618,-0.07062887536205101,-0.01758284866809845,-0.01688532903790474,0.28126996755599976
318,5,0.0005611566011793911,0.0009508751099929214,0.003987500444054604,0.02577476017177105,-0.019358143210411072,-0.038260821253061295,-0.04955194145441055,0.0780334323644638,0.01147419586777687,-0.0635535717010498,3.888824462890625,0.20548133552074432,0.0,0.0,0.0,0.033943723887205124,0.03817320242524147,-0.0,0.0,0.0,0.0,0.0033571075182408094,0.004999999888241291,0.0007434500148519874,23256.0,0.0,18770.0,19749.0,0.0835743322968483,-0.03425588831305504,0.06406831741333008,0.06818930804729462,0.0,0.0,0.0,0.0,24010.0,0.0,24010.0,24608.0,0.2283090502023697,-0.08482376183253126,-0.09929752904428109,-0.07042655813733346,-0.10078924149274826,0.08152103424072266,0.3196808695793152
323,5,0.0003690739977173507,0.0004884047084487975,0.004103703889995813,-0.019159138202667236,0.0589384064078331,-0.027746740728616714,-0.049794331192970276,0.031586118042469025,0.011586685664951801,0.0004349583468865603,3.939713478088379,0.1736849546432495,0.0,0.0,0.0,-0.07234854251146317,-0.02109149843454361,-0.0,0.0,0.0,0.0,0.004999999888241291,0.004999999888241291,0.0007650246261619031,23695.0,0.0,23695.0,24918.0,0.08557011932134628,-0.030743297189474106,0.08557011932134628,0.09120792150497437,0.0,0.0,0.0,0.0,30575.0,679.0,17033.0,18237.0,0.2820669114589691,-0.11159351502586119,-0.06893965534700364,-0.06515709418039349,0.06867142021656036,-0.21446911990642548,0.3015509247779846
328,5,0.0006107897497713566,0.0005639773444272578,0.0049560158513486385,0.01226093154400587,0.03204672038555145,-0.10129260271787643,-0.049794331192970276,0.031586118042469025,0.011586685664951801,0.0004349583468865603,3.939713478088379,0.1736849546432495,0.0,0.0,0.0,-0.047801174223423004,0.019431879743933678,-0.0,0.0,0.0,0.0,0.004999999888241291,0.004999999888241291,0.0007650246261619031,23695.0,0.0,23695.0,24918.0,0.08557011932134628,-0.030743297189474106,0.08557011932134628,0.09120792150497437,0.0,0.0,0.0,0.0,30575.0,679.0,17033.0,18237.0,0.22503036260604858,-0.08236244004629108,-0.03236468418299502,-0.05989161108832404,-0.050549689680337906,-0.11312285810709,0.5471430420875549
333,5,0.0007537200581282377,0.0006473005632869899,0.005100521259009838,0.02368851937353611,-0.002051228191703558,-0.05061856284737587,-0.050162117928266525,0.00107154855504632,0.011835566721856594,-0.029183296486735344,3.8036861419677734,0.19025103747844696,0.0,0.0,0.0,0.006976339500397444,0.03908791020512581,-0.0,0.0,0.0,0.0,-2.004068846872542e-05,0.004999999888241291,0.0008370936848223209,30985.0,0.0,17603.0,17725.0,0.12096984684467316,-0.0004871450364589691,0.059262827038764954,0.0597570538520813,0.0,0.0,0.0,0.0,23849.0,0.0,22182.0,24418.0,0.2084982693195343,-0.07347514740944056,-0.016388854782902168,-0.060712107938913254,-0.09429962933063507,0.01530449092388153,0.41216376423835754
338,5,0.0009907345520332456,0.0007351842359639704,0.005111678037792444,0.04028858616948128,-0.012919086962938309,-0.01674751751124859,-0.050162117928266525,0.00107154855504632,0.011835566721856594,-0.029183296486735344,3.8036861419677734,0.19025103747844696,0.0,0.0,0.0,0.021535582840442657,0.05462544411420822,-0.0,0.0,0.0,0.0,-2.004068846872542e-05,0.004999999888241291,0.0008370936848223209,30985.0,0.0,17603.0,17725.0,0.12096984684467316,-0.0004871450364589691,0.059262827038764954,0.0597570538520813,0.0,0.0,0.0,0.0,23849.0,0.0,22182.0,24418.0,0.2500722110271454,-0.06575083428806604,-0.002721807539826591,-0.060731015175486715,-0.1579909771680832,0.05666007101535797,0.3261476159095764
343,5,0.0010504903038963675,0.0009835594100877643,0.0057878862135112286,0.020452378317713737,-0.038648251444101334,-0.09969338029623032,-0.050492655485868454,-0.04367908090353012,0.011695886962115765,-0.011865847744047642,3.654334306716919,0.19621019065380096,0.0,0.0,0.0,0.057735249400138855,0.028576327487826347,-0.0,0.0,0.0,0.0,0.004358559846878052,0.004999999888241291,0.0008038264350034297,24808.0,0.0,23059.0,23452.0,0.09069894999265671,-0.029472772032022476,0.08268295973539352,0.08446244895458221,0.0,0.0,0.0,0.0,29626.0,0.0,17038.0,17645.0,0.2547445595264435,-0.033613204325941816,0.0032383815701608424,-0.07690843506889454,-0.08410511165857315,0.15463881194591522,0.5998920202255249
348,5,0.001270860549993813,0.0009244848042726517,0.00603363336995244,0.036987558007240295,-0.0033240278717130423,-0.06431259959936142,-0.050492655485868454,-0.04367908090353012,0.011695886962115765,-0.011865847744047642,3.654334306716919,0.19621019065380096,0.0,0.0,0.0,0.008739865384995937,0.05325014889240265,-0.0,0.0,0.0,0.0,0.004358559846878052,0.004999999888241291,0.0008038264350034297,24808.0,0.0,23059.0,23452.0,0.09069894999265671,-0.029472772032022476,0.08268295973539352,0.08446244895458221,0.0,0.0,0.0,0.0,29626.0,0.0,17038.0,17645.0,0.23946085572242737,-0.04162377714750651,0.008266025495660375,-0.06617972665796598,-0.14750942587852478,0.022020410746335983,0.5143839120864868
353,5,0.0013116105692461133,0.0008558626286685467,0.006202791817486286,0.016801264137029648,0.008609894663095474,-0.042975954711437225,-0.05072212591767311,-0.07258066534996033,0.011569616384804249,-0.03606295958161354,3.4913532733917236,0.16317082941532135,0.0,0.0,0.0,-0.011076366528868675,0.031713761389255524,-0.0,0.0,0.0,0.0,0.0003384923911653459,0.004999999888241291,0.0006651670555584133,28851.0,0.0,16191.0,18589.0,0.1101626604795456,-0.0020587556064128876,0.053588420152664185,0.06331821531057358,0.0,0.0,0.0,0.0,29651.0,0.0,17095.0,17615.0,0.19690300524234772,-0.043473032257709876,0.02567829871424554,-0.06544966993775446,-0.07225816696882248,-0.02294728346168995,0.47057241201400757
358,5,0.0014377663610503078,0.0008020232198759913,0.006152775138616562,0.02270219661295414,0.010120485909283161,-0.0058904592879116535,-0.05072212591767311,-0.07258066534996033,0.011569616384804249,-0.03606295958161354,3.4913532733917236,0.16317082941532135,0.0,0.0,0.0,-0.01294185034930706,0.03909292072057724,-0.0,0.0,0.0,0.0,0.0003384923911653459,0.004999999888241291,0.0006651670555584133,28851.0,0.0,16191.0,18589.0,0.1101626604795456,-0.0020587556064128876,0.053588420152664185,0.06331821531057358,0.0,0.0,0.0,0.0,29651.0,0.0,17095.0,17615.0,0.21088802814483643,-0.04154926906113938,0.04374539982199725,-0.06235547577038289,-0.09538872539997101,-0.02871476486325264,0.382243812084198
363,5,0.0015549925155937672,0.0007749847718514502,0.006592382676899433,0.023222314193844795,0.006821532268077135,-0.06331220269203186,-0.05072212591767311,-0.07258066534996033,0.011569616384804249,-0.03606295958161354,3.4913532733917236,0.16317082941532135,0.0,0.0,0.0,-0.007390898652374744,0.040238793939352036,-0.0,0.0,0.0,0.0,0.0003384923911653459,0.004999999888241291,0.0006651670555584133,28851.0,0.0,16191.0,18589.0,0.1101626604795456,-0.0020587556064128876,0.053588420152664185,0.06331821531057358,0.0,0.0,0.0,0.0,29651.0,0.0,17095.0,17615.0,0.21082887053489685,-0.0375677523719518,0.05209579365103771,-0.06499905905972587,-0.09815947711467743,-0.01639515720307827,0.5736175179481506
368,5,0.0016542472876608372,0.0006982700433582067,0.006673781666904688,0.020862359553575516,0.012786517851054668,-0.03038952127099037,-0.051033277064561844,-0.11343696713447571,0.01143905334174633,0.006157408468425274,3.359635829925537,0.12807641923427582,0.0,0.0,0.0,-0.01766766607761383,0.037082210183143616,-0.0,0.0,0.0,0.0,0.003762529231607914,0.004999999888241291,0.0006847200565971434,25816.0,0.0,22410.0,24794.0,0.09542623907327652,-0.015664998441934586,0.07977297157049179,0.09063295274972916,0.0,0.0,0.0,0.0,25828.0,0.0,22290.0,24782.0,0.21007713675498962,-0.03908844609643837,0.0666545940960176,-0.06430489219530197,-0.0901312306523323,-0.03904895856976509,0.4955240488052368
373,5,0.0018061428563669324,0.0004339725128374994,0.006712473928928375,0.027524089440703392,0.040837612003088,-0.01453378889709711,-0.051033277064561844,-0.11343696713447571,0.01143905334174633,0.006157408468425274,3.359635829925537,0.12807641923427582,0.0,0.0,0.0,-0.05314720422029495,0.038620475679636,-0.0,0.0,0.0,0.0,0.003762529231607914,0.004999999888241291,0.0006847200565971434,25816.0,0.0,22410.0,24794.0,0.09542623907327652,-0.015664998441934586,0.07977297157049179,0.09063295274972916,0.0,0.0,0.0,0.0,25828.0,0.0,22290.0,24782.0,0.2604840397834778,-0.04466648054337698,0.07661269110101049,-0.06461097842487386,-0.11624208092689514,-0.14557258784770966,0.468229740858078
378,5,0.001913072424940765,0.00038461180520243943,0.006774840876460075,0.023227375000715256,0.019161779433488846,-0.013091525062918663,-0.05110417306423187,-0.13947302103042603,0.011098583228886127,0.0016311000799760222,3.1171462535858154,0.08552723377943039,0.0,0.0,0.0,-0.02752876654267311,0.03922846540808678,-0.0,0.0,0.0,0.0,0.0022545186802744865,0.004999999888241291,0.0005056649097241461,25963.0,0.0,20605.0,23493.0,0.09612391889095306,-0.013032225891947746,0.0718531608581543,0.08464822173118591,0.0,0.0,0.0,0.0,24868.0,0.0,19278.0,24614.0,0.22266286611557007,-0.0407946569528239,0.09062158993316283,-0.06569718294036585,-0.10103210806846619,-0.06448433548212051,0.48430773615837097
384,5,0.001956908032298088,0.00039063525036908686,0.0069418190978467464,0.013105177320539951,0.00490525271743536,-0.02730439230799675,-0.05110417306423187,-0.13947302103042603,0.011098583228886127,0.0016311000799760222,3.1171462535858154,0.08552723377943039,0.0,0.0,0.0,-0.005455452483147383,0.028913550078868866,-0.0,0.0,0.0,0.0,0.0022545186802744865,0.004999999888241291,0.0005056649097241461,25963.0,0.0,20605.0,23493.0,0.09612391889095306,-0.013032225891947746,0.0718531608581543,0.08464822173118591,0.0,0.0,0.0,0.0,24868.0,0.0,19278.0,24614.0,0.1902509480714798,-0.036991430504043084,0.10737945576372566,-0.06712810554782324,-0.06365957856178284,-0.01091996394097805,0.5497922301292419
389,5,0.0021168978419154882,0.00037668910226784647,0.006967435125261545,0.026330124586820602,0.0034240386448800564,-0.011777563951909542,-0.051500480622053146,-0.17498910427093506,0.009800972416996956,-0.029675109311938286,2.795253276824951,0.06724869459867477,0.0,0.0,0.0,-0.0023266852367669344,0.04505132511258125,-0.0,0.0,0.0,0.0,-0.00017906277207657695,0.004999999888241291,0.0004177505325060338,24260.0,0.0,16615.0,22064.0,0.08816072344779968,-0.010832035914063454,0.05527517572045326,0.07823362946510315,0.0,0.0,0.0,0.0,24789.0,0.0,17050.0,21509.0,0.21960008144378662,-0.03534693054700926,0.11948375877575222,-0.06828528451033544,-0.11446645110845566,-0.005376048386096954,0.5232111215591431
394,5,0.0022978675551712513,0.0002624437620397657,0.006744219455868006,0.03323481231927872,0.017021557316184044,0.027716949582099915,-0.051500480622053146,-0.17498910427093506,0.009800972416996956,-0.029675109311938286,2.795253276824951,0.06724869459867477,0.0,0.0,0.0,-0.02240554429590702,0.0507366843521595,-0.0,0.0,0.0,0.0,-0.00017906277207657695,0.004999999888241291,0.0004177505325060338,24260.0,0.0,16615.0,22064.0,0.08816072344779968,-0.010832035914063454,0.05527517572045326,0.07823362946510315,0.0,0.0,0.0,0.0,24789.0,0.0,17050.0,21509.0,0.24151337146759033,-0.03574904340649464,0.13216975011072363,-0.0672762412033662,-0.1417275071144104,-0.05693001300096512,0.4217256009578705
399,5,0.002522046444937587,0.00046219414798542857,0.007185224909335375,0.041355498135089874,-0.02285858802497387,-0.053425684571266174,-0.05137276276946068,-0.19622458517551422,0.009096087887883186,0.07317788898944855,2.5829060077667236,0.005176246166229248,0.0,0.0,0.0,0.033424120396375656,0.05636939778923988,-0.0,0.0,0.0,0.0,0.0022500324994325638,0.004999999888241291,0.0003338090027682483,21193.0,0.0,12852.0,22846.0,0.0744035392999649,-0.006639555096626282,0.04081514850258827,0.08172327280044556,0.0,0.0,0.0,0.0,29176.0,7153.0,14809.0,22336.0,0.26668107509613037,-0.02116035933966125,0.13915153150856865,-0.06850669223233385,-0.17380355298519135,0.09376484155654907,0.6908650994300842
404,5,0.002680244855582714,0.0004296726838219911,0.007313006557524204,0.034554433077573776,-0.00230457098223269,-0.03391715884208679,-0.05137276276946068,-0.19622458517551422,0.009096087887883186,0.07317788898944855,2.5829060077667236,0.005176246166229248,0.0,0.0,0.0,0.006562420632690191,0.05383102223277092,-0.0,0.0,0.0,0.0,0.0022500324994325638,0.004999999888241291,0.0003338090027682483,21193.0,0.0,12852.0,22846.0,0.0744035392999649,-0.006639555096626282,0.04081514850258827,0.08172327280044556,0.0,0.0,0.0,0.0,29176.0,7153.0,14809.0,22336.0,0.24024732410907745,-0.0212853934445496,0.1481384496573435,-0.07095640733396913,-0.14961323142051697,0.016589330509305,0.6552858352661133
409,5,0.0028376781847327948,0.0004035652382299304,0.007375506684184074,0.03240698575973511,0.002963670063763857,-0.018925128504633904,-0.05155882611870766,-0.24038231372833252,0.005494481883943081,0.07909617573022842,1.754579782485962,-0.12877826392650604,0.0,0.0,0.0,-0.001301888027228415,0.05236269161105156,-0.0,0.0,0.0,0.0,0.001324427081272006,0.004999999888241291,0.00010353318066336215,24026.0,6165.0,13144.0,25659.0,0.08708397299051285,0.01792168617248535,0.041897572576999664,0.09468650072813034,0.0,0.0,0.0,0.0,20499.0,0.0,12138.0,23511.0,0.23592747747898102,-0.02085093311956337,0.16099003218748859,-0.07483676716185028,-0.14291831851005554,-0.0032318083103746176,0.6335628628730774
414,5,0.0030236034654080868,0.00040957570308819413,0.007596466224640608,0.03575164079666138,4.763551623909734e-05,-0.0366118922829628,-0.05155882611870766,-0.24038231372833252,0.005494481883943081,0.07909617573022842,1.754579782485962,-0.12877826392650604,0.0,0.0,0.0,0.003041486954316497,0.055614128708839417,-0.0,0.0,0.0,0.0,0.001324427081272006,0.004999999888241291,0.00010353318066336215,24026.0,6165.0,13144.0,25659.0,0.08708397299051285,0.01792168617248535,0.041897572576999664,0.09468650072813034,0.0,0.0,0.0,0.0,20499.0,0.0,12138.0,23511.0,0.2440367043018341,-0.018234576359573824,0.16575386935380818,-0.0762702881331952,-0.15700489282608032,0.007810303475707769,0.7124770283699036
419,5,0.0032941075041890144,8.41967121232301e-05,0.006900341250002384,0.04859605059027672,0.0455673523247242,0.08647391945123672,-0.05124948173761368,-0.2590523362159729,0.001975748920813203,0.08260547369718552,1.3810025453567505,-0.24177296459674835,0.0,0.0,0.0,-0.05160334333777428,0.05912114307284355,-0.0,0.0,0.0,0.0,0.002558248583227396,0.004999999888241291,-0.00014483087579719722,19656.0,7087.0,12181.0,29494.0,0.06779328733682632,0.020864615216851234,0.03835637867450714,0.11337891966104507,0.0,0.0,0.0,0.0,23518.0,7645.0,11845.0,26149.0,0.3033524453639984,-0.03223598451592221,0.1633633292485498,-0.07310114398605787,-0.20717866718769073,-0.1646111160516739,0.35432320833206177
424,5,0.003367525991052389,0.00010030560224549845,0.007093400228768587,0.024857383221387863,0.011414960026741028,-0.0010860739275813103,-0.05124948173761368,-0.2590523362159729,0.001975748920813203,0.08260547369718552,1.3810025453567505,-0.24177296459674835,0.0,0.0,0.0,-0.015361655503511429,0.0457124225795269,-0.0,0.0,0.0,0.0,0.002558248583227396,0.004999999888241291,-0.00014483087579719722,19656.0,7087.0,12181.0,29494.0,0.06779328733682632,0.020864615216851234,0.03835637867450714,0.11337891966104507,0.0,0.0,0.0,0.0,23518.0,7645.0,11845.0,26149.0,0.22542384266853333,-0.03392258594455321,0.1674441567063475,-0.07384621474826396,-0.11921646445989609,-0.03643398359417915,0.6427474021911621
429,5,0.003550941124558449,0.00012824678560718894,0.006952369119971991,0.03313533589243889,-0.00048727664398029447,0.019418513402342796,-0.05124519020318985,-0.26784244179725647,-0.0005240224418230355,0.11932700127363205,0.8973203301429749,-0.3057269752025604,0.0,0.0,0.0,0.003299061441794038,0.054426323622465134,-0.0,0.0,0.0,0.0,0.0023749549873173237,0.004999999888241291,-0.0003170175477862358,18905.0,9435.0,10534.0,30496.0,0.06463433057069778,0.028669383376836777,0.03247297555208206,0.11845924705266953,0.0,0.0,0.0,0.0,19800.0,6550.0,12652.0,29372.0,0.24110567569732666,-0.026984251090705416,0.17419948021828435,-0.07594800976006354,-0.15180493891239166,0.008369323797523975,0.5978910326957703
434,5,0.0042024701833724976,0.0002630435337778181,0.006840504240244627,0.10115470737218857,-0.01901772804558277,0.021486621350049973,-0.05124519020318985,-0.26784244179725647,-0.0005240224418230355,0.11932700127363205,0.8973203301429749,-0.3057269752025604,0.0,0.0,0.0,0.019550472497940063,0.09310629963874817,-0.0,0.0,0.0,0.0,0.0023749549873173237,0.004999999888241291,-0.0003170175477862358,18905.0,9435.0,10534.0,30496.0,0.06463433057069778,0.028669383376836777,0.03247297555208206,0.11845924705266953,0.0,0.0,0.0,0.0,19800.0,6550.0,12652.0,29372.0,0.3823051452636719,-0.0199478122947926,0.16131152774211932,-0.07690774492069344,-0.4113057851791382,0.07863641530275345,0.6163270473480225
440,5,0.004179615061730146,0.00046796436072327197,0.007488076575100422,0.027146654203534126,-0.03439423441886902,-0.08421410620212555,-0.05081154778599739,-0.2755068838596344,-0.0049234856851398945,0.12999625504016876,0.4120917022228241,-0.3252197206020355,0.0,0.0,0.0,0.04956603795289993,0.04403074085712433,-0.0,0.0,0.0,0.0,0.002273153280839324,0.004999999888241291,-0.0004778928414452821,17587.0,11818.0,5163.0,29736.0,0.05919551104307175,0.037039801478385925,0.014802837744355202,0.1145983412861824,0.0,0.0,0.0,0.0,16869.0,12295.0,4596.0,30308.0,0.26371946930885315,-0.030943630120976666,0.18316599755801405,-0.0854204811204142,-0.1341918557882309,0.13746054470539093,0.9579146504402161
445,5,0.004351080395281315,0.000507547112647444,0.0076597402803599834,0.03214918449521065,-0.015859851613640785,-0.04929712414741516,-0.05081154778599739,-0.2755068838596344,-0.0049234856851398945,0.12999625504016876,0.4120917022228241,-0.3252197206020355,0.0,0.0,0.0,0.0258721224963665,0.05339044705033302,-0.0,0.0,0.0,0.0,0.002273153280839324,0.004999999888241291,-0.0004778928414452821,17587.0,11818.0,5163.0,29736.0,0.05919551104307175,0.037039801478385925,0.014802837744355202,0.1145983412861824,0.0,0.0,0.0,0.0,16869.0,12295.0,4596.0,30308.0,0.25089794397354126,-0.026842570746517833,0.18423186067724484,-0.08554502861612721,-0.15492214262485504,0.0682908222079277,0.8862670660018921
450,5,0.004638289101421833,0.0005200164741836488,0.007599043194204569,0.04985395073890686,-0.006503666285425425,-0.006291561294347048,-0.05078987404704094,-0.2763098478317261,-0.00831724051386118,0.1433107554912567,-0.015001568011939526,-0.41804951429367065,0.0,0.0,0.0,0.011220723390579224,0.06841845065355301,-0.0,0.0,0.0,0.0,0.0014714299468323588,0.004999999888241291,-0.0007948140264488757,21862.0,21491.0,16435.0,40717.0,0.07733802497386932,0.0757078304886818,0.054556529968976974,0.17487755417823792,0.0,0.0,0.0,0.0,16869.0,12295.0,4596.0,30308.0,0.28228676319122314,-0.02858525681595132,0.18223525227531706,-0.08938497394417319,-0.2233528196811676,0.03332705423235893,0.7697399258613586
455,5,0.004804127383977175,0.0002084276347886771,0.007117599714547396,0.03817356005311012,0.041671331971883774,0.06551460176706314,-0.05078987404704094,-0.2763098478317261,-0.00831724051386118,0.1433107554912567,-0.015001568011939526,-0.41804951429367065,0.0,0.0,0.0,-0.04932791739702225,0.05463692545890808,-0.0,0.0,0.0,0.0,0.0014714299468323588,0.004999999888241291,-0.0007948140264488757,21862.0,21491.0,16435.0,40717.0,0.07733802497386932,0.0757078304886818,0.054556529968976974,0.17487755417823792,0.0,0.0,0.0,0.0,16869.0,12295.0,4596.0,30308.0,0.28714415431022644,-0.032820120359712913,0.1861929668985915,-0.09437449804466869,-0.18127799034118652,-0.14895260334014893,0.5693029165267944
460,5,0.005078373476862907,0.0005813472671434283,0.0076100886799395084,0.049846477806568146,-0.03970734402537346,-0.04929407685995102,-0.05016990378499031,-0.2716997563838959,-0.013241364620625973,0.20026791095733643,-0.6209951639175415,-0.4423429071903229,0.0,0.0,0.0,0.048556745052337646,0.0635065883398056,-0.0,0.0,0.0,0.0,0.0030514420941472054,0.004999999888241291,-0.0008739567128941417,11958.0,14631.0,5884.0,36208.0,0.03754463419318199,0.047509364783763885,0.017040133476257324,0.1489560753107071,0.0,0.0,0.0,0.0,21842.0,21419.0,16514.0,40731.0,0.3100240230560303,-0.024004919620409355,0.17296687050665907,-0.09025912006785325,-0.2274630218744278,0.1583109349012375,0.9434326887130737
465,5,0.00540442019701004,0.0005570246139541268,0.007460007444024086,0.06060054153203964,-0.008507034741342068,0.006223132833838463,-0.05016990378499031,-0.2716997563838959,-0.013241364620625973,0.20026791095733643,-0.6209951639175415,-0.4423429071903229,0.0,0.0,0.0,0.01273340918123722,0.07592568546533585,-0.0,0.0,0.0,0.0,0.0030514420941472054,0.004999999888241291,-0.0008739567128941417,11958.0,14631.0,5884.0,36208.0,0.03754463419318199,0.047509364783763885,0.017040133476257324,0.1489560753107071,0.0,0.0,0.0,0.0,21842.0,21419.0,16514.0,40731.0,0.30807650089263916,-0.02777579433844003,0.1666732730093391,-0.09628285086289037,-0.2704462707042694,0.04127442464232445,0.7961170673370361
470,5,0.00568094989284873,0.0005854726769030094,0.007330375257879496,0.05689430236816406,-0.006534837186336517,0.02001548558473587,-0.04942462593317032,-0.26394668221473694,-0.016442934051156044,0.15863056480884552,-1.317610502243042,-0.5050602555274963,0.0,0.0,0.0,0.010760094970464706,0.07429972290992737,-0.0,0.0,0.0,0.0,0.003246022155508399,0.002900052582845092,-0.0010753682581707835,5089.0,20241.0,9068.0,34354.0,0.0145735964179039,0.07028660178184509,0.02742009237408638,0.13876992464065552,0.0,0.0,0.0,0.0,11984.0,14878.0,5580.0,36191.0,0.3014785051345825,-0.0279848295700952,0.16031607986340193,-0.09846554779478951,-0.2590116560459137,0.034132324159145355,0.7744101285934448
