timestamp,dt,pos_x,pos_y,pos_z,vel_x,vel_y,vel_z,roll,pitch,yaw,agv_x,agv_y,agv_z,x_ref,y_ref,z_ref,roll_ref,pitch_ref,yaw_ref,x_vel_ref,y_vel_ref,z_vel_ref,x_torque,y_torque,z_torque,w0,w1,w2,w3,u0,u1,u2,u3,m0req,m1req,m2req,m3req,thrust0,thrust1,thrust2,thrust3,thrust_ref,roll_vicon,pitch_vicon,yaw_vicon
5,5,0.0,0.0,0.0,-0.018412074074149132,0.00016824895283207297,-0.003409218043088913,0.035556938499212265,-0.04249114170670509,-0.037484463304281235,0.017166128382086754,0.05504973232746124,-0.0730818510055542,0.0,0.0,0.0,-8.575001993449405e-05,-0.009384064003825188,-0.0,0.0,0.0,0.0,-0.001340674003586173,0.0019154194742441177,-0.003000000026077032,0.0,0.0,0.0,0.0,0.0,0.0,0.0,0.0,0.0,0.0,0.0,0.0,0.0,0.0,0.0,0.0,0.5085728168487549,0.026291553116913884,-0.06304522344050491,0.005923741673172845
25,19,0.0,0.0,0.0,-0.014938210137188435,0.0011560829589143395,-0.012224365957081318,0.03560025244951248,-0.042201995849609375,-0.03783551976084709,-0.009452704340219498,-0.11441269516944885,-0.027720937505364418,0.0,0.0,0.0,-0.0005892198532819748,-0.007613619789481163,-0.0,0.0,0.0,0.0,-0.0013029577676206827,0.0009279415244236588,-0.003000000026077032,0.0,0.0,0.0,0.0,0.0,0.0,0.0,0.0,0.0,0.0,0.0,0.0,0.0,0.0,0.0,0.0,0.5085652470588684,0.029874582551315636,-0.06657107001931677,0.005729538803467847
37,13,0.0,0.0,0.0,-0.009293603710830212,-0.0019487508106976748,-0.006145896855741739,0.035668861120939255,-0.03965846821665764,-0.03824440389871597,0.012587646953761578,-0.2855488955974579,-0.014450128190219402,0.0,0.0,0.0,0.0009932356188073754,-0.0047367652878165245,-0.0,0.0,0.0,0.0,-0.0013357389252632856,-0.00044396307202987373,-0.003000000026077032,0.0,0.0,0.0,0.0,0.0,0.0,0.0,0.0,0.0,0.0,0.0,0.0,6102.0,52909.0,4465.0,48734.0,0.5085563659667969,0.02940860686132695,-0.06474456970327416,0.005186249782971118
42,5,0.0,0.0,0.0,-0.011756817810237408,0.005120468325912952,-0.00440619932487607,0.035668861120939255,-0.03965846821665764,-0.03824440389871597,0.012587646953761578,-0.2855488955974579,-0.014450128190219402,0.0,0.0,0.0,0.0009932356188073754,-0.0047367652878165245,-0.0,0.0,0.0,0.0,-0.0013357389252632856,-0.00044396307202987373,-0.003000000026077032,0.0,0.0,0.0,0.0,0.0,0.0,0.0,0.0,0.0,0.0,0.0,0.0,6102.0,52909.0,4465.0,48734.0,0.5085563659667969,0.030211032579151108,-0.06152498215073731,0.005377799910578666
47,5,0.0,0.0,0.0,-0.011756817810237408,0.005120468325912952,-0.00440619932487607,0.03572724387049675,-0.03664417937397957,-0.038546349853277206,-0.0021735646296292543,-0.42682453989982605,0.005352242384105921,0.0,0.0,0.0,-0.0026097679510712624,-0.005992189981043339,-0.0,0.0,0.0,0.0,-0.0013405142817646265,-0.0014439154183492064,-0.003000000026077032,4973.0,53374.0,5609.0,48242.0,0.014219872653484344,0.25637906789779663,0.016182146966457367,0.22178415954113007,0.0,0.0,0.0,0.0,4252.0,53713.0,6306.0,47881.0,0.5085612535476685,0.030211032579151108,-0.06152498215073731,0.005377799910578666
52,5,-2.765735553111881e-05,-1.1254253877268638e-05,0.0001797567238099873,-0.012678978964686394,-0.0004959790967404842,-0.023532714694738388,0.03572724387049675,-0.03664417937397957,-0.038546349853277206,-0.0021735646296292543,-0.42682453989982605,0.005352242384105921,0.0,0.0,0.0,0.0002441699034534395,-0.006483359262347221,-0.0,0.0,0.0,0.0,-0.0013405142817646265,-0.0014439154183492064,-0.003000000026077032,4973.0,53374.0,5609.0,48242.0,0.014219872653484344,0.25637906789779663,0.016182146966457367,0.22178415954113007,0.0,0.0,0.0,0.0,4252.0,53713.0,6306.0,47881.0,0.5085610747337341,0.028091637160094038,-0.042708708471658724,0.0026211763967852373
57,5,-0.00016576441703364253,-0.00013008719542995095,0.000596739468164742,-0.023138683289289474,0.016487818211317062,-0.06543739885091782,0.03584089130163193,-0.03053401969373226,-0.037692565470933914,0.015424304641783237,-0.551886796951294,0.08715569972991943,0.0,0.0,0.0,-0.008502610959112644,-0.011920170858502388,-0.0,0.0,0.0,0.0,-0.0014148700283840299,-0.003122652880847454,-0.003000000026077032,3106.0,54252.0,7361.0,47298.0,0.00864914059638977,0.262511670589447,0.021752886474132538,0.21565157175064087,0.0,0.0,0.0,0.0,2431.0,54501.0,7955.0,47027.0,0.5086049437522888,-0.02102995046825964,-0.061504909817051014,-0.009191916847117251
64,6,-0.00016576441703364253,-0.00013008719542995095,0.000596739468164742,-0.023138683289289474,0.016487818211317062,-0.06543739885091782,0.03584089130163193,-0.03053401969373226,-0.037692565470933914,0.015424304641783237,-0.551886796951294,0.08715569972991943,0.0,0.0,0.0,-0.008503517135977745,-0.011921324767172337,-0.0,0.0,0.0,0.0,-0.0014148700283840299,-0.003122652880847454,-0.003000000026077032,3106.0,54252.0,7361.0,47298.0,0.00864914059638977,0.262511670589447,0.021752886474132538,0.21565157175064087,0.0,0.0,0.0,0.0,2431.0,54501.0,7955.0,47027.0,0.5086049437522888,-0.02102995046825964,-0.061504909817051014,-0.009191916847117251
69,5,-2.152901106455829e-05,-0.00012613563740160316,0.00039297863258980215,0.007507091388106346,0.00541504705324769,0.007758225314319134,0.03582095354795456,-0.025498084723949432,-0.03692436218261719,-0.003721078624948859,-0.669702410697937,0.16391435265541077,0.0,0.0,0.0,-0.0028600036166608334,0.003805088810622692,-0.0,0.0,0.0,0.0,-0.0013175953645259142,-0.0038452870212495327,-0.003000000026077032,1589.0,54917.0,8669.0,46569.0,0.004327394068241119,0.2671965956687927,0.026072628796100616,0.2109646499156952,0.0,0.0,0.0,0.0,812.0,55237.0,9302.0,46215.0,0.5085561871528625,-0.00930805516383645,-0.04065908619817396,-0.0070820190518071586
74,5,4.0548922697780654e-05,-0.00010817783186212182,0.00034581939689815044,0.010943037457764149,-0.0008895787177607417,0.008929762989282608,0.035797640681266785,-0.01677285134792328,-0.035088833421468735,-0.008172097615897655,-0.7089356780052185,0.16281761229038239,0.0,0.0,0.0,0.0003644464595708996,0.005603670142591,-0.0,0.0,0.0,0.0,-0.0013175953645259142,-0.0038452870212495327,-0.003000000026077032,0.0,55442.0,10110.0,45986.0,-0.0005927532911300659,0.2709181010723114,0.030992694199085236,0.20724305510520935,0.0,0.0,0.0,0.0,0.0,55392.0,9951.0,46042.0,0.5085583925247192,-0.011359859837631337,-0.03319214138560286,-0.008135315992713835
81,7,-0.0008141298312693834,-0.0006081584724597633,-0.001579590723849833,0.010943037457764149,-0.0008895787177607417,0.008929762989282608,0.035797640681266785,-0.01677285134792328,-0.035088833421468735,-0.008172097615897655,-0.7089356780052185,0.16281761229038239,0.0,0.0,0.0,-1.8020806237473153e-05,0.0049499948509037495,-0.0,0.0,0.0,0.0,-0.0013175953645259142,-0.0038452870212495327,-0.003000000026077032,0.0,55442.0,10110.0,45986.0,-0.0005927532911300659,0.2709181010723114,0.030992694199085236,0.20724305510520935,0.0,0.0,0.0,0.0,0.0,55392.0,9951.0,46042.0,0.508556604385376,-0.05237519351896269,0.02804185832239459,-0.000851768937546389
86,5,-0.0005274192080833018,2.045325527433306e-05,-0.0007614899659529328,0.0434223972260952,-0.08827251195907593,-0.11185517907142639,0.03587210178375244,-0.011015665717422962,-0.033636193722486496,0.015034537762403488,-0.6556525230407715,0.19233638048171997,0.0,0.0,0.0,0.038982268422842026,0.014470248483121395,-0.0,0.0,0.0,0.0,-0.001640282105654478,-0.003932785242795944,-0.003000000026077032,733.0,55639.0,9371.0,45768.0,0.0019725337624549866,0.27232101559638977,0.028449319303035736,0.20586206018924713,0.0,0.0,0.0,0.0,0.0,56032.0,10246.0,45324.0,0.7634854912757874,-0.03064574845069982,0.01404967313577439,-0.00803475981928815
93,6,-0.00036916183307766914,0.0006178735056892037,-0.00010002849739976227,0.003711580066010356,-0.04272698611021042,-0.04051785543560982,0.03587210178375244,-0.011015665717422962,-0.033636193722486496,0.015034537762403488,-0.6556525230407715,0.19233638048171997,0.0,0.0,0.0,0.02223728597164154,0.0015875421231612563,-0.0,0.0,0.0,0.0,-0.001640282105654478,-0.003932785242795944,-0.003000000026077032,733.0,55639.0,9371.0,45768.0,0.0019725337624549866,0.27232101559638977,0.028449319303035736,0.20586206018924713,0.0,0.0,0.0,0.0,0.0,56032.0,10246.0,45324.0,0.5086768269538879,-0.014858725633720243,-0.0016789619147124263,-0.009874790679845397
98,5,-0.0001458548940718174,0.0005417494685389102,-0.0002446685975883156,0.03237644582986832,-0.002160724950954318,0.00809425674378872,0.03587210178375244,-0.011015665717422962,-0.033636193722486496,0.015034537762403488,-0.6556525230407715,0.19233638048171997,0.0,0.0,0.0,0.0015195428859442472,0.016359280794858932,-0.0,0.0,0.0,0.0,-0.001640282105654478,-0.003932785242795944,-0.003000000026077032,733.0,55639.0,9371.0,45768.0,0.0019725337624549866,0.27232101559638977,0.028449319303035736,0.20586206018924713,0.0,0.0,0.0,0.0,0.0,56032.0,10246.0,45324.0,0.5086190700531006,-0.01339119880904983,0.003274801683713377,-0.010044431122166287
103,5,-7.215944060590118e-05,0.0006427230546250939,-9.204189700540155e-05,0.020030297338962555,-0.014784520491957664,-0.018939459696412086,0.03575698286294937,-0.0031550079584121704,-0.031588710844516754,-0.02953680045902729,-0.6224874258041382,0.20238323509693146,0.0,0.0,0.0,0.00804084911942482,0.010121352970600128,-0.0,0.0,0.0,0.0,-4.772030661115423e-05,-0.0019043744541704655,-0.0027633896097540855,21964.0,60036.0,26044.0,57365.0,0.07778941839933395,0.30444297194480896,0.09650673717260361,0.2847464084625244,0.0,0.0,0.0,0.0,4739.0,53371.0,9049.0,46628.0,0.5085929036140442,-0.009286658697309652,0.0005965401880635513,-0.009297253237412045
108,5,-9.339247480966151e-05,0.0007634936482645571,-5.182517634239048e-05,0.0030364636331796646,-0.02134324237704277,-0.011312178336083889,0.03575698286294937,-0.0031550079584121704,-0.031588710844516754,-0.02953680045902729,-0.6224874258041382,0.20238323509693146,0.0,0.0,0.0,0.011490094475448132,0.0014424043474718928,-0.0,0.0,0.0,0.0,-4.772030661115423e-05,-0.0019043744541704655,-0.0027633896097540855,21964.0,60036.0,26044.0,57365.0,0.07778941839933395,0.30444297194480896,0.09650673717260361,0.2847464084625244,0.0,0.0,0.0,0.0,4739.0,53371.0,9049.0,46628.0,0.5085844993591309,-0.009388078626173694,-0.00012278287864022922,-0.00888185661614326
113,5,-4.7215446102200076e-05,0.0008054642821662128,6.500732706626877e-05,0.0073757232166826725,-0.012278864160180092,-0.0197502039372921,0.035688918083906174,0.0034694408532232046,-0.028611095622181892,0.00893512275069952,-0.09021570533514023,0.06818563491106033,0.0,0.0,0.0,0.006917238235473633,0.0036875582300126553,-0.0,0.0,0.0,0.0,-0.0012987449299544096,-0.0007681002607569098,-0.0028133143205195665,9418.0,51178.0,6260.0,48041.0,0.028609104454517365,0.2413145899772644,0.01822323352098465,0.2204720675945282,0.0,0.0,0.0,0.0,21966.0,60075.0,25824.0,57467.0,0.5085660219192505,-0.008452564296224737,-0.001357038722736907,-0.009108657857323945
118,5,-0.00024269369896501303,0.0012956057908013463,0.00030209257965907454,-0.02515423856675625,-0.07230346649885178,-0.0391169972717762,0.035688918083906174,0.0034694408532232046,-0.028611095622181892,0.00893512275069952,-0.09021570533514023,0.06818563491106033,0.0,0.0,0.0,0.03788112476468086,-0.01304214634001255,-0.0,0.0,0.0,0.0,-0.0012987449299544096,-0.0007681002607569098,-0.0028133143205195665,9418.0,51178.0,6260.0,48041.0,0.028609104454517365,0.2413145899772644,0.01822323352098465,0.2204720675945282,0.0,0.0,0.0,0.0,21966.0,60075.0,25824.0,57467.0,0.5089588165283203,0.015963462621236536,-0.019758547437788977,-0.0035251307248186114
123,5,-0.0002254787104902789,0.001170119154267013,0.0002588398929219693,-0.005136172287166119,-0.004122917074710131,-0.005679722409695387,0.0352051705121994,0.0034920375328511,-0.028567731380462646,-0.14608581364154816,0.1079639196395874,-0.03628373146057129,0.0,0.0,0.0,0.0030819368548691273,-0.0028316916432231665,-0.0,0.0,0.0,0.0,-0.0007132900645956397,0.0002764614764600992,-0.002890976844355464,8520.0,50546.0,4332.0,50042.0,0.025574982166290283,0.23705536127090454,0.012276515364646912,0.2336777150630951,0.0,0.0,0.0,0.0,9650.0,49855.0,3269.0,50632.0,0.5085548758506775,0.019385867046989334,-0.023104851981123737,-0.0016949676135879002
128,5,-0.00026113682542927563,0.0010412109550088644,0.00018389354227110744,-0.006532987114042044,0.016810277476906776,0.008788571693003178,0.0352051705121994,0.0034920375328511,-0.028567731380462646,-0.14608581364154816,0.1079639196395874,-0.03628373146057129,0.0,0.0,0.0,-0.007661677896976471,-0.003575520822778344,-0.0,0.0,0.0,0.0,-0.0007132900645956397,0.0002764614764600992,-0.002890976844355464,8520.0,50546.0,4332.0,50042.0,0.025574982166290283,0.23705536127090454,0.012276515364646912,0.2336777150630951,0.0,0.0,0.0,0.0,9650.0,49855.0,3269.0,50632.0,0.5085685849189758,0.02414992365272035,-0.02917338396635185,-0.0011022852190123915
133,5,-0.0001595661451574415,0.0009214388555847108,0.0003273777256254107,0.012259997427463531,0.02181117981672287,-0.01745121367275715,0.032936133444309235,0.00036462408024817705,-0.02882705070078373,-0.21071909368038177,0.31487780809402466,-0.04708528146147728,0.0,0.0,0.0,-0.010281137190759182,0.006075386889278889,-0.0,0.0,0.0,0.0,-0.00054479407845065,0.0016971228178590536,-0.0029151837807148695,7988.0,48886.0,4261.0,52026.0,0.023806221783161163,0.22600452601909637,0.012062758207321167,0.24708566069602966,0.0,0.0,0.0,0.0,7359.0,48988.0,3305.0,52641.0,0.5085866451263428,0.019757014595219863,-0.03431147007930338,0.0005837050435657182
139,5,-0.00015577260637655854,0.0010803834302350879,0.00031045274226926267,0.0042090946808457375,-0.015708887949585915,-0.002865866757929325,0.032936133444309235,0.00036462408024817705,-0.02882705070078373,-0.21071909368038177,0.31487780809402466,-0.04708528146147728,0.0,0.0,0.0,0.008981943130493164,0.0019716641400009394,-0.0,0.0,0.0,0.0,-0.00054479407845065,0.0016971228178590536,-0.0029151837807148695,7988.0,48886.0,4261.0,52026.0,0.023806221783161163,0.22600452601909637,0.012062758207321167,0.24708566069602966,0.0,0.0,0.0,0.0,7359.0,48988.0,3305.0,52641.0,0.5085719227790833,0.031098081765605468,-0.038222190513725225,-0.0021343074679159024
144,5,-0.00015338981756940484,0.0009606866515241563,0.00025770682259462774,0.0015963190235197544,0.012044877745211124,0.006524668540805578,0.030824339017271996,-0.0026200709398835897,-0.029483819380402565,-0.2597934603691101,0.4153297245502472,-0.106288380920887,0.0,0.0,0.0,-0.00523402588441968,0.0006387822795659304,-0.0,0.0,0.0,0.0,0.0005556985852308571,0.0019935104064643383,-0.003000000026077032,8235.0,48476.0,2175.0,53182.0,0.024624831974506378,0.22331538796424866,0.005974151194095612,0.2550448179244995,0.0,0.0,0.0,0.0,11537.0,49418.0,0.0,52254.0,0.5085574984550476,0.028364383732399072,-0.03961955052420219,-0.0022669409471718594
149,5,-0.00010806256614159793,0.0009877542033791542,0.0004965676343999803,0.006824711803346872,-0.0001759958395268768,-0.03148311376571655,0.030824339017271996,-0.0026200709398835897,-0.029483819380402565,-0.2597934603691101,0.4153297245502472,-0.106288380920887,0.0,0.0,0.0,0.0010137989884242415,0.003300549229606986,-0.0,0.0,0.0,0.0,0.0005556985852308571,0.0019935104064643383,-0.003000000026077032,8235.0,48476.0,2175.0,53182.0,0.024624831974506378,0.22331538796424866,0.005974151194095612,0.2550448179244995,0.0,0.0,0.0,0.0,11537.0,49418.0,0.0,52254.0,0.5085535049438477,0.03822369277460361,-0.05059677859886117,-0.0056598532053207485
154,5,7.620173505529237e-07,0.00047476348117925227,0.0002655450953170657,0.01728285476565361,0.07176590710878372,0.022898223251104355,0.030824339017271996,-0.0026200709398835897,-0.029483819380402565,-0.2597934603691101,0.4153297245502472,-0.106288380920887,0.0,0.0,0.0,-0.03598928451538086,0.008746464736759663,-0.0,0.0,0.0,0.0,0.0005556985852308571,0.0019935104064643383,-0.003000000026077032,8235.0,48476.0,2175.0,53182.0,0.024624831974506378,0.22331538796424866,0.005974151194095612,0.2550448179244995,0.0,0.0,0.0,0.0,11537.0,49418.0,0.0,52254.0,0.5088993906974792,0.013930936337293372,-0.03546444510583471,0.005633336827893582
159,5,5.507715104613453e-05,2.4441318601020612e-05,3.455057958490215e-05,0.012788975611329079,0.0845748707652092,0.03920869901776314,0.027809392660856247,-0.007643001154065132,-0.030578965321183205,-0.2161632478237152,0.40442565083503723,-0.11941426247358322,0.0,0.0,0.0,-0.04284235090017319,0.0064977072179317474,-0.0,0.0,0.0,0.0,-0.000907708948943764,0.0024611069820821285,-0.003000000026077032,11522.0,49385.0,0.0,52285.0,0.035974808037281036,0.22930610179901123,-0.005571141839027405,0.24885877966880798,0.0,0.0,0.0,0.0,10745.0,48877.0,0.0,52773.0,0.5090281963348389,-0.0155630223888905,-0.023835874297632374,0.012612284367093243
164,5,8.621039887657389e-05,0.00011071714106947184,2.0283130652387626e-05,0.008195347152650356,0.013293847441673279,0.013760052621364594,0.027809392660856247,-0.007643001154065132,-0.030578965321183205,-0.2161632478237152,0.40442565083503723,-0.11941426247358322,0.0,0.0,0.0,-0.00647206325083971,0.004181360360234976,-0.0,0.0,0.0,0.0,-0.000907708948943764,0.0024611069820821285,-0.003000000026077032,11522.0,49385.0,0.0,52285.0,0.035974808037281036,0.22930610179901123,-0.005571141839027405,0.24885877966880798,0.0,0.0,0.0,0.0,10745.0,48877.0,0.0,52773.0,0.5085654854774475,-0.00782346089130039,-0.024109321651909255,0.01658016371447004
169,5,5.968415644019842e-05,9.972605766961351e-05,-4.471100510272663e-06,-0.0012550695100799203,0.0055269054137170315,0.007593607995659113,0.02657994069159031,-0.010463682003319263,-0.031193960458040237,-0.0695515125989914,0.3159862458705902,0.007147598545998335,0.0,0.0,0.0,-0.002519617322832346,-0.0006538425222970545,-0.0,0.0,0.0,0.0,-0.0005365986726246774,0.0023565716110169888,-0.003000000026077032,10607.0,49243.0,0.0,52422.0,0.03272957354784012,0.22836273908615112,-0.0023241862654685974,0.24980387091636658,0.0,0.0,0.0,0.0,13122.0,50780.0,0.0,50940.0,0.5085521340370178,-0.007668558768385615,-0.026185891904407167,0.015830770115587468
174,5,2.097330980177503e-05,6.790338375139982e-05,2.9031749363639392e-05,-0.0057960394769907,0.00611324654892087,-0.002412316622212529,0.02657994069159031,-0.010463682003319263,-0.031193960458040237,-0.0695515125989914,0.3159862458705902,0.007147598545998335,0.0,0.0,0.0,-0.002840752014890313,-0.002996688010171056,-0.0,0.0,0.0,0.0,-0.0005365986726246774,0.0023565716110169888,-0.003000000026077032,10607.0,49243.0,0.0,52422.0,0.03272957354784012,0.22836273908615112,-0.0023241862654685974,0.24980387091636658,0.0,0.0,0.0,0.0,13122.0,50780.0,0.0,50940.0,0.5085547566413879,-0.01111362319185207,-0.02594249932982021,0.014489584525511969
179,5,1.7880742234410718e-05,-2.1005111193517223e-05,7.087616540957242e-05,-0.0021717713680118322,0.014281162992119789,-0.006581913214176893,0.026630928739905357,-0.01306063774973154,-0.030680211260914803,0.07688599079847336,0.12426567077636719,0.025880228728055954,0.0,0.0,0.0,-0.0070703900419175625,-0.0011514147045090795,-0.0,0.0,0.0,0.0,-0.002259504748508334,0.0017197836423292756,-0.003000000026077032,12318.0,51475.0,0.0,50240.0,0.03885386139154434,0.2433333396911621,-0.00828476995229721,0.2349969744682312,0.0,0.0,0.0,0.0,9813.0,51190.0,164.0,50504.0,0.5085634589195251,-0.008019821258586647,-0.027853999186638473,0.01547441106599619
184,5,2.509560545149725e-05,-5.5823024922574405e-06,0.0001615377695998177,0.00035854955785907805,0.00212515564635396,-0.014667198061943054,0.026630928739905357,-0.01306063774973154,-0.030680211260914803,0.07688599079847336,0.12426567077636719,0.025880228728055954,0.0,0.0,0.0,-0.0008634235127829015,0.0001441403292119503,-0.0,0.0,0.0,0.0,-0.002259504748508334,0.0017197836423292756,-0.003000000026077032,12318.0,51475.0,0.0,50240.0,0.03885386139154434,0.2433333396911621,-0.00828476995229721,0.2349969744682312,0.0,0.0,0.0,0.0,9813.0,51190.0,164.0,50504.0,0.5085505843162537,-0.006990526765800251,-0.027514354974381556,0.013944416197877039
189,5,7.232007919810712e-05,-4.578999778459547e-06,0.00020218263671267778,0.006718990858644247,0.0004970842855982482,-0.010090441443026066,0.027642760425806046,-0.013135571032762527,-0.030581118538975716,0.1657179445028305,-0.09088753163814545,0.04746226221323013,0.0,0.0,0.0,-3.29612594214268e-05,0.00342255225405097,-0.0,0.0,0.0,0.0,-0.0014820758951827884,0.0003169754345435649,-0.003000000026077032,8492.0,52016.0,1801.0,49663.0,0.02548231929540634,0.24701517820358276,0.004919812083244324,0.2311481535434723,0.0,0.0,0.0,0.0,7835.0,52251.0,4099.0,48740.0,0.5085533857345581,-0.003630824350665527,-0.028730561018654087,0.015086437853118027
194,5,3.8184080040082335e-05,-2.6541349143371917e-05,0.00020684012270066887,-0.002763342345133424,0.0032238541170954704,-0.0036791805177927017,0.027642760425806046,-0.013135571032762527,-0.030581118538975716,0.1657179445028305,-0.09088753163814545,0.04746226221323013,0.0,0.0,0.0,-0.001439655781723559,-0.0014350301353260875,-0.0,0.0,0.0,0.0,-0.0014820758951827884,0.0003169754345435649,-0.003000000026077032,8492.0,52016.0,1801.0,49663.0,0.02548231929540634,0.24701517820358276,0.004919812083244324,0.2311481535434723,0.0,0.0,0.0,0.0,7835.0,52251.0,4099.0,48740.0,0.5085514783859253,-0.006950761336556581,-0.026553925789492526,0.013481645544637065
199,5,0.00019196873472537845,6.659298378508538e-05,0.0003013903624378145,0.02070084773004055,-0.012071650475263596,-0.014340787194669247,0.02995813824236393,-0.011035028845071793,-0.029541103169322014,0.21028363704681396,-0.2266617864370346,0.09817229211330414,0.0,0.0,0.0,0.006426525302231312,0.010642390698194504,-0.0,0.0,0.0,0.0,-0.0015568104572594166,-0.0016084745293483138,-0.002799210837110877,8161.0,52297.0,6149.0,47562.0,0.02438013255596161,0.24894209206104279,0.017873823642730713,0.21735869348049164,0.0,0.0,0.0,0.0,7691.0,52571.0,6800.0,47191.0,0.5085896849632263,0.003968541447083751,-0.02848667631136048,0.014031058481312688
204,5,0.00030880147824063897,3.633291998994537e-05,0.0003489542577881366,0.022566838189959526,0.0006149139371700585,-0.010961179621517658,0.02995813824236393,-0.011035028845071793,-0.029541103169322014,0.21028363704681396,-0.2266617864370346,0.09817229211330414,0.0,0.0,0.0,-6.0937156376894563e-05,0.011686725541949272,-0.0,0.0,0.0,0.0,-0.0015568104572594166,-0.0016084745293483138,-0.002799210837110877,8161.0,52297.0,6149.0,47562.0,0.02438013255596161,0.24894209206104279,0.017873823642730713,0.21735869348049164,0.0,0.0,0.0,0.0,7691.0,52571.0,6800.0,47191.0,0.5085851550102234,0.007318467167883142,-0.027634059076470072,0.013352361152811323
210,5,7.871880370657891e-05,0.00012562924530357122,0.0004552352475002408,-0.025441521778702736,-0.012317011132836342,-0.01816769503057003,0.03158339112997055,-0.0086430124938488,-0.028922073543071747,0.19217272102832794,-0.3441266715526581,0.08872313052415848,0.0,0.0,0.0,0.006598697043955326,-0.01295086182653904,-0.0,0.0,0.0,0.0,-0.0015554632991552353,-0.002025246387347579,-0.0027167147491127253,7411.0,52629.0,7906.0,46712.0,0.021914713084697723,0.2512245178222656,0.023536406457424164,0.21187493205070496,0.0,0.0,0.0,0.0,7318.0,52702.0,8598.0,46321.0,0.508604109287262,0.016898674524669678,-0.04170841256459949,0.01587700214014997
215,5,0.0004350412345957011,4.370614988147281e-05,0.0004680402926169336,0.04225268214941025,0.007774130441248417,-0.007243013475090265,0.03158339112997055,-0.0086430124938488,-0.028922073543071747,0.19217272102832794,-0.3441266715526581,0.08872313052415848,0.0,0.0,0.0,-0.0036999371368438005,0.02182205393910408,-0.0,0.0,0.0,0.0,-0.0015554632991552353,-0.002025246387347579,-0.0027167147491127253,7411.0,52629.0,7906.0,46712.0,0.021914713084697723,0.2512245178222656,0.023536406457424164,0.21187493205070496,0.0,0.0,0.0,0.0,7318.0,52702.0,8598.0,46321.0,0.5086749792098999,0.013806877814728684,-0.028192817758573213,0.014235275435695608
220,5,0.0003976189182139933,0.00011984782031504437,0.0007064261008054018,0.007436680141836405,-0.008327594958245754,-0.035546913743019104,0.033701054751873016,-0.004232295323163271,-0.027898594737052917,0.14971984922885895,-0.36802440881729126,0.1148298978805542,0.0,0.0,0.0,0.004565075505524874,0.004060631617903709,-0.0,0.0,0.0,0.0,-0.0013485067756846547,-0.0013043221551924944,-0.0027077586855739355,8721.0,51591.0,8682.0,46746.0,0.026249408721923828,0.24412062764167786,0.026117026805877686,0.21209809184074402,0.0,0.0,0.0,0.0,8212.0,52202.0,10177.0,45550.0,0.5085598826408386,0.011326244554397237,-0.03367097823401407,0.011782487265142786
225,5,0.0005557181430049241,1.7344204024993815e-05,0.0005057382513768971,0.0243648923933506,0.01185222715139389,0.01743222028017044,0.033701054751873016,-0.004232295323163271,-0.027898594737052917,0.14971984922885895,-0.36802440881729126,0.1148298978805542,0.0,0.0,0.0,-0.005795630160719156,0.01281735859811306,-0.0,0.0,0.0,0.0,-0.0013485067756846547,-0.0013043221551924944,-0.0027077586855739355,8721.0,51591.0,8682.0,46746.0,0.026249408721923828,0.24412062764167786,0.026117026805877686,0.21209809184074402,0.0,0.0,0.0,0.0,8212.0,52202.0,10177.0,45550.0,0.5086007118225098,0.019700319050039817,-0.025786793959008535,0.015350139159489731
230,5,0.00037206386332400143,0.0001942433009389788,0.000455602043075487,-0.01840212754905224,-0.0212102048099041,0.012248734943568707,0.03448658064007759,-0.001551779336296022,-0.027459077537059784,0.010569232515990734,-0.29840460419654846,0.04377685859799385,0.0,0.0,0.0,0.01119004562497139,-0.009108304046094418,-0.0,0.0,0.0,0.0,-0.0013485067756846547,-0.0013043221551924944,-0.0027077586855739355,8721.0,51591.0,8682.0,46746.0,0.026249408721923828,0.24412062764167786,0.026117026805877686,0.21209809184074402,0.0,0.0,0.0,0.0,8842.0,51343.0,9528.0,46498.0,0.5086033344268799,0.007258694809367901,-0.02236004751034434,0.012780796931303311
235,5,0.0009667457197792828,0.0004999223747290671,0.00038261813460849226,0.0777348205447197,-0.04915812984108925,0.013892367482185364,0.03448658064007759,-0.001551779336296022,-0.027459077537059784,0.010569232515990734,-0.29840460419654846,0.04377685859799385,0.0,0.0,0.0,0.02564714103937149,0.04033203050494194,-0.0,0.0,0.0,0.0,-0.0013485067756846547,-0.0013043221551924944,-0.0027077586855739355,8721.0,51591.0,8682.0,46746.0,0.026249408721923828,0.24412062764167786,0.026117026805877686,0.21209809184074402,0.0,0.0,0.0,0.0,8842.0,51343.0,9528.0,46498.0,0.5091317296028137,0.026592124807590732,-0.008024239531795867,0.02053656378686653
240,5,0.0005501895793713629,-0.00013810349628329277,0.0005204390035942197,-0.03499741852283478,0.07457618415355682,-0.015127209946513176,0.03382015973329544,0.0015837864484637976,-0.02694689854979515,-0.10055286437273026,-0.21600383520126343,0.034688159823417664,0.0,0.0,0.0,-0.03784601762890816,-0.01740100421011448,-0.0,0.0,0.0,0.0,-0.0012382729910314083,-0.0007651964551769197,-0.002655745716765523,10198.0,50663.0,8408.0,47094.0,0.03129842132329941,0.23784103989601135,0.02520090341567993,0.2143346667289734,0.0,0.0,0.0,0.0,10309.0,50486.0,7826.0,47517.0,0.5089918971061707,0.014800078506436937,-0.026727972367449296,0.01477721869310668
245,5,0.0002238666347693652,0.00034415069967508316,0.0005726476083509624,-0.05618443340063095,-0.04514273256063461,-0.01184737216681242,0.03382015973329544,0.0015837864484637976,-0.02694689854979515,-0.10055286437273026,-0.21600383520126343,0.034688159823417664,0.0,0.0,0.0,0.023501349613070488,-0.028432490304112434,-0.0,0.0,0.0,0.0,-0.0012382729910314083,-0.0007651964551769197,-0.002655745716765523,10198.0,50663.0,8408.0,47094.0,0.03129842132329941,0.23784103989601135,0.02520090341567993,0.2143346667289734,0.0,0.0,0.0,0.0,10309.0,50486.0,7826.0,47517.0,0.50889652967453,0.012268528335724246,-0.03520013590708866,0.010102174095642999
250,5,0.0005619681905955076,0.00013820106687489897,0.00044285101466812193,0.030478890985250473,0.015290127135813236,0.01461731642484665,0.03277212008833885,0.0027732024900615215,-0.02684182859957218,-0.1647171974182129,-0.10992517322301865,0.01299978420138359,0.0,0.0,0.0,-0.007435747422277927,0.01599297858774662,-0.0,0.0,0.0,0.0,8.261320908786729e-05,0.0009285166743211448,-0.0026767090894281864,10583.0,48018.0,7552.0,50059.0,0.03264295309782028,0.22032082080841064,0.0223761647939682,0.233792245388031,0.0,0.0,0.0,0.0,10675.0,50160.0,7226.0,47947.0,0.5086295008659363,0.01726862195297147,-0.026192520357394236,0.015580325440696109
255,5,0.00047100678784772754,0.00013382805627770722,0.0004987497813999653,-0.003590930951759219,0.005199259612709284,-0.0034406306222081184,0.03277212008833885,0.0027732024900615215,-0.02684182859957218,-0.1647171974182129,-0.10992517322301865,0.01299978420138359,0.0,0.0,0.0,-0.002294205129146576,-0.001428663032129407,-0.0,0.0,0.0,0.0,8.261320908786729e-05,0.0009285166743211448,-0.0026767090894281864,10583.0,48018.0,7552.0,50059.0,0.03264295309782028,0.22032082080841064,0.0223761647939682,0.233792245388031,0.0,0.0,0.0,0.0,10675.0,50160.0,7226.0,47947.0,0.5085522532463074,0.014665451766467469,-0.02571083875118957,0.013001172692255371
260,5,0.000463202508399263,0.00011226041533518583,0.0005343964439816773,-0.0021698782220482826,0.004579247906804085,-0.006022726185619831,0.03277212008833885,0.0027732024900615215,-0.02684182859957218,-0.1647171974182129,-0.10992517322301865,0.01299978420138359,0.0,0.0,0.0,-0.0019919162150472403,-0.0007005092920735478,-0.0,0.0,0.0,0.0,8.261320908786729e-05,0.0009285166743211448,-0.0026767090894281864,10583.0,48018.0,7552.0,50059.0,0.03264295309782028,0.22032082080841064,0.0223761647939682,0.233792245388031,0.0,0.0,0.0,0.0,10675.0,50160.0,7226.0,47947.0,0.5085515379905701,0.01245031450963959,-0.026796995777874876,0.015529962566861791
266,5,0.0003162843640893698,8.385224646190181e-05,0.0005722488276660442,-0.021219506859779358,0.005350918043404818,-0.007106152828782797,0.027754487469792366,0.0031501934863626957,-0.026689738035202026,-0.33701905608177185,0.07592739164829254,-0.008729970082640648,0.0,0.0,0.0,-0.002404505852609873,-0.010512259788811207,-0.0,0.0,0.0,0.0,-0.0007195547223091125,0.000737515336368233,-0.0026646251790225506,11686.0,48962.0,6304.0,49067.0,0.036564089357852936,0.22650635242462158,0.01836080104112625,0.2271982729434967,0.0,0.0,0.0,0.0,11425.0,48921.0,6059.0,49365.0,0.5085799694061279,0.011084883770413658,-0.031084228779102965,0.014564297562918847
271,5,-0.00022542045917361975,-0.00017970318731386214,0.00031830446096137166,-0.08220452815294266,0.03850303590297699,0.033420365303754807,0.027754487469792366,0.0031501934863626957,-0.026689738035202026,-0.33701905608177185,0.07592739164829254,-0.008729970082640648,0.0,0.0,0.0,-0.019482126459479332,-0.04197920486330986,-0.0,0.0,0.0,0.0,-0.0007195547223091125,0.000737515336368233,-0.0026646251790225506,11686.0,48962.0,6304.0,49067.0,0.036564089357852936,0.22650635242462158,0.01836080104112625,0.2271982729434967,0.0,0.0,0.0,0.0,11425.0,48921.0,6059.0,49365.0,0.5090954303741455,-0.03753861010312832,-0.020940269904498245,0.01637494879139507
276,5,-0.0002095687377732247,0.0013491043355315924,0.0009840901475399733,-0.02244211733341217,-0.20248214900493622,-0.0831838920712471,0.023464148864150047,0.002230312442407012,-0.02699144557118416,-0.3512125015258789,0.05046794191002846,-0.04268479347229004,0.0,0.0,0.0,0.0904102623462677,-0.007690855767577887,-0.0,0.0,0.0,0.0,-0.000565229041967541,0.0007765091140754521,-0.002722987672314048,9257.0,49542.0,7282.0,49286.0,0.028062179684638977,0.23034410178661346,0.021495409309864044,0.22864983975887299,0.0,0.0,0.0,0.0,8800.0,49775.0,7423.0,49217.0,0.76597660779953,0.019155055845229675,-0.04553108883028665,-0.005402686696709206
281,5,-0.00010877427848754451,0.0011522958520799875,0.0007614943897351623,0.007378589827567339,-0.03319144994020462,0.0062082489021122456,0.023464148864150047,0.002230312442407012,-0.02699144557118416,-0.3512125015258789,0.05046794191002846,-0.04268479347229004,0.0,0.0,0.0,0.01808200031518936,0.003735373495146632,-0.0,0.0,0.0,0.0,-0.000565229041967541,0.0007765091140754521,-0.002722987672314048,9257.0,49542.0,7282.0,49286.0,0.028062179684638977,0.23034410178661346,0.021495409309864044,0.22864983975887299,0.0,0.0,0.0,0.0,8800.0,49775.0,7423.0,49217.0,0.5086370706558228,0.0038202605411723906,-0.03506228952795047,0.0036651251746138936
286,5,2.7741263693314977e-05,0.0010130174923688173,0.0007060056086629629,0.02132575400173664,0.009541538543999195,0.009630897082388401,0.02098965272307396,0.0021708859130740166,-0.02722836472094059,-0.3073018491268158,-0.008802599273622036,-0.026007572188973427,0.0,0.0,0.0,-0.0037785228341817856,0.010945835150778294,-0.0,0.0,0.0,0.0,-0.00032802551868371665,-0.00014327811368275434,-0.002746321028098464,7154.0,51637.0,9329.0,47241.0,0.021082840859889984,0.24443009495735168,0.028304770588874817,0.2152777910232544,0.0,0.0,0.0,0.0,6491.0,51926.0,9402.0,47226.0,0.5085844993591309,-0.009046797158054311,-0.02479076197115532,0.007909832581382543
291,5,8.128045010380447e-05,0.0008023646660149097,0.00056970224250108,0.01389321219176054,0.032353851944208145,0.021971743553876877,0.02098965272307396,0.0021708859130740166,-0.02722836472094059,-0.3073018491268158,-0.008802599273622036,-0.026007572188973427,0.0,0.0,0.0,-0.015544450841844082,0.007199462503194809,-0.0,0.0,0.0,0.0,-0.00032802551868371665,-0.00014327811368275434,-0.002746321028098464,7154.0,51637.0,9329.0,47241.0,0.021082840859889984,0.24443009495735168,0.028304770588874817,0.2152777910232544,0.0,0.0,0.0,0.0,6491.0,51926.0,9402.0,47226.0,0.5086250305175781,-0.022238312286647324,-0.01545181894802321,0.013109243003165438
296,5,-3.3188644010806456e-05,0.0008964753360487521,0.0007332487148232758,-0.011857709847390652,-0.0034693367779254913,-0.0163049828261137,0.017372846603393555,0.002974583301693201,-0.027675744146108627,-0.30870503187179565,-0.10394329577684402,-0.03760208934545517,0.0,0.0,0.0,0.0028010192327201366,-0.006011120043694973,-0.0,0.0,0.0,0.0,-0.0008148811175487936,-0.0020401068031787872,-0.0027947931084781885,5542.0,49870.0,9406.0,49726.0,0.015972748398780823,0.23253095149993896,0.02856764942407608,0.23156586289405823,0.0,0.0,0.0,0.0,5348.0,49944.0,9703.0,49589.0,0.5085616111755371,-0.021434416569003807,-0.02115418338378033,0.009697220498717449
301,5,1.0675441444618627e-05,0.001067651784978807,0.0006899553700350225,0.0025836590211838484,-0.02500550076365471,0.0011695739813148975,0.017372846603393555,0.002974583301693201,-0.027675744146108627,-0.30870503187179565,-0.10394329577684402,-0.03760208934545517,0.0,0.0,0.0,0.013926426880061626,0.001382233458571136,-0.0,0.0,0.0,0.0,-0.0008148811175487936,-0.0020401068031787872,-0.0027947931084781885,5542.0,49870.0,9406.0,49726.0,0.015972748398780823,0.23253095149993896,0.02856764942407608,0.23156586289405823,0.0,0.0,0.0,0.0,5348.0,49944.0,9703.0,49589.0,0.5086002349853516,-0.014896066758671769,-0.01828768513574785,0.0070467014033861785
306,5,7.69701146055013e-05,0.0008030857425183058,0.0006303081754595041,0.010056352242827415,0.029537590220570564,0.00870148092508316,0.015135246329009533,0.003964729141443968,-0.02785174362361431,-0.2630954682826996,-0.10629580914974213,-0.03437909856438637,0.0,0.0,0.0,-0.014051690697669983,0.00524187134578824,-0.0,0.0,0.0,0.0,0.0004794790002051741,-0.0005942215211689472,-0.002807985758408904,5398.0,49916.0,9467.0,49715.0,0.015526704490184784,0.23283270001411438,0.028778575360774994,0.23149919509887695,0.0,0.0,0.0,0.0,6956.0,51140.0,6870.0,49030.0,0.5086076259613037,-0.03637230162066337,-0.007531232091055005,0.013836511630312073
311,5,0.00017195296823047101,0.0009747649310156703,0.0004866476228926331,0.01631450466811657,-0.015173804946243763,0.022722920402884483,0.015135246329009533,0.003964729141443968,-0.02785174362361431,-0.2630954682826996,-0.10629580914974213,-0.03437909856438637,0.0,0.0,0.0,0.008883558213710785,0.008505732752382755,-0.0,0.0,0.0,0.0,0.0004794790002051741,-0.0005942215211689472,-0.002807985758408904,5398.0,49916.0,9467.0,49715.0,0.015526704490184784,0.23283270001411438,0.028778575360774994,0.23149919509887695,0.0,0.0,0.0,0.0,6956.0,51140.0,6870.0,49030.0,0.5085888504981995,-0.02817677089329949,-0.0019920007762038957,0.008891048840747288
316,5,-0.0001656173844821751,0.0006941796746104956,0.0002851370954886079,-0.04236549884080887,0.034729789942502975,0.03502834960818291,0.012086556293070316,0.005662526935338974,-0.028420645743608475,-0.2314022034406662,-0.15490280091762543,-0.03712959960103035,0.0,0.0,0.0,-0.016739869490265846,-0.021653911098837852,-0.0,0.0,0.0,0.0,-0.0005741075146943331,-0.0007630997570231557,-0.00287471991032362,6149.0,51438.0,7139.0,48982.0,0.017871610820293427,0.24307724833488464,0.02103324979543686,0.22664287686347961,0.0,0.0,0.0,0.0,3649.0,50751.0,9431.0,49681.0,0.5087409019470215,-0.04776736454161089,-0.008234091477753608,0.011478845020078657
321,5,-4.540912777883932e-05,0.0004613860510289669,0.00017560728883836418,0.004119507502764463,0.04301004856824875,0.025842679664492607,0.012086556293070316,0.005662526935338974,-0.028420645743608475,-0.2314022034406662,-0.15490280091762543,-0.03712959960103035,0.0,0.0,0.0,-0.02112642675638199,0.0021240180358290672,-0.0,0.0,0.0,0.0,-0.0005741075146943331,-0.0007630997570231557,-0.00287471991032362,6149.0,51438.0,7139.0,48982.0,0.017871610820293427,0.24307724833488464,0.02103324979543686,0.22664287686347961,0.0,0.0,0.0,0.0,3649.0,50751.0,9431.0,49681.0,0.5086650848388672,-0.036155867579451,-0.004998003776165752,0.014726391326201007
327,5,-0.0001418027386534959,0.0003456406411714852,9.592935384716839e-05,-0.012259254232048988,0.029107369482517242,0.018907712772488594,0.010055741295218468,0.0068997712805867195,-0.028600355610251427,-0.26758843660354614,-0.17710477113723755,0.0044866809621453285,0.0,0.0,0.0,-0.014121451415121555,-0.006298679858446121,-0.0,0.0,0.0,0.0,0.0005484226858243346,-0.0010567298159003258,-0.0028688176535069942,3613.0,50607.0,9980.0,49560.0,0.010132573544979095,0.2374609410762787,0.030540823936462402,0.23046594858169556,0.0,0.0,0.0,0.0,4559.0,50332.0,9728.0,49541.0,0.5086112022399902,-0.04127993606955791,-0.003752276553936844,0.01431744081364038
332,5,1.1610000001383014e-05,0.0004456333408597857,0.00013215563376434147,0.01780000701546669,-0.005266765598207712,0.0006006357143633068,0.010055741295218468,0.0068997712805867195,-0.028600355610251427,-0.26758843660354614,-0.17710477113723755,0.0044866809621453285,0.0,0.0,0.0,0.0034807459451258183,0.009136312641203403,-0.0,0.0,0.0,0.0,0.0005484226858243346,-0.0010567298159003258,-0.0028688176535069942,3613.0,50607.0,9980.0,49560.0,0.010132573544979095,0.2374609410762787,0.030540823936462402,0.23046594858169556,0.0,0.0,0.0,0.0,4559.0,50332.0,9728.0,49541.0,0.5085747241973877,-0.025472683218573378,-0.007567344625797786,0.014413172996478815
337,5,0.00042470727930776775,0.0009006587788462639,7.854380965000018e-05,0.06317362189292908,-0.06528358906507492,0.00768584618344903,0.006811708677560091,0.008881147019565105,-0.02827289141714573,-0.26051467657089233,-0.1544448733329773,0.04828675091266632,0.0,0.0,0.0,0.0343959704041481,0.03256773203611374,-0.0,0.0,0.0,0.0,0.0004539497022051364,-0.0008586733601987362,-0.0028044390492141247,5065.0,50129.0,9970.0,49388.0,0.014500178396701813,0.23425829410552979,0.03050776571035385,0.2293226420879364,0.0,0.0,0.0,0.0,5044.0,50050.0,10855.0,49009.0,0.5091213583946228,-0.03545362994984406,0.017476324569556435,0.017319534231758082
342,5,0.0003692053724080324,0.0005743133369833231,-0.00013261617277748883,0.011181822046637535,0.02610328234732151,0.03186815232038498,0.006811708677560091,0.008881147019565105,-0.02827289141714573,-0.26051467657089233,-0.1544448733329773,0.04828675091266632,0.0,0.0,0.0,-0.01238118577748537,0.006045965943485498,-0.0,0.0,0.0,0.0,0.0004539497022051364,-0.0008586733601987362,-0.0028044390492141247,5065.0,50129.0,9970.0,49388.0,0.014500178396701813,0.23425829410552979,0.03050776571035385,0.2293226420879364,0.0,0.0,0.0,0.0,5044.0,50050.0,10855.0,49009.0,0.5085986852645874,-0.01377847710180988,0.005865525697302444,0.020555914096278664
347,5,0.0004769735096488148,0.0007642597774975002,7.388079393422231e-05,0.01844208501279354,-0.018761519342660904,-0.019349131733179092,0.004518952686339617,0.010296373628079891,-0.02764357067644596,-0.25974220037460327,-0.16510337591171265,0.10423702746629715,0.0,0.0,0.0,0.01064103189855814,0.009836191311478615,-0.0,0.0,0.0,0.0,0.0003415560640860349,-0.0012398702092468739,-0.0025450438261032104,7632.0,50467.0,10711.0,47416.0,0.02263602614402771,0.2365207076072693,0.0330950990319252,0.21641311049461365,0.0,0.0,0.0,0.0,8333.0,50230.0,11330.0,46964.0,0.5086038112640381,-0.03247266101071685,0.014908122959507846,0.017765898364191974
352,5,0.0006713674520142376,0.0007555353222414851,9.97586757875979e-05,0.0327477790415287,-0.004407027270644903,-0.00942764338105917,0.004518952686339617,0.010296373628079891,-0.02764357067644596,-0.25974220037460327,-0.16510337591171265,0.10423702746629715,0.0,0.0,0.0,0.0033340866211801767,0.017284678295254707,-0.0,0.0,0.0,0.0,0.0003415560640860349,-0.0012398702092468739,-0.0025450438261032104,7632.0,50467.0,10711.0,47416.0,0.02263602614402771,0.2365207076072693,0.0330950990319252,0.21641311049461365,0.0,0.0,0.0,0.0,8333.0,50230.0,11330.0,46964.0,0.5086292028427124,-0.020233645300178738,0.012455029081061858,0.019571843567263263
357,5,-7.909240230219439e-05,0.0013951420551165938,0.0004814745334442705,-0.042619045823812485,-0.131093829870224,-0.12437109649181366,0.004518952686339617,0.010296373628079891,-0.02764357067644596,-0.25974220037460327,-0.16510337591171265,0.10423702746629715,0.0,0.0,0.0,0.05924145504832268,-0.014457223936915398,-0.0,0.0,0.0,0.0,0.0003415560640860349,-0.0012398702092468739,-0.0025450438261032104,7632.0,50467.0,10711.0,47416.0,0.02263602614402771,0.2365207076072693,0.0330950990319252,0.21641311049461365,0.0,0.0,0.0,0.0,8333.0,50230.0,11330.0,46964.0,0.7642460465431213,-0.040036989331759476,-0.0039161611987233065,0.009812755122453214
362,5,0.0003365695592947304,0.0004728931817226112,-0.0003722481778822839,0.04540696367621422,0.08978669345378876,0.08220985531806946,0.0020053850021213293,0.012550256215035915,-0.02623147703707218,-0.2109329253435135,-0.1988045871257782,0.12255976349115372,0.0,0.0,0.0,-0.0388505645096302,0.015661681070923805,-0.0,0.0,0.0,0.0,-3.45836924680043e-05,-0.0012837181566283107,-0.002433554735034704,7613.0,49081.0,13133.0,47484.0,0.022575639188289642,0.22729358077049255,0.04185589402914047,0.21684959530830383,0.0,0.0,0.0,0.0,7680.0,48895.0,13890.0,47201.0,0.7634952664375305,-0.03574982596935062,0.017653769761026908,0.02473607613560915
367,5,0.000270765827735886,0.000502896262332797,-0.0002872186014428735,0.004409564193338156,0.022735577076673508,0.012758812867105007,0.0020053850021213293,0.012550256215035915,-0.02623147703707218,-0.2109329253435135,-0.1988045871257782,0.12255976349115372,0.0,0.0,0.0,-0.0106383441016078,0.0025553302839398384,-0.0,0.0,0.0,0.0,-3.45836924680043e-05,-0.0012837181566283107,-0.002433554735034704,7613.0,49081.0,13133.0,47484.0,0.022575639188289642,0.22729358077049255,0.04185589402914047,0.21684959530830383,0.0,0.0,0.0,0.0,7680.0,48895.0,13890.0,47201.0,0.5085808634757996,-0.03874839392975019,0.014612429872884521,0.023273849053451902
372,5,0.0003539186145644635,0.0004672385985031724,-0.000372187263565138,0.012964260764420033,0.011812745593488216,0.01572325825691223,0.00011919527605641633,0.014028615318238735,-0.025387704372406006,-0.20555181801319122,-0.16723626852035522,0.10146799683570862,0.0,0.0,0.0,-0.0050882925279438496,0.006984683685004711,-0.0,0.0,0.0,0.0,0.0024095666594803333,-0.001961901318281889,-0.0024322879035025835,20954.0,56604.0,32050.0,57420.0,0.07336210459470749,0.2792373597621918,0.12649914622306824,0.28514742851257324,0.0,0.0,0.0,0.0,9707.0,48699.0,14045.0,46253.0,0.5085693597793579,-0.044167628278040987,0.026805135727932472,0.02405124815421708
377,5,0.0002451972395647317,0.0005379118956625462,-0.0002834032056853175,-0.011331716552376747,-0.006350434850901365,-0.007712791208177805,0.00011919527605641633,0.014028615318238735,-0.025387704372406006,-0.20555181801319122,-0.16723626852035522,0.10146799683570862,0.0,0.0,0.0,0.004232446663081646,-0.0054744393564760685,-0.0,0.0,0.0,0.0,0.0024095666594803333,-0.001961901318281889,-0.0024322879035025835,20954.0,56604.0,32050.0,57420.0,0.07336210459470749,0.2792373597621918,0.12649914622306824,0.28514742851257324,0.0,0.0,0.0,0.0,9707.0,48699.0,14045.0,46253.0,0.5085625648498535,-0.040148047423316104,0.01706417973601986,0.021349839715215105
383,5,0.00020946776203345507,0.000475817039841786,-0.0005895711365155876,-0.008401640690863132,0.006788146682083607,0.04054967686533928,-0.002545824507251382,0.01600644551217556,-0.024635404348373413,-0.23610363900661469,-0.1621578186750412,0.026735251769423485,0.0,0.0,0.0,-0.0025002385955303907,-0.0040032765828073025,-0.0,0.0,0.0,0.0,0.00016726578178349882,-0.0014494438655674458,-0.002445860067382455,8678.0,48928.0,13940.0,46624.0,0.0261056050658226,0.22628480195999146,0.04487985372543335,0.21131053566932678,0.0,0.0,0.0,0.0,20662.0,56663.0,32132.0,57477.0,0.508556067943573,-0.058376460563411794,0.033219735928463695,0.023142597103663898
388,5,0.0002789844002109021,0.0004547037824522704,-0.000356759293936193,0.007211837451905012,0.004992300178855658,-0.02042875625193119,-0.002545824507251382,0.01600644551217556,-0.024635404348373413,-0.23610363900661469,-0.1621578186750412,0.026735251769423485,0.0,0.0,0.0,-0.0015912291128188372,0.004012156743556261,-0.0,0.0,0.0,0.0,0.00016726578178349882,-0.0014494438655674458,-0.002445860067382455,8678.0,48928.0,13940.0,46624.0,0.0261056050658226,0.22628480195999146,0.04487985372543335,0.21131053566932678,0.0,0.0,0.0,0.0,20662.0,56663.0,32132.0,57477.0,0.5085551142692566,-0.03572566167098981,0.014124686957203892,0.023943873734291382
393,5,0.00011069238826166838,0.00047061630175448954,-0.0004450627020560205,-0.02139732986688614,-0.0007300638244487345,0.006233848165720701,-0.006353326141834259,0.019092140719294548,-0.02529887482523918,-0.1520710587501526,-0.177610844373703,-0.03335317596793175,0.0,0.0,0.0,0.0013467228272929788,-0.010692139156162739,-0.0,0.0,0.0,0.0,0.0006111087859608233,-0.0017612566007301211,-0.002603288972750306,5610.0,49577.0,14110.0,47395.0,0.016184397041797638,0.23057931661605835,0.045521482825279236,0.2162773460149765,0.0,0.0,0.0,0.0,7617.0,49489.0,12731.0,47295.0,0.5085799098014832,-0.04438408217161764,0.01658908714980319,0.024710952157226355
398,5,-3.090356767643243e-05,0.0003830891218967736,-0.0004772321553900838,-0.026242632418870926,0.01203478779643774,0.006373876240104437,-0.006353326141834259,0.019092140719294548,-0.02529887482523918,-0.1520710587501526,-0.177610844373703,-0.03335317596793175,0.0,0.0,0.0,-0.005216195248067379,-0.013267453759908676,-0.0,0.0,0.0,0.0,0.0006111087859608233,-0.0017612566007301211,-0.002603288972750306,5610.0,49577.0,14110.0,47395.0,0.016184397041797638,0.23057931661605835,0.045521482825279236,0.2162773460149765,0.0,0.0,0.0,0.0,7617.0,49489.0,12731.0,47295.0,0.5086020827293396,-0.046453323884531765,0.011412898978078397,0.024171656594338117
403,5,0.00018053757958114147,0.00028194228070788085,-0.0008592044468969107,0.021728970110416412,0.01777099259197712,0.05538828298449516,-0.006932967342436314,0.019933469593524933,-0.024971380829811096,-0.0582662858068943,-0.11991456896066666,0.03418057784438133,0.0,0.0,0.0,-0.008209146559238434,0.011342763900756836,-0.0,0.0,0.0,0.0,0.00027084507746621966,-0.0011721014743670821,-0.0024522552266716957,8829.0,48613.0,13780.0,46958.0,0.026613496243953705,0.22420942783355713,0.04427558183670044,0.21345660090446472,0.0,0.0,0.0,0.0,6936.0,49035.0,14525.0,47056.0,0.5086002349853516,-0.04206355844917748,0.029319329542195453,0.02669342779631542
408,5,-0.0006443595630116761,8.478471863782033e-05,-0.0005238219164311886,-0.10896690934896469,0.03293335810303688,-0.03033706545829773,-0.006932967342436314,0.019933469593524933,-0.024971380829811096,-0.0582662858068943,-0.11991456896066666,0.03418057784438133,0.0,0.0,0.0,-0.013928309082984924,-0.037247978150844574,-0.0,0.0,0.0,0.0,0.00027084507746621966,-0.0011721014743670821,-0.0024522552266716957,8829.0,48613.0,13780.0,46958.0,0.026613496243953705,0.22420942783355713,0.04427558183670044,0.21345660090446472,0.0,0.0,0.0,0.0,6936.0,49035.0,14525.0,47056.0,0.7634291052818298,-0.08606517126798047,0.02375274105897962,0.019552578390975288
413,5,-0.0002924557193182409,2.671204310900066e-05,-0.00042446827865205705,0.016576465219259262,0.018010182306170464,-0.023010632023215294,-0.007455189246684313,0.02121182158589363,-0.024650607258081436,-0.028672607615590096,-0.07550808042287827,0.0277705118060112,0.0,0.0,0.0,-0.008519027382135391,0.00834579486399889,-0.0,0.0,0.0,0.0,0.0001464914676034823,-0.001838371972553432,-0.0024484144523739815,8229.0,49189.0,14500.0,46259.0,0.0246049165725708,0.22800886631011963,0.04700779914855957,0.2089805006980896,0.0,0.0,0.0,0.0,8442.0,48807.0,13995.0,46834.0,0.508586585521698,-0.053790348165917164,0.01367527338296201,0.022292182338274603
418,5,-0.0005327229737304151,-8.887850708561018e-05,-0.00048100645653903484,-0.028664473444223404,0.021585730835795403,0.0010121577652171254,-0.007455189246684313,0.02121182158589363,-0.024650607258081436,-0.028672607615590096,-0.07550808042287827,0.0277705118060112,0.0,0.0,0.0,-0.010428310371935368,-0.014901447109878063,-0.0,0.0,0.0,0.0,0.0001464914676034823,-0.001838371972553432,-0.0024484144523739815,8229.0,49189.0,14500.0,46259.0,0.0246049165725708,0.22800886631011963,0.04700779914855957,0.2089805006980896,0.0,0.0,0.0,0.0,8442.0,48807.0,13995.0,46834.0,0.5086345076560974,-0.07004851767043717,0.017448365689882353,0.02026776384149437
423,5,-0.0008561603608541191,7.64063952374272e-05,-0.0005130770732648671,-0.05388058349490166,-0.016664166003465652,0.004793529864400625,-0.00778045691549778,0.022091705352067947,-0.024590546265244484,-0.030537767335772514,-0.0966915562748909,-0.02333337813615799,0.0,0.0,0.0,0.009186331182718277,-0.02800573967397213,-0.0,0.0,0.0,0.0,-7.716675463598222e-05,-0.002626962261274457,-0.0024663012009114027,23131.0,59427.0,29611.0,54825.0,0.08300764113664627,0.2999054491519928,0.11396948248147964,0.26654666662216187,0.0,0.0,0.0,0.0,8202.0,49151.0,14692.0,46198.0,0.5087713599205017,-0.07025102502781697,0.009094158901425125,0.019431173907197515
428,5,-0.0008875948842614889,-0.00026850413996726274,-0.0008270560065284371,-0.020565008744597435,0.043288227170705795,0.04539511352777481,-0.00778045691549778,0.022091705352067947,-0.024590546265244484,-0.030537767335772514,-0.0966915562748909,-0.02333337813615799,0.0,0.0,0.0,-0.021624313667416573,-0.011073710396885872,-0.0,0.0,0.0,0.0,-7.716675463598222e-05,-0.002626962261274457,-0.0024663012009114027,23131.0,59427.0,29611.0,54825.0,0.08300764113664627,0.2999054491519928,0.11396948248147964,0.26654666662216187,0.0,0.0,0.0,0.0,8202.0,49151.0,14692.0,46198.0,0.5087004899978638,-0.09176033822885349,0.022875156627756684,0.02031711624024946
433,5,-0.0005579819553531706,-8.836024790070951e-06,-0.0005588469794020057,0.03997630998492241,-0.02336706966161728,-0.023930734023451805,-0.007974578998982906,0.023130666464567184,-0.024975957348942757,-0.011177479289472103,-0.08701907098293304,-0.021147895604372025,0.0,0.0,0.0,0.012534228153526783,0.020014192909002304,-0.0,0.0,0.0,0.0,-0.0001458822953281924,-0.002365341642871499,-0.0025349000934511423,7534.0,49840.0,13518.0,46528.0,0.0223170667886734,0.23232531547546387,0.04329188913106918,0.21070027351379395,0.0,0.0,0.0,0.0,8193.0,49542.0,12800.0,46916.0,0.50869220495224,-0.06998252205696495,0.01636682274057434,0.018831125864367467
438,5,-0.0007191023323684931,-0.00026397834881208837,-0.0005915776127949357,-0.010563956573605537,0.02870980277657509,-0.0025969285052269697,-0.007974578998982906,0.023130666464567184,-0.024975957348942757,-0.011177479289472103,-0.08701907098293304,-0.021147895604372025,0.0,0.0,0.0,-0.014199565164744854,-0.00587701378390193,-0.0,0.0,0.0,0.0,-0.0001458822953281924,-0.002365341642871499,-0.0025349000934511423,7534.0,49840.0,13518.0,46528.0,0.0223170667886734,0.23232531547546387,0.04329188913106918,0.21070027351379395,0.0,0.0,0.0,0.0,8193.0,49542.0,12800.0,46916.0,0.5086104869842529,-0.08346920281817487,0.017323221862498094,0.017892792928796496
444,5,-0.0006389993941411376,-0.0002590033400338143,-0.0006667621782980859,0.008045226335525513,0.007916443049907684,0.009746764786541462,-0.00796512421220541,0.023148242384195328,-0.025467943400144577,-0.009011207148432732,0.052056554704904556,-0.08554095029830933,0.0,0.0,0.0,-0.003604212775826454,0.003654448315501213,-0.0,0.0,0.0,0.0,-6.776588998036459e-05,-0.0010625430149957538,-0.002633577212691307,7750.0,49784.0,11043.0,47875.0,0.023022979497909546,0.23195692896842957,0.03426656126976013,0.21938809752464294,0.0,0.0,0.0,0.0,9198.0,49662.0,9950.0,47855.0,0.5085570812225342,-0.08722955403647367,0.01651886878078415,0.014699106967366413
449,5,-0.0012637405889108777,-0.00016208316083066165,-0.0006483272882178426,-0.08505021035671234,-0.011193893849849701,0.00034313733340241015,-0.00796512421220541,0.023148242384195328,-0.025467943400144577,-0.009011207148432732,0.052056554704904556,-0.08554095029830933,0.0,0.0,0.0,0.006198741961270571,-0.04425716772675514,-0.0,0.0,0.0,0.0,-6.776588998036459e-05,-0.0010625430149957538,-0.002633577212691307,7750.0,49784.0,11043.0,47875.0,0.023022979497909546,0.23195692896842957,0.03426656126976013,0.21938809752464294,0.0,0.0,0.0,0.0,9198.0,49662.0,9950.0,47855.0,0.5090586543083191,-0.07380426830049401,-0.006924817912738717,0.02125238856897889
454,5,-0.000807634147349745,-0.00023239401343744248,-0.0005831501912325621,0.03833984211087227,0.006485350895673037,-0.009021847508847713,-0.008220896124839783,0.021941693499684334,-0.025825370103120804,-0.010993879288434982,0.10609107464551926,-0.00786603707820177,0.0,0.0,0.0,-0.002862580819055438,0.018924860283732414,-0.0,0.0,0.0,0.0,-0.0003515580028761178,-0.0005433147889561951,-0.0025841856840997934,9736.0,49363.0,10333.0,47672.0,0.02970156818628311,0.2291620373725891,0.0317688062787056,0.2180681973695755,0.0,0.0,0.0,0.0,10053.0,48745.0,9755.0,48423.0,0.5086435675621033,-0.09097780257835011,0.017820877123065224,0.01734606832641643
459,5,-0.0006584933144040406,-0.00021270512661430985,-0.00048392702592536807,0.03238166868686676,-0.0008108397014439106,-0.016597796231508255,-0.008220896124839783,0.021941693499684334,-0.025825370103120804,-0.010993879288434982,0.10609107464551926,-0.00786603707820177,0.0,0.0,0.0,0.0008657985017634928,0.015986431390047073,-0.0,0.0,0.0,0.0,-0.0003515580028761178,-0.0005433147889561951,-0.0025841856840997934,9736.0,49363.0,10333.0,47672.0,0.02970156818628311,0.2291620373725891,0.0317688062787056,0.2180681973695755,0.0,0.0,0.0,0.0,10053.0,48745.0,9755.0,48423.0,0.5086155533790588,-0.07670314084082717,0.011426481221065264,0.018432949574571648
464,5,-0.0007390285609290004,-0.0002047374873654917,-0.0004983215476386249,-0.0015604270156472921,-0.0013587212888523936,-0.002964105922728777,-0.008406838402152061,0.020662622526288033,-0.025841202586889267,-0.013984756544232368,0.16613955795764923,0.007997596636414528,0.0,0.0,0.0,0.0011469200253486633,-0.001387055148370564,-0.0,0.0,0.0,0.0,-0.0001274027454201132,1.2051060366502497e-05,-0.002578986808657646,10397.0,48570.0,9794.0,48396.0,0.0319925919175148,0.22393137216567993,0.02989957481622696,0.22278696298599243,0.0,0.0,0.0,0.0,7781.0,48596.0,12819.0,48143.0,0.5085512399673462,-0.08051158051649486,0.0116311758979017,0.017201053004485455
469,5,0.001159355859272182,0.00016782208695076406,-0.0010756241390481591,-0.0015604270156472921,-0.0013587212888523936,-0.002964105922728777,-0.008406838402152061,0.020662622526288033,-0.025841202586889267,-0.013984756544232368,0.16613955795764923,0.007997596636414528,0.0,0.0,0.0,0.0014280148316174746,5.157047780812718e-05,-0.0,0.0,0.0,0.0,-0.0001274027454201132,1.2051060366502497e-05,-0.002578986808657646,10397.0,48570.0,9794.0,48396.0,0.0319925919175148,0.22393137216567993,0.02989957481622696,0.22278696298599243,0.0,0.0,0.0,0.0,7781.0,48596.0,12819.0,48143.0,0.5085509419441223,0.01830232029652886,0.0030164175795354088,0.027464258578098703
474,5,0.0008116363896988332,0.00015196879394352436,-0.0003552457201294601,-0.04914885386824608,0.0018118458101525903,-0.1017422005534172,-0.008867625147104263,0.01809650845825672,-0.025265149772167206,-0.012009081430733204,0.2141515612602234,0.07692112773656845,0.0,0.0,0.0,-0.00017049070447683334,-0.016296224668622017,-0.0,0.0,0.0,0.0,0.0005630513187497854,-0.0008621243759989738,-0.002478869166225195,8752.0,48191.0,13542.0,47642.0,0.02635335922241211,0.2214507758617401,0.04338013380765915,0.21787482500076294,0.0,0.0,0.0,0.0,12916.0,46229.0,9962.0,49232.0,0.7629269361495972,0.008435955754373994,-0.010643842375121096,0.02317578258311232
479,5,-0.0004012532881461084,-0.0004624901048373431,0.00035754640703089535,-0.1845492124557495,0.08656779676675797,-0.13031356036663055,-0.008867625147104263,0.01809650845825672,-0.025265149772167206,-0.012009081430733204,0.2141515612602234,0.07692112773656845,0.0,0.0,0.0,-0.037928760051727295,-0.06283044070005417,-0.0,0.0,0.0,0.0,0.0005630513187497854,-0.0008621243759989738,-0.002478869166225195,8752.0,48191.0,13542.0,47642.0,0.02635335922241211,0.2214507758617401,0.04338013380765915,0.21787482500076294,0.0,0.0,0.0,0.0,12916.0,46229.0,9962.0,49232.0,0.7648838758468628,0.003749036710798588,-0.053400577807388015,0.019787781287542994
484,5,0.0011873749317601323,0.0001934021565830335,-0.0005698918830603361,0.16704317927360535,-0.06585457921028137,0.09074729681015015,-0.008867625147104263,0.01809650845825672,-0.025265149772167206,-0.012009081430733204,0.2141515612602234,0.07692112773656845,0.0,0.0,0.0,0.029687928035855293,0.05729731172323227,-0.0,0.0,0.0,0.0,0.0005630513187497854,-0.0008621243759989738,-0.002478869166225195,8752.0,48191.0,13542.0,47642.0,0.02635335922241211,0.2214507758617401,0.04338013380765915,0.21787482500076294,0.0,0.0,0.0,0.0,12916.0,46229.0,9962.0,49232.0,0.7644163370132446,0.025382253244330022,-0.011527136143878397,0.025901001892070626
489,5,0.0013036977034062147,0.00027150509413331747,-0.000732577231246978,0.06639815121889114,-0.030690783634781837,0.050000134855508804,-0.008889032527804375,0.01648271083831787,-0.024831103160977364,0.01628950797021389,0.19835178554058075,0.030417978763580322,0.0,0.0,0.0,0.016447314992547035,0.03484153375029564,-0.0,0.0,0.0,0.0,0.000350432499544695,0.001097080297768116,-0.0024384926073253155,12764.0,46361.0,10206.0,49062.0,0.04048798978328705,0.20963069796562195,0.03132674843072891,0.22717003524303436,0.0,0.0,0.0,0.0,12323.0,46662.0,10560.0,48818.0,0.5089280605316162,0.024825872270803608,-0.008036954240743193,0.022725934950005126
495,5,0.00035763339838013053,-0.0003841017314698547,0.000400590623030439,-0.11252956092357635,0.08257772028446198,-0.14364345371723175,-0.008889032527804375,0.01648271083831787,-0.024831103160977364,0.01628950797021389,0.19835178554058075,0.030417978763580322,0.0,0.0,0.0,-0.03616425767540932,-0.03800784423947334,-0.0,0.0,0.0,0.0,0.000350432499544695,0.001097080297768116,-0.0024384926073253155,12764.0,46361.0,10206.0,49062.0,0.04048798978328705,0.20963069796562195,0.03132674843072891,0.22717003524303436,0.0,0.0,0.0,0.0,12323.0,46662.0,10560.0,48818.0,0.7638763785362244,-0.012922818492821706,-0.03251286465672616,0.026297898313557725
500,5,0.0007422767812386155,3.581518467399292e-05,-0.00034778303233906627,0.02009120211005211,-0.034015052020549774,0.06167927756905556,-0.00822471547871828,0.014103191904723644,-0.024681545794010162,0.08435457944869995,0.18734732270240784,-0.005018428433686495,0.0,0.0,0.0,0.017967332154512405,0.01085690502077341,-0.0,0.0,0.0,0.0,0.00021321883832570165,0.0006104552885517478,-0.002455980284139514,11999.0,47044.0,10597.0,48604.0,0.037694089114665985,0.21401065587997437,0.0326949805021286,0.22415119409561157,0.0,0.0,0.0,0.0,27848.0,54379.0,24810.0,60123.0,0.5086624622344971,0.006189298310690486,-0.012207999871738616,0.022326709060399318
