timestamp,dt,pos_x,pos_y,pos_z,vel_x,vel_y,vel_z,roll,pitch,yaw,agv_x,agv_y,agv_z,x_ref,y_ref,z_ref,roll_ref,pitch_ref,yaw_ref,x_vel_ref,y_vel_ref,z_vel_ref,x_torque,y_torque,z_torque,w0,w1,w2,w3,u0,u1,u2,u3,m0req,m1req,m2req,m3req,thrust0,thrust1,thrust2,thrust3,thrust_ref,roll_vicon,pitch_vicon,yaw_vicon,acc_x,acc_y,acc_z
5,5,0.0,0.0,0.0,-0.001921408693306148,-0.0013948483392596245,0.0034461435861885548,-0.04865670204162598,-0.01112168189138174,0.055376820266246796,-0.005276499316096306,0.056800972670316696,0.02263467200100422,0.0,0.0,0.0,0.0019643798004835844,-0.0018039621645584702,-0.0,0.0,0.0,0.0,0.0016121756052598357,0.0007286315667442977,0.0017016504425555468,0.0,0.0,0.0,0.0,0.0,0.0,0.0,0.0,0.0,0.0,0.0,0.0,0.0,0.0,0.0,0.0,0.3681011199951172,-0.0678288029124786,0.04024975127345502,-0.017850303611202017,0.007685634773224592,0.005579393357038498,-0.010338431224226952
28,23,0.0,0.0,0.0,-0.0002485918812453747,-0.0008510607294738293,-0.0006533481064252555,-0.04865670204162598,-0.01112168189138174,0.055376820266246796,-0.005276499316096306,0.056800972670316696,0.02263467200100422,0.0,0.0,0.0,0.001198560232296586,-0.00023339690233115107,-0.0,0.0,0.0,0.0,0.0016121756052598357,0.0007286315667442977,0.0017016504425555468,0.0,0.0,0.0,0.0,0.0,0.0,0.0,0.0,0.0,0.0,0.0,0.0,0.0,0.0,0.0,0.0,0.3681000769138336,-0.0674312496456069,0.041912807809477,-0.016867499500569164,0.0009943675249814987,0.003404242917895317,0.0019600442610681057
33,5,0.0,0.0,0.0,-0.0013804127229377627,0.0008652309188619256,0.002543190959841013,-0.04865670204162598,-0.01112168189138174,0.055376820266246796,-0.005276499316096306,0.056800972670316696,0.02263467200100422,0.0,0.0,0.0,-0.0012185153318569064,-0.0012960353633388877,-0.0,0.0,0.0,0.0,0.0016121756052598357,0.0007286315667442977,0.0017016504425555468,0.0,0.0,0.0,0.0,0.0,0.0,0.0,0.0,0.0,0.0,0.0,0.0,0.0,0.0,0.0,0.0,0.3681003749370575,-0.06806597681479369,0.04137907089289992,-0.017451603459519842,0.005521650891751051,-0.0034609236754477024,-0.007629572879523039
42,9,0.0,0.0,0.0,-0.0013804127229377627,0.0008652309188619256,0.002543190959841013,-0.04862942546606064,-0.011422841809689999,0.05543878674507141,0.0052849599160254,0.020386217162013054,-0.0006892115343362093,0.0,0.0,0.0,-0.0012182804057374597,-0.001295785536058247,-0.0,0.0,0.0,0.0,0.0016477016033604741,0.00046041980385780334,0.0016692646313458681,0.0,0.0,0.0,0.0,0.0,0.0,0.0,0.0,0.0,0.0,0.0,0.0,0.0,0.0,0.0,0.0,0.368171364068985,-0.06806597681479369,0.04137907089289992,-0.017451603459519842,0.005521650891751051,-0.0034609236754477024,-0.007629572879523039
47,5,0.0,0.0,0.0,-0.0018077535787597299,-0.00334042776376009,-0.0015968662919476628,-0.04862942546606064,-0.011422841809689999,0.05543878674507141,0.0052849599160254,0.020386217162013054,-0.0006892115343362093,0.0,0.0,0.0,0.004703441169112921,-0.0016969273565337062,-0.0,0.0,0.0,0.0,0.0016733151860535145,0.00021009432384744287,0.0016423009801656008,0.0,0.0,0.0,0.0,0.0,0.0,0.0,0.0,0.0,0.0,0.0,0.0,0.0,0.0,0.0,0.0,0.3681753873825073,-0.06793891836835625,0.04015469904284869,-0.017708431112506914,0.0072310143150389194,0.01336171105504036,0.00479059899225831
52,5,9.506729838903993e-06,-3.3336789329041494e-06,-3.915092383977026e-05,0.0007886161329224706,-0.0005354132736101747,0.005002069752663374,-0.04862942546606064,-0.011422841809689999,0.05543878674507141,0.0052849599160254,0.020386217162013054,-0.0006892115343362093,0.0,0.0,0.0,0.0007468385738320649,0.0007536645280197263,-0.0,0.0,0.0,0.0,0.0016733151860535145,0.00021009432384744287,0.0016423009801656008,0.0,0.0,0.0,0.0,0.0,0.0,0.0,0.0,0.0,0.0,0.0,0.0,0.0,0.0,0.0,0.0,0.36817097663879395,-0.06779415451142594,0.04000414645800991,-0.017765019273073383,-0.0032115429639816284,0.00212163757532835,-0.015595430508255959
57,5,-1.4328970792121254e-05,2.5908404495567083e-05,-2.4165125068975613e-05,-0.0031004133634269238,-0.004254515748471022,-0.0005973911611363292,-0.04855601117014885,-0.010921443812549114,0.05520534887909889,0.004017142578959465,-0.07185372710227966,-0.02114124223589897,0.0,0.0,0.0,0.006050082854926586,-0.002932423958554864,-0.0,0.0,0.0,0.0,0.0015410964842885733,-6.117152952356264e-05,0.001624175114557147,35099.0,7557.0,38621.0,12700.0,0.14282983541488647,0.022392548620700836,0.1626245081424713,0.040253497660160065,0.0,0.0,0.0,0.0,0.0,0.0,0.0,0.0,0.3679117262363434,-0.0677469637387782,0.039696261386076674,-0.017821138241151516,0.012486739084124565,0.01717495545744896,0.0012966581853106618
63,6,2.324044908164069e-05,7.384678610833362e-05,5.985602183500305e-05,0.004329594783484936,-0.007987728342413902,-0.011942178010940552,-0.04855601117014885,-0.010921443812549114,0.05520534887909889,0.004017142578959465,-0.07185372710227966,-0.02114124223589897,0.0,0.0,0.0,0.011412953957915306,0.004099671728909016,-0.0,0.0,0.0,0.0,0.0015410964842885733,-6.117152952356264e-05,0.001624175114557147,35099.0,7557.0,38621.0,12700.0,0.14282983541488647,0.022392548620700836,0.1626245081424713,0.040253497660160065,0.0,0.0,0.0,0.0,0.0,0.0,0.0,0.0,0.36793044209480286,-0.06682888750713982,0.04055244820141389,-0.019580688928653993,-0.017457125708460808,0.03239969164133072,0.03656104579567909
68,5,0.00015787161828484386,0.00023826799588277936,-6.340436812024564e-05,-0.0005497633828781545,-0.014699142426252365,0.008212334476411343,-0.04855601117014885,-0.010921443812549114,0.05520534887909889,0.004017142578959465,-0.07185372710227966,-0.02114124223589897,0.0,0.0,0.0,0.021222306415438652,-0.00029279806767590344,-0.0,0.0,0.0,0.0,0.0015410964842885733,-6.117152952356264e-05,0.001624175114557147,35099.0,7557.0,38621.0,12700.0,0.14282983541488647,0.022392548620700836,0.1626245081424713,0.040253497660160065,0.0,0.0,0.0,0.0,0.0,0.0,0.0,0.0,0.3679862916469574,-0.06162080723264437,0.04097325468010114,-0.019504884052601635,0.0012467755004763603,0.060249075293540955,-0.025589963421225548
73,5,-1.0227507118543144e-05,0.00014830318104941398,0.00013239342661108822,-0.023698806762695312,0.008185331709682941,-0.024947991594672203,-0.04857683181762695,-0.00982660986483097,0.05511888861656189,-0.003914629574865103,-0.11172466725111008,-0.010186084546148777,0.0,0.0,0.0,-0.011191640049219131,-0.022268937900662422,-0.0,0.0,0.0,0.0,0.0015644390368834138,-0.0003157803148496896,0.0016728996997699142,35080.0,7490.0,39231.0,11840.0,0.14272382855415344,0.022173624485731125,0.16615571081638336,0.03711819276213646,0.0,0.0,0.0,0.0,34800.0,7932.0,39097.0,12077.0,0.36791864037513733,-0.06388988750604328,0.04117073505691052,-0.020594264298316234,0.09481444954872131,-0.0317700058221817,0.076667420566082
78,5,-1.0227507118543144e-05,0.00014830318104941398,0.00013239342661108822,-0.023698806762695312,0.008185331709682941,-0.024947991594672203,-0.04857096076011658,-0.008674362674355507,0.05426490306854248,-0.002198047237470746,-0.159658282995224,-0.1490083783864975,0.0,0.0,0.0,-0.011206695809960365,-0.022328976541757584,-0.0,0.0,0.0,0.0,0.0022640288807451725,-0.0005015154019929469,0.0016677932580932975,32468.0,10686.0,38059.0,14520.0,0.12869153916835785,0.033007457852363586,0.1593976616859436,0.04708242416381836,0.0,0.0,0.0,0.0,33812.0,8640.0,39394.0,12427.0,0.3669407367706299,-0.06388988750604328,0.04117073505691052,-0.020594264298316234,0.09481731057167053,-0.031728483736515045,0.07713079452514648
83,5,-1.2116059224354103e-05,-4.562654430628754e-05,-1.405017428623978e-05,-0.010423148982226849,0.018396401777863503,0.017931804060935974,-0.04857096076011658,-0.008674362674355507,0.05426490306854248,-0.002198047237470746,-0.159658282995224,-0.1490083783864975,0.0,0.0,0.0,-0.02604801207780838,-0.009828436188399792,-0.0,0.0,0.0,0.0,0.0022640288807451725,-0.0005015154019929469,0.0016677932580932975,32468.0,10686.0,38059.0,14520.0,0.12869153916835785,0.033007457852363586,0.1593976616859436,0.04708242416381836,0.0,0.0,0.0,0.0,33812.0,8640.0,39394.0,12427.0,0.36696842312812805,-0.07842419208774007,0.029158239574477912,-0.025735340534482204,0.041729699820280075,-0.07373864203691483,-0.05364689975976944
89,5,0.00010607798321871087,0.00023961829720064998,0.00024403912539128214,0.013420221395790577,-0.0344153568148613,-0.030752960592508316,-0.04857096076011658,-0.008674362674355507,0.05426490306854248,-0.002198047237470746,-0.159658282995224,-0.1490083783864975,0.0,0.0,0.0,0.04916498437523842,0.012801304459571838,-0.0,0.0,0.0,0.0,0.0022640288807451725,-0.0005015154019929469,0.0016677932580932975,32468.0,10686.0,38059.0,14520.0,0.12869153916835785,0.033007457852363586,0.1593976616859436,0.04708242416381836,0.0,0.0,0.0,0.0,33812.0,8640.0,39394.0,12427.0,0.3673001229763031,-0.09060631877197657,0.03575489936076063,-0.036757857415573,-0.05435313284397125,0.1392202526330948,0.09628448635339737
94,5,0.0001390377146890387,0.00018572740373201668,0.00013667768507730216,0.008640429005026817,-0.0027798821683973074,0.005804713815450668,-0.04847608506679535,-0.0071256509982049465,0.0539180263876915,0.022624023258686066,-0.1178855150938034,-0.075852170586586,0.0,0.0,0.0,0.00439037149772048,0.008360408246517181,-0.0,0.0,0.0,0.0,0.0013476461172103882,-0.0012993596028536558,0.001688504358753562,33735.0,7114.0,39707.0,13353.0,0.13543182611465454,0.0209525004029274,0.16892892122268677,0.042673029005527496,0.0,0.0,0.0,0.0,33132.0,7868.0,39196.0,14345.0,0.36644524335861206,-0.08914934496700042,0.036837509657982485,-0.036818332128031,-0.035457950085401535,0.012413733638823032,-0.014253908768296242
99,5,0.00018804060528054833,0.00014440016821026802,0.0001036211833707057,0.009452533908188343,0.004951848182827234,0.006369323935359716,-0.04847608506679535,-0.0071256509982049465,0.0539180263876915,0.022624023258686066,-0.1178855150938034,-0.075852170586586,0.0,0.0,0.0,-0.00661948649212718,0.009203526191413403,-0.0,0.0,0.0,0.0,0.0013476461172103882,-0.0012993596028536558,0.001688504358753562,33735.0,7114.0,39707.0,13353.0,0.13543182611465454,0.0209525004029274,0.16892892122268677,0.042673029005527496,0.0,0.0,0.0,0.0,33132.0,7868.0,39196.0,14345.0,0.3664524555206299,-0.0946475245077409,0.03493400895812009,-0.04081673479534491,-0.03903394937515259,-0.01871674135327339,-0.016035206615924835
104,5,0.00013539726205635816,0.0002105577295878902,0.0001310294319409877,-0.004534307401627302,-0.0077765039168298244,-0.0019263566937297583,-0.04870285093784332,-0.006038874853402376,0.05344909802079201,-0.01705990545451641,-0.12881894409656525,0.019155068323016167,0.0,0.0,0.0,0.011556653305888176,-0.004057875834405422,-0.0,0.0,0.0,0.0,0.0032517416402697563,7.141759851947427e-05,0.0015414053341373801,32673.0,4911.0,39711.0,16431.0,0.12977313995361328,0.014030642807483673,0.16895508766174316,0.054541341960430145,0.0,0.0,0.0,0.0,34686.0,9133.0,40021.0,9514.0,0.3659192621707916,-0.08613442277654654,0.03259925027470764,-0.03624666809935322,0.017184356227517128,0.032628532499074936,0.0095751928165555
109,5,0.00026295959833078086,0.00025722733698785305,-0.00045297565520741045,0.01649843528866768,-0.008866695687174797,0.0811828002333641,-0.04870285093784332,-0.006038874853402376,0.05344909802079201,-0.01705990545451641,-0.12881894409656525,0.019155068323016167,0.0,0.0,0.0,0.013116900809109211,0.01581449806690216,-0.0,0.0,0.0,0.0,0.0032517416402697563,7.141759851947427e-05,0.0015414053341373801,32673.0,4911.0,39711.0,16431.0,0.12977313995361328,0.014030642807483673,0.16895508766174316,0.054541341960430145,0.0,0.0,0.0,0.0,34686.0,9133.0,40021.0,9514.0,0.36597058176994324,-0.08334614409572694,0.0059959324628609915,-0.03786838998775308,-0.06774365901947021,0.037318259477615356,-0.24814696609973907
114,5,0.000248623633524403,0.0004096061456948519,-0.00015904457541182637,0.00294249365106225,-0.02399304322898388,-0.016795508563518524,-0.04865007847547531,-0.004767577163875103,0.05287569761276245,0.0009029779466800392,-0.09336578100919724,-0.08741337805986404,0.0,0.0,0.0,0.03505099564790726,0.003192324424162507,-0.0,0.0,0.0,0.0,0.0014548272592946887,0.00012426316970959306,0.0017386425752192736,36040.0,6049.0,38737.0,11967.0,0.1480236053466797,0.01755833625793457,0.1632923185825348,0.037578195333480835,0.0,0.0,0.0,0.0,33200.0,3768.0,40327.0,15678.0,0.3654613792896271,-0.07268780886062697,0.014676874684291815,-0.04101035687705194,-0.013495320454239845,0.09879902750253677,0.048894014209508896
119,5,0.00023406255058944225,0.0003697661741171032,-0.00014856130292173475,-0.0011558037949725986,-0.0016203147824853659,-0.00650631170719862,-0.04865007847547531,-0.004767577163875103,0.05287569761276245,0.0009029779466800392,-0.09336578100919724,-0.08741337805986404,0.0,0.0,0.0,0.003251146525144577,-0.0006927913054823875,-0.0,0.0,0.0,0.0,0.0014548272592946887,0.00012426316970959306,0.0017386425752192736,36040.0,6049.0,38737.0,11967.0,0.1480236053466797,0.01755833625793457,0.1632923185825348,0.037578195333480835,0.0,0.0,0.0,0.0,33200.0,3768.0,40327.0,15678.0,0.3652370572090149,-0.07443178656755602,0.014690456989907839,-0.04132959656200454,0.0029281394090503454,0.009163045324385166,0.017727205529808998
124,5,-4.699946293840185e-05,0.0005667265504598618,-0.0005012121982872486,-0.03969542309641838,-0.0280605461448431,0.0474192313849926,-0.048693593591451645,-0.004072575364261866,0.05286936089396477,0.01190979778766632,-0.038650333881378174,-0.02599683403968811,0.0,0.0,0.0,0.0411912277340889,-0.03752962872385979,-0.0,0.0,0.0,0.0,0.002176939509809017,0.0008707181550562382,0.001626624260097742,35240.0,4368.0,38514.0,14752.0,0.14360132813453674,0.01238454133272171,0.16200920939445496,0.0479755774140358,0.0,0.0,0.0,0.0,35370.0,7175.0,37891.0,13319.0,0.36579543352127075,-0.06828849552398235,0.003413455810331992,-0.02663197371690944,0.1587187796831131,0.11619265377521515,-0.14978253841400146
129,5,-0.0002010951575357467,0.00023391949071083218,-0.0004811907128896564,-0.03348202258348465,0.0381748229265213,0.011422761715948582,-0.048693593591451645,-0.004072575364261866,0.05286936089396477,0.01190979778766632,-0.038650333881378174,-0.02599683403968811,0.0,0.0,0.0,-0.0533951111137867,-0.03187836706638336,-0.0,0.0,0.0,0.0,0.002176939509809017,0.0008707181550562382,0.001626624260097742,35240.0,4368.0,38514.0,14752.0,0.14360132813453674,0.01238454133272171,0.16200920939445496,0.0479755774140358,0.0,0.0,0.0,0.0,35370.0,7175.0,37891.0,13319.0,0.36593496799468994,-0.08332377222538666,0.009353754364377903,-0.028064788566620216,0.1348014622926712,-0.15061324834823608,-0.04297038912773132
134,5,-0.00016102188965305686,0.00021951143571641296,-0.00044171494664624333,-0.0044343494810163975,0.013469574972987175,-0.0020997768733650446,-0.04876043274998665,-0.0041096447966992855,0.051920291036367416,0.018826434388756752,0.01667473278939724,-0.04729227349162102,0.0,0.0,0.0,-0.018442396074533463,-0.004370416048914194,-0.0,0.0,0.0,0.0,0.0017651733942329884,0.00020938049419783056,0.001690038712695241,35270.0,5932.0,38832.0,12750.0,0.14376917481422424,0.01718868687748909,0.16384068131446838,0.04043855145573616,0.0,0.0,0.0,0.0,35350.0,4053.0,38949.0,14184.0,0.3642061650753021,-0.08204861045272066,0.003252432369997322,-0.02315138494668622,0.01841963827610016,-0.05182122066617012,-0.003288323525339365
139,5,-0.00012638750195037574,0.00015739795344416052,-0.00042282286449335515,0.0035185085143893957,0.012736759148538113,-0.0032748256344348192,-0.04876043274998665,-0.0041096447966992855,0.051920291036367416,0.018826434388756752,0.01667473278939724,-0.04729227349162102,0.0,0.0,0.0,-0.017514029517769814,0.0032179909758269787,-0.0,0.0,0.0,0.0,0.0017651733942329884,0.00020938049419783056,0.001690038712695241,35270.0,5932.0,38832.0,12750.0,0.14376917481422424,0.01718868687748909,0.16384068131446838,0.04043855145573616,0.0,0.0,0.0,0.0,35350.0,4053.0,38949.0,14184.0,0.3641984760761261,-0.07986816670155238,0.005781582422528656,-0.02372133634769304,-0.013562312349677086,-0.049211833626031876,-0.0007602971163578331
145,5,-0.00043052114779129624,0.00022358703427016735,-0.00023235869593918324,-0.04152315482497215,-0.005445443093776703,-0.027647430077195168,-0.04876457527279854,-0.0049829971976578236,0.05163614824414253,-0.019905265420675278,0.1529814898967743,0.013163495808839798,0.0,0.0,0.0,0.008525501005351543,-0.03998516872525215,-0.0,0.0,0.0,0.0,3.527106673573144e-05,-0.00043450703378766775,0.0017530519980937243,37548.0,8657.0,37799.0,8497.0,0.15648655593395233,0.026032283902168274,0.1579185575246811,0.02549739181995392,0.0,0.0,0.0,0.0,35913.0,4769.0,37948.0,14119.0,0.3641195595264435,-0.08551955197400483,0.029775869878766147,-0.03000039438166777,0.16846033930778503,0.023952331393957138,0.0739402025938034
150,5,-0.0003507722867652774,0.0003859437711071223,-0.00016233160567935556,-0.001292105414904654,-0.024363577365875244,-0.018098022788763046,-0.04876457527279854,-0.0049829971976578236,0.05163614824414253,-0.019905265420675278,0.1529814898967743,0.013163495808839798,0.0,0.0,0.0,0.03584836423397064,-0.0017007747665047646,-0.0,0.0,0.0,0.0,3.527106673573144e-05,-0.00043450703378766775,0.0017530519980937243,37548.0,8657.0,37799.0,8497.0,0.15648655593395233,0.026032283902168274,0.1579185575246811,0.02549739181995392,0.0,0.0,0.0,0.0,35913.0,4769.0,37948.0,14119.0,0.3640497028827667,-0.07019391124702619,0.02163574661640575,-0.028181441735608628,0.007161672227084637,0.10065343976020813,0.045641250908374786
155,5,-0.00019542111840564758,0.0006877710111439228,-0.0003106683725491166,0.02136152982711792,-0.04956488311290741,0.015337738208472729,-0.04868980869650841,-0.005731676705181599,0.05166628956794739,0.02467438392341137,0.0506768636405468,0.017811069265007973,0.0,0.0,0.0,0.07197440415620804,0.019906722009181976,-0.0,0.0,0.0,0.0,-8.911301847547293e-05,1.547400461276993e-05,0.0017746011726558208,37566.0,4341.0,37981.0,11626.0,0.15659046173095703,0.012302957475185394,0.15895628929138184,0.03634869307279587,0.0,0.0,0.0,0.0,37549.0,4176.0,38430.0,11072.0,0.3668537437915802,-0.05730393167286758,0.016874818547086345,-0.03383790536120733,-0.0842989981174469,0.20336517691612244,-0.057393960654735565
160,5,-0.0004952324670739472,0.0001487828849349171,1.818635792005807e-05,-0.03556513041257858,0.06058887019753456,-0.04143833741545677,-0.04868980869650841,-0.005731676705181599,0.05166628956794739,0.02467438392341137,0.0506768636405468,0.017811069265007973,0.0,0.0,0.0,-0.08197446912527084,-0.0330694280564785,-0.0,0.0,0.0,0.0,-8.911301847547293e-05,1.547400461276993e-05,0.0017746011726558208,37566.0,4341.0,37981.0,11626.0,0.15659046173095703,0.012302957475185394,0.15895628929138184,0.03634869307279587,0.0,0.0,0.0,0.0,37549.0,4176.0,38430.0,11072.0,0.38084957003593445,-0.08077703779725261,0.03157315248598058,-0.034354994699631214,0.14525443315505981,-0.2403246909379959,0.11697527766227722
165,5,-0.00043928693048655987,-0.00011186637857463211,0.0005678760353475809,-0.0028371631633490324,0.05466755852103233,-0.08938805758953094,-0.04868980869650841,-0.005731676705181599,0.05166628956794739,0.02467438392341137,0.0506768636405468,0.017811069265007973,0.0,0.0,0.0,-0.07729242742061615,-0.0033363760448992252,-0.0,0.0,0.0,0.0,-8.911301847547293e-05,1.547400461276993e-05,0.0017746011726558208,37566.0,4341.0,37981.0,11626.0,0.15659046173095703,0.012302957475185394,0.15895628929138184,0.03634869307279587,0.0,0.0,0.0,0.0,37549.0,4176.0,38430.0,11072.0,0.36658984422683716,-0.07464090161129641,0.026162589369089304,-0.029764287651775617,0.014114625751972198,-0.21817193925380707,0.2691468298435211
170,5,-0.00032004466629587114,8.029850869206712e-05,0.0003258003853261471,0.015842769294977188,-0.010502816177904606,0.007074174005538225,-0.04867774248123169,-0.006628427654504776,0.05207955837249756,-0.02467830665409565,0.08731069415807724,0.03305194899439812,0.0,0.0,0.0,0.01552132423967123,0.014518472366034985,-0.0,0.0,0.0,0.0,0.0012233734596520662,0.0006027811323292553,0.0018664839444682002,37661.0,3526.0,38841.0,10767.0,0.1571325659751892,0.009878933429718018,0.16389544308185577,0.03329147398471832,0.0,0.0,0.0,0.0,35974.0,0.0,40313.0,14085.0,0.36440545320510864,-0.06631154692769774,0.03268947866109517,-0.02442628565988026,-0.06122375279664993,0.043638862669467926,-0.022313302382826805
175,5,-0.0002653014671523124,3.056941204704344e-05,0.00035220375866629183,0.01241687685251236,0.003811228321865201,-0.0015742225805297494,-0.04867774248123169,-0.006628427654504776,0.05207955837249756,-0.02467830665409565,0.08731069415807724,0.03305194899439812,0.0,0.0,0.0,-0.004943711217492819,0.011330426670610905,-0.0,0.0,0.0,0.0,0.0012233734596520662,0.0006027811323292553,0.0018664839444682002,37661.0,3526.0,38841.0,10767.0,0.1571325659751892,0.009878933429718018,0.16389544308185577,0.03329147398471832,0.0,0.0,0.0,0.0,35974.0,0.0,40313.0,14085.0,0.3643510043621063,-0.06830711771452831,0.03236813401339531,-0.02510017977757525,-0.04777909070253372,-0.013898384757339954,0.004917064215987921
180,5,-0.0003118070599157363,8.738000178709626e-05,0.00032334160641767085,-0.0027857194654643536,-0.006810113787651062,0.003568436484783888,-0.048674438148736954,-0.007283155806362629,0.052223216742277145,0.01720801368355751,0.06505303084850311,0.042334455996751785,0.0,0.0,0.0,0.010287957265973091,-0.003168616909533739,-0.0,0.0,0.0,0.0,0.002883843844756484,0.0008047122391872108,0.001878810697235167,36139.0,0.0,40667.0,13357.0,0.1485687792301178,-0.0017912313342094421,0.17458239197731018,0.0426902249455452,0.0,0.0,0.0,0.0,40049.0,7642.0,37292.0,6173.0,0.36450883746147156,-0.06605130277283809,0.041359649350875785,-0.027045263003210564,0.013367819599807262,0.028934678062796593,-0.009994338266551495
185,5,-0.0001854772854130715,2.3078648155205883e-05,0.00043763325084000826,0.01685045287013054,0.006959154736250639,-0.014930297620594501,-0.048674438148736954,-0.007283155806362629,0.052223216742277145,0.01720801368355751,0.06505303084850311,0.042334455996751785,0.0,0.0,0.0,0.010294542647898197,-0.003184285946190357,-0.0,0.0,0.0,0.0,0.002883843844756484,0.0008047122391872108,0.001878810697235167,36139.0,0.0,40667.0,13357.0,0.1485687792301178,-0.0017912313342094421,0.17458239197731018,0.0426902249455452,0.0,0.0,0.0,0.0,40049.0,7642.0,37292.0,6173.0,0.36454832553863525,-0.06893563236697328,0.03491120927620141,-0.027108415541784725,-0.06586899608373642,-0.026509808376431465,0.048075951635837555
190,5,7.160435779951513e-05,0.00010810366802616045,0.0002715297450777143,0.041046567261219025,-0.009815756231546402,0.018775399774312973,-0.048700135201215744,-0.007873980328440666,0.052672382444143295,-0.03787365183234215,0.03189057484269142,0.025265293195843697,0.0,0.0,0.0,0.014583603478968143,0.038837980479002,-0.0,0.0,0.0,0.0,-0.0007676964742131531,0.0004305307811591774,0.0019119041971862316,39899.0,7498.0,37436.0,6342.0,0.17005383968353271,0.022197820246219635,0.1558556854724884,0.018483050167560577,0.0,0.0,0.0,0.0,37514.0,1927.0,39385.0,11452.0,0.3653164803981781,-0.052787556500046115,0.020414773280626897,-0.02499736988722874,-0.16415616869926453,0.041105400770902634,-0.0543375089764595
195,5,4.877895480603911e-05,5.854148184880614e-05,0.0004161332326475531,0.009118413552641869,0.003993979189544916,-0.014611867256462574,-0.048700135201215744,-0.007873980328440666,0.052672382444143295,-0.03787365183234215,0.03189057484269142,0.025265293195843697,0.0,0.0,0.0,-0.005114734638482332,0.008597935549914837,-0.0,0.0,0.0,0.0,-0.0007676964742131531,0.0004305307811591774,0.0019119041971862316,39899.0,7498.0,37436.0,6342.0,0.17005383968353271,0.022197820246219635,0.1558556854724884,0.018483050167560577,0.0,0.0,0.0,0.0,37514.0,1927.0,39385.0,11452.0,0.3650204539299011,-0.05460638083532983,0.020954273690335187,-0.026613787603858956,-0.03632350638508797,-0.014405480585992336,0.04881199076771736
201,5,5.262955164653249e-05,1.5433637599926442e-05,0.0004849473771173507,0.0032746074721217155,0.007233292330056429,-0.014017542824149132,-0.04899191856384277,-0.007968529127538204,0.05281974747776985,0.008459042757749557,0.007845464162528515,0.036490391939878464,0.0,0.0,0.0,-0.005107467528432608,0.008596684783697128,-0.0,0.0,0.0,0.0,0.0016310767969116569,0.0007088185520842671,0.0019256744999438524,37824.0,1699.0,39654.0,10694.0,0.15806108713150024,0.004636339843273163,0.16861969232559204,0.03303389996290207,0.0,0.0,0.0,0.0,38285.0,1628.0,39473.0,10358.0,0.36519020795822144,-0.056431641805524596,0.022789290148480558,-0.026745412889666947,-0.01298290491104126,-0.02760765142738819,0.04929054528474808
206,5,4.235257802065462e-05,-3.2584555356152123e-06,0.0005100610433146358,-0.00045639401650987566,0.004786880686879158,-0.007721179164946079,-0.04899191856384277,-0.007968529127538204,0.05281974747776985,0.008459042757749557,0.007845464162528515,0.036490391939878464,0.0,0.0,0.0,-0.006363576278090477,-0.0004709725908469409,-0.0,0.0,0.0,0.0,0.0016310767969116569,0.0007088185520842671,0.0019256744999438524,37824.0,1699.0,39654.0,10694.0,0.15806108713150024,0.004636339843273163,0.16861969232559204,0.03303389996290207,0.0,0.0,0.0,0.0,38285.0,1628.0,39473.0,10358.0,0.3651784062385559,-0.0584225856600996,0.02617277540866103,-0.026493481357500313,0.0019904884975403547,-0.017930619418621063,0.03219788521528244
211,5,0.00032013599411584437,5.993981540086679e-05,0.0002520136767998338,0.038752760738134384,-0.007411693688482046,0.03381028026342392,-0.04858686402440071,-0.007578587159514427,0.053309254348278046,0.03168404847383499,-0.06086011230945587,0.04307765141129494,0.0,0.0,0.0,-0.0063541000708937645,-0.0004678293189499527,-0.0,0.0,0.0,0.0,0.001342028728686273,0.0006585550145246089,0.001975160790607333,38284.0,1867.0,39892.0,9457.0,0.16068626940250397,0.005105510354042053,0.17001286149024963,0.0287436842918396,0.0,0.0,0.0,0.0,37569.0,2357.0,40421.0,9473.0,0.3657390773296356,-0.05973493985692459,0.011867531527206055,-0.03317049983296358,-0.15652363002300262,0.03124220483005047,-0.09473071992397308
216,5,0.0003760834224522114,4.90629936393816e-05,0.00017592527728993446,0.0194584671407938,-0.0007007532985880971,0.020795458927750587,-0.04858686402440071,-0.007578587159514427,0.053309254348278046,0.03168404847383499,-0.06086011230945587,0.04307765141129494,0.0,0.0,0.0,0.0015403995057567954,0.018840264528989792,-0.0,0.0,0.0,0.0,0.001342028728686273,0.0006585550145246089,0.001975160790607333,38284.0,1867.0,39892.0,9457.0,0.16068626940250397,0.005105510354042053,0.17001286149024963,0.0287436842918396,0.0,0.0,0.0,0.0,37569.0,2357.0,40421.0,9473.0,0.3657969832420349,-0.06106042746383648,0.01274796986282937,-0.03281009562174238,-0.07976112514734268,0.0043478840962052345,-0.056056443601846695
221,5,6.682421371806413e-05,5.2169354603393e-05,0.0001854763540904969,-0.03745874762535095,-0.0006451162626035511,0.004901488311588764,-0.0487484484910965,-0.006994456052780151,0.05342059209942818,-0.030522141605615616,-0.07724505662918091,-0.0031361852306872606,0.0,0.0,0.0,0.001471158699132502,-0.03533186390995979,-0.0,0.0,0.0,0.0,0.001701762666925788,0.000155611356603913,0.0019424937199801207,37158.0,2719.0,40458.0,9783.0,0.15428215265274048,0.00753021240234375,0.17334696650505066,0.029861122369766235,0.0,0.0,0.0,0.0,36849.0,3716.0,40587.0,9265.0,0.36608803272247314,-0.07365105577230575,0.01731361192006633,-0.03181350522620295,0.1496744006872177,0.0041556572541594505,-0.007707649376243353
226,5,0.0002184478216804564,5.267964297672734e-05,0.0002784637617878616,0.009989679791033268,-0.0002649753587320447,-0.01154779177159071,-0.0487484484910965,-0.006994456052780151,0.05342059209942818,-0.030522141605615616,-0.07724505662918091,-0.0031361852306872606,0.0,0.0,0.0,0.0014757390599697828,-0.03532795608043671,-0.0,0.0,0.0,0.0,0.001701762666925788,0.000155611356603913,0.0019424937199801207,37158.0,2719.0,40458.0,9783.0,0.15428215265274048,0.00753021240234375,0.17334696650505066,0.029861122369766235,0.0,0.0,0.0,0.0,36849.0,3716.0,40587.0,9265.0,0.36608800292015076,-0.06372145971545538,0.024724909109855423,-0.03032001803959139,-0.041046060621738434,0.002651198534294963,0.04361693933606148
231,5,0.00026169655029661953,5.8285306295147166e-05,0.0003182861255481839,0.009051727131009102,-0.0008642856846563518,-0.009039468131959438,-0.0484326109290123,-0.0060017528012394905,0.05327233299612999,0.07348556071519852,-0.06374575197696686,-0.01969951204955578,0.0,0.0,0.0,0.0009440186549909413,0.009709874168038368,-0.0,0.0,0.0,0.0,0.0014493775088340044,-0.0002365511463722214,0.0019179913215339184,37022.0,4173.0,40387.0,8925.0,0.15351702272891998,0.011797711253166199,0.17292727530002594,0.026936396956443787,0.0,0.0,0.0,0.0,37114.0,4132.0,40396.0,8793.0,0.36570674180984497,-0.06052618524689875,0.02396791164748845,-0.027689085210614715,-0.03760669007897377,0.005094833672046661,0.03753265365958214
236,5,7.165801798691973e-05,1.7205077256221557e-06,0.0002605791378300637,-0.023889876902103424,0.007659786380827427,0.00536713982000947,-0.0484326109290123,-0.0060017528012394905,0.05327233299612999,0.07348556071519852,-0.06374575197696686,-0.01969951204955578,0.0,0.0,0.0,-0.010390574112534523,-0.022497355937957764,-0.0,0.0,0.0,0.0,0.0014493775088340044,-0.0002365511463722214,0.0019179913215339184,37022.0,4173.0,40387.0,8925.0,0.15351702272891998,0.011797711253166199,0.17292727530002594,0.026936396956443787,0.0,0.0,0.0,0.0,37114.0,4132.0,40396.0,8793.0,0.3658016622066498,-0.06075622174003403,0.03421440576831006,-0.029084673992690543,0.09523648023605347,-0.02932673506438732,-0.00558344554156065
241,5,0.00015451789658982307,2.650788883329369e-05,0.0005427356227301061,0.004433420952409506,-0.0011722974013537169,-0.03789177164435387,-0.04786185547709465,-0.005398359149694443,0.05317981541156769,0.04354618862271309,-0.007394007407128811,-0.021031901240348816,0.0,0.0,0.0,-0.010393442586064339,-0.022499915212392807,-0.0,0.0,0.0,0.0,0.0016937068430706859,0.0008346198010258377,0.0019395309500396252,38003.0,1075.0,39920.0,10864.0,0.15907859802246094,0.00290544331073761,0.17017830908298492,0.033634692430496216,0.0,0.0,0.0,0.0,37680.0,1510.0,39818.0,11213.0,0.36569568514823914,-0.0675773533594171,0.028004275956708295,-0.029256535113537797,-0.018570946529507637,0.0061507802456617355,0.12920139729976654
246,5,0.00016176588542293757,-2.9765633371425793e-05,0.000452543783467263,0.0023447435814887285,0.007526603993028402,0.0012593301944434643,-0.04786185547709465,-0.005398359149694443,0.05317981541156769,0.04354618862271309,-0.007394007407128811,-0.021031901240348816,0.0,0.0,0.0,-0.010271914303302765,0.002433563582599163,-0.0,0.0,0.0,0.0,0.0016937068430706859,0.0008346198010258377,0.0019395309500396252,38003.0,1075.0,39920.0,10864.0,0.15907859802246094,0.00290544331073761,0.17017830908298492,0.033634692430496216,0.0,0.0,0.0,0.0,37680.0,1510.0,39818.0,11213.0,0.3656037449836731,-0.08749122827356601,0.03703621441232168,-0.03968215188242911,-0.010297131724655628,-0.028976164758205414,0.012034735642373562
251,5,0.00016621749091427773,-3.852843656204641e-05,0.00046769046457484365,0.0013266481691971421,0.0034847736824303865,-0.001742736203595996,-0.04737020283937454,-0.005475164391100407,0.05276219919323921,0.060554347932338715,0.023008247837424278,-0.016016578301787376,0.0,0.0,0.0,-0.00456794211640954,0.0014887155266478658,-0.0,0.0,0.0,0.0,0.001087107928469777,0.00024209967523347586,0.002012864453718066,38180.0,1016.0,39647.0,11097.0,0.16009269654750824,0.0027436912059783936,0.16858160495758057,0.03445853292942047,0.0,0.0,0.0,0.0,38315.0,639.0,39971.0,10632.0,0.36510926485061646,-0.08616129161051733,0.03600826205404698,-0.03851919964869518,-0.006290948484092951,-0.012868717312812805,0.02264915034174919
256,5,0.00016503658844158053,1.3955393114883918e-05,0.0003573920694179833,0.00023266895732376724,-0.006302304100245237,0.014918952248990536,-0.04737020283937454,-0.005475164391100407,0.05276219919323921,0.060554347932338715,0.023008247837424278,-0.016016578301787376,0.0,0.0,0.0,-0.004571170080453157,0.0014979984844103456,-0.0,0.0,0.0,0.0,0.001087107928469777,0.00024209967523347586,0.002012864453718066,38180.0,1016.0,39647.0,11097.0,0.16009269654750824,0.0027436912059783936,0.16858160495758057,0.03445853292942047,0.0,0.0,0.0,0.0,38315.0,639.0,39971.0,10632.0,0.36512136459350586,-0.08354522753601541,0.03421540572573352,-0.03983305622388478,-0.0019475038861855865,0.026585431769490242,-0.02760176919400692
262,5,0.0005826484994031489,0.0002680542238522321,-3.229968569939956e-05,0.05853547155857086,-0.03746452555060387,0.05903253331780434,-0.04668724909424782,-0.0062274751253426075,0.05271180346608162,0.12358425557613373,0.056929927319288254,0.0071762907318770885,0.0,0.0,0.0,0.009439478628337383,0.00047023489605635405,-0.0,0.0,0.0,0.0,0.0009629926644265652,0.0009175233426503837,0.002109178341925144,39925.0,237.0,39950.0,8170.0,0.17020577192306519,0.0006332024931907654,0.17035514116287231,0.024409659206867218,0.0,0.0,0.0,0.0,38664.0,2593.0,40233.0,7967.0,0.3650636374950409,-0.05764822364595182,0.014735805241992436,-0.03308706139577162,-0.001986782532185316,0.02658875286579132,-0.026538526639342308
267,5,0.00027579584275372326,0.0001133709738496691,0.00016356624837499112,-0.025398731231689453,0.010416296310722828,-0.00971147045493126,-0.04668724909424782,-0.0062274751253426075,0.05271180346608162,0.12358425557613373,0.056929927319288254,0.0071762907318770885,0.0,0.0,0.0,-0.014062260277569294,-0.023599285632371902,-0.0,0.0,0.0,0.0,0.0009629926644265652,0.0009175233426503837,0.002109178341925144,39925.0,237.0,39950.0,8170.0,0.17020577192306519,0.0006332024931907654,0.17035514116287231,0.024409659206867218,0.0,0.0,0.0,0.0,38664.0,2593.0,40233.0,7967.0,0.36518511176109314,-0.07027562321217548,0.030740325288245416,-0.03170590856547545,0.09972749650478363,-0.039621688425540924,0.04435259476304054
272,5,0.00024012864741962403,8.016059291549027e-05,0.00027273481828160584,-0.012613028287887573,0.007774342317134142,-0.018197041004896164,-0.04383626580238342,-0.008211019448935986,0.053209397941827774,0.14397074282169342,0.09337723255157471,0.01120282243937254,0.0,0.0,0.0,-0.010358639992773533,-0.011515241116285324,-0.0,0.0,0.0,0.0,0.0016476422315463424,0.001039039227180183,0.002091513480991125,39113.0,0.0,40340.0,9854.0,0.1654728651046753,-0.0031067803502082825,0.17264804244041443,0.030107222497463226,0.0,0.0,0.0,0.0,39893.0,357.0,39964.0,8104.0,0.3656611144542694,-0.0707528578185029,0.035317709950293985,-0.033562425753575,0.048730503767728806,-0.029225217178463936,0.07196208089590073
277,5,0.0008757294854149222,0.0002770408755168319,-0.00037412912934087217,0.08520021289587021,-0.02523093856871128,0.08510184288024902,-0.04383626580238342,-0.008211019448935986,0.053209397941827774,0.14397074282169342,0.09337723255157471,0.01120282243937254,0.0,0.0,0.0,0.03381405770778656,0.07516925781965256,-0.0,0.0,0.0,0.0,0.0016476422315463424,0.001039039227180183,0.002091513480991125,39113.0,0.0,40340.0,9854.0,0.1654728651046753,-0.0031067803502082825,0.17264804244041443,0.030107222497463226,0.0,0.0,0.0,0.0,39893.0,357.0,39964.0,8104.0,0.39875197410583496,-0.06470693075755873,-0.008563377016384406,-0.04673549348173104,-0.3463952839374542,0.1039968952536583,-0.24686530232429504
282,5,0.0007586063002236187,0.0003998950123786926,-0.00033180968603119254,0.00916281621903181,-0.024768861010670662,0.01960582844913006,-0.04383626580238342,-0.008211019448935986,0.053209397941827774,0.14397074282169342,0.09337723255157471,0.01120282243937254,0.0,0.0,0.0,0.036484673619270325,0.009866831824183464,-0.0,0.0,0.0,0.0,0.0016476422315463424,0.001039039227180183,0.002091513480991125,39113.0,0.0,40340.0,9854.0,0.1654728651046753,-0.0031067803502082825,0.17264804244041443,0.030107222497463226,0.0,0.0,0.0,0.0,39893.0,357.0,39964.0,8104.0,0.36587855219841003,-0.05403847987461028,0.00016100223617463105,-0.03848842890347729,-0.041754644364118576,0.1029529944062233,-0.050873156636953354
287,5,0.0007769032963551581,5.6152046454371884e-05,-0.00019335190881974995,0.005310422740876675,0.04069335758686066,-0.013502339832484722,-0.04209750145673752,-0.009101062081754208,0.053335484117269516,0.14745576679706573,0.0564851388335228,0.009244555607438087,0.0,0.0,0.0,-0.05696903169155121,0.006293523591011763,-0.0,0.0,0.0,0.0,0.000853395089507103,7.081389048835263e-05,0.002103217178955674,39054.0,2702.0,40754.0,6023.0,0.16513077914714813,0.007479846477508545,0.1750982403755188,0.017476066946983337,0.0,0.0,0.0,0.0,39043.0,0.0,40615.0,9386.0,0.3663632869720459,-0.06978528134861568,0.007378614785420784,-0.04467986803221236,-0.02664305828511715,-0.16086053848266602,0.0495065301656723
292,5,0.0002472436462994665,-0.00019879548926837742,-0.0005311109707690775,-0.07255922257900238,0.04790066182613373,0.04323556646704674,-0.04209750145673752,-0.009101062081754208,0.053335484117269516,0.14745576679706573,0.0564851388335228,0.009244555607438087,0.0,0.0,0.0,-0.06276403367519379,-0.0630645602941513,-0.0,0.0,0.0,0.0,0.000853395089507103,7.081389048835263e-05,0.002103217178955674,39054.0,2702.0,40754.0,6023.0,0.16513077914714813,0.007479846477508545,0.1750982403755188,0.017476066946983337,0.0,0.0,0.0,0.0,39043.0,0.0,40615.0,9386.0,0.3953651487827301,-0.09172735821089167,0.012833538732295582,-0.030032249815925696,0.2878234088420868,-0.19120612740516663,-0.12637658417224884
297,5,0.0008643314940854907,0.00022541025828104466,-0.00021002038556616753,0.06462452560663223,-0.04501860588788986,-0.03198201209306717,-0.041129522025585175,-0.009339256212115288,0.05317268148064613,0.13929110765457153,0.004207317251712084,-0.03599760681390762,0.0,0.0,0.0,0.060897812247276306,0.0587950199842453,-0.0,0.0,0.0,0.0,0.002515309490263462,0.0009534407290630043,0.0020559749100357294,37912.0,0.0,41168.0,11487.0,0.15856069326400757,-0.00609646737575531,0.17756490409374237,0.03584945201873779,0.0,0.0,0.0,0.0,38885.0,2931.0,40724.0,6181.0,0.38989290595054626,-0.05457088356879349,0.0017675920289194726,-0.035177131721017385,-0.26467838883399963,0.1829681694507599,0.10244885087013245
302,5,0.0007128788274712861,7.106264820322394e-05,-0.00017977507377509028,-0.0018160106847062707,0.0081030847504735,-0.013828946277499199,-0.041129522025585175,-0.009339256212115288,0.05317268148064613,0.13929110765457153,0.004207317251712084,-0.03599760681390762,0.0,0.0,0.0,-0.010773522779345512,-0.0004215399967506528,-0.0,0.0,0.0,0.0,0.002515309490263462,0.0009534407290630043,0.0020559749100357294,37912.0,0.0,41168.0,11487.0,0.15856069326400757,-0.00609646737575531,0.17756490409374237,0.03584945201873779,0.0,0.0,0.0,0.0,38885.0,2931.0,40724.0,6181.0,0.3655964732170105,-0.06514781829822013,0.00581410908983661,-0.03792918574227285,0.0017821920337155461,-0.030390296131372452,0.04780428111553192
308,5,0.0006564720533788204,2.0574174413923174e-05,0.0004627229936886579,0.02809986285865307,-0.01353053841739893,-0.007238856051117182,-0.03951038047671318,-0.009004966355860233,0.05275949463248253,0.13947683572769165,-0.027330895885825157,-0.04428057000041008,0.0,0.0,0.0,-0.010781433433294296,-0.0003815983945969492,-0.0,0.0,0.0,0.0,-0.0007996623171493411,-0.0016733452212065458,0.0020542179699987173,39776.0,12165.0,41782.0,2358.0,0.16933289170265198,0.03829803317785263,0.18123897910118103,0.006494291126728058,0.0,0.0,0.0,0.0,37744.0,0.0,41538.0,10832.0,0.3651232123374939,-0.03766469610403689,0.008316974533222717,-0.03039957475477148,-0.11771383881568909,0.05585821717977524,0.03714821860194206
313,5,0.0003791726485360414,-0.00013290808419696987,0.0007049842970445752,-0.030391955748200417,0.017428355291485786,-0.0360882394015789,-0.03951038047671318,-0.009004966355860233,0.05275949463248253,0.13947683572769165,-0.027330895885825157,-0.04428057000041008,0.0,0.0,0.0,-0.024443410336971283,-0.02785906195640564,-0.0,0.0,0.0,0.0,-0.0007996623171493411,-0.0016733452212065458,0.0020542179699987173,39776.0,12165.0,41782.0,2358.0,0.16933289170265198,0.03829803317785263,0.18123897910118103,0.006494291126728058,0.0,0.0,0.0,0.0,37744.0,0.0,41538.0,10832.0,0.3653528392314911,-0.042266262304290744,0.017857316002031703,-0.02848444589976068,0.11775422096252441,-0.06889372318983078,0.12878841161727905
318,5,0.0003674302715808153,-0.00016974072786979377,0.0006453993846662343,-0.010761518962681293,0.010385076515376568,-0.0024845802690833807,-0.03819426894187927,-0.00860633049160242,0.05240899324417114,0.1794849932193756,-0.028822775930166245,-0.025872714817523956,0.0,0.0,0.0,-0.024481728672981262,-0.027867991477251053,-0.0,0.0,0.0,0.0,0.0007442523492500186,9.5312439952977e-05,0.0020775480661541224,39195.0,2750.0,40320.0,6662.0,0.16594570875167847,0.007619492709636688,0.1725294589996338,0.019501782953739166,0.0,0.0,0.0,0.0,39239.0,2894.0,40481.0,6150.0,0.3649515211582184,-0.044333893025040046,0.018233329813694563,-0.02829464535754201,0.11766321957111359,-0.06892561912536621,0.13090336322784424
323,5,0.0003674302715808153,-0.00016974072786979377,0.0006453993846662343,-0.010761518962681293,0.010385076515376568,-0.0024845802690833807,-0.03819426894187927,-0.00860633049160242,0.05240899324417114,0.1794849932193756,-0.028822775930166245,-0.025872714817523956,0.0,0.0,0.0,-0.014573737978935242,-0.009268412366509438,-0.0,0.0,0.0,0.0,0.0007442523492500186,9.5312439952977e-05,0.0020775480661541224,39195.0,2750.0,40320.0,6662.0,0.16594570875167847,0.007619492709636688,0.1725294589996338,0.019501782953739166,0.0,0.0,0.0,0.0,39239.0,2894.0,40481.0,6150.0,0.36475488543510437,-0.044333893025040046,0.018233329813694563,-0.02829464535754201,0.039123743772506714,-0.041014235466718674,0.03113481216132641
328,5,0.0002839145890902728,-0.0001951779704540968,0.0006903249304741621,0.003936417400836945,0.009682443924248219,-0.021706873551011086,-0.03584721311926842,-0.008216706104576588,0.0520826056599617,0.21674785017967224,-0.027796663343906403,-0.034911591559648514,0.0,0.0,0.0,-0.013658024370670319,0.004565960727632046,-0.0,0.0,0.0,0.0,0.000632443989161402,0.0003553848364390433,0.0020851853769272566,39357.0,3141.0,40150.0,6325.0,0.1668892204761505,0.008749537169933319,0.1715298295021057,0.01842787116765976,0.0,0.0,0.0,0.0,39275.0,5378.0,40633.0,3260.0,0.3643644452095032,-0.04729963462859013,0.029304482549683944,-0.02725710905251505,-0.019254187121987343,-0.03839677944779396,0.091396763920784
333,5,0.0002839145890902728,-0.0001951779704540968,0.0006903249304741621,0.003936417400836945,0.009682443924248219,-0.021706873551011086,-0.03584721311926842,-0.008216706104576588,0.0520826056599617,0.21674785017967224,-0.027796663343906403,-0.034911591559648514,0.0,0.0,0.0,-0.013674824498593807,0.0045822542160749435,-0.0,0.0,0.0,0.0,0.000632443989161402,0.0003553848364390433,0.0020851853769272566,39357.0,3141.0,40150.0,6325.0,0.1668892204761505,0.008749537169933319,0.1715298295021057,0.01842787116765976,0.0,0.0,0.0,0.0,39275.0,5378.0,40633.0,3260.0,0.3643645644187927,-0.04729963462859013,0.029304482549683944,-0.02725710905251505,-0.019322894513607025,-0.03844401240348816,0.09348499774932861
338,5,0.00015240570064634085,-0.0001060977010638453,0.0007315481780096889,-0.01572634093463421,-0.011286480352282524,-0.015170229598879814,-0.03376225754618645,-0.008037894032895565,0.052109863609075546,0.2781158983707428,-0.009383055381476879,0.016931235790252686,0.0,0.0,0.0,-0.013690450228750706,0.004598153755068779,-0.0,0.0,0.0,0.0,-4.586799695971422e-05,-0.0007217573584057391,0.002187698846682906,39779.0,4838.0,41044.0,1960.0,0.1693516969680786,0.01380709558725357,0.17682558298110962,0.0053684040904045105,0.0,0.0,0.0,0.0,40069.0,3279.0,40717.0,3454.0,0.3643958866596222,-0.04788229615277929,0.031948634942635064,-0.030869717689655282,0.060048747807741165,0.045919112861156464,0.07658267766237259
343,5,0.00011656457354547456,-8.343657827936113e-05,0.0007707954500801861,-0.009735659696161747,-0.006558501627296209,-0.010045687668025494,-0.03376225754618645,-0.008037894032895565,0.052109863609075546,0.2781158983707428,-0.009383055381476879,0.016931235790252686,0.0,0.0,0.0,0.009645212441682816,-0.008599257096648216,-0.0,0.0,0.0,0.0,-4.586799695971422e-05,-0.0007217573584057391,0.002187698846682906,39779.0,4838.0,41044.0,1960.0,0.1693516969680786,0.01380709558725357,0.17682558298110962,0.0053684040904045105,0.0,0.0,0.0,0.0,40069.0,3279.0,40717.0,3454.0,0.36438828706741333,-0.046172574856623676,0.03400159842326813,-0.03046843611873931,0.03626463562250137,0.027117790654301643,0.06399436295032501
348,5,0.00011656457354547456,-8.343657827936113e-05,0.0007707954500801861,-0.009735659696161747,-0.006558501627296209,-0.010045687668025494,-0.030117489397525787,-0.008051046170294285,0.05224400386214256,0.3099152147769928,0.009346229955554008,0.012688829563558102,0.0,0.0,0.0,0.009634028188884258,-0.0085890032351017,-0.0,0.0,0.0,0.0,0.00013184576528146863,0.00016805330233182758,0.002197394147515297,40553.0,2803.0,40438.0,3515.0,0.17390866577625275,0.007771775126457214,0.1732306182384491,0.0098438560962677,0.0,0.0,0.0,0.0,41119.0,1544.0,40103.0,4120.0,0.3645418882369995,-0.046172574856623676,0.03400159842326813,-0.03046843611873931,0.036236658692359924,0.02709776721894741,0.06630675494670868
353,5,8.40392240206711e-05,2.414119308014051e-06,0.0007287235930562019,-0.0016273596556857228,-0.012090897187590599,-0.030947262421250343,-0.030117489397525787,-0.008051046170294285,0.05224400386214256,0.3099152147769928,0.009346229955554008,0.012688829563558102,0.0,0.0,0.0,0.009627028368413448,-0.008582483045756817,-0.0,0.0,0.0,0.0,0.00013184576528146863,0.00016805330233182758,0.002197394147515297,40553.0,2803.0,40438.0,3515.0,0.17390866577625275,0.007771775126457214,0.1732306182384491,0.0098438560962677,0.0,0.0,0.0,0.0,41119.0,1544.0,40103.0,4120.0,0.36454182863235474,-0.04446789257304358,0.03887428955518518,-0.029015963161885212,0.036209382116794586,0.02707824297249317,0.06856133043766022
358,5,0.00012238623457960784,-0.00017465274140704423,7.2598577389726415e-06,0.004880373366177082,0.021162090823054314,0.09172074496746063,-0.030117489397525787,-0.008051046170294285,0.05224400386214256,0.3099152147769928,0.009346229955554008,0.012688829563558102,0.0,0.0,0.0,-0.029986169189214706,0.005288181360810995,-0.0,0.0,0.0,0.0,0.00013184576528146863,0.00016805330233182758,0.002197394147515297,40553.0,2803.0,40438.0,3515.0,0.17390866577625275,0.007771775126457214,0.1732306182384491,0.0098438560962677,0.0,0.0,0.0,0.0,41119.0,1544.0,40103.0,4120.0,0.36468055844306946,-0.05185611724608668,0.029549787878505176,-0.01618120251524475,-0.022310428321361542,-0.08435118198394775,-0.24596822261810303
363,5,-0.00022228076704777777,-0.0003929335798602551,0.00024827956804074347,-0.0467892661690712,0.036907944828271866,-0.006226537749171257,-0.027353495359420776,-0.008119100704789162,0.05250457301735878,0.319530189037323,0.007095317356288433,0.033532168716192245,0.0,0.0,0.0,-0.02997628226876259,0.005290695931762457,-0.0,0.0,0.0,0.0,-5.691109981853515e-05,0.0004973336472176015,0.0022773887030780315,41461.0,1200.0,40335.0,3288.0,0.1793157309293747,0.003249615430831909,0.17261850833892822,0.009180769324302673,0.0,0.0,0.0,0.0,41467.0,1352.0,40256.0,3293.0,0.3649790585041046,-0.07181310425986681,0.039485877706782295,-0.01855303509397331,0.1864076852798462,-0.14868628978729248,0.05151655152440071
368,5,-2.2177842765813693e-05,-1.7442149328417145e-05,0.0002048986207228154,0.013977629132568836,-0.04149641841650009,0.004205373581498861,-0.027353495359420776,-0.008119100704789162,0.05250457301735878,0.319530189037323,0.007095317356288433,0.033532168716192245,0.0,0.0,0.0,0.05932159349322319,0.01368950866162777,-0.0,0.0,0.0,0.0,-5.691109981853515e-05,0.0004973336472176015,0.0022773887030780315,41461.0,1200.0,40335.0,3288.0,0.1793157309293747,0.003249615430831909,0.17261850833892822,0.009180769324302673,0.0,0.0,0.0,0.0,41467.0,1352.0,40256.0,3293.0,0.36548706889152527,-0.05394797483567478,0.03034537704538542,-0.020727294832916427,-0.05780533701181412,0.1670866310596466,0.020344892516732216
373,5,-0.0002794733736664057,-0.0003053481341339648,6.579706678166986e-05,-0.03182808309793472,0.027857914566993713,0.020735828205943108,-0.023841070011258125,-0.00820818543434143,0.052827801555395126,0.24555730819702148,0.004229619167745113,0.02802136540412903,0.0,0.0,0.0,-0.03974318876862526,-0.030030863359570503,-0.0,0.0,0.0,0.0,-0.00040615422767587006,0.000347125343978405,0.0022489370312541723,40300.0,0.0,41711.0,3996.0,0.17241284251213074,-0.0001075640320777893,0.18081283569335938,0.011270157992839813,0.0,0.0,0.0,0.0,40218.0,0.0,41806.0,4172.0,0.36563363671302795,-0.06624110162262208,0.030118522717370037,-0.015452580481215504,0.12696729600429535,-0.11206304281949997,-0.0307012852281332
378,5,-0.0005721882334910333,-0.000675394490826875,0.00015881549916230142,-0.05052850395441055,0.06016386300325394,-0.006801832467317581,-0.023841070011258125,-0.00820818543434143,0.052827801555395126,0.24555730819702148,0.004229619167745113,0.02802136540412903,0.0,0.0,0.0,-0.08129479736089706,-0.04535916820168495,-0.0,0.0,0.0,0.0,-0.00040615422767587006,0.000347125343978405,0.0022489370312541723,40300.0,0.0,41711.0,3996.0,0.17241284251213074,-0.0001075640320777893,0.18081283569335938,0.011270157992839813,0.0,0.0,0.0,0.0,40218.0,0.0,41806.0,4172.0,0.3892231285572052,-0.07774983685782227,0.04223558840914767,-0.009353280619859317,0.2035946398973465,-0.2435830980539322,0.05351230502128601
384,5,-0.0003144503862131387,-0.000350109301507473,5.357351619750261e-05,0.020924746990203857,-0.0274907685816288,0.012693327851593494,-0.022234618663787842,-0.008016010746359825,0.052910782396793365,0.1750323623418808,-0.026564767584204674,-0.026605283841490746,0.0,0.0,0.0,0.03859490901231766,0.01977800950407982,-0.0,0.0,0.0,0.0,0.002604603534564376,0.00046804422163404524,0.0023080874234437943,39014.0,0.0,43323.0,7968.0,0.16489636898040771,-0.01376112550497055,0.19060993194580078,0.023741863667964935,0.0,0.0,0.0,0.0,41428.0,2860.0,40025.0,2476.0,0.3656189739704132,-0.0713168013120951,0.030883898865039085,-0.0152778380405087,-0.08362621068954468,0.10882364213466644,-0.006072680931538343
389,5,-0.00023858703207224607,-5.076028173789382e-05,0.00016929158300627023,0.016898291185498238,-0.05015609413385391,-0.012392531149089336,-0.022234618663787842,-0.008016010746359825,0.052910782396793365,0.1750323623418808,-0.026564767584204674,-0.026605283841490746,0.0,0.0,0.0,0.07132107764482498,0.016058627516031265,-0.0,0.0,0.0,0.0,0.002604603534564376,0.00046804422163404524,0.0023080874234437943,39014.0,0.0,43323.0,7968.0,0.16489636898040771,-0.01376112550497055,0.19060993194580078,0.023741863667964935,0.0,0.0,0.0,0.0,41428.0,2860.0,40025.0,2476.0,0.36625346541404724,-0.05802378685131514,0.029626101631508167,-0.01827327192987684,-0.0678967833518982,0.2011946141719818,0.07109810411930084
394,5,-0.0003079106973018497,-0.00013522585504688323,0.0001373817794956267,-0.004635825287550688,-0.0032216478139162064,0.0007496140315197408,-0.020268244668841362,-0.007501725107431412,0.052916668355464935,0.13875921070575714,-0.05856926739215851,0.014358988963067532,0.0,0.0,0.0,0.0045901210978627205,-0.004426268395036459,-0.0,0.0,0.0,0.0,-0.0019387917127460241,-0.0014877340290695429,0.002297911560162902,42525.0,10557.0,41752.0,0.0,0.1857355833053589,0.03255359083414078,0.18106195330619812,-0.010109446942806244,0.0,0.0,0.0,0.0,38928.0,0.0,43377.0,8136.0,0.3652894198894501,-0.06633408844788674,0.031500094876754495,-0.015916394563320217,0.01871350221335888,0.012937578372657299,0.03170432895421982
399,5,-0.0003025266923941672,1.1272670235484838e-05,0.000225349998800084,-0.0006369857583194971,-0.02147628739476204,-0.012090667150914669,-0.020268244668841362,-0.007501725107431412,0.052916668355464935,0.13875921070575714,-0.05856926739215851,0.014358988963067532,0.0,0.0,0.0,0.030792880803346634,-0.0006529001984745264,-0.0,0.0,0.0,0.0,-0.0019387917127460241,-0.0014877340290695429,0.002297911560162902,42525.0,10557.0,41752.0,0.0,0.1857355833053589,0.03255359083414078,0.18106195330619812,-0.010109446942806244,0.0,0.0,0.0,0.0,38928.0,0.0,43377.0,8136.0,0.36545529961586,-0.0611170762529566,0.03356700218643103,-0.019327629501082664,0.0027609372045844793,0.08680301159620285,0.07197030633687973
404,5,0.0002082449645968154,0.00034132186556234956,5.805246837553568e-05,0.07131693512201309,-0.05264977365732193,0.01979445479810238,-0.018403079360723495,-0.006110436748713255,0.05297220125794411,0.09310042858123779,-0.08446056395769119,-0.0018901482690125704,0.0,0.0,0.0,0.06955653429031372,0.06265407800674438,-0.0,0.0,0.0,0.0,0.0030337676871567965,0.00033219490433111787,0.0023324182257056236,38550.0,0.0,44038.0,8399.0,0.16221725940704346,-0.016154862940311432,0.19502148032188416,0.025169484317302704,0.0,0.0,0.0,0.0,42675.0,10368.0,41836.0,0.0,0.3984423279762268,-0.044726482866540115,0.004377804112975148,-0.035475591655287915,-0.28804880380630493,0.21348127722740173,-0.025531018152832985
409,5,0.0003739030216820538,0.0003644545213319361,-8.437534415861592e-05,0.044587209820747375,-0.01903350092470646,0.02587823010981083,-0.018403079360723495,-0.006110436748713255,0.05297220125794411,0.09310042858123779,-0.08446056395769119,-0.0018901482690125704,0.0,0.0,0.0,0.028078844770789146,0.04305555671453476,-0.0,0.0,0.0,0.0,0.0030337676871567965,0.00033219490433111787,0.0023324182257056236,38550.0,0.0,44038.0,8399.0,0.16221725940704346,-0.016154862940311432,0.19502148032188416,0.025169484317302704,0.0,0.0,0.0,0.0,42675.0,10368.0,41836.0,0.0,0.3658286929130554,-0.042946987665590096,-0.0045782413819385566,-0.04000978853729821,-0.18217533826828003,0.07923835515975952,-0.04574882239103317
414,5,0.0002032979391515255,0.00027344064437784255,0.00010384961206000298,-0.010508549399673939,0.007031891029328108,-0.018588025122880936,-0.017697690054774284,-0.005431351251900196,0.05300450697541237,0.09224779158830643,-0.11721540987491608,0.009958447888493538,0.0,0.0,0.0,-0.00903736986219883,-0.0092550590634346,-0.0,0.0,0.0,0.0,0.0016974686877802014,-0.000255109480349347,0.0023607839830219746,39459.0,0.0,43546.0,4057.0,0.16748444736003876,-0.005461454391479492,0.19198095798492432,0.011451378464698792,0.0,0.0,0.0,0.0,38570.0,0.0,44074.0,8457.0,0.3654131591320038,-0.04622559760069498,0.009095213705852983,-0.038185409878719836,0.03914003446698189,-0.025480002164840698,0.0902232751250267
419,5,9.335145296063274e-05,0.00020570811466313899,0.0002186712808907032,-0.01854507252573967,0.011592119932174683,-0.021651441231369972,-0.017697690054774284,-0.005431351251900196,0.05300450697541237,0.09224779158830643,-0.11721540987491608,0.009958447888493538,0.0,0.0,0.0,-0.015625953674316406,-0.01699960045516491,-0.0,0.0,0.0,0.0,0.0016974686877802014,-0.000255109480349347,0.0023607839830219746,39459.0,0.0,43546.0,4057.0,0.16748444736003876,-0.005461454391479492,0.19198095798492432,0.011451378464698792,0.0,0.0,0.0,0.0,38570.0,0.0,44074.0,8457.0,0.3654800057411194,-0.049633511951458736,0.014975222286647757,-0.036079150776756296,0.07189745455980301,-0.04406195878982544,0.10145314037799835
424,5,0.00016802623576950282,0.0001722063752822578,0.00020545221923384815,0.004890946671366692,0.008167879655957222,-0.00464476365596056,-0.01667744293808937,-0.004118205513805151,0.053027860820293427,0.0781199187040329,-0.10115490108728409,-0.00912412442266941,0.0,0.0,0.0,-0.010824273340404034,0.005277049262076616,-0.0,0.0,0.0,0.0,0.0017445507692173123,-0.0003857336996588856,0.0023605749011039734,40922.0,0.0,42109.0,6797.0,0.1760951578617096,-0.01341361552476883,0.18321391940116882,0.019933752715587616,0.0,0.0,0.0,0.0,40876.0,0.0,42078.0,6689.0,0.3654358386993408,-0.054648572275440746,0.019939866731983207,-0.04153156868649957,-0.02231699973344803,-0.030517593026161194,0.05087924003601074
429,5,0.0001252780930371955,0.0001599779207026586,0.0003011113149113953,-0.0045174541883170605,0.0041623469442129135,-0.01478570420295,-0.01667744293808937,-0.004118205513805151,0.053027860820293427,0.0781199187040329,-0.10115490108728409,-0.00912412442266941,0.0,0.0,0.0,-0.005152678582817316,-0.003672841005027294,-0.0,0.0,0.0,0.0,0.0017445507692173123,-0.0003857336996588856,0.0023605749011039734,40922.0,0.0,42109.0,6797.0,0.1760951578617096,-0.01341361552476883,0.18321391940116882,0.019933752715587616,0.0,0.0,0.0,0.0,40876.0,0.0,42078.0,6689.0,0.36541664600372314,-0.05693403355853767,0.0236351830723753,-0.04105311954639975,0.015533273108303547,-0.014527897350490093,0.0833529531955719
434,5,0.00046545578516088426,0.000264557107584551,-1.1457067557785194e-05,0.04626964032649994,-0.013392381370067596,0.03932386264204979,-0.01667744293808937,-0.004118205513805151,0.053027860820293427,0.0781199187040329,-0.10115490108728409,-0.00912412442266941,0.0,0.0,0.0,0.019966885447502136,0.04482073336839676,-0.0,0.0,0.0,0.0,0.0017445507692173123,-0.0003857336996588856,0.0023605749011039734,40922.0,0.0,42109.0,6797.0,0.1760951578617096,-0.01341361552476883,0.18321391940116882,0.019933752715587616,0.0,0.0,0.0,0.0,40876.0,0.0,42078.0,6689.0,0.3658496141433716,-0.03999556538640231,-0.004197551751052219,-0.0459208026356529,-0.18968623876571655,0.05635688453912735,-0.08276094496250153
439,5,5.310687811288517e-06,-3.988596654380672e-05,0.0008137573022395372,-0.050539422780275345,0.038604315370321274,-0.10373285412788391,-0.015810269862413406,-0.003235365031287074,0.052961189299821854,0.13154761493206024,-0.1045311838388443,-0.010855981148779392,0.0,0.0,0.0,-0.053219567984342575,-0.046341877430677414,-0.0,0.0,0.0,0.0,0.0014944220893085003,0.0010989329311996698,0.002389900153502822,40726.0,2619.0,42595.0,0.0,0.17493285238742828,0.007241740822792053,0.18615953624248505,-0.0028542429208755493,0.0,0.0,0.0,0.0,40661.0,2809.0,42371.0,0.0,0.3739134967327118,-0.03189621704627616,0.019483589840192782,-0.035533080984774396,0.200198233127594,-0.15339261293411255,0.3587731122970581
444,5,-0.0004334408731665462,-0.00021222957002464682,0.0006541084730997682,-0.07658704370260239,0.03570939972996712,-0.008769013918936253,-0.015810269862413406,-0.003235365031287074,0.052961189299821854,0.13154761493206024,-0.1045311838388443,-0.010855981148779392,0.0,0.0,0.0,-0.047076091170310974,-0.0675223097205162,-0.0,0.0,0.0,0.0,0.0014944220893085003,0.0010989329311996698,0.002389900153502822,40726.0,2619.0,42595.0,0.0,0.17493285238742828,0.007241740822792053,0.18615953624248505,-0.0028542429208755493,0.0,0.0,0.0,0.0,40661.0,2809.0,42371.0,0.0,0.3935914933681488,-0.05197145474946856,0.028515797942148452,-0.025291084144295237,0.3070216476917267,-0.14285767078399658,0.07402186840772629
449,5,-0.0002763020747806877,-0.00011889517190866172,0.0009140214533545077,-0.0009766813600435853,-0.0023539960384368896,-0.039018526673316956,-0.014382312074303627,-0.0021064404863864183,0.05250291898846626,0.11116824299097061,-0.08414118736982346,-0.05859764665365219,0.0,0.0,0.0,0.0035184018779546022,-0.0008866421994753182,-0.0,0.0,0.0,0.0,6.468243373092264e-05,-0.0008790204301476479,0.0023248251527547836,40297.0,3387.0,42157.0,41.0,0.17239488661289215,0.009469777345657349,0.18350519239902496,0.0001100301742553711,0.0,0.0,0.0,0.0,41105.0,0.0,41251.0,6826.0,0.3648104667663574,-0.038026668587546664,0.03889700943045608,-0.03310855090884374,0.003743684384971857,0.009903891012072563,0.1706869751214981
454,5,-0.00036244848161004484,-0.00010637289960868657,0.0010389721719548106,-0.012353500351309776,-0.0024593176785856485,-0.0291986595839262,-0.014382312074303627,-0.0021064404863864183,0.05250291898846626,0.11116824299097061,-0.08414118736982346,-0.05859764665365219,0.0,0.0,0.0,0.003684364492073655,-0.011802015826106071,-0.0,0.0,0.0,0.0,6.468243373092264e-05,-0.0008790204301476479,0.0023248251527547836,40297.0,3387.0,42157.0,41.0,0.17239488661289215,0.009469777345657349,0.18350519239902496,0.0001100301742553711,0.0,0.0,0.0,0.0,41105.0,0.0,41251.0,6826.0,0.3648359775543213,-0.037677844578228724,0.045016605809165416,-0.029793794129417465,0.049834877252578735,0.010371563956141472,0.1458696722984314
460,5,6.239256617845967e-05,-1.530645022285171e-05,0.000401280471123755,0.05577169731259346,-0.013487097807228565,0.0805172473192215,-0.013889905996620655,-0.001359654706902802,0.052017077803611755,0.02149425819516182,-0.08651242405176163,-0.06567179411649704,0.0,0.0,0.0,0.019320733845233917,0.05274690315127373,-0.0,0.0,0.0,0.0,0.0013703268487006426,0.0011990629136562347,0.002308949362486601,40991.0,0.0,41386.0,7134.0,0.17650805413722992,-0.010538041591644287,0.178862527012825,0.021017134189605713,0.0,0.0,0.0,0.0,40557.0,10337.0,44034.0,0.0,0.36900219321250916,-0.018690163365824908,0.032171091689566576,-0.020702799712262528,-0.22512821853160858,0.05500349402427673,-0.1897064447402954
