timestamp,dt,pos_x,pos_y,pos_z,vel_x,vel_y,vel_z,roll,pitch,yaw,agv_x,agv_y,agv_z,x_ref,y_ref,z_ref,roll_ref,pitch_ref,yaw_ref,x_vel_ref,y_vel_ref,z_vel_ref,x_torque,y_torque,z_torque,w0,w1,w2,w3,u0,u1,u2,u3,m0req,m1req,m2req,m3req,thrust0,thrust1,thrust2,thrust3,thrust_ref,roll_vicon,pitch_vicon,yaw_vicon,acc_x,acc_y,acc_z
5,5,0.0,0.0,0.0,0.005385538097470999,-0.04405511915683746,-0.03191012889146805,-0.03560061380267143,0.11195583641529083,-0.03937050327658653,0.0007951321895234287,0.0034330328926444054,-0.005190905183553696,0.0,0.0,0.0,0.06405345350503922,0.005223361309617758,-0.0,0.0,0.0,0.0,0.0011727373348549008,-0.003701710607856512,-0.0011906069703400135,0.0,0.0,0.0,0.0,0.0,0.0,0.0,0.0,0.0,0.0,0.0,0.0,0.0,0.0,0.0,0.0,0.3570641577243805,-0.9623190310782811,0.9293743145220847,0.8408383558242739,-0.021542152389883995,0.17622047662734985,0.09573038667440414
26,21,0.0,0.0,0.0,0.0009195950697176158,0.042999517172575,0.029686136171221733,-0.03560061380267143,0.11195583641529083,-0.03937050327658653,0.0007951321895234287,0.0034330328926444054,-0.005190905183553696,0.0,0.0,0.0,-0.06273683905601501,0.0008949892944656312,-0.0,0.0,0.0,0.0,0.0011727373348549008,-0.003701710607856512,-0.0011906069703400135,0.0,0.0,0.0,0.0,0.0,0.0,0.0,0.0,0.0,0.0,0.0,0.0,0.0,0.0,0.0,0.0,0.3558015525341034,-0.9656642795228066,0.9260433851214042,0.8479856081997578,-0.0036783802788704634,-0.1719980686903,-0.08905840665102005
31,5,0.0,0.0,0.0,0.0009195950697176158,0.042999517172575,0.029686136171221733,-0.035498082637786865,0.11187513917684555,-0.039455704391002655,0.00030388004961423576,0.0082303611561656,-0.011691826395690441,0.0,0.0,0.0,-0.06273683905601501,0.0008949892944656312,-0.0,0.0,0.0,0.0,0.003273285925388336,-0.003452444914728403,-0.001218313118442893,0.0,0.0,0.0,0.0,0.0,0.0,0.0,0.0,0.0,0.0,0.0,0.0,0.0,0.0,0.0,0.0,0.3558015525341034,-0.9656642795228066,0.9260433851214042,0.8479856081997578,-0.0036783802788704634,-0.1719980686903,-0.08905840665102005
37,6,0.0,0.0,0.0,-0.00044946858542971313,0.02150014042854309,0.005465717054903507,-0.03546680882573128,0.11182602494955063,-0.03960131108760834,0.0008307429379783571,0.012983283959329128,-0.016475267708301544,0.0,0.0,0.0,-0.03183719515800476,-0.0004437790485098958,-0.0,0.0,0.0,0.0,0.003273285925388336,-0.003452444914728403,-0.001218313118442893,0.0,0.0,0.0,0.0,0.0,0.0,0.0,0.0,0.0,0.0,0.0,0.0,0.0,0.0,0.0,0.0,0.3502082824707031,-0.9787250162429227,0.9218574141696002,0.839446316644306,0.0017978743417188525,-0.08600056171417236,-0.016397152096033096
42,5,0.0,0.0,0.0,-0.002375526586547494,0.05514858290553093,0.027724342420697212,-0.03546680882573128,0.11182602494955063,-0.03960131108760834,0.0008307429379783571,0.012983283959329128,-0.016475267708301544,0.0,0.0,0.0,-0.07804617285728455,-0.0022432536352425814,-0.0,0.0,0.0,0.0,0.003273285925388336,-0.003452444914728403,-0.001218313118442893,0.0,0.0,0.0,0.0,0.0,0.0,0.0,0.0,0.0,0.0,0.0,0.0,0.0,0.0,0.0,0.0,0.3670959770679474,-0.9879224338279956,0.9168683996936012,0.8433089470672352,0.009502106346189976,-0.22059433162212372,-0.08317302912473679
47,5,-3.4844651963794604e-06,-0.00041230476927012205,-0.0002644564083311707,-0.0012004830641672015,0.07426724582910538,0.04534119740128517,-0.03546680882573128,0.11182602494955063,-0.03960131108760834,0.0008307429379783571,0.012983283959329128,-0.016475267708301544,0.0,0.0,0.0,-0.1010725125670433,-0.0010864640353247523,-0.0,0.0,0.0,0.0,0.003273285925388336,-0.003452444914728403,-0.001218313118442893,0.0,0.0,0.0,0.0,0.0,0.0,0.0,0.0,0.0,0.0,0.0,0.0,0.0,0.0,0.0,0.0,0.3855269253253937,-0.9986680343248471,0.9109432866132958,0.8379344271118677,0.0048231943510472775,-0.29958486557006836,-0.14032761752605438
52,5,-7.723226190137211e-06,-0.0009064949699677527,-0.0005879849195480347,-0.0009535715216770768,0.09146680682897568,0.058896347880363464,-0.03546680882573128,0.11182602494955063,-0.03960131108760834,0.0008307429379783571,0.012983283959329128,-0.016475267708301544,0.0,0.0,0.0,-0.12020629644393921,-0.0008349685231223702,-0.0,0.0,0.0,0.0,0.003273285925388336,-0.003452444914728403,-0.001218313118442893,0.0,0.0,0.0,0.0,0.0,0.0,0.0,0.0,0.0,0.0,0.0,0.0,0.0,0.0,0.0,0.0,0.4024798572063446,-1.0113571663180452,0.9082587008916079,0.8358162168022815,0.0038614924997091293,-0.3714087903499603,-0.1863315850496292
57,5,-1.0380572348367423e-05,-0.0010814927518367767,-0.0007649831240996718,-0.0006580998306162655,0.051939722150564194,0.042448658496141434,-0.03540700301527977,0.11155494302511215,-0.03963588923215866,0.004173662047833204,0.015473546460270882,0.023616965860128403,0.0,0.0,0.0,-0.07626119256019592,-0.00063956348458305,-0.0,0.0,0.0,0.0,-0.0009075127309188247,-0.003561651799827814,-0.001200159196741879,9340.0,38279.0,18051.0,27949.0,0.028343774378299713,0.16065943241119385,0.06109342724084854,0.1057049036026001,0.0,0.0,0.0,0.0,10335.0,37655.0,19099.0,27081.0,0.36569449305534363,-1.0191438094117466,0.9046110701885747,0.8345059677549805,0.0026991532649844885,-0.2147492617368698,-0.14301690459251404
62,5,-7.877590178395621e-06,-0.001394212362356484,-0.0008743053767830133,0.00015298754442483187,0.05936267226934433,0.028039712458848953,-0.03540700301527977,0.11155494302511215,-0.03963588923215866,0.004173662047833204,0.015473546460270882,0.023616965860128403,0.0,0.0,0.0,-0.08581516146659851,0.00013008617679588497,-0.0,0.0,0.0,0.0,-0.0009075127309188247,-0.003561651799827814,-0.001200159196741879,9340.0,38279.0,18051.0,27949.0,0.028343774378299713,0.16065943241119385,0.06109342724084854,0.1057049036026001,0.0,0.0,0.0,0.0,10335.0,37655.0,19099.0,27081.0,0.3730565309524536,-1.0223021157200476,0.9043464944283277,0.8370340289961804,-0.0005596170667558908,-0.2463807314634323,-0.10198725014925003
67,5,-1.9303406588733196e-05,-0.0015557148726657033,-0.0009799838298931718,-0.0015537181170657277,0.04041914641857147,0.02320689707994461,-0.03555508702993393,0.11097743362188339,-0.03884884715080261,0.0169967208057642,0.044272199273109436,0.027894333004951477,0.0,0.0,0.0,-0.06270632147789001,-0.0015420392155647278,-0.0,0.0,0.0,0.0,-0.002827906748279929,-0.0037250861059874296,-0.0011370007414370775,15976.0,42098.0,18499.0,27528.0,0.052741046994924545,0.1831461638212204,0.06294411420822144,0.10365109890699387,0.0,0.0,0.0,0.0,6738.0,37075.0,19270.0,28882.0,0.3557995855808258,-1.028007633333836,0.9029198627863196,0.8370170538151723,0.0063377125188708305,-0.17191368341445923,-0.09172403812408447
72,5,1.5038032870506868e-05,-0.0017086021834984422,-0.0010657988023012877,0.0043416861444711685,0.033529963344335556,0.01897616498172283,-0.03555508702993393,0.11097743362188339,-0.03884884715080261,0.0169967208057642,0.044272199273109436,0.027894333004951477,0.0,0.0,0.0,-0.053978513926267624,0.004313976503908634,-0.0,0.0,0.0,0.0,-0.002827906748279929,-0.0037250861059874296,-0.0011370007414370775,15976.0,42098.0,18499.0,27528.0,0.052741046994924545,0.1831461638212204,0.06294411420822144,0.10365109890699387,0.0,0.0,0.0,0.0,6738.0,37075.0,19270.0,28882.0,0.3499511182308197,-1.0269224106975072,0.8976782778139825,0.8392278892101274,-0.017447685822844505,-0.14560893177986145,-0.08294730633497238
77,5,-1.8396322047919966e-06,-0.0017861780943349004,-0.0010634881909936666,-0.0010603672126308084,0.020919620990753174,0.005369366612285376,-0.03555508702993393,0.11097743362188339,-0.03884884715080261,0.0169967208057642,0.044272199273109436,0.027894333004951477,0.0,0.0,0.0,-0.03567667305469513,-0.001054013380780816,-0.0,0.0,0.0,0.0,-0.002827906748279929,-0.0037250861059874296,-0.0011370007414370775,15976.0,42098.0,18499.0,27528.0,0.052741046994924545,0.1831461638212204,0.06294411420822144,0.10365109890699387,0.0,0.0,0.0,0.0,15047.0,42623.0,17724.0,28271.0,0.34939146041870117,-1.032073891024664,0.8988953361693639,0.8398841947617043,0.004259597044438124,-0.0961420089006424,-0.04597866162657738
83,5,-5.381042683438864e-06,-0.0018772624898701906,-0.001153358374722302,-0.0008139076526276767,0.01902770809829235,0.014192632399499416,-0.03555508702993393,0.11097743362188339,-0.03884884715080261,0.0169967208057642,0.044272199273109436,0.027894333004951477,0.0,0.0,0.0,-0.033153146505355835,-0.0008153935777954757,-0.0,0.0,0.0,0.0,-0.002827906748279929,-0.0037250861059874296,-0.0011370007414370775,15976.0,42098.0,18499.0,27528.0,0.052741046994924545,0.1831461638212204,0.06294411420822144,0.10365109890699387,0.0,0.0,0.0,0.0,15047.0,42623.0,17724.0,28271.0,0.34936103224754333,-1.0357088205298892,0.8950835164401632,0.8401368930560037,0.0032952672336250544,-0.08933968842029572,-0.07542956620454788
88,5,-1.1985351193288807e-05,-0.0018476188415661454,-0.001127223134972155,-0.0011687754886224866,0.0015581883490085602,0.0005988614866510034,-0.035604704171419144,0.11055806279182434,-0.03897019475698471,-0.01677478849887848,0.048178188502788544,0.008351929485797882,0.0,0.0,0.0,-0.007317497394979,-0.0011762948706746101,-0.0,0.0,0.0,0.0,-0.0016798023134469986,-0.0035648983903229237,-0.0012809311738237739,7990.0,37960.0,16878.0,29014.0,0.02381257340312004,0.15883466601371765,0.056330543011426926,0.11097332835197449,0.0,0.0,0.0,0.0,11109.0,40301.0,17759.0,28060.0,0.3493175208568573,-1.035751053556394,0.8984623670024352,0.8387707235129905,0.0047556874342262745,-0.019726548343896866,-0.037656016647815704
93,5,-4.926278052153066e-05,-0.0018338295631110668,-0.0011270168470218778,-0.005569472908973694,-0.0014630277873948216,0.00015077463467605412,-0.035604704171419144,0.11055806279182434,-0.03897019475698471,-0.01677478849887848,0.048178188502788544,0.008351929485797882,0.0,0.0,0.0,-0.0029689455404877663,-0.005586334969848394,-0.0,0.0,0.0,0.0,-0.0016798023134469986,-0.0035648983903229237,-0.0012809311738237739,7990.0,37960.0,16878.0,29014.0,0.02381257340312004,0.15883466601371765,0.056330543011426926,0.11097332835197449,0.0,0.0,0.0,0.0,11109.0,40301.0,17759.0,28060.0,0.3493148982524872,-1.0354414381127757,0.9028872960990225,0.8368755850721094,0.022585414350032806,-0.008005933836102486,-0.03971848636865616
98,5,-0.7356400489807129,1.6304874420166016,-0.42616021633148193,-0.005569472908973694,-0.0014630277873948216,0.00015077463467605412,-0.03578094393014908,0.10876791924238205,-0.03908790275454521,-0.015886839479207993,0.18326833844184875,0.013302382081747055,0.0,0.0,0.0,0.9374605417251587,-0.46627163887023926,-0.0,0.0,0.0,0.0,-0.0006275192718021572,-0.002864730078727007,-0.001226581633090973,7724.0,36549.0,17975.0,29773.0,0.022939778864383698,0.15085703134536743,0.060780398547649384,0.11478456109762192,0.0,0.0,0.0,0.0,7060.0,36993.0,16201.0,31108.0,1.4429454803466797,-0.09584186001543409,-0.09735544613130269,-0.10941352727411259,4.443497657775879,9.8018159866333,-6.471642017364502
103,5,-0.7355578541755676,1.6304512023925781,-0.42607951164245605,0.009839223697781563,0.00463506206870079,-0.011255130171775818,-0.03578094393014908,0.10876791924238205,-0.03908790275454521,-0.015886839479207993,0.18326833844184875,0.013302382081747055,0.0,0.0,0.0,0.9437252283096313,-0.477994441986084,-0.0,0.0,0.0,0.0,-0.0006275192718021572,-0.002864730078727007,-0.001226581633090973,7724.0,36549.0,17975.0,29773.0,0.022939778864383698,0.15085703134536743,0.060780398547649384,0.11478456109762192,0.0,0.0,0.0,0.0,7060.0,36993.0,16201.0,31108.0,1.4641304016113281,-0.09561182735702332,-0.09527027010174319,-0.10824637633132772,4.573990345001221,9.964166641235352,-7.949072360992432
108,5,-0.7355125546455383,1.6305232048034668,-0.4260594844818115,0.009291345253586769,-0.008691384457051754,-0.006178302224725485,-0.035757988691329956,0.10579676926136017,-0.03944872319698334,0.02078314684331417,0.3135984241962433,-0.00940865371376276,0.0,0.0,0.0,0.9468991160392761,-0.478165864944458,-0.0,0.0,0.0,0.0,4.451875065569766e-05,-0.002550985896959901,-0.0013154958141967654,5560.0,35752.0,17922.0,32012.0,0.016028687357902527,0.14642618596553802,0.06056436896324158,0.12629574537277222,0.0,0.0,0.0,0.0,6889.0,35001.0,17359.0,32437.0,1.4707094430923462,-0.09765024463669775,-0.09558503219430298,-0.11092681983659894,4.5759100914001465,10.017905235290527,-8.872357368469238
113,5,-0.7355109453201294,1.6304950714111328,-0.4260422885417938,0.0030112757813185453,0.0013424487551674247,-0.004262254573404789,-0.035757988691329956,0.10579676926136017,-0.03944872319698334,0.02078314684331417,0.3135984241962433,-0.00940865371376276,0.0,0.0,0.0,0.9437821507453918,-0.48040512204170227,-0.0,0.0,0.0,0.0,4.451875065569766e-05,-0.002550985896959901,-0.0013154958141967654,5560.0,35752.0,17922.0,32012.0,0.016028687357902527,0.14642618596553802,0.06056436896324158,0.12629574537277222,0.0,0.0,0.0,0.0,6889.0,35001.0,17359.0,32437.0,1.4660805463790894,-0.09843978521792462,-0.0936610599639452,-0.10924340135701237,4.601020336151123,9.977601051330566,-8.877847671508789
118,5,0.02683194726705551,-0.005084083881229162,0.005236219614744186,0.0030112757813185453,0.0013424487551674247,-0.004262254573404789,-0.03576377406716347,0.10300824791193008,-0.039598241448402405,-0.008284303359687328,0.3900526762008667,0.017361212521791458,0.0,0.0,0.0,0.060073524713516235,-0.006544887088239193,-0.0,0.0,0.0,0.0,0.0010660389671102166,-0.002274910919368267,-0.0013361924793571234,45251.0,65535.0,61303.0,65535.0,0.25677332282066345,0.4143162667751312,0.3787245452404022,0.4143162667751312,0.0,0.0,0.0,0.0,53291.0,73828.0,69366.0,73828.0,0.3544619083404541,3.1022877667438933,-0.8748513605643871,-1.1238103671915913,0.02674855850636959,0.1640850305557251,-2.408146381378174
123,5,0.02653971128165722,-0.005887784995138645,0.004639999475330114,-0.04000969976186752,0.11292090266942978,0.08219210803508759,-0.03576377406716347,0.10300824791193008,-0.039598241448402405,-0.008284303359687328,0.3900526762008667,0.017361212521791458,0.0,0.0,0.0,-0.09456632286310196,-0.04248824715614319,-0.0,0.0,0.0,0.0,0.0010660389671102166,-0.002274910919368267,-0.0013361924793571234,45251.0,65535.0,61303.0,65535.0,0.25677332282066345,0.4143162667751312,0.3787245452404022,0.4143162667751312,0.0,0.0,0.0,0.0,53291.0,73828.0,69366.0,73828.0,0.3963640630245209,3.084312645162684,-0.8775906164684298,-1.1283427224656588,0.19393447041511536,-0.2883198857307434,-2.660295009613037
128,5,0.026283763349056244,-0.006911155767738819,0.0037119246553629637,-0.047835711389780045,0.17714816331863403,0.15458810329437256,-0.03588198125362396,0.09809461981058121,-0.03955547511577606,0.013650793582201004,0.4370465874671936,0.03648298233747482,0.0,0.0,0.0,-0.1586465835571289,-0.04236278682947159,-0.0,0.0,0.0,0.0,0.004999999888241291,-0.004999999888241291,-0.0012948070652782917,45568.0,65535.0,61593.0,65535.0,0.2579919397830963,0.41309764981269836,0.3799431622028351,0.41309764981269836,0.0,0.0,0.0,0.0,52791.0,74343.0,68944.0,74343.0,0.45559555292129517,3.061812708351133,-0.8880717597019157,-1.1244474805959963,0.22051186859607697,-0.5527648329734802,-2.8777856826782227
133,5,-0.7355445027351379,1.6306675672531128,-0.4257441461086273,-0.047835711389780045,0.17714816331863403,0.15458810329437256,-0.03588198125362396,0.09809461981058121,-0.03955547511577606,0.013650793582201004,0.4370465874671936,0.03648298233747482,0.0,0.0,0.0,0.8946530818939209,-0.4973068833351135,-0.0,0.0,0.0,0.0,0.004999999888241291,-0.004999999888241291,-0.0012948070652782917,45568.0,65535.0,61593.0,65535.0,0.2579919397830963,0.41309764981269836,0.3799431622028351,0.41309764981269836,0.0,0.0,0.0,0.0,52791.0,74343.0,68944.0,74343.0,1.3869861364364624,-0.08805797510576562,-0.07593778365449332,-0.10259468972950866,4.792476177215576,9.275412559509277,-9.349926948547363
138,5,-0.7357186079025269,1.630405306816101,-0.4258638322353363,-0.03872385621070862,0.08985233306884766,0.06312867999076843,-0.03572899103164673,0.09392065554857254,-0.04000435397028923,-0.023979343473911285,0.5912566781044006,0.031936150044202805,0.0,0.0,0.0,0.9173465967178345,-0.49526891112327576,-0.0,0.0,0.0,0.0,0.004999999888241291,-0.004999999888241291,-0.0013853489654138684,44865.0,65535.0,60942.0,65535.0,0.2557275593280792,0.41633710265159607,0.377678781747818,0.41633710265159607,0.0,0.0,0.0,0.0,12971.0,40583.0,19119.0,29822.0,1.4261598587036133,-0.09032580288982572,-0.06878219011181065,-0.08114124835751198,4.769207000732422,9.623022079467773,-9.077343940734863
144,5,-0.7353803515434265,1.6310604810714722,-0.4254036545753479,0.03574465960264206,-0.06475990265607834,-0.045483700931072235,-0.03572899103164673,0.09392065554857254,-0.04000435397028923,-0.023979343473911285,0.5912566781044006,0.031936150044202805,0.0,0.0,0.0,0.9633076786994934,-0.4686010479927063,-0.0,0.0,0.0,0.0,0.004999999888241291,-0.004999999888241291,-0.0013853489654138684,44865.0,65535.0,60942.0,65535.0,0.2557275593280792,0.41633710265159607,0.377678781747818,0.41633710265159607,0.0,0.0,0.0,0.0,12971.0,40583.0,19119.0,29822.0,1.4978663921356201,-0.05313739017467302,-0.07724662075900972,-0.07442201946219662,4.469303607940674,10.245402336120605,-8.744604110717773
149,5,-0.7352469563484192,1.6308839321136475,-0.42541947960853577,0.029397638514637947,0.00528663769364357,-0.011429364793002605,-0.03572899103164673,0.09392065554857254,-0.04000435397028923,-0.023979343473911285,0.5912566781044006,0.031936150044202805,0.0,0.0,0.0,0.9459366202354431,-0.47081539034843445,-0.0,0.0,0.0,0.0,0.004999999888241291,-0.004999999888241291,-0.0013853489654138684,44865.0,65535.0,60942.0,65535.0,0.2557275593280792,0.41633710265159607,0.377678781747818,0.41633710265159607,0.0,0.0,0.0,0.0,12971.0,40583.0,19119.0,29822.0,1.4632115364074707,-0.062249891228989634,-0.07664740198980584,-0.0767030542572248,4.49389123916626,9.964157104492188,-8.847003936767578
154,5,-0.0003666275879368186,-0.0004168846062384546,-0.0026937362272292376,0.029397638514637947,0.00528663769364357,-0.011429364793002605,-0.035662394016981125,0.08708513528108597,-0.0397258922457695,0.008723714388906956,0.5689889788627625,-0.015538576059043407,0.0,0.0,0.0,0.06337288022041321,-0.02028333768248558,-0.0,0.0,0.0,0.0,-0.0015919443685561419,-0.002248317701742053,-0.0012988247908651829,12873.0,40865.0,16646.0,31544.0,0.04089028015732765,0.17576098442077637,0.05539761856198311,0.12385676801204681,0.0,0.0,0.0,0.0,49995.0,71946.0,66602.0,71946.0,0.3611554801464081,-1.0710400768891866,0.8910903762680809,0.8491599057030564,0.08460921049118042,0.17635047435760498,-2.506118059158325
159,5,-0.0004107439308427274,-0.0004697162949014455,-0.002744322409853339,0.0026430035941302776,0.00898242462426424,0.0036532850936055183,-0.035662394016981125,0.08708513528108597,-0.0397258922457695,0.008723714388906956,0.5689889788627625,-0.015538576059043407,0.0,0.0,0.0,0.05596796050667763,-0.044464949518442154,-0.0,0.0,0.0,0.0,-0.0015919443685561419,-0.002248317701742053,-0.0012988247908651829,12873.0,40865.0,16646.0,31544.0,0.04089028015732765,0.17576098442077637,0.05539761856198311,0.12385676801204681,0.0,0.0,0.0,0.0,49995.0,71946.0,66602.0,71946.0,0.37357473373413086,-1.0752291810285368,0.89609131084866,0.848284311004623,0.19189244508743286,0.1611510068178177,-2.5521247386932373
164,5,-0.00038093351759016514,-0.0004012074787169695,-0.00269314250908792,0.0049663567915558815,-0.006896506529301405,-0.0060692098923027515,-0.03597167879343033,0.08174266666173935,-0.03984590247273445,-0.023199552670121193,0.7366700768470764,0.07007463276386261,0.0,0.0,0.0,0.07632812112569809,-0.041308220475912094,-0.0,0.0,0.0,0.0,0.004999999888241291,-0.004999999888241291,-0.0013182023540139198,44932.0,65535.0,61415.0,65535.0,0.23838874697685242,0.3942306339740753,0.3603399693965912,0.3942306339740753,0.0,0.0,0.0,0.0,53296.0,73770.0,69370.0,73770.0,0.3827718496322632,-1.0716312169695388,0.8948952025335589,0.8475196701802431,0.18242017924785614,0.22497110068798065,-2.5221896171569824
169,5,-0.00040637102210894227,-0.0005227360525168478,-0.0027056769467890263,-0.002071343595162034,0.01494505163282156,-6.594930891878903e-05,-0.03597167879343033,0.08174266666173935,-0.03984590247273445,-0.023199552670121193,0.7366700768470764,0.07007463276386261,0.0,0.0,0.0,0.047483667731285095,-0.04880312830209732,-0.0,0.0,0.0,0.0,0.004999999888241291,-0.004999999888241291,-0.0013182023540139198,44932.0,65535.0,61415.0,65535.0,0.23838874697685242,0.3942306339740753,0.3603399693965912,0.3942306339740753,0.0,0.0,0.0,0.0,53296.0,73770.0,69370.0,73770.0,0.37362974882125854,-1.0734218990322952,0.8948084102870788,0.848620976284794,0.21072359383106232,0.13678422570228577,-2.5403873920440674
174,5,-0.0004006314557045698,-0.0005671207909472287,-0.0026989278849214315,0.00018213980365544558,0.01069737784564495,-0.0009646567050367594,-0.03668687492609024,0.07315579801797867,-0.04001517966389656,-0.19937926530838013,0.717588484287262,-0.015751173719763756,0.0,0.0,0.0,0.05318005383014679,-0.04665066674351692,-0.0,0.0,0.0,0.0,0.004999999888241291,-0.0021042264997959137,-0.001387080061249435,43777.0,65535.0,59963.0,65535.0,0.2509135901927948,0.41971656680107117,0.37286481261253357,0.41971656680107117,0.0,0.0,0.0,0.0,60.0,32360.0,23575.0,38211.0,0.3741798400878906,-1.0725728232294243,0.8927690987701684,0.8489866221081471,0.20167523622512817,0.15338706970214844,-2.5375900268554688
179,5,-0.0002663088671397418,-0.0006992785492911935,-0.0026302295736968517,0.018859801813960075,0.021711301058530807,-0.009907154366374016,-0.03668687492609024,0.07315579801797867,-0.04001517966389656,-0.19937926530838013,0.717588484287262,-0.015751173719763756,0.0,0.0,0.0,0.03967803344130516,-0.030796347185969353,-0.0,0.0,0.0,0.0,0.004999999888241291,-0.0021042264997959137,-0.001387080061249435,43777.0,65535.0,59963.0,65535.0,0.2509135901927948,0.41971656680107117,0.37286481261253357,0.41971656680107117,0.0,0.0,0.0,0.0,60.0,32360.0,23575.0,38211.0,0.3542763292789459,-1.0610390326314703,0.8761055591978395,0.8502836031089913,0.12615863978862762,0.10840293020009995,-2.5097320079803467
184,5,-0.00026811545831151307,-0.000960731238592416,-0.0025587789714336395,0.00540502043440938,0.04311676695942879,-0.01297522708773613,-0.03967112675309181,0.06718568503856659,-0.04006710648536682,-0.4907344877719879,0.8340045213699341,-0.06145244091749191,0.0,0.0,0.0,0.007633589673787355,-0.043514642864465714,-0.0,0.0,0.0,0.0,0.004999837372452021,-0.001270405249670148,-0.001682035275734961,0.0,32379.0,22284.0,39642.0,-0.0024108625948429108,0.12822142243385315,0.07920961081981659,0.16855217516422272,0.0,0.0,0.0,0.0,0.0,33497.0,20468.0,40990.0,0.35749754309654236,-1.0605366064757424,0.8737247216497983,0.849054185587427,0.17998860776424408,0.021056586876511574,-2.4994559288024902
189,5,-0.00020255360868759453,-0.001060190494172275,-0.0023563390132039785,0.010800163261592388,0.026859328150749207,-0.032234176993370056,-0.03967112675309181,0.06718568503856659,-0.04006710648536682,-0.4907344877719879,0.8340045213699341,-0.06145244091749191,0.0,0.0,0.0,0.030948856845498085,-0.03824729472398758,-0.0,0.0,0.0,0.0,0.004999837372452021,-0.001270405249670148,-0.001682035275734961,0.0,32379.0,22284.0,39642.0,-0.0024108625948429108,0.12822142243385315,0.07920961081981659,0.16855217516422272,0.0,0.0,0.0,0.0,0.0,33497.0,20468.0,40990.0,0.35721060633659363,-1.0587648713496156,0.8763229226461491,0.8450066838193601,0.1580146700143814,0.08527206629514694,-2.4386425018310547
194,5,-0.00015792330668773502,-0.001398552441969514,-0.0022043792996555567,0.009488292038440704,0.055428460240364075,-0.030944589525461197,-0.044535085558891296,0.056777648627758026,-0.04179392009973526,-0.3031710982322693,0.9681174755096436,-0.06732376664876938,0.0,0.0,0.0,-0.011448152363300323,-0.03978905826807022,-0.0,0.0,0.0,0.0,0.004006298258900642,0.0002286135422764346,-0.0017019774531945586,296.0,32823.0,13457.0,41549.0,0.000792771577835083,0.13056737184524536,0.04306252300739288,0.1798439770936966,0.0,0.0,0.0,0.0,826.0,32375.0,19362.0,41014.0,0.3540509343147278,-1.055943633784167,0.8740770908347593,0.8450832766164901,0.1629943698644638,-0.03127347305417061,-2.440232038497925
200,5,-0.00013028859393671155,-0.00165300362277776,-0.001993864309042692,0.006715346127748489,0.05225171148777008,-0.03875550255179405,-0.044535085558891296,0.056777648627758026,-0.04179392009973526,-0.3031710982322693,0.9681174755096436,-0.06732376664876938,0.0,0.0,0.0,-0.007432075683027506,-0.04220995679497719,-0.0,0.0,0.0,0.0,0.004006298258900642,0.0002286135422764346,-0.0017019774531945586,296.0,32823.0,13457.0,41549.0,0.000792771577835083,0.13056737184524536,0.04306252300739288,0.1798439770936966,0.0,0.0,0.0,0.0,826.0,32375.0,19362.0,41014.0,0.3561149537563324,-1.054082120720562,0.8743088218075319,0.8427210806209806,0.17392034828662872,-0.02042146399617195,-2.4136414527893066
205,5,-8.96648780326359e-05,-0.0017713074339553714,-0.0018400070257484913,0.007701925467699766,0.03223804756999016,-0.03316665068268776,-0.04282546043395996,0.03644440695643425,-0.04470424726605415,0.45390522480010986,1.047192931175232,-0.05336534604430199,0.0,0.0,0.0,0.02124767377972603,-0.041080277413129807,-0.0,0.0,0.0,0.0,0.002797540510073304,0.00036211416590958834,-0.0017381059005856514,5022.0,33456.0,11777.0,40230.0,0.014369912445545197,0.13393348455429077,0.03689100593328476,0.17200222611427307,0.0,0.0,0.0,0.0,1279.0,33018.0,11964.0,41847.0,0.3571576178073883,-1.0513799187587103,0.8757270464421701,0.8391627052253766,0.1697302907705307,0.05854601040482521,-2.428100109100342
210,5,-3.927654688595794e-05,-0.0018042369047179818,-0.0016886370722204447,0.009364943951368332,0.014281541109085083,-0.031141802668571472,-0.04282546043395996,0.03644440695643425,-0.04470424726605415,0.45390522480010986,1.047192931175232,-0.05336534604430199,0.0,0.0,0.0,0.02110285311937332,-0.041083648800849915,-0.0,0.0,0.0,0.0,0.002797540510073304,0.00036211416590958834,-0.0017381059005856514,5022.0,33456.0,11777.0,40230.0,0.014369912445545197,0.13393348455429077,0.03689100593328476,0.17200222611427307,0.0,0.0,0.0,0.0,1279.0,33018.0,11964.0,41847.0,0.35712724924087524,-1.0448121796573555,0.8783368083213181,0.8361407604257184,0.1627758890390396,0.12976698577404022,-2.4319040775299072
215,5,-3.643342643044889e-05,-0.0019051623530685902,-0.0015405472368001938,0.0032075196504592896,0.01841401867568493,-0.030075106769800186,-0.04282546043395996,0.03644440695643425,-0.04470424726605415,0.45390522480010986,1.047192931175232,-0.05336534604430199,0.0,0.0,0.0,0.0461171418428421,-0.038713064044713974,-0.0,0.0,0.0,0.0,0.0003333223285153508,-0.00017733762797433883,-0.0015307863941416144,10909.0,34953.0,11943.0,35095.0,0.03379211202263832,0.14203061163425446,0.03749232366681099,0.1428069770336151,0.0,0.0,0.0,0.0,6145.0,33910.0,11268.0,39530.0,0.36609315872192383,-1.0460901346483467,0.8794568098167993,0.8383443189221257,0.18738852441310883,0.11220552772283554,-2.432882785797119
220,5,0.004284451249986887,-0.008604069240391254,0.002820261986926198,0.0032075196504592896,0.01841401867568493,-0.030075106769800186,-0.04282546043395996,0.03644440695643425,-0.04470424726605415,0.45390522480010986,1.047192931175232,-0.05336534604430199,0.0,0.0,0.0,0.026014473289251328,-0.03915146365761757,-0.0,0.0,0.0,0.0,0.0003333223285153508,-0.00017733762797433883,-0.0015307863941416144,10909.0,34953.0,11943.0,35095.0,0.03379211202263832,0.14203061163425446,0.03749232366681099,0.1428069770336151,0.0,0.0,0.0,0.0,6145.0,33910.0,11268.0,39530.0,0.35651206970214844,-1.1216482677409592,0.8006746529519815,2.1154241388337622,0.16144607961177826,0.07152805477380753,-2.3673298358917236
225,5,0.004557344131171703,-0.0066420575603842735,0.004340839106589556,0.03916727751493454,-0.2691574990749359,-0.22190333902835846,-0.025754369795322418,0.01887151598930359,-0.04341600090265274,1.1643556356430054,0.6952688694000244,0.11037038266658783,0.0,0.0,0.0,0.26700469851493835,-0.0021839463151991367,-0.0,0.0,0.0,0.0,0.001112250960431993,-0.0010949166025966406,-0.0013955198228359222,9222.0,35489.0,14696.0,35149.0,0.027941953390836716,0.14497004449367523,0.0477590374648571,0.14310245215892792,0.0,0.0,0.0,0.0,11814.0,35420.0,12850.0,33411.0,0.6131705045700073,-1.148324192895633,0.8188408762611564,2.147549203974251,0.014949987642467022,1.2315384149551392,-1.760646104812622
230,5,2.1082905732328072e-05,0.0012960548046976328,0.0006510871462523937,0.03916727751493454,-0.2691574990749359,-0.22190333902835846,-0.025754369795322418,0.01887151598930359,-0.04341600090265274,1.1643556356430054,0.6952688694000244,0.11037038266658783,0.0,0.0,0.0,0.26682621240615845,-0.002026715548709035,-0.0,0.0,0.0,0.0,0.001112250960431993,-0.0010949166025966406,-0.0013955198228359222,9222.0,35489.0,14696.0,35149.0,0.027941953390836716,0.14497004449367523,0.0477590374648571,0.14310245215892792,0.0,0.0,0.0,0.0,11814.0,35420.0,12850.0,33411.0,0.6127719283103943,-0.951997491802645,0.9333905160606587,0.8504065174937377,0.04108286648988724,1.2775888442993164,-1.803062081336975
235,5,6.531448161695153e-05,0.0010463951621204615,0.00040066722431220114,0.017942603677511215,-0.04579491168260574,-0.03151220828294754,-0.025754369795322418,0.01887151598930359,-0.04341600090265274,1.1643556356430054,0.6952688694000244,0.11037038266658783,0.0,0.0,0.0,0.2721208333969116,-0.005896369460970163,-0.0,0.0,0.0,0.0,0.001112250960431993,-0.0010949166025966406,-0.0013955198228359222,9222.0,35489.0,14696.0,35149.0,0.027941953390836716,0.14497004449367523,0.0477590374648571,0.14310245215892792,0.0,0.0,0.0,0.0,11814.0,35420.0,12850.0,33411.0,0.6249150037765503,-0.9600723017925263,0.9296314182876895,0.8418323015769886,0.12571097910404205,0.3829537332057953,-2.376028537750244
240,5,3.654227111837827e-05,0.0010507465340197086,0.000528691045474261,0.0013546720147132874,-0.014347661286592484,-0.027376994490623474,-0.015906475484371185,0.015031317248940468,-0.04280503839254379,1.3937036991119385,0.3908418118953705,0.032811909914016724,0.0,0.0,0.0,0.12180516868829727,-0.02669782191514969,-0.0,0.0,0.0,0.0,0.00010773455142043531,-0.002582274377346039,-0.0014786259271204472,6969.0,39393.0,13776.0,31651.0,0.020486529916524887,0.1671004295349121,0.04425939545035362,0.12441393733024597,0.0,0.0,0.0,0.0,7566.0,37242.0,15448.0,33827.0,0.4098634421825409,-0.959491762935298,0.9293075895404823,0.8454521112091649,0.19221985340118408,0.25743988156318665,-2.3853185176849365
245,5,4.134417758905329e-05,0.0009885698091238737,0.0005341616342775524,0.0010786683997139335,0.004400438163429499,-0.00897898618131876,-0.015906475484371185,0.015031317248940468,-0.04280503839254379,1.3937036991119385,0.3908418118953705,0.032811909914016724,0.0,0.0,0.0,0.08580595254898071,-0.042727723717689514,-0.0,0.0,0.0,0.0,0.00010773455142043531,-0.002582274377346039,-0.0014786259271204472,6969.0,39393.0,13776.0,31651.0,0.020486529916524887,0.1671004295349121,0.04425939545035362,0.12441393733024597,0.0,0.0,0.0,0.0,7566.0,37242.0,15448.0,33827.0,0.39022520184516907,-0.9598012724887789,0.9284479552855137,0.8466126468761571,0.1932862102985382,0.18232858180999756,-2.438831090927124
250,5,2.388520624663215e-05,0.0009393026703037322,0.0005093514337204397,-0.0021206552628427744,0.008217536844313145,0.0007797384751029313,0.0013443678617477417,0.012562860734760761,-0.04268445447087288,1.4993491172790527,0.046646375209093094,0.02008081041276455,0.0,0.0,0.0,0.05748341605067253,-0.047353096306324005,-0.0,0.0,0.0,0.0,-0.0014179416466504335,-0.00417056679725647,-0.00160877569578588,2844.0,41302.0,22098.0,35526.0,0.007888194173574448,0.17836034297943115,0.07838290929794312,0.1451781839132309,0.0,0.0,0.0,0.0,4436.0,41387.0,14042.0,30707.0,0.3769542872905731,-0.9672514125882061,0.9279626218097357,0.840623911268538,0.20617836713790894,0.16700173914432526,-2.4668776988983154
256,5,2.2159822037792765e-05,0.0007556984201073647,0.00037830526707693934,-0.0008777505136094987,0.028169861063361168,0.018580380827188492,0.0013443678617477417,0.012562860734760761,-0.04268445447087288,1.4993491172790527,0.046646375209093094,0.02008081041276455,0.0,0.0,0.0,0.05755625665187836,-0.04734792560338974,-0.0,0.0,0.0,0.0,-0.0014179416466504335,-0.00417056679725647,-0.00160877569578588,2844.0,41302.0,22098.0,35526.0,0.007888194173574448,0.17836034297943115,0.07838290929794312,0.1451781839132309,0.0,0.0,0.0,0.0,4436.0,41387.0,14042.0,30707.0,0.3661481738090515,-0.9676436648268852,0.9255150505516896,0.841136241050934,0.20121131837368011,0.08631812781095505,-2.520704507827759
261,5,1.6842099284986034e-05,0.00042477500392124057,0.00016176349890884012,-0.0010078062769025564,0.05478023365139961,0.03588996082544327,0.013622554950416088,0.013216808438301086,-0.04235745966434479,1.557096004486084,-0.2616063952445984,0.08907250314950943,0.0,0.0,0.0,0.030625740066170692,-0.047516725957393646,-0.0,0.0,0.0,0.0,0.0008953945362009108,-0.004999999888241291,-0.001527229556813836,4876.0,42687.0,18467.0,29549.0,0.013923659920692444,0.18672099709510803,0.06281155347824097,0.11365766823291779,0.0,0.0,0.0,0.0,5219.0,43059.0,17917.0,29340.0,0.3661637306213379,-0.980593156914371,0.916914673866043,0.8388679003204597,0.20175810158252716,-0.02192668803036213,-2.574742317199707
266,5,3.031009327969514e-05,0.00030900712590664625,0.0001202785933855921,0.001583177363499999,0.03264157474040985,0.016574876382946968,0.013622554950416088,0.013216808438301086,-0.04235745966434479,1.557096004486084,-0.2616063952445984,0.08907250314950943,0.0,0.0,0.0,0.02362353354692459,-0.04564515873789787,-0.0,0.0,0.0,0.0,0.0008953945362009108,-0.004999999888241291,-0.001527229556813836,4876.0,42687.0,18467.0,29549.0,0.013923659920692444,0.18672099709510803,0.06281155347824097,0.11365766823291779,0.0,0.0,0.0,0.0,5219.0,43059.0,17917.0,29340.0,0.3623490035533905,-0.9851644614430657,0.9183215510925437,0.8379750504058503,0.19130927324295044,0.06603613495826721,-2.516930103302002
271,5,8.622509085398633e-06,-8.086829620879143e-05,-0.00017860415391623974,-0.002561308676376939,0.06437502801418304,0.04681604728102684,0.03280988708138466,0.017491724342107773,-0.041878826916217804,1.6331965923309326,-0.4650719165802002,-0.007653544191271067,0.0,0.0,0.0,-0.022384822368621826,-0.0491696372628212,-0.0,0.0,0.0,0.0,-0.0015950091183185577,-0.004999999888241291,-0.0015827772440388799,4991.0,44213.0,16150.0,29479.0,0.014274001121520996,0.1961042881011963,0.05342826247215271,0.11330732703208923,0.0,0.0,0.0,0.0,6352.0,45343.0,12869.0,27515.0,0.36575040221214294,-0.9972253554819699,0.9138845068001872,0.8335690000085134,0.2080100178718567,-0.06316214799880981,-2.6117730140686035
276,5,-5.240297923592152e-06,-0.0009062050376087427,-0.0005973035003989935,-0.0015767697477713227,0.08320246636867523,0.043177563697099686,0.03280988708138466,0.017491724342107773,-0.041878826916217804,1.6331965923309326,-0.4650719165802002,-0.007653544191271067,0.0,0.0,0.0,-0.022391708567738533,-0.04916903376579285,-0.0,0.0,0.0,0.0,-0.0015950091183185577,-0.004999999888241291,-0.0015827772440388799,4991.0,44213.0,16150.0,29479.0,0.014274001121520996,0.1961042881011963,0.05342826247215271,0.11330732703208923,0.0,0.0,0.0,0.0,6352.0,45343.0,12869.0,27515.0,0.3657512664794922,-1.0093981572701216,0.9042198992248938,0.8382921506595763,0.20415295660495758,-0.14344531297683716,-2.6076931953430176
281,5,-5.240297923592152e-06,-0.0009062050376087427,-0.0005973035003989935,-0.0015767697477713227,0.08320246636867523,0.043177563697099686,0.046285420656204224,0.02106945961713791,-0.04185190424323082,1.6365689039230347,-0.5057348012924194,0.09234707802534103,0.0,0.0,0.0,-0.049919597804546356,-0.047328997403383255,-0.0,0.0,0.0,0.0,-0.0034138006158173084,-0.004999999888241291,-0.0015491858357563615,8351.0,44660.0,14016.0,26166.0,0.025010433048009872,0.19888728857040405,0.04516461119055748,0.09709025174379349,0.0,0.0,0.0,0.0,9239.0,44569.0,13662.0,25130.0,0.37329164147377014,-1.0093981572701216,0.9042198992248938,0.8382921506595763,0.20415419340133667,-0.14365917444229126,-2.6094553470611572
286,5,3.529619334585732e-06,-0.0011262253392487764,-0.0007909705745987594,0.0007547574932686985,0.05576357990503311,0.04006665572524071,0.046285420656204224,0.02106945961713791,-0.04185190424323082,1.6365689039230347,-0.5057348012924194,0.09234707802534103,0.0,0.0,0.0,-0.04999134689569473,-0.04732571169734001,-0.0,0.0,0.0,0.0,-0.0034138006158173084,-0.004999999888241291,-0.0015491858357563615,8351.0,44660.0,14016.0,26166.0,0.025010433048009872,0.19888728857040405,0.04516461119055748,0.09709025174379349,0.0,0.0,0.0,0.0,9239.0,44569.0,13662.0,25130.0,0.36130818724632263,-1.0166699466853268,0.9023307050702924,0.8351254909726721,0.1947767287492752,-0.03544304892420769,-2.604839324951172
291,5,0.004375530406832695,-0.008313549682497978,0.003327268175780773,-0.0002511840721126646,0.027768610045313835,0.022123778238892555,0.0655125305056572,0.026709062978625298,-0.04071754962205887,1.532612681388855,-0.4086408019065857,0.13239914178848267,0.0,0.0,0.0,-0.012809795327484608,-0.0465962253510952,-0.0,0.0,0.0,0.0,-0.004999999888241291,-0.004999999888241291,-0.001446124049834907,10430.0,44452.0,13856.0,24246.0,0.03210713714361191,0.19758804142475128,0.04456291347742081,0.0880926102399826,0.0,0.0,0.0,0.0,12691.0,46010.0,12691.0,23668.0,0.3613191545009613,-1.1275402165052908,0.8060593563466749,2.1251922979426037,0.19477589428424835,-0.03571109101176262,-2.607192277908325
296,5,0.004375530406832695,-0.008313549682497978,0.003327268175780773,-0.0002511840721126646,0.027768610045313835,0.022123778238892555,0.0655125305056572,0.026709062978625298,-0.04071754962205887,1.532612681388855,-0.4086408019065857,0.13239914178848267,0.0,0.0,0.0,0.011348158121109009,-0.0416499562561512,-0.0,0.0,0.0,0.0,-0.004999999888241291,-0.004999999888241291,-0.001446124049834907,10430.0,44452.0,13856.0,24246.0,0.03210713714361191,0.19758804142475128,0.04456291347742081,0.0880926102399826,0.0,0.0,0.0,0.0,12691.0,46010.0,12691.0,23668.0,0.3559427857398987,-1.1275402165052908,0.8060593563466749,2.1251922979426037,0.1715175211429596,0.031149590387940407,-2.4816083908081055
301,5,3.0289627829915844e-05,0.001202453044243157,0.0006756486836820841,0.026262864470481873,-0.21306495368480682,-0.155072882771492,0.07668842375278473,0.02969823218882084,-0.04001060873270035,1.2569286823272705,-0.2838676869869232,0.08241179585456848,0.0,0.0,0.0,0.03060951828956604,-0.04653702303767204,-0.0,0.0,0.0,0.0,-0.004763626027852297,-0.004999999888241291,-0.0015393870417028666,12187.0,46299.0,12187.0,24071.0,0.03837565705180168,0.20923925936222076,0.03837565705180168,0.08728804439306259,0.0,0.0,0.0,0.0,10055.0,46067.0,10932.0,24416.0,0.36516159772872925,-0.9571801238119529,0.9334543959237256,0.844923563639756,0.09046508371829987,1.0495537519454956,-1.9796276092529297
306,5,5.61418964935001e-05,0.0009983862983062863,0.0004951836308464408,0.01149817742407322,-0.035350147634744644,-0.02125675231218338,0.07668842375278473,0.02969823218882084,-0.04001060873270035,1.2569286823272705,-0.2838676869869232,0.08241179585456848,0.0,0.0,0.0,0.2443808615207672,-0.014163773506879807,-0.0,0.0,0.0,0.0,-0.004763626027852297,-0.004999999888241291,-0.0015393870417028666,12187.0,46299.0,12187.0,24071.0,0.03837565705180168,0.20923925936222076,0.03837565705180168,0.08728804439306259,0.0,0.0,0.0,0.0,10055.0,46067.0,10932.0,24416.0,0.5687154531478882,-0.9550766812394376,0.9319280146967586,0.8478876276881022,0.14936134219169617,0.33776071667671204,-2.3817436695098877
311,5,3.4948479878949e-05,0.001166200963780284,0.0005841470556333661,0.0004823744820896536,-0.03409909829497337,-0.018831903114914894,0.09016049653291702,0.031835731118917465,-0.039505377411842346,0.9701788425445557,-0.08982768654823303,0.06034330278635025,0.0,0.0,0.0,0.10975845158100128,-0.032326456159353256,-0.0,0.0,0.0,0.0,-0.0038921814411878586,-0.004999999888241291,-0.001623785588890314,10320.0,45844.0,11330.0,24217.0,0.031722549349069595,0.2063436210155487,0.035289961844682693,0.08795981109142303,0.0,0.0,0.0,0.0,8196.0,45117.0,11824.0,25166.0,0.401995450258255,-0.9592400559338462,0.9311194766377484,0.8418258502283738,0.14947502315044403,0.3390072286128998,-2.3789236545562744
316,5,4.541418456938118e-05,0.0009314268245361745,0.0004967549466527998,0.0016099109780043364,0.022638646885752678,0.006585320457816124,0.09016049653291702,0.031835731118917465,-0.039505377411842346,0.9701788425445557,-0.08982768654823303,0.06034330278635025,0.0,0.0,0.0,0.10725731402635574,-0.04147934168577194,-0.0,0.0,0.0,0.0,-0.0038921814411878586,-0.004999999888241291,-0.001623785588890314,10320.0,45844.0,11330.0,24217.0,0.031722549349069595,0.2063436210155487,0.035289961844682693,0.08795981109142303,0.0,0.0,0.0,0.0,8196.0,45117.0,11824.0,25166.0,0.4055618941783905,-0.9663734540059327,0.9274983327608989,0.8407434041826093,0.18895675241947174,0.1059274822473526,-2.4619812965393066
321,5,2.836376916093286e-05,0.0009444624301977456,0.0004753112734761089,-0.0019040845800191164,0.004966610111296177,0.004977714736014605,0.09016049653291702,0.031835731118917465,-0.039505377411842346,0.9701788425445557,-0.08982768654823303,0.06034330278635025,0.0,0.0,0.0,0.06075143814086914,-0.046536996960639954,-0.0,0.0,0.0,0.0,-0.0038921814411878586,-0.004999999888241291,-0.001623785588890314,10320.0,45844.0,11330.0,24217.0,0.031722549349069595,0.2063436210155487,0.035289961844682693,0.08795981109142303,0.0,0.0,0.0,0.0,8196.0,45117.0,11824.0,25166.0,0.37791362404823303,-0.9671525296259383,0.9268672174692542,0.8386951752309612,0.20310398936271667,0.17692114412784576,-2.455965518951416
327,5,4.107650966034271e-05,0.0007345830090343952,0.0003551036352291703,0.0012085583293810487,0.030873099341988564,0.018322380259633064,0.09759093075990677,0.031267374753952026,-0.03927372768521309,0.771945059299469,0.18358881771564484,-0.032890286296606064,0.0,0.0,0.0,0.02583010122179985,-0.04542914777994156,-0.0,0.0,0.0,0.0,7.503380857087905e-06,-0.004144890233874321,-0.0016600583912804723,5524.0,42345.0,17991.0,34646.0,0.015916846692562103,0.18464183807373047,0.060846127569675446,0.1403583288192749,0.0,0.0,0.0,0.0,6471.0,45193.0,10290.0,27382.0,0.3626839518547058,-0.9683111447415998,0.9243250754994532,0.8425840809370927,0.1905701607465744,0.07226824015378952,-2.4963409900665283
332,5,4.542960596154444e-05,0.0005343765369616449,0.0002333238226128742,0.0009720010566525161,0.03729083761572838,0.022545890882611275,0.09759093075990677,0.031267374753952026,-0.03927372768521309,0.771945059299469,0.18358881771564484,-0.032890286296606064,0.0,0.0,0.0,0.025892773643136024,-0.045425280928611755,-0.0,0.0,0.0,0.0,7.503380857087905e-06,-0.004144890233874321,-0.0016600583912804723,5524.0,42345.0,17991.0,34646.0,0.015916846692562103,0.18464183807373047,0.060846127569675446,0.1403583288192749,0.0,0.0,0.0,0.0,6471.0,45193.0,10290.0,27382.0,0.36269649863243103,-0.9781362790911012,0.9217839185163709,0.8385795438203416,0.19148023426532745,0.045574888586997986,-2.509758234024048
337,5,1.649013938731514e-05,0.00028868424124084413,0.00010730016947491094,-0.003759925253689289,0.04558417201042175,0.024407077580690384,0.10512469708919525,0.028004279360175133,-0.03920644149184227,0.47682762145996094,0.4116794764995575,-0.026702353730797768,0.0,0.0,0.0,0.01640813983976841,-0.045839402824640274,-0.0,0.0,0.0,0.0,-0.0010863824281841516,-0.003202201100066304,-0.0017505019204691052,5369.0,42424.0,13337.0,33607.0,0.01543697714805603,0.18511831760406494,0.042615532875061035,0.13474446535110474,0.0,0.0,0.0,0.0,4447.0,42377.0,17213.0,35789.0,0.36106348037719727,-0.9786236186730068,0.9184361658548715,0.8385959024084817,0.21057018637657166,0.011061567813158035,-2.516500473022461
342,5,1.5574953067698516e-05,-2.3877480998635292e-05,-7.197738159447908e-05,-0.0012561035109683871,0.05743389576673508,0.03242098167538643,0.10512469708919525,0.028004279360175133,-0.03920644149184227,0.47682762145996094,0.4116794764995575,-0.026702353730797768,0.0,0.0,0.0,-0.012961484491825104,-0.04780513048171997,-0.0,0.0,0.0,0.0,-0.0010863824281841516,-0.003202201100066304,-0.0017505019204691052,5369.0,42424.0,13337.0,33607.0,0.01543697714805603,0.18511831760406494,0.042615532875061035,0.13474446535110474,0.0,0.0,0.0,0.0,4447.0,42377.0,17213.0,35789.0,0.3626314699649811,-0.9868251268181877,0.9138415870780494,0.8392092584681162,0.20055077970027924,-0.03626515716314316,-2.5402066707611084
347,5,-9.372357453685254e-06,-0.0004500106442719698,-0.00030410580802708864,-0.0038694546092301607,0.07688881456851959,0.04222427308559418,0.108995221555233,0.01708017662167549,-0.03993000090122223,0.03620488569140434,0.693993866443634,-0.15408006310462952,0.0,0.0,0.0,-0.013630950823426247,-0.04779538884758949,-0.0,0.0,0.0,0.0,-0.0021248338744044304,-0.002241021953523159,-0.001926275435835123,6382.0,42816.0,5485.0,34424.0,0.01860956847667694,0.18750342726707458,0.015795215964317322,0.13915151357650757,0.0,0.0,0.0,0.0,5553.0,42156.0,11368.0,35128.0,0.3715054988861084,-1.0011402672885754,0.91052635361114,0.8390408406360138,0.21115551888942719,-0.11852382123470306,-2.5760185718536377
352,5,-4.7826406444073655e-06,-0.0008231509127654135,-0.0005288018728606403,-0.0005182760069146752,0.07530628144741058,0.04412472993135452,0.108995221555233,0.01708017662167549,-0.03993000090122223,0.03620488569140434,0.693993866443634,-0.15408006310462952,0.0,0.0,0.0,-0.041408974677324295,-0.049168605357408524,-0.0,0.0,0.0,0.0,-0.0021248338744044304,-0.002241021953523159,-0.001926275435835123,6382.0,42816.0,5485.0,34424.0,0.01860956847667694,0.18750342726707458,0.015795215964317322,0.13915151357650757,0.0,0.0,0.0,0.0,5553.0,42156.0,11368.0,35128.0,0.37151849269866943,-1.0090623883737093,0.9060249034365482,0.8357889118841235,0.1977255642414093,-0.11454398185014725,-2.586030960083008
357,5,-1.1879706107720267e-05,-0.0011220608139410615,-0.0007061382057145238,-0.0011490719625726342,0.06443926692008972,0.03806450217962265,0.10875163972377777,0.011036056093871593,-0.039994824677705765,-0.06574663519859314,0.8364977240562439,-0.07150778919458389,0.0,0.0,0.0,-0.0403876006603241,-0.04642479866743088,-0.0,0.0,0.0,0.0,-0.002790578408166766,-0.0015062108868733048,-0.0018032900989055634,10957.0,41956.0,4512.0,33402.0,0.03396178036928177,0.18228694796562195,0.012818552553653717,0.13364467024803162,0.0,0.0,0.0,0.0,7726.0,41993.0,5293.0,34655.0,0.36841675639152527,-1.0152966202337212,0.9034026447683133,0.8355587002422152,0.20029251277446747,-0.07307247072458267,-2.57214093208313
362,5,-1.4434795957640745e-05,-0.0013766430784016848,-0.00084420305211097,-0.0007024341612122953,0.0549732968211174,0.030748432502150536,0.10875163972377777,0.011036056093871593,-0.039994824677705765,-0.06574663519859314,0.8364977240562439,-0.07150778919458389,0.0,0.0,0.0,-0.012697980739176273,-0.04738172888755798,-0.0,0.0,0.0,0.0,-0.002790578408166766,-0.0015062108868733048,-0.0018032900989055634,10957.0,41956.0,4512.0,33402.0,0.03396178036928177,0.18228694796562195,0.012818552553653717,0.13364467024803162,0.0,0.0,0.0,0.0,7726.0,41993.0,5293.0,34655.0,0.3621430993080139,-1.0237582923479782,0.903207554711757,0.8358623089573357,0.1985088437795639,-0.035480134189128876,-2.5543997287750244
367,5,-2.5698469471535645e-05,-0.0015695180045440793,-0.0009603206417523324,-0.001787644694559276,0.043494489043951035,0.02548098936676979,0.1072162389755249,0.0011227342765778303,-0.04062519967556,-0.14952027797698975,0.8278464078903198,-0.15133465826511383,0.0,0.0,0.0,-0.01336485892534256,-0.04737584665417671,-0.0,0.0,0.0,0.0,-0.0035183958243578672,-0.0007325387559831142,-0.002012646058574319,10879.0,43708.0,0.0,34952.0,0.033685073256492615,0.19297537207603455,-0.00028187036514282227,0.14202459156513214,0.0,0.0,0.0,0.0,12204.0,42958.0,1092.0,34330.0,0.362225741147995,-1.0272152145127695,0.9024622383064965,0.8405190952641629,0.19852778315544128,-0.037351787090301514,-2.5412354469299316
372,5,-1.2699028957285918e-05,-0.0016975667094811797,-0.0010694129159674048,0.0012836284004151821,0.030975162982940674,0.02291722223162651,0.1072162389755249,0.0011227342765778303,-0.04062519967556,-0.14952027797698975,0.8278464078903198,-0.15133465826511383,0.0,0.0,0.0,0.002507929690182209,-0.04839639738202095,-0.0,0.0,0.0,0.0,-0.0035183958243578672,-0.0007325387559831142,-0.002012646058574319,10879.0,43708.0,0.0,34952.0,0.033685073256492615,0.19297537207603455,-0.00028187036514282227,0.14202459156513214,0.0,0.0,0.0,0.0,12204.0,42958.0,1092.0,34330.0,0.3615035116672516,-1.0307909975770733,0.8971822129495594,0.8388420589825926,0.1905795931816101,0.05631968751549721,-2.539950132369995
377,5,-7.683170224481728e-06,-0.0017892115283757448,-0.001079484703950584,0.0010873087448999286,0.0221228189766407,0.00828520953655243,0.10575687885284424,-0.0054848152212798595,-0.04048355668783188,-0.20262792706489563,0.831358015537262,-0.05990474671125412,0.0,0.0,0.0,0.032469090074300766,-0.0453895702958107,-0.0,0.0,0.0,0.0,-0.0033217091113328934,-0.0005187620408833027,-0.0018295517656952143,11031.0,41090.0,3441.0,34815.0,0.034222982823848724,0.17709562182426453,0.00962657481431961,0.14127406477928162,0.0,0.0,0.0,0.0,12204.0,42958.0,1092.0,34330.0,0.3645903170108795,-1.0310607848355466,0.8957883329509705,0.8399359644851443,0.19136802852153778,0.09130806475877762,-2.4993691444396973
383,5,0.004317775834351778,-0.008693845011293888,0.0029590106569230556,0.0010873087448999286,0.0221228189766407,0.00828520953655243,0.10575687885284424,-0.0054848152212798595,-0.04048355668783188,-0.20262792706489563,0.831358015537262,-0.05990474671125412,0.0,0.0,0.0,0.03212350979447365,-0.04539547860622406,-0.0,0.0,0.0,0.0,-0.0033217091113328934,-0.0005187620408833027,-0.0018295517656952143,11031.0,41090.0,3441.0,34815.0,0.034222982823848724,0.17709562182426453,0.00962657481431961,0.14127406477928162,0.0,0.0,0.0,0.0,12204.0,42958.0,1092.0,34330.0,0.3555383086204529,-1.1174609433825795,0.8009277721302032,2.1142926750420727,0.1653871089220047,0.048865705728530884,-2.442242383956909
388,5,0.0045458413660526276,-0.006808175705373287,0.004371914081275463,0.03225535899400711,-0.2573569118976593,-0.1953209638595581,0.10267310589551926,-0.014965872280299664,-0.04043909162282944,-0.2682461738586426,0.764654815196991,-0.03608466312289238,0.0,0.0,0.0,0.2604927718639374,-0.005712468642741442,-0.0,0.0,0.0,0.0,-0.0022709290497004986,-0.0005785722751170397,-0.001911946921609342,8039.0,39973.0,5885.0,36391.0,0.023975178599357605,0.17048940062522888,0.01704217493534088,0.14997786283493042,0.0,0.0,0.0,0.0,8788.0,39353.0,7414.0,35715.0,0.5993989109992981,-1.1428950854482673,0.8180944911626681,2.1445018954169477,0.03829297795891762,1.175977349281311,-1.8012052774429321
393,5,0.004538688343018293,-0.006819018628448248,0.004346006084233522,0.008675246499478817,-0.07568901777267456,-0.054969143122434616,0.10267310589551926,-0.014965872280299664,-0.04043909162282944,-0.2682461738586426,0.764654815196991,-0.03608466312289238,0.0,0.0,0.0,0.2602958083152771,-0.005547976586967707,-0.0,0.0,0.0,0.0,-0.0022709290497004986,-0.0005785722751170397,-0.001911946921609342,8039.0,39973.0,5885.0,36391.0,0.023975178599357605,0.17048940062522888,0.01704217493534088,0.14997786283493042,0.0,0.0,0.0,0.0,8788.0,39353.0,7414.0,35715.0,0.598969042301178,-1.1419880830377431,0.8174938302376014,2.1431473500470517,0.13151989877223969,0.4475386440753937,-2.2089877128601074
398,5,0.00451990170404315,-0.006818199064582586,0.00436463113874197,-2.758148366410751e-05,-0.0228214543312788,-0.019098246470093727,0.10019969940185547,-0.020692018792033195,-0.03986864909529686,-0.3192703127861023,0.6885854005813599,-0.03332751244306564,0.0,0.0,0.0,0.13702961802482605,-0.026794206351041794,-0.0,0.0,0.0,0.0,-0.0009657830814830959,-0.000769035832490772,-0.0017785788513720036,8127.0,39643.0,7239.0,35911.0,0.024266883730888367,0.16855388879776,0.02135734260082245,0.14730650186538696,0.0,0.0,0.0,0.0,6301.0,39896.0,7409.0,35482.0,0.42446649074554443,-1.1414065610212214,0.8170471978050599,2.1429849010122908,0.16530022025108337,0.2343549281358719,-2.302630662918091
403,5,0.0045118448324501514,-0.006856259424239397,0.004329773597419262,-0.0011362513760104775,-0.0015180062036961317,-0.0008494052453897893,0.10019969940185547,-0.020692018792033195,-0.03986864909529686,-0.3192703127861023,0.6885854005813599,-0.03332751244306564,0.0,0.0,0.0,0.0791124477982521,-0.0373074896633625,-0.0,0.0,0.0,0.0,-0.0009657830814830959,-0.000769035832490772,-0.0017785788513720036,8127.0,39643.0,7239.0,35911.0,0.024266883730888367,0.16855388879776,0.02135734260082245,0.14730650186538696,0.0,0.0,0.0,0.0,6301.0,39896.0,7409.0,35482.0,0.3816777765750885,-1.1391332708542972,0.816419891865076,2.1410066985510254,0.16868039965629578,0.1472490429878235,-2.3445887565612793
408,5,2.118626252922695e-05,0.0011342637008056045,0.0006844598683528602,-0.0011362513760104775,-0.0015180062036961317,-0.0008494052453897893,0.09607358276844025,-0.02795129455626011,-0.039335060864686966,-0.33862099051475525,0.5174382328987122,0.05062646046280861,0.0,0.0,0.0,0.06625369936227798,-0.04444132745265961,-0.0,0.0,0.0,0.0,-0.00094178895233199,-0.0009834497468546033,-0.0017771052662283182,7439.0,39290.0,8803.0,34619.0,0.02200716733932495,0.166497603058815,0.026523888111114502,0.1402067393064499,0.0,0.0,0.0,0.0,6384.0,37324.0,20434.0,41498.0,0.3791363835334778,-0.9510980259768418,0.9331161633104063,0.8502373541923464,0.194523423910141,0.19352152943611145,-2.3860456943511963
413,5,5.356929614208639e-05,0.0009964910568669438,0.00047950103180482984,0.0041927495039999485,0.018832767382264137,0.028439411893486977,0.09607358276844025,-0.02795129455626011,-0.039335060864686966,-0.33862099051475525,0.5174382328987122,0.05062646046280861,0.0,0.0,0.0,0.0663408562541008,-0.044435132294893265,-0.0,0.0,0.0,0.0,-0.00094178895233199,-0.0009834497468546033,-0.0017771052662283182,7439.0,39290.0,8803.0,34619.0,0.02200716733932495,0.166497603058815,0.026523888111114502,0.1402067393064499,0.0,0.0,0.0,0.0,6384.0,37324.0,20434.0,41498.0,0.3791813552379608,-0.9611862191245089,0.9310344048936026,0.844837402575908,0.17300784587860107,0.11157055199146271,-2.474886894226074
418,5,5.64867805223912e-05,0.0009046135237440467,0.0004184584831818938,0.0016662727575749159,0.01851269043982029,0.01707777939736843,0.0931602343916893,-0.03156572952866554,-0.03848633915185928,-0.3981862962245941,0.3717828094959259,-0.0042647551745176315,0.0,0.0,0.0,0.03995146229863167,-0.043350700289011,-0.0,0.0,0.0,0.0,0.003231411101296544,-0.0014205165207386017,-0.0016873999265953898,3959.0,38432.0,20343.0,41753.0,0.011158719658851624,0.16153669357299805,0.07072244584560394,0.18106722831726074,0.0,0.0,0.0,0.0,1647.0,39973.0,14320.0,35627.0,0.3652985692024231,-0.9612942934116497,0.9299254275337915,0.8454224261457107,0.18308283388614655,0.11254816502332687,-2.4402236938476562
423,5,8.812302439764608e-06,0.0010274131782352924,0.0005815105396322906,-0.006174545269459486,-0.011638152413070202,-0.01770395040512085,0.0931602343916893,-0.03156572952866554,-0.03848633915185928,-0.3981862962245941,0.3717828094959259,-0.0042647551745176315,0.0,0.0,0.0,0.07812298834323883,-0.04782834276556969,-0.0,0.0,0.0,0.0,0.003231411101296544,-0.0014205165207386017,-0.0016873999265953898,3959.0,38432.0,20343.0,41753.0,0.011158719658851624,0.16153669357299805,0.07072244584560394,0.18106722831726074,0.0,0.0,0.0,0.0,1647.0,39973.0,14320.0,35627.0,0.389215350151062,-0.9643916713356513,0.9308355510448839,0.8444925373677621,0.21471838653087616,0.2341175228357315,-2.332094192504883
428,5,3.57704957423266e-05,0.0009125126525759697,0.00046891445526853204,0.0019217836670577526,0.012594638392329216,0.010452265851199627,0.0931602343916893,-0.03156572952866554,-0.03848633915185928,-0.3981862962245941,0.3717828094959259,-0.0042647551745176315,0.0,0.0,0.0,0.048157643526792526,-0.042798109352588654,-0.0,0.0,0.0,0.0,0.003231411101296544,-0.0014205165207386017,-0.0016873999265953898,3959.0,38432.0,20343.0,41753.0,0.011158719658851624,0.16153669357299805,0.07072244584560394,0.18106722831726074,0.0,0.0,0.0,0.0,1647.0,39973.0,14320.0,35627.0,0.36829885840415955,-0.9695796855280393,0.9290821116433015,0.8410445649172232,0.18216915428638458,0.13674330711364746,-2.4165101051330566
433,5,2.5995135729317553e-05,0.0008512928034178913,0.000448933889856562,-0.0007920155767351389,0.012349165976047516,0.005932957399636507,0.0879930928349495,-0.034535277634859085,-0.03796490281820297,-0.41557398438453674,0.11690416932106018,0.07709844410419464,0.0,0.0,0.0,0.04817628860473633,-0.045102547854185104,-0.0,0.0,0.0,0.0,0.0006702420068904757,-0.002924791071563959,-0.001696147141046822,2188.0,39824.0,15703.0,34532.0,0.0060129836201667786,0.16961848735809326,0.05166631191968918,0.13973337411880493,0.0,0.0,0.0,0.0,2061.0,40400.0,17328.0,32431.0,0.3704149127006531,-0.9697725088630665,0.9289557039051008,0.8430724897576779,0.19307424128055573,0.13758210837841034,-2.401810884475708
438,5,-7.9410874604946e-06,0.0004157665534876287,0.0001355684216832742,-0.0049886759370565414,0.06467842310667038,0.04565105214715004,0.0879930928349495,-0.034535277634859085,-0.03796490281820297,-0.41557398438453674,0.11690416932106018,0.07709844410419464,0.0,0.0,0.0,-0.026188213378190994,-0.04949095472693443,-0.0,0.0,0.0,0.0,0.0006702420068904757,-0.002924791071563959,-0.001696147141046822,2188.0,39824.0,15703.0,34532.0,0.0060129836201667786,0.16961848735809326,0.05166631191968918,0.13973337411880493,0.0,0.0,0.0,0.0,2061.0,40400.0,17328.0,32431.0,0.3669896125793457,-0.976302405105465,0.9161221917567649,0.8404174734508758,0.21005818247795105,-0.07413952797651291,-2.5242931842803955
443,5,9.435092351850471e-07,0.0001705587055766955,2.9588549296022393e-05,-0.00025275920052081347,0.053732629865407944,0.028532497584819794,0.08494114875793457,-0.03455638512969017,-0.037020519375801086,-0.31238916516304016,-0.1280391663312912,0.1110173910856247,0.0,0.0,0.0,-0.011411341838538647,-0.045832131057977676,-0.0,0.0,0.0,0.0,0.0002994563546963036,-0.004999999888241291,-0.00162065913900733,793.0,41165.0,19112.0,30820.0,0.00213618203997612,0.17754197120666504,0.0654987245798111,0.12012147903442383,0.0,0.0,0.0,0.0,0.0,41587.0,19006.0,31633.0,0.3603304326534271,-0.9829770528162834,0.9133647614398454,0.8399510139534987,0.19106313586235046,-0.03172581270337105,-2.4741129875183105
449,5,9.785438123799395e-06,-2.7915473765460774e-05,-2.0048015358042903e-05,0.0011620422592386603,0.04390617460012436,0.015508868731558323,0.08494114875793457,-0.03455638512969017,-0.037020519375801086,-0.31238916516304016,-0.1280391663312912,0.1110173910856247,0.0,0.0,0.0,0.0023250258527696133,-0.04469091817736626,-0.0,0.0,0.0,0.0,0.0002994563546963036,-0.004999999888241291,-0.00162065913900733,793.0,41165.0,19112.0,30820.0,0.00213618203997612,0.17754197120666504,0.0654987245798111,0.12012147903442383,0.0,0.0,0.0,0.0,0.0,41587.0,19006.0,31633.0,0.3584546744823456,-0.9856254907901841,0.9154940946493806,0.8438855525043312,0.18535061180591583,0.006430669687688351,-2.435697317123413
454,5,1.889752093120478e-05,-0.0004289500939194113,-0.0002803499228321016,0.001624304335564375,0.06931670010089874,0.04109492897987366,0.08164633065462112,-0.0319049097597599,-0.03616715222597122,-0.23088017106056213,-0.2787846624851227,0.08804016560316086,0.0,0.0,0.0,-0.03480765223503113,-0.0436256006360054,-0.0,0.0,0.0,0.0,-0.0020325498189777136,-0.004999999888241291,-0.001487922971136868,0.0,41787.0,18719.0,31528.0,-0.0005990415811538696,0.18126949667930603,0.06385773420333862,0.12377505004405975,0.0,0.0,0.0,0.0,441.0,41305.0,19409.0,31184.0,0.36364519596099854,-0.9968125942673595,0.9088501052358163,0.8395480169198228,0.18344442546367645,-0.09762616455554962,-2.516435146331787
459,5,2.931961353169754e-05,-0.0008220881572924554,-0.0004992051981389523,0.001946384203620255,0.07583433389663696,0.04296821728348732,0.08164633065462112,-0.0319049097597599,-0.03616715222597122,-0.23088017106056213,-0.2787846624851227,0.08804016560316086,0.0,0.0,0.0,-0.04460178315639496,-0.04294217377901077,-0.0,0.0,0.0,0.0,-0.0020325498189777136,-0.004999999888241291,-0.001487922971136868,0.0,41787.0,18719.0,31528.0,-0.0005990415811538696,0.18126949667930603,0.06385773420333862,0.12377505004405975,0.0,0.0,0.0,0.0,441.0,41305.0,19409.0,31184.0,0.3668421506881714,-1.00678826175891,0.90545003035627,0.8382504957678975,0.1820889264345169,-0.12616176903247833,-2.5262038707733154
