timestamp,dt,pos_x,pos_y,pos_z,vel_x,vel_y,vel_z,roll,pitch,yaw,agv_x,agv_y,agv_z,x_ref,y_ref,z_ref,roll_ref,pitch_ref,yaw_ref,x_vel_ref,y_vel_ref,z_vel_ref,x_torque,y_torque,z_torque,w0,w1,w2,w3,u0,u1,u2,u3,m0req,m1req,m2req,m3req,thrust0,thrust1,thrust2,thrust3,thrust_ref,roll_vicon,pitch_vicon,yaw_vicon,acc_x,acc_y,acc_z
5,5,0.0,0.0,0.0,0.06624377518892288,0.10524420440196991,-0.07265714555978775,0.04317060112953186,-0.049223557114601135,-0.07010085880756378,0.00040367335896007717,0.15004830062389374,-0.02372116409242153,0.0,0.0,0.0,-0.1270817220211029,0.053479406982660294,-0.0,0.0,0.0,0.0,-0.004999999888241291,0.004139744210988283,-0.0021502512972801924,0.0,0.0,0.0,0.0,0.0,0.0,0.0,0.0,0.0,0.0,0.0,0.0,0.0,0.0,0.0,0.0,0.4317731261253357,-0.7593831325901355,-0.08676459326155213,-0.14208169902300413,-0.26497510075569153,-0.42097681760787964,0.21797144412994385
21,16,0.0,0.0,0.0,0.0440332405269146,0.021623574197292328,-0.03407501056790352,0.04317060112953186,-0.049223557114601135,-0.07010085880756378,0.00040367335896007717,0.15004830062389374,-0.02372116409242153,0.0,0.0,0.0,-0.029092315584421158,0.039510056376457214,-0.0,0.0,0.0,0.0,-0.004999999888241291,0.004139744210988283,-0.0021502512972801924,0.0,0.0,0.0,0.0,0.0,0.0,0.0,0.0,0.0,0.0,0.0,0.0,0.0,0.0,0.0,0.0,0.385428249835968,-3.090982396089229,0.6927516181432715,-1.5317757494682165,-0.1761329621076584,-0.08649429678916931,0.10222503542900085
26,5,0.0,0.0,0.0,0.06428498029708862,-0.012057753279805183,-0.04532749205827713,0.04317060112953186,-0.049223557114601135,-0.07010085880756378,0.00040367335896007717,0.15004830062389374,-0.02372116409242153,0.0,0.0,0.0,0.01620958186686039,0.05764758586883545,-0.0,0.0,0.0,0.0,-0.004999999888241291,0.004139744210988283,-0.0021502512972801924,0.0,0.0,0.0,0.0,0.0,0.0,0.0,0.0,0.0,0.0,0.0,0.0,0.0,0.0,0.0,0.0,0.3856557011604309,-3.0836304107501094,0.6893522932380491,-1.5372272488690935,-0.2571399211883545,0.048231013119220734,0.135982483625412
35,9,0.0,0.0,0.0,0.06428498029708862,-0.012057753279805183,-0.04532749205827713,0.04319929704070091,-0.05062694475054741,-0.07014202326536179,0.003404280636459589,0.21149733662605286,-0.002236153930425644,0.0,0.0,0.0,0.016207603737711906,0.05764054134488106,-0.0,0.0,0.0,0.0,-0.004999999888241291,0.004858422093093395,-0.0020975933875888586,0.0,0.0,0.0,0.0,0.0,0.0,0.0,0.0,0.0,0.0,0.0,0.0,0.0,0.0,0.0,0.0,0.3857027590274811,-3.0836304107501094,0.6893522932380491,-1.5372272488690935,-0.2571399211883545,0.048231013119220734,0.135982483625412
42,8,0.0,0.0,0.0,-0.05105723440647125,-0.004007055889815092,0.02995382435619831,0.04319929704070091,-0.05062694475054741,-0.07014202326536179,0.003404280636459589,0.21149733662605286,-0.002236153930425644,0.0,0.0,0.0,0.005389631260186434,-0.04579872637987137,-0.0,0.0,0.0,0.0,-0.004999999888241291,0.004858422093093395,-0.0020975933875888586,0.0,0.0,0.0,0.0,0.0,0.0,0.0,0.0,0.0,0.0,0.0,0.0,0.0,0.0,0.0,0.0,0.38542136549949646,-2.9550259603900586,0.7654803688572207,-2.477260210142074,0.204228937625885,0.01602822355926037,-0.08986147493124008
48,5,0.0,0.0,0.0,-0.05105723440647125,-0.004007055889815092,0.02995382435619831,0.04319929704070091,-0.05062694475054741,-0.07014202326536179,0.003404280636459589,0.21149733662605286,-0.002236153930425644,0.0,0.0,0.0,0.005389631260186434,-0.04579872637987137,-0.0,0.0,0.0,0.0,-0.004999999888241291,0.004858422093093395,-0.0020975933875888586,0.0,0.0,0.0,0.0,0.0,0.0,0.0,0.0,0.0,0.0,0.0,0.0,0.0,0.0,0.0,0.0,0.38542136549949646,-0.9028807134861975,0.15879058134667506,-0.08278931561490939,0.204228937625885,0.01602822355926037,-0.08986147493124008
53,5,0.0002755973255261779,-9.07048161025159e-05,0.00019733585941139609,0.02326645329594612,0.011496557854115963,-0.018640873953700066,0.043295636773109436,-0.05524345859885216,-0.06988614052534103,0.00032463602838106453,0.24556468427181244,0.0016285505844280124,0.0,0.0,0.0,-0.01567363739013672,0.02127503789961338,-0.0,0.0,0.0,0.0,-0.0009002250735647976,0.004999999888241291,-0.002121735131368041,16058.0,36522.0,0.0,44956.0,0.053063489496707916,0.15070906281471252,-0.01885681226849556,0.20073997974395752,0.0,0.0,0.0,0.0,17072.0,35800.0,0.0,44312.0,0.38485288619995117,-0.9113372533375632,0.15867794436484575,-0.08302496209845404,-0.09474750608205795,-0.04653971269726753,0.059134263545274734
58,5,5.5397853429894894e-05,0.00016582751413807273,0.00011443634866736829,-0.02384798787534237,-0.032465558499097824,0.0060136704705655575,0.043295636773109436,-0.05524345859885216,-0.06988614052534103,0.00032463602838106453,0.24556468427181244,0.0016285505844280124,0.0,0.0,0.0,0.04405985027551651,-0.021329117938876152,-0.0,0.0,0.0,0.0,-0.0009002250735647976,0.004999999888241291,-0.002121735131368041,16058.0,36522.0,0.0,44956.0,0.053063489496707916,0.15070906281471252,-0.01885681226849556,0.20073997974395752,0.0,0.0,0.0,0.0,17072.0,35800.0,0.0,44312.0,0.38517987728118896,-0.8977794031656211,0.15776380548413543,-0.08591221680657098,0.09498775750398636,0.13085970282554626,-0.01554906740784645
63,5,-0.00016821968893054873,-2.1731568267568946e-05,0.0003758007369469851,-0.038460854440927505,0.01651860401034355,-0.03478691726922989,0.04336753860116005,-0.05792654678225517,-0.06911712139844894,0.009951895102858543,0.18601855635643005,0.03237291797995567,0.0,0.0,0.0,-0.02233266830444336,-0.03482562676072121,-0.0,0.0,0.0,0.0,-0.0009154424187727273,0.004999999888241291,-0.00201652804389596,16900.0,35981.0,0.0,44423.0,0.056418001651763916,0.14769405126571655,-0.0158182792365551,0.197408989071846,0.0,0.0,0.0,0.0,10764.0,40718.0,0.0,41289.0,0.3841663897037506,-0.9009881593334128,0.1603412902239402,-0.07856007188250216,0.15477807819843292,-0.06618797034025192,0.11095540970563889
68,5,-0.0003194207383785397,-7.387434015981853e-05,-8.1320118624717e-05,-0.032706402242183685,0.012255568988621235,0.05356084555387497,0.04336753860116005,-0.05792654678225517,-0.06911712139844894,0.009951895102858543,0.18601855635643005,0.03237291797995567,0.0,0.0,0.0,-0.016689486801624298,-0.029862001538276672,-0.0,0.0,0.0,0.0,-0.0009154424187727273,0.004999999888241291,-0.00201652804389596,16900.0,35981.0,0.0,44423.0,0.056418001651763916,0.14769405126571655,-0.0158182792365551,0.197408989071846,0.0,0.0,0.0,0.0,10764.0,40718.0,0.0,41289.0,0.38406240940093994,-0.8975018568014322,0.15543337285786124,-0.0844877109026466,0.13270336389541626,-0.04945351928472519,-0.16000188887119293
73,5,-0.00032868076232261956,-2.675255927897524e-05,0.0003000578726641834,-0.01110832579433918,-0.002920378465205431,-0.03732466325163841,0.043351270258426666,-0.05911753326654434,-0.06914065778255463,-0.003648861311376095,0.10370960086584091,0.03730452433228493,0.0,0.0,0.0,0.003886503865942359,-0.010466131381690502,-0.0,0.0,0.0,0.0,-0.0012491944944486022,0.001293499837629497,-0.002137331524863839,10607.0,40781.0,792.0,40788.0,0.032726868987083435,0.17525935173034668,0.0021340548992156982,0.17530108988285065,0.0,0.0,0.0,0.0,10188.0,38423.0,2972.0,42267.0,0.3838886022567749,-0.8969806297934965,0.15760044937011497,-0.07886877201367828,0.04650210589170456,0.011512111872434616,0.11896105855703354
78,5,-9.378305549034849e-05,4.0809834899846464e-05,0.00020994635997340083,0.029553182423114777,-0.010334848426282406,0.0014182112645357847,0.043351270258426666,-0.05911753326654434,-0.06914065778255463,-0.003648861311376095,0.10370960086584091,0.03730452433228493,0.0,0.0,0.0,0.014031268656253815,0.026452016085386276,-0.0,0.0,0.0,0.0,-0.0012491944944486022,0.001293499837629497,-0.002137331524863839,10607.0,40781.0,792.0,40788.0,0.032726868987083435,0.17525935173034668,0.0021340548992156982,0.17530108988285065,0.0,0.0,0.0,0.0,10188.0,38423.0,2972.0,42267.0,0.3840368092060089,-0.8997251345649048,0.15815037627232972,-0.08390764530438796,-0.11755049973726273,0.04157523438334465,0.0014160166028887033
83,5,-0.00018197759345639497,-3.6829364944424015e-06,0.00011309315596008673,-0.003481280989944935,0.00312853348441422,0.01398491207510233,0.043351270258426666,-0.05911753326654434,-0.06914065778255463,-0.003648861311376095,0.10370960086584091,0.03730452433228493,0.0,0.0,0.0,-0.004232374951243401,-0.0034075018484145403,-0.0,0.0,0.0,0.0,-0.0012491944944486022,0.001293499837629497,-0.002137331524863839,10607.0,40781.0,792.0,40788.0,0.032726868987083435,0.17525935173034668,0.0021340548992156982,0.17530108988285065,0.0,0.0,0.0,0.0,10188.0,38423.0,2972.0,42267.0,0.38387033343315125,-0.9000895811591703,0.1569880983498843,-0.08459052099779978,0.015139173716306686,-0.012536057271063328,-0.03713247552514076
88,5,0.01133223157376051,0.0048404536210000515,0.015370639972388744,-0.003481280989944935,0.00312853348441422,0.01398491207510233,0.04332904890179634,-0.059871599078178406,-0.06890919804573059,-0.007468090392649174,-0.00421876972541213,-0.0517963282763958,0.0,0.0,0.0,0.0055999173782765865,0.012166363187134266,-0.0,0.0,0.0,0.0,-0.0013103208038955927,0.0011943901190534234,-0.002168792299926281,7414.0,39972.0,1293.0,43104.0,0.02192695438861847,0.17048224806785583,0.0035066455602645874,0.18926408886909485,0.0,0.0,0.0,0.0,10361.0,40901.0,0.0,41403.0,0.38363397121429443,1.8829668718327832,0.4480939354017471,2.6512083855449027,-0.054019004106521606,0.01657634973526001,0.19396589696407318
93,5,-0.019249986857175827,0.009520551189780235,-0.009525567293167114,-0.003481280989944935,0.00312853348441422,0.01398491207510233,0.04332904890179634,-0.059871599078178406,-0.06890919804573059,-0.007468090392649174,-0.00421876972541213,-0.0517963282763958,0.0,0.0,0.0,0.015468993224203587,-0.028678957372903824,-0.0,0.0,0.0,0.0,-0.0013103208038955927,0.0011943901190534234,-0.002168792299926281,7414.0,39972.0,1293.0,43104.0,0.02192695438861847,0.17048224806785583,0.0035066455602645874,0.18926408886909485,0.0,0.0,0.0,0.0,10361.0,40901.0,0.0,41403.0,0.38380327820777893,2.502515562309108,0.014905614449517707,-3.037908591246341,0.12736403942108154,0.04580671712756157,-0.1407962590456009
98,5,-0.019243396818637848,0.008882599882781506,-0.010007376782596111,-0.0001219614059664309,0.09025167673826218,0.07164876908063889,0.04327945411205292,-0.05939169600605965,-0.06881115585565567,-0.0023213301319628954,-0.1464836597442627,-0.012265782803297043,0.0,0.0,0.0,-0.10103379189968109,-0.026269270107150078,-0.0,0.0,0.0,0.0,-0.0016007751692086458,0.000986550934612751,-0.002284423913806677,9371.0,41490.0,0.0,41004.0,0.02844996005296707,0.17948684096336365,-0.0006605610251426697,0.1765853762626648,0.0,0.0,0.0,0.0,9699.0,41321.0,0.0,41047.0,0.391687273979187,2.482960363761115,0.014392539034324421,-3.0377569898149974,0.11850712448358536,-0.30423757433891296,-0.3496759831905365
103,5,-0.019321560859680176,0.00893440842628479,-0.009967507794499397,-0.01097941119223833,0.01982232742011547,0.01591307483613491,0.04327945411205292,-0.05939169600605965,-0.06881115585565567,-0.0023213301319628954,-0.1464836597442627,-0.012265782803297043,0.0,0.0,0.0,-0.006822168827056885,-0.037561263889074326,-0.0,0.0,0.0,0.0,-0.0016007751692086458,0.000986550934612751,-0.002284423913806677,9371.0,41490.0,0.0,41004.0,0.02844996005296707,0.17948684096336365,-0.0006605610251426697,0.1765853762626648,0.0,0.0,0.0,0.0,9699.0,41321.0,0.0,41047.0,0.38376685976982117,2.4845868390704853,0.013869931346994857,-3.0384265052018877,0.16679449379444122,-0.02018335647881031,-0.21038492023944855
108,5,-0.0011455040657892823,-2.163356839446351e-05,-0.00046728545567020774,-0.01097941119223833,0.01982232742011547,0.01591307483613491,0.04327033460140228,-0.05781272426247597,-0.06904888153076172,0.002139794873073697,-0.17302455008029938,-0.022094910964369774,0.0,0.0,0.0,-0.024283213540911674,-0.013975310139358044,-0.0,0.0,0.0,0.0,-0.0009443850722163916,7.741936133243144e-05,-0.0022552728187292814,8692.0,42462.0,0.0,41110.0,0.026152700185775757,0.18535245954990387,-0.0048515647649765015,0.17721673846244812,0.0,0.0,0.0,0.0,9464.0,41999.0,0.0,40997.0,0.383910208940506,-0.8872648599146902,0.16000741005542282,-0.08622702403575488,0.062077637761831284,-0.07191851735115051,-0.09584902226924896
113,5,-0.0012865859316661954,0.00010481595381861553,-0.00048276371671818197,-0.02304527349770069,-0.011756234802305698,0.006940878927707672,0.04327033460140228,-0.05781272426247597,-0.06904888153076172,0.002139794873073697,-0.17302455008029938,-0.022094910964369774,0.0,0.0,0.0,0.01861821673810482,-0.02508409507572651,-0.0,0.0,0.0,0.0,-0.0009443850722163916,7.741936133243144e-05,-0.0022552728187292814,8692.0,42462.0,0.0,41110.0,0.026152700185775757,0.18535245954990387,-0.0048515647649765015,0.17721673846244812,0.0,0.0,0.0,0.0,9464.0,41999.0,0.0,40997.0,0.38394686579704285,-0.8802744361434021,0.15997860149159265,-0.08708688081377865,0.1114410012960434,0.05515093356370926,-0.07045157998800278
119,5,-0.001228672917932272,-3.0157831133692525e-05,-0.0005799487116746604,0.0011942291166633368,0.015369459055364132,0.01568816788494587,0.043236296623945236,-0.05622386187314987,-0.06913929432630539,-0.008388114161789417,-0.2034667432308197,-0.005408609285950661,0.0,0.0,0.0,-0.01827690564095974,-0.00325214141048491,-0.0,0.0,0.0,0.0,-0.0017061737598851323,-0.0008422039682045579,-0.002273580990731716,6407.0,42352.0,1738.0,40853.0,0.018687240779399872,0.18468526005744934,0.004745699465274811,0.17568925023078918,0.0,0.0,0.0,0.0,3970.0,43521.0,3153.0,40230.0,0.3839292526245117,-0.8872680578644027,0.15932813015586003,-0.08747400346473333,0.01444886066019535,-0.0541374571621418,-0.09963579475879669
124,5,-0.001234514988027513,0.00010671720519894734,-0.0004046712419949472,-0.00045961886644363403,-0.014551667496562004,-0.019832400605082512,0.043236296623945236,-0.05622386187314987,-0.06913929432630539,-0.008388114161789417,-0.2034667432308197,-0.005408609285950661,0.0,0.0,0.0,0.022403277456760406,-0.004813166800886393,-0.0,0.0,0.0,0.0,-0.0017061737598851323,-0.0008422039682045579,-0.002273580990731716,6407.0,42352.0,1738.0,40853.0,0.018687240779399872,0.18468526005744934,0.004745699465274811,0.17568925023078918,0.0,0.0,0.0,0.0,3970.0,43521.0,3153.0,40230.0,0.3839639127254486,-0.8838620780737546,0.1609401493811544,-0.08682593264339002,0.02138439193367958,0.06636212021112442,0.007886364124715328
129,5,-0.0012639086926355958,0.00026482055545784533,-0.00017948733875527978,-0.004252994433045387,-0.026499969884753227,-0.03747546672821045,0.0431952066719532,-0.0530213937163353,-0.06930560618638992,0.003324587130919099,-0.3164723515510559,0.015300532802939415,0.0,0.0,0.0,0.038841523230075836,-0.008332247845828533,-0.0,0.0,0.0,0.0,-0.001087084412574768,-0.00041246594628319144,-0.0023309742100536823,4613.0,43567.0,1792.0,40538.0,0.013123683631420135,0.19210705161094666,0.0048966184258461,0.1738198697566986,0.0,0.0,0.0,0.0,6489.0,44081.0,1192.0,39257.0,0.384356826543808,-0.8764161718318496,0.16007996713815809,-0.08638996024829743,0.03703824058175087,0.11513178795576096,0.06297710537910461
134,5,-0.001073620980605483,-0.00012077888823114336,-0.00042838830268010497,0.025364382192492485,0.04603393003344536,0.023603497073054314,0.0431952066719532,-0.0530213937163353,-0.06930560618638992,0.003324587130919099,-0.3164723515510559,0.015300532802939415,0.0,0.0,0.0,-0.0597737580537796,0.018502680584788322,-0.0,0.0,0.0,0.0,-0.001087084412574768,-0.00041246594628319144,-0.0023309742100536823,4613.0,43567.0,1792.0,40538.0,0.013123683631420135,0.19210705161094666,0.0048966184258461,0.1738198697566986,0.0,0.0,0.0,0.0,6489.0,44081.0,1192.0,39257.0,0.3848065733909607,-0.8919021219179131,0.15734058448090119,-0.08838289267211481,-0.08225500583648682,-0.17725631594657898,-0.1246129497885704
139,5,-0.0009845037711784244,-3.9127735362853855e-05,-0.00027431800845079124,0.020085718482732773,0.0023790178820490837,-0.014488795772194862,0.04412156715989113,-0.048252999782562256,-0.06942525506019592,-0.01977863349020481,-0.17083528637886047,0.02777411974966526,0.0,0.0,0.0,-0.0007332788081839681,0.013813307508826256,-0.0,0.0,0.0,0.0,-0.0008656891877762973,0.0006460410659201443,-0.0023170653730630875,6427.0,42204.0,118.0,41760.0,0.018751218914985657,0.1837879866361618,0.00031547248363494873,0.18110935389995575,0.0,0.0,0.0,0.0,4403.0,43646.0,1394.0,40750.0,0.3842273950576782,-0.8891863240044461,0.15826440329162383,-0.0893828190475454,-0.06142686307430267,-0.0021739641670137644,-0.00924808718264103
144,5,-0.0008518241811543703,5.963234798400663e-05,-0.0001441292406525463,0.024600857868790627,-0.013112706132233143,-0.022573065012693405,0.04412156715989113,-0.048252999782562256,-0.06942525506019592,-0.01977863349020481,-0.17083528637886047,0.02777411974966526,0.0,0.0,0.0,0.02036253921687603,0.017999980598688126,-0.0,0.0,0.0,0.0,-0.0008656891877762973,0.0006460410659201443,-0.0023170653730630875,6427.0,42204.0,118.0,41760.0,0.018751218914985657,0.1837879866361618,0.00031547248363494873,0.18110935389995575,0.0,0.0,0.0,0.0,4403.0,43646.0,1394.0,40750.0,0.3843325674533844,-0.8875285296818324,0.15850159168782368,-0.08941880421247125,-0.08004827797412872,0.06037689372897148,0.016147617250680923
149,5,-0.0010747506748884916,-0.00010045317321782932,-0.00031996204052120447,-0.023829447105526924,0.018478160724043846,0.01784467324614525,0.04402204602956772,-0.047074805945158005,-0.06943027675151825,0.00716572068631649,-0.08609956502914429,-0.0016864534700289369,0.0,0.0,0.0,-0.022569376975297928,-0.025905096903443336,-0.0,0.0,0.0,0.0,-0.0034779272973537445,0.0018563944613561034,-0.0023808281403034925,12580.0,44084.0,0.0,40691.0,0.0398125946521759,0.1953044980764389,-0.02503630518913269,0.17472566664218903,0.0,0.0,0.0,0.0,6393.0,42006.0,0.0,42186.0,0.38442325592041016,-0.8892019115376899,0.15533642733462785,-0.08960978236352593,0.1152205765247345,-0.06693413853645325,-0.1082046627998352
154,5,-0.0010491713183000684,-0.0002105399762513116,-0.00041454192250967026,-0.0035677261184901,0.02095559984445572,0.018594585359096527,0.04402204602956772,-0.047074805945158005,-0.06943027675151825,0.00716572068631649,-0.08609956502914429,-0.0016864534700289369,0.0,0.0,0.0,-0.026149507611989975,-0.0077094100415706635,-0.0,0.0,0.0,0.0,-0.0034779272973537445,0.0018563944613561034,-0.0023808281403034925,12580.0,44084.0,0.0,40691.0,0.0398125946521759,0.1953044980764389,-0.02503630518913269,0.17472566664218903,0.0,0.0,0.0,0.0,6393.0,42006.0,0.0,42186.0,0.38433921337127686,-0.8960424626198888,0.158316016604743,-0.08916931863930237,0.03428434953093529,-0.07753022760152817,-0.11286880075931549
159,5,-0.0009468546486459672,3.982767884735949e-05,-0.00013099871284794062,0.013254009187221527,-0.028764789924025536,-0.034117672592401505,0.044105492532253265,-0.046381428837776184,-0.06952878087759018,0.00019027643429581076,-0.015253385528922081,-0.0209247637540102,0.0,0.0,0.0,0.04140222445130348,0.007502945605665445,-0.0,0.0,0.0,0.0,-0.0009113230044022202,0.0022491763811558485,-0.0024080215953290462,8488.0,41181.0,0.0,44059.0,0.0254664346575737,0.17764145135879517,-0.013925768435001373,0.1951502561569214,0.0,0.0,0.0,0.0,13090.0,43923.0,0.0,40920.0,0.3846496641635895,-0.8870800023067229,0.15584289348718594,-0.0905028356873366,-0.03337201103568077,0.12280677258968353,0.04834402725100517
165,5,-0.008388995192945004,-0.02749907784163952,0.016363758593797684,0.013254009187221527,-0.028764789924025536,-0.034117672592401505,0.044105492532253265,-0.046381428837776184,-0.06952878087759018,0.00019027643429581076,-0.015253385528922081,-0.0209247637540102,0.0,0.0,0.0,-0.014359460212290287,-0.0025976926553994417,-0.0,0.0,0.0,0.0,-0.0009113230044022202,0.0022491763811558485,-0.0024080215953290462,8488.0,41181.0,0.0,44059.0,0.0254664346575737,0.17764145135879517,-0.013925768435001373,0.1951502561569214,0.0,0.0,0.0,0.0,13090.0,43923.0,0.0,40920.0,0.38435015082359314,0.5145753020755535,-0.9170524122899997,-3.0715662056799125,0.011554623953998089,-0.042582254856824875,0.2966062128543854
170,5,-0.008474024012684822,-0.027471458539366722,0.016691243276000023,-0.007927919737994671,-0.012496033683419228,-0.05608334392309189,0.044114723801612854,-0.04650203883647919,-0.06977491080760956,0.01527153979986906,0.038674067705869675,-0.020438499748706818,0.0,0.0,0.0,-0.03839166462421417,-0.022186122834682465,-0.0,0.0,0.0,0.0,-0.0009105841163545847,0.0028356406837701797,-0.002480720169842243,10019.0,43428.0,0.0,42581.0,0.03067852556705475,0.1912524402141571,-0.02366355061531067,0.18607206642627716,0.0,0.0,0.0,0.0,8434.0,41182.0,0.0,44721.0,0.38496947288513184,0.5664539552154779,-0.9467818782674892,-3.0248612107030453,0.09877299517393112,-0.11398112773895264,0.4157213568687439
175,5,-0.000676527211908251,-9.872343071037903e-05,0.00013237757957540452,-0.007927919737994671,-0.012496033683419228,-0.05608334392309189,0.044114723801612854,-0.04650203883647919,-0.06977491080760956,0.01527153979986906,0.038674067705869675,-0.020438499748706818,0.0,0.0,0.0,0.01473001204431057,-0.012133031152188778,-0.0,0.0,0.0,0.0,-0.0009105841163545847,0.0028356406837701797,-0.002480720169842243,10019.0,43428.0,0.0,42581.0,0.03067852556705475,0.1912524402141571,-0.02366355061531067,0.18607206642627716,0.0,0.0,0.0,0.0,8434.0,41182.0,0.0,44721.0,0.38466116786003113,-0.8944855067669356,0.15492528231530933,-0.09149038688408519,0.054011598229408264,0.04371609166264534,0.21701134741306305
180,5,-0.0005699137691408396,7.793396798660979e-05,0.00019828625954687595,0.012547504156827927,-0.02848084643483162,-0.026052217930555344,0.044114723801612854,-0.04650203883647919,-0.06977491080760956,0.01527153979986906,0.038674067705869675,-0.020438499748706818,0.0,0.0,0.0,0.036620013415813446,0.006375393830239773,-0.0,0.0,0.0,0.0,-0.0009105841163545847,0.0028356406837701797,-0.002480720169842243,10019.0,43428.0,0.0,42581.0,0.03067852556705475,0.1912524402141571,-0.02366355061531067,0.18607206642627716,0.0,0.0,0.0,0.0,8434.0,41182.0,0.0,44721.0,0.3848569691181183,-0.8816441329737927,0.14619077114743845,-0.09575873044035402,-0.028377948328852654,0.10869473963975906,0.12828880548477173
185,5,-0.0008651093812659383,-8.055395301198587e-05,0.00026439930661581457,-0.03756313771009445,0.013644055463373661,-0.017071492969989777,0.04457017406821251,-0.046869389712810516,-0.06978916376829147,0.0567944310605526,0.04862290993332863,-2.0133858924964443e-05,0.0,0.0,0.0,-0.020450202748179436,-0.0390620194375515,-0.0,0.0,0.0,0.0,-0.0025507528334856033,0.0020787748508155346,-0.0024819588288664818,10096.0,43003.0,0.0,42980.0,0.030944183468818665,0.18864771723747253,-0.023736685514450073,0.18850718438625336,0.0,0.0,0.0,0.0,10164.0,43405.0,0.0,42411.0,0.38498157262802124,-0.8915916348234043,0.15491280582585276,-0.08956979186754778,0.17397210001945496,-0.06073914095759392,0.1029265820980072
190,5,0.17017275094985962,-0.3384990394115448,-0.21958747506141663,0.005570907611399889,0.009240628220140934,0.02117408812046051,0.04457017406821251,-0.046869389712810516,-0.06978916376829147,0.0567944310605526,0.04862290993332863,-2.0133858924964443e-05,0.0,0.0,0.0,-0.2753855586051941,0.11568483710289001,-0.0,0.0,0.0,0.0,-0.0025507528334856033,0.0020787748508155346,-0.0024819588288664818,10096.0,43003.0,0.0,42980.0,0.030944183468818665,0.18864771723747253,-0.023736685514450073,0.18850718438625336,0.0,0.0,0.0,0.0,10164.0,43405.0,0.0,42411.0,0.7980279922485352,-1.797308086870761,-0.6085678002932051,-0.08965778211961434,-1.0259623527526855,-2.076362133026123,-3.330819845199585
195,5,0.16974525153636932,-0.3387986421585083,-0.22013847529888153,-0.05817903205752373,0.044716447591781616,0.08349407464265823,0.045098647475242615,-0.047289688140153885,-0.0697496309876442,0.07318741083145142,0.07478048652410507,0.007467273622751236,0.0,0.0,0.0,-0.30661770701408386,0.09224219620227814,-0.0,0.0,0.0,0.0,-0.002328367903828621,0.0024421457201242447,-0.0024851371999830008,10595.0,42875.0,0.0,43182.0,0.03268784284591675,0.1878645420074463,-0.025932498276233673,0.18974250555038452,0.0,0.0,0.0,0.0,8619.0,40663.0,0.0,45121.0,0.8035605549812317,-1.798699291539556,-0.6029935387590074,-0.08968468632276953,-0.8167240619659424,-2.3161985874176025,-4.30562162399292
200,5,0.16965541243553162,-0.33932119607925415,-0.2201520949602127,-0.030032001435756683,0.08657073974609375,0.02695433981716633,0.045098647475242615,-0.047289688140153885,-0.0697496309876442,0.07318741083145142,0.07478048652410507,0.007467273622751236,0.0,0.0,0.0,-0.3394724428653717,0.11035940051078796,-0.0,0.0,0.0,0.0,-0.002328367903828621,0.0024421457201242447,-0.0024851371999830008,10595.0,42875.0,0.0,43182.0,0.03268784284591675,0.1878645420074463,-0.025932498276233673,0.18974250555038452,0.0,0.0,0.0,0.0,8619.0,40663.0,0.0,45121.0,0.8139491677284241,-1.7628013240658942,-0.6259108746899724,-0.06907762674881682,-0.97867751121521,-2.582210063934326,-4.945217132568359
205,5,-0.006491819862276316,0.0016612856416031718,-0.02243467979133129,-0.030032001435756683,0.08657073974609375,0.02695433981716633,0.04626493528485298,-0.04808087274432182,-0.06940997391939163,0.11431203037500381,0.06821740418672562,0.021170686930418015,0.0,0.0,0.0,-0.15861034393310547,-0.006481508258730173,-0.0,0.0,0.0,0.0,-0.0006733069894835353,0.002756670583039522,-0.002483829390257597,8199.0,40981.0,0.0,45094.0,0.024505965411663055,0.17644599080085754,-0.017703868448734283,0.20160886645317078,0.0,0.0,0.0,0.0,39395.0,58515.0,14014.0,58515.0,0.4421340823173523,2.340079860215809,0.30936976724868565,-2.8869814290024287,0.032751213759183884,-0.53631192445755,-2.7175261974334717
210,5,-0.03397700935602188,-0.05050692334771156,0.004298106301575899,-0.030032001435756683,0.08657073974609375,0.02695433981716633,0.04626493528485298,-0.04808087274432182,-0.06940997391939163,0.11431203037500381,0.06821740418672562,0.021170686930418015,0.0,0.0,0.0,-0.21364787220954895,-0.03366218879818916,-0.0,0.0,0.0,0.0,-0.0006733069894835353,0.002756670583039522,-0.002483829390257597,8199.0,40981.0,0.0,45094.0,0.024505965411663055,0.17644599080085754,-0.017703868448734283,0.20160886645317078,0.0,0.0,0.0,0.0,39395.0,58515.0,14014.0,58515.0,0.5234399437904358,-2.5465847458737487,-0.33725026860553386,-1.2506115774886986,0.19933032989501953,-0.849131166934967,-2.3825018405914307
215,5,-0.03416702523827553,-0.050406720489263535,0.004562490154057741,-0.03561211749911308,0.01194286160171032,-0.028927436098456383,0.04768900200724602,-0.048720601946115494,-0.06925318390130997,0.225051611661911,0.09066792577505112,0.019917821511626244,0.0,0.0,0.0,-0.15778020024299622,-0.0443422794342041,-0.0,0.0,0.0,0.0,-0.004999999888241291,0.004999999888241291,-0.0025079299230128527,39374.0,58531.0,13982.0,58531.0,0.16698884963989258,0.29327547550201416,0.04503761976957321,0.29327547550201416,0.0,0.0,0.0,0.0,40120.0,58989.0,15123.0,58989.0,0.45593705773353577,-2.5449991594963617,-0.3407399498170032,-1.2459364331790421,0.23108242452144623,-0.5502117872238159,-2.1977617740631104
220,5,-0.03416453301906586,-0.05048083886504173,0.004519931972026825,-0.010334744118154049,0.013959319330751896,-0.0027200705371797085,0.04768900200724602,-0.048720601946115494,-0.06925318390130997,0.225051611661911,0.09066792577505112,0.019917821511626244,0.0,0.0,0.0,-0.1619948297739029,-0.026772571727633476,-0.0,0.0,0.0,0.0,-0.004999999888241291,0.004999999888241291,-0.0025079299230128527,39374.0,58531.0,13982.0,58531.0,0.16698884963989258,0.29327547550201416,0.04503761976957321,0.29327547550201416,0.0,0.0,0.0,0.0,40120.0,58989.0,15123.0,58989.0,0.4511597752571106,-2.5461766528261207,-0.33994726890036603,-1.2484713322904009,0.13802136480808258,-0.5587223172187805,-2.2635672092437744
225,5,-0.03382532671093941,-0.050630856305360794,0.003942260518670082,0.04438858851790428,0.025190342217683792,0.08005798608064651,0.05040336027741432,-0.04937877506017685,-0.06898881494998932,0.24979983270168304,-5.177752609597519e-05,-0.005167048424482346,0.0,0.0,0.0,-0.17232953011989594,0.01427408680319786,-0.0,0.0,0.0,0.0,-0.004999999888241291,0.004999999888241291,-0.0025314241647720337,39799.0,59244.0,14633.0,59244.0,0.169467031955719,0.2985427677631378,0.04751581698656082,0.2985427677631378,0.0,0.0,0.0,0.0,20838.0,52445.0,0.0,45618.0,0.4594510495662689,-2.549825159960655,-0.33121236933100767,-1.2593534051703597,-0.07471109926700592,-0.6045464873313904,-2.5070786476135254
231,5,-0.03376595303416252,-0.050720084458589554,0.003809023182839155,0.021629195660352707,0.020048795267939568,0.0426706038415432,0.05040336027741432,-0.04937877506017685,-0.06898881494998932,0.24979983270168304,-5.177752609597519e-05,-0.005167048424482346,0.0,0.0,0.0,-0.168672576546669,-0.004653634037822485,-0.0,0.0,0.0,0.0,-0.004999999888241291,0.004999999888241291,-0.0025314241647720337,39799.0,59244.0,14633.0,59244.0,0.169467031955719,0.2985427677631378,0.04751581698656082,0.2985427677631378,0.0,0.0,0.0,0.0,20838.0,52445.0,0.0,45618.0,0.4536576569080353,-2.5520625997533486,-0.3290070360314264,-1.2612646859035261,0.024087831377983093,-0.5845156908035278,-2.385101795196533
236,5,0.0018567892257124186,-0.0002166579943150282,0.05373504385352135,0.021629195660352707,0.020048795267939568,0.0426706038415432,0.052571024745702744,-0.04896111413836479,-0.06895577907562256,0.24059246480464935,-0.1295146346092224,0.030542291700839996,0.0,0.0,0.0,-0.008623800240457058,0.009843384847044945,-0.0,0.0,0.0,0.0,-0.004999999888241291,0.0009202125947922468,-0.002543335547670722,20538.0,52633.0,363.0,44821.0,0.07156290858983994,0.2512543797492981,0.0009719952940940857,0.19989407062530518,0.0,0.0,0.0,0.0,15848.0,50154.0,0.0,42261.0,0.9115121960639954,0.8826515205540617,0.1463894709320874,-0.17353195309421238,-0.10384128242731094,-0.0909791812300682,-0.7390062212944031
241,5,0.7836243510246277,-2.8125665187835693,-0.48092490434646606,0.021629195660352707,0.020048795267939568,0.0426706038415432,0.052571024745702744,-0.04896111413836479,-0.06895577907562256,0.24059246480464935,-0.1295146346092224,0.030542291700839996,0.0,0.0,0.0,-1.2437559366226196,0.4974867105484009,-0.0,0.0,0.0,0.0,-0.004999999888241291,0.0009202125947922468,-0.002543335547670722,20538.0,52633.0,363.0,44821.0,0.07156290858983994,0.2512543797492981,0.0009719952940940857,0.19989407062530518,0.0,0.0,0.0,0.0,15848.0,50154.0,0.0,42261.0,2.7021584510803223,0.0,0.0,0.0,-4.7960991859436035,-16.983720779418945,-7.402000904083252
246,5,0.7836243510246277,-2.8125665187835693,-0.48092490434646606,0.006488758604973555,0.00601463858038187,0.01280118152499199,0.055153749883174896,-0.04707721620798111,-0.06858090311288834,0.17191661894321442,-0.18438725173473358,0.0876469612121582,0.0,0.0,0.0,-1.2441504001617432,0.5090611577033997,-0.0,0.0,0.0,0.0,-0.004999999888241291,0.000595928227994591,-0.002523283939808607,16176.0,49961.0,0.0,41375.0,0.0535300076007843,0.23313212394714355,-0.014088541269302368,0.17879945039749146,0.0,0.0,0.0,0.0,18071.0,48983.0,0.0,42028.0,2.722599506378174,0.0,0.0,0.0,-4.927700996398926,-17.099456787109375,-8.935514450073242
251,5,0.1708230823278427,-0.3175404965877533,-0.22739233076572418,0.006488758604973555,0.00601463858038187,0.01280118152499199,0.055153749883174896,-0.04707721620798111,-0.06858090311288834,0.17191661894321442,-0.18438725173473358,0.0876469612121582,0.0,0.0,0.0,-0.2812768220901489,0.14074334502220154,-0.0,0.0,0.0,0.0,-0.004999999888241291,0.000595928227994591,-0.002523283939808607,16176.0,49961.0,0.0,41375.0,0.0535300076007843,0.23313212394714355,-0.014088541269302368,0.17879945039749146,0.0,0.0,0.0,0.0,18071.0,48983.0,0.0,42028.0,0.8019593358039856,-0.2550359420149867,-0.3805284366317358,2.4535025730645907,-1.250893473625183,-2.1293015480041504,-5.949288368225098
256,5,0.010066211223602295,0.004339352250099182,0.01554508414119482,0.006488758604973555,0.00601463858038187,0.01280118152499199,0.055664874613285065,-0.04548557475209236,-0.06787318736314774,-0.007829803973436356,-0.2136000394821167,0.07856607437133789,0.0,0.0,0.0,-0.06479296088218689,0.06265813112258911,-0.0,0.0,0.0,0.0,-0.004999999888241291,0.004999999888241291,-0.0025517179165035486,17256.0,49486.0,0.0,41717.0,0.057852938771247864,0.22997374832630157,-0.014974310994148254,0.18084977567195892,0.0,0.0,0.0,0.0,98377.0,110000.0,86275.0,110000.0,0.3959425389766693,1.887702739585365,0.4378995326186989,2.636063567089718,-0.2863523066043854,-0.1976492553949356,-2.2885162830352783
261,5,-0.0015377848176285625,0.0015555127756670117,0.0005563825252465904,0.006488758604973555,0.00601463858038187,0.01280118152499199,0.055664874613285065,-0.04548557475209236,-0.06787318736314774,-0.007829803973436356,-0.2136000394821167,0.07856607437133789,0.0,0.0,0.0,-0.07188331335783005,0.048645585775375366,-0.0,0.0,0.0,0.0,-0.004999999888241291,0.004999999888241291,-0.0025517179165035486,17256.0,49486.0,0.0,41717.0,0.057852938771247864,0.22997374832630157,-0.014974310994148254,0.18084977567195892,0.0,0.0,0.0,0.0,98377.0,110000.0,86275.0,110000.0,0.3860771656036377,-0.7997035547647205,0.15050468289776353,-0.11498195108037652,-0.21672217547893524,-0.21374724805355072,-2.486503839492798
266,5,-0.0012962586479261518,0.0008004524861462414,0.0005938245449215174,0.035760294646024704,0.10751283913850784,-0.0014015279011800885,0.05451292544603348,-0.043351467698812485,-0.06738999485969543,-0.161235049366951,-0.16414982080459595,0.05341295525431633,0.0,0.0,0.0,-0.16930727660655975,0.06088186800479889,-0.0,0.0,0.0,0.0,-0.004999999888241291,0.004999999888241291,-0.0027316708583384752,53829.0,65535.0,41723.0,65535.0,0.6499452590942383,0.7790535688400269,0.5279941558837891,0.7790535688400269,0.0,0.0,0.0,0.0,98403.0,109977.0,86303.0,109977.0,0.4824487566947937,-0.8366654143338641,0.15030654922890427,-0.10322419833161249,-0.33489033579826355,-0.6239030957221985,-2.4416611194610596
271,5,-0.0013350207591429353,0.00019086252723354846,0.0003506088687572628,0.005301389843225479,0.11759644001722336,0.03362973779439926,0.05451292544603348,-0.043351467698812485,-0.06738999485969543,-0.161235049366951,-0.16414982080459595,0.05341295525431633,0.0,0.0,0.0,-0.18190701305866241,0.03879904747009277,-0.0,0.0,0.0,0.0,-0.004999999888241291,0.004999999888241291,-0.0027316708583384752,53829.0,65535.0,41723.0,65535.0,0.6499452590942383,0.7790535688400269,0.5279941558837891,0.7790535688400269,0.0,0.0,0.0,0.0,98403.0,109977.0,86303.0,109977.0,0.48132064938545227,-0.8657271244939311,0.15194244423227735,-0.09754035920937662,-0.21252118051052094,-0.6677130460739136,-2.548699378967285
276,5,-0.001316015375778079,-0.0002798734640236944,0.00038268277421593666,0.004251162521541119,0.10118197649717331,0.005598575342446566,0.05268724635243416,-0.04224812984466553,-0.06742735207080841,-0.28835517168045044,-0.1214035153388977,-0.11108382046222687,0.0,0.0,0.0,-0.169769749045372,0.039118945598602295,-0.0,0.0,0.0,0.0,-0.0037817591801285744,0.0031866233330219984,-0.0026022191159427166,37711.0,60049.0,11379.0,60049.0,0.15741288661956787,0.3045423924922943,0.0354616716504097,0.3045423924922943,0.0,0.0,0.0,0.0,37329.0,60338.0,10768.0,60338.0,0.46645617485046387,-0.8871312667130287,0.15551111555939076,-0.09119397606109034,-0.20810601115226746,-0.6048354506492615,-2.4630441665649414
281,5,0.15000690519809723,-0.3743952810764313,-0.191584512591362,0.004251162521541119,0.10118197649717331,0.005598575342446566,0.05268724635243416,-0.04224812984466553,-0.06742735207080841,-0.28835517168045044,-0.1214035153388977,-0.11108382046222687,0.0,0.0,0.0,-0.3720487058162689,0.1258062720298767,-0.0,0.0,0.0,0.0,-0.0037817591801285744,0.0031866233330219984,-0.0026022191159427166,37711.0,60049.0,11379.0,60049.0,0.15741288661956787,0.3045423924922943,0.0354616716504097,0.3045423924922943,0.0,0.0,0.0,0.0,37329.0,60338.0,10768.0,60338.0,0.8253734707832336,2.8350947169285847,-0.19522587491982252,-1.3850991457891244,-1.1169408559799194,-2.8510994911193848,-5.360610485076904
286,5,0.15734556317329407,-0.31499579548835754,-0.21617045998573303,0.004251162521541119,0.10118197649717331,0.005598575342446566,0.05268724635243416,-0.04224812984466553,-0.06742735207080841,-0.28835517168045044,-0.1214035153388977,-0.11108382046222687,0.0,0.0,0.0,-0.3277725875377655,0.13075697422027588,-0.0,0.0,0.0,0.0,-0.0037817591801285744,0.0031866233330219984,-0.0026022191159427166,37711.0,60049.0,11379.0,60049.0,0.15741288661956787,0.3045423924922943,0.0354616716504097,0.3045423924922943,0.0,0.0,0.0,0.0,37329.0,60338.0,10768.0,60338.0,0.8126580119132996,0.4972636408058799,-0.5850418268981878,1.0737639889024964,-1.1610779762268066,-2.4947025775909424,-5.759352684020996
292,5,-0.010115782730281353,-0.02917918562889099,0.01478477381169796,0.004251162521541119,0.10118197649717331,0.005598575342446566,0.04143177345395088,-0.036087289452552795,-0.06597742438316345,-0.8137141466140747,-0.4704483151435852,0.22928549349308014,0.0,0.0,0.0,-0.2032010406255722,0.027321357280015945,-0.0,0.0,0.0,0.0,-0.004999999888241291,0.001491434988565743,-0.0022939525078982115,20373.0,48482.0,0.0,41812.0,0.07085374742746353,0.22334998846054077,-0.009167909622192383,0.18142041563987732,0.0,0.0,0.0,0.0,14091.0,43010.0,0.0,41703.0,0.5046897530555725,0.5707037894508675,-0.9683613906550722,-3.1037810343966807,-0.1562897264957428,-0.7798030376434326,-2.294654607772827
297,5,-0.0016410975949838758,-0.000650528643745929,2.976322548420285e-06,0.004251162521541119,0.10118197649717331,0.005598575342446566,0.04143177345395088,-0.036087289452552795,-0.06597742438316345,-0.8137141466140747,-0.4704483151435852,0.22928549349308014,0.0,0.0,0.0,-0.17062221467494965,0.03845428675413132,-0.0,0.0,0.0,0.0,-0.004999999888241291,0.001491434988565743,-0.0022939525078982115,20373.0,48482.0,0.0,41812.0,0.07085374742746353,0.22334998846054077,-0.009167909622192383,0.18142041563987732,0.0,0.0,0.0,0.0,14091.0,43010.0,0.0,41703.0,0.46708646416664124,-0.8949869506388128,0.1519522677175429,-0.08746792527669424,-0.20481830835342407,-0.6086310744285583,-2.4742445945739746
302,5,-0.0014691464602947235,-0.000625341257546097,0.00010417099110782146,0.025348518043756485,0.026828357949852943,-0.012487680651247501,0.029241440817713737,-0.029435113072395325,-0.06327029317617416,-1.1499593257904053,-0.6024686694145203,0.2663094103336334,0.0,0.0,0.0,-0.09763416647911072,0.06077534705400467,-0.0,0.0,0.0,0.0,-0.004999999888241291,0.003625127486884594,-0.002215218497440219,40377.0,58689.0,19811.0,56279.0,0.17286600172519684,0.29443860054016113,0.06845095753669739,0.276902437210083,0.0,0.0,0.0,0.0,19576.0,48999.0,0.0,41000.0,0.4142993688583374,-0.8967725036643186,0.15056421013786656,-0.08960096526112181,-0.2898564636707306,-0.3110654652118683,-2.4184515476226807
307,5,-0.0014856597408652306,-0.000694053596816957,0.00020650186343118548,0.005292694550007582,0.017668237909674644,-0.018072625622153282,0.029241440817713737,-0.029435113072395325,-0.06327029317617416,-1.1499593257904053,-0.6024686694145203,0.2663094103336334,0.0,0.0,0.0,-0.09025266021490097,0.0458662249147892,-0.0,0.0,0.0,0.0,-0.004999999888241291,0.003625127486884594,-0.002215218497440219,40377.0,58689.0,19811.0,56279.0,0.17286600172519684,0.29443860054016113,0.06845095753669739,0.276902437210083,0.0,0.0,0.0,0.0,19576.0,48999.0,0.0,41000.0,0.39579227566719055,-0.8999630445859926,0.15378761194929869,-0.08685285932224068,-0.20917844772338867,-0.27483728528022766,-2.399838924407959
312,5,-0.00129899347666651,-0.0007208738243207335,0.00026441930094733834,0.027721086516976357,0.009055305272340775,-0.013530231080949306,0.019045177847146988,-0.024455217644572258,-0.06109018623828888,-1.3765925168991089,-0.7015315294265747,0.2886318266391754,0.0,0.0,0.0,-0.07723655551671982,0.0642467513680458,-0.0,0.0,0.0,0.0,-0.004263290669769049,0.0004130972665734589,-0.002104576677083969,19089.0,47906.0,3980.0,40037.0,0.0654027909040451,0.21958787739276886,0.011223122477531433,0.1708671599626541,0.0,0.0,0.0,0.0,40667.0,58455.0,20195.0,56051.0,0.4044768810272217,-0.9005841554473375,0.14981089740385656,-0.08888576226486149,-0.2996647357940674,-0.24054646492004395,-2.411991834640503
317,5,-0.030244160443544388,-0.0003727650037035346,0.0040429746732115746,0.027721086516976357,0.009055305272340775,-0.013530231080949306,0.019045177847146988,-0.024455217644572258,-0.06109018623828888,-1.3765925168991089,-0.7015315294265747,0.2886318266391754,0.0,0.0,0.0,-0.08189058303833008,0.028806863352656364,-0.0,0.0,0.0,0.0,-0.004263290669769049,0.0004130972665734589,-0.002104576677083969,19089.0,47906.0,3980.0,40037.0,0.0654027909040451,0.21958787739276886,0.011223122477531433,0.1708671599626541,0.0,0.0,0.0,0.0,40667.0,58455.0,20195.0,56051.0,0.37827590107917786,2.2825614949410973,-0.16268566393517753,2.950151051113088,-0.12568198144435883,-0.2384578138589859,-2.3544259071350098
322,5,-0.03028358332812786,-0.0004959763027727604,0.0036511686630547047,0.002797054359689355,0.01996617391705513,0.05079376697540283,0.00019011252152267843,-0.014469590038061142,-0.058063942939043045,-1.7097551822662354,-0.8888674378395081,0.24881038069725037,0.0,0.0,0.0,-0.09634251147508621,0.004204708617180586,-0.0,0.0,0.0,0.0,-0.00040547249955125153,-0.0010364892659708858,-0.0021353575866669416,5308.0,42760.0,7650.0,40004.0,0.015248201787471771,0.1871642768383026,0.02269633859395981,0.1706690490245819,0.0,0.0,0.0,0.0,17183.0,48122.0,5866.0,40152.0,0.38172411918640137,2.2593322596275978,-0.1729563412454392,2.9519566501235306,-0.018430067226290703,-0.2828405499458313,-2.541064500808716
327,5,-0.03005092777311802,-0.00047992312465794384,0.003624743316322565,0.03341110423207283,0.0037424054462462664,0.018937667831778526,0.00019011252152267843,-0.014469590038061142,-0.058063942939043045,-1.7097551822662354,-0.8888674378395081,0.24881038069725037,0.0,0.0,0.0,-0.07540792971849442,0.031215960159897804,-0.0,0.0,0.0,0.0,-0.00040547249955125153,-0.0010364892659708858,-0.0021353575866669416,5308.0,42760.0,7650.0,40004.0,0.015248201787471771,0.1871642768383026,0.02269633859395981,0.1706690490245819,0.0,0.0,0.0,0.0,17183.0,48122.0,5866.0,40152.0,0.37515759468078613,2.251592218433792,-0.17372721299049523,2.9537229144150197,-0.1351357400417328,-0.21784916520118713,-2.43512225151062
332,5,-0.03012058511376381,-0.0005818292847834527,0.0035724155604839325,0.00027124551706947386,0.015389586798846722,0.013007189147174358,-0.01610475778579712,-0.005641724914312363,-0.055876072496175766,-2.18933367729187,-1.1336697340011597,0.2354099601507187,0.0,0.0,0.0,-0.09127908200025558,-0.0011341520585119724,-0.0,0.0,0.0,0.0,0.001696963794529438,-0.0035990290343761444,-0.002038964768871665,0.0,42044.0,15484.0,38190.0,-0.01579596847295761,0.1828218400478363,0.05080964416265488,0.1601477861404419,0.0,0.0,0.0,0.0,0.0,42299.0,16546.0,38744.0,0.377429336309433,2.2500534959060956,-0.17428239346751173,2.95393965867813,0.004933797754347324,-0.2650493085384369,-2.407424211502075
337,5,0.16243641078472137,-0.35036271810531616,-0.23119933903217316,0.00027124551706947386,0.015389586798846722,0.013007189147174358,-0.01610475778579712,-0.005641724914312363,-0.055876072496175766,-2.18933367729187,-1.1336697340011597,0.2354099601507187,0.0,0.0,0.0,-0.3114220201969147,0.1288132518529892,-0.0,0.0,0.0,0.0,0.001696963794529438,-0.0035990290343761444,-0.002038964768871665,0.0,42044.0,15484.0,38190.0,-0.01579596847295761,0.1828218400478363,0.05080964416265488,0.1601477861404419,0.0,0.0,0.0,0.0,0.0,42299.0,16546.0,38744.0,0.8080707788467407,1.6110848384396133,0.8526316816401859,-1.6356083032670827,-1.1439495086669922,-2.363734722137451,-5.9300217628479
342,5,0.1628010869026184,-0.3501947224140167,-0.23100125789642334,0.05113598331809044,-0.018904631957411766,-0.02383086085319519,-0.045179665088653564,0.009256706573069096,-0.05345657467842102,-2.6059436798095703,-1.344494342803955,0.1296384185552597,0.0,0.0,0.0,-0.29289332032203674,0.155197873711586,-0.0,0.0,0.0,0.0,0.0031551229767501354,-0.004516849294304848,-0.002225468633696437,0.0,42326.0,18019.0,39759.0,-0.039965786039829254,0.1845255196094513,0.060963861644268036,0.16923421621322632,0.0,0.0,0.0,0.0,0.0,41785.0,19173.0,40359.0,0.8064502477645874,1.6058638179588813,0.8675843269948011,-1.638865093076291,-1.3813503980636597,-2.2255496978759766,-5.893526077270508
348,5,-0.0310665350407362,-0.000803080853074789,0.004084613639861345,0.05113598331809044,-0.018904631957411766,-0.02383086085319519,-0.045179665088653564,0.009256706573069096,-0.05345657467842102,-2.6059436798095703,-1.344494342803955,0.1296384185552597,0.0,0.0,0.0,-0.0447884127497673,0.05043666064739227,-0.0,0.0,0.0,0.0,0.0031551229767501354,-0.004516849294304848,-0.002225468633696437,0.0,42326.0,18019.0,39759.0,-0.039965786039829254,0.1845255196094513,0.060963861644268036,0.16923421621322632,0.0,0.0,0.0,0.0,0.0,41785.0,19173.0,40359.0,0.37411776185035706,2.2893148154300227,-0.16386756620282575,2.9429702026816726,-0.21808259189128876,-0.12919995188713074,-2.367136001586914
353,5,0.18521952629089355,-0.3785373866558075,-0.19456012547016144,0.05113598331809044,-0.018904631957411766,-0.02383086085319519,-0.0676075667142868,0.019851751625537872,-0.05179356783628464,-2.9293978214263916,-1.336303472518921,0.15760952234268188,0.0,0.0,0.0,-0.31360700726509094,0.16926735639572144,-0.0,0.0,0.0,0.0,0.004999999888241291,-0.004999999888241291,-0.0021672763396054506,0.0,40604.0,21134.0,40604.0,-0.047806303948163986,0.1742096096277237,0.07414491474628448,0.1742096096277237,0.0,0.0,0.0,0.0,31435.0,59570.0,31836.0,53709.0,0.8135656118392944,0.11175476660561945,-0.5549247351863899,-0.8171304666843581,-1.5092703104019165,-2.3956058025360107,-5.344587802886963
358,5,0.13376188278198242,-0.3124481439590454,-0.23316596448421478,0.05113598331809044,-0.018904631957411766,-0.02383086085319519,-0.0676075667142868,0.019851751625537872,-0.05179356783628464,-2.9293978214263916,-1.336303472518921,0.15760952234268188,0.0,0.0,0.0,-0.26481643319129944,0.13587914407253265,-0.0,0.0,0.0,0.0,0.004999999888241291,-0.004999999888241291,-0.0021672763396054506,0.0,40604.0,21134.0,40604.0,-0.047806303948163986,0.1742096096277237,0.07414491474628448,0.1742096096277237,0.0,0.0,0.0,0.0,31435.0,59570.0,31836.0,53709.0,0.7977306842803955,1.7561724414611557,-0.8893780365827112,-0.33754205944401805,-1.2071151733398438,-1.9990702867507935,-5.925996780395508
363,5,-0.0018124975031241775,-0.00035620140261016786,0.0007915039313957095,0.05113598331809044,-0.018904631957411766,-0.02383086085319519,-0.10433626174926758,0.033466290682554245,-0.04827035591006279,-3.1394777297973633,-1.0321754217147827,0.21645985543727875,0.0,0.0,0.0,-0.03994661942124367,0.08297867327928543,-0.0,0.0,0.0,0.0,-0.001122747897170484,-0.0010875657899305224,-0.0020028080325573683,32495.0,57836.0,31980.0,54635.0,0.1288330852985382,0.28817564249038696,0.1261318325996399,0.2652038633823395,0.0,0.0,0.0,0.0,0.0,36348.0,20046.0,41261.0,0.41069889068603516,-0.8744204772091889,0.16032063155882212,-0.08694692964173513,-0.3936689496040344,-0.12651868164539337,-2.4166347980499268
368,5,-0.001978072803467512,-0.0003557801537681371,0.0008419259684160352,-0.007839762605726719,-0.005730363540351391,-0.014208345673978329,-0.10433626174926758,0.033466290682554245,-0.04827035591006279,-3.1394777297973633,-1.0321754217147827,0.21645985543727875,0.0,0.0,0.0,-0.03995572775602341,0.08290725201368332,-0.0,0.0,0.0,0.0,-0.001122747897170484,-0.0010875657899305224,-0.0020028080325573683,32495.0,57836.0,31980.0,54635.0,0.1288330852985382,0.28817564249038696,0.1261318325996399,0.2652038633823395,0.0,0.0,0.0,0.0,0.0,36348.0,20046.0,41261.0,0.37075075507164,-0.8787923116812395,0.16163458696244126,-0.08180613956304202,-0.1563408076763153,-0.17921322584152222,-2.442390203475952
373,5,-0.0018141064792871475,-0.00036291760625317693,0.0007279698620550334,0.0206033643335104,-0.0007198634557425976,0.011691350489854813,-0.13037720322608948,0.0396130234003067,-0.04506567120552063,-3.3557426929473877,-0.7511893510818481,0.3579186499118805,0.0,0.0,0.0,-0.06578239798545837,0.05962490290403366,-0.0,0.0,0.0,0.0,0.004999999888241291,-0.002067284658551216,-0.001692773774266243,0.0,34061.0,21022.0,40554.0,-0.011560596525669098,0.13718290627002716,0.07366043329238892,0.1739131063222885,0.0,0.0,0.0,0.0,32481.0,50126.0,36089.0,57597.0,0.3932415843009949,-0.8798396101334541,0.15897046630639936,-0.08576487992178687,-0.27062666416168213,-0.19929805397987366,-2.519296646118164
378,5,-0.001725443173199892,-0.000627730623818934,0.0006887690396979451,0.01859387196600437,0.036857858300209045,0.008995521813631058,-0.13037720322608948,0.0396130234003067,-0.04506567120552063,-3.3557426929473877,-0.7511893510818481,0.3579186499118805,0.0,0.0,0.0,-0.10943514853715897,0.05469386652112007,-0.0,0.0,0.0,0.0,0.004999999888241291,-0.002067284658551216,-0.001692773774266243,0.0,34061.0,21022.0,40554.0,-0.011560596525669098,0.13718290627002716,0.07366043329238892,0.1739131063222885,0.0,0.0,0.0,0.0,32481.0,50126.0,36089.0,57597.0,0.41767045855522156,-0.8954393758450863,0.16200432756087807,-0.08368354113500762,-0.262685626745224,-0.3511978089809418,-2.509615182876587
383,5,-0.0014824352692812681,-0.0008009602315723896,0.0006328869494609535,0.039599280804395676,0.03530950844287872,0.01052214577794075,-0.17209550738334656,0.04623511806130409,-0.03992260992527008,-3.518003463745117,-0.4814014434814453,0.3312470018863678,0.0,0.0,0.0,-0.10480567812919617,0.07038859277963638,-0.0,0.0,0.0,0.0,0.003582882694900036,0.0019696629606187344,-0.0015747788129374385,33050.0,48467.0,36118.0,58664.0,0.13176874816417694,0.22325251996517181,0.14845682680606842,0.29425257444381714,0.0,0.0,0.0,0.0,0.0,32317.0,20068.0,41036.0,0.4295693635940552,-0.904252078111327,0.16050467873563978,-0.08515390943209156,-0.34775516390800476,-0.34604379534721375,-2.5129857063293457
388,5,-0.001691069221124053,-0.0007285635801963508,0.0006017149426043034,-0.017328979447484016,0.0004573208570946008,0.007520732004195452,-0.17209550738334656,0.04623511806130409,-0.03992260992527008,-3.518003463745117,-0.4814014434814453,0.3312470018863678,0.0,0.0,0.0,-0.07218769937753677,0.027667587623000145,-0.0,0.0,0.0,0.0,0.003582882694900036,0.0019696629606187344,-0.0015747788129374385,33050.0,48467.0,36118.0,58664.0,0.13176874816417694,0.22325251996517181,0.14845682680606842,0.29425257444381714,0.0,0.0,0.0,0.0,0.0,32317.0,20068.0,41036.0,0.37087616324424744,-0.8939096165078441,0.15793644788932218,-0.08563819761807918,-0.11843665689229965,-0.20620065927505493,-2.502567768096924
393,5,-0.001612022053450346,-0.0007661207346245646,0.0005998928099870682,0.005867907777428627,0.005395194981247187,0.0025113120209425688,-0.20057375729084015,0.04939530789852142,-0.03716930001974106,-3.577826499938965,-0.40201282501220703,0.25184330344200134,0.0,0.0,0.0,-0.07583571970462799,0.04728861153125763,-0.0,0.0,0.0,0.0,0.004999999888241291,-0.0005698759341612458,-0.0016081761568784714,0.0,31915.0,19442.0,41481.0,-0.001420091837644577,0.12579092383384705,0.06688672304153442,0.17943532764911652,0.0,0.0,0.0,0.0,5948.0,32828.0,21305.0,44018.0,0.38731148838996887,-0.899547671077527,0.16017602427344588,-0.08563778682584867,-0.2112927883863449,-0.22617749869823456,-2.4857616424560547
398,5,-0.010723565705120564,-0.029129426926374435,0.015447921119630337,0.005867907777428627,0.005395194981247187,0.0025113120209425688,-0.20057375729084015,0.04939530789852142,-0.03716930001974106,-3.577826499938965,-0.40201282501220703,0.25184330344200134,0.0,0.0,0.0,-0.12440121173858643,0.03276446461677551,-0.0,0.0,0.0,0.0,0.004999999888241291,-0.0005698759341612458,-0.0016081761568784714,0.0,31915.0,19442.0,41481.0,-0.001420091837644577,0.12579092383384705,0.06688672304153442,0.17943532764911652,0.0,0.0,0.0,0.0,5948.0,32828.0,21305.0,44018.0,0.41518262028694153,0.5211091409838248,-0.9504414809077099,-3.120541961412119,-0.15620020031929016,-0.39635732769966125,-2.2604992389678955
404,5,-0.040496766567230225,-0.008610972203314304,0.038537200540304184,0.005867907777428627,0.005395194981247187,0.0025113120209425688,-0.20057375729084015,0.04939530789852142,-0.03716930001974106,-3.577826499938965,-0.40201282501220703,0.25184330344200134,0.0,0.0,0.0,-0.0935782790184021,-0.0057317595928907394,-0.0,0.0,0.0,0.0,0.004999999888241291,-0.0005698759341612458,-0.0016081761568784714,0.0,31915.0,19442.0,41481.0,-0.001420091837644577,0.12579092383384705,0.06688672304153442,0.17943532764911652,0.0,0.0,0.0,0.0,5948.0,32828.0,21305.0,44018.0,0.37959906458854675,0.9103031421430487,-0.15117437673886172,-0.8883679950670735,0.025153206661343575,-0.2732466161251068,-1.8662755489349365
409,5,-0.0014276090078055859,-0.0007193583878688514,0.000776591245085001,0.005867907777428627,0.005395194981247187,0.0025113120209425688,-0.2429371029138565,0.052608925849199295,-0.03297180309891701,-3.461094379425049,-0.272548109292984,0.3041221499443054,0.0,0.0,0.0,-0.07610180974006653,0.0449049137532711,-0.0,0.0,0.0,0.0,0.004999999888241291,0.000759174523409456,-0.0014536830130964518,8192.0,31446.0,21508.0,43874.0,0.0244833305478096,0.12335071712732315,0.07577934116125107,0.19400590658187866,0.0,0.0,0.0,0.0,2622.0,30247.0,19330.0,41571.0,0.385483980178833,-0.8986931865211184,0.15971902683368486,-0.085804452587883,-0.1996987909078598,-0.2258969247341156,-2.3189611434936523
414,5,-0.001681250985711813,-0.0005175533588044345,0.0008697712328284979,-0.033749502152204514,-0.026634151116013527,-0.012291799299418926,-0.2429371029138565,0.052608925849199295,-0.03297180309891701,-3.461094379425049,-0.272548109292984,0.3041221499443054,0.0,0.0,0.0,-0.036538682878017426,0.009933761321008205,-0.0,0.0,0.0,0.0,0.004999999888241291,0.000759174523409456,-0.0014536830130964518,8192.0,31446.0,21508.0,43874.0,0.0244833305478096,0.12335071712732315,0.07577934116125107,0.19400590658187866,0.0,0.0,0.0,0.0,2622.0,30247.0,19330.0,41571.0,0.3426830768585205,-0.8885496226383587,0.16091357501993286,-0.08433874235588214,-0.0393693670630455,-0.09656871855258942,-2.2708585262298584
419,5,-0.0016060794005170465,-0.0005814628093503416,0.0009586389060132205,0.00039916898822411895,0.0009570811525918543,-0.016129011288285255,-0.2703979015350342,0.05332700535655022,-0.030974045395851135,-3.3675448894500732,-0.08267765492200851,0.20931871235370636,0.0,0.0,0.0,-0.07108418643474579,0.04027607664465904,-0.0,0.0,0.0,0.0,0.004999999888241291,0.00024472607765346766,-0.0013252261560410261,3443.0,29777.0,18370.0,42236.0,0.009634826332330704,0.11480490863323212,0.06240782514214516,0.18398311734199524,0.0,0.0,0.0,0.0,4774.0,29858.0,20698.0,41330.0,0.37865179777145386,-0.8924442046267379,0.16191610129737413,-0.08289948396139851,-0.17601509392261505,-0.20731709897518158,-2.2554240226745605
424,5,-0.001377088949084282,-0.0008363170200027525,0.0007598295342177153,0.03217841684818268,0.03596670925617218,0.02299460954964161,-0.2703979015350342,0.05332700535655022,-0.030974045395851135,-3.3675448894500732,-0.08267765492200851,0.20931871235370636,0.0,0.0,0.0,-0.10727212578058243,0.06248684972524643,-0.0,0.0,0.0,0.0,0.004999999888241291,0.00024472607765346766,-0.0013252261560410261,3443.0,29777.0,18370.0,42236.0,0.009634826332330704,0.11480490863323212,0.06240782514214516,0.18398311734199524,0.0,0.0,0.0,0.0,4774.0,29858.0,20698.0,41330.0,0.423216313123703,-0.904119169880414,0.16112239351977967,-0.08578392255668783,-0.3041214942932129,-0.3488847315311432,-2.372910976409912
429,5,-0.0014743711799383163,-0.0010509889107197523,0.0005980474525131285,-0.003965999465435743,0.04084407910704613,0.02954787015914917,-0.3096470236778259,0.05262228474020958,-0.02766597457230091,-3.154174566268921,0.014323086477816105,0.3113892078399658,0.0,0.0,0.0,-0.11756600439548492,0.03370804712176323,-0.0,0.0,0.0,0.0,0.004999999888241291,0.0009894132381305099,-0.0012502793688327074,5977.0,29119.0,21238.0,40936.0,0.01733102649450302,0.11149885505437851,0.07459959387779236,0.17618149518966675,0.0,0.0,0.0,0.0,6521.0,28774.0,21317.0,40878.0,0.40951478481292725,-0.9099931259593985,0.16065236649185874,-0.08349161518994047,-0.1586349457502365,-0.369682252407074,-2.3927600383758545
434,5,-0.0013023460051044822,-0.0006003246526233852,0.0009897028794512153,0.022893724963068962,-0.05083977058529854,-0.04596739262342453,-0.3096470236778259,0.05262228474020958,-0.02766597457230091,-3.154174566268921,0.014323086477816105,0.3113892078399658,0.0,0.0,0.0,-8.350365533260629e-05,0.061183929443359375,-0.0,0.0,0.0,0.0,0.004999999888241291,0.0009894132381305099,-0.0012502793688327074,5977.0,29119.0,21238.0,40936.0,0.01733102649450302,0.11149885505437851,0.07459959387779236,0.17618149518966675,0.0,0.0,0.0,0.0,6521.0,28774.0,21317.0,40878.0,0.37693411111831665,-0.8937669503891869,0.1598125266404765,-0.08643271772710087,-0.2667557895183563,-0.00024286557163577527,-2.158540725708008
439,5,0.12835441529750824,-0.3566819727420807,-0.2540469765663147,0.022893724963068962,-0.05083977058529854,-0.04596739262342453,-0.33408433198928833,0.051690179854631424,-0.025572774931788445,-2.943847179412842,0.11550826579332352,0.2618979513645172,0.0,0.0,0.0,-0.2830357849597931,0.11777255684137344,-0.0,0.0,0.0,0.0,0.004999999888241291,0.003825854742899537,-0.0012288582511246204,16235.0,26119.0,19693.0,45573.0,0.053762540221214294,0.09686398506164551,0.06795185059309006,0.20462588965892792,0.0,0.0,0.0,0.0,5976.0,25309.0,17875.0,40220.0,0.799976110458374,2.443195460074853,0.8641027518856889,2.3174961084336947,-1.0449050664901733,-2.136732816696167,-5.993898391723633
444,5,0.12889431416988373,-0.3597249686717987,-0.2528316080570221,0.08245495706796646,0.4107697308063507,-0.1839415282011032,-0.33408433198928833,0.051690179854631424,-0.025572774931788445,-2.943847179412842,0.11550826579332352,0.2618979513645172,0.0,0.0,0.0,-0.5057836174964905,0.14654473960399628,-0.0,0.0,0.0,0.0,0.004999999888241291,0.003825854742899537,-0.0012288582511246204,16235.0,26119.0,19693.0,45573.0,0.053762540221214294,0.09686398506164551,0.06795185059309006,0.20462588965892792,0.0,0.0,0.0,0.0,5976.0,25309.0,17875.0,40220.0,0.881452739238739,2.4343040848544057,0.8835345358738074,2.276400733573551,-1.3031857013702393,-4.001428604125977,-5.740649700164795
449,5,0.7836243510246277,-2.8125665187835693,-0.48092490434646606,0.08245495706796646,0.4107697308063507,-0.1839415282011032,-0.36682674288749695,0.04869741201400757,-0.023105835542082787,-2.553793430328369,0.20342352986335754,0.30563783645629883,0.0,0.0,0.0,-1.2831486463546753,0.5349186658859253,-0.0,0.0,0.0,0.0,0.004999999888241291,0.003979625646024942,-0.001156316720880568,13627.0,23302.0,16984.0,43659.0,0.043699026107788086,0.08378025889396667,0.0567568838596344,0.19267362356185913,0.0,0.0,0.0,0.0,16578.0,25831.0,19988.0,45375.0,3.125467538833618,0.0,0.0,0.0,-5.231565952301025,-18.718477249145508,-9.162049293518066
454,5,0.7836243510246277,-2.8125665187835693,-0.48092490434646606,0.02473648637533188,0.12323091924190521,-0.055182456970214844,-0.36682674288749695,0.04869741201400757,-0.023105835542082787,-2.553793430328369,0.20342352986335754,0.30563783645629883,0.0,0.0,0.0,-1.2564448118209839,0.5153425335884094,-0.0,0.0,0.0,0.0,0.004999999888241291,0.003979625646024942,-0.001156316720880568,13627.0,23302.0,16984.0,43659.0,0.043699026107788086,0.08378025889396667,0.0567568838596344,0.19267362356185913,0.0,0.0,0.0,0.0,16578.0,25831.0,19988.0,45375.0,2.8353378772735596,0.0,0.0,0.0,-5.000691890716553,-17.568323135375977,-9.54832649230957
459,5,-0.040466900914907455,-0.021223364397883415,0.03766799345612526,0.02473648637533188,0.12323091924190521,-0.055182456970214844,-0.40723708271980286,0.04176335036754608,-0.020876463502645493,-1.6286996603012085,0.37250202894210815,0.18912795186042786,0.0,0.0,0.0,-0.21114811301231384,0.009685277007520199,-0.0,0.0,0.0,0.0,-0.00016324658645316958,0.004999999888241291,-0.0012838143156841397,45542.0,50998.0,34517.0,59072.0,0.20443016290664673,0.24009740352630615,0.13965335488319397,0.29727181792259216,0.0,0.0,0.0,0.0,14284.0,22751.0,14955.0,44945.0,0.5114974975585938,2.3864871077124232,-0.24497888737725584,-0.6582646346743654,-0.05606360733509064,-0.8202638626098633,-1.7684910297393799
