timestamp,dt,pos_x,pos_y,pos_z,vel_x,vel_y,vel_z,roll,pitch,yaw,agv_x,agv_y,agv_z,x_ref,y_ref,z_ref,roll_ref,pitch_ref,yaw_ref,x_vel_ref,y_vel_ref,z_vel_ref,x_torque,y_torque,z_torque,w0,w1,w2,w3,u0,u1,u2,u3,m0req,m1req,m2req,m3req,thrust0,thrust1,thrust2,thrust3,thrust_ref,roll_vicon,pitch_vicon,yaw_vicon,acc_x,acc_y,acc_z
5,5,0.0,0.0,0.0,0.014698379673063755,-0.0015079183503985405,0.0056441486813127995,-0.015668854117393494,0.8380053639411926,0.02916373685002327,-0.36872416734695435,0.15757398307323456,-0.359398752450943,0.0,0.0,0.0,0.0019210652681067586,0.018726631999015808,-0.0,0.0,0.0,0.0,0.0013517348561435938,-0.004999999888241291,0.0004030005948152393,0.0,0.0,0.0,0.0,0.0,0.0,0.0,0.0,0.0,0.0,0.0,0.0,0.0,0.0,0.0,0.0,0.25432026386260986,-0.12970879097561633,-0.8123361044249255,-0.06210391666427582,-0.055118922144174576,0.005654693581163883,-0.016932446509599686
25,20,0.0,0.0,0.0,0.044430315494537354,0.002805324038490653,-0.018628332763910294,-0.015668854117393494,0.8380053639411926,0.02916373685002327,-0.36872416734695435,0.15757398307323456,-0.359398752450943,0.0,0.0,0.0,-0.003334585577249527,0.05283745750784874,-0.0,0.0,0.0,0.0,0.0013517348561435938,-0.004999999888241291,0.0004030005948152393,0.0,0.0,0.0,0.0,0.0,0.0,0.0,0.0,0.0,0.0,0.0,0.0,0.0,0.0,0.0,0.0,0.27257561683654785,-0.13703387707620743,-0.8077045262267712,-0.06974242562690798,-0.16661368310451508,-0.010519965551793575,0.05588499829173088
30,5,0.0,0.0,0.0,0.01400049589574337,-0.007341581862419844,-0.014410015195608139,-0.015668854117393494,0.8380053639411926,0.02916373685002327,-0.36872416734695435,0.15757398307323456,-0.359398752450943,0.0,0.0,0.0,0.009352955967187881,0.017837680876255035,-0.0,0.0,0.0,0.0,0.0013517348561435938,-0.004999999888241291,0.0004030005948152393,0.0,0.0,0.0,0.0,0.0,0.0,0.0,0.0,0.0,0.0,0.0,0.0,0.0,0.0,0.0,0.0,0.25432679057121277,-0.12677276024639783,-0.8001954314400918,-0.06306120395494812,-0.0525018610060215,0.027530932798981667,0.04323004558682442
35,5,0.0,0.0,0.0,0.01400049589574337,-0.007341581862419844,-0.014410015195608139,-0.015668854117393494,0.8380053639411926,0.02916373685002327,-0.36872416734695435,0.15757398307323456,-0.359398752450943,0.0,0.0,0.0,0.009352955967187881,0.017837680876255035,-0.0,0.0,0.0,0.0,0.0013517348561435938,-0.004999999888241291,0.0004030005948152393,0.0,0.0,0.0,0.0,0.0,0.0,0.0,0.0,0.0,0.0,0.0,0.0,0.0,0.0,0.0,0.0,0.25432679057121277,-0.12677276024639783,-0.8001954314400918,-0.06306120395494812,-0.0525018610060215,0.027530932798981667,0.04323004558682442
40,5,0.0001225971063831821,5.427322321338579e-05,0.00014206385822035372,0.008028342388570309,-0.0036250303965061903,-0.010353144258260727,-0.015668854117393494,0.8380053639411926,0.02916373685002327,-0.36872416734695435,0.15757398307323456,-0.359398752450943,0.0,0.0,0.0,0.004713233560323715,0.010442824102938175,-0.0,0.0,0.0,0.0,0.0013515392784029245,-0.004999999888241291,0.0002890010364353657,0.0,0.0,0.0,0.0,0.0,0.0,0.0,0.0,0.0,0.0,0.0,0.0,0.0,0.0,0.0,0.0,0.2542918920516968,-0.12597466126148346,-0.7979374434651872,-0.06128608245460238,-0.0307343490421772,0.013871905393898487,0.033481620252132416
45,5,0.00017788166587706655,0.00018507589993532747,0.00018603102944325656,0.010148340836167336,-0.01939988322556019,-0.00926134828478098,-0.015668854117393494,0.8380053639411926,0.02916373685002327,-0.36872416734695435,0.15757398307323456,-0.359398752450943,0.0,0.0,0.0,0.025030706077814102,0.013241734355688095,-0.0,0.0,0.0,0.0,0.0013515392784029245,-0.004999999888241291,0.0002890010364353657,0.0,0.0,0.0,0.0,0.0,0.0,0.0,0.0,0.0,0.0,0.0,0.0,0.0,0.0,0.0,0.0,0.25437718629837036,-0.12397233191844062,-0.7957149968945165,-0.061269126614489015,-0.038972966372966766,0.07368749380111694,0.031099893152713776
50,5,0.00022762976004742086,0.00022747518960386515,0.00010435459989821538,0.010009233839809895,-0.01175586599856615,0.008656296879053116,-0.015342739410698414,0.8336387276649475,0.02271381951868534,-0.029455529525876045,0.23957282304763794,-0.035210784524679184,0.0,0.0,0.0,0.015392951667308807,0.013173997402191162,-0.0,0.0,0.0,0.0,0.0007080812938511372,-0.004999999888241291,0.0006196119356900454,0.0,0.0,0.0,0.0,0.0,0.0,0.0,0.0,0.0,0.0,0.0,0.0,0.0,0.0,0.0,0.0,0.2543273866176605,-0.12504675405501336,-0.7949313380193889,-0.06169356434436553,-0.0387733168900013,0.04530896618962288,-0.02300238236784935
55,5,0.0007182826520875096,0.00014051316247787327,-0.0007597556686960161,0.07169417291879654,0.008647923357784748,0.12357232719659805,-0.01516068447381258,0.8315817713737488,0.022180309519171715,-0.046781159937381744,0.24589306116104126,-0.00177790317684412,0.0,0.0,0.0,-0.009049711748957634,0.07810064405202866,-0.0,0.0,0.0,0.0,0.0009087244397960603,-0.004999999888241291,0.0006111870752647519,15576.0,18950.0,31440.0,5233.0,0.051168832927942276,0.0648227334022522,0.12331627309322357,0.01501896046102047,0.0,0.0,0.0,0.0,15749.0,17289.0,32750.0,5021.0,0.3018975853919983,-0.15008507722149622,-0.8100543310985497,-0.08603522102946509,-0.2726103961467743,-0.03162069246172905,-0.3816561996936798
60,5,0.0008751833811402321,0.0006658915663138032,-0.0004275840474292636,0.04347435384988785,-0.07095859199762344,-0.00943232886493206,-0.01516068447381258,0.8315817713737488,0.022180309519171715,-0.046781159937381744,0.24589306116104126,-0.00177790317684412,0.0,0.0,0.0,0.07431382685899734,0.046320825815200806,-0.0,0.0,0.0,0.0,0.0009087244397960603,-0.004999999888241291,0.0006111870752647519,15576.0,18950.0,31440.0,5233.0,0.051168832927942276,0.0648227334022522,0.12331627309322357,0.01501896046102047,0.0,0.0,0.0,0.0,15749.0,17289.0,32750.0,5021.0,0.3136719763278961,-0.1213655810893395,-0.8114856267244074,-0.06442621695859074,-0.16764192283153534,0.269545316696167,0.02109505981206894
65,5,0.0005157047417014837,0.0005389986908994615,-0.0002984119637403637,-0.03728470578789711,-0.0035225776955485344,-0.02091378904879093,-0.01516068447381258,0.8315817713737488,0.022180309519171715,-0.046781159937381744,0.24589306116104126,-0.00177790317684412,0.0,0.0,0.0,0.005267655942589045,-0.04469342157244682,-0.0,0.0,0.0,0.0,0.0009087244397960603,-0.004999999888241291,0.0006111870752647519,15576.0,18950.0,31440.0,5233.0,0.051168832927942276,0.0648227334022522,0.12331627309322357,0.01501896046102047,0.0,0.0,0.0,0.0,15749.0,17289.0,32750.0,5021.0,0.26466214656829834,-0.1395276236931223,-0.8079877734291541,-0.0756233805721333,0.13685759902000427,0.01613673008978367,0.056295931339263916
70,5,0.0006537896697409451,0.0003293616173323244,-0.0003037791175302118,0.008146477863192558,0.028292415663599968,-0.005522734951227903,-0.016118790954351425,0.8282782435417175,0.023375798016786575,0.0848277360200882,0.23995381593704224,0.04657328501343727,0.0,0.0,0.0,-0.035009805113077164,0.011532834731042385,-0.0,0.0,0.0,0.0,0.001254273229278624,-0.004999999888241291,0.0008141375728882849,16722.0,17083.0,32907.0,3740.0,0.055704548954963684,0.057154446840286255,0.1310097575187683,0.01050843857228756,0.0,0.0,0.0,0.0,16219.0,17707.0,32428.0,4411.0,0.2570265531539917,-0.15279153193797587,-0.8133925455533105,-0.0793642279632689,-0.03428758680820465,-0.1041269525885582,0.009198981337249279
75,5,0.0006411109352484345,0.00048504097503609955,-0.0002905036089941859,0.0006689216825179756,-0.013307386077940464,-0.0035153930075466633,-0.016118790954351425,0.8282782435417175,0.023375798016786575,0.0848277360200882,0.23995381593704224,0.04657328501343727,0.0,0.0,0.0,0.017900608479976654,0.0021253477316349745,-0.0,0.0,0.0,0.0,0.001254273229278624,-0.004999999888241291,0.0008141375728882849,16722.0,17083.0,32907.0,3740.0,0.055704548954963684,0.057154446840286255,0.1310097575187683,0.01050843857228756,0.0,0.0,0.0,0.0,16219.0,17707.0,32428.0,4411.0,0.254316508769989,-0.14289945935089154,-0.8097480859990651,-0.07461180729584099,-0.006255869287997484,0.05268796160817146,0.002815091982483864
80,5,0.0007637374801561236,0.00048019428504630923,-0.0003097332955803722,0.017368394881486893,-0.003313680412247777,0.0016375399427488446,-0.015856724232435226,0.8264682292938232,0.023608269169926643,-0.020230019465088844,0.18151797354221344,0.06863823533058167,0.0,0.0,0.0,0.00520437303930521,0.023670976981520653,-0.0,0.0,0.0,0.0,0.0007897564209997654,-0.004999999888241291,0.0007521259249188006,20909.0,21313.0,34026.0,5808.0,0.07316866517066956,0.07492733746767044,0.13699421286582947,0.01680166646838188,0.0,0.0,0.0,0.0,21504.0,20415.0,34743.0,4969.0,0.25434988737106323,-0.14993188211144076,-0.8141345340886561,-0.07912690803460862,-0.06967669725418091,0.015320899896323681,-0.014288660138845444
85,5,0.0007054673042148352,0.000578731473069638,-0.00027745580882765353,-0.002947308123111725,-0.014789307489991188,-0.0040275841020047665,-0.015856724232435226,0.8264682292938232,0.023608269169926643,-0.020230019465088844,0.18151797354221344,0.06863823533058167,0.0,0.0,0.0,0.020019013434648514,-0.00226889387704432,-0.0,0.0,0.0,0.0,0.0007897564209997654,-0.004999999888241291,0.0007521259249188006,20909.0,21313.0,34026.0,5808.0,0.07316866517066956,0.07492733746767044,0.13699421286582947,0.01680166646838188,0.0,0.0,0.0,0.0,21504.0,20415.0,34743.0,4969.0,0.25432682037353516,-0.14582882564766622,-0.8107132564407523,-0.07798044184700215,0.006677366327494383,0.058923982083797455,0.00237250211648643
91,5,0.0008446009014733136,0.0006073128315620124,-0.00027115820557810366,0.018594510853290558,-0.008438186720013618,-0.002089942805469036,-0.016232408583164215,0.8243776559829712,0.023859305307269096,-0.005843598395586014,0.13881662487983704,-0.059652458876371384,0.0,0.0,0.0,0.012018038891255856,0.025465644896030426,-0.0,0.0,0.0,0.0,0.001175176352262497,-0.004999999888241291,0.0006147072999738157,15348.0,18050.0,32155.0,5519.0,0.05028095096349716,0.06108854338526726,0.12704536318778992,0.01590174436569214,0.0,0.0,0.0,0.0,15994.0,20442.0,31214.0,6360.0,0.25437605381011963,-0.15409816684051428,-0.8149382686667959,-0.08113740818809019,-0.0749615952372551,0.035382263362407684,-0.0043998174369335175
96,5,0.001009856234304607,0.0006968884263187647,-0.00026182146393693984,0.028714096173644066,-0.015072034671902657,-0.0019341233419254422,-0.016232408583164215,0.8243776559829712,0.023859305307269096,-0.005843598395586014,0.13881662487983704,-0.059652458876371384,0.0,0.0,0.0,0.020039794966578484,0.03753821179270744,-0.0,0.0,0.0,0.0,0.001175176352262497,-0.004999999888241291,0.0006147072999738157,15348.0,18050.0,32155.0,5519.0,0.05028095096349716,0.06108854338526726,0.12704536318778992,0.01590174436569214,0.0,0.0,0.0,0.0,15994.0,20442.0,31214.0,6360.0,0.2623140215873718,-0.1643720401997765,-0.8207450991227316,-0.08787198905769625,-0.11391924321651459,0.060838520526885986,-0.005702927242964506
101,5,0.0010630537290126085,0.000822551897726953,-0.0003244570398237556,0.01606188528239727,-0.022114500403404236,0.008188741281628609,-0.015221679583191872,0.8236765265464783,0.02263571508228779,-0.08617782592773438,0.03996269032359123,-0.004849985707551241,0.0,0.0,0.0,0.029558461159467697,0.022487295791506767,-0.0,0.0,0.0,0.0,0.0014612895902246237,-0.004999999888241291,0.0004675529489759356,12698.0,20051.0,30536.0,8629.0,0.04024669528007507,0.0694732740521431,0.11866579949855804,0.025941167026758194,0.0,0.0,0.0,0.0,15246.0,17838.0,32320.0,5647.0,0.25727999210357666,-0.16732039642717808,-0.8204424535426686,-0.08894428438729171,-0.06692887097597122,0.08800693601369858,-0.037830814719200134
106,5,0.0010139596415683627,0.0012415617238730192,-0.00041001639328897,-0.0020546119194477797,-0.06529571861028671,0.014434932731091976,-0.015221679583191872,0.8236765265464783,0.02263571508228779,-0.08617782592773438,0.03996269032359123,-0.004849985707551241,0.0,0.0,0.0,0.07372426986694336,-0.0003097486332990229,-0.0,0.0,0.0,0.0,0.0014612895902246237,-0.004999999888241291,0.0004675529489759356,12698.0,20051.0,30536.0,8629.0,0.04024669528007507,0.0694732740521431,0.11866579949855804,0.025941167026758194,0.0,0.0,0.0,0.0,15246.0,17838.0,32320.0,5647.0,0.29581311345100403,-0.14828920106684446,-0.8119433083807777,-0.0816691130688975,0.0010576251661404967,0.2521858215332031,-0.05885903909802437
111,5,0.000977962277829647,0.0018206997774541378,-0.00048061186680570245,-0.005656004883348942,-0.1006680503487587,0.014213845133781433,-0.014866870827972889,0.823772668838501,0.020683487877249718,-0.09768693149089813,-0.003850580658763647,-0.16724254190921783,0.0,0.0,0.0,0.1007901057600975,-0.0038002189248800278,-0.0,0.0,0.0,0.0,0.0015332696493715048,-0.004999999888241291,0.00030209467513486743,11880.0,21228.0,30328.0,10667.0,0.037264008074998856,0.07455489039421082,0.11760078370571136,0.03294045105576515,0.0,0.0,0.0,0.0,11655.0,21141.0,29610.0,9746.0,0.33310839533805847,-0.12326135017876412,-0.8024725985984833,-0.0734045648823934,0.014575586654245853,0.38793349266052246,-0.06038401648402214
116,5,0.0011636456474661827,0.001964448718354106,-0.0004387230146676302,0.024298863485455513,-0.05032524839043617,-0.0016002863412722945,-0.014866870827972889,0.823772668838501,0.020683487877249718,-0.09768693149089813,-0.003850580658763647,-0.16724254190921783,0.0,0.0,0.0,0.06010929122567177,0.029723187908530235,-0.0,0.0,0.0,0.0,0.0015332696493715048,-0.004999999888241291,0.00030209467513486743,11880.0,21228.0,30328.0,10667.0,0.037264008074998856,0.07455489039421082,0.11760078370571136,0.03294045105576515,0.0,0.0,0.0,0.0,11655.0,21141.0,29610.0,9746.0,0.28791412711143494,-0.12096445271577952,-0.8011628853012093,-0.07232095122234883,-0.09885431081056595,0.2001839578151703,-0.01370497141033411
121,5,0.0013109403662383556,0.0019952638540416956,-0.0003392857906874269,0.02791091799736023,-0.019411711022257805,-0.014401298016309738,-0.014689391478896141,0.8241872787475586,0.014086728915572166,-0.32653388381004333,0.1179182305932045,-0.33130186796188354,0.0,0.0,0.0,0.027574604377150536,0.03688592463731766,-0.0,0.0,0.0,0.0,0.003708458272740245,-0.004999999888241291,2.9442626328091137e-05,7016.0,22941.0,32099.0,19306.0,0.020637797191739082,0.08215244114398956,0.1267533153295517,0.06631675362586975,0.0,0.0,0.0,0.0,11212.0,21190.0,30360.0,11344.0,0.2656787037849426,-0.11768729596638054,-0.7967464717829752,-0.07058153725923863,-0.11335483193397522,0.0847807452082634,0.02482607029378414
126,5,0.0013506704708561301,0.0020564859732985497,-0.0001877912727650255,0.01393548771739006,-0.014394618570804596,-0.025529619306325912,-0.014689391478896141,0.8241872787475586,0.014086728915572166,-0.32653388381004333,0.1179182305932045,-0.33130186796188354,0.0,0.0,0.0,0.022640274837613106,0.020859209820628166,-0.0,0.0,0.0,0.0,0.003708458272740245,-0.004999999888241291,2.9442626328091137e-05,7016.0,22941.0,32099.0,19306.0,0.020637797191739082,0.08215244114398956,0.1267533153295517,0.06631675362586975,0.0,0.0,0.0,0.0,11212.0,21190.0,30360.0,11344.0,0.2543957233428955,-0.12118349453280335,-0.7888932772951986,-0.07370713794497807,-0.06139755994081497,0.0666562169790268,0.059412889182567596
131,5,0.001985505921766162,0.002013269579038024,-0.0006097561563365161,0.09305761754512787,0.0017319354228675365,0.051416195929050446,-0.014689391478896141,0.8241872787475586,0.014086728915572166,-0.32653388381004333,0.1179182305932045,-0.33130186796188354,0.0,0.0,0.0,0.0016989733558148146,0.09603272378444672,-0.0,0.0,0.0,0.0,0.003708458272740245,-0.004999999888241291,2.9442626328091137e-05,7016.0,22941.0,32099.0,19306.0,0.020637797191739082,0.08215244114398956,0.1267533153295517,0.06631675362586975,0.0,0.0,0.0,0.0,11212.0,21190.0,30360.0,11344.0,0.3258034586906433,-0.15354562610044162,-0.8065915820931455,-0.09432764748731055,-0.36157336831092834,0.006409630179405212,-0.17845118045806885
136,5,0.002115772105753422,0.0021815686486661434,-0.0003405082388781011,0.04615454003214836,-0.02304230071604252,-0.022269846871495247,-0.015358283184468746,0.8228665590286255,0.010400321334600449,-0.46832627058029175,0.3117390275001526,-0.3139108717441559,0.0,0.0,0.0,0.030495578423142433,0.05668646842241287,-0.0,0.0,0.0,0.0,0.0035595931112766266,-0.004999999888241291,-0.0001772123359842226,4631.0,23981.0,30428.0,20141.0,0.01317940466105938,0.08687601238489151,0.11811255663633347,0.06985794752836227,0.0,0.0,0.0,0.0,5417.0,24007.0,31167.0,20493.0,0.2848554849624634,-0.14876747115245906,-0.799052797335019,-0.09382506840836848,-0.18670804798603058,0.1005297377705574,0.044775620102882385
141,5,0.0021044379100203514,0.002199953654780984,-0.0003525488427840173,0.012259576469659805,-0.00948660634458065,-0.004995269235223532,-0.015358283184468746,0.8228665590286255,0.010400321334600449,-0.46832627058029175,0.3117390275001526,-0.3139108717441559,0.0,0.0,0.0,0.017050091177225113,0.02036372758448124,-0.0,0.0,0.0,0.0,0.0035595931112766266,-0.004999999888241291,-0.0001772123359842226,4631.0,23981.0,30428.0,20141.0,0.01317940466105938,0.08687601238489151,0.11811255663633347,0.06985794752836227,0.0,0.0,0.0,0.0,5417.0,24007.0,31167.0,20493.0,0.25436490774154663,-0.13704412684318448,-0.7873258138366447,-0.09152919214878796,-0.059938736259937286,0.05019368976354599,-0.008285502903163433
146,5,0.0023427933920174837,0.0022401779424399137,-0.0002673049457371235,0.03704765811562538,-0.008477373979985714,-0.013432729057967663,-0.015872323885560036,0.8169907331466675,0.0047174906358122826,-0.21808959543704987,0.6367859840393066,-0.3177303373813629,0.0,0.0,0.0,0.015012187883257866,0.04928113892674446,-0.0,0.0,0.0,0.0,0.001357612549327314,-0.004999999888241291,-0.0003970916732214391,9857.0,30318.0,28076.0,20596.0,0.03011675924062729,0.11755069345235825,0.10633081942796707,0.07181353867053986,0.0,0.0,0.0,0.0,3296.0,24754.0,29725.0,21062.0,0.27111712098121643,-0.14647007395348602,-0.7773341182482099,-0.09523152236221955,-0.15456074476242065,0.047105420380830765,0.016992000862956047
151,5,0.002589617623016238,0.002376057906076312,-5.33340462425258e-05,0.045669686049222946,-0.021566390991210938,-0.033985745161771774,-0.015872323885560036,0.8169907331466675,0.0047174906358122826,-0.21808959543704987,0.6367859840393066,-0.3177303373813629,0.0,0.0,0.0,0.02950850874185562,0.05724269524216652,-0.0,0.0,0.0,0.0,0.001357612549327314,-0.004999999888241291,-0.0003970916732214391,9857.0,30318.0,28076.0,20596.0,0.03011675924062729,0.11755069345235825,0.10633081942796707,0.07181353867053986,0.0,0.0,0.0,0.0,3296.0,24754.0,29725.0,21062.0,0.28489211201667786,-0.13236455247348436,-0.7777202934313681,-0.08833463765194313,-0.1885685920715332,0.09728968888521194,0.0810520276427269
156,5,0.0025484412908554077,0.0021586911752820015,-0.00014280524919740856,0.007936210371553898,0.023961413651704788,0.0023302456829696894,-0.016105834394693375,0.809960126876831,0.0034111570566892624,-0.1440858393907547,1.0671703815460205,-0.08021191507577896,0.0,0.0,0.0,-0.02516740746796131,0.016082825139164925,-0.0,0.0,0.0,0.0,0.0009125011274591088,-0.004999999888241291,-4.6116230805637315e-05,7794.0,23870.0,27145.0,13451.0,0.023168636485934258,0.0863691046833992,0.10178910940885544,0.04303836449980736,0.0,0.0,0.0,0.0,11873.0,29596.0,28816.0,18919.0,0.2543886601924896,-0.1433038617028724,-0.7706417888660473,-0.09526610860660144,-0.04733965918421745,-0.0740896612405777,-0.029413195326924324
161,5,0.002547970274463296,0.0018673599697649479,-0.00014259113231673837,0.0023149074986577034,0.04797479137778282,0.0006690968293696642,-0.016105834394693375,0.809960126876831,0.0034111570566892624,-0.1440858393907547,1.0671703815460205,-0.08021191507577896,0.0,0.0,0.0,-0.05234929919242859,0.008505037985742092,-0.0,0.0,0.0,0.0,0.0009125011274591088,-0.004999999888241291,-4.6116230805637315e-05,7794.0,23870.0,27145.0,13451.0,0.023168636485934258,0.0863691046833992,0.10178910940885544,0.04303836449980736,0.0,0.0,0.0,0.0,11873.0,29596.0,28816.0,18919.0,0.27267077565193176,-0.15634530321498186,-0.7651548695049204,-0.10029470221736028,-0.02680787816643715,-0.16513152420520782,-0.024940619245171547
166,5,0.0027622501365840435,0.0019130046712234616,2.7572992621571757e-05,0.030693670734763145,0.00800218153744936,-0.02362224832177162,-0.016899244859814644,0.7949339151382446,0.0030568132642656565,-0.005999981425702572,1.3669551610946655,0.0007915577734820545,0.0,0.0,0.0,-0.0047972616739571095,0.044112470000982285,-0.0,0.0,0.0,0.0,0.0011856229975819588,-0.004999999888241291,0.00010191355249844491,11173.0,24372.0,29768.0,14434.0,0.03472760319709778,0.08867654204368591,0.11475898325443268,0.04675670340657234,0.0,0.0,0.0,0.0,8458.0,23266.0,27711.0,12858.0,0.2640545964241028,-0.15153567817375016,-0.7578224194193687,-0.0961914018511743,-0.1347707062959671,-0.014661273919045925,0.050060171633958817
171,5,0.002970681292936206,0.0018788139568641782,8.624670044810046e-06,0.0383884571492672,0.007187362294644117,-0.004433909431099892,-0.016899244859814644,0.7949339151382446,0.0030568132642656565,-0.005999981425702572,1.3669551610946655,0.0007915577734820545,0.0,0.0,0.0,-0.003630672348663211,0.05244947969913483,-0.0,0.0,0.0,0.0,0.0011856229975819588,-0.004999999888241291,0.00010191355249844491,11173.0,24372.0,29768.0,14434.0,0.03472760319709778,0.08867654204368591,0.11475898325443268,0.04675670340657234,0.0,0.0,0.0,0.0,8458.0,23266.0,27711.0,12858.0,0.272198349237442,-0.16056817849668473,-0.7565736216157232,-0.10098783862510735,-0.16516231000423431,-0.011435338295996189,-0.00770846102386713
177,5,0.003050554543733597,0.0016292516374960542,0.00029015724430792034,0.0226987823843956,0.037094928324222565,-0.040744733065366745,-0.017262320965528488,0.7820488214492798,0.0035883805248886347,-0.035578642040491104,1.7271008491516113,0.12253003567457199,0.0,0.0,0.0,-0.03957312926650047,0.03412677347660065,-0.0,0.0,0.0,0.0,0.0015841175336390734,-0.004999999888241291,0.00025908887619152665,16453.0,25677.0,27299.0,7043.0,0.05463007837533951,0.0947708934545517,0.1025339663028717,0.02072356641292572,0.0,0.0,0.0,0.0,17139.0,24760.0,28178.0,6181.0,0.27186596393585205,-0.1661944024558813,-0.748215857146267,-0.09920334631280502,-0.10728287696838379,-0.12448573857545853,0.10550210624933243
182,5,0.0030692333821207285,0.0016434305580332875,0.0003592807915993035,0.00942468922585249,0.009143424220383167,-0.021900717169046402,-0.017262320965528488,0.7820488214492798,0.0035883805248886347,-0.035578642040491104,1.7271008491516113,0.12253003567457199,0.0,0.0,0.0,-0.006556892301887274,0.019756900146603584,-0.0,0.0,0.0,0.0,0.0015841175336390734,-0.004999999888241291,0.00025908887619152665,16453.0,25677.0,27299.0,7043.0,0.05463007837533951,0.0947708934545517,0.1025339663028717,0.02072356641292572,0.0,0.0,0.0,0.0,17139.0,24760.0,28178.0,6181.0,0.2543303072452545,-0.16382305958378324,-0.7368687606438156,-0.09659882475737216,-0.05815212428569794,-0.019300976768136024,0.0508863627910614
187,5,0.0033557992428541183,0.0014368448173627257,0.0004107010317966342,0.04294663295149803,0.031665027141571045,-0.013769048266112804,-0.019076500087976456,0.7590498924255371,0.005489920731633902,-0.013914286158978939,2.0708985328674316,0.14132383465766907,0.0,0.0,0.0,-0.03164296969771385,0.05639692768454552,-0.0,0.0,0.0,0.0,-0.001015438581816852,-0.004999999888241291,0.0003563885111361742,17188.0,24931.0,28016.0,6119.0,0.057576753199100494,0.09127135574817657,0.10603350400924683,0.017776893451809883,0.0,0.0,0.0,0.0,14988.0,22584.0,30120.0,8725.0,0.2851925790309906,-0.16911943805350432,-0.732288393111692,-0.09528202111025481,-0.18596987426280975,-0.10442847013473511,0.028586873784661293
192,5,0.0034660447854548693,0.0014050363097339869,0.0005047719459980726,0.028318360447883606,0.013952711597084999,-0.017300644889473915,-0.019076500087976456,0.7590498924255371,0.005489920731633902,-0.013914286158978939,2.0708985328674316,0.14132383465766907,0.0,0.0,0.0,-0.012373639270663261,0.04321486875414848,-0.0,0.0,0.0,0.0,-0.001015438581816852,-0.004999999888241291,0.0003563885111361742,17188.0,24931.0,28016.0,6119.0,0.057576753199100494,0.09127135574817657,0.10603350400924683,0.017776893451809883,0.0,0.0,0.0,0.0,14988.0,22584.0,30120.0,8725.0,0.2646118700504303,-0.16933391394913935,-0.72139679697651,-0.09148729759059497,-0.1323053538799286,-0.037892896682024,0.0419108122587204
197,5,0.0030516793485730886,0.0019439890747889876,0.0005638576694764197,-0.049515653401613235,-0.07126758247613907,-0.013462196104228497,-0.019735295325517654,0.7403357028961182,0.006460524629801512,-0.04137568920850754,2.4684998989105225,0.15014269948005676,0.0,0.0,0.0,0.07782480120658875,-0.04413723200559616,-0.0,0.0,0.0,0.0,0.0005884606507606804,-0.004999999888241291,0.0004273959493730217,15270.0,22087.0,30555.0,8398.0,0.0499776154756546,0.07833662629127502,0.11875896155834198,0.02516675554215908,0.0,0.0,0.0,0.0,14157.0,21234.0,29530.0,6971.0,0.3163048326969147,-0.13454232595681684,-0.6865635612108121,-0.08027997191878841,0.16104218363761902,0.2846240699291229,0.032748546451330185
202,5,0.003444073023274541,0.0015136486617848277,0.0007171048200689256,0.04008040204644203,0.038867391645908356,-0.025493256747722626,-0.019735295325517654,0.7403357028961182,0.006460524629801512,-0.04137568920850754,2.4684998989105225,0.15014269948005676,0.0,0.0,0.0,-0.039188746362924576,0.05348892882466316,-0.0,0.0,0.0,0.0,0.0005884606507606804,-0.004999999888241291,0.0004273959493730217,15270.0,22087.0,30555.0,8398.0,0.0499776154756546,0.07833662629127502,0.11875896155834198,0.02516675554215908,0.0,0.0,0.0,0.0,14157.0,21234.0,29530.0,6971.0,0.2870524227619171,-0.15946111520529796,-0.6875965877631492,-0.08800086490718219,-0.17748869955539703,-0.13016603887081146,0.07294600456953049
207,5,0.0037644770927727222,0.0013697026297450066,0.0006877926061861217,0.056880686432123184,0.03181265667080879,-0.003544266801327467,-0.02075907774269581,0.7070488333702087,0.006957983132451773,-0.08048991113901138,3.0090582370758057,0.02753988467156887,0.0,0.0,0.0,-0.03009357675909996,0.07020966708660126,-0.0,0.0,0.0,0.0,0.000677413830999285,-0.004999999888241291,0.0003376732929609716,12672.0,22204.0,28675.0,8659.0,0.04014958441257477,0.07885293662548065,0.10928802192211151,0.026040159165859222,0.0,0.0,0.0,0.0,14749.0,22139.0,26854.0,12019.0,0.29907703399658203,-0.17809183253539745,-0.6857087067924739,-0.09364779797205566,-0.2427239716053009,-0.10415438562631607,0.008843593299388885
212,5,0.0037558244075626135,0.0014201764715835452,0.0008310425910167396,0.015852835029363632,0.002477452624589205,-0.021118275821208954,-0.02075907774269581,0.7070488333702087,0.006957983132451773,-0.08048991113901138,3.0090582370758057,0.02753988467156887,0.0,0.0,0.0,0.002160080708563328,0.030410736799240112,-0.0,0.0,0.0,0.0,0.000677413830999285,-0.004999999888241291,0.0003376732929609716,12672.0,22204.0,28675.0,8659.0,0.04014958441257477,0.07885293662548065,0.10928802192211151,0.026040159165859222,0.0,0.0,0.0,0.0,14749.0,22139.0,26854.0,12019.0,0.25439342856407166,-0.16716022889882465,-0.6624452385415247,-0.08739557244284626,-0.0895320326089859,0.006362198386341333,0.0658816248178482
217,5,0.003539115423336625,0.001727695926092565,0.000973802525550127,-0.025583403185009956,-0.042309489101171494,-0.02632187120616436,-0.020975060760974884,0.6813361644744873,0.006238284986466169,-0.0905410498380661,3.451491594314575,0.0037339513655751944,0.0,0.0,0.0,0.054710377007722855,-0.020551366731524467,-0.0,0.0,0.0,0.0,0.0005040933610871434,-0.0017824607202783227,0.0001829255052143708,18015.0,19074.0,23652.0,16047.0,0.060947347432374954,0.06533949077129364,0.08537063002586365,0.053021546453237534,0.0,0.0,0.0,0.0,22567.0,19339.0,22004.0,18323.0,0.2783477008342743,-0.14565630346051733,-0.6344267562554978,-0.08180551256189592,0.06610491126775742,0.17616795003414154,0.0867229476571083
222,5,0.00393798528239131,0.0015541703905910254,0.0012508061481639743,0.048166755586862564,0.011600728146731853,-0.04667707160115242,-0.020975060760974884,0.6813361644744873,0.006238284986466169,-0.0905410498380661,3.451491594314575,0.0037339513655751944,0.0,0.0,0.0,-0.008031441830098629,0.06451629102230072,-0.0,0.0,0.0,0.0,0.0005040933610871434,-0.0017824607202783227,0.0001829255052143708,18015.0,19074.0,23652.0,16047.0,0.060947347432374954,0.06533949077129364,0.08537063002586365,0.053021546453237534,0.0,0.0,0.0,0.0,22567.0,19339.0,22004.0,18323.0,0.2855919599533081,-0.14506594202158204,-0.625728209851794,-0.06961558641603474,-0.21310730278491974,-0.02654501236975193,0.1549588143825531
228,5,0.0035439087077975273,0.001445991569198668,0.0014984278241172433,-0.040720678865909576,0.01862526126205921,-0.04867015406489372,-0.02185637503862381,0.6374671459197998,0.004996932111680508,-0.16669414937496185,3.81527042388916,0.01822994276881218,0.0,0.0,0.0,-0.017439289018511772,-0.03987474739551544,-0.0,0.0,0.0,0.0,-0.00017392959853168577,0.0016695032827556133,0.00018381593690719455,24738.0,16590.0,19653.0,21050.0,0.09037069231271744,0.0551772378385067,0.06778111308813095,0.07377813011407852,0.0,0.0,0.0,0.0,21056.0,12552.0,19304.0,21231.0,0.26323530077934265,-0.1388202169327171,-0.5732866843159009,-0.05288899478531754,0.12143132835626602,-0.053127821534872055,0.16871100664138794
233,5,0.0035197397228330374,0.0014026163844391704,0.0017576634418219328,-0.015599868260324001,0.01166009996086359,-0.05089403688907623,-0.02185637503862381,0.6374671459197998,0.004996932111680508,-0.16669414937496185,3.81527042388916,0.01822994276881218,0.0,0.0,0.0,-0.00915673840790987,-0.009063349105417728,-0.0,0.0,0.0,0.0,-0.00017392959853168577,0.0016695032827556133,0.00018381593690719455,24738.0,16590.0,19653.0,21050.0,0.09037069231271744,0.0551772378385067,0.06778111308813095,0.07377813011407852,0.0,0.0,0.0,0.0,21056.0,12552.0,19304.0,21231.0,0.25429630279541016,-0.13567397394232023,-0.550113592386825,-0.05065739669147635,0.026668885722756386,-0.02694803848862648,0.18409855663776398
238,5,0.003541758516803384,0.0018713066820055246,0.0017091755289584398,-0.0015973234549164772,-0.062118612229824066,-0.008479898795485497,-0.02185637503862381,0.6374671459197998,0.004996932111680508,-0.16669414937496185,3.81527042388916,0.01822994276881218,0.0,0.0,0.0,0.07367081940174103,0.007816055789589882,-0.0,0.0,0.0,0.0,-0.00017392959853168577,0.0016695032827556133,0.00018381593690719455,24738.0,16590.0,19653.0,21050.0,0.09037069231271744,0.0551772378385067,0.06778111308813095,0.07377813011407852,0.0,0.0,0.0,0.0,21056.0,12552.0,19304.0,21231.0,0.2962500751018524,-0.12055906151695807,-0.526086937662443,-0.0483363574002608,-0.026732198894023895,0.25237837433815,0.06262975931167603
243,5,0.00383386411704123,0.0018740184605121613,0.001737187267281115,0.04041557013988495,-0.019015232101082802,-0.0064656101167202,-0.022192321717739105,0.6056380271911621,0.004329780116677284,-0.10486042499542236,4.08107328414917,0.013160605914890766,0.0,0.0,0.0,0.027759559452533722,0.05684276297688484,-0.0,0.0,0.0,0.0,0.0007616998045705259,0.004999999888241291,0.00017460297385696322,25221.0,7290.0,14423.0,25414.0,0.09262604266405106,0.021523602306842804,0.046712957322597504,0.09353243559598923,0.0,0.0,0.0,0.0,25410.0,7239.0,13936.0,25654.0,0.28361329436302185,-0.13230090230278846,-0.513901257251104,-0.04986105932968653,-0.18641753494739532,0.09111075103282928,0.06243650242686272
248,5,0.003586484119296074,0.0019467693055048585,0.0021869910415261984,-0.022508518770337105,-0.015889693051576614,-0.06491222977638245,-0.022192321717739105,0.6056380271911621,0.004329780116677284,-0.10486042499542236,4.08107328414917,0.013160605914890766,0.0,0.0,0.0,0.027212178334593773,-0.01700288988649845,-0.0,0.0,0.0,0.0,0.0007616998045705259,0.004999999888241291,0.00017460297385696322,25221.0,7290.0,14423.0,25414.0,0.09262604266405106,0.021523602306842804,0.046712957322597504,0.09353243559598923,0.0,0.0,0.0,0.0,25410.0,7239.0,13936.0,25654.0,0.2544061541557312,-0.12262845494950755,-0.4787361925537837,-0.049707063968229534,0.05003894865512848,0.08011971414089203,0.2502255141735077
253,5,0.003542994149029255,0.001830786233767867,0.0023806991521269083,-0.01284114085137844,0.011470734141767025,-0.046592794358730316,-0.022872498258948326,0.555199921131134,0.003440506523475051,-0.10639777779579163,4.298841953277588,0.10210051387548447,0.0,0.0,0.0,-0.007683357689529657,-0.0044768694788217545,-0.0,0.0,0.0,0.0,0.0032734607812017202,0.004999999888241291,0.0002620405575726181,25472.0,4930.0,20885.0,29874.0,0.0938059464097023,0.014089548960328102,0.07306263595819473,0.11529745906591415,0.0,0.0,0.0,0.0,28499.0,8115.0,17214.0,25819.0,0.2542852461338043,-0.12149763260381724,-0.45244669734825904,-0.04130034487795305,0.013175515457987785,-0.022612793371081352,0.20661211013793945
258,5,0.0037014679983258247,0.0020354315638542175,0.002436817856505513,0.01833399198949337,-0.02520911395549774,-0.021834447979927063,-0.022872498258948326,0.555199921131134,0.003440506523475051,-0.10639777779579163,4.298841953277588,0.10210051387548447,0.0,0.0,0.0,0.0372682586312294,0.033752985298633575,-0.0,0.0,0.0,0.0,0.0032734607812017202,0.004999999888241291,0.0002620405575726181,25472.0,4930.0,20885.0,29874.0,0.0938059464097023,0.014089548960328102,0.07306263595819473,0.11529745906591415,0.0,0.0,0.0,0.0,28499.0,8115.0,17214.0,25819.0,0.2698637545108795,-0.11216394606663406,-0.42810224744752645,-0.03658462885368374,-0.10533719509840012,0.11638064682483673,0.14228782057762146
263,5,0.003504200140014291,0.0020644862670451403,0.0029242997989058495,-0.022117294371128082,-0.011630415916442871,-0.07479781657457352,-0.024403665214776993,0.4647277295589447,0.003863463643938303,-0.1464385837316513,4.696970462799072,0.18445293605327606,0.0,0.0,0.0,0.022419482469558716,-0.015841934829950333,-0.0,0.0,0.0,0.0,0.0021174438297748566,0.004999999888241291,0.0003655526088550687,25756.0,2228.0,17809.0,25309.0,0.09514233469963074,0.006125182844698429,0.060102272778749466,0.09303633868694305,0.0,0.0,0.0,0.0,25564.0,4379.0,21269.0,29789.0,0.2543710470199585,-0.10638436439074457,-0.3922884358781883,-0.03205322180326789,0.04662671312689781,0.06599987298250198,0.3164098262786865
268,5,0.0032686281483620405,0.002048947848379612,0.003480511484667659,-0.039615292102098465,-0.0013137300265952945,-0.10030898451805115,-0.024403665214776993,0.4647277295589447,0.003863463643938303,-0.1464385837316513,4.696970462799072,0.18445293605327606,0.0,0.0,0.0,0.009252469055354595,-0.03761591017246246,-0.0,0.0,0.0,0.0,0.0021174438297748566,0.004999999888241291,0.0003655526088550687,25756.0,2228.0,17809.0,25309.0,0.09514233469963074,0.006125182844698429,0.060102272778749466,0.09303633868694305,0.0,0.0,0.0,0.0,25564.0,4379.0,21269.0,29789.0,0.2587457001209259,-0.11226036608827253,-0.363212301991153,-0.02966950760040607,0.11261855810880661,0.02770836278796196,0.4124997556209564
273,5,0.0033507556654512882,0.002256910316646099,0.0036404388956725597,-0.000386712490580976,-0.029508886858820915,-0.05248253047466278,-0.02591903880238533,0.42665576934814453,0.005157351493835449,-0.02802399918437004,4.8347039222717285,0.21572639048099518,0.0,0.0,0.0,0.04396587610244751,0.01158340647816658,-0.0,0.0,0.0,0.0,0.002286599250510335,0.004999999888241291,0.0005257922457531095,27431.0,1539.0,20126.0,25250.0,0.10317468643188477,0.004190085455775261,0.069794662296772,0.09276127815246582,0.0,0.0,0.0,0.0,26716.0,515.0,18956.0,24325.0,0.2651103436946869,-0.10432425847469876,-0.3340240975892684,-0.02899298252975496,-0.035512492060661316,0.13486512005329132,0.2823079228401184
278,5,0.003747513983398676,0.00213976320810616,0.0036297892220318317,0.05543014034628868,0.0075479429215192795,-0.014253823086619377,-0.02591903880238533,0.42665576934814453,0.005157351493835449,-0.02802399918437004,4.8347039222717285,0.21572639048099518,0.0,0.0,0.0,-0.0012460562866181135,0.0726558193564415,-0.0,0.0,0.0,0.0,0.002286599250510335,0.004999999888241291,0.0005257922457531095,27431.0,1539.0,20126.0,25250.0,0.10317468643188477,0.004190085455775261,0.069794662296772,0.09276127815246582,0.0,0.0,0.0,0.0,26716.0,515.0,18956.0,24325.0,0.2945311665534973,-0.11307902670461506,-0.3286331065128167,-0.025833328637273972,-0.2474602311849594,-0.004247711971402168,0.1792013943195343
283,5,0.003806697204709053,0.0023580745328217745,0.0038362527266144753,0.0249146930873394,-0.028299210593104362,-0.03318101540207863,-0.027296356856822968,0.3674732446670532,0.007294108625501394,-0.04432343691587448,4.980782985687256,0.3374733626842499,0.0,0.0,0.0,0.04089481011033058,0.04166177287697792,-0.0,0.0,0.0,0.0,0.0013689222978428006,0.004999999888241291,0.0006799293914809823,29341.0,0.0,19996.0,21946.0,0.11261031776666641,-0.0008684266358613968,0.06924006342887878,0.0777125358581543,0.0,0.0,0.0,0.0,27515.0,1581.0,20099.0,25163.0,0.2782738208770752,-0.09992494494233871,-0.2971505941972396,-0.029256677496098442,-0.13403168320655823,0.13167573511600494,0.2505240738391876
289,5,0.0039781671948730946,0.0022595380432903767,0.003612808184698224,0.03148021548986435,0.0053053367882966995,0.021327927708625793,-0.027296356856822968,0.3674732446670532,0.007294108625501394,-0.04432343691587448,4.980782985687256,0.3374733626842499,0.0,0.0,0.0,0.0017916099168360233,0.051150284707546234,-0.0,0.0,0.0,0.0,0.0013689222978428006,0.004999999888241291,0.0006799293914809823,29341.0,0.0,19996.0,21946.0,0.11261031776666641,-0.0008684266358613968,0.06924006342887878,0.0777125358581543,0.0,0.0,0.0,0.0,27515.0,1581.0,20099.0,25163.0,0.2707785964012146,-0.09440956272525743,-0.2728454839326145,-0.015612223355007756,-0.1602354347705841,0.005614923313260078,0.09581451863050461
294,5,0.003629130544140935,0.002083101775497198,0.0042349230498075485,-0.03942107409238815,0.0262927059084177,-0.08069772273302078,-0.02876734919846058,0.3275645077228546,0.00979126151651144,0.02640993520617485,4.953549385070801,0.44184064865112305,0.0,0.0,0.0,-0.024212272837758064,-0.03512082248926163,-0.0,0.0,0.0,0.0,0.001244914485141635,0.004999999888241291,0.0009601364727132022,33392.0,0.0,23933.0,21260.0,0.1335923671722412,-0.00031856074929237366,0.08665493130683899,0.07469520717859268,0.0,0.0,0.0,0.0,30339.0,0.0,21166.0,20793.0,0.2624131739139557,-0.09448020294886399,-0.23144895625341044,-0.01431942854768056,0.10660997778177261,-0.07352694869041443,0.42311733961105347
299,5,0.003407991724088788,0.0020414169412106276,0.004527358803898096,-0.042785752564668655,0.013723681680858135,-0.06515032798051834,-0.02876734919846058,0.3275645077228546,0.00979126151651144,0.02640993520617485,4.953549385070801,0.44184064865112305,0.0,0.0,0.0,-0.008689304813742638,-0.03968977555632591,-0.0,0.0,0.0,0.0,0.001244914485141635,0.004999999888241291,0.0009601364727132022,33392.0,0.0,23933.0,21260.0,0.1335923671722412,-0.00031856074929237366,0.08665493130683899,0.07469520717859268,0.0,0.0,0.0,0.0,30339.0,0.0,21166.0,20793.0,0.26050376892089844,-0.09322360928941471,-0.1922352768749803,-0.011340499320355414,0.1196323037147522,-0.026198705658316612,0.39454856514930725
304,5,0.0036846885923296213,0.0020037053618580103,0.004633988253772259,0.02590181864798069,0.009396707639098167,-0.03447318449616432,-0.028700506314635277,0.2700214087963104,0.014178518205881119,0.2719549238681793,4.714883804321289,0.5027301907539368,0.0,0.0,0.0,-0.003183067077770829,0.0455942265689373,-0.0,0.0,0.0,0.0,0.0008393341558985412,0.004999999888241291,0.001161748543381691,34173.0,0.0,23701.0,17450.0,0.13778875768184662,-0.01111648976802826,0.08559384196996689,0.058639805763959885,0.0,0.0,0.0,0.0,34563.0,0.0,23849.0,16927.0,0.2653432786464691,-0.09294165464029958,-0.17922694927575195,-0.008721864868650469,-0.13997533917427063,-0.009775509126484394,0.318388432264328
309,5,0.004345665220171213,0.002181338146328926,0.004580891691148281,0.046406544744968414,-0.021179649978876114,-0.015244663693010807,-0.028700506314635277,0.2700214087963104,0.014178518205881119,0.2719549238681793,4.714883804321289,0.5027301907539368,0.0,0.0,0.0,0.03121550753712654,0.06501651555299759,-0.0,0.0,0.0,0.0,0.0008393341558985412,0.004999999888241291,0.001161748543381691,34173.0,0.0,23701.0,17450.0,0.13778875768184662,-0.01111648976802826,0.08559384196996689,0.058639805763959885,0.0,0.0,0.0,0.0,34563.0,0.0,23849.0,16927.0,0.29386645555496216,-0.05925244445304577,-0.14120276887440067,-0.001678538516684596,-0.22087785601615906,0.10615649819374084,0.2746153473854065
314,5,0.004533038474619389,0.002074507297948003,0.004708541557192802,0.04015424847602844,0.008602412417531013,-0.02244439721107483,-0.02642272412776947,0.2348451316356659,0.017418943345546722,0.4238380789756775,4.270218372344971,0.5538225769996643,0.0,0.0,0.0,-0.0017335232114419341,0.06120462715625763,-0.0,0.0,0.0,0.0,9.789258911041543e-05,0.004999999888241291,0.0013946013059467077,36308.0,0.0,23793.0,13077.0,0.14951246976852417,-0.016805827617645264,0.08601401001214981,0.04164692386984825,0.0,0.0,0.0,0.0,36604.0,0.0,24344.0,12629.0,0.2813749313354492,-0.05864621883266146,-0.11820912190801226,0.0005308189402994235,-0.19919759035110474,-0.005645482800900936,0.31268638372421265
319,5,0.004533038474619389,0.002074507297948003,0.004708541557192802,0.04015424847602844,0.008602412417531013,-0.02244439721107483,-0.02642272412776947,0.2348451316356659,0.017418943345546722,0.4238380789756775,4.270218372344971,0.5538225769996643,0.0,0.0,0.0,-0.0016098787309601903,0.06142120808362961,-0.0,0.0,0.0,0.0,9.789258911041543e-05,0.004999999888241291,0.0013946013059467077,36308.0,0.0,23793.0,13077.0,0.14951246976852417,-0.016805827617645264,0.08601401001214981,0.04164692386984825,0.0,0.0,0.0,0.0,36604.0,0.0,24344.0,12629.0,0.2816108167171478,-0.05864621883266146,-0.11820912190801226,0.0005308189402994235,-0.20007473230361938,-0.0052440655417740345,0.3278714418411255
324,5,0.004999078344553709,0.002088535111397505,0.004803171381354332,0.07729183882474899,0.0006168185500428081,-0.019981451332569122,-0.02409781515598297,0.18837960064411163,0.023325476795434952,0.1721954047679901,3.6492714881896973,0.6101774573326111,0.0,0.0,0.0,0.006777173839509487,0.09238222241401672,-0.0,0.0,0.0,0.0,0.00023404986131936312,0.004999999888241291,0.0015830592019483447,37072.0,0.0,29381.0,16349.0,0.15379710495471954,-0.02674899622797966,0.11281220614910126,0.054217323660850525,0.0,0.0,0.0,0.0,38042.0,0.0,30603.0,14943.0,0.3208126723766327,-0.05274956512429871,-0.1156652878061465,0.0041810026306311285,-0.3425372242927551,0.025167327374219894,0.33686113357543945
329,5,0.005581596400588751,0.0018971075769513845,0.004688018001616001,0.05715635418891907,0.02776234596967697,0.01845814660191536,-0.02409781515598297,0.18837960064411163,0.023325476795434952,0.1721954047679901,3.6492714881896973,0.6101774573326111,0.0,0.0,0.0,-0.021947260946035385,0.07711897045373917,-0.0,0.0,0.0,0.0,0.00023404986131936312,0.004999999888241291,0.0015830592019483447,37072.0,0.0,29381.0,16349.0,0.15379710495471954,-0.02674899622797966,0.11281220614910126,0.054217323660850525,0.0,0.0,0.0,0.0,38042.0,0.0,30603.0,14943.0,0.3038809299468994,-0.056020798430918235,-0.09903858035764924,0.009624634879295985,-0.27090421319007874,-0.07718539983034134,0.23517654836177826
335,5,0.005997688975185156,0.0020539716351777315,0.004663713742047548,0.07539984583854675,-0.01363227516412735,0.008940028958022594,-0.02409781515598297,0.18837960064411163,0.023325476795434952,0.1721954047679901,3.6492714881896973,0.6101774573326111,0.0,0.0,0.0,0.021182432770729065,0.09174750745296478,-0.0,0.0,0.0,0.0,0.00023404986131936312,0.004999999888241291,0.0015830592019483447,37072.0,0.0,29381.0,16349.0,0.15379710495471954,-0.02674899622797966,0.11281220614910126,0.054217323660850525,0.0,0.0,0.0,0.0,38042.0,0.0,30603.0,14943.0,0.3230193257331848,-0.040054664879213844,-0.08173864115820423,0.012573127979384915,-0.3424629271030426,0.07919085770845413,0.27824896574020386
340,5,0.006370492745190859,0.002044855849817395,0.004632034804672003,0.07481250166893005,-0.0028134630993008614,0.007117063272744417,-0.0242334995418787,0.16123178601264954,0.02784433215856552,0.02332286164164543,3.1164674758911133,0.6020222306251526,0.0,0.0,0.0,0.010476241819560528,0.09242480248212814,-0.0,0.0,0.0,0.0,0.0019889266695827246,0.004999999888241291,0.0018577873706817627,38285.0,0.0,31630.0,14582.0,0.16069179773330688,-0.03824254125356674,0.12430575489997864,0.047322630882263184,0.0,0.0,0.0,0.0,38823.0,0.0,29538.0,12111.0,0.3213699758052826,-0.03749892214235893,-0.07580640098505946,0.014114182319509361,-0.3432781994342804,0.03896903991699219,0.29816338419914246
345,5,0.006310053635388613,0.0018004323355853558,0.0051118251867592335,0.013982250355184078,0.03337525203824043,-0.06503553688526154,-0.0242334995418787,0.16123178601264954,0.02784433215856552,0.02332286164164543,3.1164674758911133,0.6020222306251526,0.0,0.0,0.0,-0.03141472488641739,0.03738486394286156,-0.0,0.0,0.0,0.0,0.0019889266695827246,0.004999999888241291,0.0018577873706817627,38285.0,0.0,31630.0,14582.0,0.16069179773330688,-0.03824254125356674,0.12430575489997864,0.047322630882263184,0.0,0.0,0.0,0.0,38823.0,0.0,29538.0,12111.0,0.2684134244918823,-0.03510652173413095,-0.046662167547799754,0.01916867089446855,-0.11606630682945251,-0.09757538139820099,0.5364449620246887
350,5,0.007169931661337614,0.0016834327252581716,0.005620503332465887,0.1245775893330574,0.02639251947402954,-0.09072558581829071,-0.02534540928900242,0.12727148830890656,0.033410605043172836,-0.06666769087314606,2.6503469944000244,0.5100753903388977,0.0,0.0,0.0,-0.016495931893587112,0.1238095834851265,-0.0,0.0,0.0,0.0,0.0010814296547323465,0.004999999888241291,0.0018519212026149035,38697.0,0.0,29893.0,12311.0,0.1630629301071167,-0.03545526787638664,0.11539492011070251,0.038827940821647644,0.0,0.0,0.0,0.0,39367.0,0.0,32587.0,16684.0,0.3752457797527313,-0.04015992512552397,-0.10484815072816493,0.003429307633277128,-0.5362852215766907,-0.0716380774974823,0.6371578574180603
355,5,0.007354217115789652,0.0015863319858908653,0.005694881081581116,0.06317327916622162,0.021511860191822052,-0.037630580365657806,-0.02534540928900242,0.12727148830890656,0.033410605043172836,-0.06666769087314606,2.6503469944000244,0.5100753903388977,0.0,0.0,0.0,-0.014795545488595963,0.08537141978740692,-0.0,0.0,0.0,0.0,0.0010814296547323465,0.004999999888241291,0.0018519212026149035,38697.0,0.0,29893.0,12311.0,0.1630629301071167,-0.03545526787638664,0.11539492011070251,0.038827940821647644,0.0,0.0,0.0,0.0,39367.0,0.0,32587.0,16684.0,0.3124355971813202,-0.044424775791036014,-0.09195527851684168,0.0029882198452738607,-0.3083074688911438,-0.05350099876523018,0.49684104323387146
360,5,0.007524605840444565,0.0015361502300947905,0.005727413110435009,0.04280637577176094,0.013479011133313179,-0.015843652188777924,-0.026099471375346184,0.10892527550458908,0.03694149851799011,0.0022542523220181465,2.0844125747680664,0.45406243205070496,0.0,0.0,0.0,-0.006920120678842068,0.06954096257686615,-0.0,0.0,0.0,0.0,0.0017821256769821048,0.004999999888241291,0.001984434900805354,40420.0,0.0,33338.0,15114.0,0.17312441766262054,-0.03275930508971214,0.13330376148223877,0.04937125742435455,0.0,0.0,0.0,0.0,39732.0,0.0,28253.0,8683.0,0.29121485352516174,-0.04498731388035021,-0.07936486674426989,0.00543657108111751,-0.23420758545398712,-0.02332207001745701,0.4503374993801117
365,5,0.00772662740200758,0.0014957654057070613,0.005836618598550558,0.04112495481967926,0.009697574190795422,-0.020041879266500473,-0.026099471375346184,0.10892527550458908,0.03694149851799011,0.0022542523220181465,2.0844125747680664,0.45406243205070496,0.0,0.0,0.0,-0.002697588177397847,0.06870631128549576,-0.0,0.0,0.0,0.0,0.0017821256769821048,0.004999999888241291,0.001984434900805354,40420.0,0.0,33338.0,15114.0,0.17312441766262054,-0.03275930508971214,0.13330376148223877,0.04937125742435455,0.0,0.0,0.0,0.0,39732.0,0.0,28253.0,8683.0,0.289896160364151,-0.04490357958214811,-0.06962942523511,0.007608011023400807,-0.2303583025932312,-0.009048907086253166,0.4829089045524597
370,5,0.007899580523371696,0.001479507889598608,0.005959502886980772,0.03655095025897026,0.005185327958315611,-0.023216363042593002,-0.02562922053039074,0.08721388131380081,0.041264478117227554,0.0741022601723671,1.6284456253051758,0.3714313805103302,0.0,0.0,0.0,0.002439594827592373,0.06519021838903427,-0.0,0.0,0.0,0.0,-0.00020719229360111058,0.004999999888241291,0.0018988167867064476,39734.0,0.0,27903.0,8680.0,0.1690881848335266,-0.0322321318089962,0.10548119246959686,0.026112094521522522,0.0,0.0,0.0,0.0,39920.0,0.0,28096.0,8355.0,0.2858436107635498,-0.041206407775399946,-0.05809043758257826,0.012039879904264706,-0.21553218364715576,0.00807330571115017,0.5126763582229614
375,5,0.008052555844187737,0.0014568099286407232,0.005811662413179874,0.032381847500801086,0.004733304493129253,0.01373272854834795,-0.02562922053039074,0.08721388131380081,0.041264478117227554,0.0741022601723671,1.6284456253051758,0.3714313805103302,0.0,0.0,0.0,0.0030387535225600004,0.06191585212945938,-0.0,0.0,0.0,0.0,-0.00020719229360111058,0.004999999888241291,0.0018988167867064476,39734.0,0.0,27903.0,8680.0,0.1690881848335266,-0.0322321318089962,0.10548119246959686,0.026112094521522522,0.0,0.0,0.0,0.0,39920.0,0.0,28096.0,8355.0,0.28221601247787476,-0.03684813439912088,-0.040694031133147276,0.01505993088551573,-0.2021208554506302,0.00992780551314354,0.4179295301437378
380,5,0.008324304595589638,0.0015361335827037692,0.006017186678946018,0.047759365290403366,-0.009685320779681206,-0.024653518572449684,-0.025486089289188385,0.07568113505840302,0.04359501972794533,-0.004424368962645531,1.3384058475494385,0.2527815103530884,0.0,0.0,0.0,0.01857631839811802,0.07553421705961227,-0.0,0.0,0.0,0.0,0.0010161970276385546,0.004788988269865513,0.0016686782473698258,40693.0,0.0,30749.0,13309.0,0.17474012076854706,-0.02445385977625847,0.11975342035293579,0.042510658502578735,0.0,0.0,0.0,0.0,39866.0,0.0,29850.0,14600.0,0.30083370208740234,-0.04042934817510461,-0.043612605297019755,0.014971310480452563,-0.26270508766174316,0.06467663496732712,0.5549343228340149
385,5,0.008585810661315918,0.0015722945099696517,0.005993112921714783,0.05093861743807793,-0.007968113757669926,-0.004025791306048632,-0.025486089289188385,0.07568113505840302,0.04359501972794533,-0.004424368962645531,1.3384058475494385,0.2527815103530884,0.0,0.0,0.0,0.016662875190377235,0.07885237783193588,-0.0,0.0,0.0,0.0,0.0010161970276385546,0.004788988269865513,0.0016686782473698258,40693.0,0.0,30749.0,13309.0,0.17474012076854706,-0.02445385977625847,0.11975342035293579,0.042510658502578735,0.0,0.0,0.0,0.0,39866.0,0.0,29850.0,14600.0,0.3044154942035675,-0.041112558375844176,-0.03947306838479576,0.014906830310923288,-0.27750927209854126,0.05870840698480606,0.511642336845398
390,5,0.00886514037847519,0.0016068912809714675,0.006059628911316395,0.05438774451613426,-0.00723399268463254,-0.010519945062696934,-0.02590130642056465,0.06196625903248787,0.04488145560026169,-0.06379413604736328,1.0629385709762573,0.07632920145988464,0.0,0.0,0.0,0.015799984335899353,0.08227372914552689,-0.0,0.0,0.0,0.0,0.001406069379299879,0.0035717354621738195,0.0015041828155517578,37543.0,0.0,28806.0,14616.0,0.1564604640007019,-0.02378586307168007,0.10993693768978119,0.04745089262723923,0.0,0.0,0.0,0.0,36126.0,0.0,28816.0,14742.0,0.30858179926872253,-0.04128417387738329,-0.03508970350336793,0.015096102247782612,-0.29348990321159363,0.056430473923683167,0.5513054728507996
395,5,0.009117625653743744,0.001558793243020773,0.005784860346466303,0.051664210855960846,0.004563525784760714,0.03531163930892944,-0.02590130642056465,0.06196625903248787,0.04488145560026169,-0.06379413604736328,1.0629385709762573,0.07632920145988464,0.0,0.0,0.0,0.0034687849693000317,0.08111690729856491,-0.0,0.0,0.0,0.0,0.001406069379299879,0.0035717354621738195,0.0015041828155517578,37543.0,0.0,28806.0,14616.0,0.1564604640007019,-0.02378586307168007,0.10993693768978119,0.04745089262723923,0.0,0.0,0.0,0.0,36126.0,0.0,28816.0,14742.0,0.30519652366638184,-0.04142927884538071,-0.022772495932365328,0.013090282136350034,-0.2862290143966675,0.012255185283720493,0.42890793085098267
400,5,0.009331324137747288,0.0016808401560410857,0.005963918287307024,0.04541710764169693,-0.015717506408691406,-0.014474637806415558,-0.026729736477136612,0.05523160472512245,0.04494931921362877,-0.1409388929605484,0.7771286368370056,-0.008029243908822536,0.0,0.0,0.0,0.025401685386896133,0.07570480555295944,-0.0,0.0,0.0,0.0,0.0020393705926835537,0.003138431813567877,0.0014723283238708973,34205.0,0.0,31760.0,15736.0,0.13796423375606537,-0.010000810027122498,0.12498395144939423,0.051794152706861496,0.0,0.0,0.0,0.0,33643.0,0.0,30057.0,13389.0,0.30345699191093445,-0.045413221007794574,-0.020392096089759212,0.015012804084296132,-0.2655673921108246,0.08920959383249283,0.5988946557044983
405,5,0.009534664452075958,0.0017513068160042167,0.0059286076575517654,0.042092837393283844,-0.01458057388663292,0.0006010782090015709,-0.026729736477136612,0.05523160472512245,0.04494931921362877,-0.1409388929605484,0.7771286368370056,-0.008029243908822536,0.0,0.0,0.0,0.024608254432678223,0.07363013923168182,-0.0,0.0,0.0,0.0,0.0020393705926835537,0.003138431813567877,0.0014723283238708973,34205.0,0.0,31760.0,15736.0,0.13796423375606537,-0.010000810027122498,0.12498395144939423,0.051794152706861496,0.0,0.0,0.0,0.0,33643.0,0.0,30057.0,13389.0,0.3006395399570465,-0.04276740837973428,-0.011691125289150941,0.019575455564370698,-0.25591060519218445,0.08562146872282028,0.572219729423523
411,5,0.009419579990208149,0.0016809410881251097,0.0057437848299741745,-0.0034839871805161238,0.005477018188685179,0.026055535301566124,-0.028667420148849487,0.04693007841706276,0.0446542464196682,-0.1617007553577423,0.6214777827262878,-0.0033004179131239653,0.0,0.0,0.0,0.0035278901923447847,0.02929440140724182,-0.0,0.0,0.0,0.0,0.001443267217837274,0.002816229360178113,0.0015768596203997731,35561.0,0.0,32040.0,13507.0,0.1453695297241211,-0.009463150054216385,0.12644582986831665,0.04325135052204132,0.0,0.0,0.0,0.0,34561.0,0.0,31348.0,15977.0,0.25438591837882996,-0.03426063915566858,0.02081145775559299,0.02467861765265868,-0.08625222742557526,0.010389602743089199,0.5120416879653931
416,5,0.00977970939129591,0.001693627331405878,0.0060859788209199905,0.04937291517853737,-0.00013296757242642343,-0.04009048640727997,-0.028667420148849487,0.04693007841706276,0.0446542464196682,-0.1617007553577423,0.6214777827262878,-0.0033004179131239653,0.0,0.0,0.0,0.00899497140198946,0.0814799815416336,-0.0,0.0,0.0,0.0,0.001443267217837274,0.002816229360178113,0.0015768596203997731,35561.0,0.0,32040.0,13507.0,0.1453695297241211,-0.009463150054216385,0.12644582986831665,0.04325135052204132,0.0,0.0,0.0,0.0,34561.0,0.0,31348.0,15977.0,0.30621203780174255,-0.04445820689527162,0.008809591773481945,0.02264563292697213,-0.28844380378723145,0.03187883645296097,0.7377519011497498
421,5,0.010206923820078373,0.0017241825116798282,0.006091963034123182,0.07462182641029358,-0.00431761285290122,-0.012864978983998299,-0.03063851408660412,0.036808062344789505,0.045197129249572754,-0.042319055646657944,0.4027559161186218,0.09465775638818741,0.0,0.0,0.0,0.012441991828382015,0.10042586922645569,-0.0,0.0,0.0,0.0,0.002049518981948495,0.0022892956621944904,0.0016781141748651862,34538.0,0.0,33912.0,12362.0,0.13976755738258362,-0.014058634638786316,0.13638059794902802,0.0390147864818573,0.0,0.0,0.0,0.0,35184.0,0.0,31698.0,13751.0,0.3336208760738373,-0.048897325660232575,-0.0039207223807075815,0.013697589066246218,-0.3871135711669922,0.04804426431655884,0.6753364205360413
426,5,0.010311892256140709,0.0016316557303071022,0.005815534852445126,0.03708214685320854,0.011658458970487118,0.03484044969081879,-0.03063851408660412,0.036808062344789505,0.045197129249572754,-0.042319055646657944,0.4027559161186218,0.09465775638818741,0.0,0.0,0.0,-0.0035158563405275345,0.07294093072414398,-0.0,0.0,0.0,0.0,0.002049518981948495,0.0022892956621944904,0.0016781141748651862,34538.0,0.0,33912.0,12362.0,0.13976755738258362,-0.014058634638786316,0.13638059794902802,0.0390147864818573,0.0,0.0,0.0,0.0,35184.0,0.0,31698.0,13751.0,0.29496467113494873,-0.04300198066387795,0.023330716394679187,0.029878431890995476,-0.248809352517128,-0.012000461108982563,0.5474019050598145
431,5,0.010035132989287376,0.0014356046449393034,0.006158831063657999,-0.027621585875749588,0.030944690108299255,-0.03760933503508568,-0.03063851408660412,0.036808062344789505,0.045197129249572754,-0.042319055646657944,0.4027559161186218,0.09465775638818741,0.0,0.0,0.0,-0.028871366754174232,0.0022984559182077646,-0.0,0.0,0.0,0.0,0.002049518981948495,0.0022892956621944904,0.0016781141748651862,34538.0,0.0,33912.0,12362.0,0.13976755738258362,-0.014058634638786316,0.13638059794902802,0.0390147864818573,0.0,0.0,0.0,0.0,35184.0,0.0,31698.0,13751.0,0.2543818950653076,-0.07467850561599912,0.023579395000448106,0.029041783365748093,-0.006764367688447237,-0.08499227464199066,0.7885532975196838
436,5,0.010500342585146427,0.0016409055097028613,0.006295503117144108,0.05684278905391693,-0.01945870742201805,-0.030416855588555336,-0.03149779886007309,0.034441735595464706,0.04582901671528816,-0.13662025332450867,0.16098490357398987,0.10447220504283905,0.0,0.0,0.0,0.028354978188872337,0.08843635767698288,-0.0,0.0,0.0,0.0,0.0017357601318508387,0.0016296872636303306,0.0016939688939601183,34298.0,0.0,35116.0,10364.0,0.13846853375434875,-0.006595678627490997,0.14292502403259277,0.03187807649374008,0.0,0.0,0.0,0.0,33515.0,0.0,35055.0,10775.0,0.3211432993412018,-0.05678403189567021,0.026653976937480374,0.024420776036271036,-0.32815203070640564,0.10537952184677124,0.7927476763725281
441,5,0.010575325228273869,0.0016560505609959364,0.005947267636656761,0.027550382539629936,-0.007957914844155312,0.03962790220975876,-0.03149779886007309,0.034441735595464706,0.04582901671528816,-0.13662025332450867,0.16098490357398987,0.10447220504283905,0.0,0.0,0.0,0.018689502030611038,0.06589652597904205,-0.0,0.0,0.0,0.0,0.0017357601318508387,0.0016296872636303306,0.0016939688939601183,34298.0,0.0,35116.0,10364.0,0.13846853375434875,-0.006595678627490997,0.14292502403259277,0.03187807649374008,0.0,0.0,0.0,0.0,33515.0,0.0,35055.0,10775.0,0.2895846366882324,-0.04652865195333251,0.04353489178978456,0.03183141983966565,-0.2206653207540512,0.06263747066259384,0.5971946120262146
446,5,0.010621409863233566,0.001531642279587686,0.006389544811099768,0.01471699122339487,0.015029776841402054,-0.05003039911389351,-0.0331757478415966,0.03302310034632683,0.04677022621035576,-0.10933247208595276,0.05937250331044197,0.07185310125350952,0.0,0.0,0.0,-0.007497464306652546,0.054909612983465195,-0.0,0.0,0.0,0.0,0.0004397348966449499,-0.0006428284686990082,0.0014660815941169858,29299.0,3478.0,31885.0,2399.0,0.11240068078041077,0.009734977036714554,0.12563470005989075,0.0066115036606788635,0.0,0.0,0.0,0.0,34493.0,0.0,36055.0,9067.0,0.2751447558403015,-0.05864810255684547,0.03978838055781862,0.028711246046998394,-0.17476940155029297,-0.02387579344213009,0.8915596604347229
451,5,0.010854547843337059,0.0015370695618912578,0.006231901701539755,0.03705449402332306,0.0037491193506866693,0.007060863543301821,-0.0331757478415966,0.03302310034632683,0.04677022621035576,-0.10933247208595276,0.05937250331044197,0.07185310125350952,0.0,0.0,0.0,0.005424594506621361,0.07580654323101044,-0.0,0.0,0.0,0.0,0.0004397348966449499,-0.0006428284686990082,0.0014660815941169858,29299.0,3478.0,31885.0,2399.0,0.11240068078041077,0.009734977036714554,0.12563470005989075,0.0066115036606788635,0.0,0.0,0.0,0.0,34493.0,0.0,36055.0,9067.0,0.2986079752445221,-0.061544017414860895,0.033223981600301426,0.026520969622097705,-0.26175737380981445,0.018750213086605072,0.7385117411613464
456,5,0.011155049316585064,0.0013566995039582253,0.0051758792251348495,0.053186483681201935,0.02637653425335884,0.1499614268541336,-0.03348558396100998,0.0332690104842186,0.047324154525995255,0.008344071917235851,-0.05614881590008736,0.029806960374116898,0.0,0.0,0.0,-0.018137285485863686,0.08870086818933487,-0.0,0.0,0.0,0.0,0.0017069188179448247,0.0007413472048938274,0.0015172213315963745,31316.0,580.0,33434.0,10288.0,0.12267632782459259,0.0015566125512123108,0.13381794095039368,0.031612057238817215,0.0,0.0,0.0,0.0,29956.0,2674.0,32111.0,1634.0,0.3178256154060364,-0.06648655679726473,0.011429743403497391,0.0362237014905223,-0.32582488656044006,-0.06671298295259476,0.3136240243911743
