timestamp,dt,pos_x,pos_y,pos_z,vel_x,vel_y,vel_z,roll,pitch,yaw,agv_x,agv_y,agv_z,x_ref,y_ref,z_ref,roll_ref,pitch_ref,yaw_ref,x_vel_ref,y_vel_ref,z_vel_ref,x_torque,y_torque,z_torque,w0,w1,w2,w3,u0,u1,u2,u3,m0req,m1req,m2req,m3req,thrust0,thrust1,thrust2,thrust3,thrust_ref,roll_vicon,pitch_vicon,yaw_vicon,acc_x,acc_y,acc_z
5,5,0.0,0.0,0.0,0.0020943977870047092,0.005581051576882601,0.0016723955050110817,-0.016928374767303467,0.49786725640296936,0.0021523069590330124,0.0001415914885001257,-0.004274790640920401,0.0017888684524223208,0.0,0.0,0.0,-0.005333512555807829,0.002001524204388261,-0.0,0.0,0.0,0.0,0.0006871182704344392,-0.004999999888241291,6.640214269282296e-05,0.0,0.0,0.0,0.0,0.0,0.0,0.0,0.0,0.0,0.0,0.0,0.0,0.0,0.0,0.0,0.0,0.3390390872955322,-0.18292863199992668,-0.5756484552393697,-0.1870044301604286,-0.007853991352021694,-0.020928943529725075,-0.005017186515033245
23,18,0.0,0.0,0.0,-0.0019926379900425673,-0.00043865962652489543,0.002411891706287861,-0.016928374767303467,0.49786725640296936,0.0021523069590330124,0.0001415914885001257,-0.004274790640920401,0.0017888684524223208,0.0,0.0,0.0,0.0004192075866740197,-0.0019042771309614182,-0.0,0.0,0.0,0.0,0.0006871182704344392,-0.004999999888241291,6.640214269282296e-05,0.0,0.0,0.0,0.0,0.0,0.0,0.0,0.0,0.0,0.0,0.0,0.0,0.0,0.0,0.0,0.0,0.3390342593193054,-0.18320138045938536,-0.5754548107428661,-0.18725503694743215,0.00747239263728261,0.0016449736431241035,-0.007235675118863583
33,10,0.0,0.0,0.0,-0.001017206464894116,-0.0035257264971733093,0.0017229459481313825,-0.016941817477345467,0.49787721037864685,0.0021620949264615774,-0.0006696466007269919,-0.0007466823444701731,-0.0048540327697992325,0.0,0.0,0.0,0.003369372570887208,-0.000972100708168,-0.0,0.0,0.0,0.0,0.0006998658645898104,-0.004999999888241291,6.130631663836539e-05,0.0,0.0,0.0,0.0,0.0,0.0,0.0,0.0,0.0,0.0,0.0,0.0,0.0,0.0,0.0,0.0,0.33903568983078003,-0.1834528170053046,-0.5745023541466687,-0.1871645668792649,0.003814524272456765,0.01322147436439991,-0.005168837960809469
38,5,0.0,0.0,0.0,0.00278744800016284,0.00015426646859850734,-0.009939749725162983,-0.016941817477345467,0.49787721037864685,0.0021620949264615774,-0.0006696466007269919,-0.0007466823444701731,-0.0048540327697992325,0.0,0.0,0.0,-0.00014742539497092366,0.002663839142769575,-0.0,0.0,0.0,0.0,0.0004874147707596421,-0.004999999888241291,6.61239173496142e-05,0.0,0.0,0.0,0.0,0.0,0.0,0.0,0.0,0.0,0.0,0.0,0.0,0.0,0.0,0.0,0.0,0.3390347957611084,-0.1814485051793907,-0.575105878959378,-0.18726400550964392,-0.010452929884195328,-0.0005784992827102542,0.029819250106811523
43,5,0.0,0.0,0.0,0.00278744800016284,0.00015426646859850734,-0.009939749725162983,-0.016941817477345467,0.49787721037864685,0.0021620949264615774,-0.0006696466007269919,-0.0007466823444701731,-0.0048540327697992325,0.0,0.0,0.0,-0.00014742539497092366,0.002663839142769575,-0.0,0.0,0.0,0.0,0.0004874147707596421,-0.004999999888241291,6.61239173496142e-05,0.0,0.0,0.0,0.0,0.0,0.0,0.0,0.0,0.0,0.0,0.0,0.0,0.0,0.0,0.0,0.0,0.3390347957611084,-0.1814485051793907,-0.575105878959378,-0.18726400550964392,-0.010452929884195328,-0.0005784992827102542,0.029819250106811523
48,5,3.2029711292125285e-05,8.91513773240149e-05,-4.807609002455138e-06,0.009852723218500614,-0.015226262621581554,0.004574129823595285,-0.016979262232780457,0.49785685539245605,0.0021992456167936325,-0.001968073658645153,0.004903268534690142,0.021823059767484665,0.0,0.0,0.0,0.014679108746349812,0.009462154470384121,-0.0,0.0,0.0,0.0,0.0007153664482757449,-0.004999999888241291,8.170165529008955e-05,16114.0,28317.0,31374.0,16610.0,0.05328602343797684,0.10751479864120483,0.12297794222831726,0.055255502462387085,0.0,0.0,0.0,0.0,15838.0,28551.0,31150.0,16882.0,0.33908531069755554,-0.18494189166022118,-0.5771990076745113,-0.1926776234084768,-0.037130650132894516,0.05760767310857773,-0.013811450451612473
53,5,-0.00018092991376761347,0.00037457305006682873,-0.00021328916773200035,-0.026858530938625336,-0.04452691227197647,0.030559659004211426,-0.016979262232780457,0.49785685539245605,0.0021992456167936325,-0.001968073658645153,0.004903268534690142,0.021823059767484665,0.0,0.0,0.0,0.014679143205285072,0.009462166577577591,-0.0,0.0,0.0,0.0,0.0007153664482757449,-0.004999999888241291,8.170165529008955e-05,16114.0,28317.0,31374.0,16610.0,0.05328602343797684,0.10751479864120483,0.12297794222831726,0.055255502462387085,0.0,0.0,0.0,0.0,15838.0,28551.0,31150.0,16882.0,0.33908531069755554,-0.16383365790896057,-0.5710411215877667,-0.19286025848853286,0.10170778632164001,0.1690550595521927,-0.0948953852057457
59,5,-0.00018092991376761347,0.00037457305006682873,-0.00021328916773200035,-0.026858530938625336,-0.04452691227197647,0.030559659004211426,-0.017443299293518066,0.49863672256469727,0.002427781233564019,-0.04361560195684433,-0.09709697961807251,-0.013726514764130116,0.0,0.0,0.0,0.04212060570716858,-0.02304801344871521,-0.0,0.0,0.0,0.0,0.0009777350351214409,-0.004999999888241291,9.435685933567584e-05,15567.0,28094.0,31586.0,17146.0,0.05113275349140167,0.10641755163669586,0.12407590448856354,0.057409487664699554,0.0,0.0,0.0,0.0,14757.0,28773.0,30937.0,17918.0,0.38180574774742126,-0.16383365790896057,-0.5710411215877667,-0.19286025848853286,0.10175120830535889,0.16914495825767517,-0.09574853628873825
64,5,5.161992521607317e-05,0.0003173215372953564,-0.0002295904268976301,0.006747887935489416,-0.024607012048363686,0.028469793498516083,-0.017443299293518066,0.49863672256469727,0.002427781233564019,-0.04361560195684433,-0.09709697961807251,-0.013726514764130116,0.0,0.0,0.0,0.026390405371785164,0.006507818587124348,-0.0,0.0,0.0,0.0,0.0009777350351214409,-0.004999999888241291,9.435685933567584e-05,15567.0,28094.0,31586.0,17146.0,0.05113275349140167,0.10641755163669586,0.12407590448856354,0.057409487664699554,0.0,0.0,0.0,0.0,14757.0,28773.0,30937.0,17918.0,0.3391588628292084,-0.17505652902525684,-0.5668504386330198,-0.1822011071058377,-0.025537116453051567,0.09416230767965317,-0.09002821147441864
69,5,6.4635525632184e-05,-9.391976345796138e-05,-0.0002201471070293337,0.0038465503603219986,0.05019168183207512,0.007218874059617519,-0.017182087525725365,0.4994471073150635,0.0016741490690037608,0.006360073108226061,-0.060195062309503555,-0.023671342059969902,0.0,0.0,0.0,-0.047391023486852646,0.0033702983055263758,-0.0,0.0,0.0,0.0,0.002398694632574916,-0.004999999888241291,0.00012447344488464296,15010.0,29247.0,30475.0,17679.0,0.048969753086566925,0.11214149743318558,0.118351511657238,0.059572041034698486,0.0,0.0,0.0,0.0,16085.0,28472.0,31226.0,16639.0,0.3782782256603241,-0.19509192559080923,-0.5817304005858136,-0.19514764236505097,-0.01473931409418583,-0.18853065371513367,-0.02691967971622944
74,5,6.4635525632184e-05,-9.391976345796138e-05,-0.0002201471070293337,0.0038465503603219986,0.05019168183207512,0.007218874059617519,-0.017182087525725365,0.4994471073150635,0.0016741490690037608,0.006360073108226061,-0.060195062309503555,-0.023671342059969902,0.0,0.0,0.0,-0.04739316552877426,0.003371983766555786,-0.0,0.0,0.0,0.0,0.002398694632574916,-0.004999999888241291,0.00012447344488464296,15010.0,29247.0,30475.0,17679.0,0.048969753086566925,0.11214149743318558,0.118351511657238,0.059572041034698486,0.0,0.0,0.0,0.0,16085.0,28472.0,31226.0,16639.0,0.37828320264816284,-0.19509192559080923,-0.5817304005858136,-0.19514764236505097,-0.014746876433491707,-0.18854163587093353,-0.027348967269062996
79,5,8.267943485407159e-05,7.384531636489555e-05,1.2682457963819616e-05,0.005324342288076878,0.0034144127275794744,-0.04092296585440636,-0.01732226461172104,0.49897441267967224,0.002163323573768139,0.00902161467820406,0.12337072938680649,0.04775388538837433,0.0,0.0,0.0,-0.0034202449023723602,0.005202398169785738,-0.0,0.0,0.0,0.0,0.002398694632574916,-0.004999999888241291,0.00012447344488464296,16576.0,28089.0,35580.0,21283.0,0.05511800944805145,0.10639255493879318,0.14547359943389893,0.07479692250490189,0.0,0.0,0.0,0.0,16085.0,28472.0,31226.0,16639.0,0.3390401601791382,-0.18264509934545053,-0.5762892385912055,-0.1917120913066799,-0.02041439525783062,-0.012201150879263878,0.12011349946260452
84,5,6.949708767933771e-05,8.890142635209486e-05,4.211287523503415e-05,-0.00024822575505822897,-0.0010835316497832537,-0.016397148370742798,-0.01732226461172104,0.49897441267967224,0.002163323573768139,0.00902161467820406,0.12337072938680649,0.04775388538837433,0.0,0.0,0.0,0.0013313600793480873,-0.00014141324209049344,-0.0,0.0,0.0,0.0,0.002398694632574916,-0.004999999888241291,0.00012447344488464296,16576.0,28089.0,35580.0,21283.0,0.05511800944805145,0.10639255493879318,0.14547359943389893,0.07479692250490189,0.0,0.0,0.0,0.0,16085.0,28472.0,31226.0,16639.0,0.33903390169143677,-0.18244292578117782,-0.5760534641049301,-0.19186787869461885,0.000554905564058572,0.004749326966702938,0.04697992652654648
89,5,-5.297961251926608e-06,8.931400225264952e-05,-3.351442137500271e-05,-0.010545775294303894,-0.0003828202316071838,0.005668677389621735,-0.01732226461172104,0.49897441267967224,0.002163323573768139,0.00902161467820406,0.12337072938680649,0.04775388538837433,0.0,0.0,0.0,0.0006008576601743698,-0.010082988999783993,-0.0,0.0,0.0,0.0,0.002398694632574916,-0.004999999888241291,0.00012447344488464296,16576.0,28089.0,35580.0,21283.0,0.05511800944805145,0.10639255493879318,0.14547359943389893,0.07479692250490189,0.0,0.0,0.0,0.0,16085.0,28472.0,31226.0,16639.0,0.33905088901519775,-0.18158270614160435,-0.5751271143358269,-0.192973181868684,0.039566997438669205,0.0021436663810163736,-0.02020181342959404
94,5,-7.191915938165039e-05,0.00017166852194350213,-0.0003836966643575579,-0.012490699999034405,-0.01164447981864214,0.050726115703582764,-0.01720605604350567,0.49777328968048096,0.0023693086113780737,0.03837519884109497,0.10792195796966553,0.0015135416761040688,0.0,0.0,0.0,0.012570243328809738,-0.012035191059112549,-0.0,0.0,0.0,0.0,-0.0012252562446519732,-0.004999999888241291,8.304570656036958e-05,21249.0,32545.0,30996.0,16173.0,0.07464923709630966,0.12909679114818573,0.12102311104536057,0.05351945385336876,0.0,0.0,0.0,0.0,14426.0,27307.0,32333.0,18241.0,0.3390849530696869,-0.17193764995702973,-0.5700405853179783,-0.19131580679356266,0.04722847789525986,0.04484694451093674,-0.16078625619411469
99,5,-0.00010046952229458839,0.00010382154869148508,-0.00030687201069667935,-0.007744261063635349,0.006005232688039541,0.004462383687496185,-0.01720605604350567,0.49777328968048096,0.0023693086113780737,0.03837519884109497,0.10792195796966553,0.0015135416761040688,0.0,0.0,0.0,-0.006077419966459274,-0.007543161977082491,-0.0,0.0,0.0,0.0,-0.0012252562446519732,-0.004999999888241291,8.304570656036958e-05,21249.0,32545.0,30996.0,16173.0,0.07464923709630966,0.12909679114818573,0.12102311104536057,0.05351945385336876,0.0,0.0,0.0,0.0,14426.0,27307.0,32333.0,18241.0,0.3390495181083679,-0.17431830781917884,-0.574937696088377,-0.1948202751394901,0.029600080102682114,-0.021680494770407677,-0.022045575082302094
104,5,-6.340505933621898e-05,0.00016214788774959743,-0.0003914193657692522,0.0028657459188252687,-0.006364117842167616,0.013175344094634056,-0.017105212435126305,0.4981326758861542,0.0024222165811806917,-0.025756025686860085,-0.11097179353237152,0.011234552599489689,0.0,0.0,0.0,0.0070203570649027824,0.002643763553351164,-0.0,0.0,0.0,0.0,0.0008528885082341731,-0.004999999888241291,3.06301808450371e-05,15522.0,28467.0,31232.0,17191.0,0.05095861479640007,0.10825661569833755,0.1222444400191307,0.05759122595191002,0.0,0.0,0.0,0.0,21105.0,32527.0,31014.0,16332.0,0.33904314041137695,-0.17885194814266928,-0.5614536369699135,-0.1935140638480673,-0.010374152101576328,0.025043955072760582,-0.050355277955532074
109,5,-1.0865420335903764e-05,-0.00044164416613057256,-0.00029602512950077653,0.008215273730456829,0.08262164890766144,-0.00940258800983429,-0.017105212435126305,0.4981326758861542,0.0024222165811806917,-0.025756025686860085,-0.11097179353237152,0.011234552599489689,0.0,0.0,0.0,-0.06903035938739777,0.006186453625559807,-0.0,0.0,0.0,0.0,0.0008528885082341731,-0.004999999888241291,3.06301808450371e-05,15522.0,28467.0,31232.0,17191.0,0.05095861479640007,0.10825661569833755,0.1222444400191307,0.05759122595191002,0.0,0.0,0.0,0.0,21105.0,32527.0,31014.0,16332.0,0.42993634939193726,-0.22569259496931257,-0.5731932321989182,-0.19728310762245502,-0.0307109784334898,-0.3119420111179352,0.01747358962893486
114,5,-0.0001218110483023338,-0.0003223814128432423,-0.0004843194910790771,-0.013067806139588356,0.00808971282094717,0.02354043535888195,-0.0171122495085001,0.49826574325561523,0.0023769510444253683,0.03419739380478859,0.07800474017858505,0.03713176026940346,0.0,0.0,0.0,-0.008932280354201794,-0.012668277136981487,-0.0,0.0,0.0,0.0,0.0003222149971406907,-0.004999999888241291,4.869006443186663e-05,16643.0,28825.0,30887.0,16083.0,0.055388014763593674,0.1100357249379158,0.12046464532613754,0.0531611405313015,0.0,0.0,0.0,0.0,16052.0,28280.0,31411.0,16674.0,0.33907434344291687,-0.21030044277127027,-0.5660479251314436,-0.19913471367207633,0.049712978303432465,-0.0318671390414238,-0.085040383040905
120,5,-0.00015963103214744478,-0.0004089499416295439,-0.0004754276014864445,-0.009215138852596283,0.014546506106853485,0.0058172657154500484,-0.0171122495085001,0.49826574325561523,0.0023769510444253683,0.03419739380478859,0.07800474017858505,0.03713176026940346,0.0,0.0,0.0,-0.015873005613684654,-0.009046969935297966,-0.0,0.0,0.0,0.0,0.0003222149971406907,-0.004999999888241291,4.869006443186663e-05,16643.0,28825.0,30887.0,16083.0,0.055388014763593674,0.1100357249379158,0.12046464532613754,0.0531611405313015,0.0,0.0,0.0,0.0,16052.0,28280.0,31411.0,16674.0,0.3390901982784271,-0.21397329180143676,-0.5642762345360397,-0.2011506187826529,0.03550151735544205,-0.0566302053630352,-0.03355124965310097
125,5,-0.00023372760915663093,-0.0004840882320422679,-0.000552792043890804,-0.013138063251972198,0.014883311465382576,0.01257619634270668,-0.01696096919476986,0.4975408613681793,0.0022821836173534393,-0.019700178876519203,0.13549943268299103,-0.020236073061823845,0.0,0.0,0.0,-0.016365807503461838,-0.012907830066978931,-0.0,0.0,0.0,0.0,-0.00214930041693151,-0.004999999888241291,-3.7043787415314e-06,24724.0,36484.0,31850.0,18679.0,0.09030566364526749,0.1504940390586853,0.12545329332351685,0.06369046121835709,0.0,0.0,0.0,0.0,17379.0,28120.0,31562.0,15327.0,0.3391072452068329,-0.21188576136297413,-0.5600643915334538,-0.20436094849738723,0.05065348744392395,-0.05839119851589203,-0.056628450751304626
130,5,-0.00021832848142366856,-0.00046509664389304817,-0.0005351407453417778,-0.0017855415353551507,0.0018061716109514236,0.001301683485507965,-0.01696096919476986,0.4975408613681793,0.0022821836173534393,-0.019700178876519203,0.13549943268299103,-0.020236073061823845,0.0,0.0,0.0,-0.0026197698898613453,-0.0020499825477600098,-0.0,0.0,0.0,0.0,-0.00214930041693151,-0.004999999888241291,-3.7043787415314e-06,24724.0,36484.0,31850.0,18679.0,0.09030566364526749,0.1504940390586853,0.12545329332351685,0.06369046121835709,0.0,0.0,0.0,0.0,17379.0,28120.0,31562.0,15327.0,0.3390354812145233,-0.20908885234650082,-0.5597236972109229,-0.20429923452838863,0.008044470101594925,-0.009346168488264084,-0.024418752640485764
135,5,-0.00014752846618648618,-0.0002506851451471448,-0.0003043930628336966,0.009376339614391327,-0.029475757852196693,-0.03191417083144188,-0.017276620492339134,0.49598103761672974,0.0024576308205723763,-0.016409670934081078,0.098052479326725,0.03904544189572334,0.0,0.0,0.0,0.02999803237617016,0.008544477634131908,-0.0,0.0,0.0,0.0,-0.002110346220433712,-0.004999999888241291,0.0001045855533448048,17388.0,28832.0,30885.0,15324.0,0.05838526040315628,0.11006983369588852,0.12045089155435562,0.05018424987792969,0.0,0.0,0.0,0.0,25148.0,35941.0,32427.0,18202.0,0.3455424904823303,-0.21249069422489605,-0.5666542741522913,-0.19403582368985695,-0.034156233072280884,0.10904324799776077,0.07682672888040543
140,5,-0.0003176114696543664,-0.00042449802276678383,-0.0005353601300157607,-0.020998718217015266,0.015491073951125145,0.022761140018701553,-0.017276620492339134,0.49598103761672974,0.0024576308205723763,-0.016409670934081078,0.098052479326725,0.03904544189572334,0.0,0.0,0.0,-0.016957493498921394,-0.020541103556752205,-0.0,0.0,0.0,0.0,-0.002110346220433712,-0.004999999888241291,0.0001045855533448048,17388.0,28832.0,30885.0,15324.0,0.05838526040315628,0.11006983369588852,0.12045089155435562,0.05018424987792969,0.0,0.0,0.0,0.0,25148.0,35941.0,32427.0,18202.0,0.3395640552043915,-0.20667964365193553,-0.5558612382020056,-0.20526766677538721,0.08071260154247284,-0.06058337911963463,-0.09157715737819672
145,5,-0.0003617082256823778,-0.0003589928091969341,-0.0005489589530043304,-0.012473158538341522,-0.004523408133536577,0.008732173591852188,-0.01707630790770054,0.4945169985294342,0.0024217853788286448,0.00032300129532814026,0.2422250509262085,-0.02342546172440052,0.0,0.0,0.0,0.004137200769037008,-0.012496406212449074,-0.0,0.0,0.0,0.0,4.064757376909256e-05,-0.004999999888241291,6.936779391253367e-05,16779.0,29421.0,30309.0,15950.0,0.055933400988578796,0.11301293969154358,0.11750778555870056,0.05263610929250717,0.0,0.0,0.0,0.0,15796.0,28790.0,30920.0,16923.0,0.33906298875808716,-0.19477084556559068,-0.5515421693736101,-0.2026090353212001,0.04903899505734444,0.014759207144379616,-0.0512220561504364
150,5,-0.00022412561520468444,-0.00029561331029981375,-0.0003692775499075651,0.015519615262746811,-0.010230152867734432,-0.022535743191838264,-0.01707630790770054,0.4945169985294342,0.0024217853788286448,0.00032300129532814026,0.2422250509262085,-0.02342546172440052,0.0,0.0,0.0,0.010211062617599964,0.01442636176943779,-0.0,0.0,0.0,0.0,4.064757376909256e-05,-0.004999999888241291,6.936779391253367e-05,16779.0,29421.0,30309.0,15950.0,0.055933400988578796,0.11301293969154358,0.11750778555870056,0.05263610929250717,0.0,0.0,0.0,0.0,15796.0,28790.0,30920.0,16923.0,0.3390865623950958,-0.1964055691268835,-0.5556714352582828,-0.19988888334916352,-0.056612636893987656,0.03643003851175308,0.043300166726112366
155,5,-0.00012798969692084938,-0.000155928690219298,-0.000215885229408741,0.018114915117621422,-0.022624891251325607,-0.028235647827386856,-0.017506534233689308,0.49105215072631836,0.0025373613461852074,-0.004877512808889151,0.3576253056526184,0.006429990753531456,0.0,0.0,0.0,0.023219037801027298,0.016873056069016457,-0.0,0.0,0.0,0.0,0.0007187160663306713,-0.004999999888241291,0.00011392568558221683,16254.0,28318.0,31373.0,16471.0,0.05384084954857826,0.10752029716968536,0.12297305464744568,0.05470128729939461,0.0,0.0,0.0,0.0,16947.0,29493.0,30287.0,15841.0,0.3423105478286743,-0.19551896836402058,-0.5604819890630282,-0.19079489879867115,-0.06682846695184708,0.0836188942193985,0.06145672872662544
160,5,-0.00014744538930244744,-0.00024309502623509616,-0.0002303866931470111,0.002710676286369562,0.005415820516645908,-0.006440489087253809,-0.017506534233689308,0.49105215072631836,0.0025373613461852074,-0.004877512808889151,0.3576253056526184,0.006429990753531456,0.0,0.0,0.0,-0.006178880110383034,0.002276334911584854,-0.0,0.0,0.0,0.0,0.0007187160663306713,-0.004999999888241291,0.00011392568558221683,16254.0,28318.0,31373.0,16471.0,0.05384084954857826,0.10752029716968536,0.12297305464744568,0.05470128729939461,0.0,0.0,0.0,0.0,16947.0,29493.0,30287.0,15841.0,0.33904096484184265,-0.1991862867995077,-0.5549883644123987,-0.18736565961196736,-0.00893213227391243,-0.022042404860258102,-0.004801861476153135
165,5,-0.00010324649338144809,-0.00027450546622276306,-1.0258121619699523e-05,0.007001048419624567,0.006022208370268345,-0.032750144600868225,-0.01729808747768402,0.4874299466609955,0.0023318177554756403,-0.008814860135316849,0.4857228100299835,0.01524246297776699,0.0,0.0,0.0,-0.006879111751914024,0.006430498324334621,-0.0,0.0,0.0,0.0,-6.024266258464195e-05,-0.004999999888241291,7.535788608947769e-05,17299.0,29219.0,30556.0,15478.0,0.05802837386727333,0.11200051009654999,0.11876723170280457,0.05078815296292305,0.0,0.0,0.0,0.0,15185.0,27838.0,31832.0,17520.0,0.3390486240386963,-0.19270454804883289,-0.5591556694550786,-0.19111612698368463,-0.025233622640371323,-0.0245404951274395,0.07666119933128357
170,5,-0.00021138321608304977,-0.00016773267998360097,0.00010079838830279186,-0.013038826175034046,-0.013141527771949768,-0.025372954085469246,-0.01729808747768402,0.4874299466609955,0.0023318177554756403,-0.008814860135316849,0.4857228100299835,0.01524246297776699,0.0,0.0,0.0,0.013412424363195896,-0.012877373956143856,-0.0,0.0,0.0,0.0,-6.024266258464195e-05,-0.004999999888241291,7.535788608947769e-05,17299.0,29219.0,30556.0,15478.0,0.05802837386727333,0.11200051009654999,0.11876723170280457,0.05078815296292305,0.0,0.0,0.0,0.0,15185.0,27838.0,31832.0,17520.0,0.3390922248363495,-0.18053023263276652,-0.5522463600102706,-0.1895323284443464,0.050533607602119446,0.04785211384296417,0.05616965517401695
175,5,-4.573314436129294e-05,-0.0003732333716470748,0.00014784677478019148,0.01927936263382435,0.024827638640999794,-0.014198661781847477,-0.017609015107154846,0.4791581630706787,0.0022440513130277395,-0.04154939576983452,0.8173453211784363,0.020771050825715065,0.0,0.0,0.0,-0.026150720193982124,0.017773089930415154,-0.0,0.0,0.0,0.0,0.0013454750878736377,-0.004999999888241291,5.675726424669847e-05,15003.0,27673.0,31986.0,17692.0,0.04894254356622696,0.10435742139816284,0.12616142630577087,0.059625089168548584,0.0,0.0,0.0,0.0,16917.0,28238.0,31449.0,15804.0,0.3478507995605469,-0.1808553332838,-0.5550578942843318,-0.18612901591703782,-0.07152702659368515,-0.09569866210222244,0.023708827793598175
181,5,-0.00015515630366280675,-0.0005618270370177925,0.00022486453235615045,-0.009535432793200016,0.03385140374302864,-0.015042085200548172,-0.017609015107154846,0.4791581630706787,0.0022440513130277395,-0.04154939576983452,0.8173453211784363,0.020771050825715065,0.0,0.0,0.0,-0.034975867718458176,-0.009042198769748211,-0.0,0.0,0.0,0.0,0.0013454750878736377,-0.004999999888241291,5.675726424669847e-05,15003.0,27673.0,31986.0,17692.0,0.04894254356622696,0.10435742139816284,0.12616142630577087,0.059625089168548584,0.0,0.0,0.0,0.0,16917.0,28238.0,31449.0,15804.0,0.35509347915649414,-0.19728644446861726,-0.5528255599035306,-0.19065256732592925,0.037139102816581726,-0.13064280152320862,0.02784191071987152
186,5,-0.00011929080210393295,-0.0003083054325543344,0.0004017345781903714,0.0021605396177619696,-0.02533760294318199,-0.029274430125951767,-0.01755599118769169,0.47134509682655334,0.0024341014213860035,-0.006280476693063974,1.0176970958709717,0.0007356946007348597,0.0,0.0,0.0,0.025957878679037094,0.0017563165165483952,-0.0,0.0,0.0,0.0,0.00034753468935377896,-0.004999999888241291,0.00012204531958559528,16624.0,28671.0,31035.0,16100.0,0.055313590914011,0.1092703640460968,0.12122572958469391,0.053231287747621536,0.0,0.0,0.0,0.0,15091.0,27493.0,32154.0,17610.0,0.3391483724117279,-0.18324301277127159,-0.5504997806479981,-0.18567881460708757,-0.006891793105751276,0.09261617064476013,0.0738549679517746
191,5,1.291102307732217e-05,-7.093156455084682e-05,0.000175086097442545,0.01915641687810421,-0.040833622217178345,0.022948458790779114,-0.01755599118769169,0.47134509682655334,0.0024341014213860035,-0.006280476693063974,1.0176970958709717,0.0007356946007348597,0.0,0.0,0.0,0.039142828434705734,0.016710035502910614,-0.0,0.0,0.0,0.0,0.00034753468935377896,-0.004999999888241291,0.00012204531958559528,16624.0,28671.0,31035.0,16100.0,0.055313590914011,0.1092703640460968,0.12122572958469391,0.053231287747621536,0.0,0.0,0.0,0.0,15091.0,27493.0,32154.0,17610.0,0.36910492181777954,-0.17398181705372084,-0.5368134100192594,-0.17474805985576786,-0.0713280737400055,0.1519659161567688,-0.08477851748466492
196,5,-3.700480374391191e-05,-5.8006131439469755e-05,0.00015993013221304864,-0.0012412904761731625,-0.014059646986424923,0.009006371721625328,-0.01755599118769169,0.47134509682655334,0.0024341014213860035,-0.006280476693063974,1.0176970958709717,0.0007356946007348597,0.0,0.0,0.0,0.014470010995864868,-0.0013852794654667377,-0.0,0.0,0.0,0.0,0.00034753468935377896,-0.004999999888241291,0.00012204531958559528,16624.0,28671.0,31035.0,16100.0,0.055313590914011,0.1092703640460968,0.12122572958469391,0.053231287747621536,0.0,0.0,0.0,0.0,15091.0,27493.0,32154.0,17610.0,0.3390694260597229,-0.1745521522755381,-0.5219800970883425,-0.17479953434471054,0.005435840226709843,0.05162150412797928,-0.04263871908187866
201,5,-2.4195491278078407e-05,0.00016521546058356762,0.0003788533213082701,0.0014209164073690772,-0.03546891734004021,-0.027947334572672844,-0.01822369545698166,0.4562302231788635,0.0025749076157808304,-0.053739309310913086,1.4730356931686401,0.04577937722206116,0.0,0.0,0.0,0.03575611114501953,0.0011260448954999447,-0.0,0.0,0.0,0.0,0.0014592624502256513,-0.004999999888241291,0.00015835899102967232,16551.0,26106.0,32092.0,17918.0,0.05502069741487503,0.0968049094080925,0.12671852111816406,0.06054810434579849,0.0,0.0,0.0,0.0,15405.0,25738.0,31870.0,19712.0,0.35394206643104553,-0.16996860895813032,-0.5113708372603978,-0.17461464569596202,-0.004609915427863598,0.13312271237373352,0.07210788875818253
206,5,-1.5285118934116326e-05,3.732302866410464e-05,0.00036317374906502664,0.00167372717987746,0.007264264859259129,-0.006189058534801006,-0.01822369545698166,0.4562302231788635,0.0025749076157808304,-0.053739309310913086,1.4730356931686401,0.04577937722206116,0.0,0.0,0.0,-0.0077931699343025684,0.0014277773443609476,-0.0,0.0,0.0,0.0,0.0014592624502256513,-0.004999999888241291,0.00015835899102967232,16551.0,26106.0,32092.0,17918.0,0.05502069741487503,0.0968049094080925,0.12671852111816406,0.06054810434579849,0.0,0.0,0.0,0.0,15405.0,25738.0,31870.0,19712.0,0.3390442430973053,-0.16929210529393848,-0.501731276822696,-0.17399371632139704,-0.005602601915597916,-0.02780085615813732,0.007751407101750374
211,5,8.225682540796697e-05,3.155764352413826e-05,0.00043106183875352144,0.014157989993691444,0.002986433682963252,-0.01136105041950941,-0.01828378438949585,0.443691223859787,0.0024338774383068085,0.012316874228417873,1.8065109252929688,0.03334968537092209,0.0,0.0,0.0,-0.003302633995190263,0.013493645936250687,-0.0,0.0,0.0,0.0,0.001524961437098682,0.0034817291889339685,0.00019471111590974033,21400.0,20773.0,27251.0,24433.0,0.07530923932790756,0.07257828861474991,0.10230246931314468,0.08895837515592575,0.0,0.0,0.0,0.0,24089.0,17865.0,25310.0,26442.0,0.3390663266181946,-0.16803639297940628,-0.4937486634796271,-0.1727198717369968,-0.05295228213071823,-0.011782504618167877,0.02562715671956539
216,5,-9.950261301128194e-05,0.00016369065269827843,0.0006042419699952006,-0.021198924630880356,-0.017602691426873207,-0.027653535827994347,-0.01828378438949585,0.443691223859787,0.0024338774383068085,0.012316874228417873,1.8065109252929688,0.03334968537092209,0.0,0.0,0.0,0.018437061458826065,-0.020426949486136436,-0.0,0.0,0.0,0.0,0.001524961437098682,0.0034817291889339685,0.00019471111590974033,21400.0,20773.0,27251.0,24433.0,0.07530923932790756,0.07257828861474991,0.10230246931314468,0.08895837515592575,0.0,0.0,0.0,0.0,24089.0,17865.0,25310.0,26442.0,0.34107479453086853,-0.16385574969460345,-0.47845348945777044,-0.17742919346409697,0.08061862736940384,0.06616095453500748,0.07868868112564087
221,5,-0.00021495688997674733,0.00015569505922030658,0.0007294969400390983,-0.022523274645209312,-0.00416142400354147,-0.02583175152540207,-0.01890917494893074,0.42004185914993286,0.002678691176697612,-0.06029648706316948,2.1176364421844482,0.06452766060829163,0.0,0.0,0.0,0.004411849193274975,-0.02197365276515484,-0.0,0.0,0.0,0.0,0.0005332688451744616,0.004999999888241291,0.00016698698163963854,27969.0,14035.0,21958.0,28871.0,0.10580447316169739,0.045238420367240906,0.07776249945163727,0.11026403307914734,0.0,0.0,0.0,0.0,29349.0,11920.0,20443.0,30379.0,0.3391187787055969,-0.1583455032356699,-0.464756084521575,-0.17669116096627982,0.0862388163805008,0.015742387622594833,0.07696958631277084
226,5,-0.00029042543610557914,0.0002719899348448962,0.0009685499826446176,-0.01732257939875126,-0.01752970926463604,-0.041216958314180374,-0.01890917494893074,0.42004185914993286,0.002678691176697612,-0.06029648706316948,2.1176364421844482,0.06452766060829163,0.0,0.0,0.0,0.01865086890757084,-0.017123786732554436,-0.0,0.0,0.0,0.0,0.0005332688451744616,0.004999999888241291,0.00016698698163963854,27969.0,14035.0,21958.0,28871.0,0.10580447316169739,0.045238420367240906,0.07776249945163727,0.11026403307914734,0.0,0.0,0.0,0.0,29349.0,11920.0,20443.0,30379.0,0.3391422927379608,-0.14503359043128794,-0.44793068073461934,-0.17402166147855289,0.06720075011253357,0.06654927879571915,0.12950700521469116
231,5,-0.00024336173373740166,-6.710616435157135e-05,0.0008378531783819199,0.0013921441277489066,0.042214538902044296,0.005932469852268696,-0.019209906458854675,0.40150052309036255,0.002778677036985755,0.009423692710697651,2.5239522457122803,0.06207412853837013,0.0,0.0,0.0,-0.04144925996661186,0.0007514660828746855,-0.0,0.0,0.0,0.0,0.0017972795758396387,0.004999999888241291,0.00020365204545669258,29387.0,11454.0,21062.0,30537.0,0.11284509301185608,0.035730063915252686,0.07383415102958679,0.11867034435272217,0.0,0.0,0.0,0.0,30229.0,13956.0,18659.0,29498.0,0.3654015362262726,-0.1568322801815107,-0.44581226781525646,-0.16227556347266947,-0.0031753587536513805,-0.15929904580116272,-0.010400546714663506
237,5,-0.00028420871240086854,-3.729691161424853e-05,0.0010973532916978002,-0.005300935357809067,0.008491067215800285,-0.034550271928310394,-0.019209906458854675,0.40150052309036255,0.002778677036985755,0.009423692710697651,2.5239522457122803,0.06207412853837013,0.0,0.0,0.0,-0.009161931462585926,-0.005655867047607899,-0.0,0.0,0.0,0.0,0.0017972795758396387,0.004999999888241291,0.00020365204545669258,29387.0,11454.0,21062.0,30537.0,0.11284509301185608,0.035730063915252686,0.07383415102958679,0.11867034435272217,0.0,0.0,0.0,0.0,30229.0,13956.0,18659.0,29498.0,0.3390532433986664,-0.15056347551501104,-0.43163624330810585,-0.16001732496178805,0.022194284945726395,-0.03268444165587425,0.11759091168642044
242,5,-0.0002997944538947195,-6.678242698399117e-06,0.001080640242435038,-0.0037722832057625055,-0.0017392936861142516,-0.008025260642170906,-0.019997796043753624,0.37024039030075073,0.0029726973734796047,-0.07220298051834106,2.7603914737701416,0.08675538748502731,0.0,0.0,0.0,0.0016370576340705156,-0.0042327651754021645,-0.0,0.0,0.0,0.0,0.0016727963229641318,0.004999999888241291,0.00019302724103908986,29387.0,11454.0,21062.0,30537.0,0.11284509301185608,0.035730063915252686,0.07383415102958679,0.11867034435272217,0.0,0.0,0.0,0.0,29234.0,11434.0,21078.0,30688.0,0.33903709053993225,-0.14375910813303838,-0.4142704830013846,-0.1557734299982692,0.016609469428658485,0.005839887540787458,0.04174141213297844
247,5,-0.00041051526204682887,6.4964683588186745e-06,0.0012760297395288944,-0.016632596030831337,-0.0023662475869059563,-0.02976210042834282,-0.019997796043753624,0.37024039030075073,0.0029726973734796047,-0.07220298051834106,2.7603914737701416,0.08675538748502731,0.0,0.0,0.0,0.0023157293908298016,-0.0166938416659832,-0.0,0.0,0.0,0.0,0.0016727963229641318,0.004999999888241291,0.00019302724103908986,29387.0,11454.0,21062.0,30537.0,0.11284509301185608,0.035730063915252686,0.07383415102958679,0.11867034435272217,0.0,0.0,0.0,0.0,29234.0,11434.0,21078.0,30688.0,0.3390817642211914,-0.1384870409513441,-0.3964175612808484,-0.15463865245271607,0.06551272422075272,0.008262001909315586,0.11395471543073654
252,5,-0.00042267973185516894,3.645516699180007e-05,0.0013954570749774575,-0.006692806258797646,-0.004904092289507389,-0.025648459792137146,-0.02107897959649563,0.31393858790397644,0.0027705926913768053,-0.06738769263029099,2.850457191467285,0.044632408767938614,0.0,0.0,0.0,0.00503039313480258,-0.0072368448600173,-0.0,0.0,0.0,0.0,0.0006874435930512846,0.004999999888241291,0.00013843635679222643,30150.0,13753.0,18844.0,29578.0,0.11669700592756271,0.04417211562395096,0.06437891721725464,0.11380524188280106,0.0,0.0,0.0,0.0,28812.0,11998.0,20385.0,30910.0,0.33904677629470825,-0.1427733939289335,-0.3850671470266827,-0.15691609479871996,0.028398508206009865,0.017945433035492897,0.10824012756347656
257,5,-0.00046900351298972964,5.4755015298724174e-05,0.001423258800059557,-0.008493171073496342,-0.004033206030726433,-0.011586789041757584,-0.02107897959649563,0.31393858790397644,0.0027705926913768053,-0.06738769263029099,2.850457191467285,0.044632408767938614,0.0,0.0,0.0,0.004145358223468065,-0.009045845828950405,-0.0,0.0,0.0,0.0,0.0006874435930512846,0.004999999888241291,0.00013843635679222643,30150.0,13753.0,18844.0,29578.0,0.11669700592756271,0.04417211562395096,0.06437891721725464,0.11380524188280106,0.0,0.0,0.0,0.0,28812.0,11998.0,20385.0,30910.0,0.33905038237571716,-0.13716235337153063,-0.37245325412683417,-0.15171790288419004,0.03549686819314957,0.014788297936320305,0.0715334564447403
262,5,-0.0004615733923856169,0.00014077940431889147,0.001736794481985271,-0.001507733017206192,-0.013253375887870789,-0.0473710261285305,-0.021615127101540565,0.2906961441040039,0.0024087100755423307,-0.0805024802684784,2.9699459075927734,0.024115676060318947,0.0,0.0,0.0,0.013973419554531574,-0.0023866896517574787,-0.0,0.0,0.0,0.0,0.0006991387344896793,0.004999999888241291,8.596685802331194e-05,29024.0,13555.0,19025.0,30697.0,0.11102672666311264,0.043430667370557785,0.06513463705778122,0.11948979645967484,0.0,0.0,0.0,0.0,30111.0,13737.0,18859.0,29618.0,0.339067667722702,-0.13275172013861627,-0.35981221788995776,-0.1491312655667349,0.009366080164909363,0.04985003545880318,0.18896561861038208
267,5,-0.0004860625776927918,9.527798101771623e-05,0.0018767131259664893,-0.003880807664245367,0.0023941858671605587,-0.033799909055233,-0.021615127101540565,0.2906961441040039,0.0024087100755423307,-0.0805024802684784,2.9699459075927734,0.024115676060318947,0.0,0.0,0.0,-0.002536384155973792,-0.004714814480394125,-0.0,0.0,0.0,0.0,0.0006991387344896793,0.004999999888241291,8.596685802331194e-05,29024.0,13555.0,19025.0,30697.0,0.11102672666311264,0.043430667370557785,0.06513463705778122,0.11948979645967484,0.0,0.0,0.0,0.0,30111.0,13737.0,18859.0,29618.0,0.3390384614467621,-0.12159679460477815,-0.3407471337572951,-0.14793163797919726,0.018501797690987587,-0.009047947824001312,0.1567547470331192
272,5,-0.0005195577396079898,0.00010980133811244741,0.0021528073120862246,-0.005853565409779549,-0.0013150142040103674,-0.048793159425258636,-0.022012341767549515,0.26754143834114075,0.0019756366964429617,-0.07304747402667999,2.838285446166992,0.007841143757104874,0.0,0.0,0.0,0.0013910145498812199,-0.006674157455563545,-0.0,0.0,0.0,0.0,0.0013073737500235438,0.004999999888241291,7.803893822710961e-05,28908.0,13490.0,19080.0,30807.0,0.11044572293758392,0.043185699731111526,0.06536391377449036,0.12005510926246643,0.0,0.0,0.0,0.0,29244.0,13477.0,19095.0,30482.0,0.33904147148132324,-0.11862311965054936,-0.3252000835066629,-0.14650279542747205,0.026189783588051796,0.004962241277098656,0.21270661056041718
277,5,-0.0008505466394126415,-0.0003186917456332594,0.0025337636470794678,-0.04809451103210449,0.05959452688694,-0.0679718479514122,-0.022012341767549515,0.26754143834114075,0.0019756366964429617,-0.07304747402667999,2.838285446166992,0.007841143757104874,0.0,0.0,0.0,-0.050932399928569794,-0.03828742355108261,-0.0,0.0,0.0,0.0,0.0013073737500235438,0.004999999888241291,7.803893822710961e-05,28908.0,13490.0,19080.0,30807.0,0.11044572293758392,0.043185699731111526,0.06536391377449036,0.12005510926246643,0.0,0.0,0.0,0.0,29244.0,13477.0,19095.0,30482.0,0.42155805230140686,-0.14710625058152102,-0.3058439888738267,-0.15452988195355216,0.18652309477329254,-0.22578364610671997,0.28345707058906555
282,5,-0.0007019393378868699,8.396746852668002e-05,0.002768118865787983,0.00637666555121541,-0.03849393129348755,-0.05320128798484802,-0.022888492792844772,0.23427245020866394,0.0011270639952272177,-0.08331965655088425,2.8015224933624268,-0.011466450989246368,0.0,0.0,0.0,0.03815707936882973,0.004429036285728216,-0.0,0.0,0.0,0.0,0.0013656610390171409,0.004999999888241291,1.1902899132110178e-05,28587.0,14630.0,18038.0,31116.0,0.10885116457939148,0.04750433936715126,0.06103930249810219,0.12164369225502014,0.0,0.0,0.0,0.0,28551.0,13929.0,18684.0,31152.0,0.35929879546165466,-0.12672483518215613,-0.2912996168917316,-0.156114893161867,-0.018403854221105576,0.14420583844184875,0.25053882598876953
287,5,-0.00028682511765509844,0.0004733167006634176,0.0024897598195821047,0.06002898886799812,-0.06605707108974457,0.0230098869651556,-0.022888492792844772,0.23427245020866394,0.0011270639952272177,-0.08331965655088425,2.8015224933624268,-0.011466450989246368,0.0,0.0,0.0,0.054217323660850525,0.043817389756441116,-0.0,0.0,0.0,0.0,0.0013656610390171409,0.004999999888241291,1.1902899132110178e-05,28587.0,14630.0,18038.0,31116.0,0.10885116457939148,0.04750433936715126,0.06103930249810219,0.12164369225502014,0.0,0.0,0.0,0.0,28551.0,13929.0,18684.0,31152.0,0.4380456209182739,-0.10087568266977028,-0.29182024084394703,-0.14810398097228036,-0.22175554931163788,0.2497262805700302,0.026221001520752907
292,5,-0.00026246189372614026,0.000501261034514755,0.0026851599104702473,0.021419549360871315,-0.02372932806611061,-0.020453043282032013,-0.023271502926945686,0.2136465460062027,0.000419163319747895,-0.05474482476711273,2.4655895233154297,-0.049145959317684174,0.0,0.0,0.0,0.024933746084570885,0.019146641716361046,-0.0,0.0,0.0,0.0,0.0010035678278654814,0.004999999888241291,-3.5823079088004306e-05,28293.0,15296.0,17407.0,31397.0,0.10739791393280029,0.05007890239357948,0.058464739471673965,0.12309694290161133,0.0,0.0,0.0,0.0,34249.0,23172.0,19383.0,33389.0,0.34782493114471436,-0.09757017706266269,-0.28103126111132776,-0.1480200928732785,-0.07705055922269821,0.09123989194631577,0.16734571754932404
297,5,-0.00026568069006316364,0.0004986018757335842,0.0027763741090893745,0.0059752329252660275,-0.006746518891304731,-0.01890590228140354,-0.023271502926945686,0.2136465460062027,0.000419163319747895,-0.05474482476711273,2.4655895233154297,-0.049145959317684174,0.0,0.0,0.0,0.007745388895273209,0.004859444685280323,-0.0,0.0,0.0,0.0,0.0010035678278654814,0.004999999888241291,-3.5823079088004306e-05,28293.0,15296.0,17407.0,31397.0,0.10739791393280029,0.05007890239357948,0.058464739471673965,0.12309694290161133,0.0,0.0,0.0,0.0,34249.0,23172.0,19383.0,33389.0,0.33904775977134705,-0.09527701996631102,-0.2656389199503447,-0.14746607901988953,-0.019068611785769463,0.027631444856524467,0.172273650765419
302,5,-0.000465794641058892,0.0007257098914124072,0.0028611544985324144,-0.026223383843898773,-0.03381907194852829,-0.01754101924598217,-0.023271502926945686,0.2136465460062027,0.000419163319747895,-0.05474482476711273,2.4655895233154297,-0.049145959317684174,0.0,0.0,0.0,0.033682819455862045,-0.02413715422153473,-0.0,0.0,0.0,0.0,0.0010035678278654814,0.004999999888241291,-3.5823079088004306e-05,28293.0,15296.0,17407.0,31397.0,0.10739791393280029,0.05007890239357948,0.058464739471673965,0.12309694290161133,0.0,0.0,0.0,0.0,34249.0,23172.0,19383.0,33389.0,0.3683488965034485,-0.08586745057475016,-0.25200711396748354,-0.1464782406690429,0.10283621400594711,0.13051317632198334,0.17959295213222504
308,5,-0.00034701108234003186,0.0005178356659598649,0.003040502080693841,0.008762683719396591,0.018956664949655533,-0.030370982363820076,-0.024010660126805305,0.18519432842731476,-0.000725309771951288,-0.07157032936811447,2.2925145626068115,-0.01778559945523739,0.0,0.0,0.0,-0.019174717366695404,0.007372971158474684,-0.0,0.0,0.0,0.0,-0.0008901241235435009,0.004999999888241291,-7.844888023100793e-05,34312.0,23142.0,19415.0,33326.0,0.13854262232780457,0.08305740356445312,0.06677475571632385,0.13324074447155,0.0,0.0,0.0,0.0,30481.0,17602.0,26523.0,38446.0,0.33910515904426575,-0.09618749739197974,-0.24841427056986162,-0.14704799675857483,-0.028932062909007072,-0.0684102326631546,0.22929395735263824
313,5,-0.00031001269235275686,0.0006557420711033046,0.003194954479113221,0.007808581460267305,-0.013619890436530113,-0.030734634026885033,-0.024010660126805305,0.18519432842731476,-0.000725309771951288,-0.07157032936811447,2.2925145626068115,-0.01778559945523739,0.0,0.0,0.0,0.015311428345739841,0.006493591237813234,-0.0,0.0,0.0,0.0,-0.0008901241235435009,0.004999999888241291,-7.844888023100793e-05,34312.0,23142.0,19415.0,33326.0,0.13854262232780457,0.08305740356445312,0.06677475571632385,0.13324074447155,0.0,0.0,0.0,0.0,30481.0,17602.0,26523.0,38446.0,0.33908048272132874,-0.0913965943847809,-0.23999803042687906,-0.14776266638536212,-0.02548074536025524,0.054625704884529114,0.24395927786827087
318,5,-0.0003095257270615548,0.0006799815455451608,0.0033050577621906996,0.0024107464123517275,-0.0074794963002204895,-0.02463483065366745,-0.024403247982263565,0.16851893067359924,-0.0010652753990143538,-0.025794873014092445,1.9467891454696655,0.01331457868218422,0.0,0.0,0.0,0.008936353027820587,0.0013181070098653436,-0.0,0.0,0.0,0.0,0.0033405935391783714,0.004999999888241291,1.2880726899311412e-05,30785.0,17443.0,26658.0,38175.0,0.1199403703212738,0.05860990658402443,0.09944301843643188,0.16006377339363098,0.0,0.0,0.0,0.0,28073.0,14528.0,21578.0,34366.0,0.3390474319458008,-0.09027658631857871,-0.23052244098732055,-0.1474778049992462,-0.005171790719032288,0.03188015893101692,0.2392980009317398
323,5,-0.0003624055825639516,0.0006520073511637747,0.003264457918703556,-0.006679953541606665,0.0016725357854738832,-0.0017064609564840794,-0.024403247982263565,0.16851893067359924,-0.0010652753990143538,-0.025794873014092445,1.9467891454696655,0.01331457868218422,0.0,0.0,0.0,-0.000684803060721606,-0.007461137603968382,-0.0,0.0,0.0,0.0,0.0033405935391783714,0.004999999888241291,1.2880726899311412e-05,30785.0,17443.0,26658.0,38175.0,0.1199403703212738,0.05860990658402443,0.09944301843643188,0.16006377339363098,0.0,0.0,0.0,0.0,28073.0,14528.0,21578.0,34366.0,0.33904311060905457,-0.08118710508176359,-0.22066408978693897,-0.14789084425174276,0.029278047382831573,-0.0024429475888609886,0.1821305751800537
328,5,-0.0004548279393929988,0.0002605034096632153,0.0034974049776792526,-0.006936629768460989,0.06347694993019104,-0.011992055922746658,-0.02471928484737873,0.14759941399097443,-0.0016834094421938062,-0.04200011491775513,1.5798379182815552,-0.028187992051243782,0.0,0.0,0.0,-0.05629308149218559,-0.006685082335025072,-0.0,0.0,0.0,0.0,0.0025380849838256836,0.004999999888241291,-9.264903928851709e-05,27446.0,15179.0,21004.0,34930.0,0.10325030982494354,0.049623314291238785,0.0735786110162735,0.1419028341770172,0.0,0.0,0.0,0.0,26895.0,14678.0,17997.0,32704.0,0.39909183979034424,-0.0991962091293311,-0.20926746015738665,-0.14498828105049286,0.03083004243671894,-0.23621763288974762,0.22864750027656555
333,5,-0.0002838639775291085,0.0005629190127365291,0.003708736738190055,0.021853964775800705,-0.023295093327760696,-0.03318405523896217,-0.02471928484737873,0.14759941399097443,-0.0016834094421938062,-0.04200011491775513,1.5798379182815552,-0.028187992051243782,0.0,0.0,0.0,0.024827035143971443,0.019372152164578438,-0.0,0.0,0.0,0.0,0.0025380849838256836,0.004999999888241291,-9.264903928851709e-05,27446.0,15179.0,21004.0,34930.0,0.10325030982494354,0.049623314291238785,0.0735786110162735,0.1419028341770172,0.0,0.0,0.0,0.0,26895.0,14678.0,17997.0,32704.0,0.3479773998260498,-0.08341856098535153,-0.20645473083145693,-0.14732158110002697,-0.0779922679066658,0.09088939428329468,0.30607113242149353
338,5,-0.00037055090069770813,0.0005555361276492476,0.003734779078513384,-0.0055799768306314945,-0.005954929161816835,-0.013601141981780529,-0.024886325001716614,0.13676215708255768,-0.0021898900158703327,-0.04663349688053131,1.0523320436477661,-0.03673865273594856,0.0,0.0,0.0,0.0072675240226089954,-0.006476463284343481,-0.0,0.0,0.0,0.0,0.0017064254498109221,0.004999999888241291,-9.364906145492569e-05,26885.0,14671.0,18004.0,32712.0,0.1005353331565857,0.04766353964805603,0.06090112030506134,0.12998054921627045,0.0,0.0,0.0,0.0,26933.0,14747.0,17933.0,32669.0,0.33904966711997986,-0.0832738742328621,-0.20219078525543105,-0.14869277484557844,0.02541399747133255,0.02592616155743599,0.2590259611606598
343,5,-0.00037055090069770813,0.0005555361276492476,0.003734779078513384,-0.0055799768306314945,-0.005954929161816835,-0.013601141981780529,-0.024886325001716614,0.13676215708255768,-0.0021898900158703327,-0.04663349688053131,1.0523320436477661,-0.03673865273594856,0.0,0.0,0.0,0.00730162626132369,-0.0064971428364515305,-0.0,0.0,0.0,0.0,0.0017064254498109221,0.004999999888241291,-9.364906145492569e-05,26885.0,14671.0,18004.0,32712.0,0.1005353331565857,0.04766353964805603,0.06090112030506134,0.12998054921627045,0.0,0.0,0.0,0.0,26933.0,14747.0,17933.0,32669.0,0.3390497863292694,-0.0832738742328621,-0.20219078525543105,-0.14869277484557844,0.025495704263448715,0.026048658415675163,0.2727512717247009
348,5,-0.0004210009938105941,0.0007441759807989001,0.0038882240187376738,-0.012956914491951466,-0.023041293025016785,-0.015294683165848255,-0.02515306882560253,0.1260078400373459,-0.002704826882109046,-0.002661914099007845,0.7197253704071045,0.0026182131841778755,0.0,0.0,0.0,0.02538812905550003,-0.013534527271986008,-0.0,0.0,0.0,0.0,0.0010047326795756817,0.00293373572640121,-0.0001005384256131947,25345.0,18789.0,20244.0,29096.0,0.09320728480815887,0.06415003538131714,0.07029832899570465,0.11138749122619629,0.0,0.0,0.0,0.0,21477.0,22824.0,24161.0,25529.0,0.34176504611968994,-0.08091408249668461,-0.20246430166011412,-0.14813671734685527,0.053519107401371,0.09128393977880478,0.29395994544029236
353,5,-0.00032260952866636217,0.0005002973484806716,0.003692116355523467,0.009887728840112686,0.02723061293363571,0.022866668179631233,-0.02515306882560253,0.1260078400373459,-0.002704826882109046,-0.002661914099007845,0.7197253704071045,0.0026182131841778755,0.0,0.0,0.0,-0.027455879375338554,0.008270898833870888,-0.0,0.0,0.0,0.0,0.0010047326795756817,0.00293373572640121,-0.0001005384256131947,25345.0,18789.0,20244.0,29096.0,0.09320728480815887,0.06415003538131714,0.07029832899570465,0.11138749122619629,0.0,0.0,0.0,0.0,21477.0,22824.0,24161.0,25529.0,0.34082499146461487,-0.0879929205271095,-0.21091988201423592,-0.1455288697951118,-0.03261382505297661,-0.09844345599412918,0.18819403648376465
358,5,-0.0003558970638550818,0.0005850730231031775,0.004014649894088507,-0.001693935482762754,-0.0036994086112827063,-0.038294706493616104,-0.025187138468027115,0.12267856299877167,-0.0026223021559417248,-0.008133389055728912,0.1746419221162796,0.03289785981178284,0.0,0.0,0.0,0.005074428394436836,-0.002818439621478319,-0.0,0.0,0.0,0.0,0.0012547384249046445,-0.004999999888241291,7.969702892296482e-06,17685.0,24524.0,29357.0,23859.0,0.05959603562951088,0.08937887102365494,0.1126941666007042,0.08631866425275803,0.0,0.0,0.0,0.0,16823.0,25257.0,30289.0,22837.0,0.33903932571411133,-0.09056532101373958,-0.20734969524242786,-0.14971635759890103,0.011060119606554508,0.018102949485182762,0.38788554072380066
363,5,-0.0002784368407446891,0.0006565225776284933,0.0038405072409659624,0.010336250066757202,-0.011112754233181477,0.012891573831439018,-0.025187138468027115,0.12267856299877167,-0.0026223021559417248,-0.008133389055728912,0.1746419221162796,0.03289785981178284,0.0,0.0,0.0,0.013012814335525036,0.008766666986048222,-0.0,0.0,0.0,0.0,0.0012547384249046445,-0.004999999888241291,7.969702892296482e-06,17685.0,24524.0,29357.0,23859.0,0.05959603562951088,0.08937887102365494,0.1126941666007042,0.08631866425275803,0.0,0.0,0.0,0.0,16823.0,25257.0,30289.0,22837.0,0.33907532691955566,-0.08647505496531246,-0.21303667492395245,-0.1491422666386927,-0.03440086543560028,0.046425189822912216,0.2464596927165985
369,5,-0.0003070410166401416,0.0006216304609552026,0.003970624413341284,-0.0009037076379172504,0.0015510687371715903,-0.014348942786455154,-0.025074928998947144,0.12344203889369965,-0.0020494561176747084,0.026506373658776283,-0.31623223423957825,0.05501647666096687,0.0,0.0,0.0,-0.0003120896581094712,-0.002030298812314868,-0.0,0.0,0.0,0.0,-0.00013236682571005076,-0.004999999888241291,-1.1585129868763033e-05,16496.0,30188.0,29712.0,16449.0,0.05480283126235008,0.11689122766256332,0.11447849124670029,0.054615672677755356,0.0,0.0,0.0,0.0,14316.0,28338.0,31355.0,18330.0,0.3390343189239502,-0.09355856595803114,-0.21375379820392712,-0.14986644113321201,0.00796736404299736,-0.0011123789008706808,0.3441573679447174
374,5,-0.00027333167963661253,0.000663390033878386,0.003952215425670147,0.004448194522410631,-0.005381022579967976,-0.0017273774137720466,-0.025074928998947144,0.12344203889369965,-0.0020494561176747084,0.026506373658776283,-0.31623223423957825,0.05501647666096687,0.0,0.0,0.0,0.007078058086335659,0.003114176681265235,-0.0,0.0,0.0,0.0,-0.00013236682571005076,-0.004999999888241291,-1.1585129868763033e-05,16496.0,30188.0,29712.0,16449.0,0.05480283126235008,0.11689122766256332,0.11447849124670029,0.054615672677755356,0.0,0.0,0.0,0.0,14316.0,28338.0,31355.0,18330.0,0.3390437364578247,-0.09524644522915122,-0.21998816256826847,-0.14903075815757016,-0.012219659052789211,0.025250831618905067,0.32070645689964294
379,5,-0.0002806025149766356,0.0006726303836330771,0.0038357407320290804,0.0003165410307701677,-0.0029079539235681295,0.01578821986913681,-0.025074928998947144,0.12344203889369965,-0.0020494561176747084,0.026506373658776283,-0.31623223423957825,0.05501647666096687,0.0,0.0,0.0,0.004534795414656401,-0.0008602350717410445,-0.0,0.0,0.0,0.0,-0.00013236682571005076,-0.004999999888241291,-1.1585129868763033e-05,16496.0,30188.0,29712.0,16449.0,0.05480283126235008,0.11689122766256332,0.11447849124670029,0.054615672677755356,0.0,0.0,0.0,0.0,14316.0,28338.0,31355.0,18330.0,0.3390372097492218,-0.09604202835305822,-0.22713268319973,-0.15015807298358685,0.0033755633048713207,0.016176950186491013,0.2812246084213257
384,5,-0.00032099796226248145,0.0007189177558757365,0.0038079663645476103,-0.0055604008957743645,-0.007352622225880623,0.008624885231256485,-0.024757778272032738,0.13847655057907104,-0.0010003556963056326,0.04675750061869621,-1.0380011796951294,0.029287483543157578,0.0,0.0,0.0,0.009320002049207687,-0.00654901098459959,-0.0,0.0,0.0,0.0,0.0013912562280893326,-0.004999999888241291,3.591456334106624e-05,14519.0,27906.0,31767.0,18145.0,0.04708012938499451,0.10549325495958328,0.1250200867652893,0.061481986194849014,0.0,0.0,0.0,0.0,16810.0,30082.0,29819.0,16134.0,0.339055597782135,-0.10133308186772279,-0.23200095686864647,-0.15145879347591554,0.02569868601858616,0.033248499035835266,0.3164888620376587
389,5,-0.00034546779352240264,0.0007253669900819659,0.0036993203684687614,-0.005093895364552736,-0.0031086765229701996,0.017797909677028656,-0.024757778272032738,0.13847655057907104,-0.0010003556963056326,0.04675750061869621,-1.0380011796951294,0.029287483543157578,0.0,0.0,0.0,0.004914566408842802,-0.006156070623546839,-0.0,0.0,0.0,0.0,0.0013912562280893326,-0.004999999888241291,3.591456334106624e-05,14519.0,27906.0,31767.0,18145.0,0.04708012938499451,0.10549325495958328,0.1250200867652893,0.061481986194849014,0.0,0.0,0.0,0.0,16810.0,30082.0,29819.0,16134.0,0.33904412388801575,-0.10355301194829969,-0.2358911239319476,-0.15265305075729751,0.024156726896762848,0.017532046884298325,0.3017043173313141
394,5,-0.00048621889436617494,0.0008147128974087536,0.0035447634290903807,-0.021233325824141502,-0.01344102993607521,0.026977328583598137,-0.024620898067951202,0.14719818532466888,-0.0005309038679115474,0.010747893713414669,-1.2450956106185913,0.024434875696897507,0.0,0.0,0.0,0.015896162018179893,-0.021714722737669945,-0.0,0.0,0.0,0.0,0.0011303263017907739,-0.004999999888241291,2.8752960133715533e-05,14891.0,28197.0,31488.0,17792.0,0.048509787768125534,0.10692503303289413,0.12356918305158615,0.06003321334719658,0.0,0.0,0.0,0.0,14309.0,28001.0,31678.0,18339.0,0.34037941694259644,-0.10047622585651574,-0.23075463960318265,-0.15039580442190198,0.08552928268909454,0.05692781135439873,0.2852500081062317
399,5,-0.0003732195764314383,0.0007184886489994824,0.003350465092808008,0.009449908509850502,0.009439083747565746,0.03529495373368263,-0.024620898067951202,0.14719818532466888,-0.0005309038679115474,0.010747893713414669,-1.2450956106185913,0.024434875696897507,0.0,0.0,0.0,-0.008199438452720642,0.007661611773073673,-0.0,0.0,0.0,0.0,0.0011303263017907739,-0.004999999888241291,2.8752960133715533e-05,14891.0,28197.0,31488.0,17792.0,0.048509787768125534,0.10692503303289413,0.12356918305158615,0.06003321334719658,0.0,0.0,0.0,0.0,14309.0,28001.0,31678.0,18339.0,0.3390549421310425,-0.0996633552786847,-0.2425909625461703,-0.15340675936757192,-0.03006475232541561,-0.029251033440232277,0.2683471441268921
404,5,-0.000363276427378878,0.0007125786505639553,0.00353972427546978,0.004227013792842627,0.00365912402048707,-0.01590779982507229,-0.024620898067951202,0.14719818532466888,-0.0005309038679115474,0.010747893713414669,-1.2450956106185913,0.024434875696897507,0.0,0.0,0.0,-0.002087602624669671,0.0026630160864442587,-0.0,0.0,0.0,0.0,0.0011303263017907739,-0.004999999888241291,2.8752960133715533e-05,14891.0,28197.0,31488.0,17792.0,0.048509787768125534,0.10692503303289413,0.12356918305158615,0.06003321334719658,0.0,0.0,0.0,0.0,14573.0,28581.0,31121.0,18091.0,0.3390355408191681,-0.1022296307081531,-0.2559207407812949,-0.15204933412041727,-0.010449700057506561,-0.007447083480656147,0.4373869001865387
409,5,-0.000351647031493485,0.000693278678227216,0.003515946213155985,0.002896216930821538,0.0037997388280928135,-0.001443390385247767,-0.024620898067951202,0.14719818532466888,-0.0005309038679115474,0.010747893713414669,-1.2450956106185913,0.024434875696897507,0.0,0.0,0.0,-0.0022208846639841795,0.0013870099792256951,-0.0,0.0,0.0,0.0,0.0011303263017907739,-0.004999999888241291,2.8752960133715533e-05,14891.0,28197.0,31488.0,17792.0,0.048509787768125534,0.10692503303289413,0.12356918305158615,0.06003321334719658,0.0,0.0,0.0,0.0,14573.0,28581.0,31121.0,18091.0,0.339034765958786,-0.10327044135118278,-0.2621186560026405,-0.15222144280811978,-0.0054421029053628445,-0.00792148057371378,0.40681833028793335
414,5,-0.00034525588853284717,0.0006665312102995813,0.0035008005797863007,0.0017636279808357358,0.004884566180408001,0.0016873701242730021,-0.024386264383792877,0.16240191459655762,-0.0002050529874395579,0.030070550739765167,-1.3490676879882812,-0.02476205863058567,0.0,0.0,0.0,-0.0033588542137295008,0.00029345310758799314,-0.0,0.0,0.0,0.0,0.001150887692347169,-0.004999999888241291,-4.1589584725443274e-05,15051.0,29386.0,30341.0,17643.0,0.04912889748811722,0.11283548176288605,0.11766758561134338,0.05942295491695404,0.0,0.0,0.0,0.0,14028.0,29023.0,30695.0,18593.0,0.3390355408191681,-0.1043951951730007,-0.26957998259039956,-0.1522477560550821,-0.0011509921168908477,-0.011980987153947353,0.410381019115448
419,5,-0.0003751773328986019,0.0006574008148163557,0.0034636796917766333,-0.0036599149461835623,0.0027436227537691593,0.005703135393559933,-0.024386264383792877,0.16240191459655762,-0.0002050529874395579,0.030070550739765167,-1.3490676879882812,-0.02476205863058567,0.0,0.0,0.0,-0.0010814149864017963,-0.004950809292495251,-0.0,0.0,0.0,0.0,0.001150887692347169,-0.004999999888241291,-4.1589584725443274e-05,15051.0,29386.0,30341.0,17643.0,0.04912889748811722,0.11283548176288605,0.11766758561134338,0.05942295491695404,0.0,0.0,0.0,0.0,14028.0,29023.0,30695.0,18593.0,0.3390379548072815,-0.10362050716109379,-0.2760241403059305,-0.15184184951427643,0.019427698105573654,-0.00385676440782845,0.41055017709732056
425,5,-0.00043218073551543057,0.0006918361759744585,0.003283238736912608,-0.009078450500965118,-0.003997859079390764,0.026972677558660507,-0.024108614772558212,0.18945404887199402,9.494132245890796e-05,0.049494773149490356,-1.3775527477264404,-0.02507246658205986,0.0,0.0,0.0,0.0061007412150502205,-0.010230871848762035,-0.0,0.0,0.0,0.0,0.0005377201014198363,-0.004999999888241291,-2.2542652004631236e-05,14846.0,29200.0,30521.0,17834.0,0.048336390405893326,0.11190716922283173,0.11858581006526947,0.0602053739130497,0.0,0.0,0.0,0.0,15106.0,29031.0,30686.0,17589.0,0.33905765414237976,-0.09913307620066816,-0.28341239068628293,-0.15288034334639672,0.040147341787815094,0.021764369681477547,0.3572564423084259
430,5,-0.000377851800294593,0.0007727277115918696,0.0029225307516753674,0.004882515408098698,-0.012524176388978958,0.058590907603502274,-0.024108614772558212,0.18945404887199402,9.494132245890796e-05,0.049494773149490356,-1.3775527477264404,-0.02507246658205986,0.0,0.0,0.0,0.015231044963002205,0.0031624443363398314,-0.0,0.0,0.0,0.0,0.0005377201014198363,-0.004999999888241291,-2.2542652004631236e-05,14846.0,29200.0,30521.0,17834.0,0.048336390405893326,0.11190716922283173,0.11858581006526947,0.0602053739130497,0.0,0.0,0.0,0.0,15106.0,29031.0,30686.0,17589.0,0.33907461166381836,-0.09815139055863242,-0.27970041836252574,-0.1505240368778722,-0.012408905662596226,0.05433819442987442,0.2691761255264282
435,5,-0.0002571216318756342,0.0007798357983119786,0.0027618559543043375,0.0183669812977314,-0.004752388224005699,0.040071748197078705,-0.023855173960328102,0.20043766498565674,0.00038226981996558607,0.012414386495947838,-1.4441725015640259,0.0018186644883826375,0.0,0.0,0.0,0.00712154246866703,0.016195110976696014,-0.0,0.0,0.0,0.0,0.0007649753824807703,-0.004999999888241291,2.8115544409956783e-05,15267.0,28631.0,31074.0,17436.0,0.04996266961097717,0.10906944423913956,0.12142514437437057,0.058580704033374786,0.0,0.0,0.0,0.0,15106.0,29031.0,30686.0,17589.0,0.339086651802063,-0.10524882784585901,-0.29298073071305963,-0.15326414662825877,-0.06355517357587814,0.025408171117305756,0.3333319127559662
440,5,-0.00030333385802805424,0.0007374563720077276,0.0026377432513982058,-0.0009596181334927678,0.0045074038207530975,0.02939729206264019,-0.023855173960328102,0.20043766498565674,0.00038226981996558607,0.012414386495947838,-1.4441725015640259,0.0018186644883826375,0.0,0.0,0.0,-0.0026284006889909506,-0.0023524679709225893,-0.0,0.0,0.0,0.0,0.0007649753824807703,-0.004999999888241291,2.8115544409956783e-05,15267.0,28631.0,31074.0,17436.0,0.04996266961097717,0.10906944423913956,0.12142514437437057,0.058580704033374786,0.0,0.0,0.0,0.0,15106.0,29031.0,30686.0,17589.0,0.3390357196331024,-0.11357605596805566,-0.30201509347502403,-0.15762916140129138,0.009231101721525192,-0.009376266039907932,0.3737000524997711
445,5,-0.0006454756949096918,0.0007160036475397646,0.0027085833717137575,-0.0481877438724041,0.004355601966381073,-0.0010984336258843541,-0.023736201226711273,0.21680571138858795,0.0006212544394657016,0.031816475093364716,-1.3301112651824951,-0.025374438613653183,0.0,0.0,0.0,-0.002203200478106737,-0.04305710643529892,-0.0,0.0,0.0,0.0,0.0008852159953676164,-0.004999999888241291,-2.291832606715616e-05,14831.0,28956.0,30759.0,17849.0,0.04827823117375374,0.11068783700466156,0.11980675160884857,0.06026514247059822,0.0,0.0,0.0,0.0,13883.0,28231.0,31459.0,18729.0,0.3779408633708954,-0.10541559971071374,-0.29540139047723524,-0.15480022943941332,0.18828769028186798,-0.008760274387896061,0.4760807454586029
450,5,-0.0006777225062251091,0.00041961108217947185,0.002645835280418396,-0.018970873206853867,0.042801644653081894,0.008455225266516209,-0.023736201226711273,0.21680571138858795,0.0006212544394657016,0.031816475093364716,-1.3301112651824951,-0.025374438613653183,0.0,0.0,0.0,-0.03951920196413994,-0.01839166134595871,-0.0,0.0,0.0,0.0,0.0008852159953676164,-0.004999999888241291,-2.291832606715616e-05,14831.0,28956.0,30759.0,17849.0,0.04827823117375374,0.11068783700466156,0.11980675160884857,0.06026514247059822,0.0,0.0,0.0,0.0,13883.0,28231.0,31459.0,18729.0,0.37153035402297974,-0.1239015896049827,-0.3044511562485721,-0.15307209753578388,0.0790211632847786,-0.15443365275859833,0.45479801297187805
