timestamp,dt,pos_x,pos_y,pos_z,vel_x,vel_y,vel_z,roll,pitch,yaw,agv_x,agv_y,agv_z,x_ref,y_ref,z_ref,roll_ref,pitch_ref,yaw_ref,x_vel_ref,y_vel_ref,z_vel_ref,x_torque,y_torque,z_torque,w0,w1,w2,w3,u0,u1,u2,u3,m0req,m1req,m2req,m3req,thrust0,thrust1,thrust2,thrust3,thrust_ref,roll_vicon,pitch_vicon,yaw_vicon,acc_x,acc_y,acc_z
5,5,0.0,0.0,0.0,-0.002328928792849183,-0.0012641862267628312,-0.002635206561535597,-0.015525470487773418,0.500796377658844,-0.0008547143661417067,0.00028234667843207717,0.00022116130276117474,-0.005095654167234898,0.0,0.0,0.0,0.0012081253807991743,-0.0022256546653807163,-0.0,0.0,0.0,0.0,0.0006398069090209901,-0.004999999888241291,-3.3011630875989795e-05,0.0,0.0,0.0,0.0,0.0,0.0,0.0,0.0,0.0,0.0,0.0,0.0,0.0,0.0,0.0,0.0,0.33903467655181885,-0.04934737707384149,-0.5828352521946149,0.04134023239690635,0.008733483031392097,0.004740698263049126,0.007905619218945503
27,22,0.0,0.0,0.0,-0.01615263521671295,0.008225134573876858,-0.03619077801704407,-0.015497002750635147,0.5007426738739014,-0.0008744541555643082,0.004692771937698126,0.0026309152599424124,-0.00032322504557669163,0.0,0.0,0.0,-0.007859312929213047,-0.01543516106903553,-0.0,0.0,0.0,0.0,0.0006341872503980994,-0.004999999888241291,-2.3710936147836037e-05,0.0,0.0,0.0,0.0,0.0,0.0,0.0,0.0,0.0,0.0,0.0,0.0,0.0,0.0,0.0,0.0,0.3390844762325287,-0.038338545816200754,-0.5732938412311077,0.046539081625790894,0.06057238206267357,-0.030844254419207573,0.1085723340511322
32,5,0.0,0.0,0.0,0.009592358022928238,0.0006546116201207042,0.015945829451084137,-0.015497002750635147,0.5007426738739014,-0.0008744541555643082,0.004692771937698126,0.0026309152599424124,-0.00032322504557669163,0.0,0.0,0.0,-0.0006255581392906606,0.009166751988232136,-0.0,0.0,0.0,0.0,0.0006341872503980994,-0.004999999888241291,-2.3710936147836037e-05,0.0,0.0,0.0,0.0,0.0,0.0,0.0,0.0,0.0,0.0,0.0,0.0,0.0,0.0,0.0,0.0,0.339047908782959,-0.04859450532384971,-0.5819573394986778,0.04171991912807033,-0.03597134351730347,-0.00245479354634881,-0.04783748835325241
40,8,0.0,0.0,0.0,0.010770092718303204,-0.0029691678937524557,-6.702323298668489e-05,-0.015483505092561245,0.5007609128952026,-0.0008909984026104212,0.00041556794894859195,0.0008516587549820542,-0.000869880139362067,0.0,0.0,0.0,0.002837349660694599,0.010292155668139458,-0.0,0.0,0.0,0.0,0.0006897335988469422,-0.004999999888241291,-3.185593232046813e-05,15020.0,29250.0,30473.0,17670.0,0.04900762438774109,0.11215325444936752,0.11833969503641129,0.05953411012887955,0.0,0.0,0.0,0.0,0.0,0.0,0.0,0.0,0.3390529155731201,-0.05201391280684398,-0.5856594094580194,0.04090122071890773,-0.040387846529483795,0.011134379543364048,0.00020106969168409705
48,8,0.0,0.0,0.0,0.002564317313954234,-0.002176156034693122,0.019624369218945503,-0.015483505092561245,0.5007609128952026,-0.0008909984026104212,0.00041556794894859195,0.0008516587549820542,-0.000869880139362067,0.0,0.0,0.0,0.0020796507596969604,0.0024506039917469025,-0.0,0.0,0.0,0.0,0.0006897335988469422,-0.004999999888241291,-3.185593232046813e-05,15020.0,29250.0,30473.0,17670.0,0.04900762438774109,0.11215325444936752,0.11833969503641129,0.05953411012887955,0.0,0.0,0.0,0.0,0.0,0.0,0.0,0.0,0.33903536200523376,-0.05434810600589555,-0.5867149041039865,0.037344938422085146,-0.009616189636290073,0.008160585537552834,-0.05887310951948166
53,5,0.00026622871519066393,-0.00038926643901504576,-0.00035511102760210633,0.03706005960702896,0.05111579969525337,0.04850945621728897,-0.015443073585629463,0.5006839632987976,-0.0008836914785206318,0.008977683261036873,0.005996485240757465,0.009836866520345211,0.0,0.0,0.0,-0.046138983219861984,0.030413690954446793,-0.0,0.0,0.0,0.0,0.000668052292894572,-0.004999999888241291,-2.8254453354747966e-05,15186.0,29194.0,30527.0,17512.0,0.04965190589427948,0.1118747815489769,0.11861816793680191,0.058889828622341156,0.0,0.0,0.0,0.0,15025.0,29238.0,30484.0,17665.0,0.399557501077652,-0.07630234673483131,-0.6038108024957952,0.03190961975960931,-0.14047741889953613,-0.19388069212436676,-0.15169842541217804
58,5,5.1986131438752636e-05,3.15077013510745e-05,-7.47111116652377e-05,-0.01887594163417816,-0.043573640286922455,-0.02470315247774124,-0.015443073585629463,0.5006839632987976,-0.0008836914785206318,0.008977683261036873,0.005996485240757465,0.009836866520345211,0.0,0.0,0.0,0.041621796786785126,-0.01631247065961361,-0.0,0.0,0.0,0.0,0.000668052292894572,-0.004999999888241291,-2.8254453354747966e-05,15186.0,29194.0,30527.0,17512.0,0.04965190589427948,0.1118747815489769,0.11861816793680191,0.058889828622341156,0.0,0.0,0.0,0.0,15025.0,29238.0,30484.0,17665.0,0.3735063672065735,-0.04522029005985133,-0.5815678238515404,0.04002452268253493,0.07045445591211319,0.16350968182086945,0.07200148701667786
63,5,0.00021998965530656278,1.4951408047636505e-05,-6.876023235236062e-06,0.017857711762189865,-0.010754210874438286,-0.016907857730984688,-0.015365898609161377,0.500676691532135,-0.0007882624049670994,0.006773856468498707,-0.008210618980228901,-0.007958744652569294,0.0,0.0,0.0,0.01130975503474474,0.01739175245165825,-0.0,0.0,0.0,0.0,0.0007631978369317949,-0.004999999888241291,-6.324327114271e-05,15298.0,29291.0,30433.0,17407.0,0.050083477050065994,0.11236019432544708,0.1181393712759018,0.05846487358212471,0.0,0.0,0.0,0.0,14410.0,29666.0,30061.0,18242.0,0.33910655975341797,-0.05103623717976619,-0.5949082535926373,0.046671447852616905,-0.06825244426727295,0.04035252705216408,0.04941564425826073
68,5,0.00011607354099396616,0.0003279259835835546,0.00030644185608252883,-0.009190943092107773,-0.04704270511865616,-0.048936858773231506,-0.015365898609161377,0.500676691532135,-0.0007882624049670994,0.006773856468498707,-0.008210618980228901,-0.007958744652569294,0.0,0.0,0.0,0.04518143832683563,-0.007782003842294216,-0.0,0.0,0.0,0.0,0.0007631978369317949,-0.004999999888241291,-6.324327114271e-05,15298.0,29291.0,30433.0,17407.0,0.050083477050065994,0.11236019432544708,0.1181393712759018,0.05846487358212471,0.0,0.0,0.0,0.0,14410.0,29666.0,30061.0,18242.0,0.37492936849594116,-0.03423018428961917,-0.5837497129704584,0.050630533569177696,0.033734701573848724,0.17815785109996796,0.15020914375782013
74,5,-0.0005407125572673976,0.0005164823960512877,0.00018938838911708444,-0.09470734000205994,-0.04051070660352707,0.0017064274288713932,-0.015453869476914406,0.500954270362854,-0.0009684718097560108,-0.026958394795656204,0.0040612961165606976,0.03937594220042229,0.0,0.0,0.0,0.03199748322367668,-0.06735821068286896,-0.0,0.0,0.0,0.0,0.002358152996748686,-0.004999999888241291,-7.014671427896246e-05,15238.0,28814.0,30897.0,17463.0,0.04985056817531586,0.10997968167066574,0.12051361054182053,0.05869150906801224,0.0,0.0,0.0,0.0,15377.0,28696.0,31011.0,17329.0,0.4598265290260315,-0.004260259089986945,-0.5503049817133847,0.04825989650756885,0.3580312728881836,0.15477675199508667,-0.002448295010253787
79,5,-0.0005407125572673976,0.0005164823960512877,0.00018938838911708444,-0.09470734000205994,-0.04051070660352707,0.0017064274288713932,-0.015453869476914406,0.500954270362854,-0.0009684718097560108,-0.026958394795656204,0.0040612961165606976,0.03937594220042229,0.0,0.0,0.0,0.0320085845887661,-0.0673660933971405,-0.0,0.0,0.0,0.0,0.002358152996748686,-0.004999999888241291,-7.014671427896246e-05,15238.0,28814.0,30897.0,17463.0,0.04985056817531586,0.10997968167066574,0.12051361054182053,0.05869150906801224,0.0,0.0,0.0,0.0,15377.0,28696.0,31011.0,17329.0,0.4598604142665863,-0.004260259089986945,-0.5503049817133847,0.04825989650756885,0.35809940099716187,0.1548418402671814,-0.0020505792926996946
84,5,-0.0002427573926979676,0.00014801212819293141,0.0003754367644432932,-0.012124059721827507,-0.024025389924645424,0.018968813121318817,-0.015530272386968136,0.5007890462875366,-0.001002450822852552,0.007064478006213903,0.0438033826649189,0.004738174378871918,0.0,0.0,0.0,0.025446562096476555,-0.011911123991012573,-0.0,0.0,0.0,0.0,0.002432392444461584,-0.004999999888241291,-1.6043763025663793e-05,14372.0,29026.0,34103.0,22456.0,0.046520620584487915,0.11103510856628418,0.1374136358499527,0.07997690141201019,0.0,0.0,0.0,0.0,15011.0,28744.0,34230.0,21741.0,0.34026074409484863,-0.04332361204441521,-0.5743005084240442,0.042918653396518465,0.04689212888479233,0.0910901427268982,-0.049279119819402695
90,6,-0.00021809415193274617,0.00022104691015556455,0.0003369199112057686,-0.0001843635836848989,-0.01743248663842678,0.011083005927503109,-0.015530272386968136,0.5007890462875366,-0.001002450822852552,0.007064478006213903,0.0438033826649189,0.004738174378871918,0.0,0.0,0.0,0.025446612387895584,-0.0005054312059655786,-0.0,0.0,0.0,0.0,0.002432392444461584,-0.004999999888241291,-1.6043763025663793e-05,14372.0,29026.0,34103.0,22456.0,0.046520620584487915,0.11103510856628418,0.1374136358499527,0.07997690141201019,0.0,0.0,0.0,0.0,15011.0,28744.0,34230.0,21741.0,0.33909302949905396,-0.03720676129076479,-0.5730629294543621,0.04355425239653372,0.001983312191441655,0.06676900386810303,-0.026181640103459358
95,5,-0.00022382850875146687,0.0002107847249135375,0.00038090770249255,-0.0008581200381740928,-0.0037930395919829607,-0.0028333901427686214,-0.015358439646661282,0.500389039516449,-0.0009054634720087051,0.012617599219083786,-0.002144778613001108,-0.01877373643219471,0.0,0.0,0.0,0.004376507364213467,-0.0011693668784573674,-0.0,0.0,0.0,0.0,0.001964574446901679,-0.004999999888241291,2.3740289179841056e-05,20846.0,33319.0,37764.0,25952.0,0.07289347797632217,0.1332014501094818,0.15771667659282684,0.09607342630624771,0.0,0.0,0.0,0.0,14227.0,29038.0,34092.0,22580.0,0.33903709053993225,-0.04203532088174906,-0.576201919555251,0.04327656229097953,0.004588597919791937,0.015612288378179073,0.01744687370955944
100,5,-0.00011213388643227518,-7.76614251662977e-05,0.0004433116700965911,0.015379811637103558,0.03924454748630524,-0.009586572647094727,-0.015358439646661282,0.500389039516449,-0.0009054634720087051,0.012617599219083786,-0.002144778613001108,-0.01877373643219471,0.0,0.0,0.0,-0.03839591518044472,0.013480468653142452,-0.0,0.0,0.0,0.0,0.001964574446901679,-0.004999999888241291,2.3740289179841056e-05,20846.0,33319.0,37764.0,25952.0,0.07289347797632217,0.1332014501094818,0.15771667659282684,0.09607342630624771,0.0,0.0,0.0,0.0,14227.0,29038.0,34092.0,22580.0,0.36477816104888916,-0.06694497085696857,-0.588217435361534,0.03710432421772881,-0.05687028914690018,-0.14732076227664948,0.040007345378398895
105,5,-0.00020235504780430347,7.474619633285329e-05,0.0003254162729717791,-0.008017019368708134,-0.009563702158629894,0.013629384338855743,-0.015381334349513054,0.5003812313079834,-0.0008022276451811194,0.009260592050850391,-0.044750384986400604,0.009183978661894798,0.0,0.0,0.0,0.010241159237921238,-0.007997908629477024,-0.0,0.0,0.0,0.0,0.0013684154255315661,-0.004999999888241291,3.143642607028596e-05,14708.0,27822.0,31848.0,17971.0,0.047804661095142365,0.10508283972740173,0.12543931603431702,0.060766275972127914,0.0,0.0,0.0,0.0,20404.0,33698.0,37406.0,26353.0,0.3390622138977051,-0.05515323884851312,-0.5828451597302442,0.04066544780921817,0.03138476610183716,0.036535345017910004,-0.030090808868408203
110,5,-0.0001607367885299027,0.0001729092764435336,0.00023526872973889112,0.0034214509651064873,-0.016611943021416664,0.016709471121430397,-0.015381334349513054,0.5003812313079834,-0.0008022276451811194,0.009260592050850391,-0.044750384986400604,0.009183978661894798,0.0,0.0,0.0,0.017805451527237892,0.0029803363140672445,-0.0,0.0,0.0,0.0,0.0013684154255315661,-0.004999999888241291,3.143642607028596e-05,14708.0,27822.0,31848.0,17971.0,0.047804661095142365,0.10508283972740173,0.12543931603431702,0.060766275972127914,0.0,0.0,0.0,0.0,20404.0,33698.0,37406.0,26353.0,0.3390888571739197,-0.049234734326893695,-0.5833645129382382,0.042561509205613315,-0.011694874614477158,0.06352273374795914,-0.03951854631304741
115,5,-8.833584433887154e-05,4.9654205213300884e-05,0.0002189779479522258,0.011162567883729935,0.012272127903997898,0.007293551228940487,-0.015059072524309158,0.5001047253608704,-0.0004654409422073513,0.04624060168862343,0.013091483153402805,0.07912009954452515,0.0,0.0,0.0,-0.01273488998413086,0.010470512323081493,-0.0,0.0,0.0,0.0,-0.0010971102165058255,-0.004999999888241291,6.094231139286421e-05,20587.0,31552.0,30693.0,15184.0,0.07177411764860153,0.12389887869358063,0.11946683377027512,0.049640387296676636,0.0,0.0,0.0,0.0,14086.0,28469.0,31235.0,18546.0,0.33907967805862427,-0.06500065284744914,-0.5938294848733263,0.039058464626773995,-0.04108765721321106,-0.045433271676301956,-0.010668587870895863
120,5,-4.162541881669313e-05,0.00012754640192724764,0.00013131738523952663,0.009888228960335255,-0.007223269436508417,0.014460543170571327,-0.015059072524309158,0.5001047253608704,-0.0004654409422073513,0.04624060168862343,0.013091483153402805,0.07912009954452515,0.0,0.0,0.0,0.007880504243075848,0.00931350514292717,-0.0,0.0,0.0,0.0,-0.0010971102165058255,-0.004999999888241291,6.094231139286421e-05,20587.0,31552.0,30693.0,15184.0,0.07177411764860153,0.12389887869358063,0.11946683377027512,0.049640387296676636,0.0,0.0,0.0,0.0,14086.0,28469.0,31235.0,18546.0,0.33905884623527527,-0.060499425856609806,-0.593653974708084,0.04117970860094342,-0.036547187715768814,0.028113801032304764,-0.03271367400884628
125,5,-7.543867832282558e-05,0.00018341929535381496,0.0001013455621432513,-0.0017673877300694585,-0.009989185258746147,0.008534218184649944,-0.015059072524309158,0.5001047253608704,-0.0004654409422073513,0.04624060168862343,0.013091483153402805,0.07912009954452515,0.0,0.0,0.0,0.01088216993957758,-0.0018747273134067655,-0.0,0.0,0.0,0.0,-0.0010971102165058255,-0.004999999888241291,6.094231139286421e-05,20587.0,31552.0,30693.0,15184.0,0.07177411764860153,0.12389887869358063,0.11946683377027512,0.049640387296676636,0.0,0.0,0.0,0.0,14086.0,28469.0,31235.0,18546.0,0.33905425667762756,-0.060366476124027534,-0.5953818246547737,0.04056671092945679,0.007356551941484213,0.038821280002593994,-0.014910499565303326
131,5,0.0001211671406053938,0.00017383377416990697,0.0001287244085688144,0.026994599029421806,-0.0016547840787097812,-0.0012727727880701423,-0.015027676708996296,0.4997510015964508,0.00025989185087382793,0.020400946959853172,0.05046435445547104,0.03884740546345711,0.0,0.0,0.0,0.002111482433974743,0.025814995169639587,-0.0,0.0,0.0,0.0,-0.0009927910286933184,-0.004999999888241291,0.00010600856330711395,15245.0,27541.0,32109.0,17462.0,0.049880027770996094,0.10371433198451996,0.12680573761463165,0.058688826858997345,0.0,0.0,0.0,0.0,20203.0,31939.0,30298.0,15607.0,0.3399713337421417,-0.06851605341984912,-0.6004231183364979,0.03536762168683497,-0.1015668660402298,0.007553318049758673,0.015279768034815788
136,5,-4.552999962470494e-05,0.0002235489955637604,2.212616163888015e-05,-0.01523922011256218,-0.00745656481012702,0.014541922137141228,-0.015027676708996296,0.4997510015964508,0.00025989185087382793,0.020400946959853172,0.05046435445547104,0.03884740546345711,0.0,0.0,0.0,0.008300695568323135,-0.014704766683280468,-0.0,0.0,0.0,0.0,-0.0009927910286933184,-0.004999999888241291,0.00010600856330711395,15245.0,27541.0,32109.0,17462.0,0.049880027770996094,0.10371433198451996,0.12680573761463165,0.058688826858997345,0.0,0.0,0.0,0.0,20203.0,31939.0,30298.0,15607.0,0.33908194303512573,-0.06182256346811394,-0.5994668477912714,0.04240349822242551,0.05770573019981384,0.029614944010972977,-0.03338511288166046
141,5,-5.9211324696661904e-05,0.0002187334030168131,3.795800876105204e-05,-0.006487151607871056,-0.0015627866378054023,0.0021461178548634052,-0.014853029511868954,0.49937140941619873,0.000665615894831717,0.02304094284772873,0.07015428692102432,0.07295901328325272,0.0,0.0,0.0,0.0021120437886565924,-0.006363430991768837,-0.0,0.0,0.0,0.0,0.0009029541397467256,-0.004999999888241291,0.00011999751586699858,16004.0,27808.0,31857.0,16721.0,0.05285124108195305,0.1050163134932518,0.12548643350601196,0.05570029839873314,0.0,0.0,0.0,0.0,16659.0,27121.0,32494.0,16067.0,0.33904123306274414,-0.06695929734012122,-0.6037827013609682,0.04097285396175637,0.024970529600977898,0.007534726522862911,0.004119671415537596
146,5,-0.00010770837980089709,0.0002291827549925074,4.790372713614488e-06,-0.008735733106732368,-0.0019317454425618052,0.005287304520606995,-0.014853029511868954,0.49937140941619873,0.000665615894831717,0.02304094284772873,0.07015428692102432,0.07295901328325272,0.0,0.0,0.0,0.002529305638745427,-0.008583473972976208,-0.0,0.0,0.0,0.0,0.0009029541397467256,-0.004999999888241291,0.00011999751586699858,16004.0,27808.0,31857.0,16721.0,0.05285124108195305,0.1050163134932518,0.12548643350601196,0.05570029839873314,0.0,0.0,0.0,0.0,16659.0,27121.0,32494.0,16067.0,0.3390471637248993,-0.06615786138969316,-0.6030540473825412,0.042071890682730026,0.03368237987160683,0.009023071266710758,-0.00566641241312027
151,5,-0.0001583049597684294,0.00025255983928218484,7.576379721285775e-05,-0.00970424059778452,-0.0038523145485669374,-0.008350087329745293,-0.014803847298026085,0.4983087182044983,0.0021415608935058117,0.10859991610050201,0.11363718658685684,0.15509632229804993,0.0,0.0,0.0,0.004597954917699099,-0.009585795924067497,-0.0,0.0,0.0,0.0,0.0007725426112301648,-0.004999999888241291,0.00021221628412604332,18201.0,26883.0,32714.0,14460.0,0.06171157583594322,0.10052593797445297,0.12999063730239868,0.046853791922330856,0.0,0.0,0.0,0.0,16659.0,27121.0,32494.0,16067.0,0.3390527665615082,-0.06393520925092964,-0.6026752823661927,0.043758851194752216,0.037615817040205,0.01640300825238228,0.03633103892207146
156,5,-8.06918105809018e-05,0.0002802070521283895,7.001755875535309e-05,0.007954568602144718,-0.005026306491345167,-0.001700553111732006,-0.014803847298026085,0.4983087182044983,0.0021415608935058117,0.10859991610050201,0.11363718658685684,0.15509632229804993,0.0,0.0,0.0,0.005890470929443836,0.007389436941593885,-0.0,0.0,0.0,0.0,0.0007725426112301648,-0.004999999888241291,0.00021221628412604332,18201.0,26883.0,32714.0,14460.0,0.06171157583594322,0.10052593797445297,0.12999063730239868,0.046853791922330856,0.0,0.0,0.0,0.0,16659.0,27121.0,32494.0,16067.0,0.33904874324798584,-0.07166484158563574,-0.5996788718584237,0.039155755054932094,-0.028996678069233894,0.021013690158724785,0.016576280817389488
161,5,-0.00036723946686834097,0.0002504725125618279,5.859295924892649e-05,-0.03773030266165733,0.002654943848028779,0.0010892776772379875,-0.014882813207805157,0.4968883693218231,0.00341221084818244,0.04609571769833565,0.15308958292007446,0.1727035492658615,0.0,0.0,0.0,-0.0020919840317219496,-0.03467100113630295,-0.0,0.0,0.0,0.0,0.0008025755523703992,-0.004999999888241291,0.00035644829040393233,18796.0,26283.0,33253.0,13806.0,0.06417642533779144,0.09764619916677475,0.13285300135612488,0.04437157139182091,0.0,0.0,0.0,0.0,19658.0,26093.0,33423.0,12833.0,0.3587082028388977,-0.0644595316460938,-0.6009067570781257,0.044434145454330054,0.14391498267650604,-0.007895739749073982,0.0082801952958107
166,5,-0.00045669861719943583,0.00029869828722439706,9.122350456891581e-05,-0.023843370378017426,-0.005955125205218792,-0.004241493064910173,-0.014882813207805157,0.4968883693218231,0.00341221084818244,0.04609571769833565,0.15308958292007446,0.1727035492658615,0.0,0.0,0.0,0.006922829896211624,-0.023542487993836403,-0.0,0.0,0.0,0.0,0.0008025755523703992,-0.004999999888241291,0.00035644829040393233,18796.0,26283.0,33253.0,13806.0,0.06417642533779144,0.09764619916677475,0.13285300135612488,0.04437157139182091,0.0,0.0,0.0,0.0,19658.0,26093.0,33423.0,12833.0,0.33913570642471313,-0.059759034085636875,-0.5974556556197131,0.047556543508036814,0.0923977941274643,0.02470279298722744,0.024940025061368942
171,5,-0.0005804849788546562,0.00029045602423138916,0.0001228654000442475,-0.024483101442456245,-0.0006326185539364815,-0.005702313967049122,-0.014626872725784779,0.49323317408561707,0.005739820189774036,0.15484808385372162,0.3797754943370819,0.18710586428642273,0.0,0.0,0.0,0.0013348015490919352,-0.02435225062072277,-0.0,0.0,0.0,0.0,0.00033081683795899153,-0.004999999888241291,0.0003977281739935279,20095.0,26175.0,33349.0,12327.0,0.06966198235750198,0.09713335335254669,0.13336585462093353,0.03888601064682007,0.0,0.0,0.0,0.0,20364.0,25236.0,34176.0,12010.0,0.33913445472717285,-0.059572943101946475,-0.5944641208497506,0.049242671061162396,0.09557712823152542,0.004763015545904636,0.030128592625260353
176,5,-0.0007464643567800522,0.00033415373764000833,0.0001410633558407426,-0.030582040548324585,-0.006307465489953756,-0.00425840774551034,-0.014626872725784779,0.49323317408561707,0.005739820189774036,0.15484808385372162,0.3797754943370819,0.18710586428642273,0.0,0.0,0.0,0.007173387333750725,-0.029577670618891716,-0.0,0.0,0.0,0.0,0.00033081683795899153,-0.004999999888241291,0.0003977281739935279,20095.0,26175.0,33349.0,12327.0,0.06966198235750198,0.09713335335254669,0.13336585462093353,0.03888601064682007,0.0,0.0,0.0,0.0,20364.0,25236.0,34176.0,12010.0,0.349112868309021,-0.04848367763989508,-0.5840345980664823,0.05248365505169058,0.11949276179075241,0.026349883526563644,0.02653411589562893
181,5,-0.0007937776972539723,0.00032339096651412547,0.0002500098489690572,-0.015798479318618774,-0.00038545101415365934,-0.016530029475688934,-0.01469373144209385,0.48955658078193665,0.00785112101584673,0.10274599492549896,0.6540677547454834,0.23526157438755035,0.0,0.0,0.0,0.0011613145470619202,-0.016356535255908966,-0.0,0.0,0.0,0.0,0.0005221689352765679,-0.004999999888241291,0.0006248927093110979,20926.0,24584.0,34735.0,11335.0,0.07324208319187164,0.08965849876403809,0.14084148406982422,0.03530668467283249,0.0,0.0,0.0,0.0,21749.0,23799.0,35404.0,10327.0,0.3390791714191437,-0.059172713692034445,-0.5905746573936795,0.05373398761055944,0.06445018947124481,0.00414376612752676,0.06541261821985245
186,5,-0.0009520369931124151,0.0003860801225528121,0.0002764674718491733,-0.02689584530889988,-0.0088921207934618,-0.008663076907396317,-0.01469373144209385,0.48955658078193665,0.00785112101584673,0.10274599492549896,0.6540677547454834,0.23526157438755035,0.0,0.0,0.0,0.01004326343536377,-0.02682667225599289,-0.0,0.0,0.0,0.0,0.0005221689352765679,-0.004999999888241291,0.0006248927093110979,20926.0,24584.0,34735.0,11335.0,0.07324208319187164,0.08965849876403809,0.14084148406982422,0.03530668467283249,0.0,0.0,0.0,0.0,21749.0,23799.0,35404.0,10327.0,0.34501779079437256,-0.05714282776203642,-0.5876208856252478,0.055781164110504634,0.10710766911506653,0.03645860776305199,0.04310998320579529
192,5,-0.0011956690577790141,0.00040070826071314514,0.0002778807538561523,-0.042177245020866394,-0.004715573973953724,-0.0027967847418040037,-0.014626207761466503,0.4805370569229126,0.011615513823926449,0.1866757869720459,0.8439446091651917,0.30591174960136414,0.0,0.0,0.0,0.005398495122790337,-0.03888438269495964,-0.0,0.0,0.0,0.0,0.0004340330488048494,-0.004999999888241291,0.0008259968017227948,23358.0,22743.0,36267.0,8214.0,0.08403551578521729,0.08126038312911987,0.14928314089775085,0.02455679327249527,0.0,0.0,0.0,0.0,23785.0,23089.0,36883.0,9127.0,0.3687852919101715,-0.05153727066631026,-0.5791713828072599,0.05740127525124243,0.16592927277088165,0.020948288962244987,0.026382513344287872
197,5,-0.0013457523891702294,0.0004567827272694558,0.00010616210056468844,-0.03366483375430107,-0.009265098720788956,0.023201577365398407,-0.014626207761466503,0.4805370569229126,0.011615513823926449,0.1866757869720459,0.8439446091651917,0.30591174960136414,0.0,0.0,0.0,0.010218015871942043,-0.032684456557035446,-0.0,0.0,0.0,0.0,0.0004340330488048494,-0.004999999888241291,0.0008259968017227948,23358.0,22743.0,36267.0,8214.0,0.08403551578521729,0.08126038312911987,0.14928314089775085,0.02455679327249527,0.0,0.0,0.0,0.0,23785.0,23089.0,36883.0,9127.0,0.35707229375839233,-0.05256970295011979,-0.5683636487577084,0.06643831725804239,0.13504864275455475,0.038389626890420914,-0.05336329713463783
202,5,-0.0013876865850761533,0.000395634095184505,0.0002795807959046215,-0.015970245003700256,0.005781279411166906,-0.01731814257800579,-0.014987068250775337,0.47262075543403625,0.014835810288786888,0.17057447135448456,1.1783055067062378,0.4237050712108612,0.0,0.0,0.0,-0.00512499688193202,-0.017627399414777756,-0.0,0.0,0.0,0.0,0.0005501467967405915,-0.004999999888241291,0.0013735484099015594,25817.0,20867.0,38610.0,6243.0,0.09543037414550781,0.07298488914966583,0.1625647246837616,0.018168020993471146,0.0,0.0,0.0,0.0,25974.0,19946.0,38943.0,5351.0,0.3390907347202301,-0.059166095189147214,-0.5652393834744371,0.06145656237728145,0.06917916238307953,-0.018284643068909645,0.07114889472723007
207,5,-0.0018676631152629852,0.0004137317882850766,0.00024019904958549887,-0.07198778539896011,-0.0007992906612344086,0.00031800082069821656,-0.014987068250775337,0.47262075543403625,0.014835810288786888,0.17057447135448456,1.1783055067062378,0.4237050712108612,0.0,0.0,0.0,0.001498289406299591,-0.058478787541389465,-0.0,0.0,0.0,0.0,0.0005501467967405915,-0.004999999888241291,0.0013735484099015594,25817.0,20867.0,38610.0,6243.0,0.09543037414550781,0.07298488914966583,0.1625647246837616,0.018168020993471146,0.0,0.0,0.0,0.0,25974.0,19946.0,38943.0,5351.0,0.4171532988548279,-0.050604422162011144,-0.5535910219070469,0.06950274060729837,0.2821839153766632,0.006576950196176767,0.018647272139787674
212,5,-0.0020727093797177076,0.00040673467447049916,0.000368766050087288,-0.05030280724167824,0.000739808427169919,-0.01790398173034191,-0.015500458888709545,0.4570385217666626,0.020805347710847855,0.1974739283323288,1.4485825300216675,0.4912024736404419,0.0,0.0,0.0,0.00020906300051137805,-0.04555997624993324,-0.0,0.0,0.0,0.0,0.0006583682843483984,-0.0026679798029363155,0.0016528875567018986,27841.0,17878.0,40421.0,2318.0,0.10517852753400803,0.06038626655936241,0.17312495410442352,0.006381481885910034,0.0,0.0,0.0,0.0,29138.0,17903.0,40455.0,4157.0,0.38385844230651855,-0.05169681515329404,-0.5504848298178338,0.0719224136876272,0.2023441046476364,0.0008443875703960657,0.07600198686122894
217,5,-0.0023304293863475323,0.0004176473303232342,0.0005506860907189548,-0.05117164924740791,-0.0013058286858722568,-0.03084000013768673,-0.015500458888709545,0.4570385217666626,0.020805347710847855,0.1974739283323288,1.4485825300216675,0.4912024736404419,0.0,0.0,0.0,0.002129614818841219,-0.0464310422539711,-0.0,0.0,0.0,0.0,0.0006583682843483984,-0.0026679798029363155,0.0016528875567018986,27841.0,17878.0,40421.0,2318.0,0.10517852753400803,0.06038626655936241,0.17312495410442352,0.006381481885910034,0.0,0.0,0.0,0.0,29138.0,17903.0,40455.0,4157.0,0.3860856890678406,-0.05496074642624127,-0.5499230795037615,0.07248187710469664,0.20740951597690582,0.008651858195662498,0.1187048852443695
222,5,-0.0025845193304121494,0.0004571440804284066,0.0006188960978761315,-0.05092408508062363,-0.005921296309679747,-0.018801400437951088,-0.015929630026221275,0.44407302141189575,0.02518646791577339,0.2230268120765686,1.7739884853363037,0.5832130908966064,0.0,0.0,0.0,0.006445820908993483,-0.0465116947889328,-0.0,0.0,0.0,0.0,0.00018422710127197206,-0.00022454439022112638,0.001812686212360859,34370.0,10658.0,39315.0,6426.0,0.13885894417762756,0.032906681299209595,0.16664130985736847,0.018750503659248352,0.0,0.0,0.0,0.0,35707.0,8525.0,39069.0,7055.0,0.3870895206928253,-0.05344689933433139,-0.541519068178696,0.07606485425639421,0.20830237865447998,0.02625301480293274,0.08528146892786026
227,5,-0.0030341469682753086,0.0005807449924759567,0.0006375681841745973,-0.07822509855031967,-0.019080519676208496,-0.00825450848788023,-0.015929630026221275,0.44407302141189575,0.02518646791577339,0.2230268120765686,1.7739884853363037,0.5832130908966064,0.0,0.0,0.0,0.016743188723921776,-0.0625595971941948,-0.0,0.0,0.0,0.0,0.00018422710127197206,-0.00022454439022112638,0.001812686212360859,34370.0,10658.0,39315.0,6426.0,0.13885894417762756,0.032906681299209595,0.16664130985736847,0.018750503659248352,0.0,0.0,0.0,0.0,35707.0,8525.0,39069.0,7055.0,0.43350645899772644,-0.04075934792450961,-0.5188620622005198,0.0858492923472442,0.3136400878429413,0.07636599242687225,0.05585585907101631
232,5,-0.003438957966864109,0.0006519967573694885,0.0008510688785463572,-0.08014106005430222,-0.01569940149784088,-0.03236645087599754,-0.015929630026221275,0.44407302141189575,0.02518646791577339,0.2230268120765686,1.7739884853363037,0.5832130908966064,0.0,0.0,0.0,0.013981594704091549,-0.06413131207227707,-0.0,0.0,0.0,0.0,0.00018422710127197206,-0.00022454439022112638,0.001812686212360859,34370.0,10658.0,39315.0,6426.0,0.13885894417762756,0.032906681299209595,0.16664130985736847,0.018750503659248352,0.0,0.0,0.0,0.0,35707.0,8525.0,39069.0,7055.0,0.43633612990379333,-0.027391650132799514,-0.5010204890870802,0.09363925118266192,0.3236215114593506,0.06418778747320175,0.13340261578559875
238,5,-0.0036605799105018377,0.0005431231111288071,0.0010378198930993676,-0.05506940931081772,0.010532489977777004,-0.035855088382959366,-0.01615426130592823,0.4202171266078949,0.03255712613463402,0.27655139565467834,2.1358695030212402,0.6317260265350342,0.0,0.0,0.0,-0.008292841725051403,-0.05036567524075508,-0.0,0.0,0.0,0.0,0.00023063062690198421,0.004999999888241291,0.0021446971222758293,41587.0,8969.0,39491.0,13292.0,0.18007045984268188,0.027084417641162872,0.16766920685768127,0.042445115745067596,0.0,0.0,0.0,0.0,43320.0,5720.0,39730.0,12926.0,0.39723581075668335,-0.03725658007033033,-0.5008063169974014,0.09364712294507974,0.23145723342895508,-0.03466080501675606,0.14930082857608795
243,5,-0.004125615116208792,0.0008057194645516574,0.000733718741685152,-0.08162572234869003,-0.033603738993406296,0.031817641109228134,-0.01615426130592823,0.4202171266078949,0.03255712613463402,0.27655139565467834,2.1358695030212402,0.6317260265350342,0.0,0.0,0.0,0.028090666979551315,-0.06453578919172287,-0.0,0.0,0.0,0.0,0.00023063062690198421,0.004999999888241291,0.0021446971222758293,41587.0,8969.0,39491.0,13292.0,0.18007045984268188,0.027084417641162872,0.16766920685768127,0.042445115745067596,0.0,0.0,0.0,0.0,43320.0,5720.0,39730.0,12926.0,0.44801515340805054,-0.027958292582064174,-0.46537370032558933,0.10927466402762405,0.33428335189819336,0.1323961466550827,-0.05507683753967285
248,5,-0.004261360503733158,0.0005643542390316725,0.001182848820462823,-0.04349210858345032,0.023710010573267937,-0.053332921117544174,-0.016376391053199768,0.4015141725540161,0.03784266486763954,0.263886958360672,2.314835548400879,0.6862852573394775,0.0,0.0,0.0,-0.020548885688185692,-0.04304175078868866,-0.0,0.0,0.0,0.0,0.000620723410975188,0.004999999888241291,0.0024851281195878983,49222.0,0.0,40597.0,15514.0,0.2282237857580185,-0.016970492899417877,0.17416921257972717,0.05092613399028778,0.0,0.0,0.0,0.0,47519.0,0.0,37896.0,11813.0,0.3871994614601135,-0.045051580503043066,-0.47232723374527863,0.09804860552290039,0.19279667735099792,-0.08370878547430038,0.20940878987312317
253,5,-0.004711528774350882,0.0006268208380788565,0.001413232064805925,-0.07607119530439377,-0.0016323223244398832,-0.048253532499074936,-0.016376391053199768,0.4015141725540161,0.03784266486763954,0.263886958360672,2.314835548400879,0.6862852573394775,0.0,0.0,0.0,0.002591834869235754,-0.06372711807489395,-0.0,0.0,0.0,0.0,0.000620723410975188,0.004999999888241291,0.0024851281195878983,49222.0,0.0,40597.0,15514.0,0.2282237857580185,-0.016970492899417877,0.17416921257972717,0.05092613399028778,0.0,0.0,0.0,0.0,47519.0,0.0,37896.0,11813.0,0.4317643642425537,-0.04494867420472211,-0.4700760174781883,0.10275857991040334,0.31824520230293274,0.011774623766541481,0.20134004950523376
258,5,-0.0050464509986341,0.0007183047709986567,0.0015494005056098104,-0.06971047073602676,-0.013297447003424168,-0.03353963419795036,-0.01619224064052105,0.3701866865158081,0.04648623242974281,0.3118349015712738,2.7329304218292236,0.6817654371261597,0.0,0.0,0.0,0.012544706463813782,-0.06039419770240784,-0.0,0.0,0.0,0.0,0.001437302678823471,0.004999999888241291,0.0024862252175807953,48408.0,0.0,41826.0,18306.0,0.22286957502365112,-0.01844167709350586,0.18150509893894196,0.06214506924152374,0.0,0.0,0.0,0.0,49469.0,0.0,40738.0,15092.0,0.42529937624931335,-0.04814956579789196,-0.4593820329221067,0.10509114300234657,0.29708313941955566,0.056134968996047974,0.16348397731781006
263,5,-0.00543864956125617,0.000688666186761111,0.0016861138865351677,-0.07582094520330429,0.0001601661351742223,-0.029201768338680267,-0.01619224064052105,0.3701866865158081,0.04648623242974281,0.3118349015712738,2.7329304218292236,0.6817654371261597,0.0,0.0,0.0,0.0012362324632704258,-0.0644213855266571,-0.0,0.0,0.0,0.0,0.001437302678823471,0.004999999888241291,0.0024862252175807953,48408.0,0.0,41826.0,18306.0,0.22286957502365112,-0.01844167709350586,0.18150509893894196,0.06214506924152374,0.0,0.0,0.0,0.0,49469.0,0.0,40738.0,15092.0,0.4336346685886383,-0.048222077779447724,-0.4417497306629802,0.10793636623478396,0.3231019079685211,0.005640499293804169,0.15736979246139526
268,5,-0.005859518423676491,0.0006307142903096974,0.001959637040272355,-0.08166787773370743,0.00816131941974163,-0.04705377668142319,-0.01604742556810379,0.3132360875606537,0.055350519716739655,0.14536157250404358,2.893998622894287,0.3177631199359894,0.0,0.0,0.0,-0.005106964148581028,-0.06590522825717926,-0.0,0.0,0.0,0.0,0.0004987807478755713,0.004999999888241291,0.0022822238970547915,47899.0,0.0,38901.0,17134.0,0.21954593062400818,-0.009287707507610321,0.1642439067363739,0.05736149102449417,0.0,0.0,0.0,0.0,48223.0,0.0,41667.0,18598.0,0.457000195980072,-0.03892276786341245,-0.41917253470733595,0.1126771449097652,0.3483479917049408,-0.024555763229727745,0.2202339768409729
273,5,-0.00673112366348505,0.0006176268216222525,0.0022915133740752935,-0.09179617464542389,-0.0002255767903989181,-0.032792072743177414,-0.01604742556810379,0.3132360875606537,0.055350519716739655,0.14536157250404358,2.893998622894287,0.3177631199359894,0.0,0.0,0.0,0.0014321457128971815,-0.07363403588533401,-0.0,0.0,0.0,0.0,0.0004987807478755713,0.004999999888241291,0.0022822238970547915,47899.0,0.0,38901.0,17134.0,0.21954593062400818,-0.009287707507610321,0.1642439067363739,0.05736149102449417,0.0,0.0,0.0,0.0,48223.0,0.0,41667.0,18598.0,0.46064093708992004,-0.04087478949790375,-0.38926590037980685,0.11438164756238843,0.3922242224216461,0.006941336672753096,0.18856747448444366
278,5,-0.007062053773552179,0.0006046064081601799,0.002285114722326398,-0.07386912405490875,0.0017551861237734556,-0.008941814303398132,-0.016231870278716087,0.28990650177001953,0.05796567350625992,-0.010563818737864494,2.926358222961426,0.32915744185447693,0.0,0.0,0.0,-9.041971497936174e-05,-0.060620807111263275,-0.0,0.0,0.0,0.0,0.0006328471936285496,0.004999999888241291,0.002408214146271348,48435.0,0.0,40234.0,16502.0,0.2230474352836609,-0.016104161739349365,0.172025665640831,0.05482529103755951,0.0,0.0,0.0,0.0,48056.0,0.0,39186.0,16881.0,0.46785545349121094,-0.04540539430859232,-0.3786220950932658,0.11432455946522693,0.3280602693557739,-0.0004442041099537164,0.12396696209907532
283,5,-0.007637637667357922,0.0006312943296507001,0.0024191883858293295,-0.10274244099855423,-0.0032097473740577698,-0.021452849730849266,-0.016231870278716087,0.28990650177001953,0.05796567350625992,-0.010563818737864494,2.926358222961426,0.32915744185447693,0.0,0.0,0.0,0.0036567605566233397,-0.07958127558231354,-0.0,0.0,0.0,0.0,0.0006328471936285496,0.004999999888241291,0.002408214146271348,48435.0,0.0,40234.0,16502.0,0.2230474352836609,-0.016104161739349365,0.172025665640831,0.05482529103755951,0.0,0.0,0.0,0.0,48056.0,0.0,39186.0,16881.0,0.4790951609611511,-0.042116425250418865,-0.3565881782317787,0.11561271964142775,0.440816193819046,0.018433617427945137,0.1706017404794693
288,5,-0.008050884120166302,0.0006592817371711135,0.0026111279148608446,-0.0886772945523262,-0.004881162196397781,-0.03330738842487335,-0.017879096791148186,0.2552614212036133,0.06196179240942001,-0.05232343077659607,2.8153271675109863,0.36526381969451904,0.0,0.0,0.0,0.0048979176208376884,-0.06990864127874374,-0.0,0.0,0.0,0.0,0.0011047770967707038,0.004999999888241291,0.002540136454626918,50127.0,0.0,42713.0,17087.0,0.23424214124679565,-0.017416030168533325,0.18687504529953003,0.05716807395219803,0.0,0.0,0.0,0.0,50178.0,0.0,42831.0,17002.0,0.4845976233482361,-0.03973160462089435,-0.34191293743151574,0.11977581120852988,0.3917895257472992,0.024974752217531204,0.21667449176311493
294,5,-0.008425812236964703,0.0005843908875249326,0.0026777442544698715,-0.07909305393695831,0.009020370431244373,-0.019318506121635437,-0.017879096791148186,0.2552614212036133,0.06196179240942001,-0.05232343077659607,2.8153271675109863,0.36526381969451904,0.0,0.0,0.0,-0.005385121330618858,-0.064145028591156,-0.0,0.0,0.0,0.0,0.0011047770967707038,0.004999999888241291,0.002540136454626918,50127.0,0.0,42713.0,17087.0,0.23424214124679565,-0.017416030168533325,0.18687504529953003,0.05716807395219803,0.0,0.0,0.0,0.0,50178.0,0.0,42831.0,17002.0,0.4844113886356354,-0.0431437599143648,-0.332043366884337,0.12008003843835113,0.3593972325325012,-0.027446482330560684,0.18373963236808777
299,5,-0.008964947424829006,0.0009768171003088355,0.0030363723635673523,-0.0992068499326706,-0.052233558148145676,-0.05600348114967346,-0.018872682005167007,0.23325981199741364,0.06461929529905319,-0.07889359444379807,2.5483264923095703,0.3100722134113312,0.0,0.0,0.0,0.03921114653348923,-0.07668708264827728,-0.0,0.0,0.0,0.0,0.0010723149171099067,0.004999999888241291,0.0027057938277721405,51333.0,0.0,44283.0,17368.0,0.24236690998077393,-0.017817944288253784,0.1965414434671402,0.05830781161785126,0.0,0.0,0.0,0.0,51045.0,0.0,43934.0,17847.0,0.4959007501602173,-0.03580026519428199,-0.31725547689817696,0.1258652811168056,0.43938329815864563,0.20452572405338287,0.3076268136501312
304,5,-0.009722844697535038,0.0012756773503497243,0.002588682807981968,-0.13586771488189697,-0.057510510087013245,0.04587548226118088,-0.018872682005167007,0.23325981199741364,0.06461929529905319,-0.07889359444379807,2.5483264923095703,0.3100722134113312,0.0,0.0,0.0,0.039547137916088104,-0.09280946105718613,-0.0,0.0,0.0,0.0,0.0010723149171099067,0.004999999888241291,0.0027057938277721405,51333.0,0.0,44283.0,17368.0,0.24236690998077393,-0.017817944288253784,0.1965414434671402,0.05830781161785126,0.0,0.0,0.0,0.0,51045.0,0.0,43934.0,17847.0,0.5436503291130066,-0.0334323792587388,-0.2786290488088086,0.1322103185428731,0.5827008485794067,0.2261410504579544,0.004653748590499163
309,5,-0.010036355815827847,0.001287038903683424,0.0027746737468987703,-0.08465184271335602,-0.018843768164515495,-0.012276086024940014,-0.019875429570674896,0.20428377389907837,0.06696110218763351,-0.05493056774139404,2.3148584365844727,0.1378432810306549,0.0,0.0,0.0,0.015342503786087036,-0.06756134331226349,-0.0,0.0,0.0,0.0,0.0011405505938455462,0.004999999888241291,0.0025725120212882757,50080.0,0.0,42893.0,19408.0,0.23392809927463531,-0.00924934446811676,0.18797284364700317,0.06674662232398987,0.0,0.0,0.0,0.0,50620.0,0.0,42761.0,19144.0,0.5044910907745361,-0.033744258770726863,-0.27597332656237106,0.1354588894532722,0.3941604793071747,0.08143866062164307,0.1898678094148636
314,5,-0.01060077641159296,0.0012891667429357767,0.003020975273102522,-0.10441439598798752,-0.005951026454567909,-0.03816504403948784,-0.019875429570674896,0.20428377389907837,0.06696110218763351,-0.05493056774139404,2.3148584365844727,0.1378432810306549,0.0,0.0,0.0,0.0062748584896326065,-0.08106007426977158,-0.0,0.0,0.0,0.0,0.0011405505938455462,0.004999999888241291,0.0025725120212882757,50080.0,0.0,42893.0,19408.0,0.23392809927463531,-0.00924934446811676,0.18797284364700317,0.06674662232398987,0.0,0.0,0.0,0.0,50620.0,0.0,42761.0,19144.0,0.5049488544464111,-0.029056625300086607,-0.2607570191464445,0.13353085409889467,0.47321268916130066,0.033338114619255066,0.2797042727470398
319,5,-0.011115891858935356,0.001183033687993884,0.00297374976798892,-0.10344058275222778,0.013073325157165527,-0.004837921354919672,-0.020642215386033058,0.18752968311309814,0.0671599954366684,-0.10881759971380234,1.8960866928100586,0.021717054769396782,0.0,0.0,0.0,-0.007206907030194998,-0.08112982660531998,-0.0,0.0,0.0,0.0,0.001025774865411222,0.004999999888241291,0.0022791370283812284,49511.0,0.0,41880.0,20881.0,0.2301376760005951,-0.0005965232849121094,0.18182942271232605,0.07304644584655762,0.0,0.0,0.0,0.0,50139.0,1463.0,45961.0,26502.0,0.5057330131530762,-0.03305831152017585,-0.2574216077849141,0.1366907034361642,0.4743680953979492,-0.038347627967596054,0.18837600946426392
324,5,-0.011685250326991081,0.001447302638553083,0.003230241360142827,-0.11074229329824448,-0.033075664192438126,-0.03736022114753723,-0.020642215386033058,0.18752968311309814,0.0671599954366684,-0.10881759971380234,1.8960866928100586,0.021717054769396782,0.0,0.0,0.0,0.025446027517318726,-0.08610218018293381,-0.0,0.0,0.0,0.0,0.001025774865411222,0.004999999888241291,0.0022791370283812284,49511.0,0.0,41880.0,20881.0,0.2301376760005951,-0.0005965232849121094,0.18182942271232605,0.07304644584655762,0.0,0.0,0.0,0.0,50139.0,1463.0,45961.0,26502.0,0.5094519853591919,-0.031038366807627563,-0.24375411929087382,0.12673753941603766,0.5069160461425781,0.13638144731521606,0.2988666296005249
329,5,-0.012231798842549324,0.0015354125062003732,0.003364731092005968,-0.10973948985338211,-0.022258082404732704,-0.030036605894565582,-0.021010739728808403,0.16783826053142548,0.06693200021982193,-0.016484737396240234,1.3875199556350708,0.017649145796895027,0.0,0.0,0.0,0.018111826851963997,-0.08679015189409256,-0.0,0.0,0.0,0.0,0.0025653941556811333,0.004844943527132273,0.0022875191643834114,48446.0,5927.0,48007.0,23249.0,0.2231171876192093,0.017173796892166138,0.22024759650230408,0.08354046940803528,0.0,0.0,0.0,0.0,47856.0,6098.0,45652.0,18479.0,0.5067879557609558,-0.02683753849585705,-0.2380667838215962,0.1276091171036098,0.5083725452423096,0.09657406061887741,0.28909847140312195
334,5,-0.01303753163665533,0.0013401517644524574,0.003351075341925025,-0.14572446048259735,0.02065908908843994,-0.007099195849150419,-0.021010739728808403,0.16783826053142548,0.06693200021982193,-0.016484737396240234,1.3875199556350708,0.017649145796895027,0.0,0.0,0.0,-0.011201753281056881,-0.10177608579397202,-0.0,0.0,0.0,0.0,0.0025653941556811333,0.004844943527132273,0.0022875191643834114,48446.0,5927.0,48007.0,23249.0,0.2231171876192093,0.017173796892166138,0.22024759650230408,0.08354046940803528,0.0,0.0,0.0,0.0,47856.0,6098.0,45652.0,18479.0,0.552809476852417,-0.024843941441251165,-0.22064953995255768,0.12438176383311642,0.6500252485275269,-0.06515426188707352,0.2305113971233368
339,5,-0.013293908908963203,0.0014608935452997684,0.003557200077921152,-0.0796101838350296,-0.010706122033298016,-0.03098721243441105,-0.021010739728808403,0.16783826053142548,0.06693200021982193,-0.016484737396240234,1.3875199556350708,0.017649145796895027,0.0,0.0,0.0,0.010057314299046993,-0.06958762556314468,-0.0,0.0,0.0,0.0,0.0025653941556811333,0.004844943527132273,0.0022875191643834114,48446.0,5927.0,48007.0,23249.0,0.2231171876192093,0.017173796892166138,0.22024759650230408,0.08354046940803528,0.0,0.0,0.0,0.0,47856.0,6098.0,45652.0,18479.0,0.5044136047363281,-0.026436636950462344,-0.2295171766351967,0.1255295044080752,0.4059125781059265,0.05337679758667946,0.31557703018188477
345,5,-0.013801970519125462,0.0015794485807418823,0.0035688248462975025,-0.09501160681247711,-0.01980954222381115,-0.010923633351922035,-0.021337252110242844,0.1583016812801361,0.06662583351135254,-0.08646327257156372,0.9699903726577759,-0.09323307871818542,0.0,0.0,0.0,0.016689280048012733,-0.08054284006357193,-0.0,0.0,0.0,0.0,0.0013628173619508743,0.0001097307467716746,0.002238010987639427,43355.0,13588.0,48368.0,14758.0,0.19080404937267303,0.043551698327064514,0.22260816395282745,0.04799662530422211,0.0,0.0,0.0,0.0,41872.0,14138.0,49248.0,16391.0,0.5036738514900208,-0.028017858898018416,-0.23709703631426937,0.12273771665920401,0.4689563810825348,0.08844094723463058,0.26667749881744385
350,5,-0.014560689218342304,0.0011534320656210184,0.003615186084061861,-0.13472415506839752,0.05369944125413895,-0.009767674840986729,-0.021337252110242844,0.1583016812801361,0.06662583351135254,-0.08646327257156372,0.9699903726577759,-0.09323307871818542,0.0,0.0,0.0,-0.03255687281489372,-0.09785646945238113,-0.0,0.0,0.0,0.0,0.0013628173619508743,0.0001097307467716746,0.002238010987639427,43355.0,13588.0,48368.0,14758.0,0.19080404937267303,0.043551698327064514,0.22260816395282745,0.04799662530422211,0.0,0.0,0.0,0.0,41872.0,14138.0,49248.0,16391.0,0.5526551604270935,-0.050403028241976164,-0.2377164557157441,0.12513867984241553,0.6246208548545837,-0.1892683357000351,0.2749707102775574
355,5,-0.01509394682943821,0.001454362296499312,0.003773182863369584,-0.11507328599691391,-0.026020389050245285,-0.025049837306141853,-0.022027140483260155,0.14963504672050476,0.06432259827852249,-0.058520860970020294,0.5484315156936646,-0.2096719741821289,0.0,0.0,0.0,0.02022305689752102,-0.09186522662639618,-0.0,0.0,0.0,0.0,0.001419214648194611,-0.004999999888241291,0.0018365175928920507,37297.0,20773.0,51499.0,12372.0,0.1550697386264801,0.07257751375436783,0.2434939444065094,0.039050497114658356,0.0,0.0,0.0,0.0,37392.0,20925.0,51402.0,12225.0,0.5242842435836792,-0.023612472242712318,-0.22816356507111074,0.11979845777229702,0.5565728545188904,0.11155159026384354,0.3344021439552307
360,5,-0.01562602072954178,0.001660894020460546,0.0036798405926674604,-0.10901239514350891,-0.03672055900096893,0.005552950780838728,-0.022027140483260155,0.14963504672050476,0.06432259827852249,-0.058520860970020294,0.5484315156936646,-0.2096719741821289,0.0,0.0,0.0,0.02787761576473713,-0.08946660906076431,-0.0,0.0,0.0,0.0,0.001419214648194611,-0.004999999888241291,0.0018365175928920507,37297.0,20773.0,51499.0,12372.0,0.1550697386264801,0.07257751375436783,0.2434939444065094,0.039050497114658356,0.0,0.0,0.0,0.0,37392.0,20925.0,51402.0,12225.0,0.5219829082489014,-0.0321798841115679,-0.23000404145672018,0.12033137226271018,0.5395792126655579,0.15308396518230438,0.25288817286491394
365,5,-0.01620546542108059,0.0017061172984540462,0.0035977161023765802,-0.11382602155208588,-0.017347434535622597,0.013163316063582897,-0.021799836307764053,0.14729778468608856,0.06238970533013344,-0.02901962585747242,0.21678060293197632,-0.2482619732618332,0.0,0.0,0.0,0.0146645437926054,-0.09292753785848618,-0.0,0.0,0.0,0.0,-3.99847594962921e-05,-0.004999999888241291,0.0016443398781120777,37219.0,22433.0,49987.0,11697.0,0.15462803840637207,0.07987364381551743,0.2333092987537384,0.03660368174314499,0.0,0.0,0.0,0.0,36517.0,22967.0,49628.0,12781.0,0.524916410446167,-0.03270969377849441,-0.23323534126438827,0.11794936847945639,0.5637011528015137,0.08098998665809631,0.24013866484165192
370,5,-0.016815800219774246,0.0016635202337056398,0.0036533561069518328,-0.11959464848041534,0.0007593660266138613,-0.0038405803497880697,-0.021799836307764053,0.14729778468608856,0.06238970533013344,-0.02901962585747242,0.21678060293197632,-0.2482619732618332,0.0,0.0,0.0,0.002350972732529044,-0.09615308046340942,-0.0,0.0,0.0,0.0,-3.99847594962921e-05,-0.004999999888241291,0.0016443398781120777,37219.0,22433.0,49987.0,11697.0,0.15462803840637207,0.07987364381551743,0.2333092987537384,0.03660368174314499,0.0,0.0,0.0,0.0,36517.0,22967.0,49628.0,12781.0,0.5325086712837219,-0.026321276341401256,-0.23080723758145416,0.11734226990547612,0.5917306542396545,0.01317496970295906,0.3032305836677551
375,5,-0.017461314797401428,0.0016748510533943772,0.003799078520387411,-0.1262502372264862,-0.0013585134875029325,-0.021553318947553635,-0.022134825587272644,0.14716258645057678,0.05863199383020401,-0.07956323772668839,-0.0903330147266388,-0.3353975713253021,0.0,0.0,0.0,0.0037597157061100006,-0.09932180494070053,-0.0,0.0,0.0,0.0,0.002241214970126748,-0.004999999888241291,0.001585383084602654,39702.0,28444.0,49373.0,14372.0,0.16889992356300354,0.1081455871462822,0.22922354936599731,0.0465179905295372,0.0,0.0,0.0,0.0,39310.0,28991.0,48962.0,14967.0,0.5431430339813232,-0.03235900798448732,-0.23794085285026856,0.1159294133479949,0.6233701109886169,0.021488802507519722,0.3698909878730774
380,5,-0.01820450648665428,0.001800665631890297,0.003589640138670802,-0.14192204177379608,-0.018021589145064354,0.02285536751151085,-0.022134825587272644,0.14716258645057678,0.05863199383020401,-0.07956323772668839,-0.0903330147266388,-0.3353975713253021,0.0,0.0,0.0,0.01426952239125967,-0.10545075684785843,-0.0,0.0,0.0,0.0,0.002241214970126748,-0.004999999888241291,0.001585383084602654,39702.0,28444.0,49373.0,14372.0,0.16889992356300354,0.1081455871462822,0.22922354936599731,0.0465179905295372,0.0,0.0,0.0,0.0,39310.0,28991.0,48962.0,14967.0,0.5660004019737244,-0.03039337615995489,-0.23386230344584188,0.11399936021498161,0.6894508004188538,0.08497670292854309,0.24519504606723785
385,5,-0.018963344395160675,0.0017839039210230112,0.0038198265247046947,-0.14881399273872375,-0.003059834474697709,-0.02536948211491108,-0.022024082019925117,0.14839127659797668,0.05599980056285858,-0.028116514906287193,-0.2828964293003082,-0.3393849730491638,0.0,0.0,0.0,0.00481257913634181,-0.1088465005159378,-0.0,0.0,0.0,0.0,0.0012305150739848614,-0.004999999888241291,0.0013678368413820863,35247.0,24664.0,49801.0,16921.0,0.1436421424150467,0.09002982079982758,0.23206524550914764,0.05650170147418976,0.0,0.0,0.0,0.0,34833.0,25149.0,49461.0,17483.0,0.57492995262146,-0.033328919438005075,-0.23170159203910223,0.11029647387984591,0.7228575348854065,0.029112808406352997,0.4044617712497711
390,5,-0.019648905843496323,0.001903121592476964,0.0037211815360933542,-0.1406228244304657,-0.017608432099223137,0.0061994558200240135,-0.022024082019925117,0.14839127659797668,0.05599980056285858,-0.028116514906287193,-0.2828964293003082,-0.3393849730491638,0.0,0.0,0.0,0.01413880567997694,-0.10640130937099457,-0.0,0.0,0.0,0.0,0.0012305150739848614,-0.004999999888241291,0.0013678368413820863,35247.0,24664.0,49801.0,16921.0,0.1436421424150467,0.09002982079982758,0.23206524550914764,0.05650170147418976,0.0,0.0,0.0,0.0,34833.0,25149.0,49461.0,17483.0,0.5690897107124329,-0.028180711068596886,-0.23151556885138314,0.10874604564232658,0.6994404792785645,0.08465790748596191,0.32011181116104126
396,5,-0.02034090831875801,0.0013746237382292747,0.0030163030605763197,-0.13906702399253845,0.0687071681022644,0.1005428358912468,-0.021654784679412842,0.15104638040065765,0.05149829015135765,-0.03156709298491478,-0.24735012650489807,-0.4191977083683014,0.0,0.0,0.0,-0.03956373780965805,-0.10461267083883286,-0.0,0.0,0.0,0.0,0.0016023175558075309,-0.004999999888241291,0.0011332606663927436,35435.0,28170.0,48067.0,17981.0,0.14467377960681915,0.10679291188716888,0.22063736617565155,0.06080527976155281,0.0,0.0,0.0,0.0,35340.0,28466.0,47842.0,18108.0,0.5805272459983826,-0.05568132426876583,-0.25966299486338823,0.1134358159474333,0.7010689973831177,-0.24157993495464325,0.0380089208483696
401,5,-0.021121688187122345,0.0015001349383965135,0.0031994222663342953,-0.15102925896644592,0.0030405905563384295,0.004526142496615648,-0.021654784679412842,0.15104638040065765,0.05149829015135765,-0.03156709298491478,-0.24735012650489807,-0.4191977083683014,0.0,0.0,0.0,0.0009126223740167916,-0.11173342913389206,-0.0,0.0,0.0,0.0,0.0016023175558075309,-0.004999999888241291,0.0011332606663927436,35435.0,28170.0,48067.0,17981.0,0.14467377960681915,0.10679291188716888,0.22063736617565155,0.06080527976155281,0.0,0.0,0.0,0.0,35340.0,28466.0,47842.0,18108.0,0.5841939449310303,-0.04922620786653783,-0.24775717272402448,0.10909150433855577,0.7539463639259338,0.005611976608633995,0.3380146622657776
406,5,-0.022119959816336632,0.0011333075817674398,0.0032716672867536545,-0.18506699800491333,0.05226800590753555,-0.008756441064178944,-0.020368218421936035,0.15405341982841492,0.041534166783094406,-0.009597876109182835,-0.09428488463163376,-0.5223656296730042,0.0,0.0,0.0,-0.027351992204785347,-0.12291654199361801,-0.0,0.0,0.0,0.0,0.0015678161289542913,-0.004999999888241291,0.0009672276210039854,34114.0,32414.0,47573.0,23879.0,0.13747219741344452,0.12840794026851654,0.21742598712444305,0.0864105075597763,0.0,0.0,0.0,0.0,33927.0,32181.0,47513.0,23747.0,0.628097653388977,-0.0707580973979057,-0.2509034586130753,0.10674342943687218,0.8909783363342285,-0.18073271214962006,0.3887879252433777
411,5,-0.022794201970100403,0.00161807204131037,0.0033990012016147375,-0.14991381764411926,-0.052186619490385056,-0.020453685894608498,-0.020368218421936035,0.15405341982841492,0.041534166783094406,-0.009597876109182835,-0.09428488463163376,-0.5223656296730042,0.0,0.0,0.0,0.034067459404468536,-0.11133367568254471,-0.0,0.0,0.0,0.0,0.0015678161289542913,-0.004999999888241291,0.0009672276210039854,34114.0,32414.0,47573.0,23879.0,0.13747219741344452,0.12840794026851654,0.21742598712444305,0.0864105075597763,0.0,0.0,0.0,0.0,33927.0,32181.0,47513.0,23747.0,0.5967355370521545,-0.049854119446364815,-0.24511931001094772,0.09974007556656359,0.7669112086296082,0.21384645998477936,0.4357714354991913
416,5,-0.02355397865176201,0.001617893809452653,0.003412283957004547,-0.15134282410144806,-0.01563103497028351,-0.007995701394975185,-0.020083028823137283,0.1537473201751709,0.038113925606012344,-0.039919156581163406,0.06531286984682083,-0.3985231816768646,0.0,0.0,0.0,0.012346007861196995,-0.11395575106143951,-0.0,0.0,0.0,0.0,0.0010898918844759464,-0.004999999888241291,0.0009626909159123898,35257.0,33634.0,47749.0,24186.0,0.14369389414787292,0.13489124178886414,0.21857133507728577,0.08781746029853821,0.0,0.0,0.0,0.0,33962.0,32431.0,47559.0,24058.0,0.5932914018630981,-0.048109180090866635,-0.25030878048551763,0.09652775216637365,0.7807591557502747,0.07706785947084427,0.40930426120758057
421,5,-0.02442117966711521,0.001566818100400269,0.0034905297216027975,-0.1668110191822052,0.0024612913839519024,-0.013353108428418636,-0.020083028823137283,0.1537473201751709,0.038113925606012344,-0.039919156581163406,0.06531286984682083,-0.3985231816768646,0.0,0.0,0.0,0.0014361627399921417,-0.12010332942008972,-0.0,0.0,0.0,0.0,0.0010898918844759464,-0.004999999888241291,0.0009626909159123898,35257.0,33634.0,47749.0,24186.0,0.14369389414787292,0.13489124178886414,0.21857133507728577,0.08781746029853821,0.0,0.0,0.0,0.0,33962.0,32431.0,47559.0,24058.0,0.6114282608032227,-0.04894091046950485,-0.24545644882409584,0.0947300144477581,0.847916841506958,0.009241568855941296,0.4371301829814911
426,5,-0.025166921317577362,0.0017350204288959503,0.0034909588284790516,-0.1544473022222519,-0.022809948772192,-0.004066011402755976,-0.02164534293115139,0.1514178216457367,0.03379666432738304,-0.25926563143730164,0.23947127163410187,-0.3113263249397278,0.0,0.0,0.0,0.016594264656305313,-0.11642854660749435,-0.0,0.0,0.0,0.0,0.001656496082432568,-0.004999999888241291,0.0009500999003648758,34059.0,31509.0,50410.0,26918.0,0.13717302680015564,0.12367799878120422,0.23613840341567993,0.10069215297698975,0.0,0.0,0.0,0.0,35126.0,33407.0,47936.0,24341.0,0.6027081608772278,-0.04265208819598169,-0.24960888259621397,0.09196022888273936,0.8102356791496277,0.10522811859846115,0.4201832711696625
431,5,-0.02619614079594612,0.0014765546657145023,0.003386001568287611,-0.19042494893074036,0.029342222958803177,0.013474205508828163,-0.02164534293115139,0.1514178216457367,0.03379666432738304,-0.25926563143730164,0.23947127163410187,-0.3113263249397278,0.0,0.0,0.0,-0.013553994707763195,-0.12911798059940338,-0.0,0.0,0.0,0.0,0.001656496082432568,-0.004999999888241291,0.0009500999003648758,34059.0,31509.0,50410.0,26918.0,0.13717302680015564,0.12367799878120422,0.23613840341567993,0.10069215297698975,0.0,0.0,0.0,0.0,35126.0,33407.0,47936.0,24341.0,0.6412146687507629,-0.06063617087284794,-0.22885058009207435,0.09980545472994967,0.9555360078811646,-0.09143994003534317,0.3768896162509918
436,5,-0.02704399637877941,0.0015963526675477624,0.003343623597174883,-0.17582713067531586,-0.007969042286276817,0.009975193999707699,-0.02258020080626011,0.14868377149105072,0.03148176893591881,-0.04162522032856941,0.4290030896663666,-0.3228083848953247,0.0,0.0,0.0,0.007468897383660078,-0.1254255771636963,-0.0,0.0,0.0,0.0,0.0029132370837032795,-0.004999999888241291,0.0010658128885552287,36327.0,34543.0,49102.0,25865.0,0.14962060749530792,0.13979704678058624,0.22743363678455353,0.09565885365009308,0.0,0.0,0.0,0.0,34171.0,31168.0,50672.0,26792.0,0.6287235021591187,-0.06292590222620138,-0.2300461604709304,0.09677073259630913,0.9103323817253113,0.04941119626164436,0.39724546670913696
441,5,-0.02794141136109829,0.0017512752674520016,0.0033497519325464964,-0.1783863604068756,-0.024079881608486176,0.0021345692221075296,-0.02258020080626011,0.14868377149105072,0.03148176893591881,-0.04162522032856941,0.4290030896663666,-0.3228083848953247,0.0,0.0,0.0,0.016604632139205933,-0.12683799862861633,-0.0,0.0,0.0,0.0,0.0029132370837032795,-0.004999999888241291,0.0010658128885552287,36327.0,34543.0,49102.0,25865.0,0.14962060749530792,0.13979704678058624,0.22743363678455353,0.09565885365009308,0.0,0.0,0.0,0.0,34171.0,31168.0,50672.0,26792.0,0.6352485418319702,-0.04866014474964712,-0.21868985817890998,0.09143787603791552,0.9299387335777283,0.11097870022058487,0.43130841851234436
447,5,-0.028954386711120605,0.0018949551740661263,0.003467824310064316,-0.19533228874206543,-0.0273391455411911,-0.015889758244156837,-0.02258020080626011,0.14868377149105072,0.03148176893591881,-0.04162522032856941,0.4290030896663666,-0.3228083848953247,0.0,0.0,0.0,0.018064426258206367,-0.13306573033332825,-0.0,0.0,0.0,0.0,0.0029132370837032795,-0.004999999888241291,0.0010658128885552287,36327.0,34543.0,49102.0,25865.0,0.14962060749530792,0.13979704678058624,0.22743363678455353,0.09565885365009308,0.0,0.0,0.0,0.0,34171.0,31168.0,50672.0,26792.0,0.6541025042533875,-0.03722145133965823,-0.2047028325369446,0.08406397482649937,1.0043009519577026,0.12432018667459488,0.497629314661026
452,5,-0.029701698571443558,0.001949545694515109,0.0034503231290727854,-0.16322341561317444,-0.015844423323869705,-0.002316765021532774,-0.020291538909077644,0.14210590720176697,0.026452302932739258,0.17753945291042328,0.6403180956840515,-0.46750104427337646,0.0,0.0,0.0,0.01245212834328413,-0.12385351955890656,-0.0,0.0,0.0,0.0,0.0006094197160564363,-0.004999999888241291,0.0006345061701722443,37014.0,39625.0,46996.0,28158.0,0.15347012877464294,0.16844862699508667,0.21370479464530945,0.1067320704460144,0.0,0.0,0.0,0.0,36207.0,35449.0,48349.0,26006.0,0.6248723864555359,-0.029069114718475658,-0.200156326366419,0.08242974955246261,0.8933905959129333,0.08186785131692886,0.46739718317985535
457,5,-0.030491771176457405,0.0018869241466745734,0.0037255880888551474,-0.1595771759748459,0.004013685509562492,-0.039232127368450165,-0.020291538909077644,0.14210590720176697,0.026452302932739258,0.17753945291042328,0.6403180956840515,-0.46750104427337646,0.0,0.0,0.0,0.0011314945295453072,-0.12371353805065155,-0.0,0.0,0.0,0.0,0.0006094197160564363,-0.004999999888241291,0.0006345061701722443,37014.0,39625.0,46996.0,28158.0,0.15347012877464294,0.16844862699508667,0.21370479464530945,0.1067320704460144,0.0,0.0,0.0,0.0,36207.0,35449.0,48349.0,26006.0,0.6228466033935547,-0.03698051456549913,-0.2001271487726751,0.08253462495850403,0.8895894885063171,0.007417954038828611,0.5929819941520691
462,5,-0.03140801563858986,0.0021164510399103165,0.003646815661340952,-0.17614726722240448,-0.03092964179813862,-0.0007414744468405843,-0.01913783885538578,0.13503165543079376,0.022380607202649117,0.00508838938549161,1.0533137321472168,-0.4489177167415619,0.0,0.0,0.0,0.020659254863858223,-0.1294245570898056,-0.0,0.0,0.0,0.0,0.00018494871619623154,-0.004167786333709955,0.0004595173813868314,37105.0,36972.0,45870.0,34659.0,0.15398110449314117,0.15323232114315033,0.2065039724111557,0.14042706787586212,0.0,0.0,0.0,0.0,37732.0,36227.0,45150.0,35600.0,0.6444317698478699,-0.030831749829849563,-0.19238656448808544,0.07760569185996521,0.9624879956245422,0.14007265865802765,0.48796501755714417
