timestamp,dt,pos_x,pos_y,pos_z,vel_x,vel_y,vel_z,roll,pitch,yaw,agv_x,agv_y,agv_z,x_ref,y_ref,z_ref,roll_ref,pitch_ref,yaw_ref,x_vel_ref,y_vel_ref,z_vel_ref,x_torque,y_torque,z_torque,w0,w1,w2,w3,u0,u1,u2,u3,m0req,m1req,m2req,m3req,thrust0,thrust1,thrust2,thrust3,thrust_ref,roll_vicon,pitch_vicon,yaw_vicon,acc_x,acc_y,acc_z
5,5,0.0,0.0,0.0,0.0,-0.0,-0.0,0.03527533635497093,0.02319808304309845,0.008778703399002552,-0.0008797225309535861,-0.006607517600059509,-0.0003245091938879341,0.0,0.0,0.0,-0.0,-0.0,-0.0,0.0,0.0,0.0,-0.001152350683696568,-0.0007687671459279954,0.00026118458481505513,0.0,0.0,0.0,0.0,0.0,0.0,0.0,0.0,0.0,0.0,0.0,0.0,0.0,0.0,0.0,0.0,0.3390336036682129,0.0,0.0,0.0,0.0,0.0,0.0
33,28,0.0,0.0,0.0,0.0,-0.0,-0.0,0.03527533635497093,0.02319808304309845,0.008778703399002552,-0.0008797225309535861,-0.006607517600059509,-0.0003245091938879341,0.0,0.0,0.0,-0.0,-0.0,-0.0,0.0,0.0,0.0,-0.001152350683696568,-0.0007687671459279954,0.00026118458481505513,0.0,0.0,0.0,0.0,0.0,0.0,0.0,0.0,0.0,0.0,0.0,0.0,0.0,0.0,0.0,0.0,0.3390336036682129,0.0,0.0,0.0,0.0,0.0,0.0
38,5,0.0,0.0,0.0,0.0,-0.0,-0.0,0.03527533635497093,0.02319808304309845,0.008778703399002552,-0.0008797225309535861,-0.006607517600059509,-0.0003245091938879341,0.0,0.0,0.0,-0.0,-0.0,-0.0,0.0,0.0,0.0,-0.001152350683696568,-0.0007687671459279954,0.00026118458481505513,0.0,0.0,0.0,0.0,0.0,0.0,0.0,0.0,0.0,0.0,0.0,0.0,0.0,0.0,0.0,0.0,0.3390336036682129,0.0,0.0,0.0,0.0,0.0,0.0
49,11,0.0,0.0,0.0,0.0,-0.0,-0.0,0.03527901694178581,0.023225577548146248,0.008767755702137947,0.0008904297137632966,-0.0021239116322249174,-0.0002782657102216035,0.0,0.0,0.0,-0.0,-0.0,-0.0,0.0,0.0,0.0,-0.0011581546859815717,-0.0007796473801136017,0.0002598016581032425,0.0,0.0,0.0,0.0,0.0,0.0,0.0,0.0,0.0,0.0,0.0,0.0,0.0,0.0,0.0,0.0,0.3390336036682129,0.0,0.0,0.0,0.0,0.0,0.0
54,5,0.0,0.0,0.0,0.0,-0.0,-0.0,0.03528529033064842,0.02322891540825367,0.008787821978330612,0.0014554299414157867,-0.004319313447922468,0.0021085150074213743,0.0,0.0,0.0,-0.0,-0.0,-0.0,0.0,0.0,0.0,-0.0011617064010351896,-0.0007822461193427444,0.00026770291151478887,0.0,0.0,0.0,0.0,0.0,0.0,0.0,0.0,0.0,0.0,0.0,0.0,0.0,0.0,0.0,0.0,0.3390336036682129,0.0,0.0,0.0,0.0,0.0,0.0
59,5,0.0,0.0,0.0,0.0,-0.0,-0.0,0.03528529033064842,0.02322891540825367,0.008787821978330612,0.0014554299414157867,-0.004319313447922468,0.0021085150074213743,0.0,0.0,0.0,-0.0,-0.0,-0.0,0.0,0.0,0.0,-0.0011617064010351896,-0.0007822461193427444,0.00026770291151478887,0.0,0.0,0.0,0.0,0.0,0.0,0.0,0.0,0.0,0.0,0.0,0.0,0.0,0.0,0.0,0.0,0.3390336036682129,0.0,0.0,0.0,0.0,0.0,0.0
64,5,0.0,0.0,0.0,0.0,-0.0,-0.0,0.03529416397213936,0.023243675008416176,0.008780675940215588,0.0015646647661924362,-0.0026052354369312525,0.0018551837420091033,0.0,0.0,0.0,-0.0,-0.0,-0.0,0.0,0.0,0.0,-0.0011687827063724399,-0.0007912191795185208,0.0002556416147854179,26157.0,23928.0,25159.0,18517.0,0.09704690426588058,0.08663193136453629,0.09233536571264267,0.06301940232515335,0.0,0.0,0.0,0.0,26168.0,23918.0,25216.0,18452.0,0.3390336036682129,0.0,0.0,0.0,0.0,0.0,0.0
69,5,0.0,0.0,0.0,0.0,-0.0,-0.0,0.03529416397213936,0.023243675008416176,0.008780675940215588,0.0015646647661924362,-0.0026052354369312525,0.0018551837420091033,0.0,0.0,0.0,-0.0,-0.0,-0.0,0.0,0.0,0.0,-0.0011687827063724399,-0.0007912191795185208,0.0002556416147854179,26157.0,23928.0,25159.0,18517.0,0.09704690426588058,0.08663193136453629,0.09233536571264267,0.06301940232515335,0.0,0.0,0.0,0.0,26168.0,23918.0,25216.0,18452.0,0.3390336036682129,0.0,0.0,0.0,0.0,0.0,0.0
74,5,0.0,0.0,0.0,0.0,-0.0,-0.0,0.03531057387590408,0.023255305364727974,0.008793914690613747,0.0014975930098444223,-0.008007077500224113,-0.007161696907132864,0.0,0.0,0.0,-0.0,-0.0,-0.0,0.0,0.0,0.0,-0.0011499212123453617,-0.0008025672868825495,0.0002659275778569281,26021.0,24080.0,25077.0,18597.0,0.09639811515808105,0.08733224868774414,0.09195230901241302,0.06335093080997467,0.0,0.0,0.0,0.0,26046.0,24043.0,25192.0,18479.0,0.3390336036682129,0.0,0.0,0.0,0.0,0.0,0.0
79,5,0.0,0.0,0.0,0.0,-0.0,-0.0,0.03531057387590408,0.023255305364727974,0.008793914690613747,0.0014975930098444223,-0.008007077500224113,-0.007161696907132864,0.0,0.0,0.0,-0.0,-0.0,-0.0,0.0,0.0,0.0,-0.0011499212123453617,-0.0008025672868825495,0.0002659275778569281,26021.0,24080.0,25077.0,18597.0,0.09639811515808105,0.08733224868774414,0.09195230901241302,0.06335093080997467,0.0,0.0,0.0,0.0,26046.0,24043.0,25192.0,18479.0,0.3390336036682129,0.0,0.0,0.0,0.0,0.0,0.0
84,5,0.0,0.0,0.0,0.0,-0.0,-0.0,0.03531326353549957,0.023334769532084465,0.00878713559359312,-0.007090662140399218,3.201451909262687e-05,-0.00813435297459364,0.0,0.0,0.0,-0.0,-0.0,-0.0,0.0,0.0,0.0,-0.001161054358817637,-0.0007281265570782125,0.00020383270748425275,26061.0,23981.0,25123.0,18609.0,0.09658905118703842,0.08687681704759598,0.09216699749231339,0.0634007379412651,0.0,0.0,0.0,0.0,25946.0,24108.0,24989.0,18751.0,0.3390336036682129,0.0,0.0,0.0,0.0,0.0,0.0
94,10,0.0,0.0,0.0,0.0,-0.0,-0.0,0.035314273089170456,0.02335135079920292,0.008590919896960258,0.0015599322505295277,0.01829657144844532,-0.027993548661470413,0.0,0.0,0.0,-0.0,-0.0,-0.0,0.0,0.0,0.0,-0.001161054358817637,-0.0007281265570782125,0.00020383270748425275,25789.0,24308.0,24569.0,19176.0,0.09529894590377808,0.08838221430778503,0.08958485722541809,0.06576758623123169,0.0,0.0,0.0,0.0,26200.0,23903.0,24737.0,18969.0,0.3390336036682129,0.0,0.0,0.0,0.0,0.0,0.0
101,7,0.0,0.0,0.0,0.0,-0.0,-0.0,0.035314273089170456,0.02335135079920292,0.008590919896960258,0.0015599322505295277,0.01829657144844532,-0.027993548661470413,0.0,0.0,0.0,-0.0,-0.0,-0.0,0.0,0.0,0.0,-0.001161054358817637,-0.0007281265570782125,0.00020383270748425275,25789.0,24308.0,24569.0,19176.0,0.09529894590377808,0.08838221430778503,0.08958485722541809,0.06576758623123169,0.0,0.0,0.0,0.0,26200.0,23903.0,24737.0,18969.0,0.3390336036682129,0.0,0.0,0.0,0.0,0.0,0.0
106,5,0.0,0.0,0.0,0.0,-0.0,-0.0,0.035305168479681015,0.02321956306695938,0.008455058559775352,0.011617039330303669,-0.020587163046002388,0.012493101879954338,0.0,0.0,0.0,-0.0,-0.0,-0.0,0.0,0.0,0.0,-0.0011697816662490368,-0.0009472544188611209,0.00024616566952317953,25946.0,24193.0,25271.0,18338.0,0.09604404866695404,0.08785150945186615,0.09286054968833923,0.06227749586105347,0.0,0.0,0.0,0.0,25768.0,24329.0,24940.0,18763.0,0.3390336036682129,0.0,0.0,0.0,0.0,0.0,0.0
111,5,0.0,0.0,0.0,0.0,-0.0,-0.0,0.035305168479681015,0.02321956306695938,0.008455058559775352,0.011617039330303669,-0.020587163046002388,0.012493101879954338,0.0,0.0,0.0,-0.0,-0.0,-0.0,0.0,0.0,0.0,-0.0011697816662490368,-0.0009472544188611209,0.00024616566952317953,25946.0,24193.0,25271.0,18338.0,0.09604404866695404,0.08785150945186615,0.09286054968833923,0.06227749586105347,0.0,0.0,0.0,0.0,25768.0,24329.0,24940.0,18763.0,0.3390336036682129,0.0,0.0,0.0,0.0,0.0,0.0
116,5,0.0,0.0,0.0,0.0,-0.0,-0.0,0.035366643220186234,0.02329167164862156,0.008840402588248253,-0.0204243753105402,-0.010560506023466587,0.017215171828866005,0.0,0.0,0.0,-0.0,-0.0,-0.0,0.0,0.0,0.0,-0.0011448203586041927,-0.0007854377618059516,0.00032704765908420086,26441.0,23535.0,25643.0,18073.0,0.09839905798435211,0.08483909070491791,0.09460936486721039,0.061186086386442184,0.0,0.0,0.0,0.0,26445.0,23727.0,25431.0,18098.0,0.3390336036682129,0.0,0.0,0.0,0.0,0.0,0.0
121,5,0.0,0.0,0.0,0.0,-0.0,-0.0,0.035366643220186234,0.02329167164862156,0.008840402588248253,-0.0204243753105402,-0.010560506023466587,0.017215171828866005,0.0,0.0,0.0,-0.0,-0.0,-0.0,0.0,0.0,0.0,-0.0011448203586041927,-0.0007854377618059516,0.00032704765908420086,26441.0,23535.0,25643.0,18073.0,0.09839905798435211,0.08483909070491791,0.09460936486721039,0.061186086386442184,0.0,0.0,0.0,0.0,26445.0,23727.0,25431.0,18098.0,0.3390336036682129,0.0,0.0,0.0,0.0,0.0,0.0
126,5,0.0,0.0,0.0,0.0,-0.0,-0.0,0.03531863912940025,0.023110123351216316,0.008634865283966064,0.0010984457330778241,0.036348164081573486,0.01904090866446495,0.0,0.0,0.0,-0.0,-0.0,-0.0,0.0,0.0,0.0,-0.0011669747764244676,-0.0005079356487840414,0.00023688543296884745,26474.0,23608.0,24775.0,18935.0,0.09855690598487854,0.08517220616340637,0.09054559469223022,0.06475889682769775,0.0,0.0,0.0,0.0,25891.0,24065.0,25082.0,18757.0,0.3390336036682129,0.0,0.0,0.0,0.0,0.0,0.0
131,5,0.0,0.0,0.0,0.0,-0.0,-0.0,0.03531863912940025,0.023110123351216316,0.008634865283966064,0.0010984457330778241,0.036348164081573486,0.01904090866446495,0.0,0.0,0.0,-0.0,-0.0,-0.0,0.0,0.0,0.0,-0.0011669747764244676,-0.0005079356487840414,0.00023688543296884745,26474.0,23608.0,24775.0,18935.0,0.09855690598487854,0.08517220616340637,0.09054559469223022,0.06475889682769775,0.0,0.0,0.0,0.0,25891.0,24065.0,25082.0,18757.0,0.3390336036682129,0.0,0.0,0.0,0.0,0.0,0.0
137,5,0.0,0.0,0.0,0.0,-0.0,-0.0,0.03531863912940025,0.023110123351216316,0.008634865283966064,0.0010984457330778241,0.036348164081573486,0.01904090866446495,0.0,0.0,0.0,-0.0,-0.0,-0.0,0.0,0.0,0.0,-0.0011669747764244676,-0.0005079356487840414,0.00023688543296884745,26474.0,23608.0,24775.0,18935.0,0.09855690598487854,0.08517220616340637,0.09054559469223022,0.06475889682769775,0.0,0.0,0.0,0.0,25891.0,24065.0,25082.0,18757.0,0.3390336036682129,0.0,0.0,0.0,0.0,0.0,0.0
142,5,0.0,0.0,0.0,0.0,-0.0,-0.0,0.035357438027858734,0.023170989006757736,0.00867213774472475,0.00524456100538373,-0.02961082011461258,-0.03970629721879959,0.0,0.0,0.0,-0.0,-0.0,-0.0,0.0,0.0,0.0,-0.0011901871766895056,-0.0008780393400229514,0.00020792183931916952,25461.0,24706.0,24699.0,18961.0,0.09375343471765518,0.09022191911935806,0.09019193798303604,0.0648663118481636,0.0,0.0,0.0,0.0,26750.0,23290.0,25613.0,18016.0,0.3390336036682129,0.0,0.0,0.0,0.0,0.0,0.0
147,5,0.0,0.0,0.0,0.0,-0.0,-0.0,0.035357438027858734,0.023170989006757736,0.00867213774472475,0.00524456100538373,-0.02961082011461258,-0.03970629721879959,0.0,0.0,0.0,-0.0,-0.0,-0.0,0.0,0.0,0.0,-0.0011901871766895056,-0.0008780393400229514,0.00020792183931916952,25461.0,24706.0,24699.0,18961.0,0.09375343471765518,0.09022191911935806,0.09019193798303604,0.0648663118481636,0.0,0.0,0.0,0.0,26750.0,23290.0,25613.0,18016.0,0.3390336036682129,0.0,0.0,0.0,0.0,0.0,0.0
152,5,0.0,0.0,0.0,0.0,-0.0,-0.0,0.03526315838098526,0.023332204669713974,0.008604384958744049,0.018469184637069702,0.021240828558802605,-0.01655997894704342,0.0,0.0,0.0,-0.0,-0.0,-0.0,0.0,0.0,0.0,-0.0011753529543057084,-0.0006808755570091307,0.00023723827325738966,26087.0,24085.0,24655.0,18989.0,0.09671098738908768,0.0873522236943245,0.08998773247003555,0.06498266011476517,0.0,0.0,0.0,0.0,26220.0,23962.0,25050.0,18530.0,0.3390336036682129,0.0,0.0,0.0,0.0,0.0,0.0
157,5,0.0,0.0,0.0,0.0,-0.0,-0.0,0.03526315838098526,0.023332204669713974,0.008604384958744049,0.018469184637069702,0.021240828558802605,-0.01655997894704342,0.0,0.0,0.0,-0.0,-0.0,-0.0,0.0,0.0,0.0,-0.0011753529543057084,-0.0006808755570091307,0.00023723827325738966,26087.0,24085.0,24655.0,18989.0,0.09671098738908768,0.0873522236943245,0.08998773247003555,0.06498266011476517,0.0,0.0,0.0,0.0,26220.0,23962.0,25050.0,18530.0,0.3390336036682129,0.0,0.0,0.0,0.0,0.0,0.0
162,5,0.0,0.0,0.0,0.0,-0.0,-0.0,0.03537888824939728,0.023482412099838257,0.008588398806750774,-0.0067695677280426025,-0.025581343099474907,-0.028511829674243927,0.0,0.0,0.0,-0.0,-0.0,-0.0,0.0,0.0,0.0,-0.001172077958472073,-0.0009184862137772143,0.000249885895755142,25655.0,24445.0,25035.0,18657.0,0.09466653317213058,0.08901164680719376,0.0917569175362587,0.06359850615262985,0.0,0.0,0.0,0.0,25604.0,24371.0,24879.0,18971.0,0.3390336036682129,0.0,0.0,0.0,0.0,0.0,0.0
167,5,0.0,0.0,0.0,0.0,-0.0,-0.0,0.03537888824939728,0.023482412099838257,0.008588398806750774,-0.0067695677280426025,-0.025581343099474907,-0.028511829674243927,0.0,0.0,0.0,-0.0,-0.0,-0.0,0.0,0.0,0.0,-0.001172077958472073,-0.0009184862137772143,0.000249885895755142,25655.0,24445.0,25035.0,18657.0,0.09466653317213058,0.08901164680719376,0.0917569175362587,0.06359850615262985,0.0,0.0,0.0,0.0,25604.0,24371.0,24879.0,18971.0,0.3390336036682129,0.0,0.0,0.0,0.0,0.0,0.0
172,5,0.0,0.0,0.0,0.0,-0.0,-0.0,0.03534216061234474,0.023273367434740067,0.008556677028536797,0.010072505101561546,-0.012435225769877434,0.0022220893297344446,0.0,0.0,0.0,-0.0,-0.0,-0.0,0.0,0.0,0.0,-0.0012011140352115035,-0.0005953882937319577,0.00026891130255535245,26255.0,23927.0,25023.0,18560.0,0.09751120209693909,0.08662700653076172,0.09169933199882507,0.06319606304168701,0.0,0.0,0.0,0.0,25979.0,24073.0,25273.0,18432.0,0.3390336036682129,0.0,0.0,0.0,0.0,0.0,0.0
177,5,0.0,0.0,0.0,0.0,-0.0,-0.0,0.03534216061234474,0.023273367434740067,0.008556677028536797,0.010072505101561546,-0.012435225769877434,0.0022220893297344446,0.0,0.0,0.0,-0.0,-0.0,-0.0,0.0,0.0,0.0,-0.0012011140352115035,-0.0005953882937319577,0.00026891130255535245,26255.0,23927.0,25023.0,18560.0,0.09751120209693909,0.08662700653076172,0.09169933199882507,0.06319606304168701,0.0,0.0,0.0,0.0,25979.0,24073.0,25273.0,18432.0,0.3390336036682129,0.0,0.0,0.0,0.0,0.0,0.0
182,5,0.0,0.0,0.0,0.0,-0.0,-0.0,0.035233914852142334,0.02328687533736229,0.008505864068865776,-0.018800420686602592,-0.03479902073740959,-0.03314710780978203,0.0,0.0,0.0,-0.0,-0.0,-0.0,0.0,0.0,0.0,-0.0011531884083524346,-0.0007716164691373706,0.0002437696821289137,25561.0,24453.0,25001.0,18793.0,0.09422348439693451,0.08905023336410522,0.09159563481807709,0.06416425108909607,0.0,0.0,0.0,0.0,25716.0,24304.0,24884.0,18912.0,0.3390336036682129,0.0,0.0,0.0,0.0,0.0,0.0
187,5,0.0,0.0,0.0,0.0,-0.0,-0.0,0.035233914852142334,0.02328687533736229,0.008505864068865776,-0.018800420686602592,-0.03479902073740959,-0.03314710780978203,0.0,0.0,0.0,-0.0,-0.0,-0.0,0.0,0.0,0.0,-0.0011531884083524346,-0.0007716164691373706,0.0002437696821289137,25561.0,24453.0,25001.0,18793.0,0.09422348439693451,0.08905023336410522,0.09159563481807709,0.06416425108909607,0.0,0.0,0.0,0.0,25716.0,24304.0,24884.0,18912.0,0.3390336036682129,0.0,0.0,0.0,0.0,0.0,0.0
192,5,0.0,0.0,0.0,0.0,-0.0,-0.0,0.03525623679161072,0.023399271070957184,0.008651354350149632,-0.006884165108203888,-0.003370485035702586,-0.03410131484270096,0.0,0.0,0.0,-0.0,-0.0,-0.0,0.0,0.0,0.0,-0.0011594004463404417,-0.0010535662295296788,0.00028176241903565824,25675.0,24377.0,25199.0,18525.0,0.09476061165332794,0.08869816362857819,0.09252411127090454,0.06305071711540222,0.0,0.0,0.0,0.0,25960.0,24128.0,24379.0,19388.0,0.3390336036682129,0.0,0.0,0.0,0.0,0.0,0.0
197,5,0.0,0.0,0.0,0.0,-0.0,-0.0,0.03525623679161072,0.023399271070957184,0.008651354350149632,-0.006884165108203888,-0.003370485035702586,-0.03410131484270096,0.0,0.0,0.0,-0.0,-0.0,-0.0,0.0,0.0,0.0,-0.0011594004463404417,-0.0010535662295296788,0.00028176241903565824,25675.0,24377.0,25199.0,18525.0,0.09476061165332794,0.08869816362857819,0.09252411127090454,0.06305071711540222,0.0,0.0,0.0,0.0,25960.0,24128.0,24379.0,19388.0,0.3390336036682129,0.0,0.0,0.0,0.0,0.0,0.0
202,5,0.0,0.0,0.0,0.0,-0.0,-0.0,0.03520701453089714,0.023438822478055954,0.00857559498399496,0.0070179300382733345,0.02843639627099037,0.00521257845684886,0.0,0.0,0.0,-0.0,-0.0,-0.0,0.0,0.0,0.0,-0.0011550665367394686,-0.0009333468042314053,0.0002644615015015006,26163.0,23930.0,25043.0,18639.0,0.09707285463809967,0.08664476871490479,0.0917925089597702,0.06352347135543823,0.0,0.0,0.0,0.0,26335.0,23760.0,25128.0,18533.0,0.3390336036682129,0.0,0.0,0.0,0.0,0.0,0.0
208,5,0.0,0.0,0.0,0.0,-0.0,-0.0,0.03520701453089714,0.023438822478055954,0.00857559498399496,0.0070179300382733345,0.02843639627099037,0.00521257845684886,0.0,0.0,0.0,-0.0,-0.0,-0.0,0.0,0.0,0.0,-0.0011550665367394686,-0.0009333468042314053,0.0002644615015015006,26163.0,23930.0,25043.0,18639.0,0.09707285463809967,0.08664476871490479,0.0917925089597702,0.06352347135543823,0.0,0.0,0.0,0.0,26335.0,23760.0,25128.0,18533.0,0.3390336036682129,0.0,0.0,0.0,0.0,0.0,0.0
213,5,0.0,0.0,0.0,0.0,-0.0,-0.0,0.035200465470552444,0.023469723761081696,0.008462445810437202,-0.0021669690031558275,-0.012244263663887978,0.0409158319234848,0.0,0.0,0.0,-0.0,-0.0,-0.0,0.0,0.0,0.0,-0.001144469017162919,-0.0008206066559068859,0.0002595735131762922,26382.0,23657.0,25384.0,18302.0,0.09812130033969879,0.08539417386054993,0.09339016675949097,0.062127962708473206,0.0,0.0,0.0,0.0,26136.0,23949.0,25521.0,18106.0,0.3390336036682129,0.0,0.0,0.0,0.0,0.0,0.0
218,5,0.0,0.0,0.0,0.0,-0.0,-0.0,0.035200465470552444,0.023469723761081696,0.008462445810437202,-0.0021669690031558275,-0.012244263663887978,0.0409158319234848,0.0,0.0,0.0,-0.0,-0.0,-0.0,0.0,0.0,0.0,-0.001144469017162919,-0.0008206066559068859,0.0002595735131762922,26382.0,23657.0,25384.0,18302.0,0.09812130033969879,0.08539417386054993,0.09339016675949097,0.062127962708473206,0.0,0.0,0.0,0.0,26136.0,23949.0,25521.0,18106.0,0.3390336036682129,0.0,0.0,0.0,0.0,0.0,0.0
223,5,0.0,0.0,0.0,0.0,-0.0,-0.0,0.035148315131664276,0.023525578901171684,0.008512003347277641,0.01240037102252245,-0.018585339188575745,0.013541658408939838,0.0,0.0,0.0,-0.0,-0.0,-0.0,0.0,0.0,0.0,-0.0012071154778823256,-0.0010140956146642566,0.00020427181152626872,26101.0,24016.0,25355.0,18263.0,0.09677880257368088,0.08703630417585373,0.09325317293405533,0.061965323984622955,0.0,0.0,0.0,0.0,26170.0,23870.0,25111.0,18621.0,0.3390336036682129,0.0,0.0,0.0,0.0,0.0,0.0
228,5,0.0,0.0,0.0,0.0,-0.0,-0.0,0.035148315131664276,0.023525578901171684,0.008512003347277641,0.01240037102252245,-0.018585339188575745,0.013541658408939838,0.0,0.0,0.0,-0.0,-0.0,-0.0,0.0,0.0,0.0,-0.0012071154778823256,-0.0010140956146642566,0.00020427181152626872,26101.0,24016.0,25355.0,18263.0,0.09677880257368088,0.08703630417585373,0.09325317293405533,0.061965323984622955,0.0,0.0,0.0,0.0,26170.0,23870.0,25111.0,18621.0,0.3390336036682129,0.0,0.0,0.0,0.0,0.0,0.0
233,5,0.0,0.0,0.0,0.0,-0.0,-0.0,0.035148315131664276,0.023525578901171684,0.008512003347277641,0.01240037102252245,-0.018585339188575745,0.013541658408939838,0.0,0.0,0.0,-0.0,-0.0,-0.0,0.0,0.0,0.0,-0.0012071154778823256,-0.0010140956146642566,0.00020427181152626872,26101.0,24016.0,25355.0,18263.0,0.09677880257368088,0.08703630417585373,0.09325317293405533,0.061965323984622955,0.0,0.0,0.0,0.0,26170.0,23870.0,25111.0,18621.0,0.3390336036682129,0.0,0.0,0.0,0.0,0.0,0.0
238,5,0.0,0.0,0.0,0.0,-0.0,-0.0,0.03515908122062683,0.023538026958703995,0.008396324701607227,-0.0006493304972536862,-0.024514371529221535,-0.009539407677948475,0.0,0.0,0.0,-0.0,-0.0,-0.0,0.0,0.0,0.0,-0.0010778378928080201,-0.0007198938401415944,0.00021529305377043784,26041.0,23946.0,24733.0,19106.0,0.09649237245321274,0.08671679347753525,0.09034977108240128,0.06547466665506363,0.0,0.0,0.0,0.0,26329.0,23697.0,25061.0,18685.0,0.3390336036682129,0.0,0.0,0.0,0.0,0.0,0.0
243,5,0.0,0.0,0.0,0.0,-0.0,-0.0,0.03515908122062683,0.023538026958703995,0.008396324701607227,-0.0006493304972536862,-0.024514371529221535,-0.009539407677948475,0.0,0.0,0.0,-0.0,-0.0,-0.0,0.0,0.0,0.0,-0.0010778378928080201,-0.0007198938401415944,0.00021529305377043784,26041.0,23946.0,24733.0,19106.0,0.09649237245321274,0.08671679347753525,0.09034977108240128,0.06547466665506363,0.0,0.0,0.0,0.0,26329.0,23697.0,25061.0,18685.0,0.3390336036682129,0.0,0.0,0.0,0.0,0.0,0.0
248,5,0.0,0.0,0.0,0.0,-0.0,-0.0,0.035135287791490555,0.023404406383633614,0.008216356858611107,-0.006398060824722052,-0.061063721776008606,0.0008879494271241128,0.0,0.0,0.0,-0.0,-0.0,-0.0,0.0,0.0,0.0,-0.0012092337710782886,-0.0008000035304576159,0.00021863693837076426,25605.0,24556.0,25243.0,18355.0,0.09442844241857529,0.08952858299016953,0.09272854775190353,0.06234803423285484,0.0,0.0,0.0,0.0,26105.0,24087.0,25274.0,18271.0,0.3390336036682129,0.0,0.0,0.0,0.0,0.0,0.0
253,5,0.0,0.0,0.0,0.0,-0.0,-0.0,0.035135287791490555,0.023404406383633614,0.008216356858611107,-0.006398060824722052,-0.061063721776008606,0.0008879494271241128,0.0,0.0,0.0,-0.0,-0.0,-0.0,0.0,0.0,0.0,-0.0012092337710782886,-0.0008000035304576159,0.00021863693837076426,25605.0,24556.0,25243.0,18355.0,0.09442844241857529,0.08952858299016953,0.09272854775190353,0.06234803423285484,0.0,0.0,0.0,0.0,26105.0,24087.0,25274.0,18271.0,0.3390336036682129,0.0,0.0,0.0,0.0,0.0,0.0
258,5,0.0,0.0,0.0,0.0,-0.0,-0.0,0.0351819209754467,0.023618850857019424,0.008157473988831043,0.017242994159460068,0.0036819935776293278,-0.0019089991692453623,0.0,0.0,0.0,-0.0,-0.0,-0.0,0.0,0.0,0.0,-0.0011153456289321184,-0.0010292347287759185,0.00020101972040720284,25606.0,24443.0,24846.0,18926.0,0.09443635493516922,0.08900327235460281,0.09087178856134415,0.06472218781709671,0.0,0.0,0.0,0.0,26102.0,23887.0,25066.0,18730.0,0.3390336036682129,0.0,0.0,0.0,0.0,0.0,0.0
263,5,0.0,0.0,0.0,0.0,-0.0,-0.0,0.0351819209754467,0.023618850857019424,0.008157473988831043,0.017242994159460068,0.0036819935776293278,-0.0019089991692453623,0.0,0.0,0.0,-0.0,-0.0,-0.0,0.0,0.0,0.0,-0.0011153456289321184,-0.0010292347287759185,0.00020101972040720284,25606.0,24443.0,24846.0,18926.0,0.09443635493516922,0.08900327235460281,0.09087178856134415,0.06472218781709671,0.0,0.0,0.0,0.0,26102.0,23887.0,25066.0,18730.0,0.3390336036682129,0.0,0.0,0.0,0.0,0.0,0.0
269,5,0.0,0.0,0.0,0.0,-0.0,-0.0,0.035162121057510376,0.023700710386037827,0.008082482032477856,-0.013770497404038906,-0.04947623610496521,0.017737047746777534,0.0,0.0,0.0,-0.0,-0.0,-0.0,0.0,0.0,0.0,-0.0011553793447092175,-0.0008713592542335391,0.0002481627743691206,25820.0,24257.0,25605.0,18032.0,0.09544592350721359,0.08814332634210587,0.09442988783121109,0.06101446598768234,0.0,0.0,0.0,0.0,26037.0,24233.0,25433.0,18004.0,0.3390336036682129,0.0,0.0,0.0,0.0,0.0,0.0
274,5,0.0,0.0,0.0,0.0,-0.0,-0.0,0.035162121057510376,0.023700710386037827,0.008082482032477856,-0.013770497404038906,-0.04947623610496521,0.017737047746777534,0.0,0.0,0.0,-0.0,-0.0,-0.0,0.0,0.0,0.0,-0.0011553793447092175,-0.0008713592542335391,0.0002481627743691206,25820.0,24257.0,25605.0,18032.0,0.09544592350721359,0.08814332634210587,0.09442988783121109,0.06101446598768234,0.0,0.0,0.0,0.0,26037.0,24233.0,25433.0,18004.0,0.3390336036682129,0.0,0.0,0.0,0.0,0.0,0.0
279,5,0.0,0.0,0.0,0.0,-0.0,-0.0,0.034958258271217346,0.02370254136621952,0.00806089024990797,0.006534084677696228,0.030428579077124596,0.009011267684400082,0.0,0.0,0.0,-0.0,-0.0,-0.0,0.0,0.0,0.0,-0.0011467254953458905,-0.0008643618784844875,0.0002230753452749923,26062.0,24002.0,24828.0,18915.0,0.09659282118082047,0.08697289973497391,0.09079176932573318,0.06467611342668533,0.0,0.0,0.0,0.0,26026.0,23789.0,24762.0,19263.0,0.3390336036682129,0.0,0.0,0.0,0.0,0.0,0.0
284,5,0.0,0.0,0.0,0.0,-0.0,-0.0,0.034958258271217346,0.02370254136621952,0.00806089024990797,0.006534084677696228,0.030428579077124596,0.009011267684400082,0.0,0.0,0.0,-0.0,-0.0,-0.0,0.0,0.0,0.0,-0.0011467254953458905,-0.0008643618784844875,0.0002230753452749923,26062.0,24002.0,24828.0,18915.0,0.09659282118082047,0.08697289973497391,0.09079176932573318,0.06467611342668533,0.0,0.0,0.0,0.0,26026.0,23789.0,24762.0,19263.0,0.3390336036682129,0.0,0.0,0.0,0.0,0.0,0.0
289,5,0.0,0.0,0.0,0.0,-0.0,-0.0,0.034965548664331436,0.023787785321474075,0.0079710204154253,0.008476624265313148,0.0031852475367486477,-0.010715322569012642,0.0,0.0,0.0,-0.0,-0.0,-0.0,0.0,0.0,0.0,-0.0011823589447885752,-0.0007524710963480175,0.00025843767798505723,26032.0,24119.0,24974.0,18658.0,0.09645325690507889,0.08750871568918228,0.09146840125322342,0.0636032298207283,0.0,0.0,0.0,0.0,25899.0,24228.0,24918.0,18751.0,0.3390336036682129,0.0,0.0,0.0,0.0,0.0,0.0
294,5,0.0,0.0,0.0,0.0,-0.0,-0.0,0.034965548664331436,0.023787785321474075,0.0079710204154253,0.008476624265313148,0.0031852475367486477,-0.010715322569012642,0.0,0.0,0.0,-0.0,-0.0,-0.0,0.0,0.0,0.0,-0.0011823589447885752,-0.0007524710963480175,0.00025843767798505723,26032.0,24119.0,24974.0,18658.0,0.09645325690507889,0.08750871568918228,0.09146840125322342,0.0636032298207283,0.0,0.0,0.0,0.0,25899.0,24228.0,24918.0,18751.0,0.3390336036682129,0.0,0.0,0.0,0.0,0.0,0.0
299,5,0.0,0.0,0.0,0.0,-0.0,-0.0,0.03493039682507515,0.0236308965831995,0.007967740297317505,-0.0147630600258708,0.03332309052348137,-0.004837087355554104,0.0,0.0,0.0,-0.0,-0.0,-0.0,0.0,0.0,0.0,-0.0011538863182067871,-0.000714798690751195,0.0002599110594019294,26177.0,23780.0,24869.0,18983.0,0.09713897854089737,0.08595570176839828,0.09098175913095474,0.0649571642279625,0.0,0.0,0.0,0.0,25504.0,24632.0,24864.0,18811.0,0.3390336036682129,0.0,0.0,0.0,0.0,0.0,0.0
304,5,0.0,0.0,0.0,0.0,-0.0,-0.0,0.03493039682507515,0.0236308965831995,0.007967740297317505,-0.0147630600258708,0.03332309052348137,-0.004837087355554104,0.0,0.0,0.0,-0.0,-0.0,-0.0,0.0,0.0,0.0,-0.0011538863182067871,-0.000714798690751195,0.0002599110594019294,26177.0,23780.0,24869.0,18983.0,0.09713897854089737,0.08595570176839828,0.09098175913095474,0.0649571642279625,0.0,0.0,0.0,0.0,25504.0,24632.0,24864.0,18811.0,0.3390336036682129,0.0,0.0,0.0,0.0,0.0,0.0
310,5,0.0,0.0,0.0,0.0,-0.0,-0.0,0.035023048520088196,0.02376352809369564,0.007918309420347214,-0.013576514087617397,-0.07156044989824295,-0.01188308373093605,0.0,0.0,0.0,-0.0,-0.0,-0.0,0.0,0.0,0.0,-0.0011703718919306993,-0.0008172040106728673,0.0002269647957291454,25348.0,24725.0,25158.0,18554.0,0.09321985393762589,0.09031226485967636,0.09233038872480392,0.06317109614610672,0.0,0.0,0.0,0.0,25976.0,24053.0,25255.0,18478.0,0.3390336036682129,0.0,0.0,0.0,0.0,0.0,0.0
315,5,0.0,0.0,0.0,0.0,-0.0,-0.0,0.035023048520088196,0.02376352809369564,0.007918309420347214,-0.013576514087617397,-0.07156044989824295,-0.01188308373093605,0.0,0.0,0.0,-0.0,-0.0,-0.0,0.0,0.0,0.0,-0.0011703718919306993,-0.0008172040106728673,0.0002269647957291454,25348.0,24725.0,25158.0,18554.0,0.09321985393762589,0.09031226485967636,0.09233038872480392,0.06317109614610672,0.0,0.0,0.0,0.0,25976.0,24053.0,25255.0,18478.0,0.3390336036682129,0.0,0.0,0.0,0.0,0.0,0.0
320,5,0.0,0.0,0.0,0.0,-0.0,-0.0,0.03497365117073059,0.023956310003995895,0.007922613061964512,0.027342963963747025,-0.013094620779156685,0.010036245919764042,0.0,0.0,0.0,-0.0,-0.0,-0.0,0.0,0.0,0.0,-0.0010845656506717205,-0.0007140919915400445,0.00021546987409237772,25999.0,24062.0,24814.0,18937.0,0.09629323333501816,0.08724667876958847,0.09072678536176682,0.06476690620183945,0.0,0.0,0.0,0.0,25787.0,24398.0,25388.0,18159.0,0.3390336036682129,0.0,0.0,0.0,0.0,0.0,0.0
325,5,0.0,0.0,0.0,0.0,-0.0,-0.0,0.03497365117073059,0.023956310003995895,0.007922613061964512,0.027342963963747025,-0.013094620779156685,0.010036245919764042,0.0,0.0,0.0,-0.0,-0.0,-0.0,0.0,0.0,0.0,-0.0010845656506717205,-0.0007140919915400445,0.00021546987409237772,25999.0,24062.0,24814.0,18937.0,0.09629323333501816,0.08724667876958847,0.09072678536176682,0.06476690620183945,0.0,0.0,0.0,0.0,25787.0,24398.0,25388.0,18159.0,0.3390336036682129,0.0,0.0,0.0,0.0,0.0,0.0
330,5,0.0,0.0,0.0,0.0,-0.0,-0.0,0.03497365117073059,0.023956310003995895,0.007922613061964512,0.027342963963747025,-0.013094620779156685,0.010036245919764042,0.0,0.0,0.0,-0.0,-0.0,-0.0,0.0,0.0,0.0,-0.0010845656506717205,-0.0007140919915400445,0.00021546987409237772,25999.0,24062.0,24814.0,18937.0,0.09629323333501816,0.08724667876958847,0.09072678536176682,0.06476690620183945,0.0,0.0,0.0,0.0,25787.0,24398.0,25388.0,18159.0,0.3390336036682129,0.0,0.0,0.0,0.0,0.0,0.0
335,5,0.0,0.0,0.0,0.0,-0.0,-0.0,0.03500957414507866,0.02421310916543007,0.007932628504931927,0.0031342878937721252,0.03230772912502289,0.0014557713875547051,0.0,0.0,0.0,-0.0,-0.0,-0.0,0.0,0.0,0.0,-0.00116893055383116,-0.001241674181073904,0.0002389102301094681,25687.0,24401.0,25203.0,18481.0,0.09481503069400787,0.08881150186061859,0.092538982629776,0.06286808848381042,0.0,0.0,0.0,0.0,25984.0,24059.0,24809.0,18963.0,0.3390336036682129,0.0,0.0,0.0,0.0,0.0,0.0
340,5,0.0,0.0,0.0,0.0,-0.0,-0.0,0.03500957414507866,0.02421310916543007,0.007932628504931927,0.0031342878937721252,0.03230772912502289,0.0014557713875547051,0.0,0.0,0.0,-0.0,-0.0,-0.0,0.0,0.0,0.0,-0.00116893055383116,-0.001241674181073904,0.0002389102301094681,25687.0,24401.0,25203.0,18481.0,0.09481503069400787,0.08881150186061859,0.092538982629776,0.06286808848381042,0.0,0.0,0.0,0.0,25984.0,24059.0,24809.0,18963.0,0.3390336036682129,0.0,0.0,0.0,0.0,0.0,0.0
345,5,0.0,0.0,0.0,0.0,-0.0,-0.0,0.03492816910147667,0.024240048602223396,0.00797890406101942,-0.013697750866413116,-0.015366987325251102,-0.0006705858395434916,0.0,0.0,0.0,-0.0,-0.0,-0.0,0.0,0.0,0.0,-0.0011803037486970425,-0.0006951126269996166,0.00028604117687791586,26083.0,23996.0,25329.0,18335.0,0.0966939777135849,0.08694346249103546,0.09313048422336578,0.062265679240226746,0.0,0.0,0.0,0.0,25983.0,23971.0,24505.0,19396.0,0.3390336036682129,0.0,0.0,0.0,0.0,0.0,0.0
350,5,0.0,0.0,0.0,0.0,-0.0,-0.0,0.03492816910147667,0.024240048602223396,0.00797890406101942,-0.013697750866413116,-0.015366987325251102,-0.0006705858395434916,0.0,0.0,0.0,-0.0,-0.0,-0.0,0.0,0.0,0.0,-0.0011803037486970425,-0.0006951126269996166,0.00028604117687791586,26083.0,23996.0,25329.0,18335.0,0.0966939777135849,0.08694346249103546,0.09313048422336578,0.062265679240226746,0.0,0.0,0.0,0.0,25983.0,23971.0,24505.0,19396.0,0.3390336036682129,0.0,0.0,0.0,0.0,0.0,0.0
355,5,0.0,0.0,0.0,0.0,-0.0,-0.0,0.03496337682008743,0.023932648822665215,0.007994108833372593,0.010129588656127453,-0.010990121401846409,0.00915155652910471,0.0,0.0,0.0,-0.0,-0.0,-0.0,0.0,0.0,0.0,-0.0011668691877275705,-0.0003620788629632443,0.00023788439284544438,26372.0,23724.0,24607.0,19112.0,0.09807281196117401,0.08570018410682678,0.08976198732852936,0.06549862027168274,0.0,0.0,0.0,0.0,25687.0,24441.0,25407.0,18204.0,0.3390336036682129,0.0,0.0,0.0,0.0,0.0,0.0
360,5,0.0,0.0,0.0,0.0,-0.0,-0.0,0.03496337682008743,0.023932648822665215,0.007994108833372593,0.010129588656127453,-0.010990121401846409,0.00915155652910471,0.0,0.0,0.0,-0.0,-0.0,-0.0,0.0,0.0,0.0,-0.0011668691877275705,-0.0003620788629632443,0.00023788439284544438,26372.0,23724.0,24607.0,19112.0,0.09807281196117401,0.08570018410682678,0.08976198732852936,0.06549862027168274,0.0,0.0,0.0,0.0,25687.0,24441.0,25407.0,18204.0,0.3390336036682129,0.0,0.0,0.0,0.0,0.0,0.0
365,5,0.0,0.0,0.0,0.0,-0.0,-0.0,0.03494669124484062,0.024050988256931305,0.007987146265804768,-0.004039136227220297,0.007357456721365452,0.005875641945749521,0.0,0.0,0.0,-0.0,-0.0,-0.0,0.0,0.0,0.0,-0.0011048981687054038,-0.0010424595093354583,0.00020163320004940033,25546.0,24436.0,24941.0,18895.0,0.09415437281131744,0.08897282183170319,0.09131680428981781,0.06458960473537445,0.0,0.0,0.0,0.0,26217.0,23798.0,25314.0,18416.0,0.3390336036682129,0.0,0.0,0.0,0.0,0.0,0.0
370,5,0.0,0.0,0.0,0.0,-0.0,-0.0,0.03494669124484062,0.024050988256931305,0.007987146265804768,-0.004039136227220297,0.007357456721365452,0.005875641945749521,0.0,0.0,0.0,-0.0,-0.0,-0.0,0.0,0.0,0.0,-0.0011048981687054038,-0.0010424595093354583,0.00020163320004940033,25546.0,24436.0,24941.0,18895.0,0.09415437281131744,0.08897282183170319,0.09131680428981781,0.06458960473537445,0.0,0.0,0.0,0.0,26217.0,23798.0,25314.0,18416.0,0.3390336036682129,0.0,0.0,0.0,0.0,0.0,0.0
375,5,0.0,0.0,0.0,0.0,-0.0,-0.0,0.034882038831710815,0.02403104491531849,0.008092568255960941,0.018344972282648087,0.04062547907233238,0.01711760088801384,0.0,0.0,0.0,-0.0,-0.0,-0.0,0.0,0.0,0.0,-0.001152950106188655,-0.0006333811907097697,0.0002497199166100472,26481.0,23679.0,25304.0,18254.0,0.09859149903059006,0.0854964628815651,0.09301411360502243,0.06193152815103531,0.0,0.0,0.0,0.0,26164.0,23900.0,24804.0,18938.0,0.3390336036682129,0.0,0.0,0.0,0.0,0.0,0.0
380,5,0.0,0.0,0.0,0.0,-0.0,-0.0,0.034882038831710815,0.02403104491531849,0.008092568255960941,0.018344972282648087,0.04062547907233238,0.01711760088801384,0.0,0.0,0.0,-0.0,-0.0,-0.0,0.0,0.0,0.0,-0.001152950106188655,-0.0006333811907097697,0.0002497199166100472,26481.0,23679.0,25304.0,18254.0,0.09859149903059006,0.0854964628815651,0.09301411360502243,0.06193152815103531,0.0,0.0,0.0,0.0,26164.0,23900.0,24804.0,18938.0,0.3390336036682129,0.0,0.0,0.0,0.0,0.0,0.0
385,5,0.0,0.0,0.0,0.0,-0.0,-0.0,0.034942638128995895,0.023973185569047928,0.008130031637847424,-0.005574604030698538,-0.03152579441666603,-0.004036718513816595,0.0,0.0,0.0,-0.0,-0.0,-0.0,0.0,0.0,0.0,-0.001114239334128797,-0.0009833590593189,0.00023857889755163342,25703.0,24265.0,25422.0,18364.0,0.09489370882511139,0.08818385004997253,0.0935700386762619,0.062386006116867065,0.0,0.0,0.0,0.0,25689.0,24411.0,25349.0,18302.0,0.3390336036682129,0.0,0.0,0.0,0.0,0.0,0.0
390,5,0.0,0.0,0.0,0.0,-0.0,-0.0,0.034942638128995895,0.023973185569047928,0.008130031637847424,-0.005574604030698538,-0.03152579441666603,-0.004036718513816595,0.0,0.0,0.0,-0.0,-0.0,-0.0,0.0,0.0,0.0,-0.001114239334128797,-0.0009833590593189,0.00023857889755163342,25703.0,24265.0,25422.0,18364.0,0.09489370882511139,0.08818385004997253,0.0935700386762619,0.062386006116867065,0.0,0.0,0.0,0.0,25689.0,24411.0,25349.0,18302.0,0.3390336036682129,0.0,0.0,0.0,0.0,0.0,0.0
395,5,0.0,0.0,0.0,0.0,-0.0,-0.0,0.034870695322752,0.024122245609760284,0.008181480690836906,-0.008488674648106098,-0.02981685847043991,0.019058043137192726,0.0,0.0,0.0,-0.0,-0.0,-0.0,0.0,0.0,0.0,-0.0012214945163577795,-0.0009470220538787544,0.0002659391611814499,26138.0,24125.0,25115.0,18371.0,0.09695397317409515,0.08753971755504608,0.09212666749954224,0.06241324543952942,0.0,0.0,0.0,0.0,26264.0,23870.0,25378.0,18210.0,0.3390336036682129,0.0,0.0,0.0,0.0,0.0,0.0
401,5,0.0,0.0,0.0,0.0,-0.0,-0.0,0.034870695322752,0.024122245609760284,0.008181480690836906,-0.008488674648106098,-0.02981685847043991,0.019058043137192726,0.0,0.0,0.0,-0.0,-0.0,-0.0,0.0,0.0,0.0,-0.0012214945163577795,-0.0009470220538787544,0.0002659391611814499,26138.0,24125.0,25115.0,18371.0,0.09695397317409515,0.08753971755504608,0.09212666749954224,0.06241324543952942,0.0,0.0,0.0,0.0,26264.0,23870.0,25378.0,18210.0,0.3390336036682129,0.0,0.0,0.0,0.0,0.0,0.0
406,5,0.0,0.0,0.0,0.0,-0.0,-0.0,0.03490815311670303,0.02427208609879017,0.008363191038370132,-0.012811430729925632,-0.010983161628246307,-0.008418014273047447,0.0,0.0,0.0,-0.0,-0.0,-0.0,0.0,0.0,0.0,-0.0011045006103813648,-0.0005345337558537722,0.0002610576048027724,26078.0,23875.0,24911.0,18945.0,0.09666851162910461,0.08639131486415863,0.091175377368927,0.06479839980602264,0.0,0.0,0.0,0.0,25970.0,24039.0,24929.0,18867.0,0.3390336036682129,0.0,0.0,0.0,0.0,0.0,0.0
411,5,0.0,0.0,0.0,0.0,-0.0,-0.0,0.03490815311670303,0.02427208609879017,0.008363191038370132,-0.012811430729925632,-0.010983161628246307,-0.008418014273047447,0.0,0.0,0.0,-0.0,-0.0,-0.0,0.0,0.0,0.0,-0.0011045006103813648,-0.0005345337558537722,0.0002610576048027724,26078.0,23875.0,24911.0,18945.0,0.09666851162910461,0.08639131486415863,0.091175377368927,0.06479839980602264,0.0,0.0,0.0,0.0,25970.0,24039.0,24929.0,18867.0,0.3390336036682129,0.0,0.0,0.0,0.0,0.0,0.0
416,5,0.0,0.0,0.0,0.0,-0.0,-0.0,0.0343824066221714,0.02356126718223095,0.00851411186158657,-0.06784028559923172,0.11531231552362442,0.02386990375816822,0.0,0.0,0.0,-0.0,-0.0,-0.0,0.0,0.0,0.0,-0.0009339142707176507,-0.0002843764377757907,0.0002577923587523401,26723.0,22727.0,24754.0,19620.0,0.09975575655698776,0.08118938654661179,0.09044788032770157,0.06764058023691177,0.0,0.0,0.0,0.0,26061.0,23856.0,25195.0,18666.0,0.3390336036682129,0.0,0.0,0.0,0.0,0.0,0.0
421,5,0.0,0.0,0.0,0.0,-0.0,-0.0,0.0343824066221714,0.02356126718223095,0.00851411186158657,-0.06784028559923172,0.11531231552362442,0.02386990375816822,0.0,0.0,0.0,-0.0,-0.0,-0.0,0.0,0.0,0.0,-0.0009339142707176507,-0.0002843764377757907,0.0002577923587523401,26723.0,22727.0,24754.0,19620.0,0.09975575655698776,0.08118938654661179,0.09044788032770157,0.06764058023691177,0.0,0.0,0.0,0.0,26061.0,23856.0,25195.0,18666.0,0.3390336036682129,0.0,0.0,0.0,0.0,0.0,0.0
426,5,0.0,0.0,0.0,0.0,-0.0,-0.0,0.0343824066221714,0.02356126718223095,0.00851411186158657,-0.06784028559923172,0.11531231552362442,0.02386990375816822,0.0,0.0,0.0,-0.0,-0.0,-0.0,0.0,0.0,0.0,-0.0009339142707176507,-0.0002843764377757907,0.0002577923587523401,26723.0,22727.0,24754.0,19620.0,0.09975575655698776,0.08118938654661179,0.09044788032770157,0.06764058023691177,0.0,0.0,0.0,0.0,26061.0,23856.0,25195.0,18666.0,0.3390336036682129,0.0,0.0,0.0,0.0,0.0,0.0
431,5,0.0,0.0,0.0,0.0,-0.0,-0.0,0.03380595147609711,0.02207597717642784,0.008500923402607441,-0.08506084978580475,0.27989470958709717,-0.0027748835273087025,0.0,0.0,0.0,-0.0,-0.0,-0.0,0.0,0.0,0.0,-0.0009462732705287635,0.00047441766946576536,0.0002565452887210995,27722.0,21591.0,23302.0,21218.0,0.10459310561418533,0.07614471763372421,0.08378272503614426,0.07451305538415909,0.0,0.0,0.0,0.0,27118.0,22365.0,24122.0,20240.0,0.3390336036682129,0.0,0.0,0.0,0.0,0.0,0.0
436,5,0.0,0.0,0.0,0.0,-0.0,-0.0,0.03380595147609711,0.02207597717642784,0.008500923402607441,-0.08506084978580475,0.27989470958709717,-0.0027748835273087025,0.0,0.0,0.0,-0.0,-0.0,-0.0,0.0,0.0,0.0,-0.0009462732705287635,0.00047441766946576536,0.0002565452887210995,27722.0,21591.0,23302.0,21218.0,0.10459310561418533,0.07614471763372421,0.08378272503614426,0.07451305538415909,0.0,0.0,0.0,0.0,27118.0,22365.0,24122.0,20240.0,0.3390336036682129,0.0,0.0,0.0,0.0,0.0,0.0
441,5,0.0,0.0,0.0,0.0,-0.0,-0.0,0.03264006972312927,0.018848642706871033,0.008650478906929493,-0.09315646439790726,0.2725641131401062,0.023898981511592865,0.0,0.0,0.0,-0.0,-0.0,-0.0,0.0,0.0,0.0,-0.0008501908741891384,0.0009591398993507028,0.00027619104366749525,27942.0,21121.0,23477.0,21260.0,0.10567449033260345,0.07409048080444336,0.0845746248960495,0.07469400763511658,0.0,0.0,0.0,0.0,29215.0,19862.0,23970.0,20536.0,0.3390336036682129,0.0,0.0,0.0,0.0,0.0,0.0
446,5,0.0,0.0,0.0,0.0,-0.0,-0.0,0.03264006972312927,0.018848642706871033,0.008650478906929493,-0.09315646439790726,0.2725641131401062,0.023898981511592865,0.0,0.0,0.0,-0.0,-0.0,-0.0,0.0,0.0,0.0,-0.0008501908741891384,0.0009591398993507028,0.00027619104366749525,27942.0,21121.0,23477.0,21260.0,0.10567449033260345,0.07409048080444336,0.0845746248960495,0.07469400763511658,0.0,0.0,0.0,0.0,29215.0,19862.0,23970.0,20536.0,0.3390336036682129,0.0,0.0,0.0,0.0,0.0,0.0
451,5,0.0,0.0,0.0,0.0,-0.0,-0.0,0.0321391262114048,0.016795584931969643,0.009378517046570778,-0.08134165406227112,0.10112330317497253,0.04741419479250908,0.0,0.0,0.0,-0.0,-0.0,-0.0,0.0,0.0,0.0,-0.0008774991729296744,0.00019687795429490507,0.0004007672250736505,27707.0,21459.0,25582.0,18904.0,0.10451991111040115,0.07556458562612534,0.09431961923837662,0.06462948769330978,0.0,0.0,0.0,0.0,26874.0,22175.0,24635.0,20157.0,0.3390336036682129,0.0,0.0,0.0,0.0,0.0,0.0
456,5,0.0,0.0,0.0,0.0,-0.0,-0.0,0.0321391262114048,0.016795584931969643,0.009378517046570778,-0.08134165406227112,0.10112330317497253,0.04741419479250908,0.0,0.0,0.0,-0.0,-0.0,-0.0,0.0,0.0,0.0,-0.0008774991729296744,0.00019687795429490507,0.0004007672250736505,27707.0,21459.0,25582.0,18904.0,0.10451991111040115,0.07556458562612534,0.09431961923837662,0.06462948769330978,0.0,0.0,0.0,0.0,26874.0,22175.0,24635.0,20157.0,0.3390336036682129,0.0,0.0,0.0,0.0,0.0,0.0
461,5,0.0,0.0,0.0,0.0,-0.0,-0.0,0.03028014861047268,0.017335493117570877,0.009260430000722408,-0.2352379858493805,-0.24744153022766113,-0.035298433154821396,0.0,0.0,0.0,-0.0,-0.0,-0.0,0.0,0.0,0.0,-0.0006395108648575842,-0.0009227113914676011,0.00022992683807387948,24109.0,24313.0,26496.0,18872.0,0.08746518939733505,0.08840569108724594,0.09866542369127274,0.06449729949235916,0.0,0.0,0.0,0.0,23120.0,25049.0,27445.0,18031.0,0.3390336036682129,0.0,0.0,0.0,0.0,0.0,0.0
466,5,0.0,0.0,0.0,0.0,-0.0,-0.0,0.03028014861047268,0.017335493117570877,0.009260430000722408,-0.2352379858493805,-0.24744153022766113,-0.035298433154821396,0.0,0.0,0.0,-0.0,-0.0,-0.0,0.0,0.0,0.0,-0.0006395108648575842,-0.0009227113914676011,0.00022992683807387948,24109.0,24313.0,26496.0,18872.0,0.08746518939733505,0.08840569108724594,0.09866542369127274,0.06449729949235916,0.0,0.0,0.0,0.0,23120.0,25049.0,27445.0,18031.0,0.3390336036682129,0.0,0.0,0.0,0.0,0.0,0.0
472,5,0.0,0.0,0.0,0.0,-0.0,-0.0,0.02822073921561241,0.019470052793622017,0.009026982821524143,-0.3044624924659729,-0.3650865852832794,0.01701066642999649,0.0,0.0,0.0,-0.0,-0.0,-0.0,0.0,0.0,0.0,-0.0002520778216421604,-0.0026036580093204975,0.00025335635291412473,22491.0,25162.0,28793.0,16965.0,0.08013316988945007,0.09234751760959625,0.10987481474876404,0.05667810142040253,0.0,0.0,0.0,0.0,22915.0,24536.0,28813.0,17190.0,0.3390336036682129,0.0,0.0,0.0,0.0,0.0,0.0
477,5,0.0,0.0,0.0,0.0,-0.0,-0.0,0.02822073921561241,0.019470052793622017,0.009026982821524143,-0.3044624924659729,-0.3650865852832794,0.01701066642999649,0.0,0.0,0.0,-0.0,-0.0,-0.0,0.0,0.0,0.0,-0.0002520778216421604,-0.0026036580093204975,0.00025335635291412473,22491.0,25162.0,28793.0,16965.0,0.08013316988945007,0.09234751760959625,0.10987481474876404,0.05667810142040253,0.0,0.0,0.0,0.0,22915.0,24536.0,28813.0,17190.0,0.3390336036682129,0.0,0.0,0.0,0.0,0.0,0.0
482,5,0.0,0.0,0.0,0.0,-0.0,-0.0,0.024709556251764297,0.022992439568042755,0.009175878018140793,-0.27169427275657654,-0.22834175825119019,0.004466689191758633,0.0,0.0,0.0,-0.0,-0.0,-0.0,0.0,0.0,0.0,-0.00015996454749256372,-0.0021013126242905855,0.0003236129123251885,23710.0,23796.0,28085.0,18026.0,0.08563899248838425,0.08603177219629288,0.10637295991182327,0.060989875346422195,0.0,0.0,0.0,0.0,22590.0,24576.0,28813.0,17505.0,0.3390336036682129,0.0,0.0,0.0,0.0,0.0,0.0
487,5,0.0,0.0,0.0,0.0,-0.0,-0.0,0.024709556251764297,0.022992439568042755,0.009175878018140793,-0.27169427275657654,-0.22834175825119019,0.004466689191758633,0.0,0.0,0.0,-0.0,-0.0,-0.0,0.0,0.0,0.0,-0.00015996454749256372,-0.0021013126242905855,0.0003236129123251885,23710.0,23796.0,28085.0,18026.0,0.08563899248838425,0.08603177219629288,0.10637295991182327,0.060989875346422195,0.0,0.0,0.0,0.0,22590.0,24576.0,28813.0,17505.0,0.3390336036682129,0.0,0.0,0.0,0.0,0.0,0.0
492,5,0.0,0.0,0.0,0.0,-0.0,-0.0,0.024709556251764297,0.022992439568042755,0.009175878018140793,-0.27169427275657654,-0.22834175825119019,0.004466689191758633,0.0,0.0,0.0,-0.0,-0.0,-0.0,0.0,0.0,0.0,-0.00015996454749256372,-0.0021013126242905855,0.0003236129123251885,23710.0,23796.0,28085.0,18026.0,0.08563899248838425,0.08603177219629288,0.10637295991182327,0.060989875346422195,0.0,0.0,0.0,0.0,22590.0,24576.0,28813.0,17505.0,0.3390336036682129,0.0,0.0,0.0,0.0,0.0,0.0
497,5,0.0,0.0,0.0,0.0,-0.0,-0.0,0.022255010902881622,0.024565253406763077,0.009062143042683601,-0.25358226895332336,-0.043231427669525146,0.00014634810213465244,0.0,0.0,0.0,-0.0,-0.0,-0.0,0.0,0.0,0.0,7.772398384986445e-05,-0.0003634764871094376,0.0002868525043595582,23998.0,23239.0,27155.0,19408.0,0.08695382624864578,0.08349689096212387,0.10183966904878616,0.06674321740865707,0.0,0.0,0.0,0.0,24427.0,22556.0,27028.0,19814.0,0.3390336036682129,0.0,0.0,0.0,0.0,0.0,0.0
502,5,0.0,0.0,0.0,0.0,-0.0,-0.0,0.022255010902881622,0.024565253406763077,0.009062143042683601,-0.25358226895332336,-0.043231427669525146,0.00014634810213465244,0.0,0.0,0.0,-0.0,-0.0,-0.0,0.0,0.0,0.0,7.772398384986445e-05,-0.0003634764871094376,0.0002868525043595582,23998.0,23239.0,27155.0,19408.0,0.08695382624864578,0.08349689096212387,0.10183966904878616,0.06674321740865707,0.0,0.0,0.0,0.0,24427.0,22556.0,27028.0,19814.0,0.3390336036682129,0.0,0.0,0.0,0.0,0.0,0.0
507,5,0.0,0.0,0.0,0.0,-0.0,-0.0,0.018913252279162407,0.023923011496663094,0.009110101498663425,-0.26718252897262573,0.22665221989154816,-0.0006607999675907195,0.0,0.0,0.0,-0.0,-0.0,-0.0,0.0,0.0,0.0,0.00012406201858539134,0.00039071295759640634,0.0002590103540569544,25252.0,21512.0,26389.0,20712.0,0.09277161210775375,0.07579734176397324,0.09815209358930588,0.07231255620718002,0.0,0.0,0.0,0.0,25666.0,21205.0,25435.0,21610.0,0.3390336036682129,0.0,0.0,0.0,0.0,0.0,0.0
512,5,0.0,0.0,0.0,0.0,-0.0,-0.0,0.018913252279162407,0.023923011496663094,0.009110101498663425,-0.26718252897262573,0.22665221989154816,-0.0006607999675907195,0.0,0.0,0.0,-0.0,-0.0,-0.0,0.0,0.0,0.0,0.00012406201858539134,0.00039071295759640634,0.0002590103540569544,25252.0,21512.0,26389.0,20712.0,0.09277161210775375,0.07579734176397324,0.09815209358930588,0.07231255620718002,0.0,0.0,0.0,0.0,25666.0,21205.0,25435.0,21610.0,0.3390336036682129,0.0,0.0,0.0,0.0,0.0,0.0
517,5,0.0,0.0,0.0,0.0,-0.0,-0.0,0.016634320840239525,0.02251693606376648,0.009087827987968922,-0.29234498739242554,0.19319292902946472,0.00833391584455967,0.0,0.0,0.0,-0.0,-0.0,-0.0,0.0,0.0,0.0,1.4343791008286644e-05,0.000716160808224231,0.0002764941309578717,26490.0,20382.0,25048.0,21942.0,0.0986340269446373,0.07089114934206009,0.09181643277406693,0.07769199460744858,0.0,0.0,0.0,0.0,27150.0,19453.0,24867.0,22308.0,0.3390336036682129,0.0,0.0,0.0,0.0,0.0,0.0
522,5,0.0,0.0,0.0,0.0,-0.0,-0.0,0.016634320840239525,0.02251693606376648,0.009087827987968922,-0.29234498739242554,0.19319292902946472,0.00833391584455967,0.0,0.0,0.0,-0.0,-0.0,-0.0,0.0,0.0,0.0,1.4343791008286644e-05,0.000716160808224231,0.0002764941309578717,26490.0,20382.0,25048.0,21942.0,0.0986340269446373,0.07089114934206009,0.09181643277406693,0.07769199460744858,0.0,0.0,0.0,0.0,27150.0,19453.0,24867.0,22308.0,0.3390336036682129,0.0,0.0,0.0,0.0,0.0,0.0
527,5,0.0,0.0,0.0,0.0,-0.0,-0.0,0.012230257503688335,0.018659481778740883,0.009025049395859241,-0.17581649124622345,0.04208168759942055,-0.008989321067929268,0.0,0.0,0.0,-0.0,-0.0,-0.0,0.0,0.0,0.0,-1.3411907275440171e-05,0.00020604574820026755,0.0002500670379959047,25816.0,21159.0,25248.0,21695.0,0.09542741626501083,0.07425294071435928,0.09275110810995102,0.07660213857889175,0.0,0.0,0.0,0.0,26050.0,20712.0,24775.0,22380.0,0.3390336036682129,0.0,0.0,0.0,0.0,0.0,0.0
532,5,0.0,0.0,0.0,0.0,-0.0,-0.0,0.012230257503688335,0.018659481778740883,0.009025049395859241,-0.17581649124622345,0.04208168759942055,-0.008989321067929268,0.0,0.0,0.0,-0.0,-0.0,-0.0,0.0,0.0,0.0,-1.3411907275440171e-05,0.00020604574820026755,0.0002500670379959047,25816.0,21159.0,25248.0,21695.0,0.09542741626501083,0.07425294071435928,0.09275110810995102,0.07660213857889175,0.0,0.0,0.0,0.0,26050.0,20712.0,24775.0,22380.0,0.3390336036682129,0.0,0.0,0.0,0.0,0.0,0.0
537,5,0.0,0.0,0.0,0.0,-0.0,-0.0,0.01006928738206625,0.019076025113463402,0.00887824036180973,-0.14341233670711517,-0.045354004949331284,-0.009458551183342934,0.0,0.0,0.0,-0.0,-0.0,-0.0,0.0,0.0,0.0,5.674449130310677e-05,-0.0013131049927324057,0.00022659078240394592,24140.0,22856.0,26766.0,20104.0,0.08760608732700348,0.081767737865448,0.0999591201543808,0.06970065832138062,0.0,0.0,0.0,0.0,24366.0,22257.0,26863.0,20376.0,0.3390336036682129,0.0,0.0,0.0,0.0,0.0,0.0
543,5,0.0,0.0,0.0,0.0,-0.0,-0.0,0.01006928738206625,0.019076025113463402,0.00887824036180973,-0.14341233670711517,-0.045354004949331284,-0.009458551183342934,0.0,0.0,0.0,-0.0,-0.0,-0.0,0.0,0.0,0.0,5.674449130310677e-05,-0.0013131049927324057,0.00022659078240394592,24140.0,22856.0,26766.0,20104.0,0.08760608732700348,0.081767737865448,0.0999591201543808,0.06970065832138062,0.0,0.0,0.0,0.0,24366.0,22257.0,26863.0,20376.0,0.3390336036682129,0.0,0.0,0.0,0.0,0.0,0.0
548,5,0.0,0.0,0.0,0.0,-0.0,-0.0,0.009086109697818756,0.020556271076202393,0.008717171847820282,-0.09340758621692657,-0.21047253906726837,-0.026994770392775536,0.0,0.0,0.0,-0.0,-0.0,-0.0,0.0,0.0,0.0,5.0171038310509175e-06,-0.001984454458579421,0.00023369026894215494,22765.0,24363.0,27664.0,18928.0,0.08135871589183807,0.08863352239131927,0.1043129414319992,0.06472842395305634,0.0,0.0,0.0,0.0,23376.0,23523.0,27333.0,19571.0,0.3390336036682129,0.0,0.0,0.0,0.0,0.0,0.0
553,5,0.0,0.0,0.0,0.0,-0.0,-0.0,0.009086109697818756,0.020556271076202393,0.008717171847820282,-0.09340758621692657,-0.21047253906726837,-0.026994770392775536,0.0,0.0,0.0,-0.0,-0.0,-0.0,0.0,0.0,0.0,5.0171038310509175e-06,-0.001984454458579421,0.00023369026894215494,22765.0,24363.0,27664.0,18928.0,0.08135871589183807,0.08863352239131927,0.1043129414319992,0.06472842395305634,0.0,0.0,0.0,0.0,23376.0,23523.0,27333.0,19571.0,0.3390336036682129,0.0,0.0,0.0,0.0,0.0,0.0
558,5,0.0,0.0,0.0,0.0,-0.0,-0.0,0.008081831969320774,0.02299688011407852,0.008643044158816338,-0.06413426250219345,-0.16084977984428406,0.0014167808694764972,0.0,0.0,0.0,-0.0,-0.0,-0.0,0.0,0.0,0.0,-3.721514076460153e-05,-0.0022348188795149326,0.00027760438388213515,23131.0,24065.0,28227.0,18195.0,0.08300880342721939,0.08726208657026291,0.10707535594701767,0.06168735772371292,0.0,0.0,0.0,0.0,23338.0,23966.0,27552.0,18877.0,0.3390336036682129,0.0,0.0,0.0,0.0,0.0,0.0
563,5,0.0,0.0,0.0,0.0,-0.0,-0.0,0.008081831969320774,0.02299688011407852,0.008643044158816338,-0.06413426250219345,-0.16084977984428406,0.0014167808694764972,0.0,0.0,0.0,-0.0,-0.0,-0.0,0.0,0.0,0.0,-3.721514076460153e-05,-0.0022348188795149326,0.00027760438388213515,23131.0,24065.0,28227.0,18195.0,0.08300880342721939,0.08726208657026291,0.10707535594701767,0.06168735772371292,0.0,0.0,0.0,0.0,23338.0,23966.0,27552.0,18877.0,0.3390336036682129,0.0,0.0,0.0,0.0,0.0,0.0
568,5,0.0,0.0,0.0,0.0,-0.0,-0.0,0.008081831969320774,0.02299688011407852,0.008643044158816338,-0.06413426250219345,-0.16084977984428406,0.0014167808694764972,0.0,0.0,0.0,-0.0,-0.0,-0.0,0.0,0.0,0.0,-3.721514076460153e-05,-0.0022348188795149326,0.00027760438388213515,23131.0,24065.0,28227.0,18195.0,0.08300880342721939,0.08726208657026291,0.10707535594701767,0.06168735772371292,0.0,0.0,0.0,0.0,23338.0,23966.0,27552.0,18877.0,0.3390336036682129,0.0,0.0,0.0,0.0,0.0,0.0
573,5,0.0,0.0,0.0,0.0,-0.0,-0.0,0.007429645862430334,0.024378933012485504,0.008585939183831215,-0.04393009841442108,-0.11676619946956635,-0.011119640432298183,0.0,0.0,0.0,-0.0,-0.0,-0.0,0.0,0.0,0.0,-0.00010927096445811912,-0.0015077827265486121,0.00024163803027477115,23449.0,23847.0,27359.0,19111.0,0.08444608747959137,0.08626502752304077,0.10282619297504425,0.0654962956905365,0.0,0.0,0.0,0.0,24361.0,23188.0,26770.0,19509.0,0.3390336036682129,0.0,0.0,0.0,0.0,0.0,0.0
578,5,0.0,0.0,0.0,0.0,-0.0,-0.0,0.007429645862430334,0.024378933012485504,0.008585939183831215,-0.04393009841442108,-0.11676619946956635,-0.011119640432298183,0.0,0.0,0.0,-0.0,-0.0,-0.0,0.0,0.0,0.0,-0.00010927096445811912,-0.0015077827265486121,0.00024163803027477115,23449.0,23847.0,27359.0,19111.0,0.08444608747959137,0.08626502752304077,0.10282619297504425,0.0654962956905365,0.0,0.0,0.0,0.0,24361.0,23188.0,26770.0,19509.0,0.3390336036682129,0.0,0.0,0.0,0.0,0.0,0.0
583,5,0.0,0.0,0.0,0.0,-0.0,-0.0,0.007170042488723993,0.024549443274736404,0.00860348716378212,-0.025708908215165138,0.02824924886226654,0.012337190099060535,0.0,0.0,0.0,-0.0,-0.0,-0.0,0.0,0.0,0.0,-0.0002133847156073898,-0.0009273026371374726,0.00026006874395534396,24705.0,22747.0,26684.0,19698.0,0.09022005647420883,0.08127865940332413,0.09956448525190353,0.0679704025387764,0.0,0.0,0.0,0.0,25925.0,21914.0,25399.0,20654.0,0.3390336036682129,0.0,0.0,0.0,0.0,0.0,0.0
588,5,0.0,0.0,0.0,0.0,-0.0,-0.0,0.007170042488723993,0.024549443274736404,0.00860348716378212,-0.025708908215165138,0.02824924886226654,0.012337190099060535,0.0,0.0,0.0,-0.0,-0.0,-0.0,0.0,0.0,0.0,-0.0002133847156073898,-0.0009273026371374726,0.00026006874395534396,24705.0,22747.0,26684.0,19698.0,0.09022005647420883,0.08127865940332413,0.09956448525190353,0.0679704025387764,0.0,0.0,0.0,0.0,25925.0,21914.0,25399.0,20654.0,0.3390336036682129,0.0,0.0,0.0,0.0,0.0,0.0
593,5,0.0,0.0,0.0,0.0,-0.0,-0.0,0.007276689168065786,0.023666441440582275,0.00860220193862915,-0.01203806884586811,0.08297040313482285,-0.01471456978470087,0.0,0.0,0.0,-0.0,-0.0,-0.0,0.0,0.0,0.0,-0.00031488906824961305,0.0004177424998488277,0.0002456371730659157,25759.0,21947.0,25053.0,21175.0,0.09515702724456787,0.07771407067775726,0.09183986485004425,0.0743226408958435,0.0,0.0,0.0,0.0,26596.0,21007.0,24458.0,21836.0,0.3390336036682129,0.0,0.0,0.0,0.0,0.0,0.0
598,5,0.0,0.0,0.0,0.0,-0.0,-0.0,0.007276689168065786,0.023666441440582275,0.00860220193862915,-0.01203806884586811,0.08297040313482285,-0.01471456978470087,0.0,0.0,0.0,-0.0,-0.0,-0.0,0.0,0.0,0.0,-0.00031488906824961305,0.0004177424998488277,0.0002456371730659157,25759.0,21947.0,25053.0,21175.0,0.09515702724456787,0.07771407067775726,0.09183986485004425,0.0743226408958435,0.0,0.0,0.0,0.0,26596.0,21007.0,24458.0,21836.0,0.3390336036682129,0.0,0.0,0.0,0.0,0.0,0.0
603,5,0.0,0.0,0.0,0.0,-0.0,-0.0,0.007123011630028486,0.02139606699347496,0.008516864851117134,-0.011471837759017944,0.21576842665672302,-0.005223947577178478,0.0,0.0,0.0,-0.0,-0.0,-0.0,0.0,0.0,0.0,-0.0002958325494546443,0.0008752557332627475,0.0002626840432640165,27129.0,20511.0,24103.0,22111.0,0.10170914977788925,0.07144784182310104,0.08743532747030258,0.07844128459692001,0.0,0.0,0.0,0.0,26092.0,21176.0,24526.0,22142.0,0.3390336036682129,0.0,0.0,0.0,0.0,0.0,0.0
608,5,0.0,0.0,0.0,0.0,-0.0,-0.0,0.007123011630028486,0.02139606699347496,0.008516864851117134,-0.011471837759017944,0.21576842665672302,-0.005223947577178478,0.0,0.0,0.0,-0.0,-0.0,-0.0,0.0,0.0,0.0,-0.0002958325494546443,0.0008752557332627475,0.0002626840432640165,27129.0,20511.0,24103.0,22111.0,0.10170914977788925,0.07144784182310104,0.08743532747030258,0.07844128459692001,0.0,0.0,0.0,0.0,26092.0,21176.0,24526.0,22142.0,0.3390336036682129,0.0,0.0,0.0,0.0,0.0,0.0
614,5,0.0,0.0,0.0,0.0,-0.0,-0.0,0.007048427127301693,0.019456561654806137,0.008381941355764866,-0.014419152401387691,0.13355886936187744,-0.0065812948159873486,0.0,0.0,0.0,-0.0,-0.0,-0.0,0.0,0.0,0.0,4.137329597142525e-05,-0.000589236500672996,0.00024397610104642808,26504.0,20946.0,24171.0,22294.0,0.09870335459709167,0.073328897356987,0.08774840831756592,0.0792529433965683,0.0,0.0,0.0,0.0,25312.0,21806.0,25586.0,21227.0,0.3390336036682129,0.0,0.0,0.0,0.0,0.0,0.0
619,5,0.0,0.0,0.0,0.0,-0.0,-0.0,0.007048427127301693,0.019456561654806137,0.008381941355764866,-0.014419152401387691,0.13355886936187744,-0.0065812948159873486,0.0,0.0,0.0,-0.0,-0.0,-0.0,0.0,0.0,0.0,4.137329597142525e-05,-0.000589236500672996,0.00024397610104642808,26504.0,20946.0,24171.0,22294.0,0.09870335459709167,0.073328897356987,0.08774840831756592,0.0792529433965683,0.0,0.0,0.0,0.0,25312.0,21806.0,25586.0,21227.0,0.3390336036682129,0.0,0.0,0.0,0.0,0.0,0.0
624,5,0.0,0.0,0.0,0.0,-0.0,-0.0,0.006224789656698704,0.018707064911723137,0.008349338546395302,-0.07471995800733566,0.10008777678012848,-0.002222881419584155,0.0,0.0,0.0,-0.0,-0.0,-0.0,0.0,0.0,0.0,0.00023631493968423456,-0.001643361640162766,0.00020641108858399093,23033.0,23470.0,27169.0,20178.0,0.08256622403860092,0.08454539626836777,0.10190650075674057,0.07001548260450363,0.0,0.0,0.0,0.0,23582.0,23251.0,27217.0,19773.0,0.3390336036682129,0.0,0.0,0.0,0.0,0.0,0.0
629,5,0.0,0.0,0.0,0.0,-0.0,-0.0,0.006224789656698704,0.018707064911723137,0.008349338546395302,-0.07471995800733566,0.10008777678012848,-0.002222881419584155,0.0,0.0,0.0,-0.0,-0.0,-0.0,0.0,0.0,0.0,0.00023631493968423456,-0.001643361640162766,0.00020641108858399093,23033.0,23470.0,27169.0,20178.0,0.08256622403860092,0.08454539626836777,0.10190650075674057,0.07001548260450363,0.0,0.0,0.0,0.0,23582.0,23251.0,27217.0,19773.0,0.3390336036682129,0.0,0.0,0.0,0.0,0.0,0.0
634,5,0.0,0.0,0.0,0.0,-0.0,-0.0,0.005060166120529175,0.01943577267229557,0.00819507334381342,-0.12752781808376312,-0.0765686184167862,-0.018983367830514908,0.0,0.0,0.0,-0.0,-0.0,-0.0,0.0,0.0,0.0,0.00025326156173832715,-0.0019805512856692076,0.0002753085282165557,22959.0,23416.0,28172.0,19160.0,0.08223044127225876,0.08429770916700363,0.10680443793535233,0.06570101529359818,0.0,0.0,0.0,0.0,23262.0,23148.0,27849.0,19501.0,0.3390336036682129,0.0,0.0,0.0,0.0,0.0,0.0
639,5,0.0,0.0,0.0,0.0,-0.0,-0.0,0.005060166120529175,0.01943577267229557,0.00819507334381342,-0.12752781808376312,-0.0765686184167862,-0.018983367830514908,0.0,0.0,0.0,-0.0,-0.0,-0.0,0.0,0.0,0.0,0.00025326156173832715,-0.0019805512856692076,0.0002753085282165557,22959.0,23416.0,28172.0,19160.0,0.08223044127225876,0.08429770916700363,0.10680443793535233,0.06570101529359818,0.0,0.0,0.0,0.0,23262.0,23148.0,27849.0,19501.0,0.3390336036682129,0.0,0.0,0.0,0.0,0.0,0.0
644,5,0.0,0.0,0.0,0.0,-0.0,-0.0,0.005060166120529175,0.01943577267229557,0.00819507334381342,-0.12752781808376312,-0.0765686184167862,-0.018983367830514908,0.0,0.0,0.0,-0.0,-0.0,-0.0,0.0,0.0,0.0,0.00025326156173832715,-0.0019805512856692076,0.0002753085282165557,22959.0,23416.0,28172.0,19160.0,0.08223044127225876,0.08429770916700363,0.10680443793535233,0.06570101529359818,0.0,0.0,0.0,0.0,23262.0,23148.0,27849.0,19501.0,0.3390336036682129,0.0,0.0,0.0,0.0,0.0,0.0
649,5,0.0,0.0,0.0,0.0,-0.0,-0.0,0.0023752159904688597,0.022849800065159798,0.008262521587312222,-0.09472350776195526,-0.17833779752254486,0.0002301747736055404,0.0,0.0,0.0,-0.0,-0.0,-0.0,0.0,0.0,0.0,0.00018906120385508984,-0.0021040092688053846,0.0002477015077602118,22352.0,24106.0,28631.0,18514.0,0.07951100915670395,0.08744870871305466,0.10906802862882614,0.06300585716962814,0.0,0.0,0.0,0.0,22827.0,23713.0,28188.0,18960.0,0.3390336036682129,0.0,0.0,0.0,0.0,0.0,0.0
654,5,0.0,0.0,0.0,0.0,-0.0,-0.0,0.0023752159904688597,0.022849800065159798,0.008262521587312222,-0.09472350776195526,-0.17833779752254486,0.0002301747736055404,0.0,0.0,0.0,-0.0,-0.0,-0.0,0.0,0.0,0.0,0.00018906120385508984,-0.0021040092688053846,0.0002477015077602118,22352.0,24106.0,28631.0,18514.0,0.07951100915670395,0.08744870871305466,0.10906802862882614,0.06300585716962814,0.0,0.0,0.0,0.0,22827.0,23713.0,28188.0,18960.0,0.3390336036682129,0.0,0.0,0.0,0.0,0.0,0.0
660,5,0.0,0.0,0.0,0.0,-0.0,-0.0,0.0016570029547438025,0.024141358211636543,0.008128826506435871,-0.06749133765697479,-0.11043047159910202,-0.012481496669352055,0.0,0.0,0.0,-0.0,-0.0,-0.0,0.0,0.0,0.0,4.599496242008172e-05,-0.0012461942387744784,0.00022307921608444303,23203.0,23553.0,27370.0,19681.0,0.08333362638950348,0.08491960167884827,0.10288053750991821,0.06789983808994293,0.0,0.0,0.0,0.0,23509.0,23411.0,27064.0,19856.0,0.3390336036682129,0.0,0.0,0.0,0.0,0.0,0.0
665,5,0.0,0.0,0.0,0.0,-0.0,-0.0,0.0016570029547438025,0.024141358211636543,0.008128826506435871,-0.06749133765697479,-0.11043047159910202,-0.012481496669352055,0.0,0.0,0.0,-0.0,-0.0,-0.0,0.0,0.0,0.0,4.599496242008172e-05,-0.0012461942387744784,0.00022307921608444303,23203.0,23553.0,27370.0,19681.0,0.08333362638950348,0.08491960167884827,0.10288053750991821,0.06789983808994293,0.0,0.0,0.0,0.0,23509.0,23411.0,27064.0,19856.0,0.3390336036682129,0.0,0.0,0.0,0.0,0.0,0.0
670,5,0.0,0.0,0.0,0.0,-0.0,-0.0,0.0014645757619291544,0.024134764447808266,0.008168463595211506,-0.050363145768642426,0.028338544070720673,0.006848656106740236,0.0,0.0,0.0,-0.0,-0.0,-0.0,0.0,0.0,0.0,-6.504358316306025e-05,-0.00048146522021852434,0.0002477710659150034,24593.0,22381.0,26496.0,20414.0,0.08969907462596893,0.07964266836643219,0.09866248071193695,0.07102937996387482,0.0,0.0,0.0,0.0,24370.0,22732.0,26403.0,20393.0,0.3390336036682129,0.0,0.0,0.0,0.0,0.0,0.0
675,5,0.0,0.0,0.0,0.0,-0.0,-0.0,0.0014645757619291544,0.024134764447808266,0.008168463595211506,-0.050363145768642426,0.028338544070720673,0.006848656106740236,0.0,0.0,0.0,-0.0,-0.0,-0.0,0.0,0.0,0.0,-6.504358316306025e-05,-0.00048146522021852434,0.0002477710659150034,24593.0,22381.0,26496.0,20414.0,0.08969907462596893,0.07964266836643219,0.09866248071193695,0.07102937996387482,0.0,0.0,0.0,0.0,24370.0,22732.0,26403.0,20393.0,0.3390336036682129,0.0,0.0,0.0,0.0,0.0,0.0
680,5,0.0,0.0,0.0,0.0,-0.0,-0.0,0.001242359634488821,0.022667167708277702,0.008035908453166485,-0.013695195317268372,0.10000155121088028,-0.017412610352039337,0.0,0.0,0.0,-0.0,-0.0,-0.0,0.0,0.0,0.0,-4.416340743773617e-05,0.0005748881376348436,0.00020760399638675153,25519.0,21588.0,24866.0,21991.0,0.09402558952569962,0.07613030821084976,0.09096672385931015,0.07791098207235336,0.0,0.0,0.0,0.0,25923.0,20894.0,24879.0,22229.0,0.3390336036682129,0.0,0.0,0.0,0.0,0.0,0.0
685,5,0.0,0.0,0.0,0.0,-0.0,-0.0,0.001242359634488821,0.022667167708277702,0.008035908453166485,-0.013695195317268372,0.10000155121088028,-0.017412610352039337,0.0,0.0,0.0,-0.0,-0.0,-0.0,0.0,0.0,0.0,-4.416340743773617e-05,0.0005748881376348436,0.00020760399638675153,25519.0,21588.0,24866.0,21991.0,0.09402558952569962,0.07613030821084976,0.09096672385931015,0.07791098207235336,0.0,0.0,0.0,0.0,25923.0,20894.0,24879.0,22229.0,0.3390336036682129,0.0,0.0,0.0,0.0,0.0,0.0
