timestamp,dt,pos_x,pos_y,pos_z,vel_x,vel_y,vel_z,roll,pitch,yaw,agv_x,agv_y,agv_z,x_ref,y_ref,z_ref,roll_ref,pitch_ref,yaw_ref,x_vel_ref,y_vel_ref,z_vel_ref,x_torque,y_torque,z_torque,w0,w1,w2,w3,u0,u1,u2,u3,m0req,m1req,m2req,m3req,thrust0,thrust1,thrust2,thrust3,thrust_ref,roll_vicon,pitch_vicon,yaw_vicon,acc_x,acc_y,acc_z
5,5,0.0,0.0,0.0,-0.0068039316684007645,0.0036282704677432775,-0.0004028686962556094,-0.044699493795633316,-0.018403153866529465,-0.038503654301166534,-0.002211890183389187,-0.06110251694917679,-0.010857458226382732,0.0,0.0,0.0,-0.0033704726956784725,-0.006320561282336712,-0.0,0.0,0.0,0.0,0.0013650805922225118,-2.1225399905233644e-05,-0.0011685615172609687,0.0,0.0,0.0,0.0,0.0,0.0,0.0,0.0,0.0,0.0,0.0,0.0,0.0,0.0,0.0,0.0,0.3487825095653534,-0.05649233835577179,0.05308022098440795,0.028081260395938223,0.025514744222164154,-0.013606014661490917,0.0012086060596629977
28,23,0.0,0.0,0.0,-0.0028135536704212427,0.0034005192574113607,-0.006250924896448851,-0.044699493795633316,-0.018403153866529465,-0.038503654301166534,-0.002211890183389187,-0.06110251694917679,-0.010857458226382732,0.0,0.0,0.0,-0.003158957464620471,-0.0026136995293200016,-0.0,0.0,0.0,0.0,0.0013650805922225118,-2.1225399905233644e-05,-0.0011685615172609687,0.0,0.0,0.0,0.0,0.0,0.0,0.0,0.0,0.0,0.0,0.0,0.0,0.0,0.0,0.0,0.0,0.3487764894962311,-0.058213503820055475,0.053595415586169065,0.02789162312108211,0.010550825856626034,-0.012751947157084942,0.018752774223685265
33,5,0.0,0.0,0.0,0.0020682886242866516,-0.0008328916737809777,-0.0043964991346001625,-0.044673267751932144,-0.018082525581121445,-0.03855300694704056,-0.0013598843943327665,-0.014098240062594414,-0.006312983110547066,0.0,0.0,0.0,0.0007736040279269218,0.0019210634054616094,-0.0,0.0,0.0,0.0,0.0013516872422769666,0.000251909950748086,-0.0011674766428768635,0.0,0.0,0.0,0.0,0.0,0.0,0.0,0.0,0.0,0.0,0.0,0.0,0.0,0.0,0.0,0.0,0.34883081912994385,-0.057226230488786486,0.05332627437027765,0.028505975779913643,-0.0077560823410749435,0.003123343689367175,0.013189497403800488
38,5,0.0,0.0,0.0,0.0035953642800450325,-0.0013567116111516953,0.00378457922488451,-0.044673267751932144,-0.018082525581121445,-0.03855300694704056,-0.0013598843943327665,-0.014098240062594414,-0.006312983110547066,0.0,0.0,0.0,0.0012601318303495646,0.0033394303172826767,-0.0,0.0,0.0,0.0,0.0013516872422769666,0.000251909950748086,-0.0011674766428768635,0.0,0.0,0.0,0.0,0.0,0.0,0.0,0.0,0.0,0.0,0.0,0.0,0.0,0.0,0.0,0.0,0.34883230924606323,-0.05601290918482491,0.05321084338008447,0.028767938238282362,-0.013482616282999516,0.005087668541818857,-0.01135373767465353
43,5,0.0,0.0,0.0,3.516524884616956e-05,0.001978163607418537,0.006440061144530773,-0.04472086578607559,-0.01827860064804554,-0.038551464676856995,-0.002401628764346242,0.041324686259031296,0.006593539845198393,0.0,0.0,0.0,-0.0018373632337898016,3.266231942689046e-05,-0.0,0.0,0.0,0.0,0.0013678992399945855,0.0005782329244539142,-0.0011502482229843736,12747.0,30253.0,14818.0,35112.0,0.040427207946777344,0.11722193658351898,0.04822826385498047,0.14289908111095428,0.0,0.0,0.0,0.0,0.0,0.0,0.0,0.0,0.34882891178131104,-0.058469608631828617,0.0534120974016193,0.027674068143975772,-0.00013186968863010406,-0.007418113760650158,-0.019320182502269745
48,5,-3.027981256309431e-05,1.4734847582076327e-06,7.028796972008422e-05,-0.004228624049574137,0.00038716121343895793,-0.007908297702670097,-0.04472086578607559,-0.01827860064804554,-0.038551464676856995,-0.002401628764346242,0.041324686259031296,0.006593539845198393,0.0,0.0,0.0,-0.0003577139286790043,-0.00396641856059432,-0.0,0.0,0.0,0.0,0.0013725807657465339,0.0009735069470480084,-0.0011119232513010502,13691.0,29557.0,14912.0,35048.0,0.04393824562430382,0.11369912326335907,0.048591163009405136,0.14254795014858246,0.0,0.0,0.0,0.0,12823.0,30197.0,14677.0,35212.0,0.34883108735084534,-0.058823667542406,0.05459393579416833,0.028935031461399578,0.016013963147997856,-0.0014442329993471503,0.024981290102005005
54,5,-0.00011903679114766419,1.9989551219623536e-05,-6.546821623487631e-06,-0.009755938313901424,-0.0009818046819418669,0.012099864892661572,-0.04472086578607559,-0.01827860064804554,-0.038551464676856995,-0.002401628764346242,0.041324686259031296,0.006593539845198393,0.0,0.0,0.0,0.0009367101010866463,-0.009210054762661457,-0.0,0.0,0.0,0.0,0.0013725807657465339,0.0009735069470480084,-0.0011119232513010502,13691.0,29557.0,14912.0,35048.0,0.04393824562430382,0.11369912326335907,0.048591163009405136,0.14254795014858246,0.0,0.0,0.0,0.0,12823.0,30197.0,14677.0,35212.0,0.3488432466983795,-0.058980953854657285,0.06416010768315857,0.031485342868614534,0.03718557953834534,0.0037820315919816494,-0.03619429096579552
59,5,0.00039628948434256017,1.3382898032432422e-05,-0.0007820548489689827,0.06921889632940292,0.0006303901318460703,0.11220107972621918,-0.04486317187547684,-0.019697438925504684,-0.038037173449993134,-0.0072936019860208035,0.06739789247512817,0.011389953084290028,0.0,0.0,0.0,-0.0005263679195195436,0.06019539386034012,-0.0,0.0,0.0,0.0,0.001559663563966751,0.0011804633541032672,-0.001144136069342494,13158.0,29511.0,14355.0,35849.0,0.04194940999150276,0.11346617341041565,0.04645280912518501,0.1469639241695404,0.0,0.0,0.0,0.0,12827.0,29909.0,14734.0,35445.0,0.37577083706855774,-0.032772706730580074,0.04598356183941108,0.03943129073880054,-0.26164427399635315,-0.0022892591077834368,-0.35204026103019714
67,9,-0.0005974863888695836,-0.00016161124221980572,2.16460812225705e-05,-0.11836295574903488,0.024688297882676125,-0.07885780185461044,-0.04486317187547684,-0.019697438925504684,-0.038037173449993134,-0.0072936019860208035,0.06739789247512817,0.011389953084290028,0.0,0.0,0.0,-0.01919354498386383,-0.09196674823760986,-0.0,0.0,0.0,0.0,0.001559663563966751,0.0011804633541032672,-0.001144136069342494,13158.0,29511.0,14355.0,35849.0,0.04194940999150276,0.11346617341041565,0.04645280912518501,0.1469639241695404,0.0,0.0,0.0,0.0,12827.0,29909.0,14734.0,35445.0,0.42038434743881226,-0.05762484632491464,0.08373959217029377,0.029748189081454567,0.44675686955451965,-0.0933816060423851,0.23317287862300873
72,5,-0.0005510740447789431,-0.00034973284346051514,-0.00018626336532179266,-0.02901115082204342,0.03374351188540459,0.005449981894344091,-0.04486317187547684,-0.019697438925504684,-0.038037173449993134,-0.0072936019860208035,0.06739789247512817,0.011389953084290028,0.0,0.0,0.0,-0.031237110495567322,-0.02717304788529873,-0.0,0.0,0.0,0.0,0.001559663563966751,0.0011804633541032672,-0.001144136069342494,13158.0,29511.0,14355.0,35849.0,0.04194940999150276,0.11346617341041565,0.04645280912518501,0.1469639241695404,0.0,0.0,0.0,0.0,12827.0,29909.0,14734.0,35445.0,0.35495829582214355,-0.06256235355575918,0.0807165443772369,0.03161273311544951,0.11156804114580154,-0.12831149995326996,-0.022832108661532402
77,5,-0.0006538315210491419,-9.234256867785007e-05,-0.0001075279651558958,-0.023089399561285973,-0.02591158263385296,-0.009387961588799953,-0.044870488345623016,-0.020088598132133484,-0.03783906251192093,-0.003617763752117753,0.021028513088822365,0.013345977291464806,0.0,0.0,0.0,0.02397952415049076,-0.02233019657433033,-0.0,0.0,0.0,0.0,0.0014890750171616673,0.0007412720005959272,-0.0011382850352674723,12511.0,30136.0,15034.0,35237.0,0.0395587757229805,0.11662542074918747,0.04906260222196579,0.14358428120613098,0.0,0.0,0.0,0.0,17089.0,29261.0,13117.0,38957.0,0.3481992185115814,-0.06219116540110952,0.08239294295729374,0.02850464994889775,0.08996019512414932,0.09663008898496628,0.022395655512809753
82,5,-0.0006776726222597063,3.1849733204580843e-05,0.00014291162369772792,-0.010264569893479347,-0.025160398334264755,-0.03787793219089508,-0.044992800801992416,-0.02013292722404003,-0.038029421120882034,-0.0008969241753220558,-0.01876518316566944,-0.0268290676176548,0.0,0.0,0.0,0.023420996963977814,-0.010455445386469364,-0.0,0.0,0.0,0.0,0.001525108702480793,0.00268297316506505,-0.0012437262339517474,16379.0,29821.0,12728.0,39209.0,0.054335903376340866,0.11503121256828308,0.0403558574616909,0.1660301238298416,0.0,0.0,0.0,0.0,12016.0,33475.0,14621.0,33784.0,0.34834495186805725,-0.058603578378183,0.08578041882469038,0.026203469389589385,0.0421416237950325,0.0944194421172142,0.11143802851438522
88,5,-0.0006203129305504262,-0.00022513420844916254,-4.932285810355097e-05,0.004950983449816704,0.028429633006453514,0.015549448318779469,-0.044992800801992416,-0.02013292722404003,-0.038029421120882034,-0.0008969241753220558,-0.01876518316566944,-0.0268290676176548,0.0,0.0,0.0,-0.02674732357263565,0.003748298855498433,-0.0,0.0,0.0,0.0,0.001525108702480793,0.00268297316506505,-0.0012437262339517474,16379.0,29821.0,12728.0,39209.0,0.054335903376340866,0.11503121256828308,0.0403558574616909,0.1660301238298416,0.0,0.0,0.0,0.0,12016.0,33475.0,14621.0,33784.0,0.3483574092388153,-0.05810741709645754,0.086443704546944,0.02917661744042158,-0.015106448903679848,-0.10783040523529053,-0.051467571407556534
93,6,-0.0005032981862314045,-0.00011865070700878277,-0.00029166898457333446,0.01786736026406288,-0.006378800142556429,0.038593292236328125,-0.044923361390829086,-0.019673900678753853,-0.03807460144162178,-0.01941133663058281,-0.06674814969301224,-0.027441086247563362,0.0,0.0,0.0,0.005756370723247528,0.01588725484907627,-0.0,0.0,0.0,0.0,0.000509793171659112,-0.0005311800050549209,-0.0012312756152823567,11464.0,33703.0,14953.0,33690.0,0.035767409950494766,0.1352572739124298,0.04874641075730324,0.13518700003623962,0.0,0.0,0.0,0.0,12016.0,33475.0,14621.0,33784.0,0.34833183884620667,-0.048102037024678516,0.08596435256435679,0.03115286621125348,-0.06404759734869003,0.02320736274123192,-0.12452949583530426
99,5,-0.0005597685812972486,-7.060936241032323e-06,-0.00019160870579071343,-0.023620372638106346,-0.0340152308344841,-0.03008323162794113,-0.044923361390829086,-0.019673900678753853,-0.03807460144162178,-0.01941133663058281,-0.06674814969301224,-0.027441086247563362,0.0,0.0,0.0,0.03126988187432289,-0.02257542870938778,-0.0,0.0,0.0,0.0,0.000509793171659112,-0.0005311800050549209,-0.0012312756152823567,11464.0,33703.0,14953.0,33690.0,0.035767409950494766,0.1352572739124298,0.04874641075730324,0.13518700003623962,0.0,0.0,0.0,0.0,12016.0,33475.0,14621.0,33784.0,0.3520297706127167,-0.04970389622752948,0.0845202152922617,0.0261721442264338,0.09192981570959091,0.12738581001758575,0.08207918703556061
104,5,-0.00027967861387878656,-7.115772314136848e-05,-0.00024912168737500906,0.03212647885084152,-0.0012310190359130502,-0.0009731518803164363,-0.044923361390829086,-0.019673900678753853,-0.03807460144162178,-0.01941133663058281,-0.06674814969301224,-0.027441086247563362,0.0,0.0,0.0,0.0010225020814687014,0.02938004955649376,-0.0,0.0,0.0,0.0,0.000509793171659112,-0.0005311800050549209,-0.0012312756152823567,11464.0,33703.0,14953.0,33690.0,0.035767409950494766,0.1352572739124298,0.04874641075730324,0.13518700003623962,0.0,0.0,0.0,0.0,12016.0,33475.0,14621.0,33784.0,0.34843266010284424,-0.04803001402010146,0.07596048005141254,0.03142284717821923,-0.1184663325548172,0.004123530816286802,-0.006439007818698883
109,5,-0.0002033967466559261,-3.6364155675983056e-05,-0.0002587252529338002,0.020317405462265015,-0.005240405909717083,0.001052555162459612,-0.04497687518596649,-0.017737822607159615,-0.03860825300216675,-0.013412543572485447,-0.0628323033452034,-0.04404053837060928,0.0,0.0,0.0,0.00478264968842268,0.01844526268541813,-0.0,0.0,0.0,0.0,0.0006749648600816727,0.00028149678837507963,-0.0013923336518928409,10978.0,33049.0,12073.0,35420.0,0.03403566777706146,0.13176649808883667,0.0379626601934433,0.14459261298179626,0.0,0.0,0.0,0.0,12143.0,32177.0,12706.0,35076.0,0.3489567041397095,-0.046117078381294724,0.07201589701530463,0.03241884380452737,-0.07449258863925934,0.019316334277391434,-0.013861517421901226
114,5,-0.00013414684508461505,-1.4773543625778984e-05,-0.00023668704670853913,0.01579020917415619,-0.004594807047396898,-0.0027695836033672094,-0.04497687518596649,-0.017737822607159615,-0.03860825300216675,-0.013412543572485447,-0.0628323033452034,-0.04404053837060928,0.0,0.0,0.0,0.004209453705698252,0.014320838265120983,-0.0,0.0,0.0,0.0,0.0006749648600816727,0.00028149678837507963,-0.0013923336518928409,10978.0,33049.0,12073.0,35420.0,0.03403566777706146,0.13176649808883667,0.0379626601934433,0.14459261298179626,0.0,0.0,0.0,0.0,12143.0,32177.0,12706.0,35076.0,0.3489322364330292,-0.04818379672108837,0.07015883393840915,0.03237345352981599,-0.05783317983150482,0.017000112682580948,-0.0029053178150206804
120,6,-0.0001723004097584635,0.0001161289619631134,-0.00016121851513162255,-0.0006044356850907207,-0.01970479264855385,-0.011396470479667187,-0.04497687518596649,-0.017737822607159615,-0.03860825300216675,-0.013412543572485447,-0.0628323033452034,-0.04404053837060928,0.0,0.0,0.0,0.01840188540518284,-0.0009504985646344721,-0.0,0.0,0.0,0.0,0.0006749648600816727,0.00028149678837507963,-0.0013923336518928409,10978.0,33049.0,12073.0,35420.0,0.03403566777706146,0.13176649808883667,0.0379626601934433,0.14459261298179626,0.0,0.0,0.0,0.0,12143.0,32177.0,12706.0,35076.0,0.34895259141921997,-0.05206640960065753,0.06927717160773222,0.02763035221477753,0.0038384844083338976,0.0743175745010376,0.02408936247229576
126,5,-9.065101949090604e-06,-2.417058112769155e-06,-0.0002806238189805299,0.022671611979603767,0.01068500429391861,0.013297801837325096,-0.044989701360464096,-0.017174823209643364,-0.038840051740407944,0.003356329631060362,0.028786752372980118,-0.06817428022623062,0.0,0.0,0.0,-0.009949122555553913,0.020840421319007874,-0.0,0.0,0.0,0.0,0.0016848854720592499,0.0018981005996465683,-0.0013520916691049933,11796.0,30450.0,11212.0,37881.0,0.03696209564805031,0.11822262406349182,0.034867022186517715,0.158380925655365,0.0,0.0,0.0,0.0,11334.0,30672.0,10703.0,38287.0,0.34925198554992676,-0.04755017797186126,0.0651948985480089,0.03202684119394112,-0.08423230797052383,-0.0402163602411747,-0.05229520797729492
131,5,0.0001637459936318919,-5.550519745156635e-06,-0.00032486184500157833,0.030995037406682968,0.003644186072051525,0.010182663798332214,-0.044989701360464096,-0.017174823209643364,-0.038840051740407944,0.003356329631060362,0.028786752372980118,-0.06817428022623062,0.0,0.0,0.0,-0.0034206747077405453,0.028772735968232155,-0.0,0.0,0.0,0.0,0.0016848854720592499,0.0018981005996465683,-0.0013520916691049933,11796.0,30450.0,11212.0,37881.0,0.03696209564805031,0.11822262406349182,0.034867022186517715,0.158380925655365,0.0,0.0,0.0,0.0,11334.0,30672.0,10703.0,38287.0,0.34930548071861267,-0.05105779806334424,0.05852667919309904,0.030130074993386637,-0.11630845069885254,-0.013829383999109268,-0.04440944269299507
136,5,2.0519735699053854e-05,-1.6106345356092788e-05,-0.00016485263768117875,-0.010753164999186993,0.0025710712652653456,-0.019346488639712334,-0.04491812363266945,-0.017465321347117424,-0.03925788402557373,-0.00505872443318367,0.050149962306022644,0.0008872118196450174,0.0,0.0,0.0,-0.0024361603427678347,-0.010114968754351139,-0.0,0.0,0.0,0.0,0.0022224776912480593,0.0009449768112972379,-0.0013766387710347772,12064.0,29907.0,11695.0,37912.0,0.03792889416217804,0.11546370387077332,0.03659646213054657,0.15856316685676575,0.0,0.0,0.0,0.0,11973.0,29910.0,12608.0,37383.0,0.349656343460083,-0.05207743222074863,0.06426577541784449,0.030787819704973594,0.04093393683433533,-0.00985900592058897,0.04559944570064545
141,5,5.5672939197393134e-05,-1.4581994946638588e-05,-0.00039425387512892485,0.0016954989405348897,0.00055791245540604,0.02631222829222679,-0.04491812363266945,-0.017465321347117424,-0.03925788402557373,-0.00505872443318367,0.050149962306022644,0.0008872118196450174,0.0,0.0,0.0,-0.0005695492145605385,0.0014648635406047106,-0.0,0.0,0.0,0.0,0.0022224776912480593,0.0009449768112972379,-0.0013766387710347772,12064.0,29907.0,11695.0,37912.0,0.03792889416217804,0.11546370387077332,0.03659646213054657,0.15856316685676575,0.0,0.0,0.0,0.0,11973.0,29910.0,12608.0,37383.0,0.34963786602020264,-0.06750702377721181,0.05001733506151771,0.027759552388124234,-0.005927910562604666,-0.002304814290255308,-0.09529741108417511
146,5,8.583672024542466e-05,0.00012533890549093485,-9.468010102864355e-05,0.004731579218059778,-0.019421551376581192,-0.034046661108732224,-0.04491812363266945,-0.017465321347117424,-0.03925788402557373,-0.00505872443318367,0.050149962306022644,0.0008872118196450174,0.0,0.0,0.0,0.01811503991484642,0.0043180519714951515,-0.0,0.0,0.0,0.0,0.0022224776912480593,0.0009449768112972379,-0.0013766387710347772,12064.0,29907.0,11695.0,37912.0,0.03792889416217804,0.11546370387077332,0.03659646213054657,0.15856316685676575,0.0,0.0,0.0,0.0,11973.0,29910.0,12608.0,37383.0,0.3496980667114258,-0.05750700622776203,0.06256670861071896,0.02750634073589492,-0.017474226653575897,0.07331555336713791,0.08909522742033005
151,5,0.00011072416236856952,-0.00024222540378104895,-0.0004051708965562284,0.004903715569525957,0.045632537454366684,0.0332547128200531,-0.045032601803541183,-0.01807425357401371,-0.03938395902514458,-0.01657908782362938,0.043382298201322556,0.00395751791074872,0.0,0.0,0.0,-0.04189877584576607,0.004438816104084253,-0.0,0.0,0.0,0.0,0.001515651703812182,0.00220882217399776,-0.00129766296595335,13248.0,29586.0,10750.0,38154.0,0.04228441044688225,0.11384536325931549,0.033233027905225754,0.15994273126125336,0.0,0.0,0.0,0.0,10503.0,29895.0,13385.0,37883.0,0.3557252287864685,-0.0706834921467198,0.052892609376308346,0.03566217226345351,-0.018259350210428238,-0.17245475947856903,-0.11776648461818695
156,5,0.00023851740115787834,0.0002445933350827545,-0.00018685621034819633,0.01936216838657856,-0.05446486547589302,-0.02058764174580574,-0.045032601803541183,-0.01807425357401371,-0.03938395902514458,-0.01657908782362938,0.043382298201322556,0.00395751791074872,0.0,0.0,0.0,0.0485069565474987,0.01729482412338257,-0.0,0.0,0.0,0.0,0.001515651703812182,0.00220882217399776,-0.00129766296595335,13248.0,29586.0,10750.0,38154.0,0.04228441044688225,0.11384536325931549,0.033233027905225754,0.15994273126125336,0.0,0.0,0.0,0.0,10503.0,29895.0,13385.0,37883.0,0.36582499742507935,-0.053195838302820625,0.055338119069015985,0.027961374086198372,-0.07313799113035202,0.20530208945274353,0.04582057148218155
161,5,0.00012414381490089,0.00013402204785961658,-3.697860302054323e-05,-0.010203651152551174,-0.0008594768587499857,-0.027159158140420914,-0.04505106434226036,-0.018564695492386818,-0.039213862270116806,-0.012119014747440815,0.04394179582595825,-0.0057817501947283745,0.0,0.0,0.0,0.0009325136779807508,-0.009456266649067402,-0.0,0.0,0.0,0.0,0.002226164797320962,0.000667685701046139,-0.0013826703652739525,8451.0,31310.0,14252.0,37400.0,0.025345005095005035,0.12264376133680344,0.04606068879365921,0.1556486189365387,0.0,0.0,0.0,0.0,11554.0,30834.0,11343.0,37760.0,0.3496027886867523,-0.056740322756135025,0.05975897850758529,0.028087869581361568,0.03826257586479187,0.003773256205022335,0.06722179055213928
166,5,-0.00020906192366965115,-2.208926343882922e-05,-0.00011821950465673581,-0.04970989748835564,0.021597739309072495,0.003225978696718812,-0.04505106434226036,-0.018564695492386818,-0.039213862270116806,-0.012119014747440815,0.04394179582595825,-0.0057817501947283745,0.0,0.0,0.0,-0.019335711374878883,-0.04480229318141937,-0.0,0.0,0.0,0.0,0.002226164797320962,0.000667685701046139,-0.0013826703652739525,8451.0,31310.0,14252.0,37400.0,0.025345005095005035,0.12264376133680344,0.04606068879365921,0.1556486189365387,0.0,0.0,0.0,0.0,11554.0,30834.0,11343.0,37760.0,0.36284908652305603,-0.05369677190601865,0.07251536483169749,0.025614593418979783,0.18805550038814545,-0.08119800686836243,-0.025268152356147766
171,5,4.817606895812787e-05,1.4690762327518314e-05,8.841963426675647e-05,0.021100349724292755,0.001330118509940803,-0.02796168625354767,-0.04524534195661545,-0.018512561917304993,-0.03938564658164978,-0.010995200835168362,-0.061728671193122864,0.0071632517501711845,0.0,0.0,0.0,-0.0012383906869217753,0.019445011392235756,-0.0,0.0,0.0,0.0,0.003134861821308732,0.001359080895781517,-0.0013992012245580554,9484.0,29859.0,15537.0,40018.0,0.028837379068136215,0.11521966755390167,0.05101814493536949,0.17075170576572418,0.0,0.0,0.0,0.0,10262.0,30081.0,13042.0,38218.0,0.3498501777648926,-0.059094037028696665,0.060134627130836046,0.027848076336029728,-0.07873155921697617,-0.0050144800916314125,0.07104197889566422
176,5,0.00015964903286658227,-8.848871948430315e-05,0.00011902680853381753,0.021936317905783653,0.014844163320958614,-0.012673510238528252,-0.04524534195661545,-0.018512561917304993,-0.03938564658164978,-0.010995200835168362,-0.061728671193122864,0.0071632517501711845,0.0,0.0,0.0,-0.013879518955945969,0.020358793437480927,-0.0,0.0,0.0,0.0,0.003134861821308732,0.001359080895781517,-0.0013992012245580554,9484.0,29859.0,15537.0,40018.0,0.028837379068136215,0.11521966755390167,0.05101814493536949,0.17075170576572418,0.0,0.0,0.0,0.0,10262.0,30081.0,13042.0,38218.0,0.34988996386528015,-0.05986996073364042,0.03555721231374776,0.01810845772602542,-0.08243264257907867,-0.05620555579662323,0.025902584195137024
181,5,-5.838729066454107e-06,-0.0004949513240717351,-0.00023172500368673354,-0.0165873896330595,0.0613580159842968,0.04530320316553116,-0.0453006811439991,-0.0168177280575037,-0.039239224046468735,-0.002924156840890646,-0.22020374238491058,0.025421587750315666,0.0,0.0,0.0,-0.05420370772480965,-0.014651715755462646,-0.0,0.0,0.0,0.0,0.0010107075795531273,-0.0015224035596475005,-0.0013560967054218054,7683.0,35689.0,17142.0,33949.0,0.022804323583841324,0.14607401192188263,0.05739094689488411,0.13658231496810913,0.0,0.0,0.0,0.0,7437.0,30985.0,16603.0,39484.0,0.37107160687446594,-0.07884116530583817,0.03646596152432149,0.029682316909082386,0.06283165514469147,-0.2326813042163849,-0.15296417474746704
186,5,7.288459164556116e-05,-0.0006679037469439209,-0.0006280248053371906,0.006045048125088215,0.04262074455618858,0.06907293200492859,-0.0453006811439991,-0.0168177280575037,-0.039239224046468735,-0.002924156840890646,-0.22020374238491058,0.025421587750315666,0.0,0.0,0.0,-0.03971885144710541,0.0053894855082035065,-0.0,0.0,0.0,0.0,0.0010107075795531273,-0.0015224035596475005,-0.0013560967054218054,7683.0,35689.0,17142.0,33949.0,0.022804323583841324,0.14607401192188263,0.05739094689488411,0.13658231496810913,0.0,0.0,0.0,0.0,7437.0,30985.0,16603.0,39484.0,0.3535913825035095,-0.09953617009956787,0.015305604123509134,0.02180898659939373,-0.022432653233408928,-0.16337212920188904,-0.2309345155954361
191,5,0.00011055641516577452,-0.0004740951699204743,-0.0004820426693186164,0.00708756921812892,-0.014346981421113014,0.00028438091976568103,-0.04545526206493378,-0.015010635368525982,-0.03884655982255936,-0.007156379520893097,-0.20660927891731262,0.011640429496765137,0.0,0.0,0.0,0.012644621543586254,0.006568106822669506,-0.0,0.0,0.0,0.0,0.0012702407548204064,-3.468444992904551e-05,-0.0013710330240428448,9733.0,32747.0,13253.0,35988.0,0.029691722244024277,0.1301621049642563,0.04230281338095665,0.14773334562778473,0.0,0.0,0.0,0.0,8378.0,35376.0,16993.0,33954.0,0.3492017686367035,-0.07229613254999182,0.01424625259316248,0.027658128263693064,-0.02654391899704933,0.051104240119457245,-0.024287311360239983
196,5,1.3525746908271685e-05,-0.0005038249655626714,-0.0004535045300144702,-0.011458022519946098,-0.00014191772788763046,-0.003910025116056204,-0.04545526206493378,-0.015010635368525982,-0.03884655982255936,-0.007156379520893097,-0.20660927891731262,0.011640429496765137,0.0,0.0,0.0,-0.0005928314058110118,-0.010755619965493679,-0.0,0.0,0.0,0.0,0.0012702407548204064,-3.468444992904551e-05,-0.0013710330240428448,9733.0,32747.0,13253.0,35988.0,0.029691722244024277,0.1301621049642563,0.04230281338095665,0.14773334562778473,0.0,0.0,0.0,0.0,8378.0,35376.0,16993.0,33954.0,0.34918656945228577,-0.0773860439978741,0.01731945823089228,0.027392869820297698,0.04346809163689613,-0.0023966904263943434,-0.01268456969410181
201,5,4.8001362301874906e-05,-0.0007073640008457005,-0.00046610465506091714,0.0013891794951632619,0.028452884405851364,0.000591010320931673,-0.045379649847745895,-0.012028183788061142,-0.03877321630716324,0.017412686720490456,-0.2672653794288635,-0.01148917805403471,0.0,0.0,0.0,-0.027400553226470947,0.0012087546056136489,-0.0,0.0,0.0,0.0,0.0011707332450896502,5.204021363169886e-05,-0.0014181039296090603,9650.0,35238.0,12855.0,34579.0,0.02940388023853302,0.1435924470424652,0.04082673788070679,0.13999046385288239,0.0,0.0,0.0,0.0,9785.0,35174.0,12610.0,34725.0,0.3492136299610138,-0.07957547761949571,0.01799458333182467,0.027227165995900672,-0.004883810877799988,-0.1107354387640953,-0.027726484462618828
206,5,6.571954872924834e-05,-0.0005600175936706364,-0.0006677289493381977,0.002897299826145172,-0.01209262851625681,0.028404703363776207,-0.045379649847745895,-0.012028183788061142,-0.03877321630716324,0.017412686720490456,-0.2672653794288635,-0.01148917805403471,0.0,0.0,0.0,0.010375801473855972,0.002632543910294771,-0.0,0.0,0.0,0.0,0.0011707332450896502,5.204021363169886e-05,-0.0014181039296090603,9650.0,35238.0,12855.0,34579.0,0.02940388023853302,0.1435924470424652,0.04082673788070679,0.13999046385288239,0.0,0.0,0.0,0.0,9785.0,35174.0,12610.0,34725.0,0.34910228848457336,-0.08951144474380983,0.011852036535529735,0.023753148942543104,-0.010636402294039726,0.04192220792174339,-0.11557701975107193
212,5,-1.4511524568661116e-05,-0.0005904294666834176,-0.0005707717500627041,-0.010363160632550716,0.0006298705702647567,-0.005052594467997551,-0.0452389121055603,-0.009960697963833809,-0.03892882913351059,0.0047447034157812595,-0.23602306842803955,-0.05770920589566231,0.0,0.0,0.0,0.010345572605729103,0.002634126925840974,-0.0,0.0,0.0,0.0,0.0003571488196030259,-0.0006315603386610746,-0.0015017404220998287,4950.0,34667.0,14574.0,35906.0,0.01414991170167923,0.14046922326087952,0.04729156941175461,0.1472758650779724,0.0,0.0,0.0,0.0,4631.0,34767.0,14687.0,35905.0,0.3492775857448578,-0.08696112293748451,0.017490717206814912,0.02471600203021401,0.03947976976633072,-0.006040072534233332,-0.01575152948498726
217,5,-1.850921216828283e-05,-0.0006342085544019938,-0.0005648924852721393,-0.0036686244420707226,0.006318036466836929,-0.0023388778790831566,-0.0452389121055603,-0.009960697963833809,-0.03892882913351059,0.0047447034157812595,-0.23602306842803955,-0.05770920589566231,0.0,0.0,0.0,-0.006850606296211481,-0.0035617100074887276,-0.0,0.0,0.0,0.0,0.0003571488196030259,-0.0006315603386610746,-0.0015017404220998287,4950.0,34667.0,14574.0,35906.0,0.01414991170167923,0.14046922326087952,0.04729156941175461,0.1472758650779724,0.0,0.0,0.0,0.0,4631.0,34767.0,14687.0,35905.0,0.34927093982696533,-0.08595566514471799,0.017641040601219283,0.02635881211099783,0.014397828839719296,-0.027694227173924446,-0.025487972423434258
222,5,-9.405789023730904e-05,-0.000502849230542779,-0.0005573160015046597,-0.011677402071654797,-0.01649489253759384,-0.0017623667372390628,-0.04526977986097336,-0.0073620290495455265,-0.039353810250759125,-0.0008710781112313271,-0.14951537549495697,-0.0252983421087265,0.0,0.0,0.0,0.014424505643546581,-0.011069678701460361,-0.0,0.0,0.0,0.0,0.0017085501458495855,-0.0009055780828930438,-0.0015168813988566399,5523.0,34235.0,14225.0,36250.0,0.015913881361484528,0.13812395930290222,0.04596025496721268,0.14918845891952515,0.0,0.0,0.0,0.0,5980.0,33085.0,13998.0,37234.0,0.3498051166534424,-0.08384573241511567,0.018541327245956946,0.027352606635903484,0.044811904430389404,0.0583980455994606,-0.02878422476351261
227,5,-0.0005405234987847507,-0.0010957304621115327,-0.0004976770142093301,-0.06600840389728546,0.07805489748716354,-0.00887816958129406,-0.04526977986097336,-0.0073620290495455265,-0.039353810250759125,-0.0008710781112313271,-0.14951537549495697,-0.0252983421087265,0.0,0.0,0.0,-0.06384222954511642,-0.053610481321811676,-0.0,0.0,0.0,0.0,0.0017085501458495855,-0.0009055780828930438,-0.0015168813988566399,5523.0,34235.0,14225.0,36250.0,0.015913881361484528,0.13812395930290222,0.04596025496721268,0.14918845891952515,0.0,0.0,0.0,0.0,5980.0,33085.0,13998.0,37234.0,0.4052201509475708,-0.11895136969076793,0.0451794754705602,0.042619022941668104,0.2508038878440857,-0.29922112822532654,-0.008225129917263985
232,5,-0.00037764618173241615,-0.0010067297844216228,-0.0003635934554040432,0.0030003024730831385,0.010956380516290665,-0.021435150876641273,-0.04526977986097336,-0.0073620290495455265,-0.039353810250759125,-0.0008710781112313271,-0.14951537549495697,-0.0252983421087265,0.0,0.0,0.0,-0.011698314920067787,0.0021478375419974327,-0.0,0.0,0.0,0.0,0.0017085501458495855,-0.0009055780828930438,-0.0015168813988566399,5523.0,34235.0,14225.0,36250.0,0.015913881361484528,0.13812395930290222,0.04596025496721268,0.14918845891952515,0.0,0.0,0.0,0.0,5980.0,33085.0,13998.0,37234.0,0.34977203607559204,-0.09342246547516449,0.03884597174235002,0.03660350762068891,-0.008693896234035492,-0.047358572483062744,0.029933415353298187
237,5,-0.00029785907827317715,-0.0009212901932187378,-0.00039699688204564154,0.012070286087691784,-0.008674636483192444,-0.0017540666740387678,-0.04535803198814392,-0.006361685693264008,-0.03937002271413803,0.03059185855090618,-0.0633208304643631,0.01987515017390251,0.0,0.0,0.0,0.006546582095324993,0.010630804114043713,-0.0,0.0,0.0,0.0,0.002024967921897769,0.00010839577589649707,-0.0014639507280662656,7346.0,32423.0,13706.0,37276.0,0.021703358739614487,0.1284552961587906,0.04399658367037773,0.15494698286056519,0.0,0.0,0.0,0.0,8787.0,32935.0,12774.0,36595.0,0.34979313611984253,-0.09378367951265774,0.03719104627487286,0.03396929740781476,-0.04303741455078125,0.026503855362534523,-0.030702505260705948
242,5,-0.000243159374804236,-0.0007172721670940518,-0.00027802292606793344,0.011279044672846794,-0.031164908781647682,-0.017182573676109314,-0.04535803198814392,-0.006361685693264008,-0.03937002271413803,0.03059185855090618,-0.0633208304643631,0.01987515017390251,0.0,0.0,0.0,0.02733178250491619,0.009884795174002647,-0.0,0.0,0.0,0.0,0.002024967921897769,0.00010839577589649707,-0.0014639507280662656,7346.0,32423.0,13706.0,37276.0,0.021703358739614487,0.1284552961587906,0.04399658367037773,0.15494698286056519,0.0,0.0,0.0,0.0,8787.0,32935.0,12774.0,36595.0,0.34991365671157837,-0.08613457526699986,0.028920134830389136,0.030640908740667713,-0.04001709073781967,0.11067792773246765,0.014401950873434544
247,5,-0.00016273533401545137,-0.000831047014798969,-0.00047029738198034465,0.014643077738583088,0.0065790023654699326,0.021763654425740242,-0.045192454010248184,-0.006521617062389851,-0.03916710987687111,-0.01568499021232128,0.08890068531036377,0.01530163548886776,0.0,0.0,0.0,-0.007549797184765339,0.01306548248976469,-0.0,0.0,0.0,0.0,0.001479048398323357,0.0007894043810665607,-0.0014700854662805796,9395.0,32303.0,11570.0,37596.0,0.028531759977340698,0.1278257817029953,0.036148980259895325,0.15676447749137878,0.0,0.0,0.0,0.0,10581.0,31814.0,10809.0,37890.0,0.34957370162010193,-0.08496792201515119,0.04111935714721196,0.038539131989239216,-0.05326163023710251,-0.030547335743904114,-0.10442376881837845
252,5,-6.252887396840379e-05,-0.00040903640910983086,-0.00040238985093310475,0.018421828746795654,-0.05710778385400772,-0.0029779572505503893,-0.045192454010248184,-0.006521617062389851,-0.03916710987687111,-0.01568499021232128,0.08890068531036377,0.01530163548886776,0.0,0.0,0.0,-0.0075861429795622826,0.013157744891941547,-0.0,0.0,0.0,0.0,0.001479048398323357,0.0007894043810665607,-0.0014700854662805796,9395.0,32303.0,11570.0,37596.0,0.028531759977340698,0.1278257817029953,0.036148980259895325,0.15676447749137878,0.0,0.0,0.0,0.0,10581.0,31814.0,10809.0,37890.0,0.3495737910270691,-0.07057512748073373,0.045027580041894985,0.03321168804516182,-0.06790432333946228,0.21024170517921448,-0.030566003173589706
257,5,-0.0004874506557825953,-0.00032283421023748815,-0.0003617148904595524,-0.053962498903274536,-0.029200643301010132,-0.006587882060557604,-0.04546632245182991,-0.007673886604607105,-0.03907298669219017,0.0068551721051335335,0.19209569692611694,0.019436774775385857,0.0,0.0,0.0,0.02481733076274395,-0.04820770397782326,-0.0,0.0,0.0,0.0,0.0013693257933482528,0.0016335846157744527,-0.0014693179400637746,11189.0,31535.0,9896.0,38325.0,0.03478631004691124,0.12381137907505035,0.030250724405050278,0.16092364490032196,0.0,0.0,0.0,0.0,11673.0,31318.0,9117.0,38683.0,0.3688744902610779,-0.07207853317090766,0.062265166045434826,0.03170462810986623,0.2056746929883957,0.10594327002763748,-0.02040165849030018
262,5,-0.0003831945650745183,-0.0003801699203904718,-0.00046776034287177026,-0.0015928995562717319,-0.0007331931265071034,0.012869997881352901,-0.04546632245182991,-0.007673886604607105,-0.03907298669219017,0.0068551721051335335,0.19209569692611694,0.019436774775385857,0.0,0.0,0.0,-0.00028571352595463395,-0.0021898720879107714,-0.0,0.0,0.0,0.0,0.0013693257933482528,0.0016335846157744527,-0.0014693179400637746,11189.0,31535.0,9896.0,38325.0,0.03478631004691124,0.12381137907505035,0.030250724405050278,0.16092364490032196,0.0,0.0,0.0,0.0,11673.0,31318.0,9117.0,38683.0,0.3494265079498291,-0.07403352278072028,0.056737710343402206,0.03354868200535648,0.00885646604001522,-0.0011555078672245145,-0.08147186040878296
268,5,-0.0003221646184101701,-0.00029044467373751104,-0.00039370087324641645,0.008066323585808277,-0.012781492434442043,-0.006507327780127525,-0.045285750180482864,-0.010663307271897793,-0.03913417458534241,0.01145714521408081,0.2659570574760437,0.0008812120067887008,0.0,0.0,0.0,0.010976721532642841,0.0068230899050831795,-0.0,0.0,0.0,0.0,0.0033474285155534744,0.0026440005749464035,-0.0014697310980409384,10081.0,29287.0,10094.0,40862.0,0.03089383989572525,0.11234241724014282,0.03093910962343216,0.17574086785316467,0.0,0.0,0.0,0.0,10046.0,29161.0,10282.0,40880.0,0.34952491521835327,-0.06725969556855439,0.06175071154546658,0.030757445536761883,-0.02759995311498642,0.044404201209545135,-0.023669790476560593
273,5,-0.00026936433278024197,-0.00025294985971413553,-0.0003275845665484667,0.009811938740313053,-0.009083722718060017,-0.011208480224013329,-0.045285750180482864,-0.010663307271897793,-0.03913417458534241,0.01145714521408081,0.2659570574760437,0.0008812120067887008,0.0,0.0,0.0,0.007582257967442274,0.008492051623761654,-0.0,0.0,0.0,0.0,0.0033474285155534744,0.0026440005749464035,-0.0014697310980409384,10081.0,29287.0,10094.0,40862.0,0.03089383989572525,0.11234241724014282,0.03093910962343216,0.17574086785316467,0.0,0.0,0.0,0.0,10046.0,29161.0,10282.0,40880.0,0.34951838850975037,-0.06213138153513485,0.06273642936896602,0.031141455167581645,-0.034351933747529984,0.030672606080770493,-0.009757270105183125
278,5,-0.0002665786596480757,-0.0002686615916900337,-0.00023931109171826392,0.0033335762564092875,-0.0005254741408862174,-0.015720831230282784,-0.04530953988432884,-0.012628434225916862,-0.03903888911008835,0.00456954212859273,0.22148902714252472,0.02588682621717453,0.0,0.0,0.0,-0.00038207118632271886,0.0024787213187664747,-0.0,0.0,0.0,0.0,0.0017573510995134711,0.0016851912951096892,-0.0015524219488725066,10454.0,28862.0,12864.0,42113.0,0.032191209495067596,0.11021600663661957,0.04085717350244522,0.18323616683483124,0.0,0.0,0.0,0.0,10165.0,29128.0,12602.0,42219.0,0.3493877053260803,-0.05931001477701999,0.06456309188458413,0.030597792949803224,-0.010023538954555988,-0.0015450343489646912,0.00413216557353735
283,5,-0.0001274514215765521,-0.00022390304366126657,-0.0003398121043574065,0.020477885380387306,-0.006423838436603546,0.00935389380902052,-0.04530953988432884,-0.012628434225916862,-0.03903888911008835,0.00456954212859273,0.22148902714252472,0.02588682621717453,0.0,0.0,0.0,0.005130535922944546,0.018535859882831573,-0.0,0.0,0.0,0.0,0.0017573510995134711,0.0016851912951096892,-0.0015524219488725066,10454.0,28862.0,12864.0,42113.0,0.032191209495067596,0.11021600663661957,0.04085717350244522,0.18323616683483124,0.0,0.0,0.0,0.0,10165.0,29128.0,12602.0,42219.0,0.3494512140750885,-0.06637470721961748,0.05152370739202241,0.03223430684183428,-0.07496419548988342,0.02075040712952614,-0.07331805676221848
288,5,7.143975381040946e-05,-0.00012795842485502362,9.171266719931737e-05,0.03398812934756279,-0.015359397977590561,-0.05760730057954788,-0.045373644679784775,-0.014844434335827827,-0.039114922285079956,-0.016540396958589554,0.13203072547912598,-0.0022760590072721243,0.0,0.0,0.0,0.013515718281269073,0.03128901869058609,-0.0,0.0,0.0,0.0,0.001997962361201644,0.0011894238414242864,-0.0015075178816914558,8407.0,31865.0,11391.0,38735.0,0.025198977440595627,0.12552832067012787,0.0355054996907711,0.16328555345535278,0.0,0.0,0.0,0.0,9119.0,31774.0,11255.0,38470.0,0.3496767580509186,-0.0493081985244178,0.041683921502599856,0.03173215661327095,-0.1266002058982849,0.054698944091796875,0.13305982947349548
293,5,-3.718009247677401e-05,-0.0002357293851673603,-0.0001453940785722807,-0.005010338965803385,0.010480115190148354,0.015912754461169243,-0.045373644679784775,-0.014844434335827827,-0.039114922285079956,-0.016540396958589554,0.13203072547912598,-0.0022760590072721243,0.0,0.0,0.0,-0.010571426711976528,-0.004987720400094986,-0.0,0.0,0.0,0.0,0.001997962361201644,0.0011894238414242864,-0.0015075178816914558,8407.0,31865.0,11391.0,38735.0,0.025198977440595627,0.12552832067012787,0.0355054996907711,0.16328555345535278,0.0,0.0,0.0,0.0,9119.0,31774.0,11255.0,38470.0,0.34949755668640137,-0.05444953330892431,0.05752171929422608,0.029877268348478106,0.020174724981188774,-0.0427621491253376,-0.0908009335398674
298,5,-2.1169997125980444e-05,-0.00025371319497935474,-0.00013131734158378094,0.0007383112679235637,0.005661765579134226,0.0028030830435454845,-0.0454198494553566,-0.015085110440850258,-0.038820236921310425,0.02767319232225418,-0.025865009054541588,0.006011825054883957,0.0,0.0,0.0,-0.0061436924152076244,0.00036033327342011034,-0.0,0.0,0.0,0.0,0.001985634444281459,0.0005420259549282491,-0.0015755512285977602,6693.0,32946.0,12098.0,38265.0,0.019601043313741684,0.13121956586837769,0.03805215284228325,0.1605784147977829,0.0,0.0,0.0,0.0,7359.0,32433.0,11435.0,38790.0,0.34914276003837585,-0.052642803692089124,0.055991028455013456,0.02977454599203086,-0.0014560808194801211,-0.024826530367136,-0.051702458411455154
303,5,-2.359936297580134e-05,-0.0003418137494008988,-1.1370227184670512e-05,-0.00011861768871312961,0.014032606966793537,-0.015951670706272125,-0.0454198494553566,-0.015085110440850258,-0.038820236921310425,0.02767319232225418,-0.025865009054541588,0.006011825054883957,0.0,0.0,0.0,-0.014031597413122654,-0.0004388621309772134,-0.0,0.0,0.0,0.0,0.001985634444281459,0.0005420259549282491,-0.0015755512285977602,6693.0,32946.0,12098.0,38265.0,0.019601043313741684,0.13121956586837769,0.03805215284228325,0.1605784147977829,0.0,0.0,0.0,0.0,7359.0,32433.0,11435.0,38790.0,0.3491705656051636,-0.058344422011846926,0.051023312031614275,0.026461795145366278,0.0017734102439135313,-0.05670439824461937,0.005978769157081842
308,5,-9.992828563554212e-05,-0.0002621121529955417,-2.8990172722842544e-05,-0.010721635073423386,-0.006948438473045826,-0.00231870892457664,-0.04514804109930992,-0.012015646323561668,-0.03861497715115547,0.019295498728752136,-0.2417687028646469,0.008937960490584373,0.0,0.0,0.0,0.005524993874132633,-0.010380730964243412,-0.0,0.0,0.0,0.0,0.001373832463286817,-0.0007046210230328143,-0.0015472096856683493,5729.0,34836.0,13215.0,36286.0,0.01655442640185356,0.14139200747013092,0.04215846583247185,0.14939267933368683,0.0,0.0,0.0,0.0,6412.0,33075.0,12506.0,38042.0,0.3489251732826233,-0.056238264051473995,0.05258153852558662,0.027267015516647373,0.041921041905879974,0.022312495857477188,-0.03522000461816788
313,5,-5.3486775868805125e-05,-0.00048537293332628906,-0.00016288812912534922,0.0032853216398507357,0.029171977192163467,0.01805010251700878,-0.04514804109930992,-0.012015646323561668,-0.03861497715115547,0.019295498728752136,-0.2417687028646469,0.008937960490584373,0.0,0.0,0.0,-0.02829793468117714,0.002679342869669199,-0.0,0.0,0.0,0.0,0.001373832463286817,-0.0007046210230328143,-0.0015472096856683493,5729.0,34836.0,13215.0,36286.0,0.01655442640185356,0.14139200747013092,0.04215846583247185,0.14939267933368683,0.0,0.0,0.0,0.0,6412.0,33075.0,12506.0,38042.0,0.34904205799102783,-0.06349943750795907,0.04578579578579528,0.029542758405432412,-0.010819685645401478,-0.1143045574426651,-0.0984419658780098
318,5,-7.71514605730772e-05,-0.00042341361404396594,0.00012931317905895412,-0.002327459864318371,7.728903437964618e-05,-0.035493154078722,-0.045041073113679886,-0.009063832461833954,-0.03849554806947708,0.00022714032093062997,-0.2468104213476181,-0.005539944861084223,0.0,0.0,0.0,-0.0012332136975601315,-0.002565637230873108,-0.0,0.0,0.0,0.0,0.0013383231125772,-0.0007005806546658278,-0.001594137866050005,5270.0,35158.0,12640.0,36547.0,0.015132386237382889,0.14315561950206757,0.04003222659230232,0.15085040032863617,0.0,0.0,0.0,0.0,5418.0,34978.0,13219.0,36318.0,0.34876567125320435,-0.05729989946658863,0.04652536606354791,0.024588458377869445,0.01035664975643158,-0.004978673532605171,0.06611377745866776
323,5,-0.00011388096027076244,-0.00033582121250219643,1.9401475583435968e-05,-0.01774642989039421,0.00821558479219675,-0.014719284139573574,-0.045041073113679886,-0.009063832461833954,-0.03849554806947708,0.00022714032093062997,-0.2468104213476181,-0.005539944861084223,0.0,0.0,0.0,-0.008702276274561882,-0.016937119886279106,-0.0,0.0,0.0,0.0,0.0013383231125772,-0.0007005806546658278,-0.001594137866050005,5270.0,35158.0,12640.0,36547.0,0.015132386237382889,0.14315561950206757,0.04003222659230232,0.15085040032863617,0.0,0.0,0.0,0.0,5418.0,34978.0,13219.0,36318.0,0.3488275110721588,-0.05500087409644582,0.050521321202297804,0.0264964747489046,0.06837548315525055,-0.035134244710206985,0.0025144582614302635
328,5,-0.00011388096027076244,-0.00033582121250219643,1.9401475583435968e-05,-0.01774642989039421,0.00821558479219675,-0.014719284139573574,-0.04520818218588829,-0.007391131948679686,-0.038575705140829086,-0.009112934581935406,-0.20694619417190552,-0.002774075837805867,0.0,0.0,0.0,-0.008714954368770123,-0.01693773828446865,-0.0,0.0,0.0,0.0,0.0009107717196457088,-0.00038183381548151374,-0.0016395512502640486,6376.0,35518.0,11116.0,36537.0,0.01859082281589508,0.14513099193572998,0.03452639281749725,0.15079402923583984,0.0,0.0,0.0,0.0,5385.0,35013.0,12387.0,36792.0,0.3489193618297577,-0.05500087409644582,0.050521321202297804,0.0264964747489046,0.06839597970247269,-0.03519469127058983,0.0025726626627147198
333,5,-8.549189078621566e-05,-0.00030443730065599084,0.00032029091380536556,-0.0013494594022631645,-0.0019290709169581532,-0.04654030501842499,-0.04520818218588829,-0.007391131948679686,-0.038575705140829086,-0.009112934581935406,-0.20694619417190552,-0.002774075837805867,0.0,0.0,0.0,0.0007293717935681343,-0.0016805428313091397,-0.0,0.0,0.0,0.0,0.0009107717196457088,-0.00038183381548151374,-0.0016395512502640486,6376.0,35518.0,11116.0,36537.0,0.01859082281589508,0.14513099193572998,0.03452639281749725,0.15079402923583984,0.0,0.0,0.0,0.0,5385.0,35013.0,12387.0,36792.0,0.348856657743454,-0.05041210636867926,0.034625918131875606,0.024896190793852725,0.006785638630390167,0.0029445223044604063,0.102652408182621
338,5,-9.739329834701493e-05,-0.00028551139985211194,7.196157821454108e-05,0.003068027552217245,-0.010193380527198315,0.006309228949248791,-0.04520818218588829,-0.007391131948679686,-0.038575705140829086,-0.009112934581935406,-0.20694619417190552,-0.002774075837805867,0.0,0.0,0.0,0.008414511568844318,0.002403628546744585,-0.0,0.0,0.0,0.0,0.0009107717196457088,-0.00038183381548151374,-0.0016395512502640486,6376.0,35518.0,11116.0,36537.0,0.01859082281589508,0.14513099193572998,0.03452639281749725,0.15079402923583984,0.0,0.0,0.0,0.0,5385.0,35013.0,12387.0,36792.0,0.3488694429397583,-0.05925470510410725,0.04312100806819084,0.025880903521805994,-0.009704970754683018,0.03397562727332115,-0.058685097843408585
344,5,-9.739329834701493e-05,-0.00028551139985211194,7.196157821454108e-05,0.003068027552217245,-0.010193380527198315,0.006309228949248791,-0.0451228991150856,-0.005593760404735804,-0.03830622509121895,0.034580521285533905,-0.11058202385902405,0.014040136709809303,0.0,0.0,0.0,0.008408905938267708,0.0024013028014451265,-0.0,0.0,0.0,0.0,0.0014087952440604568,-0.0005720065673813224,-0.0015824020374566317,5410.0,34810.0,12601.0,36775.0,0.015562847256660461,0.1412511020898819,0.03989046812057495,0.15212315320968628,0.0,0.0,0.0,0.0,7054.0,35122.0,11458.0,36320.0,0.34856075048446655,-0.05925470510410725,0.04312100806819084,0.025880903521805994,-0.009687000885605812,0.0339229516685009,-0.05846381559967995
349,5,-0.00029253994580358267,-0.00033149344380944967,-0.00025256609660573304,-0.01832706667482853,-0.01671142689883709,0.02038467675447464,-0.0451228991150856,-0.005593760404735804,-0.03830622509121895,0.034580521285533905,-0.11058202385902405,0.014040136709809303,0.0,0.0,0.0,0.014395277947187424,-0.017731552943587303,-0.0,0.0,0.0,0.0,0.0014087952440604568,-0.0005720065673813224,-0.0015824020374566317,5410.0,34810.0,12601.0,36775.0,0.015562847256660461,0.1412511020898819,0.03989046812057495,0.15212315320968628,0.0,0.0,0.0,0.0,7054.0,35122.0,11458.0,36320.0,0.3486383259296417,-0.07977487521057623,0.030189297230514986,0.027257616838089384,0.07153859734535217,0.058085329830646515,-0.10538003593683243
354,5,-0.0003808549081441015,-0.0005396670894697309,-0.0007018754258751869,-0.017862213775515556,0.02413088269531727,0.06901870667934418,-0.04530920833349228,-0.005149403121322393,-0.03819490224123001,-0.02574443444609642,0.013451891019940376,0.004020489286631346,0.0,0.0,0.0,-0.023841243237257004,-0.017428696155548096,-0.0,0.0,0.0,0.0,0.0021941058803349733,0.0005926430458202958,-0.001621956704184413,5943.0,32810.0,11427.0,39120.0,0.017224561423063278,0.1304972916841507,0.03563379868865013,0.1655137836933136,0.0,0.0,0.0,0.0,5607.0,34557.0,12412.0,37034.0,0.34857189655303955,-0.08242892367166864,0.033097904519424466,0.035120032324415996,0.07029073685407639,-0.09617592394351959,-0.25884193181991577
359,5,-0.0002392201276961714,-0.00041710492223501205,-0.0006849385681562126,0.014470205642282963,-0.009919439442455769,0.01833445392549038,-0.04530920833349228,-0.005149403121322393,-0.03819490224123001,-0.02574443444609642,0.013451891019940376,0.004020489286631346,0.0,0.0,0.0,0.00794147327542305,0.012793839909136295,-0.0,0.0,0.0,0.0,0.0021941058803349733,0.0005926430458202958,-0.001621956704184413,5943.0,32810.0,11427.0,39120.0,0.017224561423063278,0.1304972916841507,0.03563379868865013,0.1655137836933136,0.0,0.0,0.0,0.0,5607.0,34557.0,12412.0,37034.0,0.3484594225883484,-0.07487881361812168,0.03750196230138739,0.03553524973465287,-0.051595378667116165,0.03202775493264198,-0.10867373645305634
364,5,-0.00043846163316629827,-0.0006669230060651898,-0.0003778637619689107,-0.023552751168608665,0.03199870511889458,-0.037490133196115494,-0.04522612690925598,-0.006025315728038549,-0.03802909702062607,0.022469215095043182,0.12120594829320908,0.017109937965869904,0.0,0.0,0.0,-0.031063135713338852,-0.022609887644648552,-0.0,0.0,0.0,0.0,0.00205659749917686,0.0013746080221608281,-0.0016111769946292043,6225.0,32466.0,11515.0,39186.0,0.01811264082789421,0.12867958843708038,0.03595028445124626,0.16589580476284027,0.0,0.0,0.0,0.0,6136.0,32478.0,11449.0,39265.0,0.3518790900707245,-0.08143933513388982,0.04812713973269832,0.03394031662212329,0.09203045070171356,-0.12648969888687134,0.06141628697514534
369,5,-0.000309875700622797,-0.0006511348765343428,-0.00034087596577592194,0.010936208069324493,0.007389265112578869,-0.01642533205449581,-0.04522612690925598,-0.006025315728038549,-0.03802909702062607,0.022469215095043182,0.12120594829320908,0.017109937965869904,0.0,0.0,0.0,-0.008496840484440327,0.009394667111337185,-0.0,0.0,0.0,0.0,0.00205659749917686,0.0013746080221608281,-0.0016111769946292043,6225.0,32466.0,11515.0,39186.0,0.01811264082789421,0.12867958843708038,0.03595028445124626,0.16589580476284027,0.0,0.0,0.0,0.0,6136.0,32478.0,11449.0,39265.0,0.3482579290866852,-0.07610247456501232,0.04654539127179627,0.032441872392794904,-0.0378652922809124,-0.03424931690096855,-0.0023909800220280886
374,5,-0.0005082336720079184,-0.0006446893094107509,-0.0004046004905831069,-0.024489257484674454,0.0013144029071554542,0.003993835765868425,-0.045211922377347946,-0.007142168004065752,-0.03785564377903938,-0.007914235815405846,0.1820167899131775,0.020851682871580124,0.0,0.0,0.0,-0.0028678623493760824,-0.0238353181630373,-0.0,0.0,0.0,0.0,0.0023237818386405706,0.0009847525507211685,-0.00158843828830868,6751.0,30964.0,9010.0,40445.0,0.027104798704385757,0.12086047232151031,0.02722269669175148,0.17327143251895905,0.0,0.0,0.0,0.0,8947.0,31135.0,8555.0,40571.0,0.3481316566467285,-0.0905208828501248,0.047724488597821156,0.035266884721190696,0.09603019058704376,-0.011555465869605541,-0.06565199047327042
379,5,-0.0004556025087367743,-0.0006357297534123063,-0.0003198375052306801,2.158926690754015e-05,-0.0008600169094279408,-0.01066866796463728,-0.045211922377347946,-0.007142168004065752,-0.03785564377903938,-0.007914235815405846,0.1820167899131775,0.020851682871580124,0.0,0.0,0.0,-0.0008620772277936339,-0.00097872584592551,-0.0,0.0,0.0,0.0,0.0023237818386405706,0.0009847525507211685,-0.00158843828830868,6751.0,30964.0,9010.0,40445.0,0.027104798704385757,0.12086047232151031,0.02722269669175148,0.17327143251895905,0.0,0.0,0.0,0.0,8947.0,31135.0,8555.0,40571.0,0.348031610250473,-0.08996119219661135,0.048429223753478544,0.03500800205190985,0.003942446317523718,-0.0034725705627352,-0.021596238017082214
384,5,-0.0004429627151694149,-0.0005750241107307374,-0.0001830747933126986,0.001776045304723084,-0.008756797760725021,-0.022347381338477135,-0.04520518332719803,-0.009061015211045742,-0.03786059096455574,0.0024387184530496597,0.1488541215658188,0.00550702353939414,0.0,0.0,0.0,0.006536055356264114,0.0006497595459222794,-0.0,0.0,0.0,0.0,0.0021389550529420376,0.002002878114581108,-0.0016620734240859747,8126.0,31504.0,8607.0,40683.0,0.02426302433013916,0.12364901602268219,0.025867611169815063,0.1746797412633896,0.0,0.0,0.0,0.0,9026.0,32330.0,7619.0,39961.0,0.3480445146560669,-0.0861545260235104,0.05262139056466252,0.03415435562320036,-0.0026173656806349754,0.026328956708312035,0.014540928415954113
389,5,-0.00039943528827279806,-0.0004293657257221639,0.0002396289783064276,0.00662665581330657,-0.023019209504127502,-0.06588274240493774,-0.04520518332719803,-0.009061015211045742,-0.03786059096455574,0.0024387184530496597,0.1488541215658188,0.00550702353939414,0.0,0.0,0.0,0.01996620185673237,0.005199798848479986,-0.0,0.0,0.0,0.0,0.0021389550529420376,0.002002878114581108,-0.0016620734240859747,8126.0,31504.0,8607.0,40683.0,0.02426302433013916,0.12364901602268219,0.025867611169815063,0.1746797412633896,0.0,0.0,0.0,0.0,9026.0,32330.0,7619.0,39961.0,0.348111093044281,-0.09033041944540698,0.061493361820840975,0.030015526194934014,-0.020946050062775612,0.0804397463798523,0.15099576115608215
394,5,-0.00018669647397473454,-0.0007250595954246819,-0.00045581755694001913,0.031771428883075714,0.03449137881398201,0.07759769260883331,-0.045098599046468735,-0.010030332952737808,-0.03790194168686867,0.003179434686899185,0.10475698858499527,0.001955252606421709,0.0,0.0,0.0,-0.03310006856918335,0.028141317889094353,-0.0,0.0,0.0,0.0,0.0015708209248259664,0.0017477759392932057,-0.0016818370204418898,8543.0,32572.0,7896.0,39866.0,0.025652814656496048,0.1292382776737213,0.023503337055444717,0.1698635369539261,0.0,0.0,0.0,0.0,6754.0,32965.0,8985.0,39852.0,0.35710227489471436,-0.10123319377977193,0.03721001749175634,0.028729269708830486,-0.11623261868953705,-0.13678184151649475,-0.28923389315605164
399,5,-0.000241650574025698,-0.0006523707415908575,-0.00025355329853482544,0.0018378543900325894,0.0001709712523734197,-0.005037688184529543,-0.045098599046468735,-0.010030332952737808,-0.03790194168686867,0.003179434686899185,0.10475698858499527,0.001955252606421709,0.0,0.0,0.0,-0.0019487857352942228,0.0009114000713452697,-0.0,0.0,0.0,0.0,0.0015708209248259664,0.0017477759392932057,-0.0016818370204418898,8543.0,32572.0,7896.0,39866.0,0.025652814656496048,0.1292382776737213,0.023503337055444717,0.1698635369539261,0.0,0.0,0.0,0.0,6754.0,32965.0,8985.0,39852.0,0.3480851650238037,-0.09327894916798067,0.03960385148403929,0.03685186476059247,-0.0036718077026307583,-0.0078511917963624,-0.03968153893947601
404,5,-0.0003956775472033769,-0.0008063960704021156,-0.0002818970533553511,-0.02101241797208786,0.021614842116832733,0.0024568166118115187,-0.045071136206388474,-0.010636486113071442,-0.037928782403469086,0.015740910544991493,0.02539902552962303,0.01959102787077427,0.0,0.0,0.0,-0.022119231522083282,-0.02055530995130539,-0.0,0.0,0.0,0.0,0.001851844135671854,0.0009586535161361098,-0.0016835760325193405,6562.0,33151.0,9808.0,39306.0,0.01918080449104309,0.13230760395526886,0.029949799180030823,0.16659343242645264,0.0,0.0,0.0,0.0,5984.0,32075.0,10689.0,40079.0,0.3482738435268402,-0.096703032701886,0.04917409322338456,0.03764120120999436,0.08283186703920364,-0.0891553983092308,-0.06336075067520142
409,5,-0.0002566787297837436,-0.000518003711476922,-0.00018712117162067443,0.013156108558177948,-0.03389047831296921,-0.012531577609479427,-0.045071136206388474,-0.010636486113071442,-0.037928782403469086,0.015740910544991493,0.02539902552962303,0.01959102787077427,0.0,0.0,0.0,0.029843570664525032,0.011397493071854115,-0.0,0.0,0.0,0.0,0.001851844135671854,0.0009586535161361098,-0.0016835760325193405,6562.0,33151.0,9808.0,39306.0,0.01918080449104309,0.13230760395526886,0.029949799180030823,0.16659343242645264,0.0,0.0,0.0,0.0,5984.0,32075.0,10689.0,40079.0,0.3482927978038788,-0.07920292085595709,0.049304484728824455,0.032116514975663084,-0.04592373967170715,0.12028654664754868,-0.017819499596953392
414,5,-0.000390136381611228,-0.00039577545248903334,-0.00020793810836039484,-0.01473724190145731,-0.027279101312160492,-0.0008451028261333704,-0.04494833946228027,-0.010648777708411217,-0.037745509296655655,0.06190301105380058,-0.03648999333381653,0.01713920570909977,0.0,0.0,0.0,0.023836739361286163,-0.014748251996934414,-0.0,0.0,0.0,0.0,0.002539381617680192,0.0009007609914988279,-0.0016711034113541245,5140.0,32546.0,11146.0,39829.0,0.014730501919984818,0.1291014552116394,0.03463401272892952,0.1696450412273407,0.0,0.0,0.0,0.0,5122.0,32943.0,10508.0,39864.0,0.3480418920516968,-0.08084355741665511,0.05080000164973154,0.031128282445786165,0.059390801936388016,0.09601155668497086,-0.053758781403303146
420,5,-0.0002318235783604905,-0.0005461191176436841,-0.00034392214729450643,0.017742620781064034,0.01286438200622797,0.018784234300255775,-0.04494833946228027,-0.010648777708411217,-0.037745509296655655,0.06190301105380058,-0.03648999333381653,0.01713920570909977,0.0,0.0,0.0,-0.013743996620178223,0.015676360577344894,-0.0,0.0,0.0,0.0,0.002539381617680192,0.0009007609914988279,-0.0016711034113541245,5140.0,32546.0,11146.0,39829.0,0.014730501919984818,0.1291014552116394,0.03463401272892952,0.1696450412273407,0.0,0.0,0.0,0.0,5122.0,32943.0,10508.0,39864.0,0.347980797290802,-0.08472241151611089,0.039459651843730265,0.03425908108478808,-0.0631285235285759,-0.055353786796331406,-0.11535675823688507
425,5,-0.0001768290385371074,-0.0004714196256827563,-0.0003198570339009166,0.013022023253142834,-0.006598614621907473,0.0022661571856588125,-0.04209169000387192,-0.010145721957087517,-0.037811387330293655,0.3824649751186371,-0.05804454907774925,-0.002171814441680908,0.0,0.0,0.0,0.004446486476808786,0.011336557567119598,-0.0,0.0,0.0,0.0,0.0010001243790611625,0.0006477087154053152,-0.0017421941738575697,6913.0,35070.0,8092.0,38332.0,0.020304374396800995,0.14266949892044067,0.02414984256029129,0.16096144914627075,0.0,0.0,0.0,0.0,7902.0,34790.0,8674.0,37696.0,0.3480064272880554,-0.07824084650192578,0.03902755006553673,0.03390505834148759,-0.04566028714179993,0.01790902391076088,-0.0664617046713829
430,5,-0.0003100944741163403,-0.00024684093659743667,-0.00013528291310649365,-0.014750556088984013,-0.03342059999704361,-0.0251605324447155,-0.04209169000387192,-0.010145721957087517,-0.037811387330293655,0.3824649751186371,-0.05804454907774925,-0.002171814441680908,0.0,0.0,0.0,0.029666626825928688,-0.014694159850478172,-0.0,0.0,0.0,0.0,0.0010001243790611625,0.0006477087154053152,-0.0017421941738575697,6913.0,35070.0,8092.0,38332.0,0.020304374396800995,0.14266949892044067,0.02414984256029129,0.16096144914627075,0.0,0.0,0.0,0.0,7902.0,34790.0,8674.0,37696.0,0.3481714129447937,-0.06393271102081718,0.05014004970459626,0.031664567301395136,0.059186242520809174,0.1195315271615982,0.017655087634921074
435,5,-0.0004921293002553284,-0.0004031137505080551,8.02066206233576e-05,-0.029910042881965637,0.011852014809846878,-0.03771669417619705,-0.04209169000387192,-0.010145721957087517,-0.037811387330293655,0.3824649751186371,-0.05804454907774925,-0.002171814441680908,0.0,0.0,0.0,-0.012673752382397652,-0.02904237061738968,-0.0,0.0,0.0,0.0,0.0010001243790611625,0.0006477087154053152,-0.0017421941738575697,6913.0,35070.0,8092.0,38332.0,0.020304374396800995,0.14266949892044067,0.02414984256029129,0.16096144914627075,0.0,0.0,0.0,0.0,7902.0,34790.0,8674.0,37696.0,0.3481554090976715,-0.06864398378520713,0.06242813409780148,0.02906524947263224,0.11700260639190674,-0.05106848478317261,0.05817024037241936
440,5,-0.0001295233960263431,-0.00033110854565165937,1.8925928088719957e-05,0.04179181531071663,-0.006525126285851002,-0.0027357114013284445,-0.038765061646699905,-0.009851574897766113,-0.0372287891805172,0.39307427406311035,-0.03331686556339264,0.0792250707745552,0.0,0.0,0.0,0.004457030910998583,0.03776775673031807,-0.0,0.0,0.0,0.0,0.00029573883512057364,0.00102668022736907,-0.0017488524317741394,7836.0,32668.0,10385.0,38736.0,0.023305658251047134,0.12974557280540466,0.031950924545526505,0.16329041123390198,0.0,0.0,0.0,0.0,7753.0,32676.0,10054.0,38975.0,0.35148191452026367,-0.05915180088722915,0.04241468569124493,0.026293960204306382,-0.15360412001609802,0.01813148893415928,-0.047452472150325775
445,5,-0.00022090048878453672,-0.00026822445215657353,1.7877890059025958e-05,-0.00025524801458232105,-0.010761309415102005,-0.0006739880191162229,-0.038765061646699905,-0.009851574897766113,-0.0372287891805172,0.39307427406311035,-0.03331686556339264,0.0792250707745552,0.0,0.0,0.0,0.008525390177965164,-0.0011327938409522176,-0.0,0.0,0.0,0.0,0.00029573883512057364,0.00102668022736907,-0.0017488524317741394,7836.0,32668.0,10385.0,38736.0,0.023305658251047134,0.12974557280540466,0.031950924545526505,0.16329041123390198,0.0,0.0,0.0,0.0,7753.0,32676.0,10054.0,38975.0,0.3473261892795563,-0.04953742077853064,0.05120523393358039,0.029614123695133526,0.004553640726953745,0.0342714749276638,-0.05359577015042305
450,5,-0.00031738317920826375,-0.00033414221252314746,-0.00026178089319728315,-0.013584152795374393,0.006000091787427664,0.038950033485889435,-0.03441997617483139,-0.009564253501594067,-0.03701118007302284,0.3636096715927124,-0.06521409749984741,-0.021270260214805603,0.0,0.0,0.0,-0.0072094895876944065,-0.01370630506426096,-0.0,0.0,0.0,0.0,-0.0002501821145415306,-0.0005923293647356331,-0.0017717649461701512,8548.0,35459.0,5908.0,38232.0,0.02566956728696823,0.1448083221912384,0.01711340993642807,0.16038957238197327,0.0,0.0,0.0,0.0,8688.0,35675.0,5832.0,37983.0,0.3471057116985321,-0.05957730548270097,0.040266722499169696,0.03160268668293599,0.05506092682480812,-0.028963349759578705,-0.17664270102977753
455,5,-0.00025304252631030977,-0.0004431896668393165,-0.0003064237826038152,0.0049324482679367065,0.017066674306988716,0.017935017123818398,-0.03441997617483139,-0.009564253501594067,-0.03701118007302284,0.3636096715927124,-0.06521409749984741,-0.021270260214805603,0.0,0.0,0.0,-0.01769043505191803,0.003644912736490369,-0.0,0.0,0.0,0.0,-0.0002501821145415306,-0.0005923293647356331,-0.0017717649461701512,8548.0,35459.0,5908.0,38232.0,0.02566956728696823,0.1448083221912384,0.01711340993642807,0.16038957238197327,0.0,0.0,0.0,0.0,8688.0,35675.0,5832.0,37983.0,0.3471207022666931,-0.05609699305320362,0.03259695159070391,0.031805342009206455,-0.014641480520367622,-0.0710693970322609,-0.11505933105945587
