timestamp,dt,pos_x,pos_y,pos_z,vel_x,vel_y,vel_z,roll,pitch,yaw,agv_x,agv_y,agv_z,x_ref,y_ref,z_ref,roll_ref,pitch_ref,yaw_ref,x_vel_ref,y_vel_ref,z_vel_ref,x_torque,y_torque,z_torque,w0,w1,w2,w3,u0,u1,u2,u3,m0req,m1req,m2req,m3req,thrust0,thrust1,thrust2,thrust3,thrust_ref,roll_vicon,pitch_vicon,yaw_vicon,acc_x,acc_y,acc_z
5,5,0.0,0.0,0.0,0.0034090825356543064,0.0031895553693175316,-0.00178917299490422,0.03749122843146324,0.0048979162238538265,0.007688325364142656,0.0010612908517941833,0.1290978491306305,-0.05268993601202965,0.0,0.0,0.0,-0.0032512994948774576,0.003475095611065626,-0.0,0.0,0.0,0.0,-0.0013489233097061515,0.0006698369979858398,0.0001498202618677169,0.0,0.0,0.0,0.0,0.0,0.0,0.0,0.0,0.0,0.0,0.0,0.0,0.0,0.0,0.0,0.0,0.3390374481678009,0.02595659029671519,0.03674599089077717,0.0007640146304651303,-0.013636330142617226,-0.012758221477270126,0.0053675188682973385
28,23,0.0,0.0,0.0,0.0027716464828699827,-0.0017213228857144713,-0.00234803999774158,0.03749122843146324,0.0048979162238538265,0.007688325364142656,0.0010612908517941833,0.1290978491306305,-0.05268993601202965,0.0,0.0,0.0,0.0017546525923535228,0.0028253202326595783,-0.0,0.0,0.0,0.0,-0.0013489233097061515,0.0006698369979858398,0.0001498202618677169,0.0,0.0,0.0,0.0,0.0,0.0,0.0,0.0,0.0,0.0,0.0,0.0,0.0,0.0,0.0,0.0,0.3390354812145233,0.026799902276618,0.039209608968598264,-0.0002652398805490482,-0.011086585931479931,0.006885291542857885,0.007044119760394096
33,5,0.0,0.0,0.0,8.84693072293885e-05,-0.0037135889288038015,0.00024338439106941223,0.03758721798658371,0.0031200244557112455,0.007200859487056732,0.012566708028316498,0.13318213820457458,-0.04148683324456215,0.0,0.0,0.0,0.0037854956462979317,9.018278069561347e-05,-0.0,0.0,0.0,0.0,-0.0013646151637658477,0.0008155648247338831,0.0001533848699182272,0.0,0.0,0.0,0.0,0.0,0.0,0.0,0.0,0.0,0.0,0.0,0.0,0.0,0.0,0.0,0.0,0.3390360176563263,0.027999140077879608,0.04013498715478612,4.165172090893013e-05,-0.000353877228917554,0.014854355715215206,-0.0007301531732082367
38,5,0.0,0.0,0.0,8.84693072293885e-05,-0.0037135889288038015,0.00024338439106941223,0.03758721798658371,0.0031200244557112455,0.007200859487056732,0.012566708028316498,0.13318213820457458,-0.04148683324456215,0.0,0.0,0.0,0.0037854956462979317,9.018278069561347e-05,-0.0,0.0,0.0,0.0,-0.0013646151637658477,0.0008155648247338831,0.0001533848699182272,0.0,0.0,0.0,0.0,0.0,0.0,0.0,0.0,0.0,0.0,0.0,0.0,0.0,0.0,0.0,0.0,0.3390360176563263,0.027999140077879608,0.04013498715478612,4.165172090893013e-05,-0.000353877228917554,0.014854355715215206,-0.0007301531732082367
43,5,0.0,0.0,0.0,-0.002674137009307742,0.0010859966278076172,0.0008697197190485895,0.03764268755912781,0.0022273084614425898,0.006923168431967497,0.0033974056132137775,0.05568082258105278,-0.033882301300764084,0.0,0.0,0.0,-0.001107025658711791,-0.002725922968238592,-0.0,0.0,0.0,0.0,-0.0011852141469717026,0.0004945741966366768,0.0001504881656728685,26835.0,23280.0,22611.0,21190.0,0.10029086470603943,0.08368365466594696,0.08066949248313904,0.07439146935939789,0.0,0.0,0.0,0.0,0.0,0.0,0.0,0.0,0.3390350639820099,0.027910716694725904,0.03931859984201712,-0.0006065136069256558,0.010696548037230968,-0.004343986511230469,-0.0026091590989381075
48,5,-4.2137726268265396e-05,8.769264968577772e-05,7.682664727326483e-05,-0.006701522506773472,-0.011951171793043613,-0.01049481425434351,0.03764268755912781,0.0022273084614425898,0.006923168431967497,0.0033974056132137775,0.05568082258105278,-0.033882301300764084,0.0,0.0,0.0,0.012315858155488968,-0.006895660422742367,-0.0,0.0,0.0,0.0,-0.0011852141469717026,0.0004945741966366768,0.0001504881656728685,26835.0,23280.0,22611.0,21190.0,0.10029086470603943,0.08368365466594696,0.08066949248313904,0.07439146935939789,0.0,0.0,0.0,0.0,0.0,0.0,0.0,0.0,0.33906736969947815,0.03170029635131865,0.03765971667396322,-0.0007000957350555396,0.02705908566713333,0.04833119362592697,0.03264068439602852
53,5,3.132450729026459e-05,-4.54587243439164e-05,-0.0004030315612908453,0.008274255320429802,0.015055840834975243,0.0640317052602768,0.03768984228372574,0.002428505104035139,0.006570033263415098,-0.00032194689265452325,-0.08440293371677399,-0.024948537349700928,0.0,0.0,0.0,-0.01541098952293396,0.008480670861899853,-0.0,0.0,0.0,0.0,-0.001116342144086957,-0.0004184714052826166,0.0001652486971579492,25666.0,24311.0,24032.0,19897.0,0.09471612423658371,0.08839236944913864,0.08711037784814835,0.0688171461224556,0.0,0.0,0.0,0.0,25176.0,24794.0,24183.0,19749.0,0.33908605575561523,0.022208686793724487,0.045322138805603984,-0.005855051597800754,-0.033278949558734894,-0.06047968566417694,-0.19885960221290588
58,5,-0.00021600120817311108,-6.755124923074618e-05,-0.00046364517766050994,-0.03214332088828087,0.007609705440700054,0.027695415541529655,0.03768984228372574,0.002428505104035139,0.006570033263415098,-0.00032194689265452325,-0.08440293371677399,-0.024948537349700928,0.0,0.0,0.0,-0.011527483351528645,-0.032376229763031006,-0.0,0.0,0.0,0.0,-0.001116342144086957,-0.0004184714052826166,0.0001652486971579492,25666.0,24311.0,24032.0,19897.0,0.09471612423658371,0.08839236944913864,0.08711037784814835,0.0688171461224556,0.0,0.0,0.0,0.0,25176.0,24794.0,24183.0,19749.0,0.3467104732990265,0.012884872317046188,0.015741693378644082,0.0024273271049928572,0.12989014387130737,-0.030837420374155045,-0.09169865399599075
63,5,-0.00010186216240981594,0.00018017143884208053,0.00011303104838589206,0.0063364687375724316,-0.03239826485514641,-0.07242604345083237,0.03768984228372574,0.002428505104035139,0.006570033263415098,-0.00032194689265452325,-0.08440293371677399,-0.024948537349700928,0.0,0.0,0.0,0.04887159913778305,0.006156053859740496,-0.0,0.0,0.0,0.0,-0.001116342144086957,-0.0004184714052826166,0.0001652486971579492,25666.0,24311.0,24032.0,19897.0,0.09471612423658371,0.08839236944913864,0.08711037784814835,0.0688171461224556,0.0,0.0,0.0,0.0,25176.0,24794.0,24183.0,19749.0,0.3468106687068939,0.036032685854584176,0.03470825474647769,-0.002007345728999027,-0.024680614471435547,0.13067124783992767,0.2164405882358551
68,5,-0.0002148826461052522,0.0001285251200897619,0.0002380252117291093,-0.013921926729381084,-0.002488994738087058,-0.039226993918418884,0.03766295686364174,0.0036804107949137688,0.0062745679169893265,-0.011927865445613861,-0.2108328640460968,-0.009951194748282433,0.0,0.0,0.0,0.004113674629479647,-0.014538620598614216,-0.0,0.0,0.0,0.0,-0.0010871485574170947,-0.0012306765420362353,0.00015503430040553212,24572.0,25328.0,25129.0,18781.0,0.08960064500570297,0.09312834590673447,0.09219210594892502,0.06411492079496384,0.0,0.0,0.0,0.0,25680.0,25878.0,24313.0,17827.0,0.3390723168849945,0.033033606146089876,0.03885055269076956,-0.0029877392084785345,0.05705399811267853,0.010762794874608517,0.11903604120016098
73,5,-0.00042795733315870166,0.00028759834822267294,0.0001314948603976518,-0.034007031470537186,-0.023016951978206635,0.00314615061506629,0.037600792944431305,0.006350266747176647,0.006007414311170578,-0.0008381525403819978,-0.20621751248836517,-0.027485264465212822,0.0,0.0,0.0,0.03433593362569809,-0.033844877034425735,-0.0,0.0,0.0,0.0,-0.0017393188318237662,-0.0012330912286415696,0.00015179128968156874,25425.0,26184.0,23959.0,18162.0,0.09358436614274979,0.09717325121164322,0.08677665144205093,0.061551786959171295,0.0,0.0,0.0,0.0,25680.0,25878.0,24313.0,17827.0,0.3545098900794983,0.03564009179669977,0.050635146000530824,-0.004832401050902386,0.13876213133335114,0.09388460963964462,-0.00873649027198553
79,5,-0.0008554369560442865,0.00018487022316548973,2.5752917281351984e-05,-0.07004926353693008,0.007476852275431156,0.015747716650366783,0.037600792944431305,0.006350266747176647,0.006007414311170578,-0.0008381525403819978,-0.20621751248836517,-0.027485264465212822,0.0,0.0,0.0,-0.009734177961945534,-0.0647130161523819,-0.0,0.0,0.0,0.0,-0.0017393188318237662,-0.0012330912286415696,0.00015179128968156874,25425.0,26184.0,23959.0,18162.0,0.09358436614274979,0.09717325121164322,0.08677665144205093,0.061551786959171295,0.0,0.0,0.0,0.0,25680.0,25878.0,24313.0,17827.0,0.38156238198280334,0.035853827730425246,0.06627845154476973,-0.010072573933636721,0.28557640314102173,-0.028657594695687294,-0.04785389080643654
84,5,-0.00043747780728153884,0.00031140976352617145,9.217522165272385e-05,0.037499506026506424,-0.015472477301955223,-0.0045748078264296055,0.03748178854584694,0.007405309937894344,0.006073539610952139,-0.013757835142314434,-0.07612641900777817,0.042478181421756744,0.0,0.0,0.0,0.023499326780438423,0.03600003570318222,-0.0,0.0,0.0,0.0,0.00039748408016748726,-0.0006066663190722466,0.00024156276776921004,24728.0,22047.0,27133.0,21694.0,0.0903252437710762,0.07815571874380112,0.1017327681183815,0.07659789174795151,0.0,0.0,0.0,0.0,24051.0,24857.0,28437.0,19770.0,0.3527967035770416,0.03545065823207177,0.04830673276273865,-0.004187407611004688,-0.14692556858062744,0.06395798921585083,0.014256713911890984
89,5,-0.0005755139864049852,0.0002607456990517676,8.135049574775621e-05,-0.008075213991105556,0.002451223088428378,0.00014301977353170514,0.03748178854584694,0.007405309937894344,0.006073539610952139,-0.013757835142314434,-0.07612641900777817,0.042478181421756744,0.0,0.0,0.0,-0.003028807695955038,-0.00928502157330513,-0.0,0.0,0.0,0.0,0.00039748408016748726,-0.0006066663190722466,0.00024156276776921004,24728.0,22047.0,27133.0,21694.0,0.0903252437710762,0.07815571874380112,0.1017327681183815,0.07659789174795151,0.0,0.0,0.0,0.0,24051.0,24857.0,28437.0,19770.0,0.339049756526947,0.037772574182738355,0.052691247309421325,-0.0053418353681322145,0.036436621099710464,-0.007923191413283348,0.0003934133565053344
95,6,-0.0003335277724545449,0.00010847851081052795,6.862646841909736e-05,0.03145550563931465,0.02205277420580387,0.0018242690712213516,0.03748178854584694,0.007405309937894344,0.006073539610952139,-0.013757835142314434,-0.07612641900777817,0.042478181421756744,0.0,0.0,0.0,-0.032248932868242264,0.030354170128703117,-0.0,0.0,0.0,0.0,0.00039748408016748726,-0.0006066663190722466,0.00024156276776921004,24728.0,22047.0,27133.0,21694.0,0.0903252437710762,0.07815571874380112,0.1017327681183815,0.07659789174795151,0.0,0.0,0.0,0.0,24051.0,24857.0,28437.0,19770.0,0.3507329523563385,0.03542975157809059,0.046153699115929855,-0.0038341477960975247,-0.12313701957464218,-0.0872424766421318,-0.004839479457587004
100,5,-0.00036606015055440366,0.0002443088451400399,0.00015503802569583058,0.004882119596004486,-0.012400413863360882,-0.01155033614486456,0.037448469549417496,0.008079767227172852,0.006129905581474304,0.011940098367631435,-0.02262018248438835,-0.009734529070556164,0.0,0.0,0.0,0.019651709124445915,0.004221884533762932,-0.0,0.0,0.0,0.0,-0.00011276816803729162,-0.0016397421713918447,0.0001696418330539018,23777.0,25254.0,27602.0,20586.0,0.08594298362731934,0.0927792489528656,0.1040116548538208,0.0717720091342926,0.0,0.0,0.0,0.0,27554.0,22138.0,23905.0,23336.0,0.3391020894050598,0.030516865557532344,0.04339282836440619,-0.004563234029325928,-0.016566773876547813,0.05141226947307587,0.03679414093494415
106,7,-0.0008940825355239213,3.021986412932165e-05,0.0005057010566815734,-0.018952766433358192,0.01834164559841156,-0.020881040021777153,0.037377286702394485,0.00783444382250309,0.006218511611223221,-0.027062416076660156,0.049900464713573456,-0.002798055997118354,0.0,0.0,0.0,-0.02762855775654316,-0.020835164934396744,-0.0,0.0,0.0,0.0,-0.00041328422958031297,0.0012054112739861012,0.00021236894826870412,27920.0,21495.0,23773.0,23699.0,0.10556221008300781,0.07572504878044128,0.08592574298381805,0.0855855792760849,0.0,0.0,0.0,0.0,27554.0,22138.0,23905.0,23336.0,0.34143680334091187,0.02359646736784992,0.06830561509460138,-0.00814551127546898,0.0823010504245758,-0.07276895642280579,0.07242605835199356
113,6,-0.0009061730816029012,-6.805135853937827e-06,0.0005406282725743949,-0.007378507871180773,0.010685993358492851,-0.01115412823855877,0.037377286702394485,0.00783444382250309,0.006218511611223221,-0.027062416076660156,0.049900464713573456,-0.002798055997118354,0.0,0.0,0.0,-0.016194576397538185,-0.009194482117891312,-0.0,0.0,0.0,0.0,-0.00041328422958031297,0.0012054112739861012,0.00021236894826870412,27920.0,21495.0,23773.0,23699.0,0.10556221008300781,0.07572504878044128,0.08592574298381805,0.0855855792760849,0.0,0.0,0.0,0.0,27554.0,22138.0,23905.0,23336.0,0.3390924036502838,0.022882359093100827,0.07009882047914613,-0.008396921747312118,0.03608197346329689,-0.042368460446596146,0.04380890354514122
118,5,-0.0008712669368833303,-1.3917963769927155e-05,0.00046347497845999897,0.002673309063538909,0.004201593808829784,0.0074552251026034355,0.037506598979234695,0.007127158343791962,0.0061874897219240665,0.03441765531897545,0.07400970906019211,0.015316351316869259,0.0,0.0,0.0,-0.00629795528948307,0.0010367949726060033,-0.0,0.0,0.0,0.0,-0.0023763461504131556,0.0012311391765251756,0.00019806603086180985,30320.0,23987.0,20985.0,20816.0,0.11756281554698944,0.08690468966960907,0.07349584996700287,0.07276533544063568,0.0,0.0,0.0,0.0,26289.0,22372.0,24173.0,21116.0,0.33904051780700684,0.024650269527043713,0.06962592882694318,-0.008919352816074092,-0.004066642373800278,-0.016475584357976913,-0.011179989203810692
123,5,-0.0008107029716484249,-1.1810411706392188e-05,0.0004997950745746493,0.009280944243073463,0.0009654209134168923,-0.002848242875188589,0.037506598979234695,0.007127158343791962,0.0061874897219240665,0.03441765531897545,0.07400970906019211,0.015316351316869259,0.0,0.0,0.0,-0.0013463636860251427,0.007801382802426815,-0.0,0.0,0.0,0.0,-0.0023763461504131556,0.0012311391765251756,0.00019806603086180985,30320.0,23987.0,20985.0,20816.0,0.11756281554698944,0.08690468966960907,0.07349584996700287,0.07276533544063568,0.0,0.0,0.0,0.0,26289.0,22372.0,24173.0,21116.0,0.3390442132949829,0.02603757044543404,0.06850447514590755,-0.008118169989292249,-0.0306132473051548,-0.0035221953876316547,0.021921459585428238
128,5,-0.0007379988091997802,3.4929649700643495e-05,0.00043428110075183213,0.012962871231138706,-0.006253981962800026,0.008317479863762856,0.037506598979234695,0.007127158343791962,0.0061874897219240665,0.03441765531897545,0.07400970906019211,0.015316351316869259,0.0,0.0,0.0,0.009797647595405579,0.011609267443418503,-0.0,0.0,0.0,0.0,-0.0023763461504131556,0.0012311391765251756,0.00019806603086180985,30320.0,23987.0,20985.0,20816.0,0.11756281554698944,0.08690468966960907,0.07349584996700287,0.07276533544063568,0.0,0.0,0.0,0.0,26289.0,22372.0,24173.0,21116.0,0.33907273411750793,0.026687673086368616,0.06481017467746675,-0.008014921807665283,-0.04555681347846985,0.025632737204432487,-0.010860752314329147
133,5,-0.0007121108355931938,8.484763611704693e-07,0.00043320798431523144,0.007513177115470171,0.002895169425755739,0.0026454816106706858,0.03733902797102928,0.006884220987558365,0.005914846435189247,0.0028516941238194704,0.06143766641616821,-0.04058881476521492,0.0,0.0,0.0,-0.004265206400305033,0.006037661340087652,-0.0,0.0,0.0,0.0,-0.0018002548022195697,-0.0004974468611180782,0.00014800623466726393,25328.0,23153.0,23194.0,22366.0,0.09312918037176132,0.08310557156801224,0.08329286426305771,0.0795745924115181,0.0,0.0,0.0,0.0,25914.0,22799.0,23859.0,21417.0,0.33904287219047546,0.022754590769048014,0.06726949456113472,-0.008746058656643498,-0.023692071437835693,-0.01115801278501749,0.007767646107822657
138,5,-0.0008108151378110051,0.000297950318781659,0.0005009263404645026,-0.011564650572836399,-0.0407257080078125,-0.008686929009854794,0.03733902797102928,0.006884220987558365,0.005914846435189247,0.0028516941238194704,0.06143766641616821,-0.04058881476521492,0.0,0.0,0.0,0.05958632007241249,-0.012856130488216877,-0.0,0.0,0.0,0.0,-0.0018002548022195697,-0.0004974468611180782,0.00014800623466726393,25328.0,23153.0,23194.0,22366.0,0.09312918037176132,0.08310557156801224,0.08329286426305771,0.0795745924115181,0.0,0.0,0.0,0.0,25914.0,22799.0,23859.0,21417.0,0.35567718744277954,0.01731892102189839,0.061228612984951934,-0.010425562710370522,0.052828602492809296,0.1633257418870926,0.044372692704200745
143,5,-0.0006106893415562809,0.0001240969868376851,0.00015336468641180545,0.024548212066292763,0.012121752835810184,0.04605255648493767,0.0376431904733181,0.006568078882992268,0.00582017470151186,0.006604168098419905,0.06488322466611862,-0.024558264762163162,0.0,0.0,0.0,-0.018017053604125977,0.02339857630431652,-0.0,0.0,0.0,0.0,-0.0008818225469440222,-9.044924809131771e-06,0.00011836236080853269,25862.0,23600.0,23162.0,21363.0,0.09564550966024399,0.08513366430997849,0.08314839750528336,0.07514513283967972,0.0,0.0,0.0,0.0,26793.0,24813.0,22604.0,19622.0,0.3399544656276703,0.023290450037065747,0.055589930331659314,-0.004174624051238825,-0.09204082936048508,-0.047254983335733414,-0.12359883636236191
148,5,-0.0006045724148862064,0.0003539267345331609,0.00046911422396078706,0.008220833726227283,-0.028539637103676796,-0.030389167368412018,0.0376431904733181,0.006568078882992268,0.00582017470151186,0.006604168098419905,0.06488322466611862,-0.024558264762163162,0.0,0.0,0.0,0.044060684740543365,0.006696642376482487,-0.0,0.0,0.0,0.0,-0.0008818225469440222,-9.044924809131771e-06,0.00011836236080853269,25862.0,23600.0,23162.0,21363.0,0.09564550966024399,0.08513366430997849,0.08314839750528336,0.07514513283967972,0.0,0.0,0.0,0.0,26793.0,24813.0,22604.0,19622.0,0.3437902331352234,0.02014659079988008,0.05610178578805768,-0.00915928756154358,-0.02662024088203907,0.11680004745721817,0.11093439906835556
153,5,-0.000366159831173718,0.00012443253945093602,0.0003399139386601746,0.03584401309490204,0.02356729470193386,0.008971290662884712,0.03751461207866669,0.006683157291263342,0.005645935423672199,0.01856733299791813,0.0037289767060428858,-0.016176775097846985,0.0,0.0,0.0,-0.034001290798187256,0.03377395123243332,-0.0,0.0,0.0,0.0,0.0006919275620020926,-0.000631120172329247,0.00010031186684500426,23582.0,23508.0,26958.0,23672.0,0.08505154401063919,0.08471640199422836,0.10088499635457993,0.0854615643620491,0.0,0.0,0.0,0.0,26672.0,22901.0,23636.0,20707.0,0.3543168604373932,0.024628938762886864,0.053085711312347315,-0.00516680771889458,-0.13839614391326904,-0.09291896224021912,-0.0076521397568285465
158,5,-0.0002453579509165138,0.00011837916099466383,0.00029923004331067204,0.02766546607017517,0.007917662151157856,0.008387129753828049,0.03751461207866669,0.006683157291263342,0.005645935423672199,0.01856733299791813,0.0037289767060428858,-0.016176775097846985,0.0,0.0,0.0,-0.01150829903781414,0.02690080925822258,-0.0,0.0,0.0,0.0,0.0006919275620020926,-0.000631120172329247,0.00010031186684500426,23582.0,23508.0,26958.0,23672.0,0.08505154401063919,0.08471640199422836,0.10088499635457993,0.0854615643620491,0.0,0.0,0.0,0.0,26672.0,22901.0,23636.0,20707.0,0.3415347933769226,0.02173351128202383,0.04808304872784932,-0.005003689939748852,-0.10631716996431351,-0.03032616339623928,-0.005466714035719633
163,5,-0.00021350984752643853,0.0001346544158877805,0.00028603003011085093,0.012758375145494938,9.67629166552797e-05,0.0043641445226967335,0.037805747240781784,0.006603281944990158,0.005585605278611183,0.024689003825187683,0.006825222168117762,-0.023363785818219185,0.0,0.0,0.0,0.0004141886020079255,0.011931441724300385,-0.0,0.0,0.0,0.0,0.0002510432677809149,0.00017792453581932932,0.00011134542000945657,24535.0,22360.0,24905.0,23277.0,0.08942843973636627,0.0795469880104065,0.0911492258310318,0.08366918563842773,0.0,0.0,0.0,0.0,24443.0,22487.0,27787.0,22926.0,0.3390577733516693,0.020598795037494837,0.04586667609467693,-0.005392249122460193,-0.04682119935750961,0.0010835945140570402,0.007300941739231348
168,5,-0.00013493435108102858,0.0002613947435747832,0.0002600288134999573,0.014828083105385303,-0.017714617773890495,0.004949413239955902,0.037805747240781784,0.006603281944990158,0.005585605278611183,0.024689003825187683,0.006825222168117762,-0.023363785818219185,0.0,0.0,0.0,0.027949444949626923,0.0141444755718112,-0.0,0.0,0.0,0.0,0.0002510432677809149,0.00017792453581932932,0.00011134542000945657,24535.0,22360.0,24905.0,23277.0,0.08942843973636627,0.0795469880104065,0.0911492258310318,0.08366918563842773,0.0,0.0,0.0,0.0,24443.0,22487.0,27787.0,22926.0,0.3391999900341034,0.02084348561019018,0.04182509976154003,-0.006663236064533621,-0.055506352335214615,0.07313204556703568,0.006253732834011316
173,5,4.621587504516356e-05,0.0003236995544284582,7.981615635799244e-05,0.029809456318616867,-0.014037055894732475,0.026714593172073364,0.037639349699020386,0.005907448474317789,0.005634948145598173,-0.00993723701685667,0.06159176677465439,-0.012553823180496693,0.0,0.0,0.0,0.02205047942698002,0.029091786593198776,-0.0,0.0,0.0,0.0,-0.0016593397594988346,0.0007975318585522473,0.00013551360461860895,28006.0,23472.0,21339.0,21546.0,0.10598479956388474,0.08455320447683334,0.07504098862409592,0.07594960182905197,0.0,0.0,0.0,0.0,25239.0,21666.0,25609.0,22498.0,0.3460700213909149,0.017722566245647556,0.03183206270959163,-0.009170210886910068,-0.11648070067167282,0.0588718056678772,-0.06081590801477432
178,5,-0.00017623692110646516,-0.00018447030743118376,-0.0004911203868687153,-0.022200554609298706,0.06693266332149506,0.08794549107551575,0.037639349699020386,0.005907448474317789,0.005634948145598173,-0.00993723701685667,0.06159176677465439,-0.012553823180496693,0.0,0.0,0.0,-0.09126412123441696,-0.021116234362125397,-0.0,0.0,0.0,0.0,-0.0016593397594988346,0.0007975318585522473,0.00013551360461860895,28006.0,23472.0,21339.0,21546.0,0.10598479956388474,0.08455320447683334,0.07504098862409592,0.07594960182905197,0.0,0.0,0.0,0.0,25239.0,21666.0,25609.0,22498.0,0.38166266679763794,-0.005781152409419711,0.01889080975322823,0.003903018165936051,0.09288357943296432,-0.2679784893989563,-0.25285574793815613
184,5,-9.435947140445933e-05,-0.0002480584953445941,-0.0005828950670547783,0.004802677780389786,0.028982143849134445,0.039232105016708374,0.037402961403131485,0.005635341163724661,0.005799581296741962,-0.015390357933938503,0.051405783742666245,0.01754421927034855,0.0,0.0,0.0,-0.04404880478978157,0.003924393095076084,-0.0,0.0,0.0,0.0,-0.00023712134861852974,0.000772307044826448,0.00017907789151649922,26414.0,21183.0,23626.0,22756.0,0.09827166795730591,0.07435894012451172,0.08525188267230988,0.08131761848926544,0.0,0.0,0.0,0.0,28571.0,22710.0,21990.0,21041.0,0.3433036804199219,-0.008318161398812644,0.011845387462210361,0.005655310614950996,-0.015578105114400387,-0.11660333722829819,-0.10959702730178833
189,5,-5.2603227231884375e-05,-0.0002450343454256654,-0.0005857236683368683,0.00728667713701725,0.008271263912320137,0.01216563768684864,0.037402961403131485,0.005635341163724661,0.005799581296741962,-0.015390357933938503,0.051405783742666245,0.01754421927034855,0.0,0.0,0.0,-0.012920535169541836,0.006560062989592552,-0.0,0.0,0.0,0.0,-0.00023712134861852974,0.000772307044826448,0.00017907789151649922,26414.0,21183.0,23626.0,22756.0,0.09827166795730591,0.07435894012451172,0.08525188267230988,0.08131761848926544,0.0,0.0,0.0,0.0,28571.0,22710.0,21990.0,21041.0,0.3390691876411438,-0.005219210433123591,0.010581998000331268,0.004785195266752351,-0.025742055848240852,-0.03380168229341507,-0.030203521251678467
194,5,-6.655465404037386e-05,-0.00023099462850950658,-0.0005623833858408034,0.00023280360619537532,0.0005158173735253513,0.00038205343298614025,0.03739151358604431,0.006135765463113785,0.006240602117031813,-0.01616918109357357,-0.14572665095329285,0.04153146594762802,0.0,0.0,0.0,-0.0010557296918705106,-0.0006552949198521674,-0.0,0.0,0.0,0.0,-0.004231533035635948,-0.0007477672188542783,0.00026392657309770584,31335.0,30671.0,24105.0,15813.0,0.12277477234601974,0.11935301870107651,0.08744672685861588,0.05209646746516228,0.0,0.0,0.0,0.0,25537.0,22345.0,25238.0,20847.0,0.3390338718891144,-0.004430855735862502,0.008774301908824084,0.004241380807945871,0.002571377670392394,-0.00276178983040154,0.003521101549267769
199,5,-7.540620572399348e-05,-0.00019301619613543153,-0.0005253166891634464,-0.0011693767737597227,-0.00516223581507802,-0.005074728280305862,0.03739151358604431,0.006135765463113785,0.006240602117031813,-0.01616918109357357,-0.14572665095329285,0.04153146594762802,0.0,0.0,0.0,0.0076881637796759605,-0.0021030285861343145,-0.0,0.0,0.0,0.0,-0.004231533035635948,-0.0007477672188542783,0.00026392657309770584,31335.0,30671.0,24105.0,15813.0,0.12277477234601974,0.11935301870107651,0.08744672685861588,0.05209646746516228,0.0,0.0,0.0,0.0,25537.0,22345.0,25238.0,20847.0,0.33904436230659485,-0.002317981776986461,0.008261351379929003,0.0037497954017674143,0.008252296596765518,0.020112456753849983,0.018439706414937973
204,5,-0.00010618034866638482,-0.0001923693052958697,-0.0004602858971338719,-0.004659193102270365,-0.0016392340185120702,-0.010626723989844322,0.03719272091984749,0.006774991285055876,0.006615343037992716,0.00863421056419611,-0.12490936368703842,0.03368591144680977,0.0,0.0,0.0,0.002281886525452137,-0.0057129207998514175,-0.0,0.0,0.0,0.0,-0.0015861481660977006,-0.0012097201542928815,0.00024345333804376423,26078.0,25185.0,24685.0,17739.0,0.09666787087917328,0.09245847165584564,0.09012560546398163,0.059817325323820114,0.0,0.0,0.0,0.0,31134.0,30924.0,24300.0,15516.0,0.33904001116752625,-0.002460985702447494,0.008250111194895993,0.0026130295961485387,0.022417744621634483,0.005969516932964325,0.03420953452587128
209,5,-0.00032391611603088677,-0.00027963906177319586,-0.0003885362239088863,-0.03188076242804527,0.011725994758307934,-0.013232974335551262,0.03719272091984749,0.006774991285055876,0.006615343037992716,0.00863421056419611,-0.12490936368703842,0.03368591144680977,0.0,0.0,0.0,-0.017881423234939575,-0.03290104493498802,-0.0,0.0,0.0,0.0,-0.0015861481660977006,-0.0012097201542928815,0.00024345333804376423,26078.0,25185.0,24685.0,17739.0,0.09666787087917328,0.09245847165584564,0.09012560546398163,0.059817325323820114,0.0,0.0,0.0,0.0,31134.0,30924.0,24300.0,15516.0,0.34844133257865906,-0.013491098539037133,0.018829014688113013,0.004306923232860881,0.1326410174369812,-0.04807041957974434,0.04144929349422455
214,5,-0.00019097040058113635,-0.00023912916367407888,-0.00014428002759814262,0.009048168547451496,-0.002153585897758603,-0.03816575929522514,0.037215735763311386,0.008617748506367207,0.007250445894896984,0.005672411061823368,-0.18693959712982178,0.07411257922649384,0.0,0.0,0.0,0.002914492040872574,0.00810273364186287,-0.0,0.0,0.0,0.0,-0.0016893354477360845,-0.0009905535262078047,0.0002756440080702305,25664.0,24042.0,26360.0,17579.0,0.0947103351354599,0.08715535700321198,0.0980139970779419,0.05916464328765869,0.0,0.0,0.0,0.0,24934.0,24527.0,26893.0,17241.0,0.3390461802482605,-0.0012650559575151355,0.0003391130923621751,-0.0059693943640989275,-0.0317954383790493,0.007624092977494001,0.11876419931650162
219,5,-0.0003909295774064958,-0.00015554673154838383,-7.048237603157759e-05,-0.025279833003878593,-0.012347618117928505,-0.021781397983431816,0.037215735763311386,0.008617748506367207,0.007250445894896984,0.005672411061823368,-0.18693959712982178,0.07411257922649384,0.0,0.0,0.0,0.018447766080498695,-0.02689559943974018,-0.0,0.0,0.0,0.0,-0.0016893354477360845,-0.0009905535262078047,0.0002756440080702305,25664.0,24042.0,26360.0,17579.0,0.0947103351354599,0.08715535700321198,0.0980139970779419,0.05916464328765869,0.0,0.0,0.0,0.0,24934.0,24527.0,26893.0,17241.0,0.3430992364883423,0.0056766418324933395,0.0068555939865963395,-0.006818469154690651,0.10677288472652435,0.04883222654461861,0.07019515335559845
224,5,-0.0003116372972726822,-0.00017811264842748642,-9.453916572965682e-05,0.003516968572512269,-0.0005450556054711342,-0.003166469046846032,0.037215735763311386,0.008617748506367207,0.007250445894896984,0.005672411061823368,-0.18693959712982178,0.07411257922649384,0.0,0.0,0.0,0.0005537029355764389,0.0022413732949644327,-0.0,0.0,0.0,0.0,-0.0016893354477360845,-0.0009905535262078047,0.0002756440080702305,25664.0,24042.0,26360.0,17579.0,0.0947103351354599,0.08715535700321198,0.0980139970779419,0.05916464328765869,0.0,0.0,0.0,0.0,24934.0,24527.0,26893.0,17241.0,0.3390344977378845,-0.0009872643556261178,0.0007114306083282798,-0.006695761783891159,-0.008794540539383888,0.0014481343096122146,0.013770372606813908
229,5,-0.0003275616909377277,-0.00015325460117310286,-3.1381958251586184e-05,-0.0011743232607841492,-0.0036436435766518116,-0.009791949763894081,0.037036098539829254,0.010351095348596573,0.007483901921659708,-0.01647276245057583,-0.24030978977680206,0.04100080206990242,0.0,0.0,0.0,0.0053286198526620865,-0.002588492352515459,-0.0,0.0,0.0,0.0,-0.0009152724524028599,-0.001827662461437285,0.0002972557849716395,24948.0,27672.0,27759.0,14756.0,0.09134836494922638,0.10434915125370026,0.1047767698764801,0.04798790439963341,0.0,0.0,0.0,0.0,24986.0,27716.0,27429.0,15070.0,0.33903953433036804,0.0033439847132681554,0.0017396802457786153,-0.005973136611064974,0.01015792228281498,0.013939468190073967,0.03425305709242821
234,5,-0.0004523145908024162,-4.434071888681501e-05,-5.2834569942206144e-05,-0.017817704007029533,-0.016341036185622215,6.578078318852931e-05,0.037036098539829254,0.010351095348596573,0.007483901921659708,-0.01647276245057583,-0.24030978977680206,0.04100080206990242,0.0,0.0,0.0,0.024945691227912903,-0.01974872313439846,-0.0,0.0,0.0,0.0,-0.0009152724524028599,-0.001827662461437285,0.0002972557849716395,24948.0,27672.0,27759.0,14756.0,0.09134836494922638,0.10434915125370026,0.1047767698764801,0.04798790439963341,0.0,0.0,0.0,0.0,24986.0,27716.0,27429.0,15070.0,0.33952343463897705,0.011943742736148058,0.016792792723299577,-0.004930380824071989,0.07757676392793655,0.0653379037976265,0.004241675138473511
239,5,-0.0002304216759512201,-0.00010603647388052195,-3.556321098585613e-05,0.025719698518514633,0.003735094331204891,-0.002398255979642272,0.037056729197502136,0.012808527797460556,0.00746918423101306,0.0030953704845160246,-0.1526128351688385,-0.003255436196923256,0.0,0.0,0.0,-0.005865149665623903,0.02491692826151848,-0.0,0.0,0.0,0.0,-0.0017936818767338991,-0.002917063422501087,0.00024324090918526053,24820.0,27912.0,27088.0,15448.0,0.09075440466403961,0.1055237352848053,0.10151423513889313,0.05066981911659241,0.0,0.0,0.0,0.0,24747.0,25346.0,24990.0,18721.0,0.3391447067260742,0.00656464985232295,0.0021623262182601903,-0.009224936536333392,-0.09779380261898041,-0.015348286367952824,0.011730795726180077
244,5,-0.00018563568301033229,3.9342401578323916e-05,5.980699825158808e-06,0.013985947705805302,-0.01923251338303089,-0.006535624153912067,0.037056729197502136,0.012808527797460556,0.00746918423101306,0.0030953704845160246,-0.1526128351688385,-0.003255436196923256,0.0,0.0,0.0,0.029567023739218712,0.013011391274631023,-0.0,0.0,0.0,0.0,-0.0017936818767338991,-0.002917063422501087,0.00024324090918526053,24820.0,27912.0,27088.0,15448.0,0.09075440466403961,0.1055237352848053,0.10151423513889313,0.05066981911659241,0.0,0.0,0.0,0.0,24747.0,25346.0,24990.0,18721.0,0.339210569858551,0.008000977015892046,6.304077038328381e-05,-0.013270064132821944,-0.05105958133935928,0.07736390084028244,0.02463759109377861
249,5,-0.0006922502652741969,-1.880323361547198e-05,0.00019236431398894638,-0.06673026084899902,0.0023706345818936825,-0.02805439382791519,0.03679494932293892,0.014015360735356808,0.007147668860852718,-0.05726740136742592,-0.15349173545837402,-0.05602363869547844,0.0,0.0,0.0,-0.003211129689589143,-0.06273841857910156,-0.0,0.0,0.0,0.0,-0.001140598556958139,-0.0007237024256028235,0.00017215816478710622,25455.0,24594.0,24364.0,19461.0,0.09372448921203613,0.08970250189304352,0.08864039182662964,0.0664994865655899,0.0,0.0,0.0,0.0,22741.0,25172.0,26484.0,19532.0,0.3788277208805084,0.014851249640311417,0.027392300258825955,-0.00552814778596065,0.27489978075027466,-0.009386269375681877,0.09201599657535553
255,5,-0.00033394317142665386,-3.818147160927765e-05,0.00011958376126131043,0.030143918469548225,0.0034241436515003443,0.001772959716618061,0.03679494932293892,0.014015360735356808,0.007147668860852718,-0.05726740136742592,-0.15349173545837402,-0.05602363869547844,0.0,0.0,0.0,-0.0051903510466217995,0.028898414224386215,-0.0,0.0,0.0,0.0,-0.001140598556958139,-0.0007237024256028235,0.00017215816478710622,25455.0,24594.0,24364.0,19461.0,0.09372448921203613,0.08970250189304352,0.08864039182662964,0.0664994865655899,0.0,0.0,0.0,0.0,22741.0,25172.0,26484.0,19532.0,0.3426154553890228,0.010337697835867105,0.007848361246266358,-0.007429673917044174,-0.11457791179418564,-0.013721277937293053,0.0020301062613725662
260,5,-0.000537928834091872,-0.00023573817452415824,-0.0005048318416811526,-0.019514819607138634,0.028685182332992554,0.08795007318258286,0.03687363490462303,0.015167087316513062,0.006787256337702274,0.012218436226248741,-0.03392840921878815,-0.01288694329559803,0.0,0.0,0.0,-0.0051940856501460075,0.028879685327410698,-0.0,0.0,0.0,0.0,-0.0004066045512445271,-0.0015385276637971401,0.00015386156155727804,23703.0,24511.0,26071.0,19696.0,0.08560605347156525,0.08931896090507507,0.09663672745227814,0.06796398758888245,0.0,0.0,0.0,0.0,24453.0,22971.0,25933.0,20614.0,0.34259775280952454,-0.019055103617872767,-0.001731067314359408,-0.00379130192145648,0.08536218106746674,-0.11596040427684784,-0.2655213475227356
265,5,-0.0005154106765985489,-0.00029474272741936147,-0.00043788825860247016,-0.0027019053231924772,0.01686619035899639,0.01701292209327221,0.03687363490462303,0.015167087316513062,0.006787256337702274,0.012218436226248741,-0.03392840921878815,-0.01288694329559803,0.0,0.0,0.0,-0.026409422978758812,-0.004613449331372976,-0.0,0.0,0.0,0.0,-0.0004066045512445271,-0.0015385276637971401,0.00015386156155727804,23703.0,24511.0,26071.0,19696.0,0.08560605347156525,0.08931896090507507,0.09663672745227814,0.06796398758888245,0.0,0.0,0.0,0.0,24453.0,22971.0,25933.0,20614.0,0.3391554653644562,-0.014489226973026558,-0.0015276171946975098,-0.002446118322200222,0.018103303387761116,-0.06909492611885071,-0.05320258438587189
270,5,-0.000588206690736115,-0.00020694482373073697,-0.0005199935985729098,-0.011002006940543652,-0.007231848780065775,0.016598625108599663,0.035574913024902344,0.015674810856580734,0.0066406866535544395,-0.2366068810224533,-0.0020624103490263224,-0.017532916739583015,0.0,0.0,0.0,-0.02644253335893154,-0.004652064759284258,-0.0,0.0,0.0,0.0,-0.0009084782795980573,0.0012867451878264546,0.0002392586466157809,23684.0,22515.0,25794.0,22040.0,0.08551891148090363,0.08024202287197113,0.09532181918621063,0.07812781631946564,0.0,0.0,0.0,0.0,25228.0,20855.0,24865.0,23053.0,0.33915582299232483,-0.009920760003192065,-0.0010901451946207464,0.0014468921074117435,0.051893193274736404,0.027736948803067207,-0.05481351166963577
275,5,-0.0006507086800411344,-9.101079922402278e-05,-0.00039114285027608275,-0.012050887569785118,-0.018400317057967186,-0.013059520162642002,0.035574913024902344,0.015674810856580734,0.0066406866535544395,-0.2366068810224533,-0.0020624103490263224,-0.017532916739583015,0.0,0.0,0.0,0.027915650978684425,-0.014434590935707092,-0.0,0.0,0.0,0.0,-0.0009084782795980573,0.0012867451878264546,0.0002392586466157809,23684.0,22515.0,25794.0,22040.0,0.08551891148090363,0.08024202287197113,0.09532181918621063,0.07812781631946564,0.0,0.0,0.0,0.0,25228.0,20855.0,24865.0,23053.0,0.33920109272003174,-0.015758032864177495,0.0035746249030839537,1.7667477314680292e-05,0.05664527043700218,0.07304338365793228,0.034101370722055435
280,5,-0.0006318241357803345,-8.071899355854839e-05,-0.0003529379901010543,-0.00097142334561795,-0.006960948463529348,-0.009266536682844162,0.03327825665473938,0.014411899261176586,0.006629875395447016,-0.13338372111320496,0.16758134961128235,0.027674473822116852,0.0,0.0,0.0,0.010443765670061111,-0.0031604054383933544,-0.0,0.0,0.0,0.0,-0.0017906451830640435,0.0006862549344077706,0.0002889657625928521,28700.0,21002.0,22679.0,22158.0,0.10941239446401596,0.0735699012875557,0.08097489923238754,0.07865086942911148,0.0,0.0,0.0,0.0,28714.0,21032.0,22153.0,22639.0,0.33905377984046936,-0.013846477406770336,0.004259108210576579,2.7053426270865465e-05,0.012402735650539398,0.027321306988596916,0.021879512816667557
285,5,-0.0006125498912297189,-0.00012548068480100483,-0.0005223327316343784,0.002406961051747203,0.0041783517226576805,0.020935308188199997,0.03327825665473938,0.014411899261176586,0.006629875395447016,-0.13338372111320496,0.16758134961128235,0.027674473822116852,0.0,0.0,0.0,-0.0067002736032009125,0.00026553377392701805,-0.0,0.0,0.0,0.0,-0.0017906451830640435,0.0006862549344077706,0.0002889657625928521,28700.0,21002.0,22679.0,22158.0,0.10941239446401596,0.0735699012875557,0.08097489923238754,0.07865086942911148,0.0,0.0,0.0,0.0,28714.0,21032.0,22153.0,22639.0,0.33904123306274414,-0.015093238987304924,-0.0008114399585899846,0.00179571289668829,-0.001041954499669373,-0.017528032884001732,-0.07255516946315765
290,5,-0.0006194766610860825,5.014478119846899e-06,-0.0004280492721591145,-0.00024766012211330235,-0.017015816643834114,-0.006919096689671278,0.032670602202415466,0.013013581745326519,0.007063636556267738,-0.050933122634887695,0.1553575098514557,0.04915402829647064,0.0,0.0,0.0,0.025989186018705368,-0.0024972986429929733,-0.0,0.0,0.0,0.0,1.5855866877245717e-06,-0.0005802216473966837,0.0002874945057556033,25019.0,22019.0,26909.0,19903.0,0.09167827665805817,0.07803170382976532,0.10064874589443207,0.06884245574474335,0.0,0.0,0.0,0.0,27991.0,23684.0,23618.0,18394.0,0.3391491770744324,-0.0075359269684696735,0.009996482400576531,-0.0008061845791676861,0.009799419902265072,0.06799472868442535,0.010492024943232536
295,5,-0.0005738371983170509,1.696613253443502e-05,-0.0003133818390779197,0.006315231788903475,-0.006777976639568806,-0.018129169940948486,0.032670602202415466,0.013013581745326519,0.007063636556267738,-0.050933122634887695,0.1553575098514557,0.04915402829647064,0.0,0.0,0.0,0.01036540325731039,0.004216384142637253,-0.0,0.0,0.0,0.0,1.5855866877245717e-06,-0.0005802216473966837,0.0002874945057556033,25019.0,22019.0,26909.0,19903.0,0.09167827665805817,0.07803170382976532,0.10064874589443207,0.06884245574474335,0.0,0.0,0.0,0.0,27991.0,23684.0,23618.0,18394.0,0.33905482292175293,-0.01028486803977531,0.003827619916380245,0.00010038719008418065,-0.016545189544558525,0.0271165668964386,0.04428274184465408
300,5,-0.0005352522130124271,3.867337727569975e-05,-0.0004055019817315042,0.007296467199921608,-0.005072407424449921,0.007458070758730173,0.032670602202415466,0.013013581745326519,0.007063636556267738,-0.050933122634887695,0.1553575098514557,0.04915402829647064,0.0,0.0,0.0,0.007809328380972147,0.00523174786940217,-0.0,0.0,0.0,0.0,1.5855866877245717e-06,-0.0005802216473966837,0.0002874945057556033,25019.0,22019.0,26909.0,19903.0,0.09167827665805817,0.07803170382976532,0.10064874589443207,0.06884245574474335,0.0,0.0,0.0,0.0,27991.0,23684.0,23618.0,18394.0,0.3390485644340515,-0.010115015379672623,0.0021792317796935586,0.0011245217938642023,-0.02052956633269787,0.020429667085409164,-0.03503826633095741
305,5,-0.0005441042012535036,5.185936970519833e-05,-0.00031810603104531765,0.000949659151956439,-0.003367760917171836,-0.009998009540140629,0.03198770433664322,0.012077662162482738,0.007836783304810524,-0.04545096680521965,0.016917172819375992,0.076470285654068,0.0,0.0,0.0,0.005237586330622435,-0.0012915791012346745,-0.0,0.0,0.0,0.0,-0.0013050064444541931,-0.0008022230467759073,0.00041445845272392035,27455.0,22940.0,26181.0,16907.0,0.10329093039035797,0.08214439451694489,0.09715943038463593,0.05644648149609566,0.0,0.0,0.0,0.0,26131.0,20977.0,27381.0,19203.0,0.33903852105140686,-0.00925125076009937,0.000848954698749745,0.0010883832140294522,0.005068159196525812,0.01370159350335598,0.017152879387140274
310,5,-0.0005650354432873428,-2.2487029127660207e-05,-0.00033089955104514956,-0.0026454711332917213,0.00939816702157259,-0.0012083110632374883,0.03198770433664322,0.012077662162482738,0.007836783304810524,-0.04545096680521965,0.016917172819375992,0.076470285654068,0.0,0.0,0.0,0.005243414547294378,-0.0013323453022167087,-0.0,0.0,0.0,0.0,-0.0013050064444541931,-0.0008022230467759073,0.00041445845272392035,27455.0,22940.0,26181.0,16907.0,0.10329093039035797,0.08214439451694489,0.09715943038463593,0.05644648149609566,0.0,0.0,0.0,0.0,26131.0,20977.0,27381.0,19203.0,0.33903855085372925,-0.012862524274075898,-0.0003573247281776725,0.003107300401472909,0.019735364243388176,-0.03779299557209015,-0.010585431009531021
315,5,-0.00047790436656214297,-1.0571264283498749e-05,-0.00028376697446219623,0.011404707096517086,0.0011512432247400284,-0.006961055099964142,0.03214734047651291,0.013667312450706959,0.00904989242553711,-0.012963983230292797,-0.19518645107746124,0.02256476879119873,0.0,0.0,0.0,-0.0018119958695024252,0.009383564814925194,-0.0,0.0,0.0,0.0,-0.0007844474166631699,-0.0010198118397966027,0.0003302960831206292,25488.0,23567.0,26594.0,18040.0,0.09387997537851334,0.08498380333185196,0.09913655370473862,0.0610482282936573,0.0,0.0,0.0,0.0,27014.0,23569.0,25887.0,17077.0,0.3390490710735321,-0.001878075705186673,0.006492980028784738,0.0030388097551554264,-0.03682218864560127,-0.0047403923235833645,0.006164912600070238
320,5,-0.0007084827520884573,0.0003016043046955019,-6.697141361655667e-05,-0.028859565034508705,-0.04335920512676239,-0.0324396938085556,0.03214734047651291,0.013667312450706959,0.00904989242553711,-0.012963983230292797,-0.19518645107746124,0.02256476879119873,0.0,0.0,0.0,0.062164194881916046,-0.02977379411458969,-0.0,0.0,0.0,0.0,-0.0007844474166631699,-0.0010198118397966027,0.0003302960831206292,25488.0,23567.0,26594.0,18040.0,0.09387997537851334,0.08498380333185196,0.09913655370473862,0.0610482282936573,0.0,0.0,0.0,0.0,27014.0,23569.0,25887.0,17077.0,0.3656947612762451,-0.003916004200342648,0.005105065055900522,-0.0002602868454347015,0.1257593333721161,0.17517197132110596,0.08481533825397491
325,5,-0.0009374294895678759,0.0004823117342311889,-0.00010421170009067282,-0.040710415691137314,-0.03830680251121521,-0.004518268629908562,0.03194123134016991,0.015294981189072132,0.00912392046302557,0.0009424281306564808,-0.20562495291233063,0.00028469087556004524,0.0,0.0,0.0,0.06218395009636879,-0.02981146052479744,-0.0,0.0,0.0,0.0,-0.0014955622609704733,-0.002197819761931896,0.0002723725338000804,24798.0,26174.0,26611.0,15810.0,0.09064941108226776,0.09712578356266022,0.09921352565288544,0.0520845428109169,0.0,0.0,0.0,0.0,24990.0,24031.0,27158.0,17427.0,0.36573123931884766,0.019309883352313477,0.03284244122752192,0.001240209158251438,0.1747083216905594,0.1561199575662613,0.0002889388706535101
331,5,-0.0009044695761986077,0.0003726928844116628,-0.0001309242652496323,-0.007598733529448509,0.003854599315673113,0.0023842777591198683,0.03194123134016991,0.015294981189072132,0.00912392046302557,0.0009424281306564808,-0.20562495291233063,0.00028469087556004524,0.0,0.0,0.0,0.054797008633613586,-0.04093344137072563,-0.0,0.0,0.0,0.0,-0.0014955622609704733,-0.002197819761931896,0.0002723725338000804,24798.0,26174.0,26611.0,15810.0,0.09064941108226776,0.09712578356266022,0.09921352565288544,0.0520845428109169,0.0,0.0,0.0,0.0,24990.0,24031.0,27158.0,17427.0,0.3699095845222473,-0.0036911313955243336,0.013805796729465395,0.0006704702745234677,0.04229625687003136,-0.013063971884548664,-0.0211431123316288
336,5,-0.0008380175568163395,0.0003872488159686327,0.0001268842170247808,0.007023663260042667,-0.0008814508910290897,-0.035377904772758484,0.032404299825429916,0.01723547652363777,0.008564068004488945,0.03327346220612526,-0.16867798566818237,-0.07181527465581894,0.0,0.0,0.0,0.0023244782350957394,0.004158288240432739,-0.0,0.0,0.0,0.0,-0.0017016410129144788,-0.001512025250121951,0.0002102290018228814,21998.0,25613.0,30336.0,21480.0,0.07794037461280823,0.09446631371974945,0.11764083802700043,0.07565838098526001,0.0,0.0,0.0,0.0,21986.0,25604.0,30247.0,21604.0,0.3390374481678009,0.008485277189693477,0.02037092197301026,-0.0010276404840262301,-0.01631721667945385,0.006080892402678728,0.09551949799060822
341,5,-0.000853987701702863,0.0004156349750701338,0.00011170858488185331,-0.00012872504885308444,-0.004238497000187635,-0.008488782681524754,0.032404299825429916,0.01723547652363777,0.008564068004488945,0.03327346220612526,-0.16867798566818237,-0.07181527465581894,0.0,0.0,0.0,0.007567053195089102,-0.0032210969366133213,-0.0,0.0,0.0,0.0,-0.0017016410129144788,-0.001512025250121951,0.0002102290018228814,21998.0,25613.0,30336.0,21480.0,0.07794037461280823,0.09446631371974945,0.11764083802700043,0.07565838098526001,0.0,0.0,0.0,0.0,21986.0,25604.0,30247.0,21604.0,0.33904507756233215,0.010664396098608333,0.030042437157680797,-0.003780645651692433,0.012639627791941166,0.019795682281255722,0.015099551528692245
346,5,-0.0008652982651256025,0.00042922431020997465,0.00025509294937364757,-0.0016220951220020652,-0.0031740572303533554,-0.022620446979999542,0.03261709585785866,0.017921872437000275,0.008228844963014126,-0.014919406734406948,-0.11938420683145523,-0.02587967924773693,0.0,0.0,0.0,0.00601704278960824,-0.004824213217943907,-0.0,0.0,0.0,0.0,0.000970659137237817,-0.0017745941877365112,0.00017876923084259033,22717.0,24663.0,29976.0,22175.0,0.08114524185657501,0.09002125263214111,0.1158144474029541,0.07872496545314789,0.0,0.0,0.0,0.0,25493.0,24549.0,24540.0,19282.0,0.33904367685317993,0.01632909203402623,0.02761775683603863,-0.003278696684327517,0.01893208920955658,0.015741709619760513,0.06006300821900368
351,5,-0.0011407728306949139,0.00032558487146161497,0.0003533738199621439,-0.04198946803808212,0.008935201913118362,-0.01834908127784729,0.03261709585785866,0.017921872437000275,0.008228844963014126,-0.014919406734406948,-0.11938420683145523,-0.02587967924773693,0.0,0.0,0.0,-0.012001344934105873,-0.043963219970464706,-0.0,0.0,0.0,0.0,0.000970659137237817,-0.0017745941877365112,0.00017876923084259033,22717.0,24663.0,29976.0,22175.0,0.08114524185657501,0.09002125263214111,0.1158144474029541,0.07872496545314789,0.0,0.0,0.0,0.0,25493.0,24549.0,24540.0,19282.0,0.35843345522880554,0.01342494845200342,0.03832766250078164,-0.00830977273397129,0.18231110274791718,-0.033190321177244186,0.049669425934553146
356,5,-0.0008852584869600832,0.0004108535358682275,0.0003010385553352535,0.023175157606601715,-0.009257050231099129,0.0018222115468233824,0.03212208300828934,0.018145499750971794,0.007880362682044506,-0.062304798513650894,0.1073051169514656,-0.03012903593480587,0.0,0.0,0.0,0.015351592563092709,0.020284026861190796,-0.0,0.0,0.0,0.0,-0.0010278774425387383,-0.0010440705809742212,0.00016690269694663584,25799.0,22946.0,24280.0,20933.0,0.09534918516874313,0.08217272907495499,0.08825267106294632,0.07327058166265488,0.0,0.0,0.0,0.0,24744.0,23737.0,24984.0,20492.0,0.339143306016922,0.015380644296888634,0.02971415312386878,-0.00388947833994051,-0.07960543781518936,0.04016943275928497,-0.010563143528997898
361,5,-0.0009992533596232533,0.00022921821800991893,-0.00041035303729586303,-0.009006724692881107,0.022651828825473785,0.1001414880156517,0.03212208300828934,0.018145499750971794,0.007880362682044506,-0.062304798513650894,0.1073051169514656,-0.03012903593480587,0.0,0.0,0.0,-0.03376012668013573,-0.012746099382638931,-0.0,0.0,0.0,0.0,-0.0010278774425387383,-0.0010440705809742212,0.00016690269694663584,25799.0,22946.0,24280.0,20933.0,0.09534918516874313,0.08217272907495499,0.08825267106294632,0.07327058166265488,0.0,0.0,0.0,0.0,24744.0,23737.0,24984.0,20492.0,0.3396170735359192,-0.0005692262662223994,0.010961687602986764,0.00472430165859652,0.05007386580109596,-0.08843254297971725,-0.31509098410606384
366,5,-0.0009292446193285286,0.0002519683912396431,7.179513340815902e-05,0.007099197246134281,0.003610522486269474,-0.03745830059051514,0.030784809961915016,0.017261821776628494,0.0077400184236466885,-0.11896210163831711,0.11894868314266205,-0.0012207328109070659,0.0,0.0,0.0,-0.004615368787199259,0.0037008493673056364,-0.0,0.0,0.0,0.0,-0.0004325342015363276,-0.00023881066590547562,0.0002290457341587171,25811.0,22308.0,24745.0,21083.0,0.09540296345949173,0.07931656390428543,0.09040326625108719,0.07392237335443497,0.0,0.0,0.0,0.0,25492.0,26263.0,27502.0,18634.0,0.33903953433036804,0.014823298443877543,0.02969476925786579,-0.001158713068984532,-0.014522199518978596,-0.012073925696313381,0.1036805510520935
371,5,-0.0008813582826405764,0.00033422422711737454,0.0002706290688365698,0.00883384607732296,-0.010432656854391098,-0.03907424211502075,0.030784809961915016,0.017261821776628494,0.0077400184236466885,-0.11896210163831711,0.11894868314266205,-0.0012207328109070659,0.0,0.0,0.0,0.017073575407266617,0.005472206510603428,-0.0,0.0,0.0,0.0,-0.0004325342015363276,-0.00023881066590547562,0.0002290457341587171,25811.0,22308.0,24745.0,21083.0,0.09540296345949173,0.07931656390428543,0.09040326625108719,0.07392237335443497,0.0,0.0,0.0,0.0,25492.0,26263.0,27502.0,18634.0,0.33908811211586,0.013946403701656753,0.03060768803886199,-0.0042155753377362834,-0.02147139050066471,0.044667743146419525,0.11178826540708542
376,5,-0.0008941643172875047,0.00030057618278078735,0.00029684545006603,0.0008573119412176311,0.0015809284523129463,-0.015392566099762917,0.029579617083072662,0.016954174265265465,0.007751257158815861,-0.16728278994560242,0.12448257207870483,-0.012001516297459602,0.0,0.0,0.0,-0.001334204338490963,-0.002744826953858137,-0.0,0.0,0.0,0.0,-0.000981282675638795,-0.002068917965516448,0.00022831207024864852,25191.0,26425.0,27460.0,18836.0,0.09248364716768265,0.09832333773374557,0.1033172532916069,0.0643458440899849,0.0,0.0,0.0,0.0,25560.0,26088.0,27028.0,19305.0,0.33903518319129944,0.01401568568115671,0.03194939744451473,-0.004340429158928227,0.010772516019642353,-0.0034896915312856436,0.042139120399951935
381,5,-0.000944752071518451,0.0002616900601424277,0.0003013728419318795,-0.0068250903859734535,0.005918336100876331,-0.005251603201031685,0.029579617083072662,0.016954174265265465,0.007751257158815861,-0.16728278994560242,0.12448257207870483,-0.012001516297459602,0.0,0.0,0.0,-0.008021202869713306,-0.01071996334940195,-0.0,0.0,0.0,0.0,-0.000981282675638795,-0.002068917965516448,0.00022831207024864852,25191.0,26425.0,27460.0,18836.0,0.09248364716768265,0.09832333773374557,0.1033172532916069,0.0643458440899849,0.0,0.0,0.0,0.0,25560.0,26088.0,27028.0,19305.0,0.33906400203704834,0.014771595539796145,0.034022124527238025,-0.004282399147416331,0.042066749185323715,-0.020984871312975883,0.012867627665400505
386,5,-0.0008274470455944538,0.0003014053509104997,0.00027267602854408324,0.0143751734867692,-0.0037846413906663656,0.00244207214564085,0.029579617083072662,0.016954174265265465,0.007751257158815861,-0.16728278994560242,0.12448257207870483,-0.012001516297459602,0.0,0.0,0.0,0.006934479344636202,0.01099917571991682,-0.0,0.0,0.0,0.0,-0.000981282675638795,-0.002068917965516448,0.00022831207024864852,25191.0,26425.0,27460.0,18836.0,0.09248364716768265,0.09832333773374557,0.1033172532916069,0.0643458440899849,0.0,0.0,0.0,0.0,25560.0,26088.0,27028.0,19305.0,0.33906227350234985,0.009658381443384996,0.030468965558069112,-0.004229116869884437,-0.0431625060737133,0.01814182475209236,-0.009544556960463524
391,5,-0.0007580406963825226,0.0003178977349307388,0.0002151761291315779,0.01402943767607212,-0.0034443263430148363,0.008782608434557915,0.02730569802224636,0.016580142080783844,0.007614783477038145,-0.20534151792526245,-0.027455119416117668,-0.018430795520544052,0.0,0.0,0.0,0.006484289653599262,0.010693932883441448,-0.0,0.0,0.0,0.0,-0.0015630769776180387,-0.0009900989243760705,0.00023641811276320368,25611.0,25418.0,24982.0,17813.0,0.09445793926715851,0.0935489684343338,0.0915057361125946,0.06011676788330078,0.0,0.0,0.0,0.0,26159.0,25279.0,24849.0,17487.0,0.33906012773513794,0.005101479282779242,0.02824684965547138,-0.0054504445490579844,-0.041964590549468994,0.016963977366685867,-0.028477173298597336
397,5,-0.0006860758294351399,0.00030234127189032733,0.0001982566900551319,0.014283919706940651,0.0011446052230894566,0.005003503989428282,0.02730569802224636,0.016580142080783844,0.007614783477038145,-0.20534151792526245,-0.027455119416117668,-0.018430795520544052,0.0,0.0,0.0,0.006520017981529236,0.010637144558131695,-0.0,0.0,0.0,0.0,-0.0015630769776180387,-0.0009900989243760705,0.00023641811276320368,25611.0,25418.0,24982.0,17813.0,0.09445793926715851,0.0935489684343338,0.0915057361125946,0.06011676788330078,0.0,0.0,0.0,0.0,26159.0,25279.0,24849.0,17487.0,0.339059978723526,0.002199927860533227,0.02656350847498189,-0.006020746541295516,-0.04319007322192192,-0.0013910208363085985,-0.016597922891378403
402,5,-0.0006039502331987023,0.00030679849442094564,0.00015621574129909277,0.015782758593559265,-0.00028062626370228827,0.007386783137917519,0.025878407061100006,0.016841020435094833,0.007627055048942566,-0.22798499464988708,-0.05425930768251419,-0.019384758546948433,0.0,0.0,0.0,0.0016918183537200093,0.012607707642018795,-0.0,0.0,0.0,0.0,-5.960177441011183e-05,0.00013540138024836779,0.00014256122813094407,23610.0,22746.0,26955.0,20584.0,0.0851808711886406,0.08127465099096298,0.1008695438504219,0.07176310569047928,0.0,0.0,0.0,0.0,24548.0,21892.0,25128.0,22448.0,0.33906102180480957,0.00039010607574466784,0.025309228279091944,-0.005891986166265883,-0.04947406053543091,0.004426763858646154,-0.02364197000861168
407,5,-0.000541894871275872,0.0002877986407838762,0.00016509949637111276,0.01342257671058178,0.0025757893454283476,0.0009723099647089839,0.025878407061100006,0.016841020435094833,0.007627055048942566,-0.22798499464988708,-0.05425930768251419,-0.019384758546948433,0.0,0.0,0.0,-0.0026843741070479155,0.010251451283693314,-0.0,0.0,0.0,0.0,-5.960177441011183e-05,0.00013540138024836779,0.00014256122813094407,23610.0,22746.0,26955.0,20584.0,0.0851808711886406,0.08127465099096298,0.1008695438504219,0.07176310569047928,0.0,0.0,0.0,0.0,24548.0,21892.0,25128.0,22448.0,0.33905264735221863,-0.001567102233661736,0.024551621145969732,-0.005365206233542833,-0.0402270182967186,-0.007022123318165541,-0.003687073942273855
412,5,-0.0006159745971672237,0.00023878709180280566,8.080373663688079e-05,-0.006344393827021122,0.007634353823959827,0.01209309883415699,0.02310195006430149,0.017276812344789505,0.0071182395331561565,-0.24874168634414673,-0.05591364577412605,-0.05304155871272087,0.0,0.0,0.0,-0.010497628711163998,-0.010052959434688091,-0.0,0.0,0.0,0.0,-0.0002510334306862205,0.0006186312530189753,0.00014656351413577795,24133.0,22785.0,25098.0,22009.0,0.08757684379816055,0.08144841343164444,0.09204957634210587,0.07798741012811661,0.0,0.0,0.0,0.0,24944.0,22197.0,24366.0,22521.0,0.3390694260597229,-0.0013483335205636956,0.030514674993092624,-0.007067323474204911,0.039450373500585556,-0.02746315486729145,-0.03769071400165558
417,5,-0.00032175806700251997,0.000302828848361969,-0.0004200732219032943,0.03928700089454651,-0.006675540469586849,0.07375070452690125,0.02310195006430149,0.017276812344789505,0.0071182395331561565,-0.24874168634414673,-0.05591364577412605,-0.05304155871272087,0.0,0.0,0.0,-0.01047024317085743,-0.01010004710406065,-0.0,0.0,0.0,0.0,-0.0002510334306862205,0.0006186312530189753,0.00014656351413577795,24133.0,22785.0,25098.0,22009.0,0.08757684379816055,0.08144841343164444,0.09204957634210587,0.07798741012811661,0.0,0.0,0.0,0.0,24944.0,22197.0,24366.0,22521.0,0.34993645548820496,-0.0014921917636189393,0.03105869079041348,-0.0074378753108675765,-0.14465630054473877,0.030232436954975128,-0.22988618910312653
422,5,-0.0005176496924832463,0.0001144782145274803,-0.00039392797043547034,-0.015638723969459534,0.024366427212953568,0.01846487820148468,0.02153594046831131,0.016411341726779938,0.0068128411658108234,-0.2581278085708618,0.08865083754062653,-0.029173044487833977,0.0,0.0,0.0,-0.03578463941812515,-0.01916654035449028,-0.0,0.0,0.0,0.0,-0.0003217441844753921,0.001809791661798954,9.448447963222861e-05,26487.0,21115.0,21875.0,24435.0,0.09862222522497177,0.0740639790892601,0.07739713042974472,0.08896925300359726,0.0,0.0,0.0,0.0,26368.0,21111.0,22557.0,23905.0,0.3441888391971588,-0.01386973569090459,0.016338305634790256,2.6791929383092652e-05,0.07629956305027008,-0.0949932336807251,-0.0648960992693901
427,5,-0.0003726995491888374,8.192204404622316e-05,-0.00010385735367890447,0.015601398423314095,0.011867792345583439,-0.035070423036813736,0.02153594046831131,0.016411341726779938,0.0068128411658108234,-0.2581278085708618,0.08865083754062653,-0.029173044487833977,0.0,0.0,0.0,-0.017263047397136688,0.01258917711675167,-0.0,0.0,0.0,0.0,-0.0003217441844753921,0.001809791661798954,9.448447963222861e-05,26487.0,21115.0,21875.0,24435.0,0.09862222522497177,0.0740639790892601,0.07739713042974472,0.08896925300359726,0.0,0.0,0.0,0.0,26368.0,21111.0,22557.0,23905.0,0.33911100029945374,-0.0069750424245149725,0.02455732511595516,-0.004670357300731746,-0.049402542412281036,-0.04516570642590523,0.098846934735775
432,5,-0.0003335624060127884,0.0002056352241197601,8.553742372896522e-05,0.010159621946513653,-0.013759507797658443,-0.03703639656305313,0.017823925241827965,0.011727399192750454,0.0059012738056480885,-0.15725018084049225,0.27507686614990234,-0.034060608595609665,0.0,0.0,0.0,0.022211162373423576,0.007074490189552307,-0.0,0.0,0.0,0.0,3.134666258119978e-05,0.002707728184759617,0.00010970580478897318,28444.0,19285.0,21473.0,26760.0,0.10814488679170609,0.06622778624296188,0.07562720030546188,0.09993044286966324,0.0,0.0,0.0,0.0,26631.0,21011.0,21852.0,24406.0,0.33912572264671326,-0.004565867647961716,0.0298844810491846,-0.007656157151099129,-0.0277600958943367,0.058110516518354416,0.10721097886562347
437,5,-0.0002611084782984108,0.0002690082765184343,0.0001740213338052854,0.013191434554755688,-0.013000079430639744,-0.023498667404055595,0.017823925241827965,0.011727399192750454,0.0059012738056480885,-0.15725018084049225,0.27507686614990234,-0.034060608595609665,0.0,0.0,0.0,0.02121717296540737,0.010251632891595364,-0.0,0.0,0.0,0.0,3.134666258119978e-05,0.002707728184759617,0.00010970580478897318,28444.0,19285.0,21473.0,26760.0,0.10814488679170609,0.06622778624296188,0.07562720030546188,0.09993044286966324,0.0,0.0,0.0,0.0,26631.0,21011.0,21852.0,24406.0,0.3391277492046356,-0.007294256829081059,0.02956531686149057,-0.00959571448199804,-0.04022829607129097,0.05551128089427948,0.0682309940457344
442,5,-0.0002635554119478911,7.45854849810712e-05,-0.00012312592298258096,0.0036148603539913893,0.023319166153669357,0.03455101698637009,0.01639661379158497,0.008465523831546307,0.0057143173180520535,-0.09517311304807663,0.2264527827501297,3.331215339130722e-05,0.0,0.0,0.0,0.021245962008833885,0.010233002714812756,-0.0,0.0,0.0,0.0,-0.0009059198782779276,0.001989313866943121,0.0001505396794527769,28462.0,20869.0,20945.0,23473.0,0.10823340713977814,0.07299458980560303,0.0733252614736557,0.08455762267112732,0.0,0.0,0.0,0.0,28002.0,19488.0,22034.0,26521.0,0.33912789821624756,-0.006693309788622915,0.0446384515063899,-0.011639864677443598,-0.0018342009279876947,-0.09085730463266373,-0.10977362841367722
447,5,-7.441344496328384e-05,0.0002772609004750848,0.00012801641423720866,0.027564335614442825,-0.021378805860877037,-0.024794621393084526,0.01639661379158497,0.008465523831546307,0.0057143173180520535,-0.09517311304807663,0.2264527827501297,3.331215339130722e-05,0.0,0.0,0.0,-0.03471697121858597,0.0004480878706090152,-0.0,0.0,0.0,0.0,-0.0009059198782779276,0.001989313866943121,0.0001505396794527769,28462.0,20869.0,20945.0,23473.0,0.10823340713977814,0.07299458980560303,0.0733252614736557,0.08455762267112732,0.0,0.0,0.0,0.0,28002.0,19488.0,22034.0,26521.0,0.3392380475997925,0.00567020057908807,0.02463446399112308,-0.00514544490568207,-0.09869090467691422,0.08917267620563507,0.0715903714299202
452,5,-0.00032411800930276513,0.0001547054562252015,0.0003988896787632257,-0.02668933756649494,0.010744119063019753,-0.04536064341664314,0.01545310765504837,0.00682096928358078,0.005875519011169672,-0.08988712728023529,0.12997542321681976,0.03819313645362854,0.0,0.0,0.0,-0.015018732286989689,-0.03001140058040619,-0.0,0.0,0.0,0.0,0.00044674938544631004,0.0012498536380007863,0.00023134607181418687,26695.0,19112.0,24111.0,23907.0,0.09961739182472229,0.06549802422523499,0.08747541904449463,0.08653700351715088,0.0,0.0,0.0,0.0,27751.0,21168.0,22021.0,22916.0,0.34510233998298645,0.006937481292471607,0.03936234759954419,-0.004930274680800201,0.11984187364578247,-0.03998879715800285,0.13776268064975739
