timestamp,dt,pos_x,pos_y,pos_z,vel_x,vel_y,vel_z,roll,pitch,yaw,agv_x,agv_y,agv_z,x_ref,y_ref,z_ref,roll_ref,pitch_ref,yaw_ref,x_vel_ref,y_vel_ref,z_vel_ref,x_torque,y_torque,z_torque,w0,w1,w2,w3,u0,u1,u2,u3,m0req,m1req,m2req,m3req,thrust0,thrust1,thrust2,thrust3,thrust_ref,roll_vicon,pitch_vicon,yaw_vicon,acc_x,acc_y,acc_z
5,5,0.0,0.0,0.0,0.018676625564694405,0.029105035588145256,-0.00321214203722775,-0.04058690741658211,0.09043006598949432,0.01936345547437668,-0.004033789969980717,-0.00838920846581459,-0.004662349820137024,0.0,0.0,0.0,-0.043388936668634415,0.01856795698404312,-0.0,0.0,0.0,0.0,0.0013446774100884795,-0.0030288940761238337,0.0005738408071920276,0.0,0.0,0.0,0.0,0.0,0.0,0.0,0.0,0.0,0.0,0.0,0.0,0.0,0.0,0.0,0.0,0.34797006845474243,-0.07751752511271044,-0.1065200732194361,0.0006369489212150742,-0.07470650225877762,-0.11642014235258102,0.009636426344513893
24,19,0.0,0.0,0.0,0.0009914723923429847,0.02139509841799736,-0.019809028133749962,-0.04058690741658211,0.09043006598949432,0.01936345547437668,-0.004033789969980717,-0.00838920846581459,-0.004662349820137024,0.0,0.0,0.0,-0.032709017395973206,0.001010674866847694,-0.0,0.0,0.0,0.0,0.0013446774100884795,-0.0030288940761238337,0.0005738408071920276,0.0,0.0,0.0,0.0,0.0,0.0,0.0,0.0,0.0,0.0,0.0,0.0,0.0,0.0,0.0,0.0,0.3392152190208435,-0.07885034627809631,-0.08440925316054022,-3.6361942180258345e-05,-0.003965889569371939,-0.08558039367198944,0.059427082538604736
29,5,0.0,0.0,0.0,0.0009914723923429847,0.02139509841799736,-0.019809028133749962,-0.04057278111577034,0.09046724438667297,0.019347382709383965,0.005436865612864494,0.001001466647721827,-0.0021678926423192024,0.0,0.0,0.0,-0.032709017395973206,0.001010674866847694,-0.0,0.0,0.0,0.0,0.0013250702759250998,-0.002997712232172489,0.0005766745889559388,0.0,0.0,0.0,0.0,0.0,0.0,0.0,0.0,0.0,0.0,0.0,0.0,0.0,0.0,0.0,0.0,0.3392152190208435,3.0770875549889065,-0.8455812767928642,-1.1052986286975766,-0.003965889569371939,-0.08558039367198944,0.059427082538604736
35,6,0.0,0.0,0.0,0.001171289011836052,0.008679999969899654,-0.011432346887886524,-0.04057278111577034,0.09046724438667297,0.019347382709383965,0.005436865612864494,0.001001466647721827,-0.0021678926423192024,0.0,0.0,0.0,-0.0132718151435256,0.0011939739342778921,-0.0,0.0,0.0,0.0,0.0013250702759250998,-0.002997712232172489,0.0005766745889559388,0.0,0.0,0.0,0.0,0.0,0.0,0.0,0.0,0.0,0.0,0.0,0.0,0.0,0.0,0.0,0.0,0.33906370401382446,3.0769675904063836,-0.8466431970891081,-1.1060246282841697,-0.004685156047344208,-0.03471999987959862,0.03429704159498215
40,5,0.0,0.0,0.0,0.005440487060695887,0.002595328027382493,-0.005152367055416107,-0.04057278111577034,0.09046724438667297,0.019347382709383965,0.005436865612864494,0.001001466647721827,-0.0021678926423192024,0.0,0.0,0.0,-0.00396832125261426,0.005545801483094692,-0.0,0.0,0.0,0.0,0.0013250702759250998,-0.002997712232172489,0.0005766745889559388,0.0,0.0,0.0,0.0,0.0,0.0,0.0,0.0,0.0,0.0,0.0,0.0,0.0,0.0,0.0,0.0,0.33904147148132324,3.076982583007354,-0.847299281497734,-1.1050271142573689,-0.021761948242783546,-0.010381312109529972,0.015457101166248322
45,5,9.400126145919785e-06,-6.311597644526046e-06,2.1943667888990603e-05,0.002948163775727153,0.0016622220864519477,-0.004617823753505945,-0.04057278111577034,0.09046724438667297,0.019347382709383965,0.005436865612864494,0.001001466647721827,-0.0021678926423192024,0.0,0.0,0.0,-0.0025561198126524687,0.003019661409780383,-0.0,0.0,0.0,0.0,0.0013250702759250998,-0.002997712232172489,0.0005766745889559388,0.0,0.0,0.0,0.0,0.0,0.0,0.0,0.0,0.0,0.0,0.0,0.0,0.0,0.0,0.0,0.0,0.3390362560749054,3.0776611897134023,-0.8474116603216287,-1.1045667078437518,-0.011849187314510345,-0.006686846259981394,0.014186466112732887
50,5,-0.7419041395187378,1.4118967056274414,-0.42822855710983276,0.002948163775727153,0.0016622220864519477,-0.004617823753505945,-0.040563102811574936,0.0903782770037651,0.019323844462633133,-0.0002128680789610371,0.013021949678659439,-0.0067398506216704845,0.0,0.0,0.0,0.860329806804657,-0.47739121317863464,-0.0,0.0,0.0,0.0,0.0002538745175115764,-0.0028579707723110914,0.0005937517853453755,24329.0,22031.0,32033.0,14300.0,0.08847750723361969,0.07808804512023926,0.12640565633773804,0.04624400660395622,0.0,0.0,0.0,0.0,24022.0,22328.0,31772.0,14681.0,1.3168723583221436,-0.05867287006341615,-0.07928662189030346,-0.0025608907501170836,4.56723690032959,8.6647310256958,-7.330185413360596
55,5,-0.7417539954185486,1.4118174314498901,-0.42822474241256714,0.021900298073887825,0.011593237519264221,-0.0019172860775142908,-0.040563102811574936,0.0903782770037651,0.019323844462633133,-0.0002128680789610371,0.013021949678659439,-0.0067398506216704845,0.0,0.0,0.0,0.8576850891113281,-0.47700566053390503,-0.0,0.0,0.0,0.0,0.0002538745175115764,-0.0028579707723110914,0.0005937517853453755,24329.0,22031.0,32033.0,14300.0,0.08847750723361969,0.07808804512023926,0.12640565633773804,0.04624400660395622,0.0,0.0,0.0,0.0,24022.0,22328.0,31772.0,14681.0,1.31257963180542,-0.06526827355740678,-0.08362857610704594,-0.010645228733993862,4.562922954559326,8.624531745910645,-8.473031044006348
60,5,-0.7421806454658508,1.4123700857162476,-0.4278809130191803,-0.0531541183590889,-0.07388517260551453,-0.0487111397087574,-0.040488507598638535,0.0901934877038002,0.01902497000992298,0.0013370976084843278,0.01909814588725567,-0.1263694167137146,0.0,0.0,0.0,0.8725613355636597,-0.5036906599998474,-0.0,0.0,0.0,0.0,0.0008876827778294683,-0.0028376788832247257,0.0004329084767960012,21751.0,22870.0,31211.0,17354.0,0.07684851437807083,0.0818324089050293,0.12213271856307983,0.0582500584423542,0.0,0.0,0.0,0.0,21512.0,23109.0,30992.0,17625.0,1.3548643589019775,-0.022836816928928697,-0.052042960320012446,-0.0020824243495551615,4.8657002449035645,8.96976089477539,-8.772080421447754
65,5,-0.7415850162506104,1.4117176532745361,-0.4282122552394867,0.06743499636650085,0.06917761266231537,0.03177483379840851,-0.040488507598638535,0.0901934877038002,0.01902497000992298,0.0013370976084843278,0.01909814588725567,-0.1263694167137146,0.0,0.0,0.0,0.8465442657470703,-0.4604957699775696,-0.0,0.0,0.0,0.0,0.0008876827778294683,-0.0028376788832247257,0.0004329084767960012,21751.0,22870.0,31211.0,17354.0,0.07684851437807083,0.0818324089050293,0.12213271856307983,0.0582500584423542,0.0,0.0,0.0,0.0,21512.0,23109.0,30992.0,17625.0,1.2851778268814087,-0.06803870189851001,-0.0896432708346879,-0.007022817123020575,4.379770278930664,8.393595695495605,-9.018507957458496
70,5,-0.7415573000907898,1.4115830659866333,-0.4282575845718384,0.024115590378642082,0.03958515450358391,0.015877651050686836,-0.04048679396510124,0.0898699164390564,0.01890280470252037,-0.008898225612938404,0.04289591312408447,0.06218377500772476,0.0,0.0,0.0,0.8501070737838745,-0.4761076271533966,-0.0,0.0,0.0,0.0,0.0012654535239562392,-0.002631506649777293,0.000676472787745297,23873.0,19636.0,33409.0,15599.0,0.08638210594654083,0.06771023571491241,0.13368584215641022,0.05125807225704193,0.0,0.0,0.0,0.0,23580.0,19941.0,33132.0,15986.0,1.3006137609481812,-0.08210955805912842,-0.0871366138258525,-0.0160208748631016,4.552881240844727,8.511157989501953,-8.97149658203125
81,10,0.0006110158283263445,0.0010483128717169166,0.00022987968986853957,0.017527438700199127,0.031748101115226746,0.018203668296337128,-0.040551505982875824,0.08930990099906921,0.018910042941570282,0.01894451305270195,0.09891622513532639,0.027085719630122185,0.0,0.0,0.0,0.02934970334172249,-0.03110686130821705,-0.0,0.0,0.0,0.0,0.004999999888241291,-0.004999999888241291,0.0005979218403808773,50171.0,52382.0,65535.0,52382.0,0.289467453956604,0.3058467507362366,0.4114186763763428,0.3058467507362366,0.0,0.0,0.0,0.0,58194.0,60045.0,73532.0,60045.0,0.3502614200115204,3.0955499353333784,-0.8728595148145137,-1.1286859550129202,0.1260310709476471,0.07929747551679611,-2.5502548217773438
87,7,0.0003264358383603394,0.0002454397617839277,-0.0004303532186895609,-0.034582968801259995,0.12192666530609131,0.09789370745420456,-0.040551505982875824,0.08930990099906921,0.018910042941570282,0.01894451305270195,0.09891622513532639,0.027085719630122185,0.0,0.0,0.0,-0.08902008086442947,-0.06984015554189682,-0.0,0.0,0.0,0.0,0.004999999888241291,-0.004999999888241291,0.0005979218403808773,50171.0,52382.0,65535.0,52382.0,0.289467453956604,0.3058467507362366,0.4114186763763428,0.3058467507362366,0.0,0.0,0.0,0.0,58194.0,60045.0,73532.0,60045.0,0.41787949204444885,3.0665211068253453,-0.8806151239188115,-1.1275019786398042,0.3361750543117523,-0.2862340211868286,-2.7992873191833496
93,5,-0.026791632175445557,0.004516671411693096,-0.007844422943890095,-0.034582968801259995,0.12192666530609131,0.09789370745420456,-0.04051046818494797,0.08759956806898117,0.019144466146826744,-0.009763190522789955,0.16517071425914764,0.012132186442613602,0.0,0.0,0.0,-0.07593632489442825,-0.09717342257499695,-0.0,0.0,0.0,0.0,0.004999999888241291,-0.004999999888241291,0.0005925789591856301,50037.0,52234.0,65535.0,52234.0,0.2827475368976593,0.29886576533317566,0.40469875931739807,0.29886576533317566,0.0,0.0,0.0,0.0,57131.0,59247.0,72623.0,59247.0,0.4456798732280731,-1.1688828719835764,0.8776522739332551,0.8625962553905907,0.49907562136650085,-0.26060664653778076,-2.9113473892211914
98,5,-0.027354849502444267,0.0024554673582315445,-0.009074672125279903,-0.0892253965139389,0.32514655590057373,0.20160305500030518,-0.04051046818494797,0.08759956806898117,0.019144466146826744,-0.009763190522789955,0.16517071425914764,0.012132186442613602,0.0,0.0,0.0,-0.22866743803024292,-0.10219613462686539,-0.0,0.0,0.0,0.0,0.004999999888241291,-0.004999999888241291,0.0005925789591856301,50037.0,52234.0,65535.0,52234.0,0.2827475368976593,0.29886576533317566,0.40469875931739807,0.29886576533317566,0.0,0.0,0.0,0.0,57131.0,59247.0,72623.0,59247.0,0.6269659996032715,-1.1869941149159995,0.8793534597285415,0.8670022214199244,0.7210307121276855,-1.0858534574508667,-3.240929365158081
103,5,-0.027335749939084053,0.002548867603763938,-0.009185921400785446,-0.024093642830848694,0.08446794748306274,0.07605580240488052,-0.040349993854761124,0.08564621210098267,0.019020793959498405,0.03216865658760071,0.3257690966129303,0.03458092361688614,0.0,0.0,0.0,-0.037383705377578735,-0.09376223385334015,-0.0,0.0,0.0,0.0,-0.0008001020760275424,-0.0035770598333328962,0.0006146490341052413,50129.0,52109.0,65535.0,52109.0,0.2873615026473999,0.3019697666168213,0.40931272506713867,0.3019697666168213,0.0,0.0,0.0,0.0,57930.0,59502.0,73306.0,59502.0,0.4251585006713867,-1.1694004308875772,0.8762847277819481,0.8591163986718152,0.46038907766342163,-0.12257858365774155,-2.8659563064575195
108,5,-0.026693405583500862,0.004941109102219343,-0.0074775037355721,0.08270013332366943,-0.3095734119415283,-0.21636176109313965,-0.040349993854761124,0.08564621210098267,0.019020793959498405,0.03216865658760071,0.3257690966129303,0.03458092361688614,0.0,0.0,0.0,0.29158127307891846,-0.003937626723200083,-0.0,0.0,0.0,0.0,-0.0008001020760275424,-0.0035770598333328962,0.0006146490341052413,50129.0,52109.0,65535.0,52109.0,0.2873615026473999,0.3019697666168213,0.40931272506713867,0.3019697666168213,0.0,0.0,0.0,0.0,57930.0,59502.0,73306.0,59502.0,0.6726115942001343,-1.1043365181891198,0.8821604401536352,0.8443753189867625,0.02935989946126938,1.467940330505371,-1.9630773067474365
113,5,-0.022243782877922058,-0.0022107914555817842,-0.003387144301086664,0.08270013332366943,-0.3095734119415283,-0.21636176109313965,-0.0404948964715004,0.08103134483098984,0.019097404554486275,-0.03297865018248558,0.45473358035087585,0.03425821289420128,0.0,0.0,0.0,0.2874611020088196,-0.0003624624223448336,-0.0,0.0,0.0,0.0,-0.004999999888241291,-0.0040596844628453255,0.0006452103843912482,42826.0,42716.0,40889.0,21696.0,0.1875639706850052,0.18689464032649994,0.1759016066789627,0.07660578191280365,0.0,0.0,0.0,0.0,28831.0,28600.0,35899.0,15701.0,0.6617317795753479,-1.1206371143759088,0.7741398805247557,2.1018596934564013,0.0026621639262884855,1.4250245094299316,-1.9017218351364136
118,5,-0.02182784117758274,-0.0008647805661894381,-0.0021027124021202326,0.08304178714752197,-0.28131353855133057,-0.2447289675474167,-0.0404948964715004,0.08103134483098984,0.019097404554486275,-0.03297865018248558,0.45473358035087585,0.03425821289420128,0.0,0.0,0.0,0.27668413519859314,0.00016968998534139246,-0.0,0.0,0.0,0.0,-0.004999999888241291,-0.0040596844628453255,0.0006452103843912482,42826.0,42716.0,40889.0,21696.0,0.1875639706850052,0.18689464032649994,0.1759016066789627,0.07660578191280365,0.0,0.0,0.0,0.0,28831.0,28600.0,35899.0,15701.0,0.63520747423172,-1.1392669978994425,0.7867144276640121,2.123858734141286,-0.0012001015711575747,1.31952965259552,-1.797353744506836
123,5,-0.021724041551351547,-0.0006956687429919839,-0.00179568724706769,0.03944448381662369,-0.10806972533464432,-0.11640222370624542,-0.0407332144677639,0.06640897691249847,0.01878962852060795,-0.06158066168427467,0.9843558669090271,0.0059632956981658936,0.0,0.0,0.0,0.17514967918395996,-0.03227081894874573,-0.0,0.0,0.0,0.0,0.004999999888241291,0.0006220266805030406,0.0006358581013046205,39696.0,28104.0,47190.0,41962.0,0.16886436939239502,0.10646580904722214,0.21495482325553894,0.18232658505439758,0.0,0.0,0.0,0.0,43765.0,41763.0,40156.0,22671.0,0.46927887201309204,-1.140056764972403,0.7929201106981768,2.127559710393041,0.17256630957126617,0.6273625493049622,-2.1777286529541016
128,5,-0.02166651375591755,-0.0005709553370252252,-0.0015085964696481824,0.019887203350663185,-0.04988079518079758,-0.07511337846517563,-0.0407332144677639,0.06640897691249847,0.01878962852060795,-0.06158066168427467,0.9843558669090271,0.0059632956981658936,0.0,0.0,0.0,0.1212068572640419,-0.051343005150556564,-0.0,0.0,0.0,0.0,0.004999999888241291,0.0006220266805030406,0.0006358581013046205,39696.0,28104.0,47190.0,41962.0,0.16886436939239502,0.10646580904722214,0.21495482325553894,0.18232658505439758,0.0,0.0,0.0,0.0,43765.0,41763.0,40156.0,22671.0,0.4247592091560364,-1.1357548596958826,0.7971883982366142,2.1267187526099782,0.2504502832889557,0.395195871591568,-2.2972888946533203
133,5,-0.02166651375591755,-0.0005709553370252252,-0.0015085964696481824,0.019887203350663185,-0.04988079518079758,-0.07511337846517563,-0.040944382548332214,0.05894201993942261,0.018616676330566406,0.048542819917201996,0.9914597272872925,0.03829652816057205,0.0,0.0,0.0,0.12117209285497665,-0.05134617164731026,-0.0,0.0,0.0,0.0,0.004999999888241291,0.002222590148448944,0.0006710898596793413,39272.0,24704.0,44934.0,41233.0,0.1663924753665924,0.09021414071321487,0.20060619711875916,0.1779516339302063,0.0,0.0,0.0,0.0,39737.0,28055.0,46648.0,42538.0,0.42473122477531433,-1.1357548596958826,0.7971883982366142,2.1267187526099782,0.2504502832889557,0.39505770802497864,-2.2972888946533203
138,5,-0.021664608269929886,-0.0004560566449072212,-0.0010441356571391225,0.00034770838101394475,-0.010980441235005856,-0.0455971360206604,-0.040944382548332214,0.05894201993942261,0.018616676330566406,0.048542819917201996,0.9914597272872925,0.03829652816057205,0.0,0.0,0.0,0.07608523964881897,-0.06955965608358383,-0.0,0.0,0.0,0.0,0.004999999888241291,0.002222590148448944,0.0006710898596793413,39272.0,24704.0,44934.0,41233.0,0.1663924753665924,0.09021414071321487,0.20060619711875916,0.1779516339302063,0.0,0.0,0.0,0.0,39737.0,28055.0,46648.0,42538.0,0.4096643924713135,-1.126569483757158,0.8023012986084459,2.1227127294408543,0.328596830368042,0.24001391232013702,-2.378870725631714
143,5,-0.026075348258018494,0.007758724968880415,-0.004321356303989887,0.00034770838101394475,-0.010980441235005856,-0.0455971360206604,-0.03907996416091919,0.04753042384982109,0.018627142533659935,0.24128976464271545,0.9106036424636841,0.028754405677318573,0.0,0.0,0.0,0.08913830667734146,-0.07310733199119568,-0.0,0.0,0.0,0.0,0.004999999888241291,0.0003523221821524203,0.0006550383404828608,26958.0,15407.0,38279.0,29355.0,0.10088317096233368,0.0505092553794384,0.16066013276576996,0.11268351972103119,0.0,0.0,0.0,0.0,39084.0,24938.0,45489.0,40646.0,0.42166805267333984,-0.9834804061615897,0.92775241256005,0.8375169441618937,0.35506126284599304,0.2892104983329773,-2.4280288219451904
149,5,-0.02608371526002884,0.007537550758570433,-0.00431909179314971,-0.0010672587668523192,0.027670297771692276,-0.013996144756674767,-0.03907996416091919,0.04753042384982109,0.018627142533659935,0.24128976464271545,0.9106036424636841,0.028754405677318573,0.0,0.0,0.0,0.04316834732890129,-0.07726691663265228,-0.0,0.0,0.0,0.0,0.004999999888241291,0.0003523221821524203,0.0006550383404828608,26958.0,15407.0,38279.0,29355.0,0.10088317096233368,0.0505092553794384,0.16066013276576996,0.11268351972103119,0.0,0.0,0.0,0.0,39084.0,24938.0,45489.0,40646.0,0.40419337153434753,-0.9801269137461841,0.9213521223797432,0.8375449464416128,0.3607713282108307,0.13454411923885345,-2.5227980613708496
154,5,-0.026090770959854126,0.00747391302138567,-0.004255224484950304,-0.001307870028540492,0.01721036806702614,-0.013140279799699783,-0.03907996416091919,0.04753042384982109,0.018627142533659935,0.24128976464271545,0.9106036424636841,0.028754405677318573,0.0,0.0,0.0,0.05592654272913933,-0.07674970477819443,-0.0,0.0,0.0,0.0,0.004999999888241291,0.0003523221821524203,0.0006550383404828608,26958.0,15407.0,38279.0,29355.0,0.10088317096233368,0.0505092553794384,0.16066013276576996,0.11268351972103119,0.0,0.0,0.0,0.0,39084.0,24938.0,45489.0,40646.0,0.40830332040786743,-0.9799874963199059,0.9194518582941535,0.8379384337709261,0.36177611351013184,0.17600201070308685,-2.5244076251983643
159,5,-0.7410764694213867,1.4113187789916992,-0.4280319809913635,-0.001307870028540492,0.01721036806702614,-0.013140279799699783,-0.03605891764163971,0.04053313657641411,0.01868622936308384,0.4253140389919281,0.7733525037765503,0.06586159020662308,0.0,0.0,0.0,0.8534815311431885,-0.484907865524292,-0.0,0.0,0.0,0.0,0.004999999888241291,0.00013446957746054977,0.0006985127693042159,27325.0,17603.0,37387.0,25120.0,0.10266014188528061,0.05926158279180527,0.15557579696178436,0.09215234965085983,0.0,0.0,0.0,0.0,27285.0,17629.0,37862.0,24559.0,1.3116406202316284,-0.07104826125296797,-0.026227728267187684,-0.014944067588186925,4.651690483093262,8.599071502685547,-8.881058692932129
164,5,-0.7410411834716797,1.4113144874572754,-0.42790883779525757,0.004543864168226719,0.0057625132612884045,-0.021183200180530548,-0.03605891764163971,0.04053313657641411,0.01868622936308384,0.4253140389919281,0.7733525037765503,0.06586159020662308,0.0,0.0,0.0,0.8572868704795837,-0.48281165957450867,-0.0,0.0,0.0,0.0,0.004999999888241291,0.00013446957746054977,0.0006985127693042159,27325.0,17603.0,37387.0,25120.0,0.10266014188528061,0.05926158279180527,0.15557579696178436,0.09215234965085983,0.0,0.0,0.0,0.0,27285.0,17629.0,37862.0,24559.0,1.3159464597702026,-0.06689893516389543,-0.021724250116706808,-0.01328770086413292,4.6280717849731445,8.64483642578125,-8.855082511901855
169,5,-0.7411754727363586,1.4115233421325684,-0.42775189876556396,-0.017432445660233498,-0.02750237099826336,-0.0283246748149395,-0.030970243737101555,0.03241673856973648,0.01958698220551014,0.4287603497505188,0.6027366518974304,0.08579230308532715,0.0,0.0,0.0,0.8639821410179138,-0.49066096544265747,-0.0,0.0,0.0,0.0,0.003490884555503726,-0.0015798276290297508,0.0008188214851543307,27439.0,19369.0,38317.0,21928.0,0.10321567952632904,0.06657947599887848,0.160878986120224,0.07762917876243591,0.0,0.0,0.0,0.0,27005.0,20329.0,38460.0,21291.0,1.331754207611084,-0.0483526187509317,-0.008888816118417697,-0.006222251237523246,4.716782569885254,8.779150009155273,-8.831304550170898
174,5,-0.7408783435821533,1.4112921953201294,-0.4276335537433624,0.03636644408106804,0.02410813979804516,-0.025067700073122978,-0.030970243737101555,0.03241673856973648,0.01958698220551014,0.4287603497505188,0.6027366518974304,0.08579230308532715,0.0,0.0,0.0,0.8557343482971191,-0.4713471829891205,-0.0,0.0,0.0,0.0,0.003490884555503726,-0.0015798276290297508,0.0008188214851543307,27439.0,19369.0,38317.0,21928.0,0.10321567952632904,0.06657947599887848,0.160878986120224,0.07762917876243591,0.0,0.0,0.0,0.0,27005.0,20329.0,38460.0,21291.0,1.305830717086792,-0.0532825544934523,-0.018979091662908624,0.010026205451343952,4.499804496765137,8.571320533752441,-8.839300155639648
179,5,-0.7407019734382629,1.4110732078552246,-0.4277147948741913,0.035597361624240875,0.03789323940873146,0.003853929229080677,-0.02736251801252365,0.02803000435233116,0.01976708136498928,0.46613451838493347,0.48306503891944885,0.03446231409907341,0.0,0.0,0.0,0.851757824420929,-0.4715285897254944,-0.0,0.0,0.0,0.0,0.002483193762600422,-0.002507529454305768,0.0007130196900106966,26334.0,21518.0,38175.0,21221.0,0.09789065271615982,0.07582467049360275,0.16006295382976532,0.07452503591775894,0.0,0.0,0.0,0.0,58817.0,59657.0,74066.0,59657.0,1.3000085353851318,-0.06494493724379001,-0.024857849574145056,0.004467805951422162,4.501822471618652,8.51486587524414,-8.92728328704834
184,5,-0.7406426072120667,1.4107598066329956,-0.42772558331489563,0.01899034157395363,0.05523715168237686,0.002666816581040621,-0.02736251801252365,0.02803000435233116,0.01976708136498928,0.46613451838493347,0.48306503891944885,0.03446231409907341,0.0,0.0,0.0,0.8449751734733582,-0.4774499535560608,-0.0,0.0,0.0,0.0,0.002483193762600422,-0.002507529454305768,0.0007130196900106966,26334.0,21518.0,38175.0,21221.0,0.09789065271615982,0.07582467049360275,0.16006295382976532,0.07452503591775894,0.0,0.0,0.0,0.0,58817.0,59657.0,74066.0,59657.0,1.293972134590149,-0.054522944764516836,-0.019815726692688766,0.006930692286114752,4.567894458770752,8.443610191345215,-8.923884391784668
189,5,-0.7405640482902527,1.4108089208602905,-0.4275895357131958,0.016697006300091743,0.00969400629401207,-0.018246734514832497,-0.021055620163679123,0.023477135226130486,0.020518803969025612,0.588326632976532,0.3258470594882965,0.11226649582386017,0.0,0.0,0.0,0.857416033744812,-0.4782271087169647,-0.0,0.0,0.0,0.0,0.004999999888241291,-0.004999999888241291,0.0008386395056731999,50372.0,49989.0,65535.0,49989.0,0.2999212145805359,0.29707640409469604,0.42187243700027466,0.29707640409469604,0.0,0.0,0.0,0.0,59316.0,58474.0,74495.0,58474.0,1.313001275062561,-0.03601233819548445,-0.011708458485286769,0.008796543819001556,4.576596260070801,8.626077651977539,-8.859103202819824
194,5,-0.7405276298522949,1.4106155633926392,-0.4274180233478546,0.010111041367053986,0.029977155849337578,-0.029483629390597343,-0.021055620163679123,0.023477135226130486,0.020518803969025612,0.588326632976532,0.3258470594882965,0.11226649582386017,0.0,0.0,0.0,0.8510079979896545,-0.4805566668510437,-0.0,0.0,0.0,0.0,0.004999999888241291,-0.004999999888241291,0.0008386395056731999,50372.0,49989.0,65535.0,49989.0,0.2999212145805359,0.29707640409469604,0.42187243700027466,0.29707640409469604,0.0,0.0,0.0,0.0,59316.0,58474.0,74495.0,58474.0,1.3049565553665161,-0.028690359686560307,-0.003101504784294202,0.009191598825498835,4.602721691131592,8.543785095214844,-8.822819709777832
199,5,-0.740456223487854,1.4104336500167847,-0.42721134424209595,0.01302849967032671,0.034464072436094284,-0.037781305611133575,-0.015915855765342712,0.021596375852823257,0.021378541365265846,0.6872116327285767,0.18934506177902222,0.1206754520535469,0.0,0.0,0.0,0.8500179648399353,-0.4794785678386688,-0.0,0.0,0.0,0.0,0.004999999888241291,-0.004999999888241291,0.0009101984323933721,50372.0,49303.0,65535.0,49303.0,0.29992106556892395,0.29201868176460266,0.4218722879886627,0.29201868176460266,0.0,0.0,0.0,0.0,59554.0,58234.0,74699.0,58234.0,1.3027538061141968,-0.026755832936129407,0.004988731496295936,0.008270216912801128,4.590623378753662,8.52474594116211,-8.79482650756836
204,5,-0.7403548359870911,1.4102435111999512,-0.4270131289958954,0.018098169937729836,0.036955781280994415,-0.039083633571863174,-0.015915855765342712,0.021596375852823257,0.021378541365265846,0.6872116327285767,0.18934506177902222,0.1206754520535469,0.0,0.0,0.0,0.849818229675293,-0.47761452198028564,-0.0,0.0,0.0,0.0,0.004999999888241291,-0.004999999888241291,0.0009101984323933721,50372.0,49303.0,65535.0,49303.0,0.29992106556892395,0.29201868176460266,0.4218722879886627,0.29201868176460266,0.0,0.0,0.0,0.0,59554.0,58234.0,74699.0,58234.0,1.3011987209320068,-0.01669502361968942,0.008561828433400854,0.007978505454868083,4.569736480712891,8.51363754272461,-8.787945747375488
209,5,-0.7404074668884277,1.4103788137435913,-0.4266637861728668,-0.001932676648721099,-0.007847183384001255,-0.060632042586803436,-0.006571230012923479,0.019537270069122314,0.023238522931933403,0.8676126599311829,0.15348298847675323,0.14994418621063232,0.0,0.0,0.0,0.860020637512207,-0.48477354645729065,-0.0,0.0,0.0,0.0,0.004999999888241291,-0.004999999888241291,0.0010643763234838843,50403.0,48081.0,65535.0,48081.0,0.30154934525489807,0.284461110830307,0.42350056767463684,0.284461110830307,0.0,0.0,0.0,0.0,59567.0,57409.0,74710.0,57409.0,1.3214819431304932,-0.010414084977982506,0.01698637907827179,0.006267111170123317,4.65017557144165,8.6936616897583,-8.718060493469238
215,5,-0.7403973937034607,1.410404920578003,-0.4267427623271942,0.0008250439423136413,-0.0060050105676054955,-0.007132491562515497,-0.006571230012923479,0.019537270069122314,0.023238522931933403,0.8676126599311829,0.15348298847675323,0.14994418621063232,0.0,0.0,0.0,0.8598350882530212,-0.4837896227836609,-0.0,0.0,0.0,0.0,0.004999999888241291,-0.004999999888241291,0.0010643763234838843,50403.0,48081.0,65535.0,48081.0,0.30154934525489807,0.284461110830307,0.42350056767463684,0.284461110830307,0.0,0.0,0.0,0.0,59567.0,57409.0,74710.0,57409.0,1.3205134868621826,0.006565662212199292,0.015136850299045095,0.006928980870681582,4.639084339141846,8.686450004577637,-8.879743576049805
220,5,-0.7402958273887634,1.4101444482803345,-0.4265705645084381,0.014469538815319538,0.03465117886662483,-0.026248803362250328,0.001925752148963511,0.018114345148205757,0.0236599650233984,1.1900471448898315,0.23700059950351715,-0.012549377977848053,0.0,0.0,0.0,0.8500299453735352,-0.4788786470890045,-0.0,0.0,0.0,0.0,0.004999999888241291,-0.004999999888241291,0.0007722912705503404,50297.0,50243.0,65535.0,50243.0,0.2959514558315277,0.29555121064186096,0.4179026782512665,0.29555121064186096,0.0,0.0,0.0,0.0,58732.0,59001.0,73993.0,59001.0,1.3023655414581299,-1.677309522170591e-05,0.017886635275929187,0.00024083202569415952,4.583896636962891,8.522261619567871,-8.819811820983887
225,5,-0.7405083179473877,1.4103368520736694,-0.42667156457901,-0.025404011830687523,-0.016537945717573166,0.006263670977205038,0.001925752148963511,0.018114345148205757,0.0236599650233984,1.1900471448898315,0.23700059950351715,-0.012549377977848053,0.0,0.0,0.0,0.8597378134727478,-0.4931146800518036,-0.0,0.0,0.0,0.0,0.004999999888241291,-0.004999999888241291,0.0007722912705503404,50297.0,50243.0,65535.0,50243.0,0.2959514558315277,0.29555121064186096,0.4179026782512665,0.29555121064186096,0.0,0.0,0.0,0.0,58732.0,59001.0,73993.0,59001.0,1.3269234895706177,0.03353559745025681,0.023760902289183882,0.004613740605550069,4.74466609954834,8.72817325592041,-8.918864250183105
230,5,-0.7404367327690125,1.4097583293914795,-0.426103413105011,0.002401207573711872,0.07604057341814041,-0.07765964418649673,0.019083913415670395,0.014083223417401314,0.023356525227427483,1.630725383758545,0.3483288586139679,-0.02034183405339718,0.0,0.0,0.0,0.836904764175415,-0.48325079679489136,-0.0,0.0,0.0,0.0,0.004999999888241291,-0.004999999888241291,0.0008227565558627248,50252.0,50585.0,65535.0,50585.0,0.2935822606086731,0.29604148864746094,0.41553348302841187,0.29604148864746094,0.0,0.0,0.0,0.0,58662.0,58817.0,73933.0,58817.0,1.286233901977539,0.011405932979904035,0.03681702757195001,0.007460478478244973,4.6330156326293945,8.354387283325195,-8.65857219696045
235,5,-0.7404113411903381,1.4099620580673218,-0.42602017521858215,0.004274230916053057,-0.005711498204618692,-0.034952905029058456,0.019083913415670395,0.014083223417401314,0.023356525227427483,1.630725383758545,0.3483288586139679,-0.02034183405339718,0.0,0.0,0.0,0.8599526286125183,-0.48257166147232056,-0.0,0.0,0.0,0.0,0.004999999888241291,-0.004999999888241291,0.0008227565558627248,50252.0,50585.0,65535.0,50585.0,0.2935822606086731,0.29604148864746094,0.41553348302841187,0.29604148864746094,0.0,0.0,0.0,0.0,58662.0,58817.0,73933.0,58817.0,1.3198500871658325,0.03478368127625578,0.02836941412738917,0.007237760802169431,4.625370979309082,8.682618141174316,-8.785444259643555
240,5,-0.02644636668264866,0.006205831654369831,-0.00726063409820199,0.004274230916053057,-0.005711498204618692,-0.034952905029058456,0.03419547528028488,0.010590944439172745,0.023415876552462578,2.0897464752197266,0.5355725884437561,-0.00474512530490756,0.0,0.0,0.0,0.0814264714717865,-0.07142594456672668,-0.0,0.0,0.0,0.0,0.004999999888241291,-0.004999999888241291,0.0008450773311778903,50407.0,50274.0,65535.0,50274.0,0.30173859000205994,0.3007475435733795,0.4236898124217987,0.3007475435733795,0.0,0.0,0.0,0.0,59464.0,59319.0,74621.0,59319.0,0.4149181842803955,-1.0733275859238907,0.8919806071690893,0.8449288492118027,0.3415812849998474,0.2600809931755066,-2.5040507316589355
245,5,-0.026473425328731537,0.006162614561617374,-0.007235054392367601,-0.0025057282764464617,0.004336933139711618,-0.014067031443119049,0.03419547528028488,0.010590944439172745,0.023415876552462578,2.0897464752197266,0.5355725884437561,-0.00474512530490756,0.0,0.0,0.0,0.068752720952034,-0.07711011916399002,-0.0,0.0,0.0,0.0,0.004999999888241291,-0.004999999888241291,0.0008450773311778903,50407.0,50274.0,65535.0,50274.0,0.30173859000205994,0.3007475435733795,0.4236898124217987,0.3007475435733795,0.0,0.0,0.0,0.0,59464.0,59319.0,74621.0,59319.0,0.4146920442581177,-1.072197027135715,0.893440136280027,0.8445410167970616,0.36886346340179443,0.2196279615163803,-2.5663247108459473
250,5,-0.0264776311814785,0.006184572819620371,-0.0071694739162921906,-0.0013405998470261693,-0.0017730570398271084,-0.013401382602751255,0.03419547528028488,0.010590944439172745,0.023415876552462578,2.0897464752197266,0.5355725884437561,-0.00474512530490756,0.0,0.0,0.0,0.0760614350438118,-0.07576869428157806,-0.0,0.0,0.0,0.0,0.004999999888241291,-0.004999999888241291,0.0008450773311778903,50407.0,50274.0,65535.0,50274.0,0.30173859000205994,0.3007475435733795,0.4236898124217987,0.3007475435733795,0.0,0.0,0.0,0.0,59464.0,59319.0,74621.0,59319.0,0.4169371426105499,-1.073821313295482,0.8966935752685711,0.8476688239488815,0.36422818899154663,0.24419966340065002,-2.567337989807129
255,5,-0.026454370468854904,0.006159608718007803,-0.007140044122934341,0.00285421428270638,0.002963034436106682,-0.00814062263816595,0.06262195110321045,0.0032080214004963636,0.02377375401556492,2.5564935207366943,0.6892852187156677,-0.01912909559905529,0.0,0.0,0.0,0.07107722759246826,-0.07322897762060165,-0.0,0.0,0.0,0.0,0.004999999888241291,-0.004999999888241291,0.0007722602458670735,50324.0,50902.0,65535.0,50902.0,0.2973266839981079,0.30162274837493896,0.4192779064178467,0.30162274837493896,0.0,0.0,0.0,0.0,59570.0,59644.0,74712.0,59644.0,0.41118133068084717,-1.0730332806140386,0.8968608656195144,0.8460463432698757,0.3473093509674072,0.22510550916194916,-2.58267879486084
260,5,-0.02644728310406208,0.006174639333039522,-0.0070902020670473576,0.0018484698375687003,-0.0012153435964137316,-0.009420033544301987,0.06262195110321045,0.0032080214004963636,0.02377375401556492,2.5564935207366943,0.6892852187156677,-0.01912909559905529,0.0,0.0,0.0,0.07585012912750244,-0.07355976849794388,-0.0,0.0,0.0,0.0,0.004999999888241291,-0.004999999888241291,0.0007722602458670735,50324.0,50902.0,65535.0,50902.0,0.2973266839981079,0.30162274837493896,0.4192779064178467,0.30162274837493896,0.0,0.0,0.0,0.0,59570.0,59644.0,74712.0,59644.0,0.4141724109649658,-1.0695472823658045,0.8975609568683682,0.8464660547747396,0.3512898087501526,0.2419092059135437,-2.5780928134918213
265,5,-0.7408144474029541,1.4107013940811157,-0.42609286308288574,0.0018484698375687003,-0.0012153435964137316,-0.009420033544301987,0.08548461645841599,-0.003046216908842325,0.023895805701613426,3.062608003616333,0.8791624903678894,-0.07353710383176804,0.0,0.0,0.0,0.8586889505386353,-0.4836483299732208,-0.0,0.0,0.0,0.0,-0.004999999888241291,-0.002141491509974003,0.0005936690722592175,35240.0,31924.0,28430.0,12472.0,0.1436055600643158,0.12583859264850616,0.10807538032531738,0.039417583495378494,0.0,0.0,0.0,0.0,58886.0,59850.0,74125.0,59850.0,1.3186614513397217,0.1183539264219392,0.026033654009324406,-0.008223268812773056,4.637492656707764,8.669069290161133,-8.86313247680664
270,5,-0.7408135533332825,1.4103344678878784,-0.4256332814693451,-0.00375942955724895,0.032265111804008484,-0.04251652583479881,0.08548461645841599,-0.003046216908842325,0.023895805701613426,3.062608003616333,0.8791624903678894,-0.07353710383176804,0.0,0.0,0.0,0.8486754298210144,-0.4856370985507965,-0.0,0.0,0.0,0.0,-0.004999999888241291,-0.002141491509974003,0.0005936690722592175,35240.0,31924.0,28430.0,12472.0,0.1436055600643158,0.12583859264850616,0.10807538032531738,0.039417583495378494,0.0,0.0,0.0,0.0,58886.0,59850.0,74125.0,59850.0,1.304970383644104,0.1550165033512686,0.033496434857925916,-0.010771335047198611,4.659919261932373,8.532946586608887,-8.756949424743652
275,5,-0.7408135533332825,1.4103344678878784,-0.4256332814693451,-0.00375942955724895,0.032265111804008484,-0.04251652583479881,0.15751931071281433,-0.023037394508719444,0.022099709138274193,3.989140748977661,1.0525718927383423,-0.40414565801620483,0.0,0.0,0.0,0.8486754298210144,-0.4856370985507965,-0.0,0.0,0.0,0.0,-0.004999999888241291,-0.0012998903403058648,0.0002279086475027725,33292.0,33656.0,24343.0,17186.0,0.13305725157260895,0.13500456511974335,0.08854270726442337,0.057567887008190155,0.0,0.0,0.0,0.0,35290.0,31872.0,27979.0,13075.0,1.304970383644104,0.1550165033512686,0.033496434857925916,-0.010771335047198611,4.659919261932373,8.532946586608887,-8.756949424743652
280,5,-0.7407653331756592,1.410169005393982,-0.42530983686447144,-0.014380356296896935,0.011758237145841122,-0.04060501605272293,0.15751931071281433,-0.023037394508719444,0.022099709138274193,3.989140748977661,1.0525718927383423,-0.40414565801620483,0.0,0.0,0.0,0.853107750415802,-0.4893675446510315,-0.0,0.0,0.0,0.0,-0.004999999888241291,-0.0012998903403058648,0.0002279086475027725,33292.0,33656.0,24343.0,17186.0,0.13305725157260895,0.13500456511974335,0.08854270726442337,0.057567887008190155,0.0,0.0,0.0,0.0,35290.0,31872.0,27979.0,13075.0,1.31417977809906,0.21250446599383027,0.04526831513941754,-0.014073084580976222,4.702113628387451,8.613981246948242,-8.757832527160645
286,5,-0.7405186891555786,1.4100085496902466,-0.42529916763305664,0.030221842229366302,0.025988029316067696,-0.01367793045938015,0.20603911578655243,-0.035346075892448425,0.018322356045246124,4.1394877433776855,0.9284153580665588,-0.5548516511917114,0.0,0.0,0.0,0.8540684580802917,-0.47336089611053467,-0.0,0.0,0.0,0.0,0.004999999888241291,-0.004999999888241291,-9.728384611662477e-05,49575.0,59007.0,65535.0,59007.0,0.2609562575817108,0.3305533230304718,0.3829074800014496,0.3305533230304718,0.0,0.0,0.0,0.0,32931.0,34012.0,24029.0,17542.0,1.3046737909317017,0.21742198595792245,0.04071695053979329,-0.021314342261578224,4.5222249031066895,8.556098937988281,-8.83845329284668
291,5,-0.7405186891555786,1.4100085496902466,-0.42529916763305664,0.030221842229366302,0.025988029316067696,-0.01367793045938015,0.20603911578655243,-0.035346075892448425,0.018322356045246124,4.1394877433776855,0.9284153580665588,-0.5548516511917114,0.0,0.0,0.0,0.8540684580802917,-0.47336089611053467,-0.0,0.0,0.0,0.0,0.004999999888241291,-0.004999999888241291,-9.728384611662477e-05,49575.0,59007.0,65535.0,59007.0,0.2609562575817108,0.3305533230304718,0.3829074800014496,0.3305533230304718,0.0,0.0,0.0,0.0,32931.0,34012.0,24029.0,17542.0,1.3046737909317017,0.21742198595792245,0.04071695053979329,-0.021314342261578224,4.5222249031066895,8.556098937988281,-8.83845329284668
296,5,-0.7401922345161438,1.4093167781829834,-0.4248706102371216,0.0338837169110775,0.05839497223496437,-0.04374665394425392,0.2394506335258484,-0.042597584426403046,0.015796588733792305,4.209438800811768,0.7818268537521362,-0.4822274446487427,0.0,0.0,0.0,0.8451781272888184,-0.4718697667121887,-0.0,0.0,0.0,0.0,0.004999999888241291,-0.004999999888241291,-0.00012969067029189318,49627.0,59026.0,65535.0,59026.0,0.2632579505443573,0.33285632729530334,0.38520917296409607,0.33285632729530334,0.0,0.0,0.0,0.0,53720.0,63741.0,69728.0,63741.0,1.290562391281128,0.2637308170645337,0.05038440443254794,-0.019269867067426255,4.505618572235107,8.422320365905762,-8.741819381713867
301,5,-0.7401462197303772,1.4092943668365479,-0.42489296197891235,0.016611361876130104,0.020650869235396385,-0.009994582273066044,0.2394506335258484,-0.042597584426403046,0.015796588733792305,4.209438800811768,0.7818268537521362,-0.4822274446487427,0.0,0.0,0.0,0.8538222312927246,-0.4780338704586029,-0.0,0.0,0.0,0.0,0.004999999888241291,-0.004999999888241291,-0.00012969067029189318,49627.0,59026.0,65535.0,59026.0,0.2632579505443573,0.33285632729530334,0.38520917296409607,0.33285632729530334,0.0,0.0,0.0,0.0,53720.0,63741.0,69728.0,63741.0,1.3074488639831543,0.3024379743110174,0.05512686059580361,-0.026229551542046443,4.574431896209717,8.573163032531738,-8.84341049194336
306,5,-0.7399962544441223,1.408891201019287,-0.42466026544570923,0.025973303243517876,0.06263139098882675,-0.0355771966278553,0.2907029092311859,-0.05211818590760231,0.012320074252784252,4.3725504875183105,0.6999250054359436,-0.4399758279323578,0.0,0.0,0.0,0.8429774641990662,-0.4746036231517792,-0.0,0.0,0.0,0.0,0.004999999888241291,-0.004999999888241291,-0.00020547625899780542,49530.0,59498.0,65535.0,59498.0,0.25891491770744324,0.3324463665485382,0.380866140127182,0.3324463665485382,0.0,0.0,0.0,0.0,54187.0,63913.0,70122.0,63913.0,1.289175033569336,0.3174503743416004,0.06208489949117819,-0.025237331000991334,4.536084175109863,8.40282154083252,-8.763172149658203
311,5,-0.7399895787239075,1.4085824489593506,-0.42448174953460693,0.008730496279895306,0.06201709806919098,-0.03566557914018631,0.2907029092311859,-0.05211818590760231,0.012320074252784252,4.3725504875183105,0.6999250054359436,-0.4399758279323578,0.0,0.0,0.0,0.841134250164032,-0.4807609021663666,-0.0,0.0,0.0,0.0,0.004999999888241291,-0.004999999888241291,-0.00020547625899780542,49530.0,59498.0,65535.0,59498.0,0.25891491770744324,0.3324463665485382,0.380866140127182,0.3324463665485382,0.0,0.0,0.0,0.0,54187.0,63913.0,70122.0,63913.0,1.2906230688095093,0.3362607577157045,0.06884191912738649,-0.0257506317841836,4.605015277862549,8.403426170349121,-8.760229110717773
316,5,-0.7399141788482666,1.4086579084396362,-0.4244483411312103,0.013173464685678482,0.008048884570598602,-0.015378291718661785,0.32717275619506836,-0.05883311852812767,0.01215287297964096,4.683682441711426,0.7974480986595154,-0.16512808203697205,0.0,0.0,0.0,0.8566999435424805,-0.4791368246078491,-0.0,0.0,0.0,0.0,0.004999999888241291,-0.004999999888241291,0.0002102813305100426,49881.0,55620.0,65535.0,55620.0,0.2751617729663849,0.3175870478153229,0.39711299538612366,0.3175870478153229,0.0,0.0,0.0,0.0,56317.0,61512.0,71929.0,61512.0,1.3125355243682861,0.3730017971690963,0.06596795368695045,-0.02804076071970674,4.586791038513184,8.619751930236816,-8.820590019226074
321,5,-0.73973149061203,1.4082518815994263,-0.4243367314338684,0.029528457671403885,0.05924835428595543,-0.020235396921634674,0.32717275619506836,-0.05883311852812767,0.01215287297964096,4.683682441711426,0.7974480986595154,-0.16512808203697205,0.0,0.0,0.0,0.8440903425216675,-0.4731859564781189,-0.0,0.0,0.0,0.0,0.004999999888241291,-0.004999999888241291,0.0002102813305100426,49881.0,55620.0,65535.0,55620.0,0.2751617729663849,0.3175870478153229,0.39711299538612366,0.3175870478153229,0.0,0.0,0.0,0.0,56317.0,61512.0,71929.0,61512.0,1.289849877357483,0.38941501424509817,0.06528010108459036,-0.03132611224650635,4.520275115966797,8.412517547607422,-8.80434513092041
326,5,-0.7396284341812134,1.4080493450164795,-0.42427095770835876,0.023285778239369392,0.046135108917951584,-0.015282128006219864,0.3862864375114441,-0.0679369643330574,0.013127738609910011,5.105252742767334,0.6721274256706238,-0.22851231694221497,0.0,0.0,0.0,0.8470225930213928,-0.4753688871860504,-0.0,0.0,0.0,0.0,0.004999999888241291,-0.004999999888241291,0.0002487950259819627,49778.0,55740.0,65535.0,55740.0,0.2702692151069641,0.31406670808792114,0.3922204375267029,0.31406670808792114,0.0,0.0,0.0,0.0,55275.0,61384.0,71044.0,61384.0,1.2955750226974487,0.41510074295110366,0.05886856412033913,-0.034764780234526574,4.544627666473389,8.46375560760498,-8.818218231201172
331,5,-0.7395828366279602,1.4078642129898071,-0.4242595136165619,0.01336749643087387,0.039752718061208725,-0.006184500642120838,0.3862864375114441,-0.0679369643330574,0.013127738609910011,5.105252742767334,0.6721274256706238,-0.22851231694221497,0.0,0.0,0.0,0.847650945186615,-0.4788902699947357,-0.0,0.0,0.0,0.0,0.004999999888241291,-0.004999999888241291,0.0002487950259819627,49778.0,55740.0,65535.0,55740.0,0.2702692151069641,0.31406670808792114,0.3922204375267029,0.31406670808792114,0.0,0.0,0.0,0.0,55275.0,61384.0,71044.0,61384.0,1.2988593578338623,0.4494676813181507,0.061662045899489974,-0.038269561424172066,4.58402681350708,8.488174438476562,-8.845338821411133
336,5,-0.7394185662269592,1.4075971841812134,-0.42401307821273804,0.027008531615138054,0.04932280257344246,-0.03635881468653679,0.42901790142059326,-0.07256392389535904,0.012375970371067524,5.575204849243164,0.43746957182884216,-0.3904692828655243,0.0,0.0,0.0,0.846379816532135,-0.4739217162132263,-0.0,0.0,0.0,0.0,0.0036873414646834135,-0.004999999888241291,-7.231286872411147e-06,51691.0,59971.0,65535.0,57887.0,0.26941433548927307,0.33092960715293884,0.3753575384616852,0.3149215877056122,0.0,0.0,0.0,0.0,55065.0,63950.0,68609.0,61529.0,1.2936713695526123,0.47437697710307325,0.05759583142360894,-0.04189646458061228,4.528477191925049,8.448291778564453,-8.751119613647461
341,5,-0.7393327355384827,1.4074156284332275,-0.4241095781326294,0.020121373236179352,0.040210407227277756,0.0026049180887639523,0.42901790142059326,-0.07256392389535904,0.012375970371067524,5.575204849243164,0.43746957182884216,-0.3904692828655243,0.0,0.0,0.0,0.848116397857666,-0.4763428866863251,-0.0,0.0,0.0,0.0,0.0036873414646834135,-0.004999999888241291,-7.231286872411147e-06,51691.0,59971.0,65535.0,57887.0,0.26941433548927307,0.33092960715293884,0.3753575384616852,0.3149215877056122,0.0,0.0,0.0,0.0,55065.0,63950.0,68609.0,61529.0,1.2978326082229614,0.4991556279440253,0.05714558804061532,-0.04299166958771202,4.555510997772217,8.483652114868164,-8.869458198547363
346,5,-0.7392812967300415,1.4071779251098633,-0.4239495098590851,0.013237995095551014,0.04533926770091057,-0.021630218252539635,0.42901790142059326,-0.07256392389535904,0.012375970371067524,5.575204849243164,0.43746957182884216,-0.3904692828655243,0.0,0.0,0.0,0.8458365797996521,-0.4787750840187073,-0.0,0.0,0.0,0.0,0.0036873414646834135,-0.004999999888241291,-7.231286872411147e-06,51691.0,59971.0,65535.0,57887.0,0.26941433548927307,0.33092960715293884,0.3753575384616852,0.3149215877056122,0.0,0.0,0.0,0.0,55065.0,63950.0,68609.0,61529.0,1.2961196899414062,0.5297146923496856,0.05631672797648454,-0.04538573265021769,4.582736015319824,8.461710929870605,-8.794351577758789
351,5,-0.7392134070396423,1.4069535732269287,-0.4239605963230133,0.0134776271879673,0.04500719532370567,-0.004935543984174728,0.49878475069999695,-0.07824912667274475,0.01039179414510727,6.007915019989014,0.35421404242515564,-0.32305270433425903,0.0,0.0,0.0,0.8458728194236755,-0.4786531925201416,-0.0,0.0,0.0,0.0,0.0013285892782732844,-0.004999999888241291,-3.6720215575769544e-05,55445.0,63850.0,65535.0,58023.0,0.2825033366680145,0.3462192714214325,0.35968127846717834,0.30144599080085754,0.0,0.0,0.0,0.0,58066.0,66053.0,66561.0,58642.0,1.2960906028747559,0.5589818884386729,0.054763770093176546,-0.04987748559223791,4.581369876861572,8.461692810058594,-8.844602584838867
357,5,-0.739198625087738,1.4067219495773315,-0.42391064763069153,0.0061058164574205875,0.045925434678792953,-0.008475164882838726,0.49878475069999695,-0.07824912667274475,0.01039179414510727,6.007915019989014,0.35421404242515564,-0.32305270433425903,0.0,0.0,0.0,0.8447108268737793,-0.48127302527427673,-0.0,0.0,0.0,0.0,0.0013285892782732844,-0.004999999888241291,-3.6720215575769544e-05,55445.0,63850.0,65535.0,58023.0,0.2825033366680145,0.3462192714214325,0.35968127846717834,0.30144599080085754,0.0,0.0,0.0,0.0,58066.0,66053.0,66561.0,58642.0,1.2961599826812744,0.5816026233594767,0.0514471885052489,-0.051758167244884565,4.6107683181762695,8.456629753112793,-8.833233833312988
362,5,-0.7391021847724915,1.4064579010009766,-0.42387649416923523,0.015334038995206356,0.05075620114803314,-0.007322793360799551,0.54891037940979,-0.08216564357280731,0.010752793401479721,6.356861114501953,0.4700678586959839,-0.17478951811790466,0.0,0.0,0.0,0.8442744612693787,-0.4779307544231415,-0.0,0.0,0.0,0.0,-0.000981376157142222,-0.004999999888241291,0.00022389029618352652,60073.0,65535.0,64939.0,54459.0,0.31490930914878845,0.3575911223888397,0.3528141677379608,0.2735447585582733,0.0,0.0,0.0,0.0,61495.0,66991.0,66184.0,55735.0,1.2932734489440918,0.6161364446854792,0.04723432406517949,-0.05468376982469137,4.573276996612549,8.435722351074219,-8.83617877960205
367,5,-0.7389441132545471,1.406525731086731,-0.4240803122520447,0.026735933497548103,0.005726136267185211,0.026338651776313782,0.54891037940979,-0.08216564357280731,0.010752793401479721,6.356861114501953,0.4700678586959839,-0.17478951811790466,0.0,0.0,0.0,0.8581055998802185,-0.47376424074172974,-0.0,0.0,0.0,0.0,-0.000981376157142222,-0.004999999888241291,0.00022389029618352652,60073.0,65535.0,64939.0,54459.0,0.31490930914878845,0.3575911223888397,0.3528141677379608,0.2735447585582733,0.0,0.0,0.0,0.0,61495.0,66991.0,66184.0,55735.0,1.3110288381576538,0.6553765100849663,0.04512312648739953,-0.05538090775525489,4.526721000671387,8.616250038146973,-8.940220832824707
372,5,-0.7388762831687927,1.4063122272491455,-0.42414602637290955,0.017512856051325798,0.03161425143480301,0.01710212044417858,0.6009321808815002,-0.08604076504707336,0.011452238075435162,6.573580265045166,0.3809126913547516,-0.20300406217575073,0.0,0.0,0.0,0.8498424291610718,-0.47703099250793457,-0.0,0.0,0.0,0.0,-0.004124736413359642,-0.004999999888241291,0.0002501708222553134,60143.0,65535.0,61476.0,50799.0,0.32790425419807434,0.37075290083885193,0.3382825553417206,0.2591799795627594,0.0,0.0,0.0,0.0,63638.0,69288.0,63638.0,53199.0,1.3008419275283813,0.6828381181204711,0.039577490908293225,-0.056578311960185666,4.563206195831299,8.5114164352417,-8.913496971130371
377,5,-0.7388440370559692,1.4058120250701904,-0.4237217307090759,0.009769193828105927,0.07951249182224274,-0.05427098274230957,0.6009321808815002,-0.08604076504707336,0.011452238075435162,6.573580265045166,0.3809126913547516,-0.20300406217575073,0.0,0.0,0.0,0.8353147506713867,-0.4797784686088562,-0.0,0.0,0.0,0.0,-0.004124736413359642,-0.004999999888241291,0.0002501708222553134,60143.0,65535.0,61476.0,50799.0,0.32790425419807434,0.37075290083885193,0.3382825553417206,0.2591799795627594,0.0,0.0,0.0,0.0,63638.0,69288.0,63638.0,53199.0,1.2816444635391235,0.7124974036606846,0.04261103931545831,-0.06024063330832111,4.593987464904785,8.316822052001953,-8.693013191223145
382,5,-0.7389944791793823,1.4054604768753052,-0.42351317405700684,-0.018133679404854774,0.07306694239377975,-0.04547865688800812,0.679747462272644,-0.0909736379981041,0.011565789580345154,6.6151442527771,0.32306426763534546,-0.24966658651828766,0.0,0.0,0.0,0.8338909149169922,-0.4897546172142029,-0.0,0.0,0.0,0.0,-0.004999999888241291,-0.004999999888241291,0.00015271062147803605,59395.0,65535.0,59395.0,49490.0,0.3299720287322998,0.3790835738182068,0.3299720287322998,0.257132351398468,0.0,0.0,0.0,0.0,63411.0,69505.0,63411.0,53456.0,1.286373496055603,0.7223998351434877,0.03964217511207577,-0.06497843188895958,4.706501483917236,8.340495109558105,-8.716261863708496
387,5,-0.7391072511672974,1.4053903818130493,-0.4233000874519348,-0.02122552879154682,0.03173033893108368,-0.043477967381477356,0.679747462272644,-0.0909736379981041,0.011565789580345154,6.6151442527771,0.32306426763534546,-0.24966658651828766,0.0,0.0,0.0,0.845103919506073,-0.49090442061424255,-0.0,0.0,0.0,0.0,-0.004999999888241291,-0.004999999888241291,0.00015271062147803605,59395.0,65535.0,59395.0,49490.0,0.3299720287322998,0.3790835738182068,0.3299720287322998,0.257132351398468,0.0,0.0,0.0,0.0,63411.0,69505.0,63411.0,53456.0,1.3033502101898193,0.7413977508401399,0.034839459311375255,-0.06225814307178881,4.719545841217041,8.505420684814453,-8.719067573547363
392,5,-0.7391816973686218,1.4055275917053223,-0.4235624670982361,-0.016788724809885025,-0.009695320390164852,0.02369147352874279,0.7315028309822083,-0.09422019124031067,0.011474130675196648,5.821795463562012,0.09182123839855194,-0.21984243392944336,0.0,0.0,0.0,0.8570854663848877,-0.4893791377544403,-0.0,0.0,0.0,0.0,-0.0025019559543579817,-0.004999999888241291,0.0009402034338563681,59674.0,65535.0,59674.0,49551.0,0.33469462394714355,0.38179540634155273,0.33469462394714355,0.25984418392181396,0.0,0.0,0.0,0.0,64280.0,69585.0,64280.0,53551.0,1.320213794708252,0.7554009231298887,0.0311853780379513,-0.05867961354033184,4.702245235443115,8.67194652557373,-8.924510955810547
397,5,-0.7393379211425781,1.405515193939209,-0.423668771982193,-0.026908867061138153,-0.001160294283181429,0.021988175809383392,0.7315028309822083,-0.09422019124031067,0.011474130675196648,5.821795463562012,0.09182123839855194,-0.21984243392944336,0.0,0.0,0.0,0.8535801768302917,-0.4930265247821808,-0.0,0.0,0.0,0.0,-0.0025019559543579817,-0.004999999888241291,0.0009402034338563681,59674.0,65535.0,59674.0,49551.0,0.33469462394714355,0.38179540634155273,0.33469462394714355,0.25984418392181396,0.0,0.0,0.0,0.0,64280.0,69585.0,64280.0,53551.0,1.3174676895141602,0.7820320211234235,0.03244992745423193,-0.05837110236281339,4.7436628341674805,8.63773250579834,-8.920995712280273
402,5,-0.7391204833984375,1.4053246974945068,-0.42383113503456116,0.022370925173163414,0.026318639516830444,0.029328152537345886,0.7841655015945435,-0.09213434159755707,0.009516541846096516,3.252207040786743,-0.3613068163394928,0.3699597716331482,0.0,0.0,0.0,0.8513960838317871,-0.4754236340522766,-0.0,0.0,0.0,0.0,-0.0032227043993771076,-0.004999999888241291,-0.00013660767581313848,56071.0,65535.0,58426.0,52142.0,0.30985283851623535,0.3848128318786621,0.32783788442611694,0.28084665536880493,0.0,0.0,0.0,0.0,65796.0,62551.0,69429.0,49635.0,1.302067518234253,0.7940173451311042,0.03431925114735899,-0.05557242117468294,4.545238971710205,8.526673316955566,-8.945451736450195
407,5,-0.02644810453057289,0.006128773558884859,-0.007241643965244293,0.022370925173163414,0.026318639516830444,0.029328152537345886,0.7841655015945435,-0.09213434159755707,0.009516541846096516,3.252207040786743,-0.3613068163394928,0.3699597716331482,0.0,0.0,0.0,0.044337689876556396,-0.06056718900799751,-0.0,0.0,0.0,0.0,-0.0032227043993771076,-0.004999999888241291,-0.00013660767581313848,56071.0,65535.0,58426.0,52142.0,0.30985283851623535,0.3848128318786621,0.32783788442611694,0.28084665536880493,0.0,0.0,0.0,0.0,65796.0,62551.0,69429.0,49635.0,0.3846377432346344,-1.0745508305350027,0.8912450659321492,0.8482634890490556,0.26920491456985474,0.1314980834722519,-2.6966090202331543
412,5,-0.02647908218204975,0.006155002862215042,-0.007259340491145849,0.0023744243662804365,0.004223490599542856,0.011275961995124817,0.8123587369918823,-0.0940910205245018,0.011568069458007812,3.698359251022339,1.1736383438110352,-0.4076607823371887,0.0,0.0,0.0,0.06951380521059036,-0.0737028568983078,-0.0,0.0,0.0,0.0,-0.0010882820934057236,-0.004999999888241291,0.003000000026077032,59786.0,38773.0,65535.0,27762.0,0.4159303307533264,0.2530253529548645,0.46668410301208496,0.18182790279388428,0.0,0.0,0.0,0.0,64092.0,69298.0,64092.0,53211.0,0.4109290838241577,-1.0749357573609788,0.8941577733983185,0.8462862064873544,0.3493767976760864,0.22003605961799622,-2.6427180767059326
417,5,-0.02648184634745121,0.006252905819565058,-0.0071854968555271626,0.0003254387411288917,-0.012439400888979435,-0.006955304183065891,0.8123587369918823,-0.0940910205245018,0.011568069458007812,3.698359251022339,1.1736383438110352,-0.4076607823371887,0.0,0.0,0.0,0.08850480616092682,-0.0735967755317688,-0.0,0.0,0.0,0.0,-0.0010882820934057236,-0.004999999888241291,0.003000000026077032,59786.0,38773.0,65535.0,27762.0,0.4159303307533264,0.2530253529548645,0.46668410301208496,0.18182790279388428,0.0,0.0,0.0,0.0,64092.0,69298.0,64092.0,53211.0,0.42182743549346924,-1.0738207660127677,0.8989540949422324,0.8475523643383985,0.35758933424949646,0.2872750461101532,-2.586916446685791
423,5,-0.026454605162143707,0.006160846911370754,-0.007176931016147137,0.003911223728209734,0.009156448766589165,-0.0032858201302587986,0.8667940497398376,-0.07611015439033508,0.04059489071369171,1.64872145652771,0.008054832927882671,1.8938707113265991,0.0,0.0,0.0,0.0638449415564537,-0.07299887388944626,-0.0,0.0,0.0,0.0,-0.004999999888241291,-0.004999999888241291,0.003000000026077032,46121.0,14024.0,46121.0,0.0,0.20809972286224365,0.04519473761320114,0.20809973776340485,-0.07675647735595703,0.0,0.0,0.0,0.0,73835.0,52806.0,79716.0,41976.0,0.40725645422935486,-1.0721391480053784,0.8966192018513306,0.8472973561465666,0.3430827260017395,0.20033928751945496,-2.5977964401245117
428,5,-0.0264460239559412,0.006097514182329178,-0.0070936111733317375,0.002374983625486493,0.01161349005997181,-0.012650486081838608,0.8667940497398376,-0.07611015439033508,0.04059489071369171,1.64872145652771,0.008054832927882671,1.8938707113265991,0.0,0.0,0.0,0.06057995557785034,-0.07427877187728882,-0.0,0.0,0.0,0.0,-0.004999999888241291,-0.004999999888241291,0.003000000026077032,46121.0,14024.0,46121.0,0.0,0.20809972286224365,0.04519473761320114,0.20809973776340485,-0.07675647735595703,0.0,0.0,0.0,0.0,73835.0,52806.0,79716.0,41976.0,0.40727755427360535,-1.0696809163438763,0.8946902753189987,0.8478237543436801,0.34917619824409485,0.19013112783432007,-2.5684525966644287
433,5,-0.02641857974231243,0.005923729855567217,-0.007045588921755552,0.004554579500108957,0.027813885360956192,-0.010518290102481842,0.8846761584281921,-0.05880225822329521,0.05274020880460739,0.9684864282608032,-0.25526922941207886,1.7514522075653076,0.0,0.0,0.0,0.040398526936769485,-0.07382474094629288,-0.0,0.0,0.0,0.0,-0.004999999888241291,-0.004999999888241291,0.003000000026077032,47568.0,16418.0,47568.0,0.0,0.21739715337753296,0.05449216812849045,0.21739715337753296,-0.06745904684066772,0.0,0.0,0.0,0.0,46121.0,14024.0,46121.0,0.0,0.39894595742225647,-1.068308896447338,0.892164775641603,0.8486301931065655,0.34029316902160645,0.12428683787584305,-2.5741288661956787
438,5,-0.02640661969780922,0.005844275467097759,-0.0069005792029201984,0.0030407814774662256,0.019467756152153015,-0.02345680445432663,0.8846761584281921,-0.05880225822329521,0.05274020880460739,0.9684864282608032,-0.25526922941207886,1.7514522075653076,0.0,0.0,0.0,0.050574928522109985,-0.07436943054199219,-0.0,0.0,0.0,0.0,-0.004999999888241291,-0.004999999888241291,0.003000000026077032,47568.0,16418.0,47568.0,0.0,0.21739715337753296,0.05449216812849045,0.21739715337753296,-0.06745904684066772,0.0,0.0,0.0,0.0,46121.0,14024.0,46121.0,0.0,0.4031795263290405,-1.0660359413228302,0.8944244026710741,0.846575209856922,0.34627658128738403,0.15719462931156158,-2.5331382751464844
443,5,-0.02635014057159424,0.00574518833309412,-0.006688644643872976,0.00881930161267519,0.01971251703798771,-0.03670791536569595,0.8899051547050476,-0.04466118663549423,0.05768362432718277,0.5024003982543945,-0.8911317586898804,1.3583214282989502,0.0,0.0,0.0,0.05070074275135994,-0.07020082324743271,-0.0,0.0,0.0,0.0,-0.004999999888241291,-0.004999999888241291,0.003000000026077032,47005.0,15496.0,47005.0,0.0,0.21375969052314758,0.05085469037294388,0.21375969052314758,-0.0710965245962143,0.0,0.0,0.0,0.0,47568.0,16418.0,47568.0,0.0,0.3981549143791199,-1.0629025142539037,0.8986959295664584,0.8459642701647213,0.3228236436843872,0.15562106668949127,-2.490206003189087
448,5,-0.021949877962470055,-0.0013270557392388582,-0.002077683573588729,0.00881930161267519,0.01971251703798771,-0.03670791536569595,0.8899051547050476,-0.04466118663549423,0.05768362432718277,0.5024003982543945,-0.8911317586898804,1.3583214282989502,0.0,0.0,0.0,0.03776438161730766,-0.06599637866020203,-0.0,0.0,0.0,0.0,-0.004999999888241291,-0.004999999888241291,0.003000000026077032,47005.0,15496.0,47005.0,0.0,0.21375969052314758,0.05085469037294388,0.21375969052314758,-0.0710965245962143,0.0,0.0,0.0,0.0,47568.0,16418.0,47568.0,0.0,0.3886236846446991,-1.1318009122177042,0.799073343380489,2.1151453937680387,0.2964220643043518,0.11318229138851166,-2.421041488647461
453,5,-0.02155310846865177,0.0005300517077557743,-0.0003908308281097561,0.058193426579236984,-0.25408127903938293,-0.2471717745065689,0.8899051547050476,-0.04466118663549423,0.05768362432718277,0.5024003982543945,-0.8911317586898804,1.3583214282989502,0.0,0.0,0.0,0.03766060993075371,-0.06600067019462585,-0.0,0.0,0.0,0.0,-0.004999999888241291,-0.004999999888241291,0.003000000026077032,47005.0,15496.0,47005.0,0.0,0.21375969052314758,0.05085469037294388,0.21375969052314758,-0.0710965245962143,0.0,0.0,0.0,0.0,47568.0,16418.0,47568.0,0.0,0.38859689235687256,-1.1606549520713862,0.8208257994405683,2.1520758981608057,0.09654494374990463,1.2191853523254395,-1.7643471956253052
458,5,-0.021548444405198097,0.0003318791277706623,-0.000311689218506217,0.018110856413841248,-0.04848022013902664,-0.08523135632276535,0.8963804244995117,-0.027950000017881393,0.058765310794115067,0.5486413836479187,-0.6392191052436829,0.9692533016204834,0.0,0.0,0.0,0.1211104542016983,-0.05254381522536278,-0.0,0.0,0.0,0.0,-0.004999999888241291,-0.004999999888241291,0.003000000026077032,46846.0,15232.0,46846.0,0.0,0.21273517608642578,0.04983019083738327,0.21273517608642578,-0.0721210241317749,0.0,0.0,0.0,0.0,46846.0,15232.0,46846.0,0.0,0.4256569743156433,-1.156152816989262,0.8198117735473572,2.1504637990652706,0.25684723258018494,0.39572060108184814,-2.248981237411499
463,5,-0.02157040685415268,0.0001509441208327189,-0.0002863928966689855,0.00235865474678576,0.010786834172904491,-0.029110891744494438,0.8963804244995117,-0.027950000017881393,0.058765310794115067,0.5486413836479187,-0.6392191052436829,0.9692533016204834,0.0,0.0,0.0,0.05141016095876694,-0.06965102255344391,-0.0,0.0,0.0,0.0,-0.004999999888241291,-0.004999999888241291,0.003000000026077032,46846.0,15232.0,46846.0,0.0,0.21273517608642578,0.04983019083738327,0.21273517608642578,-0.0721210241317749,0.0,0.0,0.0,0.0,46846.0,15232.0,46846.0,0.0,0.39778196811676025,-1.1496149354390464,0.8181298785763679,2.1463023717137126,0.31998783349990845,0.15764673054218292,-2.4169631004333496
468,5,-0.021597281098365784,-2.9937553335912526e-05,-0.0003291030297987163,-0.0030547073110938072,0.028559483587741852,-0.002753848908469081,0.9011261463165283,-0.02074338123202324,0.06094830855727196,0.5765207409858704,-0.09125470370054245,0.9819086194038391,0.0,0.0,0.0,0.027951432392001152,-0.07456549257040024,-0.0,0.0,0.0,0.0,-0.004999999888241291,-0.004999999888241291,0.003000000026077032,54560.0,27141.0,54560.0,0.0,0.26467421650886536,0.10176923125982285,0.26467421650886536,-0.020181991159915924,0.0,0.0,0.0,0.0,54560.0,27141.0,54560.0,0.0,0.39657312631607056,-1.1423893647923071,0.8160341074311669,2.1403582651879387,0.3418025076389313,0.08550725132226944,-2.4966750144958496
