timestamp,dt,pos_x,pos_y,pos_z,vel_x,vel_y,vel_z,roll,pitch,yaw,agv_x,agv_y,agv_z,x_ref,y_ref,z_ref,roll_ref,pitch_ref,yaw_ref,x_vel_ref,y_vel_ref,z_vel_ref,x_torque,y_torque,z_torque,w0,w1,w2,w3,u0,u1,u2,u3,m0req,m1req,m2req,m3req,thrust0,thrust1,thrust2,thrust3,thrust_ref,roll_vicon,pitch_vicon,yaw_vicon,acc_x,acc_y,acc_z
5,5,0.0,0.0,0.0,0.00150207313708961,0.0017756202723830938,0.002736012451350689,0.012075823731720448,-0.016594352200627327,-0.036982979625463486,0.004330142866820097,0.030275650322437286,-0.015641270205378532,0.0,0.0,0.0,-0.0026524357963353395,0.0014958747196942568,-0.0,0.0,0.0,0.0,-0.0004859276523347944,0.0007399540045298636,-0.0011319945333525538,0.0,0.0,0.0,0.0,0.0,0.0,0.0,0.0,0.0,0.0,0.0,0.0,0.0,0.0,0.0,0.0,0.34703341126441956,-0.008446575456973669,0.046612570133271254,0.016232866327262157,-0.00600829254835844,-0.007102481089532375,-0.008208037354052067
28,23,0.0,0.0,0.0,0.002839555498212576,0.0009573985589668155,-0.0004422424826771021,0.012075823731720448,-0.016594352200627327,-0.036982979625463486,0.004330142866820097,0.030275650322437286,-0.015641270205378532,0.0,0.0,0.0,-0.0014301666524261236,0.0028278324753046036,-0.0,0.0,0.0,0.0,-0.0004859276523347944,0.0007399540045298636,-0.0011319945333525538,0.0,0.0,0.0,0.0,0.0,0.0,0.0,0.0,0.0,0.0,0.0,0.0,0.0,0.0,0.0,0.0,0.3470335304737091,-0.007958436611070532,0.04728474374088238,0.01597173217606798,-0.011358221992850304,-0.003829594235867262,0.0013267274480313063
33,5,0.0,0.0,0.0,0.00744866207242012,0.0012894024839624763,0.0073544941842556,0.01204598043113947,-0.016987401992082596,-0.037182215601205826,-0.005667037796229124,0.04649246111512184,-0.017630742862820625,0.0,0.0,0.0,-0.001924804295413196,0.007412919774651527,-0.0,0.0,0.0,0.0,-0.000469361461000517,0.0008369078277610242,-0.0011417496716603637,0.0,0.0,0.0,0.0,0.0,0.0,0.0,0.0,0.0,0.0,0.0,0.0,0.0,0.0,0.0,0.0,0.3472701907157898,-0.008339573093223805,0.047863685693499095,0.017056969787520155,-0.02979464828968048,-0.005157609935849905,-0.0220634825527668
39,5,0.0,0.0,0.0,0.0016823586774989963,-0.0009014436509460211,-0.0007899385527707636,0.01204598043113947,-0.016987401992082596,-0.037182215601205826,-0.005667037796229124,0.04649246111512184,-0.017630742862820625,0.0,0.0,0.0,0.00134569953661412,0.0016743149608373642,-0.0,0.0,0.0,0.0,-0.000469361461000517,0.0008369078277610242,-0.0011417496716603637,0.0,0.0,0.0,0.0,0.0,0.0,0.0,0.0,0.0,0.0,0.0,0.0,0.0,0.0,0.0,0.0,0.34726080298423767,-0.007532815720945378,0.04770004872681388,0.01607216473770335,-0.006729434709995985,0.0036057746037840843,0.002369815716519952
44,5,-6.47228898742469e-06,3.7208239518804476e-05,2.976335963467136e-05,-0.00040141286444850266,-0.005479586776345968,-0.004403851926326752,0.0120522016659379,-0.01744050532579422,-0.03725582733750343,0.00531005859375,0.06131529435515404,-0.00011455047933850437,0.0,0.0,0.0,0.008261345326900482,-0.00040905989590100944,-0.0,0.0,0.0,0.0,-0.00048415918718092144,0.0009797955863177776,-0.0011267330264672637,0.0,0.0,0.0,0.0,0.0,0.0,0.0,0.0,0.0,0.0,0.0,0.0,16382.0,31712.0,11489.0,33111.0,0.3473562002182007,-0.005818035627043304,0.05002342889593504,0.015986440039791838,0.0016445111250504851,0.022141745314002037,0.013659493997693062
49,5,3.2535324407945154e-06,2.1324362023733556e-05,4.8118810809683055e-05,0.001241191173903644,0.0005798666970804334,-0.0038909188006073236,0.01205759309232235,-0.018329106271266937,-0.03703509271144867,-0.011452929116785526,0.08532965928316116,0.056270699948072433,0.0,0.0,0.0,-0.0008131896611303091,0.0012408372713252902,-0.0,0.0,0.0,0.0,-0.00042827436118386686,0.0011576241813600063,-0.0011013541370630264,16839.0,31283.0,11719.0,33032.0,0.05617320537567139,0.12250518798828125,0.03668132424354553,0.13167381286621094,0.0,0.0,0.0,0.0,17112.0,30894.0,12309.0,32842.0,0.3470918536186218,-0.005066081468455113,0.050346940140540565,0.01608773411511494,-0.004984771832823753,-0.002177823567762971,0.012691459618508816
58,9,7.275660027517006e-05,4.3366988393245265e-05,-3.1221330573316664e-05,0.011923722922801971,-0.009754381142556667,0.004931905306875706,0.01205759309232235,-0.018329106271266937,-0.03703509271144867,-0.011452929116785526,0.08532965928316116,0.056270699948072433,0.0,0.0,0.0,0.01466959435492754,0.011980845592916012,-0.0,0.0,0.0,0.0,-0.00042827436118386686,0.0011576241813600063,-0.0011013541370630264,16839.0,31283.0,11719.0,33032.0,0.05617320537567139,0.12250518798828125,0.03668132424354553,0.13167381286621094,0.0,0.0,0.0,0.0,17112.0,30894.0,12309.0,32842.0,0.34715375304222107,-0.0030274893355714417,0.04882771355264304,0.01676678609312947,-0.048132650554180145,0.039291899651288986,-0.01496981456875801
63,5,1.0907407158811111e-05,3.562145502655767e-05,-0.00018166261725127697,-0.005081770475953817,-0.0018419398693367839,0.0225413516163826,0.012133573181927204,-0.018900521099567413,-0.03672679886221886,0.00960288755595684,0.06517298519611359,0.022185852751135826,0.0,0.0,0.0,0.0028428109362721443,-0.0050442717038095,-0.0,0.0,0.0,0.0,-0.0003908780636265874,0.0010564796393737197,-0.001093034166842699,16470.0,31513.0,11781.0,33085.0,0.054697196930646896,0.12369824945926666,0.03690790757536888,0.13195744156837463,0.0,0.0,0.0,0.0,16676.0,31501.0,11867.0,32900.0,0.346744179725647,-0.0016041123633358991,0.052339286518090784,0.016545266661693786,0.020243719220161438,0.007605905644595623,-0.0701664611697197
68,5,-5.6060041970340535e-05,4.718956188298762e-05,-0.00021535123232752085,-0.010899974033236504,-0.002172116655856371,0.011478813365101814,0.012133573181927204,-0.018900521099567413,-0.03672679886221886,0.00960288755595684,0.06517298519611359,0.022185852751135826,0.0,0.0,0.0,0.003365437500178814,-0.010942621156573296,-0.0,0.0,0.0,0.0,-0.0003908780636265874,0.0010564796393737197,-0.001093034166842699,16470.0,31513.0,11781.0,33085.0,0.054697196930646896,0.12369824945926666,0.03690790757536888,0.13195744156837463,0.0,0.0,0.0,0.0,16676.0,31501.0,11867.0,32900.0,0.3467610776424408,-0.013226891419040904,0.04264636934530737,0.01928512804192795,0.043916523456573486,0.00900470931082964,-0.038034215569496155
73,5,-0.00016058035544119775,0.0001660038105910644,-0.00020687546930275857,-0.017902836203575134,-0.017285628244280815,0.0022570365108549595,0.012160280719399452,-0.01959417201578617,-0.03620651736855507,0.0009926841594278812,0.04858043044805527,0.045011065900325775,0.0,0.0,0.0,0.02627049759030342,-0.01811177097260952,-0.0,0.0,0.0,0.0,-0.00041612479253672063,0.0010185346473008394,-0.001044518663547933,16904.0,31251.0,12363.0,32631.0,0.0564335361123085,0.12234164029359818,0.03901705890893936,0.1295524537563324,0.0,0.0,0.0,0.0,16354.0,30536.0,11963.0,33969.0,0.34631872177124023,-0.018788812345682318,0.039117580007660635,0.017390096520570993,0.07256904989480972,0.0701836347579956,-0.010870804078876972
79,6,-0.00016058035544119775,0.0001660038105910644,-0.00020687546930275857,-0.017902836203575134,-0.017285628244280815,0.0022570365108549595,0.012160280719399452,-0.01959417201578617,-0.03620651736855507,0.0009926841594278812,0.04858043044805527,0.045011065900325775,0.0,0.0,0.0,0.026282547041773796,-0.01811954379081726,-0.0,0.0,0.0,0.0,-0.00041612479253672063,0.0010185346473008394,-0.001044518663547933,16904.0,31251.0,12363.0,32631.0,0.0564335361123085,0.12234164029359818,0.03901705890893936,0.1295524537563324,0.0,0.0,0.0,0.0,16354.0,30536.0,11963.0,33969.0,0.3463188707828522,-0.018788812345682318,0.039117580007660635,0.017390096520570993,0.0725998803973198,0.07021550834178925,-0.011367305181920528
84,5,0.0001335726265097037,-0.00011021274258382618,5.345857061911374e-05,-0.007840909995138645,0.018176913261413574,-0.04193032160401344,0.012207679450511932,-0.020019425079226494,-0.03624075651168823,-0.001445561763830483,0.019619779661297798,-0.02034902013838291,0.0,0.0,0.0,-0.027422919869422913,-0.0076407818123698235,-0.0,0.0,0.0,0.0,5.256139411358163e-05,0.0013546934351325035,-0.001181052764877677,15328.0,31311.0,11199.0,34485.0,0.0502026192843914,0.12265084683895111,0.03482216224074364,0.1394781470298767,0.0,0.0,0.0,0.0,16354.0,30536.0,11963.0,33969.0,0.3463219702243805,0.003197634406246459,0.0579076717372258,0.02486411342780671,0.03061489574611187,-0.07326138019561768,0.12454795092344284
90,5,1.4539511539624073e-05,-0.0006094235577620566,0.0011530427727848291,-0.01901690848171711,0.0753425881266594,-0.1665208786725998,0.012207679450511932,-0.020019425079226494,-0.03624075651168823,-0.001445561763830483,0.019619779661297798,-0.02034902013838291,0.0,0.0,0.0,-0.10199358314275742,-0.016975712031126022,-0.0,0.0,0.0,0.0,5.256139411358163e-05,0.0013546934351325035,-0.001181052764877677,15328.0,31311.0,11199.0,34485.0,0.0502026192843914,0.12265084683895111,0.03482216224074364,0.1394781470298767,0.0,0.0,0.0,0.0,16354.0,30536.0,11963.0,33969.0,0.38890349864959717,-0.007218239551734678,0.02887238240890482,0.011829319435636252,0.07601029425859451,-0.30494174361228943,0.5150134563446045
95,5,0.0001416727900505066,-0.0005639467854052782,0.0009544723434373736,0.012093585915863514,0.016236023977398872,-0.022156408056616783,0.012150623835623264,-0.0200694277882576,-0.036242492496967316,-0.003967967815697193,-0.006975836120545864,-0.0354478657245636,0.0,0.0,0.0,-0.025587163865566254,0.01227809302508831,-0.0,0.0,0.0,0.0,0.00041113613406196237,-0.00030121917370706797,-0.0012217214098200202,14746.0,32511.0,12578.0,32732.0,0.047951485961675644,0.12891988456249237,0.03980536386370659,0.13008436560630798,0.0,0.0,0.0,0.0,13164.0,33670.0,11256.0,33596.0,0.3463231027126312,-0.014041571244632378,0.020706046122653424,0.004827396585008591,-0.049197785556316376,-0.06835944950580597,0.08169887214899063
100,5,0.0001843634236138314,-0.0006884225294925272,0.0006100725149735808,0.00960476417094469,0.022297417744994164,0.041569050401449203,0.012206263840198517,-0.019631806761026382,-0.03668786957859993,0.011531075462698936,-0.09584636241197586,0.0068140472285449505,0.0,0.0,0.0,-0.034956686198711395,0.00985509343445301,-0.0,0.0,0.0,0.0,-0.003698762971907854,-0.00045309425331652164,-0.0012729348381981254,11938.0,32846.0,14444.0,32974.0,0.037472013384103775,0.1306886374950409,0.04679224267601967,0.13136613368988037,0.0,0.0,0.0,0.0,11121.0,33294.0,14300.0,33179.0,0.34692254662513733,-0.013284139539357726,0.02922248699551813,0.013054424188279548,-0.0395464152097702,-0.09353432804346085,-0.11196311563253403
105,5,-0.00011254178389208391,-0.0005501094274222851,0.0014245667262002826,-0.03868529945611954,-0.012674610130488873,-0.10155846923589706,0.012206263840198517,-0.019631806761026382,-0.03668786957859993,0.011531075462698936,-0.09584636241197586,0.0068140472285449505,0.0,0.0,0.0,0.017308730632066727,-0.038021020591259,-0.0,0.0,0.0,0.0,-0.003698762971907854,-0.00045309425331652164,-0.0012729348381981254,11938.0,32846.0,14444.0,32974.0,0.037472013384103775,0.1306886374950409,0.04679224267601967,0.13136613368988037,0.0,0.0,0.0,0.0,11121.0,33294.0,14300.0,33179.0,0.35325926542282104,-0.008024352958104613,0.02086947352205351,0.006844203548610694,0.15539410710334778,0.047173477709293365,0.3298199474811554
110,5,-0.00011964297300437465,-0.0005922025302425027,0.0015589845133945346,-0.012599756009876728,0.0020906489808112383,-0.04928603023290634,0.012206263840198517,-0.019631806761026382,-0.03668786957859993,0.011531075462698936,-0.09584636241197586,0.0068140472285449505,0.0,0.0,0.0,-0.004585123620927334,-0.012739099562168121,-0.0,0.0,0.0,0.0,-0.003698762971907854,-0.00045309425331652164,-0.0012729348381981254,11938.0,32846.0,14444.0,32974.0,0.037472013384103775,0.1306886374950409,0.04679224267601967,0.13136613368988037,0.0,0.0,0.0,0.0,11121.0,33294.0,14300.0,33179.0,0.34672555327415466,-0.009881146090448236,0.016463256491838305,0.005636951686028429,0.05112067237496376,-0.01226791087538004,0.17915686964988708
115,5,0.0003690818266477436,-0.00034719010000117123,0.0007185663562268019,0.0646415501832962,-0.03367454558610916,0.10287272930145264,0.011985215358436108,-0.01838565617799759,-0.037055518478155136,-0.02260967530310154,-0.07387537509202957,-0.02249414101243019,0.0,0.0,0.0,0.044745542109012604,0.0589187853038311,-0.0,0.0,0.0,0.0,-0.0016379489097744226,0.0005902666598558426,-0.001270853914320469,16241.0,34455.0,8559.0,32260.0,0.053789347410202026,0.13931894302368164,0.025706157088279724,0.12759821116924286,0.0,0.0,0.0,0.0,19921.0,40115.0,9037.0,31061.0,0.38297730684280396,0.0020612646585767636,0.01348946074689356,0.011409014323120774,-0.26075229048728943,0.13213245570659637,-0.28564152121543884
120,5,-0.0002646943903528154,-0.00010297320113750175,1.48699937199126e-05,-0.06442085653543472,-0.09412158280611038,0.08974219858646393,0.011985215358436108,-0.01838565617799759,-0.037055518478155136,-0.02260967530310154,-0.07387537509202957,-0.02249414101243019,0.0,0.0,0.0,0.11583761870861053,-0.053469929844141006,-0.0,0.0,0.0,0.0,-0.0016379489097744226,0.0005902666598558426,-0.001270853914320469,16241.0,34455.0,8559.0,32260.0,0.053789347410202026,0.13931894302368164,0.025706157088279724,0.12759821116924286,0.0,0.0,0.0,0.0,19921.0,40115.0,9037.0,31061.0,0.4218943417072296,0.01964813168168533,0.08154429316010199,0.023766508092439,0.2592228055000305,0.37531188130378723,-0.25490042567253113
125,5,0.0004926074761897326,-0.0002758008777163923,-0.0008707482484169304,0.08669599890708923,-0.004040601663291454,0.1509092152118683,0.011985215358436108,-0.01838565617799759,-0.037055518478155136,-0.02260967530310154,-0.07387537509202957,-0.02249414101243019,0.0,0.0,0.0,0.004557797685265541,0.07638716697692871,-0.0,0.0,0.0,0.0,-0.0005445177666842937,0.0003598102484829724,-0.001300528645515442,13344.0,34084.0,10307.0,33673.0,0.042638711631298065,0.1373104453086853,0.03167823702096939,0.13509824872016907,0.0,0.0,0.0,0.0,15175.0,35120.0,7441.0,33064.0,0.3959548771381378,0.002234077771116272,0.06352519249029796,0.014240318016842137,-0.34972476959228516,0.013924355618655682,-0.4516831934452057
130,5,0.0004926074761897326,-0.0002758008777163923,-0.0008707482484169304,0.08669599890708923,-0.004040601663291454,0.1509092152118683,0.012043123133480549,-0.017669685184955597,-0.037445321679115295,0.008161680772900581,-0.05124920234084129,-0.03446858376264572,0.0,0.0,0.0,0.00453637819737196,0.07640740275382996,-0.0,0.0,0.0,0.0,-0.0005445177666842937,0.0003598102484829724,-0.001300528645515442,13344.0,34084.0,10307.0,33673.0,0.042638711631298065,0.1373104453086853,0.03167823702096939,0.13509824872016907,0.0,0.0,0.0,0.0,15175.0,35120.0,7441.0,33064.0,0.3959804177284241,0.002234077771116272,0.06352519249029796,0.014240318016842137,-0.3498390316963196,0.0138603700324893,-0.4542083442211151
135,5,0.0003253453760407865,-0.0002878351369872689,-0.0005705042858608067,0.0020273644477128983,0.0046037775464355946,-0.010443812236189842,0.012043123133480549,-0.017669685184955597,-0.037445321679115295,0.008161680772900581,-0.05124920234084129,-0.03446858376264572,0.0,0.0,0.0,-0.0077774315141141415,0.002556178718805313,-0.0,0.0,0.0,0.0,-0.0005445177666842937,0.0003598102484829724,-0.001300528645515442,13344.0,34084.0,10307.0,33673.0,0.042638711631298065,0.1373104453086853,0.03167823702096939,0.13509824872016907,0.0,0.0,0.0,0.0,15175.0,35120.0,7441.0,33064.0,0.34757301211357117,0.003331117865304916,0.0682827215119725,0.01485324392524883,-0.010283414274454117,-0.02085835114121437,0.03164830803871155
140,5,0.0003074845881201327,-9.076541755348444e-05,-0.0004559547523967922,-0.0018922995077446103,-0.026208629831671715,-0.01917007938027382,0.011919653043150902,-0.017412478104233742,-0.037993382662534714,-0.013140793889760971,0.020495794713497162,-0.05450480431318283,0.0,0.0,0.0,0.038518477231264114,-0.0013468214310705662,-0.0,0.0,0.0,0.0,-0.0003055306151509285,0.003789458191022277,-0.0013242093846201897,21391.0,32074.0,8307.0,39753.0,0.07526624947786331,0.12662434577941895,0.024865679442882538,0.16919836401939392,0.0,0.0,0.0,0.0,14108.0,33724.0,9920.0,33749.0,0.34844785928726196,0.016107208570111404,0.06404413165790307,0.019714770538256498,0.005427648313343525,0.10350828617811203,0.05791088193655014
145,5,0.00045538146514445543,-0.00027317326748743653,-0.0007831011898815632,0.02013787254691124,0.017674511298537254,0.0400494784116745,0.011919653043150902,-0.017412478104233742,-0.037993382662534714,-0.013140793889760971,0.020495794713497162,-0.05450480431318283,0.0,0.0,0.0,-0.027214961126446724,0.0207549836486578,-0.0,0.0,0.0,0.0,-0.0003055306151509285,0.003789458191022277,-0.0013242093846201897,21391.0,32074.0,8307.0,39753.0,0.07526624947786331,0.12662434577941895,0.024865679442882538,0.16919836401939392,0.0,0.0,0.0,0.0,14108.0,33724.0,9920.0,33749.0,0.34839311242103577,0.0013294623101105154,0.0700233699602529,0.014311446271383999,-0.08365480601787567,-0.07314123958349228,-0.12603920698165894
151,5,0.00031207423307932913,-7.512878073612228e-05,-0.00034396330011077225,-0.01402165088802576,-0.022423874586820602,-0.04946446418762207,0.012006208300590515,-0.018086107447743416,-0.03807162120938301,0.013835346326231956,0.1141657829284668,0.020526520907878876,0.0,0.0,0.0,0.03287743404507637,-0.013329040259122849,-0.0,0.0,0.0,0.0,-0.0007600862882100046,0.0017197835259139538,-0.001271479413844645,16552.0,32319.0,8092.0,34671.0,0.05502225086092949,0.12790745496749878,0.02415027841925621,0.1404930204153061,0.0,0.0,0.0,0.0,22037.0,31450.0,8188.0,39890.0,0.34849798679351807,0.013266096325886935,0.06187639451055281,0.018429804570293196,0.05373258888721466,0.08837470412254333,0.1467231810092926
156,5,0.00031307784956879914,-5.231659815763123e-05,-0.0002810315927490592,-0.0040659913793206215,-0.009920868091285229,-0.023649776354432106,0.012006208300590515,-0.018086107447743416,-0.03807162120938301,0.013835346326231956,0.1141657829284668,0.020526520907878876,0.0,0.0,0.0,0.01431883405894041,-0.0034298778045922518,-0.0,0.0,0.0,0.0,-0.0007600862882100046,0.0017197835259139538,-0.001271479413844645,16552.0,32319.0,8092.0,34671.0,0.05502225086092949,0.12790745496749878,0.02415027841925621,0.1404930204153061,0.0,0.0,0.0,0.0,22037.0,31450.0,8188.0,39890.0,0.3483164608478546,0.011572810407449802,0.06108094884001044,0.018330783258768864,0.01382590364664793,0.038480907678604126,0.06915292888879776
161,5,0.00023948843590915203,-0.0001250922796316445,-0.0005615353002212942,-0.01152231264859438,0.007212333846837282,0.03217558562755585,0.012041023001074791,-0.020989984273910522,-0.03757963702082634,0.005400155670940876,0.09160774201154709,0.0344185046851635,0.0,0.0,0.0,-0.01136749517172575,-0.010937055572867393,-0.0,0.0,0.0,0.0,-0.0012704102555289865,0.0025161735247820616,-0.0012499477015808225,18626.0,32050.0,6104.0,34708.0,0.0634692907333374,0.12649716436862946,0.017732124775648117,0.14069464802742004,0.0,0.0,0.0,0.0,16880.0,32030.0,8138.0,34680.0,0.3477584719657898,0.00664532357458019,0.0689934714261526,0.014424616691102838,0.044017255306243896,-0.030501505360007286,-0.10339485853910446
166,5,0.00020344287622720003,4.581209213938564e-05,-0.0001213095965795219,-0.008503071963787079,-0.0217629112303257,-0.05197892338037491,0.012041023001074791,-0.020989984273910522,-0.03757963702082634,0.005400155670940876,0.09160774201154709,0.0344185046851635,0.0,0.0,0.0,0.03219543769955635,-0.00797606073319912,-0.0,0.0,0.0,0.0,-0.0012704102555289865,0.0025161735247820616,-0.0012499477015808225,18626.0,32050.0,6104.0,34708.0,0.0634692907333374,0.12649716436862946,0.017732124775648117,0.14069464802742004,0.0,0.0,0.0,0.0,16880.0,32030.0,8138.0,34680.0,0.34790655970573425,0.008526493475776931,0.060191357736184316,0.017534365849407745,0.032100189477205276,0.08639606088399887,0.15403753519058228
171,5,3.389833364053629e-05,0.00013236937229521573,9.42874830798246e-05,-0.026287158951163292,-0.01864689402282238,-0.04577726870775223,0.012165616266429424,-0.022140515968203545,-0.03723880276083946,0.0011415923945605755,0.07432767003774643,0.03244980797171593,0.0,0.0,0.0,0.02777230367064476,-0.025916052982211113,-0.0,0.0,0.0,0.0,-5.867748041055165e-05,0.001330154249444604,-0.0012700689258053899,14645.0,32142.0,10259.0,34995.0,0.04756364971399307,0.12697896361351013,0.03151131421327591,0.14226248860359192,0.0,0.0,0.0,0.0,17991.0,32746.0,5902.0,34634.0,0.34757551550865173,0.01405569003502992,0.0650861019716569,0.018941290776108784,0.10420484095811844,0.07446286082267761,0.13830731809139252
176,5,0.00019380134472157806,-0.00015980988973751664,-0.00037540579796768725,0.014500273391604424,0.035311028361320496,0.05202387645840645,0.012165616266429424,-0.022140515968203545,-0.03723880276083946,0.0011415923945605755,0.07432767003774643,0.03244980797171593,0.0,0.0,0.0,-0.05275634676218033,0.01473298016935587,-0.0,0.0,0.0,0.0,-5.867748041055165e-05,0.001330154249444604,-0.0012700689258053899,14645.0,32142.0,10259.0,34995.0,0.04756364971399307,0.12697896361351013,0.03151131421327591,0.14226248860359192,0.0,0.0,0.0,0.0,17991.0,32746.0,5902.0,34634.0,0.35185733437538147,-0.010926272137682708,0.04758704678999207,0.027532496949324983,-0.059913281351327896,-0.14309050142765045,-0.16187506914138794
181,5,0.00016112007142510265,-0.00012361047265585512,-0.00034245659480802715,-0.00022529491980094463,0.005525390151888132,0.010994276963174343,0.012101068161427975,-0.022364620119333267,-0.037079818546772,0.011063093319535255,-0.006135090254247189,-0.003923270385712385,0.0,0.0,0.0,-0.008874179795384407,0.0002147872728528455,-0.0,0.0,0.0,0.0,0.000555847305804491,0.0008662956533953547,-0.0013049026019871235,12560.0,32252.0,11539.0,35416.0,0.0397387258708477,0.1275578737258911,0.0360376350581646,0.14457231760025024,0.0,0.0,0.0,0.0,12213.0,32547.0,12264.0,34887.0,0.3471563756465912,-0.012898086873808832,0.047308982514229006,0.026723866071637088,-0.0008633065153844655,-0.023770639672875404,-0.039464354515075684
186,5,0.00013329727516975254,-0.0003734583733603358,-0.0003883014142047614,-0.003962780814617872,0.03663632273674011,0.009716558270156384,0.012101068161427975,-0.022364620119333267,-0.037079818546772,0.011063093319535255,-0.006135090254247189,-0.003923270385712385,0.0,0.0,0.0,-0.05537816509604454,-0.003506335197016597,-0.0,0.0,0.0,0.0,0.000555847305804491,0.0008662956533953547,-0.0013049026019871235,12560.0,32252.0,11539.0,35416.0,0.0397387258708477,0.1275578737258911,0.0360376350581646,0.14457231760025024,0.0,0.0,0.0,0.0,12213.0,32547.0,12264.0,34887.0,0.3508189022541046,-0.02902752877056922,0.04770921110291267,0.020197940123118378,0.0142150167375803,-0.14974412322044373,-0.03734853118658066
191,5,0.0001235541421920061,-0.00020604241581168026,-0.00035185652086511254,-0.002552871825173497,-0.012447336688637733,-0.0021873177029192448,0.01213069073855877,-0.02155802957713604,-0.03719939664006233,0.002000394742935896,-0.106106236577034,-0.02694314531981945,0.0,0.0,0.0,0.017726903781294823,-0.0021398684475570917,-0.0,0.0,0.0,0.0,0.0006201580399647355,0.00010634584032231942,-0.0013586616842076182,16667.0,35880.0,6404.0,32823.0,0.055485282093286514,0.147133469581604,0.018680039793252945,0.13056516647338867,0.0,0.0,0.0,0.0,16463.0,36024.0,5912.0,33119.0,0.3473350405693054,-0.015117838803084635,0.043558643491000505,0.02537395329188734,0.008600840345025063,0.04750339686870575,-0.002291231183335185
196,5,-0.00010975470650009811,-0.00033587904181331396,-0.00013455770385917276,-0.0334291011095047,0.014442925341427326,-0.031078031286597252,0.01213069073855877,-0.02155802957713604,-0.03719939664006233,0.002000394742935896,-0.106106236577034,-0.02694314531981945,0.0,0.0,0.0,-0.02256643958389759,-0.03298945724964142,-0.0,0.0,0.0,0.0,0.0006201580399647355,0.00010634584032231942,-0.0013586616842076182,16667.0,35880.0,6404.0,32823.0,0.055485282093286514,0.147133469581604,0.018680039793252945,0.13056516647338867,0.0,0.0,0.0,0.0,16463.0,36024.0,5912.0,33119.0,0.3497309684753418,-0.02064564061860734,0.04546381703048029,0.025856653703419757,0.13347691297531128,-0.060885556042194366,0.08660785108804703
201,5,-0.0001149182571680285,-0.0004873060970567167,-0.0003768717579077929,-0.010751626454293728,0.025532664731144905,0.0246005579829216,0.011966204270720482,-0.02039702609181404,-0.03739505261182785,-0.0022549342829734087,-0.19266322255134583,-0.04532106965780258,0.0,0.0,0.0,-0.03960952162742615,-0.010647311806678772,-0.0,0.0,0.0,0.0,-0.0021436831448227167,0.0005102510331198573,-0.0014007858699187636,14790.0,37244.0,7641.0,31816.0,0.04812188819050789,0.1547670215368271,0.02266806736588478,0.125274658203125,0.0,0.0,0.0,0.0,14265.0,37711.0,6765.0,32236.0,0.3477962613105774,-0.02402908971017349,0.03766891105660239,0.028818303523741234,0.042825471609830856,-0.10623795539140701,-0.08450129628181458
206,5,-0.00021907046902924776,-0.0006530832033604383,-8.722625352675095e-05,-0.017806796357035637,0.030868597328662872,-0.03317020460963249,0.011966204270720482,-0.02039702609181404,-0.03739505261182785,-0.0022549342829734087,-0.19266322255134583,-0.04532106965780258,0.0,0.0,0.0,-0.047684915363788605,-0.017718195915222168,-0.0,0.0,0.0,0.0,-0.0021436831448227167,0.0005102510331198573,-0.0014007858699187636,14790.0,37244.0,7641.0,31816.0,0.04812188819050789,0.1547670215368271,0.02266806736588478,0.125274658203125,0.0,0.0,0.0,0.0,14265.0,37711.0,6765.0,32236.0,0.3500399887561798,-0.03180652429907094,0.04495305660024408,0.031222321036978484,0.0716983899474144,-0.1286916881799698,0.09205114096403122
211,5,-0.00024393103376496583,-0.000681949604768306,-0.00030115104163996875,-0.008822518400847912,0.013301876373589039,0.01999841071665287,0.01193173136562109,-0.018064988777041435,-0.0378141924738884,-0.013809171505272388,-0.21556463837623596,-0.006185990758240223,0.0,0.0,0.0,-0.04773933067917824,-0.017729628831148148,-0.0,0.0,0.0,0.0,-0.0022893694695085287,-0.0003432694065850228,-0.0014195883413776755,14454.0,37527.0,8016.0,31520.0,0.046832386404275894,0.15636809170246124,0.023898828774690628,0.12373232841491699,0.0,0.0,0.0,0.0,14265.0,37711.0,6765.0,32236.0,0.3480810523033142,-0.03474296553407111,0.03809584331982423,0.03083092228520736,0.03596438467502594,-0.05875871330499649,-0.0709371417760849
216,5,-6.025006223353557e-05,-0.00023970425536390394,-0.00033666647505015135,0.023068580776453018,-0.05792379006743431,0.010971683077514172,0.01193173136562109,-0.018064988777041435,-0.0378141924738884,-0.013809171505272388,-0.21556463837623596,-0.006185990758240223,0.0,0.0,0.0,0.07961218059062958,0.021528083831071854,-0.0,0.0,0.0,0.0,-0.0022893694695085287,-0.0003432694065850228,-0.0014195883413776755,14454.0,37527.0,8016.0,31520.0,0.046832386404275894,0.15636809170246124,0.023898828774690628,0.12373232841491699,0.0,0.0,0.0,0.0,14265.0,37711.0,6765.0,32236.0,0.37301990389823914,-0.015257990728126922,0.03665897213878579,0.026748028996430633,-0.09264282882213593,0.22863143682479858,-0.04531750828027725
221,5,-0.0004895761958323419,-0.0002445444988552481,-0.00010343108442611992,-0.05318508669734001,-0.01669950596988201,-0.029361451044678688,0.011885587126016617,-0.016576876863837242,-0.0382203608751297,0.0017124402802437544,-0.19415821135044098,0.0031087645329535007,0.0,0.0,0.0,0.022462500259280205,-0.05060075595974922,-0.0,0.0,0.0,0.0,-0.001247543259523809,-0.0012466826010495424,-0.001481292536482215,10720.0,37632.0,10812.0,31993.0,0.03312409669160843,0.156965434551239,0.0334511324763298,0.1262003481388092,0.0,0.0,0.0,0.0,13099.0,37843.0,8933.0,31421.0,0.36729633808135986,-0.010431392126293253,0.05955517157892274,0.02031588648177665,0.2149636149406433,0.06364914774894714,0.0782073363661766
227,5,-0.00011953293142141774,-0.00018526862550061196,-0.0001619610993657261,0.03585053235292435,-0.01330847293138504,-0.0006142329075373709,0.011885587126016617,-0.016576876863837242,-0.0382203608751297,0.0017124402802437544,-0.19415821135044098,0.0031087645329535007,0.0,0.0,0.0,0.022439898923039436,-0.050626032054424286,-0.0,0.0,0.0,0.0,-0.001247543259523809,-0.0012466826010495424,-0.001481292536482215,10720.0,37632.0,10812.0,31993.0,0.03312409669160843,0.156965434551239,0.0334511324763298,0.1262003481388092,0.0,0.0,0.0,0.0,13099.0,37843.0,8933.0,31421.0,0.36731863021850586,-0.021496732000712573,0.03650833290716545,0.02051992856430761,-0.14327844977378845,0.05038014054298401,-0.009234366938471794
232,5,-0.00017441199452150613,-0.0001222481660079211,-0.00010045999806607142,0.0030720902141183615,-0.012815405614674091,-0.008794423192739487,0.011885587126016617,-0.016576876863837242,-0.0382203608751297,0.0017124402802437544,-0.19415821135044098,0.0031087645329535007,0.0,0.0,0.0,0.01859358884394169,0.035287197679281235,-0.0,0.0,0.0,0.0,-0.001247543259523809,-0.0012466826010495424,-0.001481292536482215,10720.0,37632.0,10812.0,31993.0,0.03312409669160843,0.156965434551239,0.0334511324763298,0.1262003481388092,0.0,0.0,0.0,0.0,13099.0,37843.0,8933.0,31421.0,0.350874125957489,-0.022836223573110874,0.035275140108233974,0.01879410886998087,-0.011804929934442043,0.04873906075954437,0.015716031193733215
237,5,-0.00018658929911907762,-0.0002385509287705645,-0.00013975372712593526,-0.0007831943221390247,0.01243776548653841,0.0028627945575863123,0.011999673210084438,-0.014743385836482048,-0.03835263475775719,0.013856598176062107,-0.11833911389112473,-0.01186433807015419,0.0,0.0,0.0,0.018107781186699867,0.0029152738861739635,-0.0,0.0,0.0,0.0,-0.0021161073818802834,-0.0004593942721839994,-0.0014774855226278305,13446.0,37788.0,7618.0,32071.0,0.04302283003926277,0.15785178542137146,0.02259296551346779,0.12660656869411469,0.0,0.0,0.0,0.0,10163.0,32553.0,14479.0,39164.0,0.3486683964729309,-0.025281711259534198,0.03538285166326877,0.021927462074354136,0.0037321774289011955,-0.053001511842012405,-0.020153941586613655
242,5,-0.00017715686408337206,-0.000291821314021945,-4.940878352499567e-05,0.0010855820728465915,0.011189182288944721,-0.011789453215897083,0.011999673210084438,-0.014743385836482048,-0.03835263475775719,0.013856598176062107,-0.11833911389112473,-0.01186433807015419,0.0,0.0,0.0,-0.019724804908037186,-0.000936204451136291,-0.0,0.0,0.0,0.0,-0.0021161073818802834,-0.0004593942721839994,-0.0014774855226278305,13446.0,37788.0,7618.0,32071.0,0.04302283003926277,0.15785178542137146,0.02259296551346779,0.12660656869411469,0.0,0.0,0.0,0.0,10163.0,32553.0,14479.0,39164.0,0.34866854548454285,-0.02536844975915485,0.03725755313123996,0.022181142525291332,-0.0037540136836469173,-0.04838511720299721,0.02473398484289646
247,5,-3.7274101487128064e-05,-0.00037019437877461314,-0.00010672120697563514,0.019909260794520378,0.01432898547500372,0.004486903082579374,0.011894617229700089,-0.01423882506787777,-0.038437724113464355,0.0031088150572031736,-0.029657965525984764,0.010874892584979534,0.0,0.0,0.0,-0.018183114007115364,0.0011275897268205881,-0.0,0.0,0.0,0.0,0.0021252441219985485,0.0013893787981942296,-0.0014735920121893287,10905.0,32109.0,13374.0,39833.0,0.033779919147491455,0.12680582702159882,0.04275387525558472,0.1696670800447464,0.0,0.0,0.0,0.0,11814.0,33807.0,10009.0,35498.0,0.3487558960914612,-0.03658134663373579,0.03492783819014484,0.014564053872075341,-0.07984543591737747,-0.06148534268140793,-0.025105664506554604
252,5,-0.00022747156617697328,-0.0005457858787849545,-0.0005073174834251404,-0.020654866471886635,0.028881503269076347,0.05742954835295677,0.011894617229700089,-0.01423882506787777,-0.038437724113464355,0.0031088150572031736,-0.029657965525984764,0.010874892584979534,0.0,0.0,0.0,-0.044787921011447906,-0.02065460942685604,-0.0,0.0,0.0,0.0,0.0021252441219985485,0.0013893787981942296,-0.0014735920121893287,10905.0,32109.0,13374.0,39833.0,0.033779919147491455,0.12680582702159882,0.04275387525558472,0.1696670800447464,0.0,0.0,0.0,0.0,11814.0,33807.0,10009.0,35498.0,0.34992480278015137,-0.031455216731422556,0.028386030795373714,0.028766584058862375,0.0835629478096962,-0.12084478884935379,-0.19031409919261932
257,5,-0.0002361974329687655,-0.00024823989951983094,-7.785153138684109e-05,-0.007418081164360046,-0.032991982996463776,-0.042896367609500885,0.011989685706794262,-0.013943114317953587,-0.03832753375172615,0.03300071135163307,-0.007037868723273277,0.010719140991568565,0.0,0.0,0.0,0.04768594726920128,-0.007615174166858196,-0.0,0.0,0.0,0.0,-0.001023087534122169,0.000789009383879602,-0.0014295895816758275,13866.0,35002.0,7589.0,34445.0,0.04459970071911812,0.1422964185476303,0.022495228797197342,0.13926582038402557,0.0,0.0,0.0,0.0,14153.0,35047.0,7786.0,34079.0,0.3489786386489868,-0.024946065221092478,0.037685324560358474,0.02313838690424951,0.03072369657456875,0.1283024549484253,0.11557979881763458
262,5,-0.0003267313295509666,-0.00024262655642814934,6.389797817973886e-06,-0.01490017119795084,-0.010683462955057621,-0.024662695825099945,0.011989685706794262,-0.013943114317953587,-0.03832753375172615,0.03300071135163307,-0.007037868723273277,0.010719140991568565,0.0,0.0,0.0,0.014512878842651844,-0.015182058326900005,-0.0,0.0,0.0,0.0,-0.001023087534122169,0.000789009383879602,-0.0014295895816758275,13866.0,35002.0,7589.0,34445.0,0.04459970071911812,0.1422964185476303,0.022495228797197342,0.13926582038402557,0.0,0.0,0.0,0.0,14153.0,35047.0,7786.0,34079.0,0.34864872694015503,-0.0287668345914879,0.03885319123341005,0.020600326673830206,0.06125514209270477,0.03903951868414879,0.06190137937664986
267,5,-0.00029742176411673427,-0.00028545508394017816,-0.00010976806515827775,-0.00036670913686975837,0.0027909555938094854,0.008863291703164577,0.011926514096558094,-0.013760523870587349,-0.03809170424938202,-0.0278251264244318,-0.008123017847537994,0.012037153355777264,0.0,0.0,0.0,-0.00564602529630065,-0.0007502614753320813,-0.0,0.0,0.0,0.0,-0.001975943334400654,-8.737849384488072e-06,-0.0014425985282287002,14147.0,37086.0,7149.0,32590.0,0.04566197097301483,0.15387572348117828,0.021064788103103638,0.12933343648910522,0.0,0.0,0.0,0.0,13731.0,35101.0,7546.0,34464.0,0.34830737113952637,-0.02592367517990465,0.0372627865997415,0.02285549183199182,0.0030251017305999994,-0.015174414031207561,-0.0404023677110672
272,5,-0.00030877438257448375,-0.00018806142907124013,-7.726209878455848e-05,-0.0016993797617033124,-0.012797826901078224,-0.0018918479327112436,0.011926514096558094,-0.013760523870587349,-0.03809170424938202,-0.0278251264244318,-0.008123017847537994,0.012037153355777264,0.0,0.0,0.0,0.01774667762219906,-0.002107348758727312,-0.0,0.0,0.0,0.0,-0.001975943334400654,-8.737849384488072e-06,-0.0014425985282287002,14147.0,37086.0,7149.0,32590.0,0.04566197097301483,0.15387572348117828,0.021064788103103638,0.12933343648910522,0.0,0.0,0.0,0.0,13731.0,35101.0,7546.0,34464.0,0.34835734963417053,-0.027714648513974205,0.03578671289651165,0.021687945093192676,0.008495921269059181,0.04769638553261757,-0.007979780435562134
277,5,-1.8413415091345087e-05,-0.0006866671610623598,-0.0001466942485421896,0.04014072194695473,0.0659654513001442,0.009152946062386036,0.01180518139153719,-0.01356137078255415,-0.03788026422262192,0.02292105369269848,-0.00956029538065195,0.010535109788179398,0.0,0.0,0.0,-0.09041386842727661,0.03583667427301407,-0.0,0.0,0.0,0.0,-9.337823939858936e-06,3.608218321460299e-05,-0.001462420099414885,10565.0,34841.0,10355.0,35094.0,0.032580673694610596,0.1414206475019455,0.03184518218040466,0.1428021937608719,0.0,0.0,0.0,0.0,14072.0,37275.0,6982.0,32543.0,0.38870444893836975,-0.04450437441400475,0.018595524480285112,0.011027756329527275,-0.16053250432014465,-0.27039486169815063,-0.0423910990357399
283,5,-0.0004452862194739282,-0.0006885097827762365,0.0014392946613952518,-0.04771997779607773,0.020047608762979507,-0.219292551279068,0.01180518139153719,-0.01356137078255415,-0.03788026422262192,0.02292105369269848,-0.00956029538065195,0.010535109788179398,0.0,0.0,0.0,-0.030901864171028137,-0.0458872951567173,-0.0,0.0,0.0,0.0,-9.337823939858936e-06,3.608218321460299e-05,-0.001462420099414885,10565.0,34841.0,10355.0,35094.0,0.032580673694610596,0.1414206475019455,0.03184518218040466,0.1428021937608719,0.0,0.0,0.0,0.0,14072.0,37275.0,6982.0,32543.0,0.3645946681499481,-0.030163466754329182,0.01908106570657994,0.008089768114908802,0.1934778392314911,-0.08690622448921204,0.666356086730957
288,5,7.472813194908667e-06,-0.0006812884239479899,0.00043006124906241894,0.04907027259469032,0.005003288388252258,0.07550490647554398,0.011638800613582134,-0.012794234789907932,-0.03775489330291748,-0.0006674638134427369,-0.028311200439929962,-0.01861022599041462,0.0,0.0,0.0,-0.009632413275539875,0.04695536196231842,-0.0,0.0,0.0,0.0,7.666079181944951e-05,0.0005395292537286878,-0.0014891624450683594,10987.0,34398.0,9151.0,35960.0,0.03406911715865135,0.13901019096374512,0.02770065888762474,0.14757731556892395,0.0,0.0,0.0,0.0,10542.0,34918.0,10085.0,35204.0,0.36133402585983276,-0.03537701492445637,0.0194751871194631,0.008944133831920676,-0.19629110395908356,-0.02685634046792984,-0.2287634164094925
293,5,3.571921479306184e-05,-0.0005938449176028371,0.0006879544234834611,0.018675576895475388,-0.010741103440523148,-0.013453571125864983,0.011638800613582134,-0.012794234789907932,-0.03775489330291748,-0.0006674638134427369,-0.028311200439929962,-0.01861022599041462,0.0,0.0,0.0,0.013584124855697155,0.018594173714518547,-0.0,0.0,0.0,0.0,7.666079181944951e-05,0.0005395292537286878,-0.0014891624450683594,10987.0,34398.0,9151.0,35960.0,0.03406911715865135,0.13901019096374512,0.02770065888762474,0.14757731556892395,0.0,0.0,0.0,0.0,10542.0,34918.0,10085.0,35204.0,0.3480081856250763,-0.0346575948713135,0.018548555256615668,0.004198505792424695,-0.07488380372524261,0.036473192274570465,0.043358754366636276
298,5,7.492857548641041e-05,-0.0007234055665321648,0.00043047184590250254,0.011091983877122402,0.014916162937879562,0.0320114865899086,0.011228340677917004,-0.012269383296370506,-0.037958502769470215,-0.05342811346054077,-0.02928953245282173,-0.03323287516832352,0.0,0.0,0.0,-0.02496548555791378,0.011115883477032185,-0.0,0.0,0.0,0.0,-0.0013400705065578222,-0.001087018521502614,-0.0015630190027877688,11071.0,38923.0,9827.0,33817.0,0.034367870539426804,0.1643698811531067,0.030013229697942734,0.13587366044521332,0.0,0.0,0.0,0.0,10394.0,34719.0,9097.0,36055.0,0.3482791781425476,-0.031817409269421525,0.018778560157236116,0.009610613101745755,-0.04479349032044411,-0.06707746535539627,-0.0948304682970047
303,5,-6.697817298118025e-05,-0.0006392285577021539,0.0008600639994256198,-0.016539350152015686,-0.007309936918318272,-0.05053945630788803,0.011228340677917004,-0.012269383296370506,-0.037958502769470215,-0.05342811346054077,-0.02928953245282173,-0.03323287516832352,0.0,0.0,0.0,0.008247405290603638,-0.01651804707944393,-0.0,0.0,0.0,0.0,-0.0013400705065578222,-0.001087018521502614,-0.0015630190027877688,11071.0,38923.0,9827.0,33817.0,0.034367870539426804,0.1643698811531067,0.030013229697942734,0.13587366044521332,0.0,0.0,0.0,0.0,10394.0,34719.0,9097.0,36055.0,0.348208487033844,-0.02145594117675152,0.020515837445251497,0.011496620228228567,0.06656572222709656,0.02215726673603058,0.16058990359306335
308,5,-1.4003175238030963e-05,-0.0006341322441585362,0.0007362107862718403,0.0024546950589865446,-0.002906461013481021,0.002177612856030464,0.011228340677917004,-0.012269383296370506,-0.037958502769470215,-0.05342811346054077,-0.02928953245282173,-0.03323287516832352,0.0,0.0,0.0,0.008189352229237556,-0.016522100195288658,-0.0,0.0,0.0,0.0,-0.0013400705065578222,-0.001087018521502614,-0.0015630190027877688,11071.0,38923.0,9827.0,33817.0,0.034367870539426804,0.1643698811531067,0.030013229697942734,0.13587366044521332,0.0,0.0,0.0,0.0,10394.0,34719.0,9097.0,36055.0,0.3481506109237671,-0.030367761226686076,0.019752398205988297,0.007651152091645238,-0.00971207208931446,0.004417979624122381,0.003200991079211235
313,5,1.9946095562772825e-05,-0.0006185745587572455,0.0005168348434381187,0.005489306524395943,-0.0030500188004225492,0.03136591985821724,0.010859314352273941,-0.011653630994260311,-0.03816324472427368,-0.008131895214319229,-0.02083721198141575,-0.017376741394400597,0.0,0.0,0.0,0.0018342697294428945,0.005468613933771849,-0.0,0.0,0.0,0.0,-0.0014615588588640094,-0.0010876505402848125,-0.0015634972369298339,11329.0,34389.0,7288.0,36797.0,0.035285428166389465,0.13896021246910095,0.021515443921089172,0.15224689245224,0.0,0.0,0.0,0.0,11103.0,38982.0,9848.0,33720.0,0.3483894467353821,-0.02892297754073036,0.021363129952026175,0.01013747526398014,-0.02205086499452591,0.0049308598972857,-0.08541461080312729
318,5,0.0002693622373044491,-0.0007008648826740682,-0.0002561653673183173,0.03656505048274994,0.010605640709400177,0.11762980371713638,0.010859314352273941,-0.011653630994260311,-0.03816324472427368,-0.008131895214319229,-0.02083721198141575,-0.017376741394400597,0.0,0.0,0.0,-0.018543146550655365,0.03632062301039696,-0.0,0.0,0.0,0.0,-0.0014615588588640094,-0.0010876505402848125,-0.0015634972369298339,11329.0,34389.0,7288.0,36797.0,0.035285428166389465,0.13896021246910095,0.021515443921089172,0.15224689245224,0.0,0.0,0.0,0.0,11103.0,38982.0,9848.0,33720.0,0.35185912251472473,-0.04943886457582591,0.01860738535246819,0.0062488400161634,-0.147855743765831,-0.05033785477280617,-0.3542313277721405
323,5,2.032368502113968e-05,-0.00048480633995495737,0.0005557232070714235,-0.023895882070064545,-0.02706650272011757,-0.07837545871734619,0.010698814876377583,-0.0113339489325881,-0.03830720856785774,0.002487032674252987,0.003715923987329006,-0.03418600931763649,0.0,0.0,0.0,0.037711188197135925,-0.02364751137793064,-0.0,0.0,0.0,0.0,1.6896825400181115e-05,0.001116432249546051,-0.0016008778475224972,11138.0,34466.0,6705.0,37177.0,0.034604262560606,0.13937537372112274,0.01963677629828453,0.1543915569782257,0.0,0.0,0.0,0.0,11209.0,34505.0,6978.0,36939.0,0.3488940894603729,-0.026824171196759533,0.025942818216802832,0.009861729946092553,0.09541479498147964,0.10146991908550262,0.2451900690793991
328,5,0.00010201704571954906,-0.0005050344625487924,0.00020298395247664303,0.004268305376172066,-0.0052880109287798405,0.025870857760310173,0.010698814876377583,-0.0113339489325881,-0.03830720856785774,0.002487032674252987,0.003715923987329006,-0.03418600931763649,0.0,0.0,0.0,0.005247657652944326,0.004396798554807901,-0.0,0.0,0.0,0.0,1.6896825400181115e-05,0.001116432249546051,-0.0016008778475224972,11138.0,34466.0,6705.0,37177.0,0.034604262560606,0.13937537372112274,0.01963677629828453,0.1543915569782257,0.0,0.0,0.0,0.0,11209.0,34505.0,6978.0,36939.0,0.3485566973686218,-0.024383578561100048,0.027242631158067368,0.014640954884094814,-0.017737561836838722,0.014112327247858047,-0.07110708206892014
333,5,9.257700730813667e-05,-0.00048507426981814206,0.0004921574727632105,-4.1113540646620095e-05,-0.004380833823233843,-0.032723039388656616,0.010931759141385555,-0.011506675742566586,-0.03851475194096565,0.013277322053909302,0.049142129719257355,-0.018827015534043312,0.0,0.0,0.0,0.003894536290317774,0.00011591006477829069,-0.0,0.0,0.0,0.0,-0.0004670919443015009,0.0008635078556835651,-0.0016022963682189584,14597.0,35011.0,2911.0,37117.0,0.04737798124551773,0.14234775304794312,0.00808446854352951,0.15405133366584778,0.0,0.0,0.0,0.0,15125.0,34677.0,2692.0,37192.0,0.34878891706466675,-0.007595292825249265,0.037169208398439374,0.017593274961296014,-0.00046791479690000415,0.01048120204359293,0.10963346809148788
339,5,4.2395127820782363e-05,-0.0005024633137509227,0.00014354742597788572,-0.007037797011435032,0.001120218774303794,0.038988497108221054,0.010931759141385555,-0.011506675742566586,-0.03851475194096565,0.013277322053909302,0.049142129719257355,-0.018827015534043312,0.0,0.0,0.0,-0.004363936837762594,-0.006885808426886797,-0.0,0.0,0.0,0.0,-0.0004670919443015009,0.0008635078556835651,-0.0016022963682189584,14597.0,35011.0,2911.0,37117.0,0.04737798124551773,0.14234775304794312,0.00808446854352951,0.15405133366584778,0.0,0.0,0.0,0.0,15125.0,34677.0,2692.0,37192.0,0.34879785776138306,-0.022205676455901418,0.03531764389288242,0.018686998404926984,0.027797522023320198,-0.011745770461857319,-0.1092466488480568
344,5,0.0003601199423428625,-0.00030848736059851944,-0.00026797770988196135,0.042370133101940155,-0.02682056836783886,0.06931006908416748,0.01092443522065878,-0.011966429650783539,-0.03845342621207237,0.014222950674593449,0.09261234104633331,0.01519907359033823,0.0,0.0,0.0,-0.004410379100590944,0.04106291010975838,-0.0,0.0,0.0,0.0,-0.0010856878943741322,0.0023133966606110334,-0.0015813414938747883,15302.0,34427.0,2566.0,37374.0,0.050100572407245636,0.13916796445846558,0.007090292870998383,0.15550270676612854,0.0,0.0,0.0,0.0,12168.0,34647.0,5953.0,36865.0,0.3617193102836609,-0.007960133884812832,0.033553754110635575,0.020973612174180468,-0.17175152897834778,0.10105901956558228,-0.20595671236515045
349,5,4.5454653445631266e-06,-0.0003678410721477121,0.00013360752200242132,-0.03706938400864601,0.0002633463591337204,-0.035428911447525024,0.01092443522065878,-0.011966429650783539,-0.03845342621207237,0.014222950674593449,0.09261234104633331,0.01519907359033823,0.0,0.0,0.0,-0.002854469697922468,-0.03655271232128143,-0.0,0.0,0.0,0.0,-0.0010856878943741322,0.0023133966606110334,-0.0015813414938747883,15302.0,34427.0,2566.0,37374.0,0.050100572407245636,0.13916796445846558,0.007090292870998383,0.15550270676612854,0.0,0.0,0.0,0.0,12168.0,34647.0,5953.0,36865.0,0.3500315248966217,-0.015578772618727166,0.04106642853738746,0.020569366695933785,0.14805209636688232,-0.007709502708166838,0.11347336322069168
354,5,-7.963834650581703e-05,-0.0004610710602719337,-8.945215085987002e-05,-0.022906549274921417,0.013131202198565006,0.02059968188405037,0.011014227755367756,-0.012826886959373951,-0.038257915526628494,0.023214247077703476,0.0732802152633667,0.02165885828435421,0.0,0.0,0.0,-0.022243289276957512,-0.022781608626246452,-0.0,0.0,0.0,0.0,-0.00032427607220597565,0.0013708379119634628,-0.0015927156200632453,12370.0,34499.0,5891.0,36911.0,0.039045821875333786,0.13955749571323395,0.017062928527593613,0.15289044380187988,0.0,0.0,0.0,0.0,12125.0,35460.0,6895.0,35601.0,0.34866878390312195,-0.015291544319301612,0.038337749142536307,0.024695004625045862,0.09190506488084793,-0.05983263999223709,-0.05755194276571274
359,5,-0.00019892252748832107,-0.0003484653134364635,0.0003265330451540649,-0.02357175014913082,-0.011825444176793098,-0.05205802246928215,0.011014227755367756,-0.012826886959373951,-0.038257915526628494,0.023214247077703476,0.0732802152633667,0.02165885828435421,0.0,0.0,0.0,-0.022285791113972664,-0.02278650365769863,-0.0,0.0,0.0,0.0,-0.00032427607220597565,0.0013708379119634628,-0.0015927156200632453,12370.0,34499.0,5891.0,36911.0,0.039045821875333786,0.13955749571323395,0.017062928527593613,0.15289044380187988,0.0,0.0,0.0,0.0,12125.0,35460.0,6895.0,35601.0,0.3486691415309906,-0.018024789683086174,0.0436932012629584,0.01921681923798062,0.0953015610575676,0.04055545851588249,0.16639403998851776
364,5,-6.525799835799262e-05,-0.0003175501187797636,0.0001775024429662153,0.011641507968306541,-0.007875757291913033,0.005246877204626799,0.010951550677418709,-0.01293801050633192,-0.03799911588430405,-0.002501498442143202,-0.0010580301750451326,0.018330413848161697,0.0,0.0,0.0,0.00917971134185791,-0.023655610159039497,-0.0,0.0,0.0,0.0,-0.0006407366017811,0.0007205706206150353,-0.0015706628328189254,11718.0,35607.0,6650.0,35863.0,0.036678675562143326,0.14562125504016876,0.019461501389741898,0.14703643321990967,0.0,0.0,0.0,0.0,9519.0,37035.0,9582.0,34270.0,0.3483077883720398,-0.013396826587938736,0.04265772533972055,0.020863757293480507,0.09535089880228043,0.024670293554663658,-0.004508400335907936
369,5,-3.8852362195029855e-05,-0.0002978288976009935,0.0001680348941590637,0.007189241703599691,-0.0051236990839242935,0.0028995198663324118,0.010951550677418709,-0.01293801050633192,-0.03799911588430405,-0.002501498442143202,-0.0010580301750451326,0.018330413848161697,0.0,0.0,0.0,0.005169645883142948,0.007105967029929161,-0.0,0.0,0.0,0.0,-0.0006407366017811,0.0007205706206150353,-0.0015706628328189254,11718.0,35607.0,6650.0,35863.0,0.036678675562143326,0.14562125504016876,0.019461501389741898,0.14703643321990967,0.0,0.0,0.0,0.0,9519.0,37035.0,9582.0,34270.0,0.34820911288261414,-0.012330178780360945,0.04316665291259547,0.021343874730425216,-0.028637830168008804,0.013889666646718979,0.000688706524670124
374,5,-1.859470785348094e-06,-0.00028614126495085657,0.00015832731151022017,0.007335777394473553,-0.0031733810901641846,0.002228917321190238,0.010887178592383862,-0.012266324833035469,-0.037633199244737625,0.020991677418351173,-0.0643688291311264,0.028770674020051956,0.0,0.0,0.0,0.005149239674210548,0.007112213876098394,-0.0,0.0,0.0,0.0,-0.000594668963458389,-0.0006153344875201583,-0.0015927861677482724,9238.0,37175.0,9155.0,34570.0,0.027996312826871872,0.1543775349855423,0.027713429182767868,0.13994459807872772,0.0,0.0,0.0,0.0,8317.0,37731.0,9841.0,34127.0,0.3477899432182312,-0.009784679106371635,0.04437498691198806,0.021150686026124528,-0.02943660318851471,0.006086469627916813,0.00306296325288713
379,5,4.2679992475314066e-05,-0.0003213987220078707,7.513406308135018e-05,0.00843625795096159,0.003984029870480299,0.012315729632973671,0.010887178592383862,-0.012266324833035469,-0.037633199244737625,0.020991677418351173,-0.0643688291311264,0.028770674020051956,0.0,0.0,0.0,0.0022424885537475348,0.007312852423638105,-0.0,0.0,0.0,0.0,-0.000594668963458389,-0.0006153344875201583,-0.0015927861677482724,9238.0,37175.0,9155.0,34570.0,0.027996312826871872,0.1543775349855423,0.027713429182767868,0.13994459807872772,0.0,0.0,0.0,0.0,8317.0,37731.0,9841.0,34127.0,0.34778672456741333,-0.012779634071732979,0.051437923342429664,0.016879141317365832,-0.03410540148615837,-0.022824035957455635,-0.0279685128480196
384,5,-0.0005612064269371331,-2.5040506443474442e-05,0.000274429825367406,-0.08201321959495544,-0.040294937789440155,-0.02420668676495552,0.01068904809653759,-0.011364203877747059,-0.037657082080841064,-0.007768574636429548,-0.11797866970300674,-0.015679432079195976,0.0,0.0,0.0,-0.008533840999007225,0.008474727161228657,-0.0,0.0,0.0,0.0,5.085852535557933e-05,-0.000485380704049021,-0.0016653422499075532,7433.0,36773.0,9378.0,35685.0,0.02198629081249237,0.15211616456508636,0.028473272919654846,0.14605320990085602,0.0,0.0,0.0,0.0,9194.0,36372.0,7785.0,35920.0,0.34782904386520386,-0.004555548787662587,0.06370257409078833,0.014059738223020007,0.33130645751953125,0.155990868806839,0.08482607454061508
389,5,-0.00022515960154123604,0.00017909714370034635,0.0001791511895135045,0.022442588582634926,-0.04066775366663933,0.006077002268284559,0.01068904809653759,-0.011364203877747059,-0.037657082080841064,-0.007768574636429548,-0.11797866970300674,-0.015679432079195976,0.0,0.0,0.0,0.05058790370821953,-0.07174968719482422,-0.0,0.0,0.0,0.0,5.085852535557933e-05,-0.000485380704049021,-0.0016653422499075532,7433.0,36773.0,9378.0,35685.0,0.02198629081249237,0.15211616456508636,0.028473272919654846,0.14605320990085602,0.0,0.0,0.0,0.0,9194.0,36372.0,7785.0,35920.0,0.39997398853302,-0.0018959112554335971,0.057075030219676144,0.016728332660272086,-0.08839567750692368,0.15870121121406555,-0.006612685509026051
394,5,-7.894418376963586e-05,0.00016519166820216924,-4.867899770033546e-05,0.02720293402671814,-0.010253557935357094,0.03371932730078697,0.010216235183179379,-0.009868243709206581,-0.03787580132484436,-0.045663975179195404,-0.10655702650547028,-0.0259933490306139,0.0,0.0,0.0,0.05754707008600235,0.021361403167247772,-0.0,0.0,0.0,0.0,-0.0005525945452973247,0.0009316804935224354,-0.001702504581771791,9315.0,36242.0,6264.0,36854.0,0.028258226811885834,0.1491471529006958,0.018235541880130768,0.15256816148757935,0.0,0.0,0.0,0.0,9662.0,36852.0,5850.0,36191.0,0.35792407393455505,-0.0005551192981156813,0.05805696917402949,0.016332336365163756,-0.08833938837051392,0.15874598920345306,-0.006052837707102299
399,5,-0.00030876704840920866,0.00036230304976925254,0.00035699535510502756,-0.024014322087168694,-0.030671661719679832,-0.046678610146045685,0.010216235183179379,-0.009868243709206581,-0.03787580132484436,-0.045663975179195404,-0.10655702650547028,-0.0259933490306139,0.0,0.0,0.0,0.04382602125406265,-0.02379022166132927,-0.0,0.0,0.0,0.0,-0.0005525945452973247,0.0009316804935224354,-0.001702504581771791,9315.0,36242.0,6264.0,36854.0,0.028258226811885834,0.1491471529006958,0.018235541880130768,0.15256816148757935,0.0,0.0,0.0,0.0,9662.0,36852.0,5850.0,36191.0,0.3513084352016449,-0.004141431495145293,0.058839944709036994,0.01584662017222872,0.09663069993257523,0.11871948093175888,0.14864441752433777
404,5,-0.00014661754539702088,0.00023717526346445084,0.00028332482906989753,0.015496634878218174,0.00831639114767313,-0.0036897105164825916,0.009478568099439144,-0.009413054212927818,-0.03799952566623688,-0.08709444850683212,-0.05693309009075165,0.0059966882690787315,0.0,0.0,0.0,-0.013382431119680405,0.014876393601298332,-0.0,0.0,0.0,0.0,0.0018458139384165406,0.0015331843169406056,-0.0017392963636666536,10536.0,36020.0,5338.0,36766.0,0.0324791818857193,0.14790770411491394,0.015340462327003479,0.15207433700561523,0.0,0.0,0.0,0.0,10082.0,36020.0,5868.0,36754.0,0.3482658565044403,-0.003781253231078189,0.05853434863528035,0.017102254564429202,-0.059957001358270645,-0.03595948964357376,0.02687845192849636
409,5,-7.827219815226272e-05,0.00020139256957918406,0.00027944883913733065,0.01421733945608139,0.0075044953264296055,-0.0005642767646349967,0.009478568099439144,-0.009413054212927818,-0.03799952566623688,-0.08709444850683212,-0.05693309009075165,0.0059966882690787315,0.0,0.0,0.0,-0.012432279996573925,0.01383952982723713,-0.0,0.0,0.0,0.0,0.0018458139384165406,0.0015331843169406056,-0.0017392963636666536,10536.0,36020.0,5338.0,36766.0,0.0324791818857193,0.14790770411491394,0.015340462327003479,0.15207433700561523,0.0,0.0,0.0,0.0,10082.0,36020.0,5868.0,36754.0,0.348256379365921,-0.003481862959803391,0.05910256963496475,0.01701472423150307,-0.05577752739191055,-0.03340575098991394,0.017247067764401436
415,5,-7.88497127359733e-05,0.00023573283397126943,0.00034032759140245616,0.0041843499056994915,-0.0025562888476997614,-0.008692305535078049,0.009478568099439144,-0.009413054212927818,-0.03799952566623688,-0.08709444850683212,-0.05693309009075165,0.0059966882690787315,0.0,0.0,0.0,-0.012493723072111607,0.013936487026512623,-0.0,0.0,0.0,0.0,0.0018458139384165406,0.0015331843169406056,-0.0017392963636666536,10536.0,36020.0,5338.0,36766.0,0.0324791818857193,0.14790770411491394,0.015340462327003479,0.15207433700561523,0.0,0.0,0.0,0.0,10082.0,36020.0,5868.0,36754.0,0.3482571244239807,-0.0064839733312567075,0.057833926275898236,0.015502746833884142,-0.016032764688134193,0.006878746673464775,0.043354008346796036
420,5,8.829867874737829e-05,0.0001609628088772297,1.8784850908559747e-05,0.024656079709529877,0.009700918570160866,0.0424082912504673,0.007510045077651739,-0.00913447979837656,-0.038191135972738266,-0.17938323318958282,0.005092741921544075,-0.015478248707950115,0.0,0.0,0.0,0.0025800568982958794,0.003971008583903313,-0.0,0.0,0.0,0.0,0.0014981931308284402,0.0005892192129977047,-0.001714987331070006,6227.0,34391.0,9772.0,39002.0,0.018119096755981445,0.13897284865379333,0.029823049902915955,0.16482724249362946,0.0,0.0,0.0,0.0,7824.0,33035.0,9262.0,40718.0,0.3484194874763489,-0.00287905998486953,0.05864150557966179,0.01544865636819492,-0.016013525426387787,0.006936265621334314,0.04439200833439827
425,5,9.194327867589891e-05,0.00013731651415582746,0.0002637599245645106,0.007907068356871605,0.006220755632966757,-0.021574024111032486,0.007510045077651739,-0.00913447979837656,-0.038191135972738266,-0.17938323318958282,0.005092741921544075,-0.015478248707950115,0.0,0.0,0.0,-0.01580371893942356,0.024526575580239296,-0.0,0.0,0.0,0.0,0.0014981931308284402,0.0005892192129977047,-0.001714987331070006,6227.0,34391.0,9772.0,39002.0,0.018119096755981445,0.13897284865379333,0.029823049902915955,0.16482724249362946,0.0,0.0,0.0,0.0,7824.0,33035.0,9262.0,40718.0,0.34856393933296204,-0.006696538267484563,0.059188777759421995,0.017321694674994052,-0.0319514162838459,-0.028721895068883896,0.08195394277572632
430,5,0.0003000532742589712,-0.00010109035792993382,-6.994701107032597e-05,0.03150751814246178,0.035243187099695206,0.040246766060590744,0.0059269508346915245,-0.009776223450899124,-0.03820403665304184,-0.18442930281162262,0.07942557334899902,0.013257989659905434,0.0,0.0,0.0,-0.052586402744054794,0.030618835240602493,-0.0,0.0,0.0,0.0,8.154764509527013e-05,0.0019744986202567816,-0.0017167353071272373,11154.0,34366.0,4314.0,38597.0,0.03466024249792099,0.13883373141288757,0.012220300734043121,0.1624857485294342,0.0,0.0,0.0,0.0,6351.0,34248.0,9613.0,39162.0,0.36068418622016907,-0.015359450135232622,0.060312641081821,0.012308066490638083,-0.1276243031024933,-0.14620855450630188,-0.10770956426858902
435,5,0.00020911105093546212,1.7611944713280536e-05,0.00015364507271442562,-0.0032796545419842005,-0.006045365706086159,-0.0192288625985384,0.0059269508346915245,-0.009776223450899124,-0.03820403665304184,-0.18442930281162262,0.07942557334899902,0.013257989659905434,0.0,0.0,0.0,-0.05259334295988083,0.030635790899395943,-0.0,0.0,0.0,0.0,8.154764509527013e-05,0.0019744986202567816,-0.0017167353071272373,11154.0,34366.0,4314.0,38597.0,0.03466024249792099,0.13883373141288757,0.012220300734043121,0.1624857485294342,0.0,0.0,0.0,0.0,6351.0,34248.0,9613.0,39162.0,0.3484412133693695,-0.010752192657892328,0.056535459004281814,0.018852077118304486,0.011993403546512127,0.01963222585618496,0.07385296374559402
440,5,9.732631588121876e-05,-5.7743105571717024e-05,0.0002923783613368869,-0.016633760184049606,0.008736097253859043,-0.02519132010638714,0.0037360694259405136,-0.013274858705699444,-0.037901513278484344,-0.03121834248304367,0.19732259213924408,0.05355915054678917,0.0,0.0,0.0,0.0073110731318593025,-0.0029641781002283096,-0.0,0.0,0.0,0.0,-0.0005278554745018482,0.0023828826379030943,-0.0016860876930877566,13232.0,34328.0,2447.0,38311.0,0.04222241789102554,0.13862928748130798,0.006749309599399567,0.16084539890289307,0.0,0.0,0.0,0.0,11473.0,34151.0,3976.0,38776.0,0.3480947017669678,-0.0027670962575375136,0.06467320177888547,0.02018279782039957,0.011941962875425816,0.01963655836880207,0.07432541996240616
445,5,0.0002572152588982135,-1.0981562809320167e-05,0.0003360857372172177,0.017394322901964188,-0.003925786819308996,-0.013676426373422146,0.0037360694259405136,-0.013274858705699444,-0.037901513278484344,-0.03121834248304367,0.19732259213924408,0.05355915054678917,0.0,0.0,0.0,-0.014873958192765713,-0.016382070258259773,-0.0,0.0,0.0,0.0,-0.0005278554745018482,0.0023828826379030943,-0.0016860876930877566,13232.0,34328.0,2447.0,38311.0,0.04222241789102554,0.13862928748130798,0.006749309599399567,0.16084539890289307,0.0,0.0,0.0,0.0,11473.0,34151.0,3976.0,38776.0,0.34816908836364746,-0.011729020756987297,0.05970849054296049,0.017728745302479018,0.0660051479935646,-0.03995562717318535,0.09519285708665848
450,5,0.00021085432672407478,-0.00015648196858819574,2.644543747010175e-05,-0.0012722319224849343,0.019192319363355637,0.03924671187996864,0.004102413076907396,-0.015936652198433876,-0.03722560405731201,0.04176315292716026,0.16376817226409912,0.06596030294895172,0.0,0.0,0.0,-0.030408861115574837,-0.0008797550108283758,-0.0,0.0,0.0,0.0,-0.0001433460711268708,0.0022643636912107468,-0.0016463898355141282,12567.0,33838.0,4494.0,38151.0,0.03976716846227646,0.13598284125328064,0.012763015925884247,0.15992817282676697,0.0,0.0,0.0,0.0,13839.0,34031.0,2031.0,38401.0,0.3474704623222351,-0.021426327476121033,0.04817720215397297,0.02300512944448536,0.0035364297218620777,-0.08150264620780945,-0.096432164311409
455,5,0.00024834126816131175,-9.77001545834355e-05,0.0005789963761344552,-0.009172697551548481,0.01019694097340107,-0.036609452217817307,0.004102413076907396,-0.015936652198433876,-0.03722560405731201,0.04176315292716026,0.16376817226409912,0.06596030294895172,0.0,0.0,0.0,-0.030748728662729263,-0.0009361552656628191,-0.0,0.0,0.0,0.0,-0.0001433460711268708,0.0022643636912107468,-0.0016463898355141282,12567.0,33838.0,4494.0,38151.0,0.03976716846227646,0.13598284125328064,0.012763015925884247,0.15992817282676697,0.0,0.0,0.0,0.0,13839.0,34031.0,2031.0,38401.0,0.3474740982055664,-8.15204191284347e-05,0.0655617950610976,0.021554068157733905,0.0037631469313055277,-0.08241382986307144,-0.10099610686302185
