timestamp,dt,pos_x,pos_y,pos_z,vel_x,vel_y,vel_z,roll,pitch,yaw,agv_x,agv_y,agv_z,x_ref,y_ref,z_ref,roll_ref,pitch_ref,yaw_ref,x_vel_ref,y_vel_ref,z_vel_ref,x_torque,y_torque,z_torque,w0,w1,w2,w3,u0,u1,u2,u3,m0req,m1req,m2req,m3req,thrust0,thrust1,thrust2,thrust3,thrust_ref,roll_vicon,pitch_vicon,yaw_vicon,acc_x,acc_y,acc_z
5,5,0.0,0.0,0.0,0.0009391824714839458,0.007629839237779379,0.005759350955486298,0.0,0.0,0.0,0.0,0.0,0.0,0.0,0.0,0.0,-0.007777453400194645,0.0009573722491040826,-0.0,0.0,0.0,0.0,0.0,0.0,0.0,0.0,0.0,0.0,0.0,0.0,0.0,0.0,0.0,0.0,0.0,0.0,0.0,0.0,0.0,0.0,0.0,0.3390440046787262,-0.10105123167904966,0.09276501190820276,0.14223907169384176,-0.0037567298859357834,-0.030519356951117516,-0.017278052866458893
21,16,0.0,0.0,0.0,0.0036665548104792833,0.015128608793020248,0.0043761590495705605,0.0,0.0,0.0,0.0,0.0,0.0,0.0,0.0,0.0,-0.01542028971016407,0.003737551160156727,-0.0,0.0,0.0,0.0,0.0,0.0,0.0,0.0,0.0,0.0,0.0,0.0,0.0,0.0,0.0,0.0,0.0,0.0,0.0,0.0,0.0,0.0,0.0,0.33907628059387207,-0.10144855128479068,0.09388611768374945,0.14276214936546847,-0.014666219241917133,-0.060514435172080994,-0.013128477148711681
31,10,0.0,0.0,0.0,0.003356541972607374,0.013567553833127022,0.0007820840110071003,0.0,0.0,0.0,0.0,0.0,0.0,0.0,0.0,0.0,-0.013829367235302925,0.003421538043767214,-0.0,0.0,0.0,0.0,0.0,0.0,0.0,0.0,0.0,0.0,0.0,0.0,0.0,0.0,0.0,0.0,0.0,0.0,0.0,0.0,0.0,0.0,0.0,0.3390679955482483,-0.10223599431297858,0.09330414627130351,0.14338478046722752,-0.013426167890429497,-0.05427021533250809,-0.002346252091228962
40,8,0.0,0.0,0.0,0.0037807547487318516,0.0028176659252494574,-0.006092055235058069,0.0,0.0,0.0,0.0,0.0,0.0,0.0,0.0,0.0,-0.0028722092974931,0.0038539613597095013,-0.0,0.0,0.0,0.0,0.0,0.0,0.0,0.0,0.0,0.0,0.0,0.0,0.0,0.0,0.0,0.0,0.0,0.0,0.0,0.0,0.0,0.0,0.0,0.3390375077724457,-0.10307988437977025,0.09173364762006336,0.14459431481437873,-0.015123018994927406,-0.01127066370099783,0.018276166170835495
45,5,0.0,0.0,0.0,0.004869404714554548,0.009649621322751045,0.0056418152526021,0.0,0.0,0.0,0.0,0.0,0.0,0.0,0.0,0.0,-0.009836076758801937,0.004963674582540989,-0.0,0.0,0.0,0.0,0.0,0.0,0.0,0.0,0.0,0.0,0.0,0.0,0.0,0.0,0.0,0.0,0.0,0.0,0.0,0.0,0.0,0.0,0.0,0.3390541672706604,-0.10324851243657857,0.09072971965896104,0.14522470821228758,-0.019477618858218193,-0.03859848529100418,-0.016925446689128876
50,5,4.2611143726389855e-05,-3.110952820861712e-05,-2.226073593192268e-05,0.007426381576806307,0.007250220514833927,0.004809047561138868,0.0,0.0,0.0,0.0,0.0,0.0,0.0,0.0,0.0,-0.007439140696078539,0.007636981084942818,-0.0,0.0,0.0,0.0,0.0,0.0,0.0,0.0,0.0,0.0,0.0,0.0,0.0,0.0,0.0,0.0,0.0,0.0,0.0,0.0,0.0,0.0,0.0,0.33905285596847534,-0.10382471662916086,0.0891749834079144,0.14645440574044077,-0.02996809594333172,-0.029192578047513962,-0.014806131832301617
55,5,6.990483961999416e-05,-7.322233432205394e-05,-4.896302561974153e-05,0.00604903232306242,0.008070859126746655,0.005181035026907921,0.0,0.0,0.0,0.0,0.0,0.0,0.0,0.0,0.0,-0.00834264513105154,0.006277676671743393,-0.0,0.0,0.0,0.0,0.0,0.0,0.0,0.0,0.0,0.0,0.0,0.0,0.0,0.0,0.0,0.0,0.0,0.0,0.0,0.0,0.0,0.0,0.0,0.33905208110809326,-0.10416701120940627,0.0894103286358536,0.14677095059475062,-0.024633927270770073,-0.0327380895614624,-0.016410881653428078
65,10,0.00015216361498460174,-0.00016845799109432846,-7.95250671217218e-05,0.0067735170014202595,0.010423388332128525,0.00461866008117795,0.0,0.0,0.0,0.0,0.0,0.0,0.0,0.0,0.0,-0.010893589816987514,0.007149118464440107,-0.0,0.0,0.0,0.0,0.0,0.0,0.0,0.0,0.0,0.0,0.0,0.0,0.0,0.0,0.0,0.0,0.0,0.0,0.0,0.0,0.0,0.0,0.0,0.3390623927116394,-0.10387095583442366,0.08896507810085247,0.1474405000680855,-0.02805361896753311,-0.042749229818582535,-0.015426386147737503
70,5,0.00015668665582779795,-0.0001804073399398476,-4.706944673671387e-05,0.002665281994268298,0.00479992525652051,-0.0031581888906657696,0.0,0.0,0.0,0.0,0.0,0.0,0.0,0.0,0.0,-0.0051946197636425495,0.002981355879455805,-0.0,0.0,0.0,0.0,0.0,0.0,0.0,0.0,0.0,0.0,0.0,0.0,0.0,0.0,0.0,0.0,0.0,0.0,0.0,0.0,0.0,0.0,0.0,0.33903968334198,-0.10472629535733259,0.08912164302822986,0.147885033680994,-0.011699188500642776,-0.020384322851896286,0.00807889737188816
76,5,0.00018924059986602515,-0.00024403563293162733,-0.00010595624189591035,0.0053571369498968124,0.010347939096391201,0.007296694442629814,0.0,0.0,0.0,0.0,0.0,0.0,0.0,0.0,0.0,-0.010958882048726082,0.005785469431430101,-0.0,0.0,0.0,0.0,0.0,0.0,0.0,0.0,0.0,0.0,0.0,0.0,0.0,0.0,0.0,0.0,0.0,0.0,0.0,0.0,0.0,0.0,0.0,0.33905962109565735,-0.10403543539211726,0.09041441152364416,0.14770924873591715,-0.02270243503153324,-0.043005093932151794,-0.024328509345650673
81,5,0.00018924059986602515,-0.00024403563293162733,-0.00010595624189591035,0.0053571369498968124,0.010347939096391201,0.007296694442629814,0.0,0.0,0.0,0.0,0.0,0.0,0.0,0.0,0.0,-0.010980023071169853,0.005801865831017494,-0.0,0.0,0.0,0.0,0.0,0.0,0.0,0.0,0.0,0.0,0.0,0.0,0.0,0.0,0.0,0.0,0.0,0.0,0.0,0.0,0.0,0.0,0.0,0.3390597403049469,-0.10403543539211726,0.09041441152364416,0.14770924873591715,-0.02276715449988842,-0.043088555335998535,-0.024781472980976105
86,5,0.00017550132179167122,-0.00025374951655976474,-5.9539146604947746e-05,-6.784680590499192e-05,0.004384905565530062,-0.00048045022413134575,0.0,0.0,0.0,0.0,0.0,0.0,0.0,0.0,0.0,-0.004943555220961571,0.0002698727184906602,-0.0,0.0,0.0,0.0,0.0,0.0,0.0,0.0,0.0,0.0,0.0,0.0,0.0,0.0,0.0,0.0,0.0,0.0,0.0,0.0,0.0,0.0,0.0,0.3390377461910248,-0.10339247055020699,0.09191765120424948,0.14729327242970786,-0.0010589805897325277,-0.01939866878092289,-0.0011268809903413057
91,5,0.00017221819143742323,-0.00034338803379796445,-0.00014328565157484263,-0.00047999180969782174,0.013864867389202118,0.011580375023186207,0.0,0.0,0.0,0.0,0.0,0.0,0.0,0.0,0.0,-0.014743463136255741,-0.0001550975430291146,-0.0,0.0,0.0,0.0,0.0,0.0,0.0,0.0,0.0,0.0,0.0,0.0,0.0,0.0,0.0,0.0,0.0,0.0,0.0,0.0,0.0,0.0,0.0,0.33907046914100647,-0.10394430523382477,0.09236844040011186,0.14708914424675437,0.0006086027715355158,-0.05785754323005676,-0.038570623844861984
96,5,0.00014768310938961804,-0.00032067688880488276,-4.538229404715821e-05,-0.0035789101384580135,0.000979896867647767,-0.010232357308268547,0.0,0.0,0.0,0.0,0.0,0.0,0.0,0.0,0.0,-0.0016007863450795412,-0.003338760696351528,-0.0,0.0,0.0,0.0,0.0,0.0,0.0,0.0,0.0,0.0,0.0,0.0,0.0,0.0,0.0,0.0,0.0,0.0,0.0,0.0,0.0,0.0,0.0,0.33903592824935913,-0.10342546147070657,0.09321560371251103,0.14661924678323324,0.01310105063021183,-0.006282167509198189,0.02781933732330799
101,5,0.00015364770661108196,-0.00034577539190649986,-1.3965702237328514e-05,-0.000238627617363818,0.003807760076597333,-0.007468029856681824,0.0,0.0,0.0,0.0,0.0,0.0,0.0,0.0,0.0,-0.004546330310404301,8.662394247949123e-05,-0.0,0.0,0.0,0.0,0.0,0.0,0.0,0.0,0.0,0.0,0.0,0.0,0.0,0.0,0.0,0.0,0.0,0.0,0.0,0.0,0.0,0.0,0.0,0.33903709053993225,-0.10307585825163651,0.09326339054733114,0.14636910699332564,-0.0003399123379494995,-0.01783992350101471,0.019830912351608276
106,5,0.00014487050066236407,-0.0003674275067169219,-1.9926990717067383e-05,-0.0013003983767703176,0.004173623863607645,-0.001405828632414341,0.0,0.0,0.0,0.0,0.0,0.0,0.0,0.0,0.0,-0.004977422766387463,-0.0009979464812204242,-0.0,0.0,0.0,0.0,0.0,0.0,0.0,0.0,0.0,0.0,0.0,0.0,0.0,0.0,0.0,0.0,0.0,0.0,0.0,0.0,0.0,0.0,0.0,0.3390379548072815,-0.10297215524206847,0.09232436128812702,0.1463202835149545,0.003915943205356598,-0.01953231357038021,0.001504514249972999
111,5,0.00013343719183467329,-0.0003877991111949086,-3.812757495325059e-05,-0.001990781631320715,0.004104112274944782,0.0021263330709189177,0.0,0.0,0.0,0.0,0.0,0.0,0.0,0.0,0.0,-0.004966029431670904,-0.0017081295372918248,-0.0,0.0,0.0,0.0,0.0,0.0,0.0,0.0,0.0,0.0,0.0,0.0,0.0,0.0,0.0,0.0,0.0,0.0,0.0,0.0,0.0,0.0,0.0,0.33903828263282776,-0.10356172458548352,0.0915136904073669,0.1462992722785015,0.006702706683427095,-0.019486887380480766,-0.009441525675356388
116,5,0.0001336994901066646,-0.0003570746921468526,-2.330771712877322e-05,-0.000560514279641211,-0.003070184728130698,-0.0014368802076205611,0.0,0.0,0.0,0.0,0.0,0.0,0.0,0.0,0.0,0.002366126049309969,-0.00024010335619095713,-0.0,0.0,0.0,0.0,0.0,0.0,0.0,0.0,0.0,0.0,0.0,0.0,0.0,0.0,0.0,0.0,0.0,0.0,0.0,0.0,0.0,0.0,0.0,0.3390345573425293,-0.10321008542289549,0.09081117119923418,0.14639837831282612,0.000942165614105761,0.00928469654172659,0.0013361703604459763
121,5,0.00012691612937487662,-0.0003707369032781571,-2.7727966880775057e-05,-0.0011178231798112392,0.0009916553972288966,0.00018777114746626467,0.0,0.0,0.0,0.0,0.0,0.0,0.0,0.0,0.0,-0.0018222160870209336,-0.0008084996370598674,-0.0,0.0,0.0,0.0,0.0,0.0,0.0,0.0,0.0,0.0,0.0,0.0,0.0,0.0,0.0,0.0,0.0,0.0,0.0,0.0,0.0,0.0,0.0,0.3390342593193054,-0.10359435742500346,0.0903520065508712,0.14651721360526107,0.0031722995918244123,-0.00715112779289484,-0.0036912402138113976
127,5,0.0001267888437723741,-0.0004138523945584893,-9.245028195437044e-05,-0.000353167240973562,0.00633366359397769,0.00911745522171259,0.0,0.0,0.0,0.0,0.0,0.0,0.0,0.0,0.0,-0.007360715419054031,-1.9913819414796308e-05,-0.0,0.0,0.0,0.0,0.0,0.0,0.0,0.0,0.0,0.0,0.0,0.0,0.0,0.0,0.0,0.0,0.0,0.0,0.0,0.0,0.0,0.0,0.0,0.3390427827835083,-0.10344674953460381,0.08978362103152429,0.14658592476543553,7.814182754373178e-05,-0.02888396941125393,-0.031551871448755264
132,5,0.00013178837252780795,-0.0004110083100385964,-0.00010053193545900285,0.0005939832190051675,0.001501925871707499,0.003866668092086911,0.0,0.0,0.0,0.0,0.0,0.0,0.0,0.0,0.0,-0.007391721475869417,-1.0414349162601866e-05,-0.0,0.0,0.0,0.0,0.0,0.0,0.0,0.0,0.0,0.0,0.0,0.0,0.0,0.0,0.0,0.0,0.0,0.0,0.0,0.0,0.0,0.0,0.0,0.3390347957611084,-0.10327629502665586,0.08962495123487348,0.14683970515203407,-0.003777996636927128,-0.009662449359893799,-0.016263004392385483
137,5,0.0001335541601292789,-0.00045700607006438076,-0.00012754656199831516,0.00042540495633147657,0.006890267599374056,0.004942047409713268,0.0,0.0,0.0,0.0,0.0,0.0,0.0,0.0,0.0,-0.008055726066231728,0.0008034601341933012,-0.0,0.0,0.0,0.0,0.0,0.0,0.0,0.0,0.0,0.0,0.0,0.0,0.0,0.0,0.0,0.0,0.0,0.0,0.0,0.0,0.0,0.0,0.0,0.3390447199344635,-0.1035526502266215,0.08951779299964409,0.14697811326664245,-0.0031527781393378973,-0.031612277030944824,-0.020264679566025734
142,5,0.00013579247752204537,-0.0004772876272909343,-0.00012535152200143784,0.0004409854591358453,0.00490649463608861,0.0011753092985600233,0.0,0.0,0.0,0.0,0.0,0.0,0.0,0.0,0.0,-0.006098913494497538,0.0008327065734192729,-0.0,0.0,0.0,0.0,0.0,0.0,0.0,0.0,0.0,0.0,0.0,0.0,0.0,0.0,0.0,0.0,0.0,0.0,0.0,0.0,0.0,0.0,0.0,0.33904001116752625,-0.10311566725456495,0.09025484505404856,0.1471059581650356,-0.0032678130082786083,-0.023933397606015205,-0.00940005388110876
147,5,0.00013693545770365745,-0.00039312883745878935,-2.2835980416857637e-05,0.00029231412918306887,-0.010310279205441475,-0.013999583199620247,0.0,0.0,0.0,0.0,0.0,0.0,0.0,0.0,0.0,0.009506394155323505,0.0006927321082912385,-0.0,0.0,0.0,0.0,0.0,0.0,0.0,0.0,0.0,0.0,0.0,0.0,0.0,0.0,0.0,0.0,0.0,0.0,0.0,0.0,0.0,0.0,0.0,0.33904901146888733,-0.10305152456704479,0.09058035298888151,0.147379000979548,-0.002718555275350809,0.037303436547517776,0.0372224859893322
152,5,0.0001314651599386707,-0.00034804665483534336,5.840717858518474e-05,-0.0006781479460187256,-0.009404590353369713,-0.015573916956782341,0.0,0.0,0.0,0.0,0.0,0.0,0.0,0.0,0.0,0.008622362278401852,-0.0002944963925983757,-0.0,0.0,0.0,0.0,0.0,0.0,0.0,0.0,0.0,0.0,0.0,0.0,0.0,0.0,0.0,0.0,0.0,0.0,0.0,0.0,0.0,0.0,0.0,0.3390462100505829,-0.10327486143776957,0.09180363571698685,0.14716752390789342,0.0011556039098650217,0.03383499011397362,0.04308370128273964
157,5,0.0001342390605714172,-0.0003523572813719511,2.7476278773974627e-05,0.00018490104412194341,-0.0022178885992616415,-0.00034184896503575146,0.0,0.0,0.0,0.0,0.0,0.0,0.0,0.0,0.0,0.0012641757493838668,0.0005993022350594401,-0.0,0.0,0.0,0.0,0.0,0.0,0.0,0.0,0.0,0.0,0.0,0.0,0.0,0.0,0.0,0.0,0.0,0.0,0.0,0.0,0.0,0.0,0.0,0.33903393149375916,-0.1029379370583054,0.09208773283951614,0.1472378296811038,-0.0023516621440649033,0.004960629157721996,-0.002868692157790065
162,5,0.00013694303925149143,-0.00037485198117792606,-1.4423270840779878e-05,0.0004340273153502494,0.0024838922545313835,0.005763382185250521,0.0,0.0,0.0,0.0,0.0,0.0,0.0,0.0,0.0,-0.00358948134817183,0.0008674497366882861,-0.0,0.0,0.0,0.0,0.0,0.0,0.0,0.0,0.0,0.0,0.0,0.0,0.0,0.0,0.0,0.0,0.0,0.0,0.0,0.0,0.0,0.0,0.0,0.33903589844703674,-0.10287312746086494,0.09257854660040664,0.14729919081367177,-0.003403873648494482,-0.014085190370678902,-0.02171504683792591
167,5,0.00012698938371613622,-0.0003482994216028601,2.8145395845058374e-05,-0.0012633019359782338,-0.002972192596644163,-0.004230598919093609,0.0,0.0,0.0,0.0,0.0,0.0,0.0,0.0,0.0,0.0019840619061142206,-0.0008674534037709236,-0.0,0.0,0.0,0.0,0.0,0.0,0.0,0.0,0.0,0.0,0.0,0.0,0.0,0.0,0.0,0.0,0.0,0.0,0.0,0.0,0.0,0.0,0.0,0.33903440833091736,-0.10289978486764031,0.0918068269354929,0.14728542517862583,0.0034038880839943886,0.007785471621900797,0.008855236694216728
172,5,0.00012068599608028308,-0.00037133536534383893,-1.937118031491991e-05,-0.001261465484276414,0.0023333753924816847,0.0053831408731639385,0.0,0.0,0.0,0.0,0.0,0.0,0.0,0.0,0.0,-0.0034848779905587435,-0.0008659704471938312,-0.0,0.0,0.0,0.0,0.0,0.0,0.0,0.0,0.0,0.0,0.0,0.0,0.0,0.0,0.0,0.0,0.0,0.0,0.0,0.0,0.0,0.0,0.0,0.3390357792377472,-0.10337849735174964,0.09138607968113699,0.14721219638117414,0.0033980689477175474,-0.0136747220531106,-0.020600488409399986
177,5,0.00011298443132545799,-0.0003989276010543108,-6.103598570916802e-05,-0.001456659403629601,0.004562926013022661,0.0074480148032307625,0.0,0.0,0.0,0.0,0.0,0.0,0.0,0.0,0.0,-0.005827582441270351,-0.0010676825186237693,-0.0,0.0,0.0,0.0,0.0,0.0,0.0,0.0,0.0,0.0,0.0,0.0,0.0,0.0,0.0,0.0,0.0,0.0,0.0,0.0,0.0,0.0,0.0,0.33903956413269043,-0.10321406951776398,0.09104010020843227,0.14714907232814373,0.004189587663859129,-0.022867705672979355,-0.027492312714457512
182,5,0.00012120611791033298,-0.00042872107587754726,-9.839158883551136e-05,0.0007140391389839351,0.005539962090551853,0.007464189548045397,0.0,0.0,0.0,0.0,0.0,0.0,0.0,0.0,0.0,-0.006898987106978893,0.0011661063181236386,-0.0,0.0,0.0,0.0,0.0,0.0,0.0,0.0,0.0,0.0,0.0,0.0,0.0,0.0,0.0,0.0,0.0,0.0,0.0,0.0,0.0,0.0,0.0,0.33904188871383667,-0.10316625482733646,0.08979304746272843,0.14759207748170475,-0.0045760455541312695,-0.027072930708527565,-0.028330739587545395
187,5,8.94732802407816e-05,-0.0003325525321997702,-5.537455081139342e-07,-0.004228385630995035,-0.011801604181528091,-0.01145804114639759,0.0,0.0,0.0,0.0,0.0,0.0,0.0,0.0,0.0,0.010892408899962902,-0.003911371808499098,-0.0,0.0,0.0,0.0,0.0,0.0,0.0,0.0,0.0,0.0,0.0,0.0,0.0,0.0,0.0,0.0,0.0,0.0,0.0,0.0,0.0,0.0,0.0,0.3390563130378723,-0.10326130681734072,0.08946116599407011,0.14736757386245927,0.015348300337791443,0.042743828147649765,0.029544362798333168
192,5,7.867255044402555e-05,-0.0003604136290960014,-7.690991333220154e-05,-0.0027806186117231846,0.00036007180460728705,0.007252450566738844,0.0,0.0,0.0,0.0,0.0,0.0,0.0,0.0,0.0,-0.0015708089340478182,-0.002445669611915946,-0.0,0.0,0.0,0.0,0.0,0.0,0.0,0.0,0.0,0.0,0.0,0.0,0.0,0.0,0.0,0.0,0.0,0.0,0.0,0.0,0.0,0.0,0.0,0.3390350341796875,-0.1040809890469819,0.08907375226143302,0.14732817665256034,0.009596826508641243,-0.00616387790068984,-0.02773631550371647
197,5,3.8068010326242074e-05,-0.00031234079506248236,-2.531763857405167e-05,-0.006518820766359568,-0.006622175220400095,-0.00504718255251646,0.0,0.0,0.0,0.0,0.0,0.0,0.0,0.0,0.0,0.005592310801148415,-0.006312267389148474,-0.0,0.0,0.0,0.0,0.0,0.0,0.0,0.0,0.0,0.0,0.0,0.0,0.0,0.0,0.0,0.0,0.0,0.0,0.0,0.0,0.0,0.0,0.0,0.3390456438064575,-0.10381774341561759,0.08930137265051392,0.14723409998323375,0.02476958930492401,0.02194426953792572,0.009648079983890057
203,5,2.7210331609239802e-05,-0.00031237464281730354,-9.373324246553238e-06,-0.003475721227005124,-0.0019819135777652264,-0.003746358910575509,0.0,0.0,0.0,0.0,0.0,0.0,0.0,0.0,0.0,0.0008387292618863285,-0.0032240543514490128,-0.0,0.0,0.0,0.0,0.0,0.0,0.0,0.0,0.0,0.0,0.0,0.0,0.0,0.0,0.0,0.0,0.0,0.0,0.0,0.0,0.0,0.0,0.0,0.3390354812145233,-0.10330404384314348,0.08858015096532315,0.14730224609036613,0.01265123300254345,0.0032911915332078934,0.005893326364457607
208,5,-8.24563448986737e-06,-0.00027961708838120103,3.826704778475687e-05,-0.006006551440805197,-0.0051806350238621235,-0.007793560158461332,0.0,0.0,0.0,0.0,0.0,0.0,0.0,0.0,0.0,0.0041258553974330425,-0.005856025498360395,-0.0,0.0,0.0,0.0,0.0,0.0,0.0,0.0,0.0,0.0,0.0,0.0,0.0,0.0,0.0,0.0,0.0,0.0,0.0,0.0,0.0,0.0,0.0,0.3390423059463501,-0.10345608994555086,0.0891189982268734,0.14696488038438724,0.022979306057095528,0.01619022525846958,0.01871604472398758
213,5,9.531177624921838e-07,-0.0003074446285609156,-2.425551792839542e-05,-0.0005141401779837906,0.0023416676558554173,0.006415091454982758,0.0,0.0,0.0,0.0,0.0,0.0,0.0,0.0,0.0,0.004105048254132271,-0.005856639239937067,-0.0,0.0,0.0,0.0,0.0,0.0,0.0,0.0,0.0,0.0,0.0,0.0,0.0,0.0,0.0,0.0,0.0,0.0,0.0,0.0,0.0,0.0,0.0,0.3390358090400696,-0.10315262448053135,0.0890642537113878,0.14711238443351982,0.0009568741079419851,-0.014148213900625706,-0.02470867894589901
218,5,-5.0558428483782336e-05,-0.00021758631919510663,7.142713729990646e-05,-0.007365858647972345,-0.011877664364874363,-0.011471045203506947,0.0,0.0,0.0,0.0,0.0,0.0,0.0,0.0,0.0,0.011002106592059135,-0.007306886836886406,-0.0,0.0,0.0,0.0,0.0,0.0,0.0,0.0,0.0,0.0,0.0,0.0,0.0,0.0,0.0,0.0,0.0,0.0,0.0,0.0,0.0,0.0,0.0,0.3390631675720215,-0.10318295737554903,0.08932108107600445,0.1466608686387926,0.0286728348582983,0.04317472502589226,0.030299369245767593
223,5,-4.3554860894801095e-05,-0.00022680680558551103,2.0772695279447362e-05,-0.0012292579049244523,-0.002272430108860135,0.003650308819487691,0.0,0.0,0.0,0.0,0.0,0.0,0.0,0.0,0.0,0.010985806584358215,-0.007310674525797367,-0.0,0.0,0.0,0.0,0.0,0.0,0.0,0.0,0.0,0.0,0.0,0.0,0.0,0.0,0.0,0.0,0.0,0.0,0.0,0.0,0.0,0.0,0.0,0.3390340209007263,-0.10357899031879712,0.08867866876909583,0.14680723692894815,0.004099260549992323,0.004634476732462645,-0.015563281252980232
228,5,-5.558871998800896e-05,-0.00021231577557045966,-2.7952505661232863e-06,-0.0020535176154226065,-0.002710474655032158,0.004394605290144682,0.0,0.0,0.0,0.0,0.0,0.0,0.0,0.0,0.0,0.0016323000891134143,-0.0019066501408815384,-0.0,0.0,0.0,0.0,0.0,0.0,0.0,0.0,0.0,0.0,0.0,0.0,0.0,0.0,0.0,0.0,0.0,0.0,0.0,0.0,0.0,0.0,0.0,0.33903467655181885,-0.1037522464308381,0.08930798299077264,0.1466922324495974,0.0074817040003836155,0.006405163090676069,-0.018072452396154404
233,5,-4.7555717173963785e-05,-0.00021300518710631877,-2.3441616576747037e-05,0.0005085649900138378,-0.0007166241994127631,0.004208873026072979,0.0,0.0,0.0,0.0,0.0,0.0,0.0,0.0,0.0,-0.0004176656366325915,0.0007130328449420631,-0.0,0.0,0.0,0.0,0.0,0.0,0.0,0.0,0.0,0.0,0.0,0.0,0.0,0.0,0.0,0.0,0.0,0.0,0.0,0.0,0.0,0.0,0.0,0.33903372287750244,-0.10419533345054367,0.08896032856772616,0.14664074553203457,-0.002797941444441676,-0.0016389205120503902,-0.017836088314652443
238,5,-7.607174484292045e-05,-0.00014727437519468367,6.475834379671142e-05,-0.003839673940092325,-0.009417301043868065,-0.011085332371294498,0.0,0.0,0.0,0.0,0.0,0.0,0.0,0.0,0.0,-0.0004339504230301827,0.0007093970780260861,-0.0,0.0,0.0,0.0,0.0,0.0,0.0,0.0,0.0,0.0,0.0,0.0,0.0,0.0,0.0,0.0,0.0,0.0,0.0,0.0,0.0,0.0,0.0,0.33903372287750244,-0.10320146200817742,0.09008488419280028,0.14590689560995504,0.014780529774725437,0.033493977040052414,0.02928324043750763
243,5,-4.973018076270819e-05,-0.00011585641914280131,0.00010379254672443494,0.002535916632041335,-0.007223703898489475,-0.008790387772023678,0.0,0.0,0.0,0.0,0.0,0.0,0.0,0.0,0.0,0.006336184684187174,0.0027667891699820757,-0.0,0.0,0.0,0.0,0.0,0.0,0.0,0.0,0.0,0.0,0.0,0.0,0.0,0.0,0.0,0.0,0.0,0.0,0.0,0.0,0.0,0.0,0.0,0.33904170989990234,-0.1028631427352084,0.08842325810942059,0.14641005405316873,-0.01085690874606371,0.02486361749470234,0.023229358717799187
249,5,-6.254648906178772e-05,-0.00012178951874375343,7.241540151881054e-05,-0.0010335079859942198,-0.0013364767655730247,0.0017556837992742658,0.0,0.0,0.0,0.0,0.0,0.0,0.0,0.0,0.0,0.000316930323606357,-0.0008952486095950007,-0.0,0.0,0.0,0.0,0.0,0.0,0.0,0.0,0.0,0.0,0.0,0.0,0.0,0.0,0.0,0.0,0.0,0.0,0.0,0.0,0.0,0.0,0.0,0.33903375267982483,-0.10344055617609411,0.08914115849247367,0.14560083853543598,0.0035130814649164677,0.0012433914234861732,-0.008482266217470169
254,5,-6.330374890239909e-05,-9.448992204852402e-05,5.799141217721626e-05,-0.0004160687967669219,-0.004222887102514505,0.0025460633914917707,0.0,0.0,0.0,0.0,0.0,0.0,0.0,0.0,0.0,0.003291505854576826,-0.00027188719832338393,-0.0,0.0,0.0,0.0,0.0,0.0,0.0,0.0,0.0,0.0,0.0,0.0,0.0,0.0,0.0,0.0,0.0,0.0,0.0,0.0,0.0,0.0,0.0,0.3390354514122009,-0.1031738586375405,0.088614413152121,0.14557674226371656,0.001067012082785368,0.012915726751089096,-0.010793857276439667
259,5,-6.403786392183974e-05,-7.089139398885891e-05,4.518991045188159e-05,-0.00022759733838029206,-0.004570660647004843,0.0025560292415320873,0.0,0.0,0.0,0.0,0.0,0.0,0.0,0.0,0.0,0.0036750261206179857,-8.563126903027296e-05,-0.0,0.0,0.0,0.0,0.0,0.0,0.0,0.0,0.0,0.0,0.0,0.0,0.0,0.0,0.0,0.0,0.0,0.0,0.0,0.0,0.0,0.0,0.0,0.33903589844703674,-0.10279643402069513,0.08769971091339088,0.14548979271786525,0.00033614516723901033,0.014420726336538792,-0.010803299024701118
264,5,-3.645866672741249e-05,-9.695690823718905e-05,-4.57236819784157e-05,0.003792808623984456,0.002277974272146821,0.013494711369276047,0.0,0.0,0.0,0.0,0.0,0.0,0.0,0.0,0.0,-0.0033515573013573885,0.004049842711538076,-0.0,0.0,0.0,0.0,0.0,0.0,0.0,0.0,0.0,0.0,0.0,0.0,0.0,0.0,0.0,0.0,0.0,0.0,0.0,0.0,0.0,0.0,0.0,0.33903828263282776,-0.10287746690573332,0.08753494326407761,0.14557479869909698,-0.01589159667491913,-0.013151861727237701,-0.044815871864557266
269,5,-5.1016071665799245e-05,-6.317529187072068e-05,-3.139541877317242e-05,-0.000900193874258548,-0.004046033602207899,0.0020424567628651857,0.0,0.0,0.0,0.0,0.0,0.0,0.0,0.0,0.0,0.0031390273943543434,-0.0007591559551656246,-0.0,0.0,0.0,0.0,0.0,0.0,0.0,0.0,0.0,0.0,0.0,0.0,0.0,0.0,0.0,0.0,0.0,0.0,0.0,0.0,0.0,0.0,0.0,0.33903536200523376,-0.10288918780479324,0.08711465517459943,0.145570225836964,0.0029789286199957132,0.012317587621510029,-0.010416860692203045
274,5,-6.936906720511615e-05,3.100067260675132e-05,7.418767199851573e-05,-0.0028394777327775955,-0.014398445375263691,-0.014168895781040192,0.0,0.0,0.0,0.0,0.0,0.0,0.0,0.0,0.0,0.013830367475748062,-0.0027678613550961018,-0.0,0.0,0.0,0.0,0.0,0.0,0.0,0.0,0.0,0.0,0.0,0.0,0.0,0.0,0.0,0.0,0.0,0.0,0.0,0.0,0.0,0.0,0.0,0.33906733989715576,-0.10305108944050966,0.08636665138022229,0.14561481909696544,0.010861115530133247,0.05427403002977371,0.03968898952007294
279,5,-8.208699728129432e-05,1.2541934665932786e-05,4.171664113528095e-05,-0.0026323534548282623,-0.0017353100702166557,0.00029527556034736335,0.0,0.0,0.0,0.0,0.0,0.0,0.0,0.0,0.0,0.0008970250491984189,-0.002581447595730424,-0.0,0.0,0.0,0.0,0.0,0.0,0.0,0.0,0.0,0.0,0.0,0.0,0.0,0.0,0.0,0.0,0.0,0.0,0.0,0.0,0.0,0.0,0.0,0.3390348553657532,-0.10268471568674856,0.08664608417384913,0.14542342076123582,0.010129787027835846,0.003519963938742876,-0.003914821892976761
284,5,-0.00010353662219131365,4.51938140031416e-05,0.00011102577991550788,-0.00379265402443707,-0.005091855768114328,-0.009614696726202965,0.0,0.0,0.0,0.0,0.0,0.0,0.0,0.0,0.0,0.004369432106614113,-0.00380333443172276,-0.0,0.0,0.0,0.0,0.0,0.0,0.0,0.0,0.0,0.0,0.0,0.0,0.0,0.0,0.0,0.0,0.0,0.0,0.0,0.0,0.0,0.0,0.0,0.33903929591178894,-0.10196891058759358,0.0860297148936395,0.14544837213581116,0.014924563467502594,0.017145976424217224,0.027015678584575653
289,5,-0.0001733453682390973,0.0001482747757108882,0.0002505510055925697,-0.010911020450294018,-0.015958892181515694,-0.022417940199375153,0.0,0.0,0.0,0.0,0.0,0.0,0.0,0.0,0.0,0.015605837106704712,-0.01117370929569006,-0.0,0.0,0.0,0.0,0.0,0.0,0.0,0.0,0.0,0.0,0.0,0.0,0.0,0.0,0.0,0.0,0.0,0.0,0.0,0.0,0.0,0.0,0.0,0.3390960693359375,-0.10255170429193082,0.08630695164951635,0.14474491551816943,0.04384780675172806,0.06124639883637428,0.06793605536222458
294,5,-0.00012801060802303255,4.983700637239963e-05,7.833330164430663e-05,0.0030735605396330357,0.008993620052933693,0.017385095357894897,0.0,0.0,0.0,0.0,0.0,0.0,0.0,0.0,0.0,-0.009966413490474224,0.003137162420898676,-0.0,0.0,0.0,0.0,0.0,0.0,0.0,0.0,0.0,0.0,0.0,0.0,0.0,0.0,0.0,0.0,0.0,0.0,0.0,0.0,0.0,0.0,0.0,0.33905211091041565,-0.10251276879813337,0.08595816928153144,0.14524830054288004,-0.012310265563428402,-0.039109695702791214,-0.053114790469408035
299,5,-0.00012970984971616417,5.972476355964318e-05,3.748753442778252e-05,0.0006841743597760797,0.0013138002250343561,0.010933935642242432,0.0,0.0,0.0,0.0,0.0,0.0,0.0,0.0,0.0,-0.0021193434949964285,0.0006892533274367452,-0.0,0.0,0.0,0.0,0.0,0.0,0.0,0.0,0.0,0.0,0.0,0.0,0.0,0.0,0.0,0.0,0.0,0.0,0.0,0.0,0.0,0.0,0.0,0.33903443813323975,-0.10238188367768074,0.0850664806340222,0.14561719604845702,-0.0027043709997087717,-0.00831619929522276,-0.034084245562553406
304,5,-0.0002001073444262147,0.0001905714307213202,0.00013878692698199302,-0.003059378359466791,-0.0033090950455516577,0.004822188522666693,0.0,0.0,0.0,0.0,0.0,0.0,0.0,0.0,0.0,0.002797796856611967,-0.0032444531098008156,-0.0,0.0,0.0,0.0,0.0,0.0,0.0,0.0,0.0,0.0,0.0,0.0,0.0,0.0,0.0,0.0,0.0,0.0,0.0,0.0,0.0,0.0,0.0,0.3390367031097412,-0.10256219119975987,0.08547355376942462,0.14525867704890333,0.0127312783151865,0.010978640988469124,-0.014086403883993626
310,5,-0.0002001073444262147,0.0001905714307213202,0.00013878692698199302,-0.003059378359466791,-0.0033090950455516577,0.004822188522666693,0.0,0.0,0.0,0.0,0.0,0.0,0.0,0.0,0.0,0.0028124633245170116,-0.003259853692725301,-0.0,0.0,0.0,0.0,0.0,0.0,0.0,0.0,0.0,0.0,0.0,0.0,0.0,0.0,0.0,0.0,0.0,0.0,0.0,0.0,0.0,0.0,0.0,0.3390367329120636,-0.10256219119975987,0.08547355376942462,0.14525867704890333,0.012791710905730724,0.011036193929612637,-0.013562483713030815
315,5,-0.00013942514488007873,7.540048682130873e-05,-5.17715816386044e-05,0.012162167578935623,0.020160019397735596,0.034542836248874664,0.0,0.0,0.0,0.0,0.0,0.0,0.0,0.0,0.0,-0.02126804180443287,0.01233348622918129,-0.0,0.0,0.0,0.0,0.0,0.0,0.0,0.0,0.0,0.0,0.0,0.0,0.0,0.0,0.0,0.0,0.0,0.0,0.0,0.0,0.0,0.0,0.0,0.3391360938549042,-0.10197203673740798,0.08349294165832798,0.1464872664110113,-0.048399053514003754,-0.08347473293542862,-0.1050705835223198
320,5,-0.0002385910484008491,0.00023141362180467695,0.0001929132267832756,-0.010234576649963856,-0.015793833881616592,-0.023893022909760475,0.0,0.0,0.0,0.0,0.0,0.0,0.0,0.0,0.0,0.015619735233485699,-0.010658541694283485,-0.0,0.0,0.0,0.0,0.0,0.0,0.0,0.0,0.0,0.0,0.0,0.0,0.0,0.0,0.0,0.0,0.0,0.0,0.0,0.0,0.0,0.0,0.0,0.33909422159194946,-0.10262809508153935,0.08527789204583205,0.14526860128672672,0.04182570055127144,0.061300307512283325,0.07372276484966278
325,5,-0.0002259203465655446,0.0002622230094857514,0.00022305076709017158,-0.0012964752968400717,-0.009051463566720486,-0.01138716284185648,0.0,0.0,0.0,0.0,0.0,0.0,0.0,0.0,0.0,0.008813648484647274,-0.0015467044431716204,-0.0,0.0,0.0,0.0,0.0,0.0,0.0,0.0,0.0,0.0,0.0,0.0,0.0,0.0,0.0,0.0,0.0,0.0,0.0,0.0,0.0,0.0,0.0,0.3390471637248993,-0.1022649180065048,0.08466915926660977,0.14538266368313107,0.006069273222237825,0.03458569198846817,0.037387002259492874
330,5,-0.00016372016398236156,0.00018365225696470588,5.4573760280618444e-05,0.008319082669913769,0.008284465409815311,0.020170630887150764,0.0,0.0,0.0,0.0,0.0,0.0,0.0,0.0,0.0,-0.008957558311522007,0.008332907222211361,-0.0,0.0,0.0,0.0,0.0,0.0,0.0,0.0,0.0,0.0,0.0,0.0,0.0,0.0,0.0,0.0,0.0,0.0,0.0,0.0,0.0,0.0,0.0,0.3390589654445648,-0.10220234063108115,0.08403523362056292,0.14605011609582438,-0.03269875794649124,-0.035151250660419464,-0.05898972973227501
335,5,-0.00022667662415187806,0.0002851109020411968,0.0001704659080132842,-0.006318179424852133,-0.0117188710719347,-0.010173710063099861,0.0,0.0,0.0,0.0,0.0,0.0,0.0,0.0,0.0,0.011600912548601627,-0.006696202326565981,-0.0,0.0,0.0,0.0,0.0,0.0,0.0,0.0,0.0,0.0,0.0,0.0,0.0,0.0,0.0,0.0,0.0,0.0,0.0,0.0,0.0,0.0,0.0,0.33906400203704834,-0.10273287183756814,0.0848792082593335,0.14517581241450025,0.02627629041671753,0.045525044202804565,0.03398513048887253
340,5,-0.00016548916755709797,0.00021638434554915875,7.126880518626422e-05,0.006670790258795023,0.006106057204306126,0.010835480876266956,0.0,0.0,0.0,0.0,0.0,0.0,0.0,0.0,0.0,-0.0066512580960989,0.006620170082896948,-0.0,0.0,0.0,0.0,0.0,0.0,0.0,0.0,0.0,0.0,0.0,0.0,0.0,0.0,0.0,0.0,0.0,0.0,0.0,0.0,0.0,0.0,0.0,0.3390485346317291,-0.10231319599470316,0.08445396953951885,0.14529733090554797,-0.025977594777941704,-0.02610005997121334,-0.02988332509994507
345,5,-0.00010058510088128969,0.0001477873302064836,2.6602941943565384e-05,0.011087805964052677,0.011435397900640965,0.009503865614533424,0.0,0.0,0.0,0.0,0.0,0.0,0.0,0.0,0.0,-0.01217122096568346,0.011209101416170597,-0.0,0.0,0.0,0.0,0.0,0.0,0.0,0.0,0.0,0.0,0.0,0.0,0.0,0.0,0.0,0.0,0.0,0.0,0.0,0.0,0.0,0.0,0.0,0.33908000588417053,-0.10188792021264054,0.08445857892097983,0.1454289762159852,-0.04398635774850845,-0.047765228897333145,-0.026297006756067276
350,5,-0.0001421080669388175,0.00024033276713453233,0.00021675876632798463,-0.0024868727196007967,-0.009525741450488567,-0.023770656436681747,0.0,0.0,0.0,0.0,0.0,0.0,0.0,0.0,0.0,0.009347224608063698,-0.002699319738894701,-0.0,0.0,0.0,0.0,0.0,0.0,0.0,0.0,0.0,0.0,0.0,0.0,0.0,0.0,0.0,0.0,0.0,0.0,0.0,0.0,0.0,0.0,0.0,0.33904963731765747,-0.10178640566641528,0.08497415578060687,0.144681046528171,0.01059215608984232,0.0366797111928463,0.07648473978042603
355,5,-9.088130900636315e-05,0.0001918797061080113,0.0001682417787378654,0.006425683386623859,0.003925707191228867,-0.00033881873241625726,0.0,0.0,0.0,0.0,0.0,0.0,0.0,0.0,0.0,0.009365228936076164,-0.002709966851398349,-0.0,0.0,0.0,0.0,0.0,0.0,0.0,0.0,0.0,0.0,0.0,0.0,0.0,0.0,0.0,0.0,0.0,0.0,0.0,0.0,0.0,0.0,0.0,0.33904972672462463,-0.10147562860215932,0.08570962626448218,0.14443700148421296,0.010633936151862144,0.036750368773937225,0.006985817104578018
360,5,-6.236737681319937e-05,0.00016506425163242966,0.00013427298108581454,0.005919656250625849,0.004931875038892031,0.004653987009078264,0.0,0.0,0.0,0.0,0.0,0.0,0.0,0.0,0.0,-0.005472193006426096,0.005974217783659697,-0.0,0.0,0.0,0.0,0.0,0.0,0.0,0.0,0.0,0.0,0.0,0.0,0.0,0.0,0.0,0.0,0.0,0.0,0.0,0.0,0.0,0.0,0.0,0.3390447199344635,-0.10160132229712354,0.08604153212290418,0.14448979128188963,-0.023443110287189484,-0.021473482251167297,-0.008592266589403152
365,5,-2.2778620405006222e-05,0.0001377225707983598,9.252344170818105e-05,0.007318322546780109,0.005307397339493036,0.007241130340844393,0.0,0.0,0.0,0.0,0.0,0.0,0.0,0.0,0.0,-0.005883941892534494,0.007455628365278244,-0.0,0.0,0.0,0.0,0.0,0.0,0.0,0.0,0.0,0.0,0.0,0.0,0.0,0.0,0.0,0.0,0.0,0.0,0.0,0.0,0.0,0.0,0.0,0.3390488922595978,-0.10207208778357943,0.08606081519060578,0.14443304226098133,-0.02925642766058445,-0.023089496418833733,-0.01647074520587921
370,5,8.009606631276256e-07,0.0001078976783901453,2.4899567506508902e-05,0.005496638361364603,0.005767705384641886,0.01163968164473772,0.0,0.0,0.0,0.0,0.0,0.0,0.0,0.0,0.0,-0.0063882130198180676,0.005633041728287935,-0.0,0.0,0.0,0.0,0.0,0.0,0.0,0.0,0.0,0.0,0.0,0.0,0.0,0.0,0.0,0.0,0.0,0.0,0.0,0.0,0.0,0.0,0.0,0.3390458822250366,-0.10236496175748769,0.0871409007879555,0.144298598403132,-0.02210428938269615,-0.025068087503314018,-0.030331481248140335
376,5,6.786493031540886e-05,5.130726640345529e-05,-8.20121422293596e-05,0.011037947610020638,0.009652969427406788,0.018459543585777283,0.0,0.0,0.0,0.0,0.0,0.0,0.0,0.0,0.0,-0.010426116175949574,0.011383882723748684,-0.0,0.0,0.0,0.0,0.0,0.0,0.0,0.0,0.0,0.0,0.0,0.0,0.0,0.0,0.0,0.0,0.0,0.0,0.0,0.0,0.0,0.0,0.0,0.3390739858150482,-0.10191837776594304,0.08708469973896023,0.1448913255817532,-0.04467228427529335,-0.040916211903095245,-0.05230342224240303
381,5,0.00010622726404108107,2.2215808712644503e-05,-8.820854418445379e-05,0.008682110346853733,0.006968694739043713,0.006405359599739313,0.0,0.0,0.0,0.0,0.0,0.0,0.0,0.0,0.0,-0.007730972953140736,0.009046617895364761,-0.0,0.0,0.0,0.0,0.0,0.0,0.0,0.0,0.0,0.0,0.0,0.0,0.0,0.0,0.0,0.0,0.0,0.0,0.0,0.0,0.0,0.0,0.0,0.339057594537735,-0.10189561017670158,0.08721267897633776,0.1450779601569831,-0.035499896854162216,-0.030338183045387268,-0.016545770689845085
386,5,0.00010839669994311407,5.1443828851915896e-05,-9.635258493290166e-07,0.002908354392275214,-0.0020013146568089724,-0.01029269490391016,0.0,0.0,0.0,0.0,0.0,0.0,0.0,0.0,0.0,0.0014587311306968331,0.0031728195026516914,-0.0,0.0,0.0,0.0,0.0,0.0,0.0,0.0,0.0,0.0,0.0,0.0,0.0,0.0,0.0,0.0,0.0,0.0,0.0,0.0,0.0,0.0,0.0,0.33903566002845764,-0.10235655413995354,0.08921625311910232,0.14439722885692535,-0.012450402602553368,0.0057241967879235744,0.03452621400356293
391,5,0.00016653067723382264,-9.828590009419713e-06,-7.890212873462588e-05,0.009011263027787209,0.007977744564414024,0.007823595777153969,0.0,0.0,0.0,0.0,0.0,0.0,0.0,0.0,0.0,-0.008802835829555988,0.009490695782005787,-0.0,0.0,0.0,0.0,0.0,0.0,0.0,0.0,0.0,0.0,0.0,0.0,0.0,0.0,0.0,0.0,0.0,0.0,0.0,0.0,0.0,0.0,0.0,0.33906200528144836,-0.10296245299977899,0.08867252252759028,0.14510337264304468,-0.03724294155836105,-0.034544795751571655,-0.020999174565076828
396,5,0.0001699055137578398,3.027699131052941e-05,-4.1641709685791284e-05,0.003175856312736869,-0.0032214580569416285,-0.0028693797066807747,0.0,0.0,0.0,0.0,0.0,0.0,0.0,0.0,0.0,0.0026731977704912424,0.003560430835932493,-0.0,0.0,0.0,0.0,0.0,0.0,0.0,0.0,0.0,0.0,0.0,0.0,0.0,0.0,0.0,0.0,0.0,0.0,0.0,0.0,0.0,0.0,0.0,0.3390369713306427,-0.10304178462205056,0.08982846505309407,0.1448649823911577,-0.01397152990102768,0.010489780455827713,0.011343706399202347
401,5,0.00018663621449377388,5.774713645223528e-05,-1.842538040364161e-05,0.0032950546592473984,-0.004812257830053568,-0.004111099988222122,0.0,0.0,0.0,0.0,0.0,0.0,0.0,0.0,0.0,0.004339092411100864,0.0037205074913799763,-0.0,0.0,0.0,0.0,0.0,0.0,0.0,0.0,0.0,0.0,0.0,0.0,0.0,0.0,0.0,0.0,0.0,0.0,0.0,0.0,0.0,0.0,0.0,0.339039146900177,-0.10288935403955513,0.09084065012455818,0.14485203591500442,-0.014599339105188847,0.01702682301402092,0.015261996537446976
406,5,0.00021590523829218,4.275022729416378e-05,-4.4670727220363915e-05,0.005086179822683334,0.0006558899185620248,0.00244101881980896,0.0,0.0,0.0,0.0,0.0,0.0,0.0,0.0,0.0,0.004343506880104542,0.00373477628454566,-0.0,0.0,0.0,0.0,0.0,0.0,0.0,0.0,0.0,0.0,0.0,0.0,0.0,0.0,0.0,0.0,0.0,0.0,0.0,0.0,0.0,0.0,0.0,0.3390392065048218,-0.10292452960970855,0.09167340032569248,0.14464719698333167,-0.021995875984430313,-0.004918339662253857,-0.004858252126723528
411,5,0.00021747392020188272,2.92107361019589e-05,-5.77136997890193e-05,0.0017454695189371705,0.0020922960247844458,0.0025583216920495033,0.0,0.0,0.0,0.0,0.0,0.0,0.0,0.0,0.0,-0.0027350534219294786,0.002218962414190173,-0.0,0.0,0.0,0.0,0.0,0.0,0.0,0.0,0.0,0.0,0.0,0.0,0.0,0.0,0.0,0.0,0.0,0.0,0.0,0.0,0.0,0.0,0.0,0.33903568983078003,-0.10308785353790749,0.09186921786604124,0.14452941144706105,-0.00870765745639801,-0.010732344351708889,-0.0055750892497599125
416,5,0.0002196077984990552,1.0834302884177305e-05,-8.785142563283443e-05,0.0008223836775869131,0.0032003894448280334,0.004986777901649475,0.0,0.0,0.0,0.0,0.0,0.0,0.0,0.0,0.0,-0.0038904682733118534,0.001298003364354372,-0.0,0.0,0.0,0.0,0.0,0.0,0.0,0.0,0.0,0.0,0.0,0.0,0.0,0.0,0.0,0.0,0.0,0.0,0.0,0.0,0.0,0.0,0.0,0.3390364646911621,-0.10240239635945446,0.09203325121773882,0.14426259933510763,-0.005093807354569435,-0.015266265720129013,-0.013532653450965881
421,5,0.00021156230650376529,3.470036244834773e-05,-6.463738100137562e-05,-0.0008796532056294382,-0.0023811315186321735,-0.001753932680003345,0.0,0.0,0.0,0.0,0.0,0.0,0.0,0.0,0.0,0.0018364754505455494,-0.00043251836905255914,-0.0,0.0,0.0,0.0,0.0,0.0,0.0,0.0,0.0,0.0,0.0,0.0,0.0,0.0,0.0,0.0,0.0,0.0,0.0,0.0,0.0,0.0,0.0,0.33903419971466064,-0.10231546113893167,0.09125874476169206,0.14437582998691584,0.0016967791598290205,0.007206407841295004,0.006709987297654152
426,5,0.00022403296316042542,-3.819309768005041e-06,-9.617567411623895e-05,0.0014819959178566933,0.004678414668887854,0.003889181185513735,0.0,0.0,0.0,0.0,0.0,0.0,0.0,0.0,0.0,-0.005416034255176783,0.0020099016837775707,-0.0,0.0,0.0,0.0,0.0,0.0,0.0,0.0,0.0,0.0,0.0,0.0,0.0,0.0,0.0,0.0,0.0,0.0,0.0,0.0,0.0,0.0,0.0,0.33903926610946655,-0.10234511252358462,0.09052345042216475,0.14425511022713525,-0.007886865176260471,-0.021252769976854324,-0.010930759832262993
431,5,0.00021737009228672832,-1.428556970495265e-05,-6.754672358511016e-05,-0.00048820325173437595,0.0028688006568700075,-0.0028412991669028997,0.0,0.0,0.0,0.0,0.0,0.0,0.0,0.0,0.0,-0.003587731858715415,8.476441507809795e-06,-0.0,0.0,0.0,0.0,0.0,0.0,0.0,0.0,0.0,0.0,0.0,0.0,0.0,0.0,0.0,0.0,0.0,0.0,0.0,0.0,0.0,0.0,0.0,0.3390357792377472,-0.10270749708916886,0.08977118925029234,0.14393461858762013,-3.3696298487484455e-05,-0.014078348875045776,0.009329915046691895
436,5,0.00021585098875220865,1.7373444279655814e-05,-3.91393004974816e-05,-0.00035913483588956296,-0.003571621607989073,-0.0048294286243617535,0.0,0.0,0.0,0.0,0.0,0.0,0.0,0.0,0.0,0.003024759702384472,0.00015422803699038923,-0.0,0.0,0.0,0.0,0.0,0.0,0.0,0.0,0.0,0.0,0.0,0.0,0.0,0.0,0.0,0.0,0.0,0.0,0.0,0.0,0.0,0.0,0.0,0.33903515338897705,-0.10251173190011771,0.08921150904099853,0.1439486067908696,-0.0006056225392967463,0.011869227513670921,0.015470934100449085
441,5,0.00021207088138908148,1.8306080164620653e-05,-5.5026685004122555e-05,-0.0006369570619426668,-0.0012020557187497616,0.0007754055550321937,0.0,0.0,0.0,0.0,0.0,0.0,0.0,0.0,0.0,0.0006120456382632256,-0.00011847268615383655,-0.0,0.0,0.0,0.0,0.0,0.0,0.0,0.0,0.0,0.0,0.0,0.0,0.0,0.0,0.0,0.0,0.0,0.0,0.0,0.0,0.0,0.0,0.0,0.33903366327285767,-0.10205878952276823,0.08881449437168103,0.14382077843100208,0.0004644627042580396,0.002401703968644142,-0.0017270917305722833
447,5,0.00021450602798722684,1.4190323781804182e-05,-9.448120545130223e-05,0.0001498343190178275,0.0002155892871087417,0.005756254307925701,0.0,0.0,0.0,0.0,0.0,0.0,0.0,0.0,0.0,-0.0008379205246455967,0.0007039313204586506,-0.0,0.0,0.0,0.0,0.0,0.0,0.0,0.0,0.0,0.0,0.0,0.0,0.0,0.0,0.0,0.0,0.0,0.0,0.0,0.0,0.0,0.0,0.0,0.3390338122844696,-0.10224019144563552,0.08866052512347555,0.14361631862362848,-0.002762226853519678,-0.0032880017533898354,-0.017475878819823265
452,5,0.00020621283329091966,3.88955777452793e-05,-7.841663318686187e-05,-0.0011160961585119367,-0.003394058672711253,-0.0005221637547947466,0.0,0.0,0.0,0.0,0.0,0.0,0.0,0.0,0.0,0.002880528336390853,-0.0005828114226460457,-0.0,0.0,0.0,0.0,0.0,0.0,0.0,0.0,0.0,0.0,0.0,0.0,0.0,0.0,0.0,0.0,0.0,0.0,0.0,0.0,0.0,0.0,0.0,0.3390350639820099,-0.10174802327383,0.08819429636530213,0.14353892512057448,0.0022865396458655596,0.011303304694592953,0.001245284453034401
457,5,0.0002062410640064627,2.486893026798498e-05,-9.477500134380534e-05,-0.0003308771410956979,0.0009455129038542509,0.002133522415533662,0.0,0.0,0.0,0.0,0.0,0.0,0.0,0.0,0.0,-0.0015615123556926847,0.00023384482483379543,-0.0,0.0,0.0,0.0,0.0,0.0,0.0,0.0,0.0,0.0,0.0,0.0,0.0,0.0,0.0,0.0,0.0,0.0,0.0,0.0,0.0,0.0,0.0,0.3390340209007263,-0.10200161236735404,0.08787559698350055,0.14329256224994352,-0.0009176071034744382,-0.006127379834651947,-0.007269138004630804
462,5,0.0001906954712467268,2.1593086785287596e-05,-7.713930972386152e-05,-0.0022756471298635006,0.0007422719500027597,-0.0018289400031790137,0.0,0.0,0.0,0.0,0.0,0.0,0.0,0.0,0.0,-0.0013574351323768497,-0.0017565186135470867,-0.0,0.0,0.0,0.0,0.0,0.0,0.0,0.0,0.0,0.0,0.0,0.0,0.0,0.0,0.0,0.0,0.0,0.0,0.0,0.0,0.0,0.0,0.0,0.33903443813323975,-0.10206468490066849,0.0879838327666115,0.14304010160740827,0.006892586126923561,-0.005326586775481701,0.004526772536337376
467,5,0.00020899446099065244,2.1589521566056646e-06,-9.117348963627592e-05,0.00187916518189013,0.0029434605967253447,0.0014161033323034644,0.0,0.0,0.0,0.0,0.0,0.0,0.0,0.0,0.0,-0.003629326354712248,0.0025213442277163267,-0.0,0.0,0.0,0.0,0.0,0.0,0.0,0.0,0.0,0.0,0.0,0.0,0.0,0.0,0.0,0.0,0.0,0.0,0.0,0.0,0.0,0.0,0.0,0.3390369117259979,-0.10098097200040555,0.08849511367602811,0.1431530314527474,-0.009894194081425667,-0.014241580851376057,-0.00571147445589304
472,5,0.00022409007942769676,2.4073427994153462e-05,-7.519358769059181e-05,0.0026771354023367167,-0.0021849884651601315,-0.0018123548943549395,0.0,0.0,0.0,0.0,0.0,0.0,0.0,0.0,0.0,0.0016321080038323998,0.0033738375641405582,-0.0,0.0,0.0,0.0,0.0,0.0,0.0,0.0,0.0,0.0,0.0,0.0,0.0,0.0,0.0,0.0,0.0,0.0,0.0,0.0,0.0,0.0,0.0,0.3390359878540039,-0.10105689827757376,0.08939362395158358,0.14329655409258465,-0.013239436782896519,0.006404481828212738,0.003872896544635296
477,5,0.0002279514301335439,5.083885116619058e-05,-8.661729225423187e-05,0.0013437296729534864,-0.004402655642479658,0.0010556115303188562,0.0,0.0,0.0,0.0,0.0,0.0,0.0,0.0,0.0,0.003935516346246004,0.0020376588217914104,-0.0,0.0,0.0,0.0,0.0,0.0,0.0,0.0,0.0,0.0,0.0,0.0,0.0,0.0,0.0,0.0,0.0,0.0,0.0,0.0,0.0,0.0,0.0,0.3390369415283203,-0.10195256102694904,0.09003063977281635,0.14339096148906016,-0.007996240630745888,0.015443178825080395,-0.005185476504266262
482,5,0.00022859664750285447,0.00011721185001078993,-1.8598502720124088e-05,0.000493450730573386,-0.010613016784191132,-0.009205946698784828,0.0,0.0,0.0,0.0,0.0,0.0,0.0,0.0,0.0,0.010371344164013863,0.0011894454946741462,-0.0,0.0,0.0,0.0,0.0,0.0,0.0,0.0,0.0,0.0,0.0,0.0,0.0,0.0,0.0,0.0,0.0,0.0,0.0,0.0,0.0,0.0,0.0,0.33905208110809326,-0.1016823815939739,0.08991983857161957,0.14392308669181747,-0.004667843692004681,0.04069887846708298,0.026301002129912376
487,5,0.00023359921760857105,0.0001547426072647795,9.94866877590539e-06,0.0008483954588882625,-0.008438210003077984,-0.006758388131856918,0.0,0.0,0.0,0.0,0.0,0.0,0.0,0.0,0.0,0.008221064694225788,0.0015765142161399126,-0.0,0.0,0.0,0.0,0.0,0.0,0.0,0.0,0.0,0.0,0.0,0.0,0.0,0.0,0.0,0.0,0.0,0.0,0.0,0.0,0.0,0.0,0.0,0.3390454649925232,-0.10198835349526535,0.09117860880864473,0.14420113871617998,-0.006186246871948242,0.0322602242231369,0.01931893080472946
492,5,0.00022765908215660602,0.00014360484783537686,-6.957297955523245e-06,-0.0005771010182797909,-0.0009721770766191185,0.0003393189690541476,0.0,0.0,0.0,0.0,0.0,0.0,0.0,0.0,0.0,0.0006054759141989052,0.00013229047181084752,-0.0,0.0,0.0,0.0,0.0,0.0,0.0,0.0,0.0,0.0,0.0,0.0,0.0,0.0,0.0,0.0,0.0,0.0,0.0,0.0,0.0,0.0,0.0,0.33903366327285767,-0.1027836000808726,0.09131519219370776,0.1442166792151417,-0.0005195630947127938,0.0023761747870594263,-0.002192511223256588
498,5,0.00022575548791792244,0.0001243537844857201,-4.3835949327331036e-05,-0.00043963355710729957,0.0024034956004470587,0.005264807026833296,0.0,0.0,0.0,0.0,0.0,0.0,0.0,0.0,0.0,-0.0028539185877889395,0.00028714301879517734,-0.0,0.0,0.0,0.0,0.0,0.0,0.0,0.0,0.0,0.0,0.0,0.0,0.0,0.0,0.0,0.0,0.0,0.0,0.0,0.0,0.0,0.0,0.0,0.3390350043773651,-0.10216589108525621,0.09139582880667706,0.14463102918347986,-0.0011267492081969976,-0.011198807507753372,-0.017552107572555542
503,5,0.000201071408810094,0.00016081859939731658,-3.5364137147553265e-05,-0.003587661311030388,-0.004384025931358337,0.00039338800706900656,0.0,0.0,0.0,0.0,0.0,0.0,0.0,0.0,0.0,0.004130270332098007,-0.0029423811938613653,-0.0,0.0,0.0,0.0,0.0,0.0,0.0,0.0,0.0,0.0,0.0,0.0,0.0,0.0,0.0,0.0,0.0,0.0,0.0,0.0,0.0,0.0,0.0,0.3390379548072815,-0.10211864862103995,0.09128466225068314,0.1446990735909425,0.01154593750834465,0.01620766520500183,-0.002974310191348195
508,5,0.0001855440204963088,0.00011103969882242382,-0.0001625974109629169,-0.003250132780522108,0.005653838161379099,0.01793067529797554,0.0,0.0,0.0,0.0,0.0,0.0,0.0,0.0,0.0,-0.006165516097098589,-0.002606506459414959,-0.0,0.0,0.0,0.0,0.0,0.0,0.0,0.0,0.0,0.0,0.0,0.0,0.0,0.0,0.0,0.0,0.0,0.0,0.0,0.0,0.0,0.0,0.0,0.33904120326042175,-0.10190536832420337,0.09086127791661243,0.14482187686187342,0.010227583348751068,-0.024193651974201202,-0.05764266103506088
513,5,0.00015017553232610226,0.00017367328109685332,-0.00010938606283161789,-0.005926629062741995,-0.0070725493133068085,-0.002070386428385973,0.0,0.0,0.0,0.0,0.0,0.0,0.0,0.0,0.0,0.006911200471222401,-0.005375009961426258,-0.0,0.0,0.0,0.0,0.0,0.0,0.0,0.0,0.0,0.0,0.0,0.0,0.0,0.0,0.0,0.0,0.0,0.0,0.0,0.0,0.0,0.0,0.0,0.3390465974807739,-0.10204418869963215,0.0894322025185726,0.14514065368001286,0.02109174244105816,0.027120374143123627,0.002567873103544116
518,5,0.00011149851343361661,0.00017753508291207254,-0.00012728873116429895,-0.007192770950496197,-0.0026624170131981373,0.0018852577777579427,0.0,0.0,0.0,0.0,0.0,0.0,0.0,0.0,0.0,0.0024349007289856672,-0.006713399197906256,-0.0,0.0,0.0,0.0,0.0,0.0,0.0,0.0,0.0,0.0,0.0,0.0,0.0,0.0,0.0,0.0,0.0,0.0,0.0,0.0,0.0,0.0,0.0,0.3390422463417053,-0.10209651015649733,0.08833215498391488,0.1451338298207626,0.02634355053305626,0.00955513957887888,-0.009979140013456345
523,5,5.767139737145044e-05,0.00019109706045128405,-0.00011343092774040997,-0.009693627245724201,-0.0026974028442054987,-0.0013745144242420793,0.0,0.0,0.0,0.0,0.0,0.0,0.0,0.0,0.0,0.002505202079191804,-0.009336156770586967,-0.0,0.0,0.0,0.0,0.0,0.0,0.0,0.0,0.0,0.0,0.0,0.0,0.0,0.0,0.0,0.0,0.0,0.0,0.0,0.0,0.0,0.0,0.0,0.33904942870140076,-0.10185480656635341,0.08696854379755463,0.1452344004530594,0.036636143922805786,0.009830862283706665,-0.00047779636224731803
528,5,2.68496987700928e-05,0.0002241068723378703,-4.440350676304661e-05,-0.007223126012831926,-0.005430594086647034,-0.010076194070279598,0.0,0.0,0.0,0.0,0.0,0.0,0.0,0.0,0.0,0.005356595851480961,-0.006860677618533373,-0.0,0.0,0.0,0.0,0.0,0.0,0.0,0.0,0.0,0.0,0.0,0.0,0.0,0.0,0.0,0.0,0.0,0.0,0.0,0.0,0.0,0.0,0.0,0.339046448469162,-0.10166587790423798,0.08623765361637895,0.14506816180896032,0.026921721175312996,0.02101997844874859,0.026236793026328087
533,5,-4.356869249022566e-05,0.00029969154275022447,0.00011241780157433823,-0.01202551182359457,-0.012211030349135399,-0.02497784234583378,0.0,0.0,0.0,0.0,0.0,0.0,0.0,0.0,0.0,0.012399693951010704,-0.01186133362352848,-0.0,0.0,0.0,0.0,0.0,0.0,0.0,0.0,0.0,0.0,0.0,0.0,0.0,0.0,0.0,0.0,0.0,0.0,0.0,0.0,0.0,0.0,0.0,0.3390835225582123,-0.10166394023687435,0.08501465695426833,0.14436456943649553,0.04654614254832268,0.04866291582584381,0.07313930988311768
538,5,-0.0001254176313523203,0.00036789855221286416,0.00023539384710602462,-0.015066505409777164,-0.013212289661169052,-0.024709997698664665,0.0,0.0,0.0,0.0,0.0,0.0,0.0,0.0,0.0,0.013547214679419994,-0.015089267864823341,-0.0,0.0,0.0,0.0,0.0,0.0,0.0,0.0,0.0,0.0,0.0,0.0,0.0,0.0,0.0,0.0,0.0,0.0,0.0,0.0,0.0,0.0,0.0,0.3391033113002777,-0.10143111179180778,0.08427800613293934,0.143996568896089,0.059215035289525986,0.053169310092926025,0.07461963593959808
543,5,-0.00015613058349117637,0.0003289827436674386,0.0001947556302184239,-0.008819764479994774,0.0014845227124169469,-0.0017236493295058608,0.0,0.0,0.0,0.0,0.0,0.0,0.0,0.0,0.0,-0.0014634017134085298,-0.008778962306678295,-0.0,0.0,0.0,0.0,0.0,0.0,0.0,0.0,0.0,0.0,0.0,0.0,0.0,0.0,0.0,0.0,0.0,0.0,0.0,0.0,0.0,0.0,0.0,0.33904701471328735,-0.10130335821418142,0.08326863163183913,0.14375008891801963,0.03444984555244446,-0.00574195571243763,0.005925826262682676
548,5,-0.00010889840632444248,0.00025535974418744445,8.914585487218574e-05,0.003966575022786856,0.01075257733464241,0.014268273487687111,0.0,0.0,0.0,0.0,0.0,0.0,0.0,0.0,0.0,-0.01099793054163456,0.004315078258514404,-0.0,0.0,0.0,0.0,0.0,0.0,0.0,0.0,0.0,0.0,0.0,0.0,0.0,0.0,0.0,0.0,0.0,0.0,0.0,0.0,0.0,0.0,0.0,0.3390572667121887,-0.10076666816664112,0.08211497858977919,0.14440538133617428,-0.016932472586631775,-0.043158020824193954,-0.042911265045404434
553,5,-0.00017891246534418315,0.0003543855855241418,0.0002149587671738118,-0.008611994795501232,-0.010637843981385231,-0.013333326205611229,0.0,0.0,0.0,0.0,0.0,0.0,0.0,0.0,0.0,0.010976475663483143,-0.008622360415756702,-0.0,0.0,0.0,0.0,0.0,0.0,0.0,0.0,0.0,0.0,0.0,0.0,0.0,0.0,0.0,0.0,0.0,0.0,0.0,0.0,0.0,0.0,0.0,0.33906662464141846,-0.1012585091359997,0.08159481267391237,0.14415079962695732,0.033835336565971375,0.04307572916150093,0.04212983697652817
559,5,-0.0001628239406272769,0.0003404375456739217,0.0001607533631613478,-0.0003312059270683676,-0.0012386292219161987,0.0035887600388377905,0.0,0.0,0.0,0.0,0.0,0.0,0.0,0.0,0.0,0.0014014554908499122,-0.0001702821464277804,-0.0,0.0,0.0,0.0,0.0,0.0,0.0,0.0,0.0,0.0,0.0,0.0,0.0,0.0,0.0,0.0,0.0,0.0,0.0,0.0,0.0,0.0,0.0,0.33903393149375916,-0.10111613240422404,0.08135192967079552,0.14439797411972202,0.0006685127737000585,0.005499995779246092,-0.00865822285413742
564,5,-0.0001892737200250849,0.00033828409505076706,0.00014444593398366123,-0.0038023311644792557,-7.010167610133067e-05,0.0033596670255064964,0.0,0.0,0.0,0.0,0.0,0.0,0.0,0.0,0.0,0.00023268161749001592,-0.0037613571621477604,-0.0,0.0,0.0,0.0,0.0,0.0,0.0,0.0,0.0,0.0,0.0,0.0,0.0,0.0,0.0,0.0,0.0,0.0,0.0,0.0,0.0,0.0,0.0,0.3390360176563263,-0.10190743682790586,0.08240732378481197,0.14403943757215967,0.014760013669729233,0.0009137257584370673,-0.007621583063155413
569,5,-0.00010782235040096566,0.00022802584862802178,-3.6876164813293144e-05,0.01026249211281538,0.015415120869874954,0.026392994448542595,0.0,0.0,0.0,0.0,0.0,0.0,0.0,0.0,0.0,-0.01569322869181633,0.010685659945011139,-0.0,0.0,0.0,0.0,0.0,0.0,0.0,0.0,0.0,0.0,0.0,0.0,0.0,0.0,0.0,0.0,0.0,0.0,0.0,0.0,0.0,0.0,0.0,0.33909469842910767,-0.10075337406244521,0.08180207811259252,0.14521521672140725,-0.04193190857768059,-0.0615883469581604,-0.0789123997092247
574,5,-0.0001577407238073647,0.00030677206814289093,0.00011840741353807971,-0.003909823950380087,-0.006399935111403465,-0.013821803033351898,0.0,0.0,0.0,0.0,0.0,0.0,0.0,0.0,0.0,0.006680003833025694,-0.0038453713059425354,-0.0,0.0,0.0,0.0,0.0,0.0,0.0,0.0,0.0,0.0,0.0,0.0,0.0,0.0,0.0,0.0,0.0,0.0,0.0,0.0,0.0,0.0,0.0,0.33904367685317993,-0.1018648724928007,0.08315724866100907,0.14431551591393932,0.015089311636984348,0.026212919503450394,0.043926842510700226
579,5,-0.0001549727749079466,0.0003025699406862259,0.00012661034998018295,-0.0007854342111386359,-0.0013316819677129388,-0.005294951610267162,0.0,0.0,0.0,0.0,0.0,0.0,0.0,0.0,0.0,0.001530760433524847,-0.0006683118408545852,-0.0,0.0,0.0,0.0,0.0,0.0,0.0,0.0,0.0,0.0,0.0,0.0,0.0,0.0,0.0,0.0,0.0,0.0,0.0,0.0,0.0,0.0,0.0,0.3390340805053711,-0.10180947462430573,0.08302205537626627,0.1447076498785126,0.0026227659545838833,0.006007314659655094,0.018916934728622437
584,5,-0.00016421641339547932,0.00031829066574573517,0.0001315069239353761,-0.001529740751720965,-0.0026004069950431585,-0.0022740063723176718,0.0,0.0,0.0,0.0,0.0,0.0,0.0,0.0,0.0,0.0028715510852634907,-0.0014531873166561127,-0.0,0.0,0.0,0.0,0.0,0.0,0.0,0.0,0.0,0.0,0.0,0.0,0.0,0.0,0.0,0.0,0.0,0.0,0.0,0.0,0.0,0.0,0.0,0.33903536200523376,-0.1019513004479182,0.08364288558070027,0.14472425269359257,0.005702311173081398,0.011268009431660175,0.010405868291854858
589,5,-0.0001100106310332194,0.0002342602238059044,1.0796451533678919e-05,0.007129888515919447,0.010984142310917377,0.016217265278100967,0.0,0.0,0.0,0.0,0.0,0.0,0.0,0.0,0.0,-0.01107973325997591,0.0074444906786084175,-0.0,0.0,0.0,0.0,0.0,0.0,0.0,0.0,0.0,0.0,0.0,0.0,0.0,0.0,0.0,0.0,0.0,0.0,0.0,0.0,0.0,0.0,0.0,0.3390637934207916,-0.10162149071056555,0.08277477773094578,0.14546460808784106,-0.029212720692157745,-0.043479856103658676,-0.04639477655291557
594,5,-0.00013106824189890176,0.0002816941705532372,8.192966197384521e-05,-0.0008090992923825979,-0.0033455092925578356,-0.005093470215797424,0.0,0.0,0.0,0.0,0.0,0.0,0.0,0.0,0.0,0.003617284819483757,-0.0006888080970384181,-0.0,0.0,0.0,0.0,0.0,0.0,0.0,0.0,0.0,0.0,0.0,0.0,0.0,0.0,0.0,0.0,0.0,0.0,0.0,0.0,0.0,0.0,0.0,0.33903589844703674,-0.10125646465282254,0.08284533557063029,0.14536808386046673,0.002702883444726467,0.014194291085004807,0.018648741766810417
599,5,-0.0001757803256623447,0.000325963890645653,0.00014801394718233496,-0.006502421107143164,-0.007201414555311203,-0.01077983994036913,0.0,0.0,0.0,0.0,0.0,0.0,0.0,0.0,0.0,0.007636869326233864,-0.006570759695023298,-0.0,0.0,0.0,0.0,0.0,0.0,0.0,0.0,0.0,0.0,0.0,0.0,0.0,0.0,0.0,0.0,0.0,0.0,0.0,0.0,0.0,0.0,0.0,0.3390507996082306,-0.10193320398247085,0.08278323877276302,0.14497226212949016,0.025784384459257126,0.029968956485390663,0.03701500967144966
604,5,-0.00015746481949463487,0.0002902452542912215,9.092934487853199e-05,0.0006134439026936889,0.0028401855379343033,0.004757890943437815,0.0,0.0,0.0,0.0,0.0,0.0,0.0,0.0,0.0,-0.002629126189276576,0.0006976846489124,-0.0,0.0,0.0,0.0,0.0,0.0,0.0,0.0,0.0,0.0,0.0,0.0,0.0,0.0,0.0,0.0,0.0,0.0,0.0,0.0,0.0,0.0,0.0,0.3390348553657532,-0.10135078336450264,0.08214089203351713,0.14510423870076514,-0.0027373998891562223,-0.010316137224435806,-0.009914783760905266
609,5,-0.00020366325043141842,0.0003236125921830535,0.0001714330428512767,-0.006283746566623449,-0.0038193741347640753,-0.009843149222433567,0.0,0.0,0.0,0.0,0.0,0.0,0.0,0.0,0.0,0.00423283688724041,-0.006415888667106628,-0.0,0.0,0.0,0.0,0.0,0.0,0.0,0.0,0.0,0.0,0.0,0.0,0.0,0.0,0.0,0.0,0.0,0.0,0.0,0.0,0.0,0.0,0.0,0.33904361724853516,-0.10105475079104538,0.08183864815524519,0.14477521403279597,0.025176698341965675,0.01661073975265026,0.035447463393211365
614,5,-0.0002125940372934565,0.0003357353853061795,0.00019354904361534864,0.000755819259211421,0.003227821085602045,0.0036296937614679337,0.0,0.0,0.0,0.0,0.0,0.0,0.0,0.0,0.0,-0.002907266141846776,0.0007305877516046166,-0.0,0.0,0.0,0.0,0.0,0.0,0.0,0.0,0.0,0.0,0.0,0.0,0.0,0.0,0.0,0.0,0.0,0.0,0.0,0.0,0.0,0.0,0.0,0.33903512358665466,-0.10124794133190419,0.08044076735581095,0.14444235730745467,-0.0028668269515037537,-0.011408147402107716,-0.003994794562458992
619,5,-0.000217856650124304,0.0003284447593614459,0.00013773876708000898,-0.0005100208800286055,0.001989036099985242,0.008902345784008503,0.0,0.0,0.0,0.0,0.0,0.0,0.0,0.0,0.0,-0.0016303213778883219,-0.0005838550277985632,-0.0,0.0,0.0,0.0,0.0,0.0,0.0,0.0,0.0,0.0,0.0,0.0,0.0,0.0,0.0,0.0,0.0,0.0,0.0,0.0,0.0,0.0,0.0,0.3390341103076935,-0.10097997063229097,0.07992472141789199,0.1442172488960256,0.002291483338922262,-0.006396731361746788,-0.019931726157665253
625,5,-0.00020495775970630348,0.00033447836176492274,0.00010423793719382957,0.0016528379637748003,-0.00024799248785711825,0.007360820192843676,0.0,0.0,0.0,0.0,0.0,0.0,0.0,0.0,0.0,0.000686047540511936,0.0016228626482188702,-0.0,0.0,0.0,0.0,0.0,0.0,0.0,0.0,0.0,0.0,0.0,0.0,0.0,0.0,0.0,0.0,0.0,0.0,0.0,0.0,0.0,0.0,0.0,0.33903414011001587,-0.10054157598849281,0.080028477627733,0.1443009677429088,-0.006367708556354046,0.0026927234139293432,-0.015261217951774597
630,5,-0.00018916564295068383,0.00032608764013275504,8.830043952912092e-05,0.0027067491319030523,0.0011003033723682165,0.00443949643522501,0.0,0.0,0.0,0.0,0.0,0.0,0.0,0.0,0.0,-0.0006754589849151671,0.0027055777609348297,-0.0,0.0,0.0,0.0,0.0,0.0,0.0,0.0,0.0,0.0,0.0,0.0,0.0,0.0,0.0,0.0,0.0,0.0,0.0,0.0,0.0,0.0,0.0,0.33903491497039795,-0.10100223951073993,0.07988310916571771,0.14420292371336677,-0.01061671320348978,-0.0026505112182348967,-0.006346612703055143
635,5,-0.00017380471399519593,0.00032546851434744895,0.0001056055843946524,0.002962554106488824,0.00041676496039144695,-0.0010908723343163729,0.0,0.0,0.0,0.0,0.0,0.0,0.0,0.0,0.0,4.546453055809252e-05,0.0029752799309790134,-0.0,0.0,0.0,0.0,0.0,0.0,0.0,0.0,0.0,0.0,0.0,0.0,0.0,0.0,0.0,0.0,0.0,0.0,0.0,0.0,0.0,0.0,0.0,0.3390350937843323,-0.10116928868892452,0.08032500634933554,0.1441591561595954,-0.011674684472382069,0.00017905455024447292,0.010840910486876965
640,5,-0.00013924125232733786,0.00026466435519978404,7.23503835615702e-05,0.0057276515290141106,0.008637611754238605,0.004328466486185789,0.0,0.0,0.0,0.0,0.0,0.0,0.0,0.0,0.0,-0.008402279578149319,0.005833399947732687,-0.0,0.0,0.0,0.0,0.0,0.0,0.0,0.0,0.0,0.0,0.0,0.0,0.0,0.0,0.0,0.0,0.0,0.0,0.0,0.0,0.0,0.0,0.0,0.33905133605003357,-0.10084483669111,0.08064227074311112,0.14429008563353557,-0.02289024367928505,-0.032971352338790894,-0.0055205984972417355
645,5,-0.0001610458130016923,0.0002685448562260717,0.0001497339690104127,-0.0013343441532924771,0.002048015594482422,-0.009535161778330803,0.0,0.0,0.0,0.0,0.0,0.0,0.0,0.0,0.0,-0.0016592219471931458,-0.001409313059411943,-0.0,0.0,0.0,0.0,0.0,0.0,0.0,0.0,0.0,0.0,0.0,0.0,0.0,0.0,0.0,0.0,0.0,0.0,0.0,0.0,0.0,0.0,0.0,0.33903440833091736,-0.10116054284372866,0.08198884362729117,0.14382222370825073,0.0055304705165326595,-0.006510262377560139,0.03750815615057945
650,5,-0.00012736833014059812,0.0002140206634066999,0.0001261658180737868,0.004314545542001724,0.008247792720794678,0.00043899324373342097,0.0,0.0,0.0,0.0,0.0,0.0,0.0,0.0,0.0,-0.008041969500482082,0.004388253670185804,-0.0,0.0,0.0,0.0,0.0,0.0,0.0,0.0,0.0,0.0,0.0,0.0,0.0,0.0,0.0,0.0,0.0,0.0,0.0,0.0,0.0,0.0,0.0,0.3390478193759918,-0.10127438661248164,0.0826608162312707,0.14384315403149583,-0.01721961796283722,-0.031557243317365646,0.007785007823258638
655,5,-0.00012552885164041072,0.00025995587930083275,0.00020076663349755108,0.0015518903965130448,-0.003956591710448265,-0.010312416590750217,0.0,0.0,0.0,0.0,0.0,0.0,0.0,0.0,0.0,0.004485476762056351,0.0015650655841454864,-0.0,0.0,0.0,0.0,0.0,0.0,0.0,0.0,0.0,0.0,0.0,0.0,0.0,0.0,0.0,0.0,0.0,0.0,0.0,0.0,0.0,0.0,0.0,0.3390374183654785,-0.10155106833712854,0.0825149459684299,0.1437030249212029,-0.006141070742160082,0.01760167069733143,0.041646428406238556
661,5,-0.0001188060559798032,0.00026301550678908825,0.00014610137441195548,0.001406758208759129,-0.0016153266187757254,0.004559411201626062,0.0,0.0,0.0,0.0,0.0,0.0,0.0,0.0,0.0,0.0021237169858068228,0.0014176840195432305,-0.0,0.0,0.0,0.0,0.0,0.0,0.0,0.0,0.0,0.0,0.0,0.0,0.0,0.0,0.0,0.0,0.0,0.0,0.0,0.0,0.0,0.0,0.0,0.33903470635414124,-0.10147173588320689,0.0833824071344962,0.14367242022069182,-0.0055627585388720036,0.00833401270210743,-0.003030220279470086
666,5,-0.00010737815318861976,0.00022691181220579892,0.0001053750966093503,0.0020219339057803154,0.004569917917251587,0.007069501094520092,0.0,0.0,0.0,0.0,0.0,0.0,0.0,0.0,0.0,-0.004216283094137907,0.0020531145855784416,-0.0,0.0,0.0,0.0,0.0,0.0,0.0,0.0,0.0,0.0,0.0,0.0,0.0,0.0,0.0,0.0,0.0,0.0,0.0,0.0,0.0,0.0,0.0,0.33903732895851135,-0.10135327470607021,0.08331971063297225,0.1437927922097302,-0.008056217804551125,-0.016544373705983162,-0.010622905567288399
671,5,-0.00010269025369780138,0.00019806940690614283,8.947408059611917e-05,0.001262886100448668,0.005408911965787411,0.004346993286162615,0.0,0.0,0.0,0.0,0.0,0.0,0.0,0.0,0.0,-0.005098194349557161,0.001278278767131269,-0.0,0.0,0.0,0.0,0.0,0.0,0.0,0.0,0.0,0.0,0.0,0.0,0.0,0.0,0.0,0.0,0.0,0.0,0.0,0.0,0.0,0.0,0.0,0.33903828263282776,-0.1014235578167323,0.08311440749407908,0.14367810956847202,-0.005015763454139233,-0.020005106925964355,-0.0022976966574788094
676,5,-0.00011639421427389607,0.00022910920961294323,0.00014250408275984228,-0.0015396892558783293,-0.0027228982653468847,-0.006120102480053902,0.0,0.0,0.0,0.0,0.0,0.0,0.0,0.0,0.0,0.0032535840291529894,-0.0016073414590209723,-0.0,0.0,0.0,0.0,0.0,0.0,0.0,0.0,0.0,0.0,0.0,0.0,0.0,0.0,0.0,0.0,0.0,0.0,0.0,0.0,0.0,0.0,0.0,0.33903583884239197,-0.10167721023624382,0.08254110735879772,0.14364310979720604,0.0063072131015360355,0.01276712492108345,0.0302327461540699
681,5,-0.00012733637413475662,0.00025451602414250374,0.00020514857897069305,-0.001993807964026928,-0.004373824689537287,-0.010606260970234871,0.0,0.0,0.0,0.0,0.0,0.0,0.0,0.0,0.0,0.004992942325770855,-0.002095948439091444,-0.0,0.0,0.0,0.0,0.0,0.0,0.0,0.0,0.0,0.0,0.0,0.0,0.0,0.0,0.0,0.0,0.0,0.0,0.0,0.0,0.0,0.0,0.0,0.33903858065605164,-0.10141399359550073,0.082393566130862,0.1435073882191925,0.008224768564105034,0.019593022763729095,0.04517553746700287
686,5,-0.00013211576151661575,0.0001888646511361003,0.00013647499145008624,-0.0012672581942752004,0.007879046723246574,0.006432423833757639,0.0,0.0,0.0,0.0,0.0,0.0,0.0,0.0,0.0,-0.007577996701002121,-0.0013723745942115784,-0.0,0.0,0.0,0.0,0.0,0.0,0.0,0.0,0.0,0.0,0.0,0.0,0.0,0.0,0.0,0.0,0.0,0.0,0.0,0.0,0.0,0.0,0.0,0.33904364705085754,-0.10111510053042165,0.08299413785902772,0.14331309390122207,0.005385201424360275,-0.029736656695604324,-0.00620815996080637
691,5,-0.00014417477359529585,0.00018789760360959917,0.00014445419947151095,-0.002068438334390521,0.0024991005193442106,0.0008126379107125103,0.0,0.0,0.0,0.0,0.0,0.0,0.0,0.0,0.0,-0.0020810363348573446,-0.0022176208440214396,-0.0,0.0,0.0,0.0,0.0,0.0,0.0,0.0,0.0,0.0,0.0,0.0,0.0,0.0,0.0,0.0,0.0,0.0,0.0,0.0,0.0,0.0,0.0,0.33903515338897705,-0.10102871612521265,0.08232578664337752,0.1433002348622121,0.008701958693563938,-0.00816601887345314,0.011283066123723984
