timestamp,dt,pos_x,pos_y,pos_z,vel_x,vel_y,vel_z,roll,pitch,yaw,agv_x,agv_y,agv_z,x_ref,y_ref,z_ref,roll_ref,pitch_ref,yaw_ref,x_vel_ref,y_vel_ref,z_vel_ref,x_torque,y_torque,z_torque,w0,w1,w2,w3,u0,u1,u2,u3,m0req,m1req,m2req,m3req,thrust0,thrust1,thrust2,thrust3,thrust_ref,roll_vicon,pitch_vicon,yaw_vicon,acc_x,acc_y,acc_z
5,5,0.0,0.0,0.0,-0.0011205340269953012,-0.0015023504383862019,-0.003509756177663803,-0.01873479224741459,0.4912751317024231,0.0037715728394687176,0.002309087896719575,-0.0034918251913040876,0.0017706190701574087,0.0,0.0,0.0,0.001435730722732842,-0.0010708463378250599,-0.0,0.0,0.0,0.0,0.0006115463911555707,-0.004999999888241291,0.00011537611135281622,0.0,0.0,0.0,0.0,0.0,0.0,0.0,0.0,0.0,0.0,0.0,0.0,0.0,0.0,0.0,0.0,0.33903414011001587,-0.23724771098427874,-0.5516302479215404,-0.2637493413363045,0.004202002659440041,0.005633814260363579,0.01052926853299141
29,24,0.0,0.0,0.0,-0.005026636179536581,0.0003699967928696424,-0.004320686217397451,-0.01873479224741459,0.4912751317024231,0.0037715728394687176,0.002309087896719575,-0.0034918251913040876,0.0017706190701574087,0.0,0.0,0.0,-0.0003535861033014953,-0.004803705494850874,-0.0,0.0,0.0,0.0,0.0006115463911555707,-0.004999999888241291,0.00011537611135281622,0.0,0.0,0.0,0.0,0.0,0.0,0.0,0.0,0.0,0.0,0.0,0.0,0.0,0.0,0.0,0.0,0.33903753757476807,-0.23545265510246324,-0.550990664359428,-0.26352331553888814,0.01884988509118557,-0.0013874879805371165,0.012962058186531067
34,5,0.0,0.0,0.0,-0.0009230119758285582,-0.0006553439307026565,-0.00048633068217895925,-0.01873479224741459,0.4912751317024231,0.0037715728394687176,0.002309087896719575,-0.0034918251913040876,0.0017706190701574087,0.0,0.0,0.0,-0.0003535861033014953,-0.004803705494850874,-0.0,0.0,0.0,0.0,0.0006115463911555707,-0.004999999888241291,0.00011537611135281622,0.0,0.0,0.0,0.0,0.0,0.0,0.0,0.0,0.0,0.0,0.0,0.0,0.0,0.0,0.0,0.0,0.33903753757476807,-0.23598529146765992,-0.5510457945448161,-0.2632850322389045,0.01884988509118557,-0.0013874879805371165,0.012962058186531067
39,5,0.0,0.0,0.0,-0.0009230119758285582,-0.0006553439307026565,-0.00048633068217895925,-0.01872546784579754,0.49128279089927673,0.003775527933612466,0.001389464596286416,-0.002494744723662734,0.0025500417686998844,0.0,0.0,0.0,0.0006262840470299125,-0.0008820830844342709,-0.0,0.0,0.0,0.0,0.0006597497267648578,-0.004999999888241291,0.00011565792374312878,0.0,0.0,0.0,0.0,0.0,0.0,0.0,0.0,0.0,0.0,0.0,0.0,0.0,0.0,0.0,0.0,0.3390338122844696,-0.23598529146765992,-0.5510457945448161,-0.2632850322389045,0.0034612948074936867,0.0024575397837907076,0.0014589920174330473
44,5,3.507064320729114e-05,7.169430773501517e-06,1.5708877754150308e-06,0.002325830515474081,-0.0032211793586611748,-6.429529457818717e-05,-0.01872546784579754,0.49128279089927673,0.003775527933612466,0.001389464596286416,-0.002494744723662734,0.0025500417686998844,0.0,0.0,0.0,0.0030886821914464235,0.002273350954055786,-0.0,0.0,0.0,0.0,0.0006668230053037405,-0.004999999888241291,0.00011659620940918103,0.0,0.0,0.0,0.0,0.0,0.0,0.0,0.0,0.0,0.0,0.0,0.0,0.0,0.0,0.0,0.0,0.33903610706329346,-0.23636798070456957,-0.5514288966238309,-0.2633986367515952,-0.008920697495341301,0.012120069935917854,0.00022088695550337434
49,5,1.785789027053397e-05,-1.0291661055816803e-05,2.308895818714518e-05,-0.0017120364354923368,0.0014781990321353078,-0.0030318184290081263,-0.01872546784579754,0.49128279089927673,0.003775527933612466,0.001389464596286416,-0.002494744723662734,0.0025500417686998844,0.0,0.0,0.0,-0.0014267618535086513,-0.0016095605678856373,-0.0,0.0,0.0,0.0,0.0006668230053037405,-0.004999999888241291,0.00011659620940918103,0.0,0.0,0.0,0.0,0.0,0.0,0.0,0.0,0.0,0.0,0.0,0.0,0.0,0.0,0.0,0.0,0.33903437852859497,-0.23549559077382604,-0.5510448350264079,-0.26338893689582293,0.006315894424915314,-0.005598640069365501,0.009446843527257442
55,5,1.4382469998963643e-05,-1.4560662748408504e-05,1.2979622624698095e-05,-0.0010001696646213531,0.0010411200346425176,0.0005057613598182797,-0.01871858909726143,0.4913196265697479,0.0037830073852092028,0.002032315591350198,-0.0031138400081545115,-0.003965975251048803,0.0,0.0,0.0,-0.0010161896934732795,-0.0009326031431555748,-0.0,0.0,0.0,0.0,0.0006324907881207764,-0.004999999888241291,0.00010895696323132142,16415.0,28278.0,31411.0,16310.0,0.054479558020830154,0.10732404887676239,0.1231684684753418,0.05406174436211586,0.0,0.0,0.0,0.0,0.0,0.0,0.0,0.0,0.33903393149375916,-0.235492025911262,-0.5513799067551463,-0.2630495799010495,0.003659514244645834,-0.003987553529441357,-0.0012036635307595134
60,5,2.9212245863163844e-05,-2.5578332497389056e-05,1.809922309803369e-06,0.0017761177150532603,0.0018548095831647515,0.001715486403554678,-0.01871858909726143,0.4913196265697479,0.0037830073852092028,0.002032315591350198,-0.0031138400081545115,-0.003965975251048803,0.0,0.0,0.0,-0.0018094123806804419,0.001741536776535213,-0.0,0.0,0.0,0.0,0.0006324907881207764,-0.004999999888241291,0.00010895696323132142,16415.0,28278.0,31411.0,16310.0,0.054479558020830154,0.10732404887676239,0.1231684684753418,0.05406174436211586,0.0,0.0,0.0,0.0,0.0,0.0,0.0,0.0,0.33903467655181885,-0.23871282279840372,-0.5529524216925733,-0.2645829830568115,-0.0068338410928845406,-0.007100191432982683,-0.004991487134248018
65,5,7.682703289901838e-05,-5.250149843050167e-05,-0.00011493905913084745,0.007198905106633902,0.004325686022639275,0.016859503462910652,-0.01871858909726143,0.4913196265697479,0.0037830073852092028,0.002032315591350198,-0.0031138400081545115,-0.003965975251048803,0.0,0.0,0.0,-0.0042097182013094425,0.006992093287408352,-0.0,0.0,0.0,0.0,0.0006324907881207764,-0.004999999888241291,0.00010895696323132142,16415.0,28278.0,31411.0,16310.0,0.054479558020830154,0.10732404887676239,0.1231684684753418,0.05406174436211586,0.0,0.0,0.0,0.0,0.0,0.0,0.0,0.0,0.3390448987483978,-0.24446558873057012,-0.5552010912905131,-0.2666208572177647,-0.027437536045908928,-0.016519512981176376,-0.05218316614627838
70,5,0.0003004468744620681,-2.0924326236126944e-05,-0.0003830231144092977,0.03346644714474678,-0.003123098285868764,0.042589619755744934,-0.01870843954384327,0.4913176894187927,0.0038014340680092573,-0.005699488800019026,-0.013202094472944736,0.005391527898609638,0.0,0.0,0.0,0.0031851676758378744,0.03182552754878998,-0.0,0.0,0.0,0.0,0.0007262426079250872,-0.004999999888241291,0.00012145213986514136,16389.0,28067.0,31611.0,16337.0,0.054374709725379944,0.10628672689199448,0.12420693784952164,0.054167740046978,0.0,0.0,0.0,0.0,16650.0,28192.0,31493.0,16074.0,0.34539544582366943,-0.25552304381855345,-0.5525076776138036,-0.26944138692389896,-0.12720508873462677,0.011575514450669289,-0.1341867744922638
75,5,-0.00013566241250373423,9.856516408035532e-05,3.3127151255030185e-05,-0.05101536586880684,-0.017665458843111992,-0.04548415169119835,-0.018641332164406776,0.4917323887348175,0.0036197297740727663,-0.0020676078274846077,-0.031463172286748886,-0.04103239253163338,0.0,0.0,0.0,0.01750836707651615,-0.04578164219856262,-0.0,0.0,0.0,0.0,0.0005880150129087269,-0.004999999888241291,6.973261042730883e-05,16115.0,28629.0,31075.0,16610.0,0.05328718572854996,0.10905886441469193,0.12143371254205704,0.05525417625904083,0.0,0.0,0.0,0.0,16650.0,28192.0,31493.0,16074.0,0.36250266432762146,-0.24558404949614077,-0.5328465021047588,-0.26784361013300223,0.19198665022850037,0.06677616387605667,0.1357102245092392
81,6,0.00010055893653770909,0.0006923823966644704,-7.464404916390777e-05,0.032243337482213974,-0.04355471953749657,-0.020765120163559914,-0.018641332164406776,0.4917323887348175,0.0036197297740727663,-0.0020676078274846077,-0.031463172286748886,-0.04103239253163338,0.0,0.0,0.0,0.04377289116382599,0.028935855254530907,-0.0,0.0,0.0,0.0,0.0005880150129087269,-0.004999999888241291,6.973261042730883e-05,16115.0,28629.0,31075.0,16610.0,0.05328718572854996,0.10905886441469193,0.12143371254205704,0.05525417625904083,0.0,0.0,0.0,0.0,16650.0,28192.0,31493.0,16074.0,0.3633503317832947,-0.20518997381333035,-0.5375497449017903,-0.24372070082560104,-0.12155473232269287,0.16727852821350098,0.05966411158442497
87,6,0.0001030425846693106,0.0007201361586339772,-0.00010160495003219694,0.01002071239054203,-0.016951942816376686,-0.0024550107773393393,-0.018641332164406776,0.4917323887348175,0.0036197297740727663,-0.0020676078274846077,-0.031463172286748886,-0.04103239253163338,0.0,0.0,0.0,0.018967697396874428,0.00974328350275755,-0.0,0.0,0.0,0.0,0.0005880150129087269,-0.004999999888241291,6.973261042730883e-05,16115.0,28629.0,31075.0,16610.0,0.05328718572854996,0.10905886441469193,0.12143371254205704,0.05525417625904083,0.0,0.0,0.0,0.0,16650.0,28192.0,31493.0,16074.0,0.33911070227622986,-0.1988564618191459,-0.5360917969370046,-0.24327226079931358,-0.03823385387659073,0.06767287105321884,0.00432496378198266
92,5,0.00016246283485088497,0.00015250408614519984,0.000295528385322541,0.011325049214065075,0.07438290864229202,-0.05633516609668732,-0.018694156780838966,0.4918038845062256,0.0034377279225736856,-0.0013232899364084005,0.0371648408472538,0.03340613842010498,0.0,0.0,0.0,-0.0694858580827713,0.009898641146719456,-0.0,0.0,0.0,0.0,0.0004858077154494822,-0.004999999888241291,0.000144548001117073,16972.0,28190.0,31495.0,15748.0,0.05670476704835892,0.10689321160316467,0.12360484898090363,0.05184207856655121,0.0,0.0,0.0,0.0,15520.0,29069.0,30649.0,17191.0,0.3803834319114685,-0.26080078609908136,-0.5484802394455717,-0.25422460535297775,-0.0434739887714386,-0.27780503034591675,0.1715940535068512
98,6,0.00014222173194866627,0.0003053959517274052,0.00017409995780326426,0.0005637603462673724,0.0009100102470256388,9.942753968061879e-05,-0.018694156780838966,0.4918038845062256,0.0034377279225736856,-0.0013232899364084005,0.0371648408472538,0.03340613842010498,0.0,0.0,0.0,-0.00039740747888572514,0.0007725842879153788,-0.0,0.0,0.0,0.0,0.0004858077154494822,-0.004999999888241291,0.000144548001117073,16972.0,28190.0,31495.0,15748.0,0.05670476704835892,0.10689321160316467,0.12360484898090363,0.05184207856655121,0.0,0.0,0.0,0.0,15520.0,29069.0,30649.0,17191.0,0.33903372287750244,-0.2439110944911473,-0.5452706662158607,-0.25032506081569617,-0.003031834727153182,-0.0014172032242640853,0.0011881397804245353
103,5,9.900279837893322e-05,0.0005200507584959269,7.408294914057478e-05,-0.005881522316485643,-0.029778674244880676,0.014032210223376751,-0.018561987206339836,0.4908197522163391,0.0034865732304751873,0.014095361344516277,0.06918627768754959,-0.00441361777484417,0.0,0.0,0.0,0.03184884414076805,-0.0053802612237632275,-0.0,0.0,0.0,0.0,0.001157649327069521,-0.004999999888241291,9.162935748463497e-05,16920.0,28946.0,33016.0,18700.0,0.056497637182474136,0.11063523590564728,0.13159091770648956,0.06377729773521423,0.0,0.0,0.0,0.0,17089.0,28166.0,31518.0,15627.0,0.34297633171081543,-0.22608066413902977,-0.5432215652905495,-0.2484670773259109,0.02134673111140728,0.11490859091281891,-0.04152102395892143
108,5,7.313617970794439e-05,0.0004870383709203452,7.483530498575419e-05,-0.005385783966630697,-0.004311862867325544,0.004104332532733679,-0.018561987206339836,0.4908197522163391,0.0034865732304751873,0.014095361344516277,0.06918627768754959,-0.00441361777484417,0.0,0.0,0.0,0.005414912477135658,-0.004998131189495325,-0.0,0.0,0.0,0.0,0.001157649327069521,-0.004999999888241291,9.162935748463497e-05,16920.0,28946.0,33016.0,18700.0,0.056497637182474136,0.11063523590564728,0.13159091770648956,0.06377729773521423,0.0,0.0,0.0,0.0,17089.0,28166.0,31518.0,15627.0,0.3390428125858307,-0.22550992814225637,-0.542664038655949,-0.2500620992274435,0.019612720236182213,0.019317597150802612,-0.011509356088936329
113,5,0.00011770230048568919,0.00043514848221093416,9.059174044523388e-05,0.004623521585017443,0.00597102427855134,-0.0009746011928655207,-0.018608294427394867,0.4908849596977234,0.0038545741699635983,0.005246718414127827,-0.061695706099271774,0.023743029683828354,0.0,0.0,0.0,-0.0054466999135911465,0.004633580334484577,-0.0,0.0,0.0,0.0,0.0006843344890512526,-0.004999999888241291,7.419487519655377e-05,16155.0,27051.0,32564.0,16580.0,0.05344540625810623,0.10133455693721771,0.12919646501541138,0.055134400725364685,0.0,0.0,0.0,0.0,15413.0,27544.0,32108.0,17304.0,0.3390422761440277,-0.2322205055805269,-0.5432188159484674,-0.24841361318413976,-0.018182476982474327,-0.019429579377174377,0.004219806753098965
118,5,0.00010635179205564782,0.00030815176432952285,0.00016755092656239867,-0.000202013980015181,0.01957084611058235,-0.01106666587293148,-0.018608294427394867,0.4908849596977234,0.0038545741699635983,0.005246718414127827,-0.061695706099271774,0.023743029683828354,0.0,0.0,0.0,-0.01991100423038006,1.2525612874014769e-05,-0.0,0.0,0.0,0.0,0.0006843344890512526,-0.004999999888241291,7.419487519655377e-05,16155.0,27051.0,32564.0,16580.0,0.05344540625810623,0.10133455693721771,0.12919646501541138,0.055134400725364685,0.0,0.0,0.0,0.0,15413.0,27544.0,32108.0,17304.0,0.33910080790519714,-0.244216317155722,-0.5453590197896023,-0.2513418791033349,-4.9150505219586194e-05,-0.07103574275970459,0.03597357124090195
123,5,7.990644371602684e-05,0.0004280996508896351,0.000146114471135661,-0.0037629532162100077,-0.010921447537839413,-0.00031889695674180984,-0.01882522739470005,0.4916107952594757,0.003620167961344123,-0.03594718128442764,-0.02014666609466076,-0.013836345635354519,0.0,0.0,0.0,0.01234335545450449,-0.003421975765377283,-0.0,0.0,0.0,0.0,0.0006841244176030159,-0.004999999888241291,0.00011818759230664,16423.0,28145.0,31539.0,16303.0,0.05451139435172081,0.10666703432798386,0.12382998317480087,0.054034408181905746,0.0,0.0,0.0,0.0,16350.0,28261.0,31427.0,16376.0,0.3390614092350006,-0.2341594429061329,-0.5423353414024339,-0.25004175608643764,0.013427885249257088,0.04403422027826309,0.003985697869211435
128,5,4.515751788858324e-05,0.00044745998457074165,0.00018378242384642363,-0.005993735510855913,-0.005986883770674467,-0.005369181279093027,-0.01882522739470005,0.4916107952594757,0.003620167961344123,-0.03594718128442764,-0.02014666609466076,-0.013836345635354519,0.0,0.0,0.0,0.007180706597864628,-0.0055496725253760815,-0.0,0.0,0.0,0.0,0.0006841244176030159,-0.004999999888241291,0.00011818759230664,16423.0,28145.0,31539.0,16303.0,0.05451139435172081,0.10666703432798386,0.12382998317480087,0.054034408181905746,0.0,0.0,0.0,0.0,16350.0,28261.0,31427.0,16376.0,0.33904755115509033,-0.23163307735450478,-0.5404083893623994,-0.25020590115960967,0.021968189626932144,0.025723449885845184,0.020199300721287727
133,5,1.747750138747506e-05,0.00047663654549978673,0.00020069022139068693,-0.005673322826623917,-0.005880783777683973,-0.0039778463542461395,-0.018522774800658226,0.49018150568008423,0.0037466613575816154,0.010431261733174324,0.07238377630710602,0.0065459138713777065,0.0,0.0,0.0,0.007168687880039215,-0.005328736267983913,-0.0,0.0,0.0,0.0,-5.0647955504246056e-05,-0.004999999888241291,0.00012828069156967103,17633.0,28976.0,30746.0,15068.0,0.05938280373811722,0.11078522354364395,0.11974076181650162,0.04919196665287018,0.0,0.0,0.0,0.0,16386.0,28075.0,31604.0,16341.0,0.3390471339225769,-0.23278571935038178,-0.5402835086564616,-0.25248804728508084,0.02091015875339508,0.02557338960468769,0.016877051442861557
138,5,8.122269355226308e-05,0.00029765404178760946,0.00023195589892566204,0.00722232973203063,0.02329331822693348,-0.005570549517869949,-0.018522774800658226,0.49018150568008423,0.0037466613575816154,0.010431261733174324,0.07238377630710602,0.0065459138713777065,0.0,0.0,0.0,-0.023744290694594383,0.007085195276886225,-0.0,0.0,0.0,0.0,-5.0647955504246056e-05,-0.004999999888241291,0.00012828069156967103,17633.0,28976.0,30746.0,15068.0,0.05938280373811722,0.11078522354364395,0.11974076181650162,0.04919196665287018,0.0,0.0,0.0,0.0,16386.0,28075.0,31604.0,16341.0,0.3391377031803131,-0.24799883421861268,-0.5455409159880518,-0.2535795588221762,-0.02780277095735073,-0.08471764624118805,0.022802257910370827
143,5,-3.7515987969527487e-06,0.0006403239094652236,0.00020404720271471888,-0.009729702025651932,-0.04098578914999962,0.002236053580418229,-0.018522774800658226,0.49018150568008423,0.0037466613575816154,0.010431261733174324,0.07238377630710602,0.0065459138713777065,0.0,0.0,0.0,-0.02372702583670616,0.007089479826390743,-0.0,0.0,0.0,0.0,0.0008849477162584662,-0.004999999888241291,4.6333661885000765e-05,15432.0,28440.0,31258.0,17278.0,0.05060698091983795,0.10812485218048096,0.12237463891506195,0.05794129520654678,0.0,0.0,0.0,0.0,17628.0,29085.0,30640.0,15073.0,0.33913758397102356,-0.21933062869736497,-0.538685425207284,-0.2519226982223542,0.03621789813041687,0.1582762598991394,-0.00023083339328877628
149,5,2.07982611755142e-05,0.0006597659667022526,0.0002565268659964204,0.0005180697189643979,-0.015017624944448471,-0.006676338613033295,-0.018522774800658226,0.49018150568008423,0.0037466613575816154,0.010431261733174324,0.07238377630710602,0.0065459138713777065,0.0,0.0,0.0,0.017129406332969666,0.0005977860419079661,-0.0,0.0,0.0,0.0,0.0008849477162584662,-0.004999999888241291,4.6333661885000765e-05,15432.0,28440.0,31258.0,17278.0,0.05060698091983795,0.10812485218048096,0.12237463891506195,0.05794129520654678,0.0,0.0,0.0,0.0,17628.0,29085.0,30640.0,15073.0,0.33908340334892273,-0.22096137001712746,-0.5407254579895513,-0.25446332466422245,-0.002345712622627616,0.06111021339893341,0.027867494150996208
154,5,7.659861876163632e-05,0.0004603434354066849,0.00014584121527150273,0.007967471145093441,0.023413868620991707,0.013493090867996216,-0.018698053434491158,0.4910699725151062,0.003608790459111333,0.02081943489611149,-0.07092109322547913,-0.02510903775691986,0.0,0.0,0.0,-0.02353452332317829,0.007796026300638914,-0.0,0.0,0.0,0.0,-0.0001600231189513579,-0.004999999888241291,8.225854980992153e-05,17377.0,29454.0,30282.0,15341.0,0.058341700583696365,0.11317861080169678,0.11736580729484558,0.05025150254368782,0.0,0.0,0.0,0.0,15660.0,28203.0,31484.0,17057.0,0.33913782238960266,-0.23217241037648248,-0.5454041061523536,-0.25588844668901745,-0.03059222735464573,-0.08396942913532257,-0.03342524170875549
159,5,5.801551014883444e-05,0.0007109990110620856,0.0002006246504606679,-0.00021139396994840354,-0.02806762047111988,-0.003621754003688693,-0.018698053434491158,0.4910699725151062,0.003608790459111333,0.02081943489611149,-0.07092109322547913,-0.02510903775691986,0.0,0.0,0.0,0.030770398676395416,-4.184877252555452e-05,-0.0,0.0,0.0,0.0,-0.0001600231189513579,-0.004999999888241291,8.225854980992153e-05,17377.0,29454.0,30282.0,15341.0,0.058341700583696365,0.11317861080169678,0.11736580729484558,0.05025150254368782,0.0,0.0,0.0,0.0,15660.0,28203.0,31484.0,17057.0,0.34155017137527466,-0.21256850344324751,-0.5408924957648575,-0.25407720188425764,0.00016535520262550563,0.1105576679110527,0.019230982288718224
164,5,0.00011133994848933071,0.0006127737578935921,0.00011682192416628823,0.007402003277093172,0.005331245716661215,0.010645855218172073,-0.018648462370038033,0.4907790422439575,0.0037015231791883707,0.03614746779203415,0.11739781498908997,0.004384916741400957,0.0,0.0,0.0,-0.004235320258885622,0.007310775574296713,-0.0,0.0,0.0,0.0,0.0010890841949731112,-0.004999999888241291,0.00010457055032020435,15672.0,27747.0,31917.0,17050.0,0.051544226706027985,0.10471606254577637,0.12580133974552155,0.057021960616111755,0.0,0.0,0.0,0.0,17678.0,29416.0,30319.0,15025.0,0.3390457034111023,-0.21002613437729473,-0.5419484361313236,-0.25422842437233284,-0.028687994927167892,-0.015109020285308361,-0.024269232526421547
169,5,2.3691605747444555e-05,0.000878346327226609,0.0004483899683691561,-0.010050167329609394,-0.03558078035712242,-0.04322576895356178,-0.018648462370038033,0.4907790422439575,0.0037015231791883707,0.03614746779203415,0.11739781498908997,0.004384916741400957,0.0,0.0,0.0,0.038080375641584396,-0.009212997741997242,-0.0,0.0,0.0,0.0,0.0010890841949731112,-0.004999999888241291,0.00010457055032020435,15672.0,27747.0,31917.0,17050.0,0.051544226706027985,0.10471606254577637,0.12580133974552155,0.057021960616111755,0.0,0.0,0.0,0.0,17678.0,29416.0,30319.0,15025.0,0.3492855429649353,-0.19905677291129806,-0.5413752082046561,-0.2492061660403354,0.037217460572719574,0.13989529013633728,0.14271880686283112
174,5,-4.0527618693886325e-05,0.0007106414996087551,0.0002816597407218069,-0.012005741707980633,0.012804443016648293,0.010374502278864384,-0.018648462370038033,0.4907790422439575,0.0037015231791883707,0.03614746779203415,0.11739781498908997,0.004384916741400957,0.0,0.0,0.0,0.03811369836330414,-0.011441963724792004,-0.0,0.0,0.0,0.0,0.0010890841949731112,-0.004999999888241291,0.00010457055032020435,15672.0,27747.0,31917.0,17050.0,0.051544226706027985,0.10471606254577637,0.12580133974552155,0.057021960616111755,0.0,0.0,0.0,0.0,17678.0,29416.0,30319.0,15025.0,0.3390796482563019,-0.20921297104991557,-0.539597388714894,-0.255421073255497,0.04490022361278534,-0.04232567921280861,-0.019342849031090736
179,5,-0.00010331202793167904,0.0008252899278886616,0.00024682472576387227,-0.012391539290547371,-0.012209453620016575,0.007989251054823399,-0.018647070974111557,0.489635705947876,0.0038506987038999796,0.005195487290620804,0.07225104421377182,-0.0024773029144853354,0.0,0.0,0.0,0.014646435156464577,-0.01190080214291811,-0.0,0.0,0.0,0.0,0.0015830839984118938,-0.004999999888241291,0.00012064578186254948,15213.0,27132.0,32723.0,17798.0,0.04975500330328941,0.101727195084095,0.13003651797771454,0.06005748361349106,0.0,0.0,0.0,0.0,16071.0,27198.0,32426.0,16659.0,0.33909398317337036,-0.191445366752877,-0.538070074385056,-0.25202754780448194,0.046701107174158096,0.05225585773587227,-0.01173433754593134
184,5,-9.772343764780089e-05,0.000652747810818255,0.00034680511453188956,-0.002935060067102313,0.02049306221306324,-0.01160048134624958,-0.018647070974111557,0.489635705947876,0.0038506987038999796,0.005195487290620804,0.07225104421377182,-0.0024773029144853354,0.0,0.0,0.0,-0.019943930208683014,-0.002861970802769065,-0.0,0.0,0.0,0.0,0.0015830839984118938,-0.004999999888241291,0.00012064578186254948,15213.0,27132.0,32723.0,17798.0,0.04975500330328941,0.101727195084095,0.13003651797771454,0.06005748361349106,0.0,0.0,0.0,0.0,16071.0,27198.0,32426.0,16659.0,0.3391024172306061,-0.20781602636953375,-0.5413616899603697,-0.2572288927763586,0.01123055163770914,-0.07115254551172256,0.04941829293966293
189,5,-0.00012344541028141975,0.0006980887847021222,0.0003882195451296866,-0.004481594543904066,-0.0001998202787945047,-0.009278162382543087,-0.018665263429284096,0.4883013665676117,0.003683074377477169,-0.0371108204126358,0.23132959008216858,0.007871593348681927,0.0,0.0,0.0,0.0019147552084177732,-0.00438119238242507,-0.0,0.0,0.0,0.0,0.0017311898991465569,-0.004999999888241291,0.00013032741844654083,15073.0,26870.0,32961.0,17930.0,0.04921317473053932,0.10046285390853882,0.13130085170269012,0.06059931218624115,0.0,0.0,0.0,0.0,14655.0,27482.0,32401.0,18322.0,0.3390374779701233,-0.20251511572659964,-0.5396478174387777,-0.25662513341971405,0.017192095518112183,0.006831573322415352,0.04428287595510483
194,5,-0.00011476279178168625,0.0002863852132577449,0.00047232588985934854,-0.00012891049846075475,0.05757855623960495,-0.014558338560163975,-0.018665263429284096,0.4883013665676117,0.003683074377477169,-0.0371108204126358,0.23132959008216858,0.007871593348681927,0.0,0.0,0.0,-0.05529489740729332,-0.00020102958660572767,-0.0,0.0,0.0,0.0,0.0017311898991465569,-0.004999999888241291,0.00013032741844654083,15073.0,26870.0,32961.0,17930.0,0.04921317473053932,0.10046285390853882,0.13130085170269012,0.06059931218624115,0.0,0.0,0.0,0.0,14655.0,27482.0,32401.0,18322.0,0.36456364393234253,-0.23005401298248482,-0.5446257257969922,-0.2591820538552077,0.0008469452150166035,-0.21195991337299347,0.06270705163478851
199,5,1.914709537231829e-05,0.0001687594485701993,0.0005927481688559055,0.018708709627389908,0.03374117612838745,-0.02122662030160427,-0.018565429374575615,0.4842042624950409,0.0036121653392910957,0.060567308217287064,0.4310756325721741,-0.0003767267626244575,0.0,0.0,0.0,-0.03358474746346474,0.01748514734208584,-0.0,0.0,0.0,0.0,0.00011037792864954099,-0.004999999888241291,8.570267527829856e-05,16997.0,29096.0,30627.0,15726.0,0.056806936860084534,0.11138682067394257,0.11912861466407776,0.05175728350877762,0.0,0.0,0.0,0.0,17985.0,28954.0,30768.0,14694.0,0.3486342430114746,-0.24245823857156953,-0.5475795827031025,-0.25973158368997323,-0.07051129639148712,-0.12316712737083435,0.085911825299263
204,5,6.0021469835191965e-05,-0.0002507565950509161,0.0008322339272126555,0.011335025541484356,0.06885460019111633,-0.03989599645137787,-0.018565429374575615,0.4842042624950409,0.0036121653392910957,0.060567308217287064,0.4310756325721741,-0.0003767267626244575,0.0,0.0,0.0,-0.06510694324970245,0.009930447675287724,-0.0,0.0,0.0,0.0,0.00011037792864954099,-0.004999999888241291,8.570267527829856e-05,16997.0,29096.0,30627.0,15726.0,0.056806936860084534,0.11138682067394257,0.11912861466407776,0.05175728350877762,0.0,0.0,0.0,0.0,17985.0,28954.0,30768.0,14694.0,0.3756938874721527,-0.2801744169932578,-0.5532268334722554,-0.2669959270793511,-0.04308854788541794,-0.2571237087249756,0.14729677140712738
210,5,3.0129015158308903e-06,4.132055983063765e-05,0.0007377190631814301,-0.004580691922456026,-0.020234422758221626,0.001263282960280776,-0.01867770589888096,0.47987762093544006,0.0037738564424216747,-0.04020383208990097,0.6120021343231201,0.010319400578737259,0.0,0.0,0.0,0.022009415552020073,-0.0043065049685537815,-0.0,0.0,0.0,0.0,1.9138002244289964e-05,-0.004999999888241291,0.00014976650709286332,17725.0,28729.0,30985.0,14971.0,0.05975940823554993,0.10955841094255447,0.12096840888261795,0.048816196620464325,0.0,0.0,0.0,0.0,20480.0,31668.0,30554.0,15274.0,0.3391188681125641,-0.2556056519049301,-0.5439824737068613,-0.2609375222199175,0.016898823902010918,0.07852485775947571,0.0248605627566576
215,5,5.2471208618953824e-05,5.070112820249051e-05,0.0007550689624622464,0.005549955647438765,-0.007383605930954218,-0.0020499962847679853,-0.01867770589888096,0.47987762093544006,0.0037738564424216747,-0.04020383208990097,0.6120021343231201,0.010319400578737259,0.0,0.0,0.0,0.008520109578967094,0.0054444787092506886,-0.0,0.0,0.0,0.0,1.9138002244289964e-05,-0.004999999888241291,0.00014976650709286332,17725.0,28729.0,30985.0,14971.0,0.05975940823554993,0.10955841094255447,0.12096840888261795,0.048816196620464325,0.0,0.0,0.0,0.0,20480.0,31668.0,30554.0,15274.0,0.33905091881752014,-0.24140436239946392,-0.541601981080662,-0.25886330522780915,-0.021364346146583557,0.03039461374282837,0.0376276932656765
220,5,1.746841189742554e-05,0.00014117691898718476,0.0007870512781664729,-0.0032354050781577826,-0.014881692826747894,-0.005092526786029339,-0.01876036450266838,0.47062385082244873,0.0037003052420914173,0.004724259953945875,0.9054527878761292,0.006977335549890995,0.0,0.0,0.0,0.01654401607811451,-0.0029975674115121365,-0.0,0.0,0.0,0.0,-0.0011587529443204403,-0.004999999888241291,0.00012265185068827122,20708.0,31594.0,30629.0,15021.0,0.07229482382535934,0.12411729991436005,0.11913930624723434,0.04901057481765747,0.0,0.0,0.0,0.0,21893.0,32727.0,30556.0,15121.0,0.3390815258026123,-0.23204528369589322,-0.5345600280562753,-0.2553239270117745,0.011762489564716816,0.0590217299759388,0.049902234226465225
225,5,0.00011414958134992048,0.0001804768107831478,0.0008034920319914818,0.012564742006361485,-0.009966492652893066,-0.0038294619880616665,-0.01876036450266838,0.47062385082244873,0.0037003052420914173,0.004724259953945875,0.9054527878761292,0.006977335549890995,0.0,0.0,0.0,0.011446247808635235,0.012238096445798874,-0.0,0.0,0.0,0.0,-0.0011587529443204403,-0.004999999888241291,0.00012265185068827122,20708.0,31594.0,30629.0,15021.0,0.07229482382535934,0.12411729991436005,0.11913930624723434,0.04901057481765747,0.0,0.0,0.0,0.0,21893.0,32727.0,30556.0,15121.0,0.33908119797706604,-0.22664638985219326,-0.5329564713047237,-0.2518391086302108,-0.04802468791604042,0.04083641991019249,0.04915697127580643
230,5,-5.7658831792650744e-05,0.0005490172770805657,0.0007126594427973032,-0.020283754914999008,-0.054585617035627365,0.011567723006010056,-0.018726149573922157,0.46232131123542786,0.0036979648284614086,-0.03482107073068619,1.0338363647460938,0.06534285098314285,0.0,0.0,0.0,0.054447468370199203,-0.01792876236140728,-0.0,0.0,0.0,0.0,-0.0015105336206033826,-0.0037661902606487274,0.00021210350678302348,24244.0,30442.0,29932.0,16253.0,0.08808433264493942,0.11818485707044601,0.1155923381447792,0.05383456498384476,0.0,0.0,0.0,0.0,19880.0,24270.0,30309.0,18895.0,0.3671981692314148,-0.19868575415119402,-0.5182020292678119,-0.2487768777651771,0.07607986778020859,0.21022413671016693,0.0043257176876068115
235,5,6.202859822224127e-06,0.0003529669193085283,0.0007984834956005216,0.0028555102180689573,0.011071369983255863,-0.008545050397515297,-0.018726149573922157,0.46232131123542786,0.0036979648284614086,-0.03482107073068619,1.0338363647460938,0.06534285098314285,0.0,0.0,0.0,-0.010364239104092121,0.0028119650669395924,-0.0,0.0,0.0,0.0,-0.0015105336206033826,-0.0037661902606487274,0.00021210350678302348,24244.0,30442.0,29932.0,16253.0,0.08808433264493942,0.11818485707044601,0.1155923381447792,0.05383456498384476,0.0,0.0,0.0,0.0,19880.0,24270.0,30309.0,18895.0,0.3390531539916992,-0.2163002262904233,-0.5156807715132263,-0.250101027014119,-0.011034180410206318,-0.03697330877184868,0.06807305663824081
240,5,-2.1654625015798956e-05,0.000714029825758189,0.0006061641033738852,-0.0030433947686105967,-0.0472274012863636,0.024361200630664825,-0.018819062039256096,0.44696077704429626,0.003613065928220749,0.026564154773950577,1.4375510215759277,0.005699050147086382,0.0,0.0,0.0,0.048767443746328354,-0.002714026952162385,-0.0,0.0,0.0,0.0,0.0008410285809077322,0.00022102276852820069,8.501404954586178e-05,23384.0,21356.0,25027.0,24240.0,0.08415438234806061,0.0751146525144577,0.09171542525291443,0.08806648850440979,0.0,0.0,0.0,0.0,23659.0,21068.0,25926.0,23315.0,0.35820823907852173,-0.19442706644311633,-0.4937810175162023,-0.2371477593218562,0.011238804087042809,0.18370868265628815,-0.03077499195933342
245,5,5.1010654715355486e-05,0.0008436049683950841,0.0005904565914534032,0.009260120801627636,-0.03230873495340347,0.009507414884865284,-0.018819062039256096,0.44696077704429626,0.003613065928220749,0.026564154773950577,1.4375510215759277,0.005699050147086382,0.0,0.0,0.0,0.03526368737220764,0.008801480755209923,-0.0,0.0,0.0,0.0,0.0008410285809077322,0.00022102276852820069,8.501404954586178e-05,23384.0,21356.0,25027.0,24240.0,0.08415438234806061,0.0751146525144577,0.09171542525291443,0.08806648850440979,0.0,0.0,0.0,0.0,23659.0,21068.0,25926.0,23315.0,0.3467036187648773,-0.1885611240086837,-0.48170881321390446,-0.23102933036032006,-0.035295937210321426,0.1286051720380783,0.015351342037320137
250,5,7.377856672974303e-05,0.0009475699625909328,0.0007931055733934045,0.0029393252916634083,-0.01342041790485382,-0.01870575360953808,-0.01880250871181488,0.4342344403266907,0.0036870031617581844,-0.024950990453362465,1.7385475635528564,0.039112672209739685,0.0,0.0,0.0,0.016397083178162575,0.0029886560514569283,-0.0,0.0,0.0,0.0,0.0010167108848690987,0.0037783212028443813,0.00015608611283823848,28300.0,15201.0,21044.0,28452.0,0.1074335053563118,0.04970819875597954,0.07375533133745193,0.10818419605493546,0.0,0.0,0.0,0.0,29086.0,13850.0,21616.0,28202.0,0.33908069133758545,-0.18280726131776817,-0.464715284759734,-0.2294893300080111,-0.011727521196007729,0.058497462421655655,0.10482265800237656
255,5,4.3778822146123275e-05,0.0007131511811167002,0.0008910307078622282,-0.0033181665930896997,0.028792506083846092,-0.019321242347359657,-0.01880250871181488,0.4342344403266907,0.0036870031617581844,-0.024950990453362465,1.7385475635528564,0.039112672209739685,0.0,0.0,0.0,-0.028248360380530357,-0.0030264146625995636,-0.0,0.0,0.0,0.0,0.0010167108848690987,0.0037783212028443813,0.00015608611283823848,28300.0,15201.0,21044.0,28452.0,0.1074335053563118,0.04970819875597954,0.07375533133745193,0.10818419605493546,0.0,0.0,0.0,0.0,29086.0,13850.0,21616.0,28202.0,0.33952659368515015,-0.19796608585486078,-0.46017565684786127,-0.22941508133049965,0.011888090521097183,-0.10089698433876038,0.11086417734622955
260,5,4.3778822146123275e-05,0.0007131511811167002,0.0008910307078622282,-0.0033181665930896997,0.028792506083846092,-0.019321242347359657,-0.019060201942920685,0.4122473895549774,0.003799865022301674,0.035666171461343765,1.9279848337173462,0.009707297198474407,0.0,0.0,0.0,-0.028215376660227776,-0.0030246928799897432,-0.0,0.0,0.0,0.0,0.0018757033394649625,0.004999999888241291,0.0001774648408172652,30623.0,14679.0,17994.0,29097.0,0.11910968273878098,0.04769280180335045,0.06085815653204918,0.11139249056577682,0.0,0.0,0.0,0.0,30702.0,14411.0,18242.0,29017.0,0.3394981026649475,-0.19796608585486078,-0.46017565684786127,-0.22941508133049965,0.011880341917276382,-0.10077075660228729,0.11349271982908249
265,5,-2.3553051505587064e-05,0.0005873533082194626,0.0010536839254200459,0.011895876377820969,0.023031404241919518,-0.01436683814972639,-0.019060201942920685,0.4122473895549774,0.003799865022301674,0.035666171461343765,1.9279848337173462,0.009707297198474407,0.0,0.0,0.0,-0.022346392273902893,0.01141870953142643,-0.0,0.0,0.0,0.0,0.0018757033394649625,0.004999999888241291,0.0001774648408172652,30623.0,14679.0,17994.0,29097.0,0.11910968273878098,0.04769280180335045,0.06085815653204918,0.11139249056577682,0.0,0.0,0.0,0.0,30702.0,14411.0,18242.0,29017.0,0.339140385389328,-0.18319140008429616,-0.43547008074204374,-0.2256635614136986,-0.04480893164873123,-0.07973096519708633,0.10380533337593079
270,5,6.990584370214492e-05,0.0008189714862965047,0.0013578224461525679,0.01665300875902176,-0.02551712840795517,-0.04688945412635803,-0.019175389781594276,0.396171897649765,0.003887823084369302,-0.0280154962092638,2.0365195274353027,0.04879403114318848,0.0,0.0,0.0,0.028661519289016724,0.0158701092004776,-0.0,0.0,0.0,0.0,-0.0002697563322726637,0.004999999888241291,0.00010432292765472084,29290.0,12120.0,21158.0,31182.0,0.11235358566045761,0.03813433274626732,0.0742524042725563,0.12198436260223389,0.0,0.0,0.0,0.0,29452.0,11795.0,21428.0,31024.0,0.3440001308917999,-0.1750879684658348,-0.43060078194123885,-0.21744354751225325,-0.06315802782773972,0.10372325032949448,0.20960848033428192
275,5,0.00015346272266469896,0.0008032313780859113,0.0014036443317309022,0.01669386588037014,-0.005451521836221218,-0.02048189379274845,-0.019175389781594276,0.396171897649765,0.003887823084369302,-0.0280154962092638,2.0365195274353027,0.04879403114318848,0.0,0.0,0.0,0.007998711429536343,0.01625354215502739,-0.0,0.0,0.0,0.0,-0.0002697563322726637,0.004999999888241291,0.00010432292765472084,29290.0,12120.0,21158.0,31182.0,0.11235358566045761,0.03813433274626732,0.0742524042725563,0.12198436260223389,0.0,0.0,0.0,0.0,29452.0,11795.0,21428.0,31024.0,0.3390892446041107,-0.16926486236358412,-0.4208011245295972,-0.21443702411073948,-0.06378451734781265,0.02853785827755928,0.13515691459178925
281,5,0.00014453925541602075,0.0007905144593678415,0.0014858165523037314,0.0037588730920106173,0.00014491102774627507,-0.017648687586188316,-0.019343504682183266,0.3708031177520752,0.003688913770020008,-0.0061655063182115555,2.074481248855591,-0.01810098998248577,0.0,0.0,0.0,0.00214376044459641,0.003889098297804594,-0.0,0.0,0.0,0.0,-4.808706580661237e-05,0.004999999888241291,2.7322286769049242e-05,30972.0,15824.0,16954.0,28783.0,0.12090158462524414,0.05214068666100502,0.0566362626850605,0.10982657968997955,0.0,0.0,0.0,0.0,31088.0,15902.0,16878.0,28663.0,0.3390369415283203,-0.16450250352109405,-0.4093799437622477,-0.21253384571424025,-0.01526111550629139,0.00764863146468997,0.13278192281723022
286,5,-0.00015073713439051062,0.0009350893669761717,0.001672116806730628,-0.0402110330760479,-0.020197009667754173,-0.03137664124369621,-0.019343504682183266,0.3708031177520752,0.003688913770020008,-0.0061655063182115555,2.074481248855591,-0.01810098998248577,0.0,0.0,0.0,0.022681737318634987,-0.03674560785293579,-0.0,0.0,0.0,0.0,-4.808706580661237e-05,0.004999999888241291,2.7322286769049242e-05,30972.0,15824.0,16954.0,28783.0,0.12090158462524414,0.05214068666100502,0.0566362626850605,0.10982657968997955,0.0,0.0,0.0,0.0,31088.0,15902.0,16878.0,28663.0,0.35574159026145935,-0.1560347591341505,-0.3881818575039927,-0.2159212157362985,0.15122279524803162,0.0848909318447113,0.1819142997264862
291,5,-7.029315020190552e-05,0.000971089000813663,0.0017768533434718847,-0.000801151676569134,-0.011099051684141159,-0.024076104164123535,-0.019343504682183266,0.3708031177520752,0.003688913770020008,-0.0061655063182115555,2.074481248855591,-0.01810098998248577,0.0,0.0,0.0,0.014333558268845081,-0.0007693163934163749,-0.0,0.0,0.0,0.0,-4.808706580661237e-05,0.004999999888241291,2.7322286769049242e-05,30972.0,15824.0,16954.0,28783.0,0.12090158462524414,0.05214068666100502,0.0566362626850605,0.10982657968997955,0.0,0.0,0.0,0.0,31088.0,15902.0,16878.0,28663.0,0.33906853199005127,-0.1544923181430662,-0.38143997761414444,-0.21464917449152188,0.0030187980737537146,0.0511346198618412,0.16644857823848724
296,5,-7.029315020190552e-05,0.000971089000813663,0.0017768533434718847,-0.000801151676569134,-0.011099051684141159,-0.024076104164123535,-0.019071707502007484,0.3532063961029053,0.0030681979842483997,-0.031726520508527756,2.213271141052246,-0.036274537444114685,0.0,0.0,0.0,0.014391530305147171,-0.0007731319637969136,-0.0,0.0,0.0,0.0,0.0008363552042283118,0.004999999888241291,1.7582040527486242e-05,28979.0,14893.0,17791.0,30736.0,0.11080335825681686,0.04851565882563591,0.06002720817923546,0.11969072371721268,0.0,0.0,0.0,0.0,29971.0,16333.0,16405.0,29767.0,0.33906880021095276,-0.1544923181430662,-0.38143997761414444,-0.21464917449152188,0.0030338759534060955,0.0513429157435894,0.17280083894729614
301,5,7.167530566221103e-05,0.0007806849316693842,0.0018935835687443614,0.012338920496404171,0.03792300075292587,-0.022682998329401016,-0.019071707502007484,0.3532063961029053,0.0030681979842483997,-0.031726520508527756,2.213271141052246,-0.036274537444114685,0.0,0.0,0.0,-0.03637131303548813,0.011661804281175137,-0.0,0.0,0.0,0.0,0.0008363552042283118,0.004999999888241291,1.7582040527486242e-05,28979.0,14893.0,17791.0,30736.0,0.11080335825681686,0.04851565882563591,0.06002720817923546,0.11969072371721268,0.0,0.0,0.0,0.0,29971.0,16333.0,16405.0,29767.0,0.34851759672164917,-0.1686578597750355,-0.3659157551955134,-0.21544391894420553,-0.047008950263261795,-0.13333506882190704,0.17661188542842865
306,5,0.00018592360720504075,0.0011859373189508915,0.0019718878902494907,0.019696436822414398,-0.04535843804478645,-0.017767516896128654,-0.018570518121123314,0.31083980202674866,0.0015631804708391428,-0.01057602558284998,1.995849609375,-0.01688191667199135,0.0,0.0,0.0,0.04776632785797119,0.018029967322945595,-0.0,0.0,0.0,0.0,0.0011079144896939397,0.004999999888241291,6.332773045869544e-05,28991.0,14015.0,18609.0,30728.0,0.11086234450340271,0.04516078904271126,0.06339789181947708,0.1196475476026535,0.0,0.0,0.0,0.0,29043.0,14879.0,17803.0,30675.0,0.36098968982696533,-0.13688725879118785,-0.3561305346915332,-0.21271346114396714,-0.07524139434099197,0.18133752048015594,0.1684958040714264
311,5,0.000210066995350644,0.0012006061151623726,0.002137026283890009,0.009289005771279335,-0.015661155804991722,-0.028449619188904762,-0.018570518121123314,0.31083980202674866,0.0015631804708391428,-0.01057602558284998,1.995849609375,-0.01688191667199135,0.0,0.0,0.0,0.019693737849593163,0.009270753711462021,-0.0,0.0,0.0,0.0,0.0011079144896939397,0.004999999888241291,6.332773045869544e-05,28991.0,14015.0,18609.0,30728.0,0.11086234450340271,0.04516078904271126,0.06339789181947708,0.1196475476026535,0.0,0.0,0.0,0.0,29043.0,14879.0,17803.0,30675.0,0.33911392092704773,-0.1343859413969919,-0.34653866881964773,-0.21222387817815203,-0.03637947887182236,0.07026346027851105,0.20886515080928802
316,5,7.04056874383241e-05,0.0009072739048860967,0.0021843065042048693,-0.016765881329774857,0.03636815771460533,-0.015154127031564713,-0.01852509193122387,0.28779950737953186,0.0011132379295304418,-0.003484060987830162,1.8172686100006104,0.01625841110944748,0.0,0.0,0.0,-0.03444374352693558,-0.015400373376905918,-0.0,0.0,0.0,0.0,-0.0005689839599654078,0.004999999888241291,3.0087658160482533e-05,31225.0,17536.0,16369.0,29423.0,0.12220808118581772,0.058987125754356384,0.054293639957904816,0.11302389949560165,0.0,0.0,0.0,0.0,28380.0,14744.0,17934.0,31317.0,0.3483463227748871,-0.14747937144893605,-0.33579511448312677,-0.20733350613762147,0.06205162778496742,-0.1262103021144867,0.17717456817626953
321,5,0.00010645113798091188,0.0008688127272762358,0.0023341502528637648,1.6598629372310825e-05,0.016295021399855614,-0.025524334982037544,-0.01852509193122387,0.28779950737953186,0.0011132379295304418,-0.003484060987830162,1.8172686100006104,0.01625841110944748,0.0,0.0,0.0,-0.014293442480266094,0.00027865575975738466,-0.0,0.0,0.0,0.0,-0.0005689839599654078,0.004999999888241291,3.0087658160482533e-05,31225.0,17536.0,16369.0,29423.0,0.12220808118581772,0.058987125754356384,0.054293639957904816,0.11302389949560165,0.0,0.0,0.0,0.0,28380.0,14744.0,17934.0,31317.0,0.3390682339668274,-0.14430299651869868,-0.32884570391758533,-0.20596215440852614,-0.0010936049511656165,-0.05099017545580864,0.21689730882644653
326,5,0.00013459152251016349,0.0009509849478490651,0.002349434420466423,0.00394463399425149,-0.006615609396249056,-0.009797081351280212,-0.018703607842326164,0.273847758769989,0.0007084992830641568,-0.06753845512866974,1.6546740531921387,-0.05915095657110214,0.0,0.0,0.0,0.00996839627623558,0.004077785648405552,-0.0,0.0,0.0,0.0,0.001381039503030479,0.004999999888241291,-2.221933209511917e-05,28012.0,14419.0,18242.0,31671.0,0.10601627826690674,0.04669882729649544,0.061882615089416504,0.12451638281345367,0.0,0.0,0.0,0.0,31477.0,17218.0,16691.0,29164.0,0.33905327320098877,-0.13124625781881671,-0.3197121994203785,-0.20543800399628573,-0.016001520678400993,0.035562679171562195,0.17823410034179688
331,5,0.00020650170336011797,0.0008513468783348799,0.0025818839203566313,0.01125081442296505,0.011964644305408001,-0.03548207879066467,-0.018703607842326164,0.273847758769989,0.0007084992830641568,-0.06753845512866974,1.6546740531921387,-0.05915095657110214,0.0,0.0,0.0,-0.009659524075686932,0.011167840100824833,-0.0,0.0,0.0,0.0,0.001381039503030479,0.004999999888241291,-2.221933209511917e-05,28012.0,14419.0,18242.0,31671.0,0.10601627826690674,0.04669882729649544,0.061882615089416504,0.12451638281345367,0.0,0.0,0.0,0.0,31477.0,17218.0,16691.0,29164.0,0.33907055854797363,-0.13874520480505823,-0.3183474259126544,-0.20540321171770198,-0.04382442682981491,-0.03446119278669357,0.2670982778072357
336,5,0.00023189860803540796,0.0008096477249637246,0.002680068602785468,0.006930812727659941,0.009427277371287346,-0.024390462785959244,-0.018973033875226974,0.25627273321151733,-0.0005698594031855464,-0.02748667262494564,1.3687866926193237,-0.06861525774002075,0.0,0.0,0.0,-0.007006704341620207,0.007086538709700108,-0.0,0.0,0.0,0.0,0.0013353427639231086,0.004999999888241291,-0.00015020795399323106,27089.0,15725.0,17002.0,32529.0,0.10151921957731247,0.05175315961241722,0.05682828649878502,0.12901344895362854,0.0,0.0,0.0,0.0,28475.0,17449.0,15796.0,30817.0,0.33905044198036194,-0.1382999970830643,-0.31305249725129447,-0.20623811022004734,-0.027808044105768204,-0.024995790794491768,0.24441450834274292
341,5,0.00032536187791265547,0.000811598845757544,0.002551727695390582,0.015164099633693695,0.002555027138441801,0.010650590993463993,-0.018973033875226974,0.25627273321151733,-0.0005698594031855464,-0.02748667262494564,1.3687866926193237,-0.06861525774002075,0.0,0.0,0.0,0.00026930298190563917,0.015097764320671558,-0.0,0.0,0.0,0.0,0.0013353427639231086,0.004999999888241291,-0.00015020795399323106,27089.0,15725.0,17002.0,32529.0,0.10151921957731247,0.05175315961241722,0.05682828649878502,0.12901344895362854,0.0,0.0,0.0,0.0,28475.0,17449.0,15796.0,30817.0,0.33907225728034973,-0.13235702499965368,-0.3090515685388605,-0.2024827222766728,-0.05924813076853752,0.0009607866522856057,0.14698880910873413
346,5,0.00031245473655872047,0.0008200124721042812,0.0027611255645751953,0.002742229960858822,-0.00041139955283142626,-0.026120532304048538,-0.01913081854581833,0.24718156456947327,-0.001163825741969049,-0.02333429642021656,1.0159817934036255,-0.04493718966841698,0.0,0.0,0.0,0.0034494863357394934,0.00322749768383801,-0.0,0.0,0.0,0.0,0.00022958722547627985,0.002487816847860813,-9.623622463550419e-05,25714.0,20590.0,19565.0,27790.0,0.09494582563638687,0.07178840786218643,0.06740643829107285,0.10492747277021408,0.0,0.0,0.0,0.0,25521.0,20341.0,20262.0,27589.0,0.33903738856315613,-0.13589056350994008,-0.3055954148115635,-0.20727093236332453,-0.01266474463045597,0.012305363081395626,0.26961269974708557
351,5,0.0001567776926094666,0.0006084700580686331,0.002851748839020729,-0.02097211591899395,0.029492519795894623,-0.020523423328995705,-0.01913081854581833,0.24718156456947327,-0.001163825741969049,-0.02333429642021656,1.0159817934036255,-0.04493718966841698,0.0,0.0,0.0,-0.027762005105614662,-0.01929323561489582,-0.0,0.0,0.0,0.0,0.00022958722547627985,0.002487816847860813,-9.623622463550419e-05,25714.0,20590.0,19565.0,27790.0,0.09494582563638687,0.07178840786218643,0.06740643829107285,0.10492747277021408,0.0,0.0,0.0,0.0,25521.0,20341.0,20262.0,27589.0,0.3452310562133789,-0.14756459060390278,-0.2977806968401948,-0.20594626595328977,0.07705606520175934,-0.10082752257585526,0.26385825872421265
357,5,0.00033872315543703735,0.000944817962590605,0.0028107818216085434,0.019180728122591972,-0.0382409505546093,-0.00042165201739408076,-0.01950574666261673,0.23775053024291992,-0.001554893678985536,-0.028115445747971535,0.6087566018104553,-0.01540185883641243,0.0,0.0,0.0,0.0414920374751091,0.01813536323606968,-0.0,0.0,0.0,0.0,0.0003856101830024272,-0.0006173706497065723,-6.17649857304059e-05,21637.0,24331.0,24351.0,23715.0,0.076347216963768,0.0884854644536972,0.08857870101928711,0.08565911650657654,0.0,0.0,0.0,0.0,19733.0,25395.0,25459.0,23299.0,0.3554835319519043,-0.12684710702629617,-0.29692642225667537,-0.2071324737350829,-0.07454820722341537,0.15513646602630615,0.21148547530174255
362,5,0.0002731628774199635,0.0009041709126904607,0.003102444112300873,-0.0034242202527821064,-0.005781702231615782,-0.04095920920372009,-0.01950574666261673,0.23775053024291992,-0.001554893678985536,-0.028115445747971535,0.6087566018104553,-0.01540185883641243,0.0,0.0,0.0,0.009350317530333996,-0.0026815105229616165,-0.0,0.0,0.0,0.0,0.0003856101830024272,-0.0006173706497065723,-6.17649857304059e-05,21637.0,24331.0,24351.0,23715.0,0.076347216963768,0.0884854644536972,0.08857870101928711,0.08565911650657654,0.0,0.0,0.0,0.0,19733.0,25395.0,25459.0,23299.0,0.33904963731765747,-0.13604475917145792,-0.29483977705552816,-0.2120044603635217,0.010522272437810898,0.03335605561733246,0.3457529544830322
367,5,0.0002817614295054227,0.0008236595895141363,0.003150822827592492,0.00017653386748861521,0.009537076577544212,-0.019060783088207245,-0.019434744492173195,0.2342444360256195,-0.0019111419096589088,-0.010351262986660004,0.2897906005382538,-0.03126955032348633,0.0,0.0,0.0,-0.006823171395808458,0.0007864732760936022,-0.0,0.0,0.0,0.0,0.0006325375870801508,-0.0036672919522970915,-0.00010980453953379765,16408.0,28287.0,28190.0,20258.0,0.05445242300629616,0.10736986994743347,0.10688936710357666,0.07036066055297852,0.0,0.0,0.0,0.0,16024.0,31125.0,29198.0,17466.0,0.3390415906906128,-0.14011932125887655,-0.2979004051137315,-0.2131209731750504,-0.0030865443404763937,-0.02433919720351696,0.29188427329063416
372,5,0.00037935885484330356,0.0009863532613962889,0.0031961090862751007,0.013716599904000759,-0.019915997982025146,-0.012058310210704803,-0.019434744492173195,0.2342444360256195,-0.0019111419096589088,-0.010351262986660004,0.2897906005382538,-0.03126955032348633,0.0,0.0,0.0,0.02438674308359623,0.013851798139512539,-0.0,0.0,0.0,0.0,0.0006325375870801508,-0.0036672919522970915,-0.00010980453953379765,16408.0,28287.0,28190.0,20258.0,0.05445242300629616,0.10736986994743347,0.10688936710357666,0.07036066055297852,0.0,0.0,0.0,0.0,16024.0,31125.0,29198.0,17466.0,0.3397890627384186,-0.1277936099352668,-0.3001970016011579,-0.21427926221659324,-0.054457634687423706,0.0871763676404953,0.2824321389198303
377,5,0.00041406031232327223,0.001057295361533761,0.0031396737322211266,0.008973181247711182,-0.0159066841006279,0.004283454269170761,-0.019309254363179207,0.23325881361961365,-0.0020711540710181,0.030981075018644333,-0.05065440759062767,0.0030369379092007875,0.0,0.0,0.0,0.020379288122057915,0.009410877712070942,-0.0,0.0,0.0,0.0,-0.0002747526450548321,-0.004999999888241291,-6.506844511022791e-05,16562.0,30971.0,29356.0,16938.0,0.05506328120827675,0.12089474499225616,0.11268824338912964,0.05656849220395088,0.0,0.0,0.0,0.0,14292.0,29399.0,30328.0,18352.0,0.3391190469264984,-0.1261708484596451,-0.2956491791317779,-0.21200659722413717,-0.03692999482154846,0.07271160185337067,0.2422158569097519
382,5,-3.737530641956255e-05,0.0008291428675875068,0.002939797705039382,-0.060509029775857925,0.02716933935880661,0.029267692938447,-0.019309254363179207,0.23325881361961365,-0.0020711540710181,0.030981075018644333,-0.05065440759062767,0.0030369379092007875,0.0,0.0,0.0,-0.02298736572265625,-0.052592791616916656,-0.0,0.0,0.0,0.0,-0.0002747526450548321,-0.004999999888241291,-6.506844511022791e-05,16562.0,30971.0,29356.0,16938.0,0.05506328120827675,0.12089474499225616,0.11268824338912964,0.05656849220395088,0.0,0.0,0.0,0.0,14292.0,29399.0,30328.0,18352.0,0.37159502506256104,-0.13073598167191808,-0.283539218816275,-0.21360891413539487,0.22603067755699158,-0.08986718207597733,0.17476291954517365
387,5,0.00038751785177737474,0.0009681429364718497,0.0031815252732485533,0.04133233428001404,-0.011309204623103142,-0.025061573833227158,-0.019309254363179207,0.23325881361961365,-0.0020711540710181,0.030981075018644333,-0.05065440759062767,0.0030369379092007875,0.0,0.0,0.0,0.014839923940598965,0.03858199343085289,-0.0,0.0,0.0,0.0,-0.0002747526450548321,-0.004999999888241291,-6.506844511022791e-05,16562.0,30971.0,29356.0,16938.0,0.05506328120827675,0.12089474499225616,0.11268824338912964,0.05656849220395088,0.0,0.0,0.0,0.0,14292.0,29399.0,30328.0,18352.0,0.3544158935546875,-0.13443458957957516,-0.30212203127102005,-0.21539201206087963,-0.15820804238319397,0.055337175726890564,0.3499322533607483
392,5,0.0004437851021066308,0.001062442664988339,0.003187603550031781,0.02027711644768715,-0.016594717279076576,-0.008369432762265205,-0.019216829910874367,0.23508912324905396,-0.0023309681564569473,-0.037062060087919235,-0.3745081126689911,-0.03915892913937569,0.0,0.0,0.0,0.021117713302373886,0.020158227533102036,-0.0,0.0,0.0,0.0,0.0009891435038298368,-0.004999999888241291,-0.00013496958126779646,13496.0,29668.0,30061.0,19074.0,0.04320709407329559,0.11425505578517914,0.11624543368816376,0.06534218043088913,0.0,0.0,0.0,0.0,13270.0,28784.0,31002.0,19367.0,0.3414040207862854,-0.12998644123860964,-0.3091207149346219,-0.21637955199660652,-0.0796307846903801,0.07585175335407257,0.30949264764785767
397,5,0.0006203157245181501,0.0011545732850208879,0.002792057814076543,0.030797425657510757,-0.017876705154776573,0.05286560207605362,-0.019216829910874367,0.23508912324905396,-0.0023309681564569473,-0.037062060087919235,-0.3745081126689911,-0.03915892913937569,0.0,0.0,0.0,0.022134866565465927,0.029723789542913437,-0.0,0.0,0.0,0.0,0.0009891435038298368,-0.004999999888241291,-0.00013496958126779646,13496.0,29668.0,30061.0,19074.0,0.04320709407329559,0.11425505578517914,0.11624543368816376,0.06534218043088913,0.0,0.0,0.0,0.0,13270.0,28784.0,31002.0,19367.0,0.34932929277420044,-0.11610130306103722,-0.31357396054105835,-0.2101133851678338,-0.1201310008764267,0.08135002851486206,0.12895938754081726
402,5,0.0005729351541958749,0.001135564991272986,0.002821786794811487,0.002605942077934742,-0.0027018508408218622,0.011697614565491676,-0.01938827708363533,0.24026215076446533,-0.0020084192510694265,0.030949106439948082,-0.4793359041213989,0.041559357196092606,0.0,0.0,0.0,0.006881128065288067,0.003634887980297208,-0.0,0.0,0.0,0.0,0.0013551953015848994,-0.004999999888241291,6.764283853044617e-07,14296.0,28244.0,31520.0,18442.0,0.04623079299926758,0.10715591907501221,0.12373317778110504,0.0627070814371109,0.0,0.0,0.0,0.0,14166.0,28209.0,31553.0,18562.0,0.33904385566711426,-0.11731465567133069,-0.3154454853396059,-0.21016189437095784,-0.014263363555073738,0.024547342211008072,0.26129215955734253
407,5,0.00040948964306153357,0.0011948364553973079,0.0027360341046005487,-0.02210058830678463,-0.009108568541705608,0.015514661557972431,-0.01938827708363533,0.24026215076446533,-0.0020084192510694265,0.030949106439948082,-0.4793359041213989,0.041559357196092606,0.0,0.0,0.0,0.013771089725196362,-0.020172331482172012,-0.0,0.0,0.0,0.0,0.0013551953015848994,-0.004999999888241291,6.764283853044617e-07,14296.0,28244.0,31520.0,18442.0,0.04623079299926758,0.10715591907501221,0.12373317778110504,0.0627070814371109,0.0,0.0,0.0,0.0,14166.0,28209.0,31553.0,18562.0,0.33913475275039673,-0.1111433422303875,-0.31016545566482817,-0.20924472720092915,0.0791669636964798,0.049137797206640244,0.2584116756916046
412,5,0.00047386824735440314,0.0009074112749658525,0.0023919029626995325,0.0023828272242099047,0.037506964057683945,0.052832745015621185,-0.019318653270602226,0.2450733333826065,-0.0016902326606214046,0.014797013252973557,-0.6489128470420837,0.011700631119310856,0.0,0.0,0.0,-0.034956060349941254,0.0032743273768574,-0.0,0.0,0.0,0.0,0.0013587555149570107,-0.004999999888241291,-7.701170397922397e-05,15320.0,29507.0,31713.0,19246.0,0.0501716211438179,0.11344753950834274,0.1247367188334465,0.06606141477823257,0.0,0.0,0.0,0.0,15036.0,29660.0,31565.0,19507.0,0.3454214334487915,-0.13423397446187513,-0.32715146947697543,-0.20422481259513678,-0.013083232566714287,-0.12701106071472168,0.15049515664577484
417,5,0.0004080558428540826,0.0008385487017221749,0.0023478467483073473,-0.008498886600136757,0.020892847329378128,0.022017702460289,-0.019318653270602226,0.2450733333826065,-0.0016902326606214046,0.014797013252973557,-0.6489128470420837,0.011700631119310856,0.0,0.0,0.0,-0.018197521567344666,-0.007135466206818819,-0.0,0.0,0.0,0.0,0.0013587555149570107,-0.004999999888241291,-7.701170397922397e-05,15320.0,29507.0,31713.0,19246.0,0.0501716211438179,0.11344753950834274,0.1247367188334465,0.06606141477823257,0.0,0.0,0.0,0.0,15036.0,29660.0,31565.0,19507.0,0.33909836411476135,-0.13929007091701678,-0.3295543597164913,-0.20420149201171484,0.02800004370510578,-0.06492310017347336,0.24950504302978516
422,5,0.000383027974748984,0.0008738364558666945,0.0023439370561391115,-0.006053570192307234,0.001327565056271851,0.007152676582336426,-0.019250821322202682,0.2539096474647522,-0.0015694727189838886,0.022202976047992706,-0.7857488989830017,-0.007594085298478603,0.0,0.0,0.0,0.0024720276705920696,-0.004811817780137062,-0.0,0.0,0.0,0.0,0.0010428782552480698,-0.004999999888241291,1.3823661220158101e-06,14154.0,29301.0,31424.0,19706.0,0.0456877239048481,0.11241047084331512,0.12323352694511414,0.06800505518913269,0.0,0.0,0.0,0.0,14531.0,29117.0,31600.0,19365.0,0.33903855085372925,-0.14203032415383798,-0.3336832097831545,-0.20591616056992312,0.018881719559431076,0.008818513713777065,0.30231696367263794
427,5,0.00040575957973487675,0.0009138041641563177,0.002314490731805563,0.0013663546415045857,-0.005197212100028992,0.00626826286315918,-0.019250821322202682,0.2539096474647522,-0.0015694727189838886,0.022202976047992706,-0.7857488989830017,-0.007594085298478603,0.0,0.0,0.0,0.009444349445402622,0.002331614261493087,-0.0,0.0,0.0,0.0,0.0010428782552480698,-0.004999999888241291,1.3823661220158101e-06,14154.0,29301.0,31424.0,19706.0,0.0456877239048481,0.11241047084331512,0.12323352694511414,0.06800505518913269,0.0,0.0,0.0,0.0,14531.0,29117.0,31600.0,19365.0,0.33904963731765747,-0.14542623932861867,-0.3385537043293366,-0.20620278560604066,-0.009149880148470402,0.0336928591132164,0.31284359097480774
433,5,0.00033439151593483984,0.0009044659091159701,0.0022863333579152822,-0.00958162173628807,-0.0002518048568163067,0.0058225118555128574,-0.019113190472126007,0.2608063817024231,-0.0013327687047421932,0.019430698826909065,-0.8585755228996277,0.024564038962125778,0.0,0.0,0.0,0.004286615177989006,-0.008208627812564373,-0.0,0.0,0.0,0.0,-4.657520548789762e-05,-0.004999999888241291,-1.0285807547916193e-05,14756.0,28589.0,31124.0,17931.0,0.04798846319317818,0.10886090993881226,0.12168209254741669,0.06060332432389259,0.0,0.0,0.0,0.0,14838.0,28589.0,31123.0,17855.0,0.3390481472015381,-0.14903119979698787,-0.34220123315098766,-0.2086663384108656,0.03221137821674347,0.015292118303477764,0.32202714681625366
438,5,0.0001093055761884898,0.0009706886485219002,0.0022385972552001476,-0.034386519342660904,-0.009346727281808853,0.008429809473454952,-0.019113190472126007,0.2608063817024231,-0.0013327687047421932,0.019430698826909065,-0.8585755228996277,0.024564038962125778,0.0,0.0,0.0,0.01367164310067892,-0.03145821392536163,-0.0,0.0,0.0,0.0,-4.657520548789762e-05,-0.004999999888241291,-1.0285807547916193e-05,14756.0,28589.0,31124.0,17931.0,0.04798846319317818,0.10886090993881226,0.12168209254741669,0.06060332432389259,0.0,0.0,0.0,0.0,14838.0,28589.0,31123.0,17855.0,0.3472478985786438,-0.14367145971457965,-0.3386786536194042,-0.21167381981864325,0.12640002369880676,0.04995147883892059,0.32142704725265503
443,5,3.294292400823906e-05,0.0008809949504211545,0.0022488324902951717,-0.02100672572851181,0.00975310429930687,0.0010960311628878117,-0.01898200996220112,0.27141210436820984,-0.0008564398740418255,0.028572291135787964,-0.9757448434829712,0.010102322325110435,0.0,0.0,0.0,-0.0061631095595657825,-0.019525280222296715,-0.0,0.0,0.0,0.0,0.000782829592935741,-0.004999999888241291,2.8060116164851934e-05,15407.0,28721.0,30988.0,17302.0,0.050511229783296585,0.1095154732465744,0.1209850013256073,0.058038029819726944,0.0,0.0,0.0,0.0,16360.0,29980.0,29754.0,16373.0,0.33910468220710754,-0.15158439650327796,-0.34375095276140344,-0.21583943986905924,0.07662693411111832,-0.021989913657307625,0.3504122197628021
448,5,5.591621811618097e-05,0.0009973210981115699,0.0021933100651949644,-0.0030857569072395563,-0.013359730131924152,0.008101947605609894,-0.01898200996220112,0.27141210436820984,-0.0008564398740418255,0.028572291135787964,-0.9757448434829712,0.010102322325110435,0.0,0.0,0.0,0.018363457173109055,-0.00236735912039876,-0.0,0.0,0.0,0.0,0.000782829592935741,-0.004999999888241291,2.8060116164851934e-05,15407.0,28721.0,30988.0,17302.0,0.050511229783296585,0.1095154732465744,0.1209850013256073,0.058038029819726944,0.0,0.0,0.0,0.0,16360.0,29980.0,29754.0,16373.0,0.3390917181968689,-0.14682648791073605,-0.3470568926154798,-0.21537716412552046,0.009289534762501717,0.0655137300491333,0.3365873098373413
453,5,8.861662354320288e-05,0.0012197003234177828,0.002016033511608839,0.003652329556643963,-0.03514101356267929,0.02724928967654705,-0.018626391887664795,0.2785228490829468,-0.0005576540133915842,0.058736883103847504,-0.8919628262519836,0.026880985125899315,0.0,0.0,0.0,0.04033111035823822,0.003990817815065384,-0.0,0.0,0.0,0.0,0.0009846835164353251,-0.004999999888241291,0.0001002568969852291,16555.0,28042.0,32421.0,17197.0,0.05503644421696663,0.10616098344326019,0.12844161689281464,0.05761493742465973,0.0,0.0,0.0,0.0,15450.0,28751.0,30960.0,17261.0,0.35036274790763855,-0.13382547396694416,-0.35132742563244673,-0.21421088355279622,-0.016170060262084007,0.14862540364265442,0.2840220332145691
