timestamp,dt,pos_x,pos_y,pos_z,vel_x,vel_y,vel_z,roll,pitch,yaw,agv_x,agv_y,agv_z,x_ref,y_ref,z_ref,roll_ref,pitch_ref,yaw_ref,x_vel_ref,y_vel_ref,z_vel_ref,x_torque,y_torque,z_torque,w0,w1,w2,w3,u0,u1,u2,u3,m0req,m1req,m2req,m3req,thrust0,thrust1,thrust2,thrust3,thrust_ref,roll_vicon,pitch_vicon,yaw_vicon
5,5,0.0,0.0,0.0,-0.0012756073847413063,0.001769375172443688,0.0016229173634201288,-0.0458156019449234,0.0012801651610061526,0.08572068810462952,0.00014360129716806114,0.0715264230966568,0.018186921253800392,0.0,0.0,0.0,-0.000901821767911315,-0.0006501565803773701,-0.0,0.0,0.0,0.0,0.0015065137995406985,0.0003367817844264209,0.003000000026077032,0.0,0.0,0.0,0.0,0.0,0.0,0.0,0.0,0.0,0.0,0.0,0.0,0.0,0.0,0.0,0.0,0.5085507035255432,-0.06793455952288949,-0.04679730444135476,-0.046151216438977564
26,21,0.0,0.0,0.0,-0.0017653681570664048,0.0006942469044588506,-0.003678210312500596,-0.0458156019449234,0.0012801651610061526,0.08572068810462952,0.00014360129716806114,0.0715264230966568,0.018186921253800392,0.0,0.0,0.0,-0.0003538463788572699,-0.0008997796685434878,-0.0,0.0,0.0,0.0,0.0015065137995406985,0.0003367817844264209,0.003000000026077032,0.0,0.0,0.0,0.0,0.0,0.0,0.0,0.0,0.0,0.0,0.0,0.0,0.0,0.0,0.0,0.0,0.5085506439208984,-0.06885943726455339,-0.04847154616148121,-0.04593410474737684
38,12,0.0,0.0,0.0,0.003636761801317334,-0.006268878933042288,0.0005250306567177176,-0.045793574303388596,0.0007158408989198506,0.08577252179384232,0.010297956876456738,0.07577535510063171,0.00021897617261856794,0.0,0.0,0.0,0.003195130731910467,0.0018535972340032458,-0.0,0.0,0.0,0.0,0.0014674209523946047,0.0003759133687708527,0.003000000026077032,0.0,0.0,0.0,0.0,0.0,0.0,0.0,0.0,0.0,0.0,0.0,0.0,0.0,0.0,0.0,0.0,0.5085538625717163,-0.0670465971267574,-0.04711605467472708,-0.04588819901562418
43,5,0.0,0.0,0.0,0.003799992147833109,-0.0014665096532553434,0.0030327134300023317,-0.045793574303388596,0.0007158408989198506,0.08577252179384232,0.010297956876456738,0.07577535510063171,0.00021897617261856794,0.0,0.0,0.0,0.0007474549347534776,0.0019367928616702557,-0.0,0.0,0.0,0.0,0.0014670093078166246,0.00045588790089823306,0.003000000026077032,49944.0,1146.0,51740.0,9030.0,0.2330189049243927,0.0031027942895889282,0.24513700604438782,0.0272919163107872,0.0,0.0,0.0,0.0,0.0,0.0,0.0,0.0,0.5085514783859253,-0.06915280915143658,-0.048037597398084095,-0.046480629365582476
48,5,0.0,0.0,0.0,-0.000351099792169407,0.005884271580725908,0.003473395947366953,-0.045793574303388596,0.0007158408989198506,0.08577252179384232,0.010297956876456738,0.07577535510063171,0.00021897617261856794,0.0,0.0,0.0,-0.002999110147356987,-0.00017894995107781142,-0.0,0.0,0.0,0.0,0.0014670093078166246,0.00045588790089823306,0.003000000026077032,49944.0,1146.0,51740.0,9030.0,0.2330189049243927,0.0031027942895889282,0.24513700604438782,0.0272919163107872,0.0,0.0,0.0,0.0,0.0,0.0,0.0,0.0,0.5085526704788208,-0.0680422188322864,-0.047672197337171957,-0.04515475366314505
53,5,0.0,0.0,0.0,0.05297637730836868,-0.04377203807234764,0.016474105417728424,-0.045741576701402664,-0.0009593464201316237,0.08567513525485992,0.00778318103402853,0.0940316766500473,-0.02409966289997101,0.0,0.0,0.0,0.02229808270931244,0.026994653046131134,-0.0,0.0,0.0,0.0,0.0014836612390354276,0.0005166915943846107,0.003000000026077032,50031.0,1042.0,51655.0,9115.0,0.23359932005405426,0.0028155148029327393,0.24455660581588745,0.027579210698604584,0.0,0.0,0.0,0.0,49905.0,615.0,51778.0,9457.0,0.5088622570037842,-0.05316417041513717,-0.041394088047752596,-0.04625208328198524
58,5,-1.698885353107471e-05,2.852346142390161e-06,-6.974473944865167e-05,0.013514473102986813,-0.013530939817428589,0.01470649428665638,-0.045741576701402664,-0.0009593464201316237,0.08567513525485992,0.00778318103402853,0.0940316766500473,-0.02409966289997101,0.0,0.0,0.0,0.006898415740579367,0.006874987855553627,-0.0,0.0,0.0,0.0,0.0014836612390354276,0.0005166915943846107,0.003000000026077032,50031.0,1042.0,51655.0,9115.0,0.23359932005405426,0.0028155148029327393,0.24455660581588745,0.027579210698604584,0.0,0.0,0.0,0.0,49905.0,615.0,51778.0,9457.0,0.5085745453834534,-0.05363962038088107,-0.04384016224028736,-0.04712240163498545
63,5,-0.0003201290965080261,-8.811774023342878e-05,-0.00014406803529709578,-0.008605017326772213,-0.0031545311212539673,0.008896726183593273,-0.04584216699004173,-0.0015235650353133678,0.08361265808343887,0.012034265324473381,0.06169885769486427,-0.19935230910778046,0.0,0.0,0.0,0.0015381058910861611,-0.004639978986233473,-0.0,0.0,0.0,0.0,0.0016389029333367944,0.00046280896640382707,0.003000000026077032,49831.0,889.0,51851.0,9239.0,0.2322675585746765,0.0023961439728736877,0.24588996171951294,0.028000198304653168,0.0,0.0,0.0,0.0,49905.0,615.0,51778.0,9457.0,0.5085564851760864,-0.05059826633407914,-0.057573915262108095,-0.05007707437835262
68,5,-0.0003201290965080261,-8.811774023342878e-05,-0.00014406803529709578,-0.008605017326772213,-0.0031545311212539673,0.008896726183593273,-0.045399948954582214,-0.0019215017091482878,0.08198961615562439,0.08837739378213882,0.03608639910817146,-0.2237452268600464,0.0,0.0,0.0,0.001532087568193674,-0.004661842714995146,-0.0,0.0,0.0,0.0,0.001280107768252492,0.00043651348096318543,0.003000000026077032,49968.0,2077.0,51716.0,8257.0,0.23318399488925934,0.005698114633560181,0.24497294425964355,0.024697624146938324,0.0,0.0,0.0,0.0,49982.0,847.0,51705.0,9275.0,0.5085565447807312,-0.05059826633407914,-0.057573915262108095,-0.05007707437835262
74,6,-0.0001451145944884047,-2.214925189036876e-05,0.00019272237841505557,0.008433155715465546,-0.015143255703151226,-0.041841059923172,-0.045399948954582214,-0.0019215017091482878,0.08198961615562439,0.08837739378213882,0.03608639910817146,-0.2237452268600464,0.0,0.0,0.0,0.007692692801356316,0.004155660513788462,-0.0,0.0,0.0,0.0,0.001280107768252492,0.00043651348096318543,0.003000000026077032,49968.0,2077.0,51716.0,8257.0,0.23318399488925934,0.005698114633560181,0.24497294425964355,0.024697624146938324,0.0,0.0,0.0,0.0,49982.0,847.0,51705.0,9275.0,0.5085698366165161,-0.04298179560457988,-0.03824485623582411,-0.05133391786403187
79,5,-0.00027469510678201914,-0.0005563052836805582,0.0007758577703498304,-0.015611324459314346,0.0702388659119606,-0.09419126808643341,-0.045399948954582214,-0.0019215017091482878,0.08198961615562439,0.08837739378213882,0.03608639910817146,-0.2237452268600464,0.0,0.0,0.0,-0.024159062653779984,-0.0054746451787650585,-0.0,0.0,0.0,0.0,0.001280107768252492,0.00043651348096318543,0.003000000026077032,49968.0,2077.0,51716.0,8257.0,0.23318399488925934,0.005698114633560181,0.24497294425964355,0.024697624146938324,0.0,0.0,0.0,0.0,49982.0,847.0,51705.0,9275.0,0.763059675693512,-0.05264347611618825,-0.038380758700034004,-0.05919269901755857
84,5,-0.00032298534642904997,-0.0005425661220215261,0.0007185112917795777,-0.011444028466939926,0.01914818026125431,-0.020228875800967216,-0.044770002365112305,-0.0023460674565285444,0.07984887808561325,-0.028578227385878563,-0.008008543401956558,-0.11041981726884842,0.0,0.0,0.0,-0.010215992107987404,-0.0061353230848908424,-0.0,0.0,0.0,0.0,0.0016010222025215626,0.0006494414992630482,0.003000000026077032,49541.0,1091.0,52135.0,9079.0,0.230337455868721,0.002950802445411682,0.24783042073249817,0.027455873787403107,0.0,0.0,0.0,0.0,49433.0,1929.0,52238.0,8383.0,0.5085865259170532,-0.05297189998312602,-0.042211408079115366,-0.05910682529956308
89,5,-0.0002942414430435747,-0.0005136316176503897,0.0007552157039754093,0.0005909365718252957,0.0016936196479946375,-0.011207282543182373,-0.044770002365112305,-0.0023460674565285444,0.07984887808561325,-0.028578227385878563,-0.008008543401956558,-0.11041981726884842,0.0,0.0,0.0,-0.0013301564613357186,1.538176775284228e-06,-0.0,0.0,0.0,0.0,0.0016010222025215626,0.0006494414992630482,0.003000000026077032,49541.0,1091.0,52135.0,9079.0,0.230337455868721,0.002950802445411682,0.24783042073249817,0.027455873787403107,0.0,0.0,0.0,0.0,49433.0,1929.0,52238.0,8383.0,0.5085508227348328,-0.05391033095395777,-0.03848484551505059,-0.060108300370571244
94,5,-0.0003013075329363346,-0.0005159820429980755,0.0006961725885048509,-0.0008119733538478613,0.000837144791148603,0.004903853405267,-0.04507475346326828,-0.002461374970152974,0.07919024676084518,0.02133389562368393,0.016748502850532532,-0.09490291029214859,0.0,0.0,0.0,-0.00091453519416973,-0.000729859690181911,-0.0,0.0,0.0,0.0,0.0016035590087994933,-0.00011860741506097838,0.003000000026077032,49278.0,2373.0,52388.0,8004.0,0.22859355807304382,0.0065385401248931885,0.2495652735233307,0.02385910600423813,0.0,0.0,0.0,0.0,49433.0,1929.0,52238.0,8383.0,0.508550763130188,-0.05335504790084701,-0.039956292771327846,-0.06051063696925351
99,5,-0.0003080215537920594,-0.0005239627789705992,0.0007061873911879957,-0.0011835527839139104,0.0013684467412531376,6.907921488163993e-05,-0.04507475346326828,-0.002461374970152974,0.07919024676084518,0.02133389562368393,0.016748502850532532,-0.09490291029214859,0.0,0.0,0.0,-0.001234017196111381,-0.0009493110119365156,-0.0,0.0,0.0,0.0,0.0016035590087994933,-0.00011860741506097838,0.003000000026077032,49278.0,2373.0,52388.0,8004.0,0.22859355807304382,0.0065385401248931885,0.2495652735233307,0.02385910600423813,0.0,0.0,0.0,0.0,49433.0,1929.0,52238.0,8383.0,0.5085510015487671,-0.0537448453892042,-0.03763910808052258,-0.06170841793533938
104,5,-0.00038195811794139445,-0.0004852029378525913,0.0007949896971695125,-0.01070618536323309,-0.005015837959945202,-0.01241159439086914,-0.04507475346326828,-0.002461374970152974,0.07919024676084518,0.02133389562368393,0.016748502850532532,-0.09490291029214859,0.0,0.0,0.0,0.0020351430866867304,-0.0058678193017840385,-0.0,0.0,0.0,0.0,0.0016035590087994933,-0.00011860741506097838,0.003000000026077032,49278.0,2373.0,52388.0,8004.0,0.22859355807304382,0.0065385401248931885,0.2495652735233307,0.02385910600423813,0.0,0.0,0.0,0.0,49433.0,1929.0,52238.0,8383.0,0.5085601806640625,-0.05009502877195502,-0.03781908164647642,-0.059990101383344534
109,5,-0.0009797874372452497,-0.0007644739234820008,0.0016216806834563613,-0.08690796047449112,0.037593185901641846,-0.11946021765470505,-0.04488867521286011,-0.002071450697258115,0.07828372716903687,-0.007536741904914379,-0.057820238173007965,-0.06794469058513641,0.0,0.0,0.0,-0.013275731354951859,-0.030115069821476936,-0.0,0.0,0.0,0.0,0.0006313891499303281,-0.0003901159216184169,0.003000000026077032,58953.0,21748.0,60646.0,22643.0,0.2963881492614746,0.0768360123038292,0.30902236700057983,0.08081331104040146,0.0,0.0,0.0,0.0,58836.0,21780.0,60760.0,22611.0,0.7632389068603516,-0.074121511028213,-0.0852755871222668,-0.05556539155921248
115,5,-0.0011584088206291199,-0.000714649329893291,0.0016212130431085825,-0.051079388707876205,0.004302511923015118,-0.035772595554590225,-0.04488867521286011,-0.002071450697258115,0.07828372716903687,-0.007536741904914379,-0.057820238173007965,-0.06794469058513641,0.0,0.0,0.0,-0.002961645368486643,-0.02711254172027111,-0.0,0.0,0.0,0.0,0.0006313891499303281,-0.0003901159216184169,0.003000000026077032,58953.0,21748.0,60646.0,22643.0,0.2963881492614746,0.0768360123038292,0.30902236700057983,0.08081331104040146,0.0,0.0,0.0,0.0,58836.0,21780.0,60760.0,22611.0,0.5087395906448364,-0.07416307207384855,-0.08957080195932862,-0.05395729946408096
120,5,-0.001082306494936347,-0.0005707553937099874,0.0015861426945775747,-0.00466948514804244,-0.018854394555091858,-0.00582193722948432,-0.045204419642686844,-0.0014100392581894994,0.07787439972162247,-0.0332406647503376,-0.12787891924381256,-0.02162645012140274,0.0,0.0,0.0,0.008907503448426723,-0.0034750569611787796,-0.0,0.0,0.0,0.0,0.0015081390738487244,-0.001233509392477572,0.003000000026077032,48366.0,5154.0,53257.0,5429.0,0.22259420156478882,0.014775805175304413,0.2555665075778961,0.01562366634607315,0.0,0.0,0.0,0.0,48894.0,3791.0,52755.0,6735.0,0.5085736513137817,-0.07177222060034068,-0.079044168307247,-0.05920576721635568
125,5,-0.0010842110496014357,-0.0007174297352321446,0.001585269463248551,-0.0016674828948453069,0.014878086745738983,-0.0016243299469351768,-0.045204419642686844,-0.0014100392581894994,0.07787439972162247,-0.0332406647503376,-0.12787891924381256,-0.02162645012140274,0.0,0.0,0.0,-0.008430561050772667,-0.0020098905079066753,-0.0,0.0,0.0,0.0,0.0015081390738487244,-0.001233509392477572,0.003000000026077032,48366.0,5154.0,53257.0,5429.0,0.22259420156478882,0.014775805175304413,0.2555665075778961,0.01562366634607315,0.0,0.0,0.0,0.0,48894.0,3791.0,52755.0,6735.0,0.5085694789886475,-0.07304314104573575,-0.08179589805437751,-0.05573872127241244
130,5,-0.0015621546190232038,-0.0007154244231060147,0.001912405132316053,-0.06741233915090561,0.004182684700936079,-0.04628628492355347,-0.04355708137154579,0.0022803170140832663,0.07808274030685425,0.1588977873325348,-0.2077552080154419,0.020725125446915627,0.0,0.0,0.0,-0.0030184253118932247,-0.03593350946903229,-0.0,0.0,0.0,0.0,0.0012564626522362232,-0.0013991069281473756,0.003000000026077032,47886.0,7485.0,53720.0,2996.0,0.21946215629577637,0.022158615291118622,0.2587883174419403,0.008330665528774261,0.0,0.0,0.0,0.0,48425.0,5216.0,53202.0,5368.0,0.5088812112808228,-0.0809650694831568,-0.09948207965132037,-0.04740583808076504
135,5,-0.0011352401925250888,-0.0007277365657500923,0.0016824334161356091,0.03954431414604187,0.0029785006772726774,0.01831016130745411,-0.04355708137154579,0.0022803170140832663,0.07808274030685425,0.1588977873325348,-0.2077552080154419,0.020725125446915627,0.0,0.0,0.0,-0.0024582799524068832,0.018796563148498535,-0.0,0.0,0.0,0.0,0.0012564626522362232,-0.0013991069281473756,0.003000000026077032,47886.0,7485.0,53720.0,2996.0,0.21946215629577637,0.022158615291118622,0.2587883174419403,0.008330665528774261,0.0,0.0,0.0,0.0,48425.0,5216.0,53202.0,5368.0,0.50864177942276,-0.0712625090253109,-0.08413327168029479,-0.05461711421477931
140,5,-0.0010869309771806002,-0.0006782163982279599,0.0016214963980019093,0.01862657442688942,-0.006039273925125599,0.014024230651557446,-0.04236067831516266,0.004687902983278036,0.07836046069860458,0.04546566680073738,-0.17424264550209045,0.023087166249752045,0.0,0.0,0.0,0.0021323065739125013,0.008107025176286697,-0.0,0.0,0.0,0.0,0.0011166934855282307,-0.002192032989114523,0.003000000026077032,48778.0,5677.0,52867.0,4905.0,0.22529947757720947,0.016391925513744354,0.2528659403324127,0.014012284576892853,0.0,0.0,0.0,0.0,47926.0,7409.0,53682.0,3082.0,0.508568286895752,-0.06864445976622209,-0.08242126426069417,-0.054648387545149626
145,5,-0.0011558649130165577,-0.0007961862138472497,0.0017872023163363338,-0.00406276760622859,0.014703993685543537,-0.01899157278239727,-0.04236067831516266,0.004687902983278036,0.07836046069860458,0.04546566680073738,-0.17424264550209045,0.023087166249752045,0.0,0.0,0.0,-0.008568954654037952,-0.0035720302257686853,-0.0,0.0,0.0,0.0,0.0011166934855282307,-0.002192032989114523,0.003000000026077032,48778.0,5677.0,52867.0,4905.0,0.22529947757720947,0.016391925513744354,0.2528659403324127,0.014012284576892853,0.0,0.0,0.0,0.0,47926.0,7409.0,53682.0,3082.0,0.5085723400115967,-0.07982360057292591,-0.08586736038565843,-0.05032333661427582
150,5,-0.0011088582687079906,-0.0006550539401359856,0.0017528777243569493,0.005362092517316341,-0.015347317792475224,-0.0008920191903598607,-0.04237935319542885,0.00603858008980751,0.07852192968130112,-0.009233979508280754,-0.14029836654663086,-0.0036163139156997204,0.0,0.0,0.0,0.0068066902458667755,0.0011969450861215591,-0.0,0.0,0.0,0.0,0.001107549061998725,-0.0011886563152074814,0.003000000026077032,49218.0,3542.0,52451.0,6979.0,0.22819764912128448,0.009924262762069702,0.25000372529029846,0.020515896379947662,0.0,0.0,0.0,0.0,48643.0,5819.0,52996.0,4759.0,0.5085625648498535,-0.07375818960844634,-0.08444640428368365,-0.053366260415633957
155,5,-0.0008862575050443411,-0.0005821245140396059,0.0016462926287204027,0.0327727384865284,-0.014814313501119614,0.014654301106929779,-0.04237935319542885,0.00603858008980751,0.07852192968130112,-0.009233979508280754,-0.14029836654663086,-0.0036163139156997204,0.0,0.0,0.0,0.006551789119839668,0.015272170305252075,-0.0,0.0,0.0,0.0,0.001107549061998725,-0.0011886563152074814,0.003000000026077032,49218.0,3542.0,52451.0,6979.0,0.22819764912128448,0.009924262762069702,0.25000372529029846,0.020515896379947662,0.0,0.0,0.0,0.0,48643.0,5819.0,52996.0,4759.0,0.5086206197738647,-0.06754290401735848,-0.06814958049061234,-0.05677695280125072
160,5,-0.0008891572360880673,-0.0006052457611076534,0.0016873300774022937,0.009425858035683632,-0.0012073188554495573,-0.0013489517150446773,-0.04239647835493088,0.007480999454855919,0.07818752527236938,0.00754681508988142,-0.08679916709661484,-0.051910627633333206,0.0,0.0,0.0,-0.0004353409167379141,0.00331829022616148,-0.0,0.0,0.0,0.0,0.0012962323380634189,-0.00014402435044758022,0.003000000026077032,49025.0,4870.0,52631.0,5711.0,0.22692500054836273,0.013905800879001617,0.25124186277389526,0.016499854624271393,0.0,0.0,0.0,0.0,49117.0,4665.0,52543.0,5911.0,0.5085532665252686,-0.07104918206563458,-0.0739535424044095,-0.055310532302616594
166,5,-0.0009119135793298483,-0.0005907390150241554,0.0016682400600984693,-0.00035812874557450414,-0.002393146976828575,0.0022679241374135017,-0.04239647835493088,0.007480999454855919,0.07818752527236938,0.00754681508988142,-0.08679916709661484,-0.051910627633333206,0.0,0.0,0.0,0.00014530090265907347,-0.0017370687564834952,-0.0,0.0,0.0,0.0,0.0012962323380634189,-0.00014402435044758022,0.003000000026077032,49025.0,4870.0,52631.0,5711.0,0.22692500054836273,0.013905800879001617,0.25124186277389526,0.016499854624271393,0.0,0.0,0.0,0.0,49117.0,4665.0,52543.0,5911.0,0.5085511803627014,-0.06816118651064672,-0.07271328022855278,-0.05625694514649916
171,5,-0.0007095577311702073,-0.0005689269164577127,0.0017596832476556301,0.028222382068634033,-0.0037716315127909184,-0.01212166715413332,-0.04240923374891281,0.007924916222691536,0.07794693112373352,-0.006614499259740114,-0.03314121067523956,-0.011862517334520817,0.0,0.0,0.0,0.0008295947918668389,0.01293023582547903,-0.0,0.0,0.0,0.0,0.0011138502741232514,-0.0006005034665577114,0.003000000026077032,49269.0,4252.0,52397.0,6307.0,0.22853818535804749,0.012034676969051361,0.2496286928653717,0.01837097853422165,0.0,0.0,0.0,0.0,49495.0,1716.0,52182.0,8571.0,0.5085930824279785,-0.07475273306987451,-0.06037807808913293,-0.05943861362587908
176,5,-0.0007545151747763157,-0.0005266780499368906,0.0018069061916321516,0.0021726724226027727,-0.0070463307201862335,-0.010247721336781979,-0.04240923374891281,0.007924916222691536,0.07794693112373352,-0.006614499259740114,-0.03314121067523956,-0.011862517334520817,0.0,0.0,0.0,0.002498318674042821,-0.00042147087515331805,-0.0,0.0,0.0,0.0,0.0011138502741232514,-0.0006005034665577114,0.003000000026077032,49269.0,4252.0,52397.0,6307.0,0.22853818535804749,0.012034676969051361,0.2496286928653717,0.01837097853422165,0.0,0.0,0.0,0.0,49495.0,1716.0,52182.0,8571.0,0.5085520148277283,-0.07069815443281756,-0.06581809714495708,-0.055427122077433784
181,5,-0.0008021292160265148,-0.0005570637295022607,0.0018836568342521787,-0.006014161743223667,0.002140090335160494,-0.013819394633173943,-0.04251451790332794,0.00791203510016203,0.07770814746618271,-0.018224043771624565,0.026953022927045822,-0.01837919093668461,0.0,0.0,0.0,-0.0022384885232895613,-0.004675579722970724,-0.0,0.0,0.0,0.0,0.0016228314489126205,0.0002179504226660356,0.003000000026077032,49663.0,1149.0,52020.0,9039.0,0.23114675283432007,0.0031089261174201965,0.24704402685165405,0.027320630848407745,0.0,0.0,0.0,0.0,49484.0,2581.0,52188.0,7823.0,0.5085572600364685,-0.07470428324687153,-0.07280424198047772,-0.05482069221101006
186,5,-0.000743410550057888,-0.0005448648589663208,0.0019070844864472747,0.00641636410728097,-0.0010658125393092632,-0.00742570124566555,-0.04251451790332794,0.00791203510016203,0.07770814746618271,-0.018224043771624565,0.026953022927045822,-0.01837919093668461,0.0,0.0,0.0,-0.0006275534396991134,0.0016583395190536976,-0.0,0.0,0.0,0.0,0.0016228314489126205,0.0002179504226660356,0.003000000026077032,49663.0,1149.0,52020.0,9039.0,0.23114675283432007,0.0031089261174201965,0.24704402685165405,0.027320630848407745,0.0,0.0,0.0,0.0,49484.0,2581.0,52188.0,7823.0,0.5085511803627014,-0.07363072593245706,-0.07043870297631785,-0.0546812856348502
191,5,-0.0008070268668234348,-0.0005639125010930002,0.001864111516624689,-0.006981374695897102,0.0023469277657568455,0.003788506146520376,-0.042495355010032654,0.00744927441701293,0.07773510366678238,0.01896027848124504,0.082178995013237,0.026880839839577675,0.0,0.0,0.0,-0.002414009068161249,-0.005263256374746561,-0.0,0.0,0.0,0.0,0.0013749707723036408,2.83850276900921e-05,0.003000000026077032,49726.0,2151.0,51953.0,8194.0,0.23156756162643433,0.005906514823436737,0.24658864736557007,0.024488456547260284,0.0,0.0,0.0,0.0,49793.0,1701.0,51888.0,8574.0,0.5085589289665222,-0.07081493645467887,-0.07487507452413503,-0.05442137223390926
196,5,-0.0006893823156133294,-0.0005814816104248166,0.001645369571633637,0.014375823549926281,0.0031637537758797407,0.03176042437553406,-0.042495355010032654,0.00744927441701293,0.07773510366678238,0.01896027848124504,0.082178995013237,0.026880839839577675,0.0,0.0,0.0,-0.0028774298261851072,0.0056642331182956696,-0.0,0.0,0.0,0.0,0.0013749707723036408,2.83850276900921e-05,0.003000000026077032,49726.0,2151.0,51953.0,8194.0,0.23156756162643433,0.005906514823436737,0.24658864736557007,0.024488456547260284,0.0,0.0,0.0,0.0,49793.0,1701.0,51888.0,8574.0,0.5085606575012207,-0.06657639165736406,-0.07482040011563086,-0.05509430947756995
201,5,-0.0002886735019274056,-0.0004928871057927608,0.0017453129403293133,0.060411978513002396,-0.011454109102487564,-0.004463948309421539,-0.042495355010032654,0.00744927441701293,0.07773510366678238,0.01896027848124504,0.082178995013237,0.026880839839577675,0.0,0.0,0.0,0.004604474641382694,0.02938592992722988,-0.0,0.0,0.0,0.0,0.0013749707723036408,2.83850276900921e-05,0.003000000026077032,49726.0,2151.0,51953.0,8194.0,0.23156756162643433,0.005906514823436737,0.24658864736557007,0.024488456547260284,0.0,0.0,0.0,0.0,49793.0,1701.0,51888.0,8574.0,0.5087754726409912,-0.07112167939947751,-0.051250153337000476,-0.05937293898682529
206,5,-0.00046170991845428944,-0.0005355966277420521,0.001905937446281314,-0.0061015053652226925,0.002543099457398057,-0.023826608434319496,-0.04241345077753067,0.005925503559410572,0.07805967330932617,-0.0009205684182234108,0.16816437244415283,0.025336042046546936,0.0,0.0,0.0,-0.0025886851362884045,-0.004655438009649515,-0.0,0.0,0.0,0.0,0.001440604915842414,0.0005398057401180267,0.003000000026077032,50145.0,722.0,51543.0,9372.0,0.23436611890792847,0.0019418224692344666,0.24379050731658936,0.02845359593629837,0.0,0.0,0.0,0.0,50470.0,365.0,51222.0,9654.0,0.5085576176643372,-0.07452290346051002,-0.06361995929971391,-0.05845404380552393
211,5,-0.0003223663952667266,-0.0005551864742301404,0.0016866142395883799,0.01767764240503311,0.0035055107437074184,0.02355726808309555,-0.04241345077753067,0.005925503559410572,0.07805967330932617,-0.0009205684182234108,0.16816437244415283,0.025336042046546936,0.0,0.0,0.0,-0.00312663777731359,0.007542977575212717,-0.0,0.0,0.0,0.0,0.001440604915842414,0.0005398057401180267,0.003000000026077032,50145.0,722.0,51543.0,9372.0,0.23436611890792847,0.0019418224692344666,0.24379050731658936,0.02845359593629837,0.0,0.0,0.0,0.0,50470.0,365.0,51222.0,9654.0,0.5085673332214355,-0.07367849079348765,-0.05672880745751631,-0.05890087062063696
216,5,-0.00023105708532966673,-0.00031106328242458403,0.0016745696775615215,0.018086595460772514,-0.03312559425830841,0.008753417991101742,-0.042467840015888214,0.004434253089129925,0.07814802974462509,-0.0006071588140912354,0.19403180480003357,0.020441172644495964,0.0,0.0,0.0,0.015695123001933098,0.007801794447004795,-0.0,0.0,0.0,0.0,0.001351359998807311,0.0010701763676479459,0.003000000026077032,50536.0,219.0,51156.0,9768.0,0.23698768019676208,0.0005849078297615051,0.2411685287952423,0.02981007844209671,0.0,0.0,0.0,0.0,51225.0,0.0,50484.0,11872.0,0.5086285471916199,-0.06763859148132577,-0.043856888987445684,-0.06429335203634882
221,5,-9.458407294005156e-05,-0.0004575264756567776,0.0015534121775999665,0.024532200768589973,0.010567168705165386,0.019588083028793335,-0.042467840015888214,0.004434253089129925,0.07814802974462509,-0.0006071588140912354,0.19403180480003357,0.020441172644495964,0.0,0.0,0.0,-0.006702216807752848,0.011177689768373966,-0.0,0.0,0.0,0.0,0.001351359998807311,0.0010701763676479459,0.003000000026077032,50536.0,219.0,51156.0,9768.0,0.23698768019676208,0.0005849078297615051,0.2411685287952423,0.02981007844209671,0.0,0.0,0.0,0.0,51225.0,0.0,50484.0,11872.0,0.5085936188697815,-0.06937193541426408,-0.0446597727340253,-0.06278801516734103
227,5,-3.375053347554058e-05,-0.0004491994623094797,0.0014513456262648106,0.01587635464966297,0.0020043698605149984,0.020165732130408287,-0.043120015412569046,0.0023472916800528765,0.07865512371063232,-0.06143420189619064,0.1506863683462143,0.07078728824853897,0.0,0.0,0.0,-0.0023595020174980164,0.006807155907154083,-0.0,0.0,0.0,0.0,0.0014449559384956956,0.0009629106498323381,0.003000000026077032,50997.0,0.0,50714.0,11646.0,0.24008837342262268,-0.005913339555263519,0.23817992210388184,0.03642045706510544,0.0,0.0,0.0,0.0,50871.0,0.0,50839.0,11533.0,0.5085635781288147,-0.07122497585300319,-0.03990181913002585,-0.0664341653602326
232,5,-0.00048540913849137723,-0.0006025251932442188,0.001994915073737502,-0.05846929922699928,0.022066909819841385,-0.07004999369382858,-0.043120015412569046,0.0023472916800528765,0.07865512371063232,-0.06143420189619064,0.1506863683462143,0.07078728824853897,0.0,0.0,0.0,-0.01272200420498848,-0.03142271563410759,-0.0,0.0,0.0,0.0,0.0014449559384956956,0.0009629106498323381,0.003000000026077032,50997.0,0.0,50714.0,11646.0,0.24008837342262268,-0.005913339555263519,0.23817992210388184,0.03642045706510544,0.0,0.0,0.0,0.0,50871.0,0.0,50839.0,11533.0,0.5088427662849426,-0.07580936472855429,-0.07185388841640934,-0.05344565944920889
237,5,-0.0003062710165977478,-0.0005934117361903191,0.001951898098923266,0.007538550533354282,0.005344195291399956,-0.01499262172728777,-0.043708544224500656,0.0012141886400058866,0.07948403805494308,-0.08481329679489136,0.1391359269618988,0.11058952659368515,0.0,0.0,0.0,-0.004234595689922571,0.0023181820288300514,-0.0,0.0,0.0,0.0,0.0013723861193284392,0.0009723848779685795,0.003000000026077032,50462.0,0.0,51231.0,9992.0,0.23649093508720398,-0.00017951428890228271,0.2416733205318451,0.030582569539546967,0.0,0.0,0.0,0.0,50362.0,41.0,51330.0,9908.0,0.5085563063621521,-0.07553766781274242,-0.06702194578645679,-0.053460428827666676
242,5,-0.0008294456638395786,-0.0009206878603436053,0.001973250648006797,-0.07098288834095001,0.04742191359400749,-0.007487158756703138,-0.043708544224500656,0.0012141886400058866,0.07948403805494308,-0.08481329679489136,0.1391359269618988,0.11058952659368515,0.0,0.0,0.0,-0.025942537933588028,-0.03810341656208038,-0.0,0.0,0.0,0.0,0.0013723861193284392,0.0009723848779685795,0.003000000026077032,50462.0,0.0,51231.0,9992.0,0.23649093508720398,-0.00017951428890228271,0.2416733205318451,0.030582569539546967,0.0,0.0,0.0,0.0,50362.0,41.0,51330.0,9908.0,0.5090910792350769,-0.09431665697339299,-0.08624652719106261,-0.03868565004166748
247,5,-0.000553156016394496,-0.0007198195671662688,0.0019280200358480215,0.017385689541697502,-0.013894989155232906,0.004086142871528864,-0.04477294534444809,-0.0001192491254187189,0.0807492583990097,-0.09843289852142334,0.09709406644105911,0.12087289243936539,0.0,0.0,0.0,0.005382782779633999,0.007079267408698797,-0.0,0.0,0.0,0.0,0.00131311418954283,-0.0006265609990805387,0.003000000026077032,48749.0,4385.0,52915.0,6223.0,0.22510677576065063,0.012434117496013641,0.2531953752040863,0.018106810748577118,0.0,0.0,0.0,0.0,50359.0,316.0,51335.0,9698.0,0.5085704922676086,-0.0738790957370096,-0.0878303153746825,-0.049307308533675216
252,5,-0.0006081667961552739,-0.0007471430581063032,0.0018925303593277931,-0.002485803794115782,-0.0003432063094805926,0.0061944108456373215,-0.04477294534444809,-0.0001192491254187189,0.0807492583990097,-0.09843289852142334,0.09709406644105911,0.12087289243936539,0.0,0.0,0.0,-0.0015868759946897626,-0.0031230119056999683,-0.0,0.0,0.0,0.0,0.00131311418954283,-0.0006265609990805387,0.003000000026077032,48749.0,4385.0,52915.0,6223.0,0.22510677576065063,0.012434117496013641,0.2531953752040863,0.018106810748577118,0.0,0.0,0.0,0.0,50359.0,316.0,51335.0,9698.0,0.5085535049438477,-0.07482166212494293,-0.09102070002423272,-0.04878590833444769
257,5,-0.00035003741504624486,-0.0005906173610128462,0.001983372727409005,0.03539237007498741,-0.022016556933522224,-0.010859617032110691,-0.04596719518303871,-0.000550518452655524,0.08181054145097733,-0.17948229610919952,0.018865050747990608,0.13447842001914978,0.0,0.0,0.0,0.009532243944704533,0.016341835260391235,-0.0,0.0,0.0,0.0,0.0011327742831781507,-0.0012805727310478687,0.003000000026077032,48411.0,6119.0,53253.0,4535.0,0.2228899896144867,0.01777634769678116,0.25553664565086365,0.012889064848423004,0.0,0.0,0.0,0.0,48597.0,4373.0,53059.0,6235.0,0.5086414217948914,-0.07797006211600715,-0.07387881168828143,-0.049910150327201
262,5,-0.0003742435947060585,-0.0006649959250353277,0.0018883802695199847,0.007228847127407789,0.0038080308586359024,0.010041065514087677,-0.04596719518303871,-0.000550518452655524,0.08181054145097733,-0.17948229610919952,0.018865050747990608,0.13447842001914978,0.0,0.0,0.0,-0.0037207098212093115,0.0019493858562782407,-0.0,0.0,0.0,0.0,0.0011327742831781507,-0.0012805727310478687,0.003000000026077032,48411.0,6119.0,53253.0,4535.0,0.2228899896144867,0.01777634769678116,0.25553664565086365,0.012889064848423004,0.0,0.0,0.0,0.0,48597.0,4373.0,53059.0,6235.0,0.5085548758506775,-0.08618153075406138,-0.0741022662222023,-0.045967721027626016
267,5,-0.00011591822112677619,-0.0005317929317243397,0.0017581634456291795,0.038334205746650696,-0.017506012693047523,0.021242663264274597,-0.05071235075592995,0.000230214383918792,0.08294974267482758,-0.22236968576908112,-0.07106082141399384,-0.009215320460498333,0.0,0.0,0.0,0.0072033824399113655,0.017976606264710426,-0.0,0.0,0.0,0.0,0.0019677625969052315,-0.0004188492021057755,0.003000000026077032,48540.0,2236.0,53092.0,8122.0,0.22373205423355103,0.006147347390651703,0.2544253468513489,0.02424883097410202,0.0,0.0,0.0,0.0,48328.0,6197.0,53331.0,4453.0,0.50864577293396,-0.07844046278058943,-0.06335319744224795,-0.052201954509318485
272,5,4.707014522864483e-05,-0.0004262503352947533,0.0015589541289955378,0.03431863337755203,-0.02002776600420475,0.03426211699843407,-0.05071235075592995,0.000230214383918792,0.08294974267482758,-0.22236968576908112,-0.07106082141399384,-0.009215320460498333,0.0,0.0,0.0,0.007172219920903444,0.01796981506049633,-0.0,0.0,0.0,0.0,0.0019677625969052315,-0.0004188492021057755,0.003000000026077032,48540.0,2236.0,53092.0,8122.0,0.22373205423355103,0.006147347390651703,0.2544253468513489,0.02424883097410202,0.0,0.0,0.0,0.0,48328.0,6197.0,53331.0,4453.0,0.5086455941200256,-0.07573115694029295,-0.055749100685160466,-0.05298243192285965
277,5,0.0001548783911857754,-0.0003541430924087763,0.0013834015699103475,0.025388743728399277,-0.016103342175483704,0.034855976700782776,-0.052711766213178635,0.0007761488668620586,0.08274953812360764,-0.11032126843929291,-0.05060500279068947,-0.026429345831274986,0.0,0.0,0.0,0.0065679047256708145,0.011583210900425911,-0.0,0.0,0.0,0.0,0.0019515936728566885,-0.0004121327947359532,0.003000000026077032,48992.0,2057.0,52662.0,8275.0,0.22670651972293854,0.005640193819999695,0.2514515519142151,0.02475666254758835,0.0,0.0,0.0,0.0,48547.0,2120.0,53085.0,8220.0,0.5085954666137695,-0.07716872024051451,-0.049935531932021354,-0.055477641825452284
282,5,0.00018907753110397607,-0.00023832051374483854,0.0012340283719822764,0.012404502369463444,-0.021046163514256477,0.03136904537677765,-0.052711766213178635,0.0007761488668620586,0.08274953812360764,-0.11032126843929291,-0.05060500279068947,-0.026429345831274986,0.0,0.0,0.0,0.00915513839572668,0.005001051817089319,-0.0,0.0,0.0,0.0,0.0019515936728566885,-0.0004121327947359532,0.003000000026077032,48992.0,2057.0,52662.0,8275.0,0.22670651972293854,0.005640193819999695,0.2514515519142151,0.02475666254758835,0.0,0.0,0.0,0.0,48547.0,2120.0,53085.0,8220.0,0.5085780620574951,-0.07315541124498828,-0.04706743540761386,-0.054798489270295125
287,5,0.0002560963330324739,-0.00024800191749818623,0.0010923377703875303,0.013103981502354145,-0.004958454519510269,0.02924739569425583,-0.052711766213178635,0.0007761488668620586,0.08274953812360764,-0.11032126843929291,-0.05060500279068947,-0.026429345831274986,0.0,0.0,0.0,0.0009339854586869478,0.005420293193310499,-0.0,0.0,0.0,0.0,0.0019515936728566885,-0.0004121327947359532,0.003000000026077032,48992.0,2057.0,52662.0,8275.0,0.22670651972293854,0.005640193819999695,0.2514515519142151,0.02475666254758835,0.0,0.0,0.0,0.0,48547.0,2120.0,53085.0,8220.0,0.5085580945014954,-0.07545674020353582,-0.04681562098058753,-0.05520977838740175
293,5,0.00045277949539013207,-0.00021832443599123508,0.0009492438402958214,0.03146684169769287,-0.005642381962388754,0.028807375580072403,-0.053310640156269073,0.0009526120848022401,0.08273835480213165,-0.07478685677051544,-0.019456155598163605,0.013161512091755867,0.0,0.0,0.0,0.001290245447307825,0.014944462105631828,-0.0,0.0,0.0,0.0,0.0017270671669393778,-0.00018082823953591287,0.003000000026077032,49240.0,0.0,52430.0,10056.0,0.22834202647209167,-0.0003705248236656189,0.24985575675964355,0.03080708533525467,0.0,0.0,0.0,0.0,49060.0,2032.0,52597.0,8295.0,0.5086076259613037,-0.0757213058916626,-0.029702517851439795,-0.061088877447577856
298,5,0.00039584762998856604,-0.0001306202611885965,0.0009434076491743326,0.001469590817578137,-0.01397129986435175,0.00945927482098341,-0.053310640156269073,0.0009526120848022401,0.08273835480213165,-0.07478685677051544,-0.019456155598163605,0.013161512091755867,0.0,0.0,0.0,0.005589302629232407,-0.0003596369060687721,-0.0,0.0,0.0,0.0,0.0017270671669393778,-0.00018082823953591287,0.003000000026077032,49240.0,0.0,52430.0,10056.0,0.22834202647209167,-0.0003705248236656189,0.24985575675964355,0.03080708533525467,0.0,0.0,0.0,0.0,49060.0,2032.0,52597.0,8295.0,0.5085583925247192,-0.07498487877737148,-0.029291552222576296,-0.06131971669393109
303,5,0.000460208801086992,-0.00017061228572856635,0.0007695212843827903,0.009451440535485744,0.001407494186423719,0.027181880548596382,-0.05382838100194931,0.0010043829679489136,0.08240113407373428,-0.02161845937371254,0.020168663933873177,-0.07384566962718964,0.0,0.0,0.0,-0.002287415089085698,0.003781645093113184,-0.0,0.0,0.0,0.0,0.0020946976728737354,0.0003352923667989671,0.003000000026077032,49417.0,936.0,52253.0,9202.0,0.22951984405517578,0.00252484530210495,0.2486397922039032,0.027873598039150238,0.0,0.0,0.0,0.0,49256.0,0.0,52414.0,10027.0,0.5085553526878357,-0.07351793261848973,-0.022278790454207904,-0.06235518067515132
308,5,0.0005685373907908797,-0.00010758530697785318,0.0006868385244160891,0.018001433461904526,-0.008401528932154179,0.01973014511168003,-0.05382838100194931,0.0010043829679489136,0.08240113407373428,-0.02161845937371254,0.020168663933873177,-0.07384566962718964,0.0,0.0,0.0,0.0027496940456330776,0.008250582963228226,-0.0,0.0,0.0,0.0,0.0020946976728737354,0.0003352923667989671,0.003000000026077032,49417.0,936.0,52253.0,9202.0,0.22951984405517578,0.00252484530210495,0.2486397922039032,0.027873598039150238,0.0,0.0,0.0,0.0,49256.0,0.0,52414.0,10027.0,0.5085696578025818,-0.07079062974505082,-0.018571233284209288,-0.06181171048663258
313,5,0.00042802022653631866,-5.33391757926438e-05,0.0006414082599803805,-0.014271974563598633,-0.010114917531609535,0.012279283255338669,-0.05372738093137741,0.0008970670751295984,0.08174589276313782,0.04764208942651749,0.0023620363790541887,-0.0377788320183754,0.0,0.0,0.0,0.0036580245941877365,-0.008271877653896809,-0.0,0.0,0.0,0.0,0.001767419744282961,0.00019718399562407285,0.003000000026077032,49459.0,1298.0,52213.0,8908.0,0.2297925055027008,0.003521732985973358,0.24836716055870056,0.026876695454120636,0.0,0.0,0.0,0.0,49065.0,1707.0,52592.0,8569.0,0.508571207523346,-0.06684359626550099,-0.02328436944068468,-0.05998512970116948
318,5,0.00032384783844463527,-0.00015550119860563427,0.0006233671447262168,-0.01886572688817978,0.011268207803368568,0.006209538318216801,-0.05372738093137741,0.0008970670751295984,0.08174589276313782,0.04764208942651749,0.0023620363790541887,-0.0377788320183754,0.0,0.0,0.0,-0.007321236655116081,-0.0106669245287776,-0.0,0.0,0.0,0.0,0.001767419744282961,0.00019718399562407285,0.003000000026077032,49459.0,1298.0,52213.0,8908.0,0.2297925055027008,0.003521732985973358,0.24836716055870056,0.026876695454120636,0.0,0.0,0.0,0.0,49065.0,1707.0,52592.0,8569.0,0.508592963218689,-0.072254687896811,-0.02543661126122166,-0.06257383356935667
323,5,0.00036482172436080873,-0.00014533103967551142,0.0006976842996664345,7.662799180252478e-05,0.001956639578565955,-0.008541540242731571,-0.05278778448700905,0.000990457134321332,0.08193175494670868,0.10205531120300293,0.0006106361979618669,0.039126716554164886,0.0,0.0,0.0,-0.0025773916859179735,-0.0009618900367058814,-0.0,0.0,0.0,0.0,0.0018062929157167673,-0.0001580815587658435,0.003000000026077032,49160.0,1805.0,52501.0,8488.0,0.2278139442205429,0.004931449890136719,0.2503458559513092,0.025467149913311005,0.0,0.0,0.0,0.0,49557.0,1448.0,52118.0,8786.0,0.5085523128509521,-0.07585733940825186,-0.01989678608211073,-0.06307437603829774
328,5,0.000282803550362587,-0.00016063703515101224,0.0007382041658274829,-0.01145955454558134,0.0027298321947455406,-0.008235243149101734,-0.05278778448700905,0.000990457134321332,0.08193175494670868,0.10205531120300293,0.0006106361979618669,0.039126716554164886,0.0,0.0,0.0,-0.002992024412378669,-0.006882147863507271,-0.0,0.0,0.0,0.0,0.0018062929157167673,-0.0001580815587658435,0.003000000026077032,49160.0,1805.0,52501.0,8488.0,0.2278139442205429,0.004931449890136719,0.2503458559513092,0.025467149913311005,0.0,0.0,0.0,0.0,49557.0,1448.0,52118.0,8786.0,0.5085647106170654,-0.07280023853788624,-0.022144387522860742,-0.061519762869847075
333,5,0.00015830784104764462,-0.00023897203209344298,0.0009895662078633904,-0.007780698128044605,0.01227990910410881,-0.016881566494703293,-0.05172012001276016,0.001131023047491908,0.08219464123249054,0.1524418145418167,-0.019443901255726814,0.048076968640089035,0.0,0.0,0.0,-0.00792878307402134,-0.005085682030767202,-0.0,0.0,0.0,0.0,0.0015915898839011788,0.00012976618018001318,0.003000000026077032,49551.0,1885.0,52124.0,8422.0,0.23040860891342163,0.0051572322845458984,0.24775683879852295,0.025246985256671906,0.0,0.0,0.0,0.0,49344.0,3999.0,52326.0,6548.0,0.5085729360580444,-0.08574461075455096,-0.03394405269258643,-0.06563914035455228
339,5,6.888110510772094e-05,-0.000232716032769531,0.001100461115129292,-0.014853953383862972,0.0028081319760531187,-0.020589761435985565,-0.05172012001276016,0.001131023047491908,0.08219464123249054,0.1524418145418167,-0.019443901255726814,0.048076968640089035,0.0,0.0,0.0,-0.0031107713002711535,-0.008749647997319698,-0.0,0.0,0.0,0.0,0.0015915898839011788,0.00012976618018001318,0.003000000026077032,49551.0,1885.0,52124.0,8422.0,0.23040860891342163,0.0051572322845458984,0.24775683879852295,0.025246985256671906,0.0,0.0,0.0,0.0,49344.0,3999.0,52326.0,6548.0,0.5085723400115967,-0.08392752244535971,-0.03546461548853754,-0.06653801145504454
344,5,0.000310542673105374,-0.00010824013588717207,0.0007768475916236639,0.029376434162259102,-0.016584184020757675,0.03912896662950516,-0.04961809888482094,0.0017356725875288248,0.08262831717729568,0.18648888170719147,-0.05949027091264725,0.01857694424688816,0.0,0.0,0.0,0.006853571627289057,0.013981884345412254,-0.0,0.0,0.0,0.0,0.00113373261410743,-0.0009241921361535788,0.003000000026077032,49175.0,4523.0,52489.0,6051.0,0.2279169261455536,0.01285167783498764,0.2502601742744446,0.017564184963703156,0.0,0.0,0.0,0.0,49052.0,4395.0,52605.0,6169.0,0.5086120367050171,-0.07941879761687001,-0.01959918362022529,-0.0705387009006792
349,5,-1.9628976588137448e-05,-0.0002796504704747349,0.0010583145776763558,-0.037411101162433624,0.01902218908071518,-0.027666689828038216,-0.04961809888482094,0.0017356725875288248,0.08262831717729568,0.18648888170719147,-0.05949027091264725,0.01857694424688816,0.0,0.0,0.0,-0.011428477242588997,-0.02028920128941536,-0.0,0.0,0.0,0.0,0.00113373261410743,-0.0009241921361535788,0.003000000026077032,49175.0,4523.0,52489.0,6051.0,0.2279169261455536,0.01285167783498764,0.2502601742744446,0.017564184963703156,0.0,0.0,0.0,0.0,49052.0,4395.0,52605.0,6169.0,0.5086883306503296,-0.08470042145165738,-0.03261638372380938,-0.06560529177370757
354,5,-0.00018486022599972785,-0.00027597841108217835,0.0012550067622214556,-0.03435570374131203,0.0051925708539783955,-0.03583691269159317,-0.04787242040038109,0.00263512902893126,0.08247710764408112,0.24902687966823578,-0.11176947504281998,-0.027299588546156883,0.0,0.0,0.0,-0.004395506344735622,-0.01886002905666828,-0.0,0.0,0.0,0.0,0.0008175208349712193,-0.0012712654424831271,0.003000000026077032,49020.0,5056.0,52635.0,5527.0,0.22689330577850342,0.014473684132099152,0.251269668340683,0.01592806726694107,0.0,0.0,0.0,0.0,48895.0,5659.0,52756.0,4923.0,0.50864577293396,-0.08418391997489294,-0.049006435288883855,-0.062373927881079747
359,5,-0.0003574099682737142,-0.0006467443890869617,0.0018887636251747608,-0.03446367383003235,0.05346500501036644,-0.09947703033685684,-0.04787242040038109,0.00263512902893126,0.08247710764408112,0.24902687966823578,-0.11176947504281998,-0.027299588546156883,0.0,0.0,0.0,-0.019529160112142563,-0.012706075794994831,-0.0,0.0,0.0,0.0,0.0008175208349712193,-0.0012712654424831271,0.003000000026077032,49020.0,5056.0,52635.0,5527.0,0.22689330577850342,0.014473684132099152,0.251269668340683,0.01592806726694107,0.0,0.0,0.0,0.0,48895.0,5659.0,52756.0,4923.0,0.7630326747894287,-0.06754493425309852,-0.04698537624160938,-0.05733572061006271
364,5,-0.0012520930031314492,-0.0006803146097809076,0.002135628368705511,-0.13559474050998688,0.02073933370411396,-0.06440416723489761,-0.043818600475788116,0.004411401692777872,0.08221703767776489,0.4079156219959259,-0.14906787872314453,-0.036662507802248,0.0,0.0,0.0,-0.008447159081697464,-0.04750574007630348,-0.0,0.0,0.0,0.0,0.00018517218995839357,-0.0016670149052515626,0.003000000026077032,48983.0,6441.0,52672.0,4109.0,0.2266438603401184,0.018797941505908966,0.2515229284763336,0.011607624590396881,0.0,0.0,0.0,0.0,49189.0,6512.0,52474.0,4034.0,0.7637144327163696,-0.07271713571971061,-0.0939503535289539,-0.04565300659075508
369,5,-0.0006728919688612223,-0.0005653039552271366,0.0020035363268107176,0.04040973260998726,-0.00987969059497118,-0.0008283820934593678,-0.043818600475788116,0.004411401692777872,0.08221703767776489,0.4079156219959259,-0.14906787872314453,-0.036662507802248,0.0,0.0,0.0,0.002968256128951907,0.01876191981136799,-0.0,0.0,0.0,0.0,0.00018517218995839357,-0.0016670149052515626,0.003000000026077032,48983.0,6441.0,52672.0,4109.0,0.2266438603401184,0.018797941505908966,0.2515229284763336,0.011607624590396881,0.0,0.0,0.0,0.0,49189.0,6512.0,52474.0,4034.0,0.5086421370506287,-0.058862085360302734,-0.05932135094268524,-0.05191890062018748
374,5,-0.0004605280118994415,-0.0005005669081583619,0.0018346860306337476,0.04185387119650841,-0.012027096003293991,0.02339054085314274,-0.03999245539307594,0.005497645121067762,0.0820964127779007,0.5031471848487854,-0.125009685754776,0.005301957484334707,0.0,0.0,0.0,0.004077749792486429,0.019619418308138847,-0.0,0.0,0.0,0.0,-0.0003370434569660574,-0.001100778579711914,0.003000000026077032,59222.0,23997.0,60379.0,20334.0,0.2983826994895935,0.08694925159215927,0.30701446533203125,0.0706867203116417,0.0,0.0,0.0,0.0,49477.0,8130.0,52204.0,2249.0,0.5086525082588196,-0.055531174923828724,-0.0432513521551441,-0.056506067085206425
379,5,-0.0005241060280241072,-0.0003956398577429354,0.0019472046988084912,0.0036552429664880037,-0.018297912552952766,-0.00873546116054058,-0.03999245539307594,0.005497645121067762,0.0820964127779007,0.5031471848487854,-0.125009685754776,0.005301957484334707,0.0,0.0,0.0,0.007324835751205683,7.630605978192762e-05,-0.0,0.0,0.0,0.0,-0.0003370434569660574,-0.001100778579711914,0.003000000026077032,59222.0,23997.0,60379.0,20334.0,0.2983826994895935,0.08694925159215927,0.30701446533203125,0.0706867203116417,0.0,0.0,0.0,0.0,49477.0,8130.0,52204.0,2249.0,0.5085640549659729,-0.04698506688176274,-0.038083477527518714,-0.05527311535480418
384,5,-0.0005261239712126553,-0.0004984847619198263,0.0019272944191470742,0.0008140592835843563,0.008908912539482117,0.00016680383123457432,-0.03999245539307594,0.005497645121067762,0.0820964127779007,0.5031471848487854,-0.125009685754776,0.005301957484334707,0.0,0.0,0.0,-0.006644540932029486,-0.0014051318867132068,-0.0,0.0,0.0,0.0,-0.0003370434569660574,-0.001100778579711914,0.003000000026077032,59222.0,23997.0,60379.0,20334.0,0.2983826994895935,0.08694925159215927,0.30701446533203125,0.0706867203116417,0.0,0.0,0.0,0.0,49477.0,8130.0,52204.0,2249.0,0.5085621476173401,-0.04829163626714521,-0.04128522593811066,-0.056136139508629224
389,5,-0.00041664025047793984,-0.0005551807698793709,0.0018204080406576395,0.015571936033666134,0.01061011478304863,0.01501413993537426,-0.03393679857254028,0.006648935843259096,0.08191782236099243,0.5098199248313904,-0.07058197259902954,-0.049361906945705414,0.0,0.0,0.0,-0.007585409563034773,0.006168445572257042,-0.0,0.0,0.0,0.0,0.0002404492988716811,0.0002548281045164913,0.003000000026077032,50980.0,4140.0,50720.0,6423.0,0.23997533321380615,0.011700324714183807,0.23822611570358276,0.018739931285381317,0.0,0.0,0.0,0.0,59292.0,24179.0,60309.0,20139.0,0.5085747241973877,-0.04478687585687737,-0.0322166137254633,-0.056923804784334835
394,5,-0.00043198445928283036,-0.00048818698269315064,0.0019439010648056865,0.0025233926717191935,-0.0061960951425135136,-0.012784776277840137,-0.03393679857254028,0.006648935843259096,0.08191782236099243,0.5098199248313904,-0.07058197259902954,-0.049361906945705414,0.0,0.0,0.0,0.000997872557491064,-0.0005191500531509519,-0.0,0.0,0.0,0.0,0.0002404492988716811,0.0002548281045164913,0.003000000026077032,50980.0,4140.0,50720.0,6423.0,0.23997533321380615,0.011700324714183807,0.23822611570358276,0.018739931285381317,0.0,0.0,0.0,0.0,59292.0,24179.0,60309.0,20139.0,0.5085507035255432,-0.041122521271515645,-0.02832897940286374,-0.06051273974594168
399,5,-0.0007489544223062694,-0.0005750878481194377,0.002049713861197233,-0.04361877217888832,0.010307295247912407,-0.01864922232925892,-0.02977779507637024,0.006931627634912729,0.08154038339853287,0.505078911781311,-0.004885776434093714,-0.05778837203979492,0.0,0.0,0.0,-0.007506512571126223,-0.02430058643221855,-0.0,0.0,0.0,0.0,-0.00020668770594056696,-0.000236091495025903,0.003000000026077032,50775.0,6192.0,50919.0,4371.0,0.2385942041873932,0.018008343875408173,0.23956745862960815,0.012392126023769379,0.0,0.0,0.0,0.0,51026.0,4153.0,50674.0,6411.0,0.5087149143218994,-0.03686799370845099,-0.054187442297200086,-0.05257704144492938
405,5,-0.0009392252541147172,-0.0005861401441507041,0.0022467286325991154,-0.03972354903817177,0.004639507737010717,-0.033176857978105545,-0.02977779507637024,0.006931627634912729,0.08154038339853287,0.505078911781311,-0.004885776434093714,-0.05778837203979492,0.0,0.0,0.0,-0.004661647602915764,-0.022506851702928543,-0.0,0.0,0.0,0.0,-0.00020668770594056696,-0.000236091495025903,0.003000000026077032,50775.0,6192.0,50919.0,4371.0,0.2385942041873932,0.018008343875408173,0.23956745862960815,0.012392126023769379,0.0,0.0,0.0,0.0,51026.0,4153.0,50674.0,6411.0,0.5086847543716431,-0.050088846083274775,-0.05685099775075449,-0.04872112312351441
410,5,-0.0007077794871293008,-0.0005345871322788298,0.0021476144902408123,0.020485341548919678,-0.005825567524880171,0.0039229323156178,-0.023928670212626457,0.006993889808654785,0.08077231049537659,0.4856545925140381,-0.007544631138443947,-0.050770558416843414,0.0,0.0,0.0,0.0006749901222065091,0.008297234773635864,-0.0,0.0,0.0,0.0,-2.206628596468363e-05,-0.00023565151786897331,0.003000000026077032,50580.0,5907.0,51113.0,4665.0,0.23727825284004211,0.01711209863424301,0.2408776879310608,0.013282649219036102,0.0,0.0,0.0,0.0,50733.0,6603.0,50961.0,3935.0,0.5085680484771729,-0.04108683543688912,-0.048900727274489506,-0.05517112026694071
415,5,-0.0007243762956932187,-0.0005260678590275347,0.0021220692433416843,0.0038220444694161415,-0.002940370701253414,0.0047532180324196815,-0.023928670212626457,0.006993889808654785,0.08077231049537659,0.4856545925140381,-0.007544631138443947,-0.050770558416843414,0.0,0.0,0.0,-0.0008214140543714166,-0.0002512501960154623,-0.0,0.0,0.0,0.0,-2.206628596468363e-05,-0.00023565151786897331,0.003000000026077032,50580.0,5907.0,51113.0,4665.0,0.23727825284004211,0.01711209863424301,0.2408776879310608,0.013282649219036102,0.0,0.0,0.0,0.0,50733.0,6603.0,50961.0,3935.0,0.5085505843162537,-0.03890797111444315,-0.04907680842476109,-0.05414398816659802
420,5,-0.0008521652198396623,-0.0004295040271244943,0.0021464794408529997,-0.01674382947385311,-0.014401048421859741,-0.001991472439840436,-0.01612227037549019,0.0078698405995965,0.08093644678592682,0.2914417088031769,-0.10491804778575897,0.033978171646595,0.0,0.0,0.0,0.005062218755483627,-0.010874073952436447,-0.0,0.0,0.0,0.0,-7.5592115535982884e-06,-0.0006581083289347589,0.003000000026077032,49517.0,8513.0,52166.0,1797.0,0.23018109798431396,0.02555137127637863,0.24804198741912842,0.00491052120923996,0.0,0.0,0.0,0.0,50451.0,6219.0,51240.0,4341.0,0.5085870027542114,-0.03844457706025103,-0.044033866549507535,-0.0541020684593884
425,5,-0.0006475755362771451,-0.0005390475853346288,0.0019097175681963563,0.023619404062628746,0.011015782132744789,0.032549239695072174,-0.01612227037549019,0.0078698405995965,0.08093644678592682,0.2914417088031769,-0.10491804778575897,0.033978171646595,0.0,0.0,0.0,-0.008000857196748257,0.00980423018336296,-0.0,0.0,0.0,0.0,-7.5592115535982884e-06,-0.0006581083289347589,0.003000000026077032,49517.0,8513.0,52166.0,1797.0,0.23018109798431396,0.02555137127637863,0.24804198741912842,0.00491052120923996,0.0,0.0,0.0,0.0,50451.0,6219.0,51240.0,4341.0,0.5085911154747009,-0.03704722250990076,-0.04169877594930754,-0.057825404764406854
430,5,-0.0008492292836308479,-0.0005275808507576585,0.0019985688850283623,-0.02114570327103138,0.001699395477771759,-0.0026744031347334385,-0.014522625133395195,0.009335643611848354,0.0809442400932312,0.16949646174907684,-0.21002480387687683,-0.060508325695991516,0.0,0.0,0.0,-0.0032763315830379725,-0.013204273767769337,-0.0,0.0,0.0,0.0,-3.0719822916580597e-06,-0.0020037456415593624,0.003000000026077032,49337.0,7874.0,52330.0,2522.0,0.22898785769939423,0.023430608212947845,0.2491680383682251,0.00696408748626709,0.0,0.0,0.0,0.0,49346.0,8719.0,52331.0,1551.0,0.5085974931716919,-0.033139635594027626,-0.04878382333720303,-0.05535298226677223
435,5,-0.0008581234724260867,-0.00042499578557908535,0.0020954322535544634,-0.007588900625705719,-0.013852092437446117,-0.014363221824169159,-0.014522625133395195,0.009335643611848354,0.0809442400932312,0.16949646174907684,-0.21002480387687683,-0.060508325695991516,0.0,0.0,0.0,0.004696979653090239,-0.006352294236421585,-0.0,0.0,0.0,0.0,-3.0719822916580597e-06,-0.0020037456415593624,0.003000000026077032,49337.0,7874.0,52330.0,2522.0,0.22898785769939423,0.023430608212947845,0.2491680383682251,0.00696408748626709,0.0,0.0,0.0,0.0,49346.0,8719.0,52331.0,1551.0,0.5085662603378296,-0.032337405164985664,-0.03672837928226862,-0.05663719363209786
440,5,-0.0006057939608581364,-0.00041117818909697235,0.0019730746280401945,0.03304946422576904,-0.006090091075748205,0.012821104377508163,-0.01314125768840313,0.012500623241066933,0.07998564839363098,0.11661136150360107,-0.2759709358215332,-0.0793665200471878,0.0,0.0,0.0,0.0007256868411786854,0.01450083777308464,-0.0,0.0,0.0,0.0,0.00023723066260572523,-0.001849089516326785,0.003000000026077032,49424.0,8294.0,52249.0,2040.0,0.22956514358520508,0.024821393191814423,0.24861100316047668,0.005593553185462952,0.0,0.0,0.0,0.0,49176.0,8071.0,52485.0,2294.0,0.5086039900779724,-0.031196815057488538,-0.02898873985815817,-0.058767350988629834
445,5,-0.0005855204653926194,-0.0004167966835666448,0.001921570859849453,0.01275312714278698,-0.0010404384229332209,0.011056863702833652,-0.01314125768840313,0.012500623241066933,0.07998564839363098,0.11661136150360107,-0.2759709358215332,-0.0793665200471878,0.0,0.0,0.0,-0.0018763531697914004,0.004137144424021244,-0.0,0.0,0.0,0.0,0.00023723066260572523,-0.001849089516326785,0.003000000026077032,49424.0,8294.0,52249.0,2040.0,0.22956514358520508,0.024821393191814423,0.24861100316047668,0.005593553185462952,0.0,0.0,0.0,0.0,49176.0,8071.0,52485.0,2294.0,0.5085556507110596,-0.028407620751812832,-0.024575690823445163,-0.05923229241172673
450,5,-0.0006240258226171136,-0.000295729172648862,0.001998778199777007,-0.0015648092376068234,-0.017261583358049393,-0.007491967175155878,-0.012340706773102283,0.014889382757246494,0.07946760952472687,0.13245251774787903,-0.3152712881565094,-0.06626614183187485,0.0,0.0,0.0,0.006459052674472332,-0.003224857384338975,-0.0,0.0,0.0,0.0,-1.8090764569933526e-05,-0.0018660349305719137,0.003000000026077032,48204.0,9357.0,53410.0,744.0,0.22153215110301971,0.02840077131986618,0.25663161277770996,0.0020017698407173157,0.0,0.0,0.0,0.0,48128.0,9754.0,53481.0,239.0,0.5085636377334595,-0.02166780042992777,-0.01387524247361365,-0.05920083138316961
455,5,-0.00036841072142124176,-0.00037929791142232716,0.0017952765338122845,0.035316672176122665,0.006521148141473532,0.026242651045322418,-0.012340706773102283,0.014889382757246494,0.07946760952472687,0.13245251774787903,-0.3152712881565094,-0.06626614183187485,0.0,0.0,0.0,-0.005743187852203846,0.01573052443563938,-0.0,0.0,0.0,0.0,-1.8090764569933526e-05,-0.0018660349305719137,0.003000000026077032,48204.0,9357.0,53410.0,744.0,0.22153215110301971,0.02840077131986618,0.25663161277770996,0.0020017698407173157,0.0,0.0,0.0,0.0,48128.0,9754.0,53481.0,239.0,0.5086216926574707,-0.021642001000719033,-0.0030267731508476763,-0.061411048758941635
460,5,-0.0007325898623093963,-0.00041368691017851233,0.0018058845307677984,-0.04039008170366287,0.006770804990082979,0.006387671455740929,-0.010503310710191727,0.01870962418615818,0.07896463572978973,0.15792152285575867,-0.31624963879585266,-0.026974985376000404,0.0,0.0,0.0,-0.005918919108808041,-0.023152071982622147,-0.0,0.0,0.0,0.0,0.0002575254184193909,-0.0026768785901367664,0.003000000026077032,48166.0,9786.0,53446.0,198.0,0.221286803483963,0.02987305074930191,0.25687697529792786,0.0005295053124427795,0.0,0.0,0.0,0.0,48791.0,9437.0,52854.0,640.0,0.508695662021637,-0.017760398368809233,-0.021119213165359918,-0.058477976338151855
466,5,-0.000536140229087323,-0.0002880544343497604,0.0018147901864722371,0.015385927632451057,-0.0155573021620512,0.0006695121410302818,-0.010503310710191727,0.01870962418615818,0.07896463572978973,0.15792152285575867,-0.31624963879585266,-0.026974985376000404,0.0,0.0,0.0,0.00553118484094739,0.005378709640353918,-0.0,0.0,0.0,0.0,0.0002575254184193909,-0.0026768785901367664,0.003000000026077032,48166.0,9786.0,53446.0,198.0,0.221286803483963,0.02987305074930191,0.25687697529792786,0.0005295053124427795,0.0,0.0,0.0,0.0,48791.0,9437.0,52854.0,640.0,0.5085655450820923,-0.009224174216153493,0.003924197722260775,-0.05656645785087352
471,5,-0.0005563739105127752,-0.0003611096180975437,0.0017601401777938008,0.001783065847121179,0.00556053314357996,0.00785184744745493,-0.009163273498415947,0.021040454506874084,0.07898092269897461,0.18075357377529144,-0.2969089150428772,0.045483313500881195,0.0,0.0,0.0,-0.005305445287376642,-0.001602174248546362,-0.0,0.0,0.0,0.0,-3.396037936909124e-05,-0.002274606376886368,0.003000000026077032,48819.0,9717.0,52827.0,284.0,0.22556498646736145,0.029636166989803314,0.25259339809417725,0.0007610246539115906,0.0,0.0,0.0,0.0,49377.0,9193.0,52297.0,959.0,0.5085582137107849,-0.01977444371989025,-0.006057717532130223,-0.0601092335904105
476,5,-0.000898810860235244,-0.0005422412068583071,0.002069502603262663,-0.04740625619888306,0.0270265843719244,-0.04095517098903656,-0.009163273498415947,0.021040454506874084,0.07898092269897461,0.18075357377529144,-0.2969089150428772,0.045483313500881195,0.0,0.0,0.0,-0.016399631276726723,-0.026962852105498314,-0.0,0.0,0.0,0.0,-3.396037936909124e-05,-0.002274606376886368,0.003000000026077032,48819.0,9717.0,52827.0,284.0,0.22556498646736145,0.029636166989803314,0.25259339809417725,0.0007610246539115906,0.0,0.0,0.0,0.0,49377.0,9193.0,52297.0,959.0,0.5088037252426147,-0.03783256908388417,-0.038932907931579476,-0.05418770612612881
481,5,-0.0008130256901495159,-0.00045097406837157905,0.0020403850357979536,-0.0022119558416306973,-0.004669426940381527,-0.00821010209619999,-0.009163273498415947,0.021040454506874084,0.07898092269897461,0.18075357377529144,-0.2969089150428772,0.045483313500881195,0.0,0.0,0.0,-0.00021522241877391934,-0.003923681564629078,-0.0,0.0,0.0,0.0,-3.396037936909124e-05,-0.002274606376886368,0.003000000026077032,48819.0,9717.0,52827.0,284.0,0.22556498646736145,0.029636166989803314,0.25259339809417725,0.0007610246539115906,0.0,0.0,0.0,0.0,49377.0,9193.0,52297.0,959.0,0.5085543394088745,-0.03541662176607533,-0.030646301871722997,-0.05840302700232534
486,5,-0.0009787132730707526,-0.0005157982232049108,0.0021684300154447556,-0.023859841749072075,0.007674552034586668,-0.020389316603541374,-0.007064370904117823,0.02421002835035324,0.07982669770717621,0.18449094891548157,-0.2345852255821228,0.06481429934501648,0.0,0.0,0.0,-0.006581832654774189,-0.015130463056266308,-0.0,0.0,0.0,0.0,-0.00023651339870411903,-0.0019776199478656054,0.003000000026077032,49516.0,8979.0,52162.0,1223.0,0.2301717847585678,0.02711721509695053,0.24801963567733765,0.003313004970550537,0.0,0.0,0.0,0.0,49212.0,9587.0,52451.0,451.0,0.5086196064949036,-0.040296920882644666,-0.047998587215430634,-0.05488597020731234
491,5,-0.0009259704384021461,-0.00047935740440152586,0.002086412627249956,0.00022603975958190858,-0.002799345413222909,0.00536561943590641,-0.007064370904117823,0.02421002835035324,0.07982669770717621,0.18449094891548157,-0.2345852255821228,0.06481429934501648,0.0,0.0,0.0,-0.0012481360463425517,-0.0028752959333360195,-0.0,0.0,0.0,0.0,-0.00023651339870411903,-0.0019776199478656054,0.003000000026077032,49516.0,8979.0,52162.0,1223.0,0.2301717847585678,0.02711721509695053,0.24801963567733765,0.003313004970550537,0.0,0.0,0.0,0.0,49212.0,9587.0,52451.0,451.0,0.5085529088973999,-0.03645093240459763,-0.024487901981524257,-0.05699518503575311
496,5,-0.0006483744946308434,-0.0004801630857400596,0.0019438148010522127,0.03893124312162399,-0.0007270116475410759,0.021573398262262344,-0.005804397165775299,0.025788016617298126,0.07971600443124771,0.18855874240398407,-0.17694202065467834,-0.05263189598917961,0.0,0.0,0.0,-0.002333239419385791,0.017008338123559952,-0.0,0.0,0.0,0.0,-0.00022735426318831742,-0.0016929575940594077,0.003000000026077032,49355.0,9496.0,52313.0,567.0,0.22910338640213013,0.02887526899576187,0.24905633926391602,0.001523233950138092,0.0,0.0,0.0,0.0,49200.0,9352.0,52462.0,748.0,0.508625328540802,-0.030570082254996734,-0.012718982423525586,-0.06481938630561802
501,5,-0.0007439152104780078,-0.00045006521395407617,0.0018302486278116703,-0.0016963290981948376,-0.004431801848113537,0.02237127162516117,-0.005804397165775299,0.025788016617298126,0.07971600443124771,0.18855874240398407,-0.17694202065467834,-0.05263189598917961,0.0,0.0,0.0,-0.0004515706968959421,-0.003810217836871743,-0.0,0.0,0.0,0.0,-0.00022735426318831742,-0.0016929575940594077,0.003000000026077032,49355.0,9496.0,52313.0,567.0,0.22910338640213013,0.02887526899576187,0.24905633926391602,0.001523233950138092,0.0,0.0,0.0,0.0,49200.0,9352.0,52462.0,748.0,0.5085541605949402,-0.022821541891371477,-0.020455483123605657,-0.06210887394364747
