timestamp,dt,pos_x,pos_y,pos_z,vel_x,vel_y,vel_z,roll,pitch,yaw,agv_x,agv_y,agv_z,x_ref,y_ref,z_ref,roll_ref,pitch_ref,yaw_ref,x_vel_ref,y_vel_ref,z_vel_ref,x_torque,y_torque,z_torque,w0,w1,w2,w3,u0,u1,u2,u3,m0req,m1req,m2req,m3req,thrust0,thrust1,thrust2,thrust3,thrust_ref,roll_vicon,pitch_vicon,yaw_vicon,acc_x,acc_y,acc_z
5,5,0.0,0.0,0.0,-0.0003591249405872077,-0.018267542123794556,0.003001059638336301,-0.023658359423279762,0.08385981619358063,-0.02530280500650406,-0.0006927425274625421,0.1281653344631195,-0.004879728425294161,0.0,0.0,0.0,0.018619194626808167,-0.00036608046502806246,-0.0,0.0,0.0,0.0,0.0013803507899865508,-0.0020599665585905313,-0.0007995433988980949,0.0,0.0,0.0,0.0,0.0,0.0,0.0,0.0,0.0,0.0,0.0,0.0,0.0,0.0,0.0,0.0,0.3390924036502838,-0.037468535157139916,-0.04897640202777682,0.003975700175866819,0.0014364997623488307,0.07307016849517822,-0.009003179147839546
29,24,0.0,0.0,0.0,0.0011399881914258003,-0.013477930799126625,-0.00588448578491807,-0.023658359423279762,0.08385981619358063,-0.02530280500650406,-0.0006927425274625421,0.1281653344631195,-0.004879728425294161,0.0,0.0,0.0,0.013738097622990608,0.0011620669392868876,-0.0,0.0,0.0,0.0,0.0013803507899865508,-0.0020599665585905313,-0.0007995433988980949,0.0,0.0,0.0,0.0,0.0,0.0,0.0,0.0,0.0,0.0,0.0,0.0,0.0,0.0,0.0,0.0,0.339065819978714,-0.04050217558542868,-0.047437887759735245,0.003206890096746083,-0.004559952765703201,0.0539117231965065,0.017653457820415497
34,5,0.0,0.0,0.0,0.0026136229280382395,-0.011686431244015694,0.00037867529317736626,-0.023658359423279762,0.08385981619358063,-0.02530280500650406,-0.0006927425274625421,0.1281653344631195,-0.004879728425294161,0.0,0.0,0.0,0.011912168003618717,0.0026642372831702232,-0.0,0.0,0.0,0.0,0.0013803507899865508,-0.0020599665585905313,-0.0007995433988980949,0.0,0.0,0.0,0.0,0.0,0.0,0.0,0.0,0.0,0.0,0.0,0.0,0.0,0.0,0.0,0.0,0.33905884623527527,-0.04011334895032338,-0.04701375835925599,0.0032030777821292536,-0.010454491712152958,0.046745724976062775,-0.0011360258795320988
45,11,0.0,0.0,0.0,0.0011656411224976182,-0.01425917912274599,-0.00010154354822589085,-0.023476622998714447,0.08150914311408997,-0.02568746916949749,0.010394505225121975,0.09874856472015381,-0.020251724869012833,0.0,0.0,0.0,0.014534316956996918,0.0011882167309522629,-0.0,0.0,0.0,0.0,0.0013408458326011896,-0.0020706895738840103,-0.0007964757387526333,0.0,0.0,0.0,0.0,0.0,0.0,0.0,0.0,0.0,0.0,0.0,0.0,0.0,0.0,0.0,0.0,0.339069664478302,-0.04024268493319075,-0.046348942651189745,0.003249304728897906,-0.004662564489990473,0.05703671649098396,0.0003046306374017149
55,10,0.0,0.0,0.0,0.010516779497265816,-0.008277814835309982,-0.019448349252343178,-0.023476622998714447,0.08150914311408997,-0.02568746916949749,0.010394505225121975,0.09874856472015381,-0.020251724869012833,0.0,0.0,0.0,0.00843745470046997,0.010720057412981987,-0.0,0.0,0.0,0.0,0.0013408458326011896,-0.0020706895738840103,-0.0007964757387526333,0.0,0.0,0.0,0.0,0.0,0.0,0.0,0.0,0.0,0.0,0.0,0.0,0.0,0.0,0.0,0.0,0.33906516432762146,-0.050508566121188536,-0.05385623776020759,0.0037421232201922394,-0.04206711798906326,0.03311125934123993,0.05834504961967468
60,5,-4.5231430704006925e-05,0.00022326278849504888,9.027590567711741e-05,-0.003177366452291608,-0.03374013677239418,-0.018473131582140923,-0.023369798436760902,0.08070532232522964,-0.025978147983551025,0.006459459662437439,0.04439420625567436,-0.015607885085046291,0.0,0.0,0.0,0.00843745470046997,0.010720057412981987,-0.0,0.0,0.0,0.0,0.0012724099215120077,-0.0025199842639267445,-0.0007202011765912175,10905.0,31153.0,21426.0,28420.0,0.03377819061279297,0.1218319982290268,0.0754213035106659,0.10802735388278961,0.0,0.0,0.0,0.0,10862.0,31160.0,21732.0,28171.0,0.33906516432762146,-0.05339019057506631,-0.04936378525001783,-0.002202721353512907,0.012980944477021694,0.13630056381225586,0.056775789707899094
65,5,-4.718772470369004e-05,0.0003213869349565357,8.260345930466428e-05,-0.0012270910665392876,-0.02385942079126835,-0.0044677965342998505,-0.023369798436760902,0.08070532232522964,-0.025978147983551025,0.006459459662437439,0.04439420625567436,-0.015607885085046291,0.0,0.0,0.0,0.03723134845495224,-0.001325639197602868,-0.0,0.0,0.0,0.0,0.0012724099215120077,-0.0025199842639267445,-0.0007202011765912175,10905.0,31153.0,21426.0,28420.0,0.03377819061279297,0.1218319982290268,0.0754213035106659,0.10802735388278961,0.0,0.0,0.0,0.0,10862.0,31160.0,21732.0,28171.0,0.3392690122127533,-0.050657029977235805,-0.04794364960862529,-0.004921604851136275,0.005201905500143766,0.09741794317960739,0.014901408925652504
70,5,-0.0003574084257707,0.00021539167209994048,-0.0002125879400409758,-0.0437990240752697,0.0076815104112029076,0.03998645767569542,-0.023553134873509407,0.08017733693122864,-0.026132473722100258,-0.0034351248759776354,0.04334167763590813,-0.013294489122927189,0.0,0.0,0.0,-0.01062878780066967,-0.04292002692818642,-0.0,0.0,0.0,0.0,0.0010718615958467126,-0.0020437452476471663,-0.0008298103930428624,11362.0,31019.0,20930.0,28670.0,0.03540121018886566,0.12114165723323822,0.07325834035873413,0.10926395654678345,0.0,0.0,0.0,0.0,10276.0,31228.0,21937.0,28336.0,0.35717496275901794,-0.08575631444968317,-0.05467210775193698,0.0025369510352743784,0.1773662269115448,-0.02929111383855343,-0.12261812388896942
75,5,-0.00016456848243251443,0.0008075805963017046,-0.0001517980854259804,0.013857883401215076,-0.0806019976735115,0.003485357156023383,-0.023553134873509407,0.08017733693122864,-0.026132473722100258,-0.0034351248759776354,0.04334167763590813,-0.013294489122927189,0.0,0.0,0.0,0.10839920490980148,0.012019938789308071,-0.0,0.0,0.0,0.0,0.0010718615958467126,-0.0020437452476471663,-0.0008298103930428624,11362.0,31019.0,20930.0,28670.0,0.03540121018886566,0.12114165723323822,0.07325834035873413,0.10926395654678345,0.0,0.0,0.0,0.0,10276.0,31228.0,21937.0,28336.0,0.3930973410606384,-0.04982926367778683,-0.0573642014284395,-0.005702750345186601,-0.054364945739507675,0.3274339735507965,-0.012606124393641949
80,5,-0.00038540593232028186,0.0008984305313788354,-0.00015556463040411472,-0.026759877800941467,-0.036899592727422714,0.0015729235019534826,-0.023566994816064835,0.07961461693048477,-0.02619273029267788,0.0016389068914577365,0.07406432181596756,0.005030023865401745,0.0,0.0,0.0,0.05538257211446762,-0.026365164667367935,-0.0,0.0,0.0,0.0,0.0019872079137712717,-0.0022477549500763416,-0.0007979903020896018,9695.0,29974.0,22707.0,29379.0,0.029560139402747154,0.11580521613359451,0.0811014249920845,0.1128024086356163,0.0,0.0,0.0,0.0,11713.0,30834.0,20999.0,28547.0,0.35945120453834534,-0.044753850799422346,-0.033660559927567495,-0.003300109722337325,0.10950729995965958,0.15344198048114777,-0.00754879554733634
85,5,-0.000202570779947564,0.00048198073636740446,-0.00029686957714147866,0.017568957060575485,0.04723310098052025,0.020254570990800858,-0.023566994816064835,0.07961461693048477,-0.02619273029267788,0.0016389068914577365,0.07406432181596756,0.005030023865401745,0.0,0.0,0.0,-0.06655387580394745,0.016483217477798462,-0.0,0.0,0.0,0.0,0.0019872079137712717,-0.0022477549500763416,-0.0007979903020896018,9695.0,29974.0,22707.0,29379.0,0.029560139402747154,0.11580521613359451,0.0811014249920845,0.1128024086356163,0.0,0.0,0.0,0.0,11713.0,30834.0,20999.0,28547.0,0.36170294880867004,-0.07371361979454148,-0.04998776379437155,0.0058561402414746095,-0.06884907186031342,-0.18545690178871155,-0.06602265685796738
93,8,-0.00021265966643113643,0.0007058744668029249,-0.0002436271752230823,0.003858243813738227,-0.01717519573867321,-0.001377565786242485,-0.023659292608499527,0.07855357974767685,-0.02605833299458027,0.008519143797457218,0.09762376546859741,-0.00693697901442647,0.0,0.0,0.0,0.028150174766778946,0.0035403596702963114,-0.0,0.0,0.0,0.0,0.004315381869673729,-0.0017218388384208083,-0.0007773052202537656,10468.0,29153.0,27892.0,35272.0,0.03224187716841698,0.11166822910308838,0.10542741417884827,0.1437787413597107,0.0,0.0,0.0,0.0,10220.0,29620.0,22980.0,29129.0,0.33917009830474854,-0.06036814143599204,-0.046011631378944394,0.0029489319957310737,-0.013892428949475288,0.07364996522665024,-0.0012878811685368419
98,5,-0.0001606722507858649,0.0006183257792145014,-0.00026388600235804915,0.00843571126461029,0.007104255259037018,0.00242296583019197,-0.023659292608499527,0.07855357974767685,-0.02605833299458027,0.008519143797457218,0.09762376546859741,-0.00693697901442647,0.0,0.0,0.0,-0.009076804853975773,0.008267351426184177,-0.0,0.0,0.0,0.0,0.004315381869673729,-0.0017218388384208083,-0.0007773052202537656,10468.0,29153.0,27892.0,35272.0,0.03224187716841698,0.11166822910308838,0.10542741417884827,0.1437787413597107,0.0,0.0,0.0,0.0,10220.0,29620.0,22980.0,29129.0,0.33905914425849915,-0.06577006537313816,-0.04870868374066796,0.004199298216577027,-0.032441504299640656,-0.02374478615820408,-0.01411653682589531
103,5,-0.00017556335660628974,0.0006516115390695632,-0.00026591139612719417,0.0015270899748429656,0.0015766030410304666,0.0009833242511376739,-0.023703057318925858,0.07768863439559937,-0.025830285623669624,0.021288536489009857,0.09393142908811569,0.04785653576254845,0.0,0.0,0.0,-0.0004956402699463069,0.0011931019835174084,-0.0,0.0,0.0,0.0,0.004327191971242428,-0.0016648018499836326,-0.0007131085149012506,11274.0,28569.0,28489.0,34745.0,0.03508958965539932,0.10876155644655228,0.10836760699748993,0.14089751243591309,0.0,0.0,0.0,0.0,10605.0,29009.0,27777.0,35418.0,0.3390338718891144,-0.06507605433669478,-0.0473509370592069,0.003839309291342631,-0.0046813832595944405,-0.0012952926335856318,-0.010567380115389824
108,5,-0.00015628118126187474,0.0006865106988698244,-0.00024601496988907456,0.003157631726935506,-0.004412896931171417,-0.002490504179149866,-0.023703057318925858,0.07768863439559937,-0.025830285623669624,0.021288536489009857,0.09393142908811569,0.04785653576254845,0.0,0.0,0.0,0.008813867345452309,0.002871943637728691,-0.0,0.0,0.0,0.0,0.004327191971242428,-0.0016648018499836326,-0.0007131085149012506,11274.0,28569.0,28489.0,34745.0,0.03508958965539932,0.10876155644655228,0.10836760699748993,0.14089751243591309,0.0,0.0,0.0,0.0,10605.0,29009.0,27777.0,35418.0,0.3390481770038605,-0.06379698812244004,-0.04741880399242728,0.0043110261193378685,-0.011269224807620049,0.023058811202645302,-0.0007955945329740644
113,5,-0.00014656213170383126,0.0007039375486783683,-0.00024238380137830973,0.00230795587413013,-0.0037636333145201206,-0.0012555152643471956,-0.02369764633476734,0.07624722272157669,-0.025160951539874077,0.03351547569036484,0.08427158743143082,0.05769236758351326,0.0,0.0,0.0,0.007935171946883202,0.002009460935369134,-0.0,0.0,0.0,0.0,-0.0013775697443634272,-0.0013625570572912693,-0.0006783260614611208,18876.0,33376.0,19064.0,26433.0,0.06451298296451569,0.13350746035575867,0.06529727578163147,0.09836350381374359,0.0,0.0,0.0,0.0,13662.0,30948.0,20830.0,27111.0,0.3390449583530426,-0.06227000064379589,-0.046787757504573264,0.004488528314207822,-0.007884842343628407,0.020760053768754005,-0.005312933586537838
118,5,-0.00014656213170383126,0.0007039375486783683,-0.00024238380137830973,0.00230795587413013,-0.0037636333145201206,-0.0012555152643471956,-0.02369764633476734,0.07624722272157669,-0.025160951539874077,0.03351547569036484,0.08427158743143082,0.05769236758351326,0.0,0.0,0.0,0.008015896193683147,0.0019982559606432915,-0.0,0.0,0.0,0.0,-0.0013775697443634272,-0.0013625570572912693,-0.0006783260614611208,18876.0,33376.0,19064.0,26433.0,0.06451298296451569,0.13350746035575867,0.06529727578163147,0.09836350381374359,0.0,0.0,0.0,0.0,13662.0,30948.0,20830.0,27111.0,0.3390451669692993,-0.06227000064379589,-0.046787757504573264,0.004488528314207822,-0.007841167040169239,0.020969826728105545,-0.0062158131040632725
123,5,-8.596361294621602e-05,0.0007146609714254737,-0.0003223640669602901,0.004486856982111931,0.0012715343618765473,0.013276146724820137,-0.02376922406256199,0.07546897232532501,-0.02482558973133564,-0.02960742451250553,0.08014001697301865,0.03974283114075661,0.0,0.0,0.0,0.0004174466885160655,0.004301521461457014,-0.0,0.0,0.0,0.0,0.0005620864685624838,-0.0016123016830533743,-0.0006742094410583377,14165.0,30190.0,20898.0,27458.0,0.04573054984211922,0.1169007271528244,0.07312171161174774,0.10330606997013092,0.0,0.0,0.0,0.0,14228.0,30235.0,20975.0,27294.0,0.339036762714386,-0.061551811867307744,-0.052538976669906264,0.005681904734280682,-0.01687910221517086,0.0010934799211099744,-0.051876962184906006
128,5,7.623680721735582e-05,0.000628613808657974,-0.0004462088691070676,0.024054115638136864,0.012428068555891514,0.021321117877960205,-0.02376922406256199,0.07546897232532501,-0.02482558973133564,-0.02960742451250553,0.08014001697301865,0.03974283114075661,0.0,0.0,0.0,-0.016690537333488464,0.024394208565354347,-0.0,0.0,0.0,0.0,0.0005620864685624838,-0.0016123016830533743,-0.0006742094410583377,14165.0,30190.0,20898.0,27458.0,0.04573054984211922,0.1169007271528244,0.07312171161174774,0.10330606997013092,0.0,0.0,0.0,0.0,14228.0,30235.0,20975.0,27294.0,0.34043657779693604,-0.06935774926154498,-0.05994893265098604,-0.0011970191259653442,-0.09609606862068176,-0.043838828802108765,-0.07905423641204834
133,5,7.623680721735582e-05,0.000628613808657974,-0.0004462088691070676,0.024054115638136864,0.012428068555891514,0.021321117877960205,-0.02376922406256199,0.07546897232532501,-0.02482558973133564,-0.02960742451250553,0.08014001697301865,0.03974283114075661,0.0,0.0,0.0,-0.016633126884698868,0.02439962886273861,-0.0,0.0,0.0,0.0,0.0005620864685624838,-0.0016123016830533743,-0.0006742094410583377,14165.0,30190.0,20898.0,27458.0,0.04573054984211922,0.1169007271528244,0.07312171161174774,0.10330606997013092,0.0,0.0,0.0,0.0,14228.0,30235.0,20975.0,27294.0,0.340425968170166,-0.06935774926154498,-0.05994893265098604,-0.0011970191259653442,-0.09611466526985168,-0.04368544742465019,-0.08041517436504364
138,5,-8.094626537058502e-05,0.0006573331193067133,-0.0002245050563942641,-2.229492565675173e-05,-0.0016136232297867537,-0.02075159177184105,-0.023646777495741844,0.07425996661186218,-0.024351034313440323,0.05098229646682739,0.08413311094045639,0.021391727030277252,0.0,0.0,0.0,0.004895696882158518,-0.0002845091512426734,-0.0,0.0,0.0,0.0,0.0008736872696317732,-0.0016413185512647033,-0.0007560823578387499,13126.0,29968.0,21643.0,27820.0,0.04182783514261246,0.11577064543962479,0.07637510448694229,0.10507477074861526,0.0,0.0,0.0,0.0,13469.0,29777.0,21256.0,28101.0,0.33903768658638,-0.06002907600232058,-0.0515230803194086,0.0039565625178630374,0.0011165759060531855,0.01280850451439619,0.04777859151363373
144,5,-0.00010257585381623358,0.000666057167109102,-0.00022166235430631787,-0.003034830093383789,-0.0017054580384865403,-0.006623455788940191,-0.023646777495741844,0.07425996661186218,-0.024351034313440323,0.05098229646682739,0.08413311094045639,0.021391727030277252,0.0,0.0,0.0,0.005128474906086922,-0.003394413972273469,-0.0,0.0,0.0,0.0,0.0008736872696317732,-0.0016413185512647033,-0.0007560823578387499,13126.0,29968.0,21643.0,27820.0,0.04182783514261246,0.11577064543962479,0.07637510448694229,0.10507477074861526,0.0,0.0,0.0,0.0,13469.0,29777.0,21256.0,28101.0,0.33904001116752625,-0.05840467929373564,-0.0498118099170665,0.0036007662190055576,0.013319936580955982,0.013417552225291729,0.004628817550837994
149,5,-3.4961183700943366e-05,0.0005801367806270719,-0.00023768948449287564,0.00855560414493084,0.011517220176756382,0.0002567630144767463,-0.02373560145497322,0.07325782626867294,-0.02432820200920105,-0.018597785383462906,0.15406441688537598,0.00689042080193758,0.0,0.0,0.0,-0.015209888108074665,0.008515950292348862,-0.0,0.0,0.0,0.0,0.00013662682613357902,-0.0006336850929073989,-0.000773799663875252,16228.0,29813.0,18192.0,28823.0,0.053735390305519104,0.11498847603797913,0.061675652861595154,0.11002486944198608,0.0,0.0,0.0,0.0,14536.0,29293.0,20491.0,28447.0,0.33908510208129883,-0.060279957671277654,-0.050499298477131215,0.0019959171722048947,-0.03341732546687126,-0.03979071229696274,-0.01707914099097252
154,5,-0.00014819113130215555,0.00041967161814682186,-0.00017027395369950682,-0.013285511173307896,0.025920286774635315,-0.009361145086586475,-0.02373560145497322,0.07325782626867294,-0.02432820200920105,-0.018597785383462906,0.15406441688537598,0.00689042080193758,0.0,0.0,0.0,-0.037223804742097855,-0.013810347765684128,-0.0,0.0,0.0,0.0,0.00013662682613357902,-0.0006336850929073989,-0.000773799663875252,16228.0,29813.0,18192.0,28823.0,0.053735390305519104,0.11498847603797913,0.061675652861595154,0.11002486944198608,0.0,0.0,0.0,0.0,14536.0,29293.0,20491.0,28447.0,0.3420636057853699,-0.07139027002600709,-0.0460305256224436,0.0068416129744624755,0.05463651195168495,-0.09819985181093216,0.011936076916754246
159,5,-0.00010036743333330378,0.0006466105696745217,-0.00014853842731099576,0.002709664637222886,-0.02399536967277527,-0.0058513181284070015,-0.023520175367593765,0.07127073407173157,-0.024400506168603897,0.04207534343004227,0.18516898155212402,0.016654808074235916,0.0,0.0,0.0,0.03924953565001488,0.0024397538509219885,-0.0,0.0,0.0,0.0,0.0009896935662254691,-0.0013298324774950743,-0.0007649597246199846,12812.0,30061.0,20136.0,29277.0,0.04066777974367142,0.11624322086572647,0.06983932107686996,0.11228974908590317,0.0,0.0,0.0,0.0,15783.0,30010.0,18287.0,28896.0,0.34004923701286316,-0.05704942350715948,-0.04727083670591029,0.0035570489521897434,-0.009594667702913284,0.10292984545230865,0.0012064098846167326
164,5,-0.0001110767261707224,0.0006153787835501134,-0.00014149612979963422,-0.000686401966959238,-0.002826155861839652,-0.002741316333413124,-0.023520175367593765,0.07127073407173157,-0.024400506168603897,0.04207534343004227,0.18516898155212402,0.016654808074235916,0.0,0.0,0.0,0.006966020446270704,-0.001039343886077404,-0.0,0.0,0.0,0.0,0.0009896935662254691,-0.0013298324774950743,-0.0007649597246199846,12812.0,30061.0,20136.0,29277.0,0.04066777974367142,0.11624322086572647,0.06983932107686996,0.11228974908590317,0.0,0.0,0.0,0.0,15783.0,30010.0,18287.0,28896.0,0.3390420079231262,-0.05916560625551173,-0.04397788713003561,0.00504975202782509,0.004078386817127466,0.018223250284790993,-0.008470650762319565
169,5,-8.245762001024559e-05,0.0006440184079110622,-6.663171370746568e-05,0.003800754202529788,-0.0048573995009064674,-0.011303414590656757,-0.023509753867983818,0.06782309710979462,-0.025222117081284523,0.022551562637090683,0.171564981341362,-0.041924841701984406,0.0,0.0,0.0,0.010204289108514786,0.003570468630641699,-0.0,0.0,0.0,0.0,-0.0004357513680588454,-0.0015268740244209766,-0.0008481348631903529,14558.0,32623.0,17988.0,27699.0,0.04722952842712402,0.12950728833675385,0.06083570420742035,0.10448336601257324,0.0,0.0,0.0,0.0,12493.0,30362.0,19619.0,29644.0,0.3390534222126007,-0.05620624737878949,-0.04557464644815081,0.003970736800231955,-0.014010578393936157,0.026695001870393753,0.017841912806034088
174,5,-0.0002179680741392076,0.0009026741026900709,0.00026250359951518476,-0.017831236124038696,-0.03766901046037674,-0.0494699664413929,-0.023509753867983818,0.06782309710979462,-0.025222117081284523,0.022551562637090683,0.171564981341362,-0.041924841701984406,0.0,0.0,0.0,0.010273709893226624,0.003564542857930064,-0.0,0.0,0.0,0.0,-0.0004357513680588454,-0.0015268740244209766,-0.0008481348631903529,14558.0,32623.0,17988.0,27699.0,0.04722952842712402,0.12950728833675385,0.06083570420742035,0.10448336601257324,0.0,0.0,0.0,0.0,12493.0,30362.0,19619.0,29644.0,0.3390536606311798,-0.04579022011113697,-0.040385541901630684,-0.002623829400049417,0.07335413247346878,0.15967680513858795,0.13705028593540192
179,5,-0.0002977102412842214,0.0007806000648997724,0.0004086195258423686,-0.016513273119926453,0.005789660848677158,-0.035297222435474396,-0.023489639163017273,0.06652621179819107,-0.025616511702537537,-0.02459610626101494,0.17098544538021088,-0.04952983930706978,0.0,0.0,0.0,-0.005610581953078508,-0.017483452335000038,-0.0,0.0,0.0,0.0,0.0009983440395444632,-0.0014627411728724837,-0.0008431078749708831,12045.0,30633.0,19884.0,29470.0,0.03785999119281769,0.11915984749794006,0.06876038014888763,0.113261878490448,0.0,0.0,0.0,0.0,14487.0,32744.0,18738.0,26984.0,0.3390907645225525,-0.05915317805685428,-0.02667726949377554,-0.002449014119098209,0.06861265748739243,-0.01467803306877613,0.09750913828611374
184,5,-0.00036348847788758576,0.0008120819111354649,0.0003589102125260979,-0.014162934385240078,-0.0026705660857260227,-0.0036298613995313644,-0.023489639163017273,0.06652621179819107,-0.025616511702537537,-0.02459610626101494,0.17098544538021088,-0.04952983930706978,0.0,0.0,0.0,0.007481949403882027,-0.015210730023682117,-0.0,0.0,0.0,0.0,0.0009983440395444632,-0.0014627411728724837,-0.0008431078749708831,12045.0,30633.0,19884.0,29470.0,0.03785999119281769,0.11915984749794006,0.06876038014888763,0.113261878490448,0.0,0.0,0.0,0.0,14487.0,32744.0,18738.0,26984.0,0.3390823006629944,-0.05092932935503501,-0.02256241565126889,-0.0032056688445711076,0.05969150736927986,0.0195752065628767,0.0032184994779527187
189,5,-0.0002133511152351275,0.0007783501641824841,0.0004507885896600783,0.01677034981548786,0.003921282012015581,-0.013951931148767471,-0.023496730253100395,0.06371981650590897,-0.026414072141051292,0.00546117452904582,0.28099071979522705,-0.06681203842163086,0.0,0.0,0.0,-0.0025859486777335405,0.016522666439414024,-0.0,0.0,0.0,0.0,0.002688526874408126,-0.0011807606788352132,-0.0008747686515562236,11032.0,29093.0,22020.0,33276.0,0.03422924503684044,0.11136925220489502,0.07803717255592346,0.1329742968082428,0.0,0.0,0.0,0.0,13518.0,29464.0,18100.0,31036.0,0.3390810191631317,-0.054971704402713005,-0.027244384080468746,-0.002490151219355534,-0.06484084576368332,-0.00676577165722847,0.03683493286371231
194,5,-0.00039920673589222133,0.0006869485368952155,0.0005805069231428206,-0.02098868228495121,0.013972610235214233,-0.022346142679452896,-0.023496730253100395,0.06371981650590897,-0.026414072141051292,0.00546117452904582,0.28099071979522705,-0.06681203842163086,0.0,0.0,0.0,-0.018074633553624153,-0.022262420505285263,-0.0,0.0,0.0,0.0,0.002688526874408126,-0.0011807606788352132,-0.0008747686515562236,11032.0,29093.0,22020.0,33276.0,0.03422924503684044,0.11136925220489502,0.07803717255592346,0.1329742968082428,0.0,0.0,0.0,0.0,13518.0,29464.0,18100.0,31036.0,0.33917301893234253,-0.05661525958126695,-0.02051813979442172,-0.0013604408590435868,0.08737217634916306,-0.04729725047945976,0.06558139622211456
199,5,-0.00019164792320225388,0.0008522432181052864,0.0002654407871887088,0.022761628031730652,-0.018949471414089203,0.03740541264414787,-0.023475488647818565,0.06215955689549446,-0.02679308131337166,-0.010332474485039711,0.15872414410114288,-0.046934824436903,0.0,0.0,0.0,0.032206229865550995,0.022275295108556747,-0.0,0.0,0.0,0.0,0.0027164474595338106,-0.0016945411916822195,-0.0009023003512993455,10739.0,31439.0,20056.0,29435.0,0.03319112956523895,0.12331463396549225,0.06949396431446075,0.11308284103870392,0.0,0.0,0.0,0.0,9280.0,30358.0,23337.0,32104.0,0.34449413418769836,-0.0602858965469612,-0.027347410135233695,-0.005863913194820888,-0.08876267075538635,0.08557722717523575,-0.11636872589588165
204,5,-0.0002787793637253344,0.0007339413859881461,0.0003577246388886124,-0.005369913764297962,0.010877411812543869,-0.0016981173539534211,-0.023475488647818565,0.06215955689549446,-0.02679308131337166,-0.010332474485039711,0.15872414410114288,-0.046934824436903,0.0,0.0,0.0,-0.013083516620099545,-0.006201472599059343,-0.0,0.0,0.0,0.0,0.0027164474595338106,-0.0016945411916822195,-0.0009023003512993455,10739.0,31439.0,20056.0,29435.0,0.03319112956523895,0.12331463396549225,0.06949396431446075,0.11308284103870392,0.0,0.0,0.0,0.0,9280.0,30358.0,23337.0,32104.0,0.339069128036499,-0.054021000785364794,-0.02744372102271078,-0.002425258027830354,0.024334890767931938,-0.03422800451517105,0.003164852736517787
210,5,-0.00032210626523010433,0.0008554315427318215,0.0004985379637219012,-0.007676740642637014,-0.013745401985943317,-0.02022329717874527,-0.02392844669520855,0.05963786691427231,-0.027337435632944107,-0.020877715200185776,0.23001307249069214,-0.036132730543613434,0.0,0.0,0.0,0.024922525510191917,-0.008639761246740818,-0.0,0.0,0.0,0.0,0.00106261414475739,-0.001193575095385313,-0.0008824770338833332,13350.0,31593.0,18006.0,29116.0,0.04266399145126343,0.12411338090896606,0.06091007590293884,0.11148539185523987,0.0,0.0,0.0,0.0,12778.0,32084.0,18723.0,28432.0,0.3391515910625458,-0.051119896054079864,-0.024169449656291114,-0.004513758602309038,0.03390326723456383,0.06520576030015945,0.06215990334749222
215,5,-0.0002892946358770132,0.0007530938019044697,0.00042208164813928306,0.0022906060330569744,0.010203670710325241,0.004636893980205059,-0.02392844669520855,0.05963786691427231,-0.027337435632944107,-0.020877715200185776,0.23001307249069214,-0.036132730543613434,0.0,0.0,0.0,-0.011828338727355003,0.0015455359825864434,-0.0,0.0,0.0,0.0,0.00106261414475739,-0.001193575095385313,-0.0008824770338833332,13350.0,31593.0,18006.0,29116.0,0.04266399145126343,0.12411338090896606,0.06091007590293884,0.11148539185523987,0.0,0.0,0.0,0.0,12778.0,32084.0,18723.0,28432.0,0.33905771374702454,-0.049330350358510605,-0.028145192488144864,-0.004712363569983743,-0.006064687855541706,-0.03094361163675785,-0.011668250896036625
220,5,-0.00036426764563657343,0.0007643028511665761,0.00041831814451143146,-0.009809036739170551,0.0014918288215994835,0.0019179591909050941,-0.02392844669520855,0.05963786691427231,-0.027337435632944107,-0.020877715200185776,0.23001307249069214,-0.036132730543613434,0.0,0.0,0.0,0.0016036706510931253,-0.010924662463366985,-0.0,0.0,0.0,0.0,0.00106261414475739,-0.001193575095385313,-0.0008824770338833332,13350.0,31593.0,18006.0,29116.0,0.04266399145126343,0.12411338090896606,0.06091007590293884,0.11148539185523987,0.0,0.0,0.0,0.0,12778.0,32084.0,18723.0,28432.0,0.33905425667762756,-0.055009984614587476,-0.014365528621900468,-0.001328801562773781,0.04287008196115494,0.004195454530417919,-0.001995739294216037
225,5,-6.594395381398499e-05,0.0009537810692563653,0.00015477508713956922,0.03882260620594025,-0.02607939951121807,0.03747141361236572,-0.023798860609531403,0.05827772617340088,-0.027801761403679848,-0.005655021872371435,0.1649893820285797,-0.05890125781297684,0.0,0.0,0.0,0.0417085662484169,0.03682740405201912,-0.0,0.0,0.0,0.0,0.00016537948977202177,-0.0016662944108247757,-0.0009162967908196151,12885.0,31642.0,17613.0,29709.0,0.040934816002845764,0.12436622381210327,0.05930393934249878,0.11446385085582733,0.0,0.0,0.0,0.0,12997.0,31487.0,18153.0,29347.0,0.36015069484710693,-0.0487928970892006,-0.028009917201206186,-0.0018904919444528363,-0.15334343910217285,0.11583658307790756,-0.11112693697214127
230,5,-5.415529813035391e-05,0.0008457350195385516,-0.00017532189667690545,0.013297192752361298,0.007302622776478529,0.05745500326156616,-0.023798860609531403,0.05827772617340088,-0.027801761403679848,-0.005655021872371435,0.1649893820285797,-0.05890125781297684,0.0,0.0,0.0,-0.0069241817109286785,0.013071893714368343,-0.0,0.0,0.0,0.0,0.00016537948977202177,-0.0016662944108247757,-0.0009162967908196151,12885.0,31642.0,17613.0,29709.0,0.040934816002845764,0.12436622381210327,0.05930393934249878,0.11446385085582733,0.0,0.0,0.0,0.0,12997.0,31487.0,18153.0,29347.0,0.33907070755958557,-0.056907318941672676,-0.03715561897543288,0.008449284575172382,-0.051297031342983246,-0.018115336075425148,-0.17559733986854553
235,5,-3.315660069347359e-05,0.0008191530941985548,-0.00019320004503242671,0.006928975693881512,0.005912260618060827,0.019739441573619843,-0.023985885083675385,0.05682084336876869,-0.028325818479061127,-0.020206313580274582,0.10026422888040543,-0.04565444961190224,0.0,0.0,0.0,-0.004765413701534271,0.006609105970710516,-0.0,0.0,0.0,0.0,0.00041131043690256774,-0.00115484360139817,-0.000893946795258671,12776.0,31587.0,18183.0,29382.0,0.040533799678087234,0.12408190965652466,0.061635781079530716,0.11281734704971313,0.0,0.0,0.0,0.0,11258.0,31520.0,19317.0,29602.0,0.33904486894607544,-0.0591194400090208,-0.03829508901296666,0.00864521634547049,-0.02593444474041462,-0.012464998289942741,-0.06336536258459091
240,5,-0.00028407605714164674,0.0007406463846564293,-0.00014248806110117584,-0.03305003046989441,0.012764613144099712,-0.001177845406346023,-0.023985885083675385,0.05682084336876869,-0.028325818479061127,-0.020206313580274582,0.10026422888040543,-0.04565444961190224,0.0,0.0,0.0,-0.01492039393633604,-0.03360423073172569,-0.0,0.0,0.0,0.0,0.00041131043690256774,-0.00115484360139817,-0.000893946795258671,12776.0,31587.0,18183.0,29382.0,0.040533799678087234,0.12408190965652466,0.061635781079530716,0.11281734704971313,0.0,0.0,0.0,0.0,11258.0,31520.0,19317.0,29602.0,0.3484836518764496,-0.061244384338496195,-0.03425666626720652,0.012448696136366495,0.13549844920635223,-0.040115077048540115,-0.0005287809181027114
245,5,-2.9628628908540122e-05,0.000784875825047493,-0.00024099875008687377,0.025707630440592766,-0.002362737897783518,0.013438142836093903,-0.02392391301691532,0.056148167699575424,-0.028433840721845627,0.038673222064971924,0.09437404572963715,-0.011274810880422592,0.0,0.0,0.0,0.007947110570967197,0.02567880228161812,-0.0,0.0,0.0,0.0,0.0007795957499183714,-0.0017385216196998954,-0.0008591769146732986,12008.0,31323.0,19685.0,28959.0,0.03772760182619095,0.12271105498075485,0.06791657954454422,0.11069905012845993,0.0,0.0,0.0,0.0,13628.0,30690.0,17241.0,30430.0,0.33985236287117004,-0.059112838345899234,-0.037249365871717864,0.008836654182957076,-0.1009926125407219,0.020840954035520554,-0.04630377143621445
250,5,1.8234863091493025e-05,0.0008153859525918961,-0.00023228560166899115,0.014413177967071533,-0.004980234894901514,0.002811602782458067,-0.02392391301691532,0.056148167699575424,-0.028433840721845627,0.038673222064971924,0.09437404572963715,-0.011274810880422592,0.0,0.0,0.0,0.012109038420021534,0.0142945172265172,-0.0,0.0,0.0,0.0,0.0007795957499183714,-0.0017385216196998954,-0.0008591769146732986,12008.0,31323.0,19685.0,28959.0,0.03772760182619095,0.12271105498075485,0.06791657954454422,0.11069905012845993,0.0,0.0,0.0,0.0,13628.0,30690.0,17241.0,30430.0,0.33909308910369873,-0.058647308991339166,-0.03712606095976989,0.008722947853417054,-0.05609550699591637,0.03168116882443428,-0.015009118244051933
255,5,4.55023291578982e-06,0.0008213831461034715,-0.00021793930500280112,0.002408105181530118,-0.0023336748126894236,-0.0011650014203041792,-0.024052459746599197,0.05511506274342537,-0.028783727437257767,-0.023474935442209244,0.09914100170135498,-0.009580236859619617,0.0,0.0,0.0,0.008167876861989498,0.0020382963120937347,-0.0,0.0,0.0,0.0,0.0006596900057047606,-0.0009800288826227188,-0.000909896451048553,13235.0,30712.0,17979.0,30106.0,0.042235516011714935,0.1195673868060112,0.0607965812087059,0.11647116392850876,0.0,0.0,0.0,0.0,12137.0,33048.0,20357.0,28364.0,0.33904561400413513,-0.058740728893189986,-0.03454912854818364,0.007866874125436771,-0.00799829512834549,0.02136906422674656,-0.0037101602647453547
260,5,2.4143138944054954e-05,0.0008298713364638388,-0.00020785887318197638,0.003465438261628151,-0.0018884512828662992,-0.001760760205797851,-0.024052459746599197,0.05511506274342537,-0.028783727437257767,-0.023474935442209244,0.09914100170135498,-0.009580236859619617,0.0,0.0,0.0,0.007597664836794138,0.003146455157548189,-0.0,0.0,0.0,0.0,0.0006596900057047606,-0.0009800288826227188,-0.000909896451048553,13235.0,30712.0,17979.0,30106.0,0.042235516011714935,0.1195673868060112,0.0607965812087059,0.11647116392850876,0.0,0.0,0.0,0.0,12137.0,33048.0,20357.0,28364.0,0.33904507756233215,-0.057187969487820664,-0.03424939869761582,0.008168871697625707,-0.012346778064966202,0.019877418875694275,-0.002559943124651909
265,5,4.1786035581026226e-05,0.0008249713573604822,-0.00017309770919382572,0.0035096369683742523,0.00011945859296247363,-0.0053947907872498035,-0.023927776142954826,0.05432749539613724,-0.029009616002440453,0.010495011694729328,0.1017589196562767,-0.05344497784972191,0.0,0.0,0.0,0.004605105146765709,0.003220235463231802,-0.0,0.0,0.0,0.0,0.0002552760124672204,-0.002194138476625085,-0.0009571774280630052,11533.0,33675.0,19260.0,29067.0,0.036015402525663376,0.13510757684707642,0.06612017750740051,0.11124138534069061,0.0,0.0,0.0,0.0,10714.0,34013.0,20082.0,28586.0,0.3390389680862427,-0.056583405634157584,-0.03068277810241989,0.00722749510934141,-0.012636331841349602,0.01204870454967022,0.008139535784721375
270,5,-1.2913351383758709e-05,0.0008201616583392024,-0.00015294102195184678,-0.006605023052543402,0.0007091942243278027,-0.004440373741090298,-0.023927776142954826,0.05432749539613724,-0.029009616002440453,0.010495011694729328,0.1017589196562767,-0.05344497784972191,0.0,0.0,0.0,0.003784335684031248,-0.007170831318944693,-0.0,0.0,0.0,0.0,0.0002552760124672204,-0.002194138476625085,-0.0009571774280630052,11533.0,33675.0,19260.0,29067.0,0.036015402525663376,0.13510757684707642,0.06612017750740051,0.11124138534069061,0.0,0.0,0.0,0.0,10714.0,34013.0,20082.0,28586.0,0.3390447497367859,-0.055570565849564116,-0.02795758712148339,0.007781651719637655,0.028138823807239532,0.009900097735226154,0.00495367543771863
275,5,0.00012221622455399483,0.0008284751093015075,-0.0001600509276613593,0.016936633735895157,-0.0009511198732070625,-0.0003367264580447227,-0.024143196642398834,0.053148429840803146,-0.029293444007635117,-0.015932805836200714,0.09696640819311142,-0.018136100843548775,0.0,0.0,0.0,0.006430940702557564,0.01703103445470333,-0.0,0.0,0.0,0.0,0.0009656904730945826,-0.0008043580455705523,-0.0008944501751102507,12667.0,29676.0,18438.0,31180.0,0.040131308138370514,0.11429864913225174,0.06269081681966782,0.1219724640250206,0.0,0.0,0.0,0.0,12380.0,29879.0,18152.0,31414.0,0.3390897810459137,-0.054606976648764266,-0.029557198391815233,0.006909489297790146,-0.06683623790740967,0.016825884580612183,-0.008011567406356335
281,5,0.0001380372268613428,0.0009416089742444456,-0.00012747105211019516,0.007295930292457342,-0.016124077141284943,-0.004662200342863798,-0.024143196642398834,0.053148429840803146,-0.029293444007635117,-0.015932805836200714,0.09696640819311142,-0.018136100843548775,0.0,0.0,0.0,0.02997858263552189,0.00723833916708827,-0.0,0.0,0.0,0.0,0.0009656904730945826,-0.0008043580455705523,-0.0008944501751102507,12667.0,29676.0,18438.0,31180.0,0.040131308138370514,0.11429864913225174,0.06269081681966782,0.1219724640250206,0.0,0.0,0.0,0.0,12380.0,29879.0,18152.0,31414.0,0.3391948938369751,-0.04904503677963184,-0.02319159428739453,0.007075811622304732,-0.028403738513588905,0.0784364715218544,0.00488225556910038
286,5,-0.0001311860396526754,0.001076939282938838,0.0001936053449753672,-0.03550247848033905,-0.02378346025943756,-0.04634935408830643,-0.02406824193894863,0.05198707431554794,-0.02949010208249092,0.04435413330793381,0.19152843952178955,-0.009267567656934261,0.0,0.0,0.0,0.03992827236652374,-0.03490253910422325,-0.0,0.0,0.0,0.0,0.0009666910627856851,-0.000882010324858129,-0.000922482751775533,13090.0,30097.0,18007.0,30799.0,0.041694119572639465,0.11642760038375854,0.06091196835041046,0.12001147866249084,0.0,0.0,0.0,0.0,13119.0,29860.0,18005.0,31013.0,0.35773536562919617,-0.03417753012014322,-0.01055306317572715,0.01120666681196322,0.14436818659305573,0.11015448719263077,0.13433945178985596
291,5,-0.00010581336391624063,0.00120335235260427,0.0005005117855034769,-0.007098569069057703,-0.024832874536514282,-0.05687170475721359,-0.02406824193894863,0.05198707431554794,-0.02949010208249092,0.04435413330793381,0.19152843952178955,-0.009267567656934261,0.0,0.0,0.0,0.04353192821145058,-0.007707726676017046,-0.0,0.0,0.0,0.0,0.0009666910627856851,-0.000882010324858129,-0.000922482751775533,13090.0,30097.0,18007.0,30799.0,0.041694119572639465,0.11642760038375854,0.06091196835041046,0.12001147866249084,0.0,0.0,0.0,0.0,13119.0,29860.0,18005.0,31013.0,0.34368833899497986,-0.050398516304594076,-0.012039552977388913,-0.0032290538634212355,0.030631018802523613,0.11536604911088943,0.1711196005344391
296,5,0.00011061479744967073,0.0009793572826310992,0.0004612790944520384,0.028170371428132057,0.023909442126750946,-0.011568935588002205,-0.024238120764493942,0.05012337118387222,-0.029727892950177193,-0.0028187888674438,0.1710546463727951,-0.01714335009455681,0.0,0.0,0.0,-0.030071591958403587,0.027773112058639526,-0.0,0.0,0.0,0.0,0.0017789099365472794,-0.0007222342537716031,-0.0008715609437786043,11576.0,29174.0,19503.0,31592.0,0.03616856783628464,0.11177293211221695,0.06714490801095963,0.12410929054021835,0.0,0.0,0.0,0.0,12725.0,30480.0,18835.0,30009.0,0.3477557301521301,-0.05348594119316249,-0.015573085047387934,-0.006060189711283374,-0.1117207258939743,-0.08066347986459732,0.0361059345304966
301,5,0.00018531638488639146,0.0009006006876006722,0.0004016222374048084,0.018909335136413574,0.018198758363723755,0.004881279543042183,-0.024238120764493942,0.05012337118387222,-0.029727892950177193,-0.0028187888674438,0.1710546463727951,-0.01714335009455681,0.0,0.0,0.0,-0.02218819037079811,0.019149603322148323,-0.0,0.0,0.0,0.0,0.0017789099365472794,-0.0007222342537716031,-0.0008715609437786043,11576.0,29174.0,19503.0,31592.0,0.03616856783628464,0.11177293211221695,0.06714490801095963,0.12410929054021835,0.0,0.0,0.0,0.0,12725.0,30480.0,18835.0,30009.0,0.33917924761772156,-0.059719247174403016,-0.01878752570233882,-0.0078028363389621444,-0.07515223324298859,-0.05805918574333191,-0.012764673680067062
306,5,0.0004050619318149984,0.0010239116381853819,0.00045879121171310544,0.036437176167964935,-0.011803909204900265,-0.006539275404065847,-0.024185502901673317,0.04903454706072807,-0.02963085100054741,0.007546869106590748,0.12208537012338638,-0.0026746816001832485,0.0,0.0,0.0,0.023137077689170837,0.03594405949115753,-0.0,0.0,0.0,0.0,0.002268478972837329,-0.0012834755470976233,-0.0008266392396762967,10873.0,28902.0,21401.0,31638.0,0.03366554528474808,0.110417939722538,0.07531186193227768,0.124348483979702,0.0,0.0,0.0,0.0,12728.0,28490.0,18916.0,31915.0,0.3526437282562256,-0.04694860691721505,-0.029492802504591655,-0.004766318551273145,-0.14663653075695038,0.06294655054807663,0.023777389898896217
311,5,7.602591358590871e-05,0.0007333015091717243,0.00041782803600654006,-0.03513389080762863,0.0371442511677742,0.003773061791434884,-0.024185502901673317,0.04903454706072807,-0.02963085100054741,0.007546869106590748,0.12208537012338638,-0.0026746816001832485,0.0,0.0,0.0,-0.048286620527505875,-0.033930011093616486,-0.0,0.0,0.0,0.0,0.002268478972837329,-0.0012834755470976233,-0.0008266392396762967,10873.0,28902.0,21401.0,31638.0,0.03366554528474808,0.110417939722538,0.07531186193227768,0.124348483979702,0.0,0.0,0.0,0.0,12728.0,28490.0,18916.0,31915.0,0.3608827292919159,-0.0661350383571527,-0.0065369210239728465,-0.01679611236040447,0.14152935147285461,-0.1343480795621872,-0.006404864136129618
316,5,0.00021798150555696338,0.0008166078478097916,0.0005806664703413844,0.009333614259958267,-0.0005196130368858576,-0.021665461361408234,-0.024185502901673317,0.04903454706072807,-0.02963085100054741,0.007546869106590748,0.12208537012338638,-0.0026746816001832485,0.0,0.0,0.0,0.0064927260391414165,0.009483098052442074,-0.0,0.0,0.0,0.0,0.002268478972837329,-0.0012834755470976233,-0.0008266392396762967,10873.0,28902.0,21401.0,31638.0,0.03366554528474808,0.110417939722538,0.07531186193227768,0.124348483979702,0.0,0.0,0.0,0.0,12728.0,28490.0,18916.0,31915.0,0.33905598521232605,-0.054157186246340444,-0.015025923090953198,-0.008402606639947975,-0.0372127927839756,0.01698584109544754,0.0736457109451294
321,5,0.00024722973466850817,0.0008234194829128683,0.0006427000043913722,0.006894837599247694,-0.0011095093796029687,-0.015184333547949791,-0.024184906855225563,0.04657420888543129,-0.029360022395849228,-0.0062825679779052734,0.049418773502111435,0.010473595932126045,0.0,0.0,0.0,0.0075003476813435555,0.007058064453303814,-0.0,0.0,0.0,0.0,0.0015206924872472882,0.0002598059072624892,-0.0008814040920697153,14167.0,29100.0,18831.0,32938.0,0.045738331973552704,0.1114051565527916,0.06432212144136429,0.1311781108379364,0.0,0.0,0.0,0.0,10658.0,29210.0,21290.0,31583.0,0.33905157446861267,-0.0515381297460331,-0.015213906787995056,-0.006114619574762183,-0.027696797624230385,0.019623208791017532,0.05724859982728958
326,5,0.00024566479260101914,0.0008546632016077638,0.0006510478560812771,0.0018493587849661708,-0.0047069755382835865,-0.005723996087908745,-0.024184906855225563,0.04657420888543129,-0.029360022395849228,-0.0062825679779052734,0.049418773502111435,0.010473595932126045,0.0,0.0,0.0,0.013162748888134956,0.0019306017784401774,-0.0,0.0,0.0,0.0,0.0015206924872472882,0.0002598059072624892,-0.0008814040920697153,14167.0,29100.0,18831.0,32938.0,0.045738331973552704,0.1114051565527916,0.06432212144136429,0.1311781108379364,0.0,0.0,0.0,0.0,10658.0,29210.0,21290.0,31583.0,0.3390636146068573,-0.05047483220736631,-0.015144558998611671,-0.005454381431079766,-0.007576182018965483,0.034436408430337906,0.03129170835018158
331,5,0.0002712805289775133,0.0007807224174030125,0.000657747033983469,0.004141009878367186,0.008939612656831741,-0.0026550842449069023,-0.024141838774085045,0.045584119856357574,-0.02902204543352127,-0.00438801059499383,0.0740455836057663,0.018899517133831978,0.0,0.0,0.0,-0.007776312064379454,0.0043243905529379845,-0.0,0.0,0.0,0.0,0.0009946869686245918,-0.0009532645344734192,-0.0008224849007092416,13157.0,29843.0,19035.0,30169.0,0.04194561019539833,0.11514221131801605,0.0651775449514389,0.11679065227508545,0.0,0.0,0.0,0.0,14617.0,28842.0,19078.0,32662.0,0.33904701471328735,-0.05081606352891113,-0.015576415661100981,-0.005545602908822461,-0.016969555988907814,-0.020341644063591957,0.024595512077212334
336,5,0.00018872911459766328,0.000925606582313776,0.0007377509609796107,-0.01031489297747612,-0.017601894214749336,-0.011997079476714134,-0.024141838774085045,0.045584119856357574,-0.02902204543352127,-0.00438801059499383,0.0740455836057663,0.018899517133831978,0.0,0.0,0.0,0.03321853652596474,-0.010517646558582783,-0.0,0.0,0.0,0.0,0.0009946869686245918,-0.0009532645344734192,-0.0008224849007092416,13157.0,29843.0,19035.0,30169.0,0.04194561019539833,0.11514221131801605,0.0651775449514389,0.11679065227508545,0.0,0.0,0.0,0.0,14617.0,28842.0,19078.0,32662.0,0.3392395079135895,-0.0534366149656025,-0.013787344220481808,-0.007606719518933443,0.04127239063382149,0.08692056685686111,0.0562034472823143
341,5,0.0003012777306139469,0.0007958226487971842,0.0006309095188044012,0.012662338092923164,0.012889179401099682,0.01135867927223444,-0.024065595120191574,0.04516534134745598,-0.028862399980425835,-0.0038409316912293434,0.0018270983127877116,0.04240243881940842,0.0,0.0,0.0,-0.013590139336884022,0.013090009801089764,-0.0,0.0,0.0,0.0,0.001178699778392911,-0.0009723524563014507,-0.000807478092610836,12688.0,29693.0,20017.0,29843.0,0.040209751576185226,0.11438129842281342,0.06932990252971649,0.11514274775981903,0.0,0.0,0.0,0.0,13175.0,29912.0,18597.0,30447.0,0.339093953371048,-0.05223529391807959,-0.013410590933420669,-0.0068854218212735996,-0.05136813223361969,-0.035555824637413025,-0.012810802087187767
346,5,0.0002508031902834773,0.0010620347457006574,0.0006833159714005888,-0.003267736406996846,-0.0334029458463192,-0.0039292979054152966,-0.024065595120191574,0.04516534134745598,-0.028862399980425835,-0.0038409316912293434,0.0018270983127877116,0.04240243881940842,0.0,0.0,0.0,0.055949147790670395,-0.0030976105481386185,-0.0,0.0,0.0,0.0,0.001178699778392911,-0.0009723524563014507,-0.000807478092610836,12688.0,29693.0,20017.0,29843.0,0.040209751576185226,0.11438129842281342,0.06932990252971649,0.11514274775981903,0.0,0.0,0.0,0.0,13175.0,29912.0,18597.0,30447.0,0.35117390751838684,-0.04456756643462474,-0.01855862448458518,-0.003842075168215862,0.012570557184517384,0.15143702924251556,0.036069732159376144
351,5,0.000385186227504164,0.0009350603213533759,0.000420313241193071,0.01783330738544464,0.0077555421739816666,0.035641591995954514,-0.02390165813267231,0.044787704944610596,-0.028542721644043922,0.022957082837820053,0.036751605570316315,0.03414599597454071,0.0,0.0,0.0,0.05603010207414627,-0.003083055606111884,-0.0,0.0,0.0,0.0,0.0018480983562767506,-0.0017304100329056382,-0.0008363319793716073,10337.0,29874.0,21426.0,30157.0,0.03178337588906288,0.11529877781867981,0.0754237174987793,0.11673399806022644,0.0,0.0,0.0,0.0,11016.0,29325.0,21548.0,30127.0,0.3512283265590668,-0.03888256414493635,-0.020352739393537263,-0.003940105268863946,0.012513373978435993,0.1516791731119156,0.03801718354225159
356,5,0.0003346460871398449,0.0009720443049445748,0.0005897634546272457,-0.0017256280407309532,-0.0028510920237749815,-0.013030550442636013,-0.02390165813267231,0.044787704944610596,-0.028542721644043922,0.022957082837820053,0.036751605570316315,0.03414599597454071,0.0,0.0,0.0,-0.005140224471688271,0.01855221949517727,-0.0,0.0,0.0,0.0,0.0018480983562767506,-0.0017304100329056382,-0.0008363319793716073,10337.0,29874.0,21426.0,30157.0,0.03178337588906288,0.11529877781867981,0.0754237174987793,0.11673399806022644,0.0,0.0,0.0,0.0,11016.0,29325.0,21548.0,30127.0,0.33909642696380615,-0.04809295035180738,-0.011300227298350904,-0.003941091282947183,0.00573105039075017,0.029201190918684006,0.0654350146651268
361,5,0.00018640192865859717,0.000993726891465485,0.00040721509139984846,-0.021271871402859688,-0.0038908920250833035,0.021647604182362556,-0.023900402709841728,0.04435548186302185,-0.028238171711564064,0.011620789766311646,0.032395459711551666,0.029444225132465363,0.0,0.0,0.0,0.012906622141599655,-0.02158399112522602,-0.0,0.0,0.0,0.0,0.002595631405711174,-0.0010224466677755117,-0.0007908223196864128,11593.0,28357.0,22540.0,32127.0,0.036230411380529404,0.10771586000919342,0.08035331964492798,0.1269010454416275,0.0,0.0,0.0,0.0,10446.0,28995.0,22949.0,31948.0,0.3391408324241638,-0.03437703542865016,0.0034103337832536774,0.004090281388577643,0.08470873534679413,0.03377242386341095,-0.039204344153404236
367,5,0.00026424488169141114,0.0009296545758843422,0.00042337708873674273,0.004516451619565487,0.007802859414368868,0.004231601022183895,-0.023900402709841728,0.04435548186302185,-0.028238171711564064,0.011620789766311646,0.032395459711551666,0.029444225132465363,0.0,0.0,0.0,0.013015992939472198,-0.021570317447185516,-0.0,0.0,0.0,0.0,0.002595631405711174,-0.0010224466677755117,-0.0007908223196864128,11593.0,28357.0,22540.0,32127.0,0.036230411380529404,0.10771586000919342,0.08035331964492798,0.1269010454416275,0.0,0.0,0.0,0.0,10446.0,28995.0,22949.0,31948.0,0.3390417993068695,-0.04064141129208874,0.0020976675101034327,0.0010448072757094765,-0.0189658235758543,-0.013098964467644691,0.014762655831873417
372,5,0.00015710921434219927,0.0010417134035378695,0.0004426020313985646,-0.013644056394696236,-0.013347386382520199,-0.0014220087323337793,-0.023996341973543167,0.0438404306769371,-0.02808109112083912,0.026444967836141586,0.07185162603855133,0.03781816363334656,0.0,0.0,0.0,0.027686234563589096,-0.01382254809141159,-0.0,0.0,0.0,0.0,0.002650052309036255,-0.0011030167806893587,-0.0008084876462817192,11172.0,28598.0,22738.0,32018.0,0.034723736345767975,0.10890752822160721,0.08123839646577835,0.12633098661899567,0.0,0.0,0.0,0.0,13334.0,29415.0,19579.0,30013.0,0.33919599652290344,-0.032626845038553426,0.007528376909753898,0.006159663526503534,0.05424313247203827,0.07244233787059784,0.03353649750351906
377,5,0.00023181225697044283,0.0009451922378502786,0.0004809670499525964,0.006365209352225065,0.00950875598937273,-0.005797705613076687,-0.023996341973543167,0.0438404306769371,-0.02808109112083912,0.026444967836141586,0.07185162603855133,0.03781816363334656,0.0,0.0,0.0,0.02779848501086235,-0.013811259530484676,-0.0,0.0,0.0,0.0,0.002650052309036255,-0.0011030167806893587,-0.0008084876462817192,11172.0,28598.0,22738.0,32018.0,0.034723736345767975,0.10890752822160721,0.08123839646577835,0.12633098661899567,0.0,0.0,0.0,0.0,13334.0,29415.0,19579.0,30013.0,0.33919697999954224,-0.03816562838044468,0.004380355966677298,0.00315231927164627,0.05419882759451866,0.07273609936237335,0.0350966677069664
382,5,0.0003853236557915807,0.000912823248654604,0.0003707367868628353,0.023401159793138504,0.0073842816054821014,0.013692921958863735,-0.02378566935658455,0.04269014671444893,-0.027921441942453384,0.024867791682481766,0.12327396869659424,0.0015878102276474237,0.0,0.0,0.0,-0.004086569882929325,0.024311702698469162,-0.0,0.0,0.0,0.0,0.001122986781410873,-0.0005836183554492891,-0.000837392290122807,13558.0,29372.0,18681.0,30631.0,0.04344151169061661,0.11276718229055405,0.06369832903146744,0.11914830654859543,0.0,0.0,0.0,0.0,13884.0,30211.0,18325.0,29844.0,0.33913666009902954,-0.039753633965977635,-0.0039520899042578776,0.004802960329454911,-0.09541792422533035,-0.010693653486669064,-0.009609400294721127
387,5,0.0003582030476536602,0.0009089174563996494,0.0004943841486237943,0.0032234627287834883,0.0027620948385447264,-0.013202751986682415,-0.02378566935658455,0.04269014671444893,-0.027921441942453384,0.024867791682481766,0.12327396869659424,0.0015878102276474237,0.0,0.0,0.0,0.003069887636229396,0.003734384663403034,-0.0,0.0,0.0,0.0,0.001122986781410873,-0.0005836183554492891,-0.000837392290122807,13558.0,29372.0,18681.0,30631.0,0.04344151169061661,0.11276718229055405,0.06369832903146744,0.11914830654859543,0.0,0.0,0.0,0.0,13884.0,30211.0,18325.0,29844.0,0.33903756737709045,-0.03762491282158116,0.0027238690854370705,0.004057800037050011,-0.014653793536126614,0.00803089328110218,0.07425154000520706
392,5,0.0002551953948568553,0.0010343120666220784,0.00034690380562096834,-0.013454035855829716,-0.01672661304473877,0.016686422750353813,-0.023851867765188217,0.0419279970228672,-0.02794167958199978,0.02319330722093582,0.1282518059015274,-0.006685023661702871,0.0,0.0,0.0,0.0031685607973486185,0.0037603091914206743,-0.0,0.0,0.0,0.0,0.0005941136623732746,-0.0005385077092796564,-0.0008423167164437473,14395.0,30048.0,17760.0,30083.0,0.04660657048225403,0.1161762923002243,0.05990345776081085,0.11635538935661316,0.0,0.0,0.0,0.0,14171.0,29973.0,17662.0,30404.0,0.33903768658638,-0.053257439056161704,-0.00930666214786627,0.004005079902272062,0.05257200822234154,0.08699829131364822,-0.015864454209804535
397,5,0.0002830787852872163,0.0007063747616484761,2.46318886638619e-05,-0.0001325362391071394,0.04089323431253433,0.050123993307352066,-0.023851867765188217,0.0419279970228672,-0.02794167958199978,0.02319330722093582,0.1282518059015274,-0.006685023661702871,0.0,0.0,0.0,-0.0538795068860054,0.00023314860300160944,-0.0,0.0,0.0,0.0,0.0005941136623732746,-0.0005385077092796564,-0.0008423167164437473,14395.0,30048.0,17760.0,30083.0,0.04660657048225403,0.1161762923002243,0.05990345776081085,0.11635538935661316,0.0,0.0,0.0,0.0,14171.0,29973.0,17662.0,30404.0,0.3496241569519043,-0.07447716807691454,-0.02141237949603744,0.0098020713539818,-0.0009420844144187868,-0.14520320296287537,-0.11998726427555084
402,5,0.00041949900332838297,0.0007027341052889824,-1.822745252866298e-05,0.0190590713173151,0.012777663767337799,0.021037505939602852,-0.023851867765188217,0.0419279970228672,-0.02794167958199978,0.02319330722093582,0.1282518059015274,-0.006685023661702871,0.0,0.0,0.0,-0.053823892027139664,0.0002495681692380458,-0.0,0.0,0.0,0.0,0.0005941136623732746,-0.0005385077092796564,-0.0008423167164437473,14395.0,30048.0,17760.0,30083.0,0.04660657048225403,0.1161762923002243,0.05990345776081085,0.11635538935661316,0.0,0.0,0.0,0.0,14171.0,29973.0,17662.0,30404.0,0.34958627820014954,-0.06696415754220454,-0.02018286543283754,0.009983726549797414,-0.07859411835670471,-0.03259607404470444,-0.033299099653959274
407,5,0.00044072093442082405,0.001079440931789577,0.00022980300127528608,0.00868879072368145,-0.04890565574169159,-0.028413010761141777,-0.02375195175409317,0.04043835401535034,-0.028083376586437225,0.003514764830470085,0.13203035295009613,0.001461305539123714,0.0,0.0,0.0,-0.012380672618746758,0.020056966692209244,-0.0,0.0,0.0,0.0,0.0004772764223162085,-7.324494799831882e-05,-0.0008534967200830579,15073.0,29698.0,17044.0,30491.0,0.04921036958694458,0.11441002786159515,0.05699630081653595,0.11843353509902954,0.0,0.0,0.0,0.0,14714.0,29783.0,17843.0,30040.0,0.36684665083885193,-0.057480482670680164,-0.021171959858557583,0.002055474614758864,-0.03736114129424095,0.21659983694553375,0.11870729178190231
412,5,0.00022937115863896906,0.000947752152569592,0.00028199129155837,-0.02698233164846897,0.0037647290155291557,-0.01583026349544525,-0.02375195175409317,0.04043835401535034,-0.028083376586437225,0.003514764830470085,0.13203035295009613,0.001461305539123714,0.0,0.0,0.0,0.07675674557685852,0.008848489262163639,-0.0,0.0,0.0,0.0,0.0004772764223162085,-7.324494799831882e-05,-0.0008534967200830579,15073.0,29698.0,17044.0,30491.0,0.04921036958694458,0.11441002786159515,0.05699630081653595,0.11843353509902954,0.0,0.0,0.0,0.0,14714.0,29783.0,17843.0,30040.0,0.3669090270996094,-0.06851175739919578,-0.0022140075760565814,0.00475549584958093,0.106486976146698,0.005384804215282202,0.08242683857679367
417,5,0.0005145330214872956,0.0012877309927716851,0.0001164539935416542,0.03182796388864517,-0.0464676097035408,0.018426142632961273,-0.023723145946860313,0.039270587265491486,-0.027985738590359688,-0.007574886083602905,0.1811429262161255,0.020529361441731453,0.0,0.0,0.0,0.0726531594991684,0.03033696673810482,-0.0,0.0,0.0,0.0,0.00024340806703548878,0.000584328081458807,-0.0007111019804142416,14923.0,28908.0,17851.0,30736.0,0.048630714416503906,0.11044606566429138,0.060274556279182434,0.11968635022640228,0.0,0.0,0.0,0.0,14618.0,29001.0,18559.0,30304.0,0.3727650046348572,-0.04659514861927077,-0.007903365729491728,0.005670222049812539,-0.1305207908153534,0.20858217775821686,-0.02198360115289688
422,5,0.00044076729682274163,0.0012845522724092007,0.00020867487182840705,-0.0007788161747157574,-0.013495270162820816,-0.007383080665022135,-0.023723145946860313,0.039270587265491486,-0.027985738590359688,-0.007574886083602905,0.1811429262161255,0.020529361441731453,0.0,0.0,0.0,0.02942291460931301,-5.774962482973933e-05,-0.0,0.0,0.0,0.0,0.00024340806703548878,0.000584328081458807,-0.0007111019804142416,14923.0,28908.0,17851.0,30736.0,0.048630714416503906,0.11044606566429138,0.060274556279182434,0.11968635022640228,0.0,0.0,0.0,0.0,14618.0,29001.0,18559.0,30304.0,0.3391804099082947,-0.048459347093325826,-0.0004871434608540216,0.00395016571207992,0.00022660952527076006,0.07698021829128265,0.0571761392056942
427,5,0.0005581741570495069,0.0012987772934138775,0.0002121641009580344,0.016203314065933228,-0.006040080450475216,-0.002703417092561722,-0.023615770041942596,0.03737505525350571,-0.02741607464849949,0.04100431129336357,0.137724369764328,0.08304732292890549,0.0,0.0,0.0,0.029560349881649017,-2.629834125400521e-05,-0.0,0.0,0.0,0.0,0.0008309354889206588,-0.0008899385575205088,-0.0007202800479717553,17725.0,28136.0,17297.0,29762.0,0.05975718796253204,0.10662375390529633,0.05801840126514435,0.11472855508327484,0.0,0.0,0.0,0.0,17641.0,28191.0,17240.0,29821.0,0.3391817808151245,-0.04908515464648291,-0.0021936066750917133,0.004194485748948583,-0.06853064894676208,0.04760707914829254,0.043925151228904724
433,5,0.0006056017009541392,0.0012842871947214007,0.0002410977758700028,0.011500850319862366,0.00021659390768036246,-0.004861738532781601,-0.023615770041942596,0.03737505525350571,-0.02741607464849949,0.04100431129336357,0.137724369764328,0.08304732292890549,0.0,0.0,0.0,0.018336692824959755,0.01750338263809681,-0.0,0.0,0.0,0.0,0.0008309354889206588,-0.0008899385575205088,-0.0007202800479717553,17725.0,28136.0,17297.0,29762.0,0.05975718796253204,0.10662375390529633,0.05801840126514435,0.11472855508327484,0.0,0.0,0.0,0.0,17641.0,28191.0,17240.0,29821.0,0.3391425609588623,-0.0478768138590121,0.0015760117575491198,0.006154097368470855,-0.050166208297014236,0.022867459803819656,0.05159863457083702
438,5,0.0006890257936902344,0.0012236559996381402,0.00026147617609240115,0.015129629522562027,0.008553343825042248,-0.004311499185860157,-0.02349362149834633,0.035793304443359375,-0.02696545049548149,-0.019782140851020813,0.19065651297569275,0.08204919099807739,0.0,0.0,0.0,0.008882920257747173,0.012828509323298931,-0.0,0.0,0.0,0.0,0.0016835018759593368,-0.00012761777907144278,-0.0005844784318469465,15678.0,26292.0,21331.0,29798.0,0.05157000944018364,0.09768983721733093,0.07500794529914856,0.11491300165653229,0.0,0.0,0.0,0.0,15010.0,28865.0,21010.0,28379.0,0.33908334374427795,-0.050887884660987405,0.003529337851100401,0.004018145911062282,-0.06535886973142624,-0.010468436405062675,0.05113410949707031
443,5,0.0006729044253006577,0.0012775893555954099,0.0002800455258693546,0.0022818970028311014,-0.004984680563211441,-0.0038931583985686302,-0.02349362149834633,0.035793304443359375,-0.02696545049548149,-0.019782140851020813,0.19065651297569275,0.08204919099807739,0.0,0.0,0.0,0.016953425481915474,0.0035844696685671806,-0.0,0.0,0.0,0.0,0.0016835018759593368,-0.00012761777907144278,-0.0005844784318469465,15678.0,26292.0,21331.0,29798.0,0.05157000944018364,0.09768983721733093,0.07500794529914856,0.11491300165653229,0.0,0.0,0.0,0.0,15010.0,28865.0,21010.0,28379.0,0.3390845060348511,-0.04491218140711419,0.013200198770856755,0.008458178709906592,-0.014065518975257874,0.04435233399271965,0.05107933282852173
448,5,0.0009144468931481242,0.0012413176009431481,0.0003099984605796635,0.03450051695108414,0.003582653123885393,-0.00536135770380497,-0.023488378152251244,0.033681564033031464,-0.02564469911158085,0.038383375853300095,0.15184727311134338,0.117585189640522,0.0,0.0,0.0,0.017090149223804474,0.003632484469562769,-0.0,0.0,0.0,0.0,0.0010414822027087212,0.0003815394302364439,-0.0005389520083554089,17992.0,25913.0,19941.0,29484.0,0.06085280328989029,0.09588552266359329,0.06900570541620255,0.11333046108484268,0.0,0.0,0.0,0.0,16110.0,25867.0,20657.0,30438.0,0.33908534049987793,-0.04396407536521152,0.0072666411606953875,0.00864613713770099,-0.14457949995994568,0.010225575417280197,0.056921131908893585
453,5,0.0010618885280564427,0.0013266198802739382,0.0003097513981629163,0.030991988256573677,-0.010867533273994923,-0.0015738164074718952,-0.023488378152251244,0.033681564033031464,-0.02564469911158085,0.038383375853300095,0.15184727311134338,0.117585189640522,0.0,0.0,0.0,0.025308389216661453,0.03230172023177147,-0.0,0.0,0.0,0.0,0.0010414822027087212,0.0003815394302364439,-0.0005389520083554089,17992.0,25913.0,19941.0,29484.0,0.06085280328989029,0.09588552266359329,0.06900570541620255,0.11333046108484268,0.0,0.0,0.0,0.0,16110.0,25867.0,20657.0,30438.0,0.3499303162097931,-0.04117844680033374,0.004188481577104673,0.008932922225798822,-0.1316479593515396,0.06883373856544495,0.04647704213857651
458,5,0.001371630933135748,0.0013349895598366857,0.0002794031170196831,0.05266152322292328,-0.004432011861354113,0.003776614088565111,-0.0230645090341568,0.03021337278187275,-0.023055922240018845,0.044144757091999054,0.19726310670375824,0.13724613189697266,0.0,0.0,0.0,0.025590108707547188,0.03255269303917885,-0.0,0.0,0.0,0.0,0.0012428854824975133,-0.0001358781155431643,-0.0004785935743711889,17858.0,25622.0,21169.0,28812.0,0.06030455231666565,0.09451054036617279,0.07429932057857513,0.10997053980827332,0.0,0.0,0.0,0.0,18410.0,25501.0,20113.0,29382.0,0.367379367351532,-0.033468677435500256,-0.00031716566184206347,0.01263401437456581,-0.2204330414533615,0.04345230013132095,0.03087654896080494
463,5,0.0014019791269674897,0.0012007717741653323,0.0004144540289416909,0.02004721760749817,0.017460884526371956,-0.017774144187569618,-0.0230645090341568,0.03021337278187275,-0.023055922240018845,0.044144757091999054,0.19726310670375824,0.13724613189697266,0.0,0.0,0.0,-0.01673354022204876,0.02300390973687172,-0.0,0.0,0.0,0.0,0.0012428854824975133,-0.0001358781155431643,-0.0004785935743711889,17858.0,25622.0,21169.0,28812.0,0.06030455231666565,0.09451054036617279,0.07429932057857513,0.10997053980827332,0.0,0.0,0.0,0.0,18410.0,25501.0,20113.0,29382.0,0.3393702805042267,-0.03604927551171672,0.006381685268290613,0.013205488115873416,-0.09048990160226822,-0.044601794332265854,0.09840315580368042
