timestamp,dt,pos_x,pos_y,pos_z,vel_x,vel_y,vel_z,roll,pitch,yaw,agv_x,agv_y,agv_z,x_ref,y_ref,z_ref,roll_ref,pitch_ref,yaw_ref,x_vel_ref,y_vel_ref,z_vel_ref,x_torque,y_torque,z_torque,w0,w1,w2,w3,u0,u1,u2,u3,m0req,m1req,m2req,m3req,thrust0,thrust1,thrust2,thrust3,thrust_ref,roll_vicon,pitch_vicon,yaw_vicon,acc_x,acc_y,acc_z
5,5,0.0,0.0,0.0,0.0030545461922883987,-0.0013400675961747766,-0.0010382983600720763,-0.04877698794007301,0.0657561719417572,0.020529720932245255,-0.0018459624843671918,0.10393465310335159,0.07038752734661102,0.0,0.0,0.0,0.0013660145923495293,0.0031136965844780207,-0.0,0.0,0.0,0.0,0.0016210305038839579,-0.0013334440300241113,0.0007554542971774936,0.0,0.0,0.0,0.0,0.0,0.0,0.0,0.0,0.0,0.0,0.0,0.0,0.0,0.0,0.0,0.0,0.3390355706214905,-0.0845857644089596,-0.04025539618782645,-0.06426596092470892,-0.012218184769153595,0.005360270384699106,0.003114894963800907
27,22,0.0,0.0,0.0,0.006191554944962263,-0.0008341363864019513,0.0021120167803019285,-0.04877698794007301,0.0657561719417572,0.020529720932245255,-0.0018459624843671918,0.10393465310335159,0.07038752734661102,0.0,0.0,0.0,0.0013660145923495293,0.0031136965844780207,-0.0,0.0,0.0,0.0,0.0016210305038839579,-0.0013334440300241113,0.0007554542971774936,0.0,0.0,0.0,0.0,0.0,0.0,0.0,0.0,0.0,0.0,0.0,0.0,0.0,0.0,0.0,0.0,0.3390355706214905,-0.0845413136826352,-0.038042577651817226,-0.0631261204241817,-0.024766219779849052,0.0033365455456078053,-0.006336050108075142
32,5,0.0,0.0,0.0,0.0058615608140826225,0.002210188889876008,-0.0003169468545820564,-0.04877698794007301,0.0657561719417572,0.020529720932245255,-0.0018459624843671918,0.10393465310335159,0.07038752734661102,0.0,0.0,0.0,-0.002252951730042696,0.005975016392767429,-0.0,0.0,0.0,0.0,0.0016210305038839579,-0.0013334440300241113,0.0007554542971774936,0.0,0.0,0.0,0.0,0.0,0.0,0.0,0.0,0.0,0.0,0.0,0.0,0.0,0.0,0.0,0.0,0.33904051780700684,-0.08394146796851201,-0.03763339714662,-0.0626584016671578,-0.02344624325633049,-0.008840755559504032,0.0009508405346423388
38,5,0.0,0.0,0.0,0.009389732964336872,0.008301048539578915,-0.00240513333119452,-0.04870504513382912,0.06483963876962662,0.0210801362991333,0.005093379877507687,0.12716273963451385,0.08190178871154785,0.0,0.0,0.0,-0.008461233228445053,0.009571300819516182,-0.0,0.0,0.0,0.0,0.0016525997780263424,-0.0012036426924169064,0.0007785946363583207,0.0,0.0,0.0,0.0,0.0,0.0,0.0,0.0,0.0,0.0,0.0,0.0,0.0,0.0,0.0,0.0,0.33906126022338867,-0.08319655673241039,-0.03754985863301042,-0.0626516158629542,-0.03755893185734749,-0.03320419415831566,0.007215400226414204
45,7,0.0,0.0,0.0,0.0071458532474935055,0.000411026063375175,-0.0019280362175777555,-0.04870504513382912,0.06483963876962662,0.0210801362991333,0.005093379877507687,0.12716273963451385,0.08190178871154785,0.0,0.0,0.0,-0.00041897568735294044,0.007284125313162804,-0.0,0.0,0.0,0.0,0.0016525997780263424,-0.0012036426924169064,0.0007785946363583207,0.0,0.0,0.0,0.0,0.0,0.0,0.0,0.0,0.0,0.0,0.0,0.0,0.0,0.0,0.0,0.0,0.33904263377189636,-0.0837959011554604,-0.03691826463865016,-0.06222695439441922,-0.028583412989974022,-0.0016441042535007,0.005784108769148588
50,5,4.866471863351762e-05,4.091973096365109e-05,-6.564331852132455e-05,0.009604368358850479,-0.005247380584478378,0.008421261794865131,-0.04874318838119507,0.06320048123598099,0.021980049088597298,0.0006238538189791143,0.13835351169109344,0.07752686738967896,0.0,0.0,0.0,0.005413620732724667,0.00986727885901928,-0.0,0.0,0.0,0.0,0.0016525997780263424,-0.0012036426924169064,0.0007785946363583207,0.0,0.0,0.0,0.0,0.0,0.0,0.0,0.0,0.0,0.0,0.0,0.0,0.0,0.0,0.0,0.0,0.33905506134033203,-0.08100510965935512,-0.03464461970825132,-0.060772753399259215,-0.03872055560350418,0.021244371309876442,-0.026435518637299538
55,5,-9.901908924803138e-05,0.00014771240239497274,-0.00021279009524732828,-0.017794422805309296,-0.016525188460946083,0.02312692627310753,-0.04874318838119507,0.06320048123598099,0.021980049088597298,0.0006238538189791143,0.13835351169109344,0.07752686738967896,0.0,0.0,0.0,0.017070069909095764,-0.01828513853251934,-0.0,0.0,0.0,0.0,0.0016525997780263424,-0.0012036426924169064,0.0007785946363583207,0.0,0.0,0.0,0.0,0.0,0.0,0.0,0.0,0.0,0.0,0.0,0.0,0.0,0.0,0.0,0.0,0.3391396999359131,-0.08754147184437201,-0.03604412222560544,-0.06003246521840295,0.07175908237695694,0.06700096279382706,-0.07284782826900482
60,5,3.066830322495662e-05,0.0001618896349100396,-0.0002052636118605733,0.012817908078432083,-0.006942367646843195,0.00588436983525753,-0.048723336309194565,0.06200099363923073,0.022475339472293854,0.0036217551678419113,0.1536174714565277,0.061379194259643555,0.0,0.0,0.0,0.007352813147008419,0.013111542910337448,-0.0,0.0,0.0,0.0,0.0016152855241671205,-0.0007959442446008325,0.0007908742409199476,26635.0,15413.0,32462.0,17911.0,0.0993305966258049,0.050530798733234406,0.12866076827049255,0.060520462691783905,0.0,0.0,0.0,0.0,26608.0,15691.0,32501.0,17625.0,0.3390718996524811,-0.08668025067278436,-0.039395539490699405,-0.060891645122452605,-0.05145270749926567,0.028855763375759125,-0.022695671766996384
66,7,5.89234332437627e-05,5.190196679905057e-05,-0.00023907698050606996,0.007801090367138386,0.013315563090145588,0.006499182898551226,-0.048723336309194565,0.06200099363923073,0.022475339472293854,0.0036217551678419113,0.1536174714565277,0.061379194259643555,0.0,0.0,0.0,-0.013463417999446392,0.008041433058679104,-0.0,0.0,0.0,0.0,0.0016152855241671205,-0.0007959442446008325,0.0007908742409199476,26635.0,15413.0,32462.0,17911.0,0.0993305966258049,0.050530798733234406,0.12866076827049255,0.060520462691783905,0.0,0.0,0.0,0.0,26608.0,15691.0,32501.0,17625.0,0.3390752971172333,-0.08934033606967245,-0.03988133015718174,-0.06183203233649194,-0.031555380672216415,-0.05283525213599205,-0.025070374831557274
71,5,-4.3033698602812365e-05,7.869561522966251e-05,-0.00033573410473763943,-0.011933671310544014,0.00024355780624318868,0.015481753274798393,-0.04881022498011589,0.05861813575029373,0.022832658141851425,-0.014694186858832836,0.1419581025838852,-0.09040377289056778,0.0,0.0,0.0,-9.449772915104404e-05,-0.012226451188325882,-0.0,0.0,0.0,0.0,0.002179258968681097,-0.0015568039380013943,0.000571385258808732,22894.0,18014.0,32409.0,19675.0,0.08193859457969666,0.06094364449381828,0.1283828169107437,0.06787469983100891,0.0,0.0,0.0,0.0,26447.0,15680.0,32217.0,18190.0,0.33905893564224243,-0.09056320325552748,-0.03596602909605193,-0.061128000135509404,0.047979071736335754,-0.00037067942321300507,-0.05437300354242325
76,5,-0.0007549630245193839,-0.00018294251640327275,0.00023230786609929055,-0.10325020551681519,0.03670240566134453,-0.07488135248422623,-0.04881022498011589,0.05861813575029373,0.022832658141851425,-0.014694186858832836,0.1419581025838852,-0.09040377289056778,0.0,0.0,0.0,-8.876244100974873e-05,-0.012229587882757187,-0.0,0.0,0.0,0.0,0.002179258968681097,-0.0015568039380013943,0.000571385258808732,22894.0,18014.0,32409.0,19675.0,0.08193859457969666,0.06094364449381828,0.1283828169107437,0.06787469983100891,0.0,0.0,0.0,0.0,26447.0,15680.0,32217.0,18190.0,0.3390589654445648,-0.0872695143051496,-0.003272127684097263,-0.04535395443816518,0.41753050684928894,-0.14775390923023224,0.22405089437961578
81,5,-0.0003400501445867121,-0.0002452382759656757,9.036641131388023e-05,0.02711273916065693,0.019732126966118813,-0.002592602511867881,-0.04881022498011589,0.05861813575029373,0.022832658141851425,-0.014694186858832836,0.1419581025838852,-0.09040377289056778,0.0,0.0,0.0,-0.030021686106920242,0.026497013866901398,-0.0,0.0,0.0,0.0,0.002179258968681097,-0.0015568039380013943,0.000571385258808732,22894.0,18014.0,32409.0,19675.0,0.08193859457969666,0.06094364449381828,0.1283828169107437,0.06787469983100891,0.0,0.0,0.0,0.0,26447.0,15680.0,32217.0,18190.0,0.34671464562416077,-0.09437914503058308,-0.02330722957306222,-0.05296271917226804,-0.10626886039972305,-0.08029104769229889,0.005590173415839672
87,5,-0.0007030339911580086,-0.0001922149967867881,-1.0611863217491191e-05,-0.0426839143037796,-0.00150362029671669,0.013359177857637405,-0.04908592998981476,0.05663372948765755,0.022777559235692024,0.0010680684354156256,0.16249828040599823,-0.013369581662118435,0.0,0.0,0.0,0.001781889470294118,-0.04253540188074112,-0.0,0.0,0.0,0.0,0.0011908694868907332,-0.0006848529446870089,0.0007732006488367915,26868.0,16483.0,31409.0,17960.0,0.10045011341571808,0.05474880337715149,0.12315776944160461,0.060718610882759094,0.0,0.0,0.0,0.0,25657.0,17967.0,30079.0,19543.0,0.3561647832393646,-0.08064602560980562,0.0019532184743204072,-0.046290038507504454,0.17529098689556122,0.004896571859717369,-0.04365912452340126
92,5,-0.0002672970585990697,-8.22642759885639e-05,0.00014957680832594633,0.048197995871305466,-0.015844186767935753,-0.018418660387396812,-0.04908592998981476,0.05663372948765755,0.022777559235692024,0.0010680684354156256,0.16249828040599823,-0.013369581662118435,0.0,0.0,0.0,0.022526390850543976,0.04557119309902191,-0.0,0.0,0.0,0.0,0.0011908694868907332,-0.0006848529446870089,0.0007732006488367915,26868.0,16483.0,31409.0,17960.0,0.10045011341571808,0.05474880337715149,0.12315776944160461,0.060718610882759094,0.0,0.0,0.0,0.0,25657.0,17967.0,30079.0,19543.0,0.362013578414917,-0.08293650166664462,-0.025663342356385392,-0.04987714843775656,-0.19082750380039215,0.06291206181049347,0.054080456495285034
97,5,-0.00047869898844510317,0.0001455567980883643,0.00014558744442183524,-0.015136872418224812,-0.036648206412792206,-0.004967087414115667,-0.048937514424324036,0.055446088314056396,0.02213309518992901,0.004154985770583153,0.11955741047859192,0.019001837819814682,0.0,0.0,0.0,0.05417977645993233,-0.015644345432519913,-0.0,0.0,0.0,0.0,0.0006533729028888047,-0.0004297837149351835,0.0005533728399313986,26191.0,17379.0,31010.0,18372.0,0.09720784425735474,0.058352429419755936,0.12109571695327759,0.06241931393742561,0.0,0.0,0.0,0.0,26698.0,16673.0,31832.0,17434.0,0.35313475131988525,-0.06626773378118207,-0.013125335291899179,-0.041607019824441926,0.06384622305631638,0.1474771499633789,0.014114227145910263
102,5,-9.934122499544173e-05,0.00017814585589803755,-3.535300129442476e-05,0.048569027334451675,-0.01555693056434393,0.023841535672545433,-0.048937514424324036,0.055446088314056396,0.02213309518992901,0.004154985770583153,0.11955741047859192,0.019001837819814682,0.0,0.0,0.0,0.022647814825177193,0.046055927872657776,-0.0,0.0,0.0,0.0,0.0006533729028888047,-0.0004297837149351835,0.0005533728399313986,26191.0,17379.0,31010.0,18372.0,0.09720784425735474,0.058352429419755936,0.12109571695327759,0.06241931393742561,0.0,0.0,0.0,0.0,26698.0,16673.0,31832.0,17434.0,0.3625427484512329,-0.06443860594167589,-0.03567134660398093,-0.05484218928527842,-0.19313707947731018,0.06334386765956879,-0.07458800077438354
107,5,-0.00015469010395463556,8.587219781475142e-05,-1.5440286915691104e-06,0.0068218642845749855,0.008251232095062733,0.0024192044511437416,-0.048967402428388596,0.05432233586907387,0.021783076226711273,-0.0035473350435495377,0.07811019569635391,-0.09756592661142349,0.0,0.0,0.0,-0.012385400012135506,0.006573034450411797,-0.0,0.0,0.0,0.0,0.0023022890090942383,9.665708057582378e-05,0.000741614552680403,26690.0,19212.0,29441.0,19725.0,0.09959585219621658,0.06591884046792984,0.1131136491894722,0.0680861845612526,0.0,0.0,0.0,0.0,26734.0,19265.0,29385.0,19689.0,0.33906692266464233,-0.07892010388922864,-0.036776096253645627,-0.05708894584232665,-0.025792958214879036,-0.03240164369344711,-0.009913858026266098
112,5,0.000202969167730771,0.0005189950461499393,3.2555715733906254e-05,0.05211885645985603,-0.05816182494163513,-0.004048203118145466,-0.048967402428388596,0.05432233586907387,0.021783076226711273,-0.0035473350435495377,0.07811019569635391,-0.09756592661142349,0.0,0.0,0.0,0.0788254588842392,0.04664069786667824,-0.0,0.0,0.0,0.0,0.0023022890090942383,9.665708057582378e-05,0.000741614552680403,26690.0,19212.0,29441.0,19725.0,0.09959585219621658,0.06591884046792984,0.1131136491894722,0.0680861845612526,0.0,0.0,0.0,0.0,26734.0,19265.0,29385.0,19689.0,0.38866230845451355,-0.04672566654949222,-0.0551855588885435,-0.06555714834682862,-0.2090815007686615,0.23587577044963837,0.009994962252676487
117,5,-0.00011604834435274825,0.0002857062791008502,0.00016498849436175078,-0.02902679517865181,0.015211875550448895,-0.01975504867732525,-0.04881656542420387,0.05375492945313454,0.021796945482492447,0.004861907567828894,0.04678121209144592,0.02876790054142475,0.0,0.0,0.0,-0.022048281505703926,-0.029298152774572372,-0.0,0.0,0.0,0.0,0.0023534386418759823,-9.280289668822661e-05,0.0006084747146815062,26681.0,16103.0,32530.0,22624.0,0.09955338388681412,0.05324120074510574,0.1290183663368225,0.08072847872972488,0.0,0.0,0.0,0.0,26518.0,16042.0,32793.0,22422.0,0.3462514281272888,-0.07334658673992167,-0.038525121596939126,-0.07497671259183962,0.1173684149980545,-0.058895599097013474,0.059209588915109634
122,5,1.5837445971556008e-05,0.00035870703868567944,0.00020630717335734516,0.009755972772836685,-0.005656544119119644,-0.011711129918694496,-0.04881656542420387,0.05375492945313454,0.021796945482492447,0.004861907567828894,0.04678121209144592,0.02876790054142475,0.0,0.0,0.0,0.00958932749927044,0.009817657060921192,-0.0,0.0,0.0,0.0,0.0023534386418759823,-9.280289668822661e-05,0.0006084747146815062,26681.0,16103.0,32530.0,22624.0,0.09955338388681412,0.05324120074510574,0.1290183663368225,0.08072847872972488,0.0,0.0,0.0,0.0,26518.0,16042.0,32793.0,22422.0,0.3390655219554901,-0.0692684736253843,-0.05152758795435828,-0.06765074662962303,-0.03852575272321701,0.025087948888540268,0.03621629998087883
127,5,-6.551937258336693e-05,0.0003218672063667327,0.0001716993428999558,-0.008463162928819656,0.0034606135450303555,0.0013317567063495517,-0.048769716173410416,0.05356655642390251,0.021488692611455917,0.02150443196296692,0.026746107265353203,-0.004750109277665615,0.0,0.0,0.0,-0.004394220188260078,-0.008877119049429893,-0.0,0.0,0.0,0.0,0.004232399631291628,-0.00039884017314761877,0.0007071886793710291,25806.0,14679.0,36422.0,25823.0,0.09538182616233826,0.047691673040390015,0.15014979243278503,0.09546250104904175,0.0,0.0,0.0,0.0,26845.0,15864.0,33342.0,21688.0,0.3390502333641052,-0.07701376534647336,-0.04555900704176795,-0.06761700800195584,0.034834861755371094,-0.011495121754705906,-0.0026664421893656254
132,5,-0.00017488832236267626,0.0002168048667954281,0.0001603823620826006,-0.01785060204565525,0.015746913850307465,0.001983904279768467,-0.048769716173410416,0.05356655642390251,0.021488692611455917,0.02150443196296692,0.026746107265353203,-0.004750109277665615,0.0,0.0,0.0,-0.02337939664721489,-0.018616830930113792,-0.0,0.0,0.0,0.0,0.004232399631291628,-0.00039884017314761877,0.0007071886793710291,25806.0,14679.0,36422.0,25823.0,0.09538182616233826,0.047691673040390015,0.15014979243278503,0.09546250104904175,0.0,0.0,0.0,0.0,26845.0,15864.0,33342.0,21688.0,0.33918505907058716,-0.08400620329368025,-0.04045898461145217,-0.06525905358741065,0.07306088507175446,-0.061176054179668427,-0.004158200696110725
137,5,-0.00016062693612184376,0.00042187058716081083,0.0002922238491009921,-0.0033585866913199425,-0.023985128849744797,-0.017862636595964432,-0.048769716173410416,0.05356655642390251,0.021488692611455917,0.02150443196296692,0.026746107265353203,-0.004750109277665615,0.0,0.0,0.0,-0.02335520088672638,-0.01862983964383602,-0.0,0.0,0.0,0.0,0.004232399631291628,-0.00039884017314761877,0.0007071886793710291,25806.0,14679.0,36422.0,25823.0,0.09538182616233826,0.047691673040390015,0.15014979243278503,0.09546250104904175,0.0,0.0,0.0,0.0,26845.0,15864.0,33342.0,21688.0,0.3391849398612976,-0.07640612340051896,-0.04338886017637606,-0.06784300052188258,0.015058641321957111,0.09904666244983673,0.05795174464583397
142,5,-0.00011572718358365819,0.00013221953122410923,0.00024113585823215544,0.005278389900922775,0.03335560858249664,0.0017935266951099038,-0.048706311732530594,0.054515540599823,0.021637586876749992,-0.005165581591427326,-0.050627611577510834,0.00807738397270441,0.0,0.0,0.0,-0.049337517470121384,0.00491734454408288,-0.0,0.0,0.0,0.0,0.0019349763169884682,-0.0017752173589542508,0.0006727568688802421,24098.0,17432.0,33126.0,18005.0,0.0874159038066864,0.0585675910115242,0.1321752816438675,0.06090687960386276,0.0,0.0,0.0,0.0,25269.0,15465.0,36131.0,26057.0,0.3469139635562897,-0.08146712893162937,-0.03613343171104134,-0.06332706562138878,-0.01971982978284359,-0.13195358216762543,-0.0008968904730863869
147,5,7.900784112280235e-05,0.00017799825582187623,0.00024321817909367383,0.028846420347690582,0.003597660455852747,0.0002465343859512359,-0.048706311732530594,0.054515540599823,0.021637586876749992,-0.005165581591427326,-0.050627611577510834,0.00807738397270441,0.0,0.0,0.0,-0.004770947620272636,0.02903045155107975,-0.0,0.0,0.0,0.0,0.0019349763169884682,-0.0017752173589542508,0.0006727568688802421,24098.0,17432.0,33126.0,18005.0,0.0874159038066864,0.0585675910115242,0.1321752816438675,0.06090687960386276,0.0,0.0,0.0,0.0,25269.0,15465.0,36131.0,26057.0,0.3427111506462097,-0.07435820299995333,-0.048617352176523215,-0.06341434118711323,-0.11513367295265198,-0.012616079300642014,0.004480695817619562
153,5,-0.00010215665679425001,0.00014168235065881163,0.0003209780261386186,-0.016709104180336,0.006163524929434061,-0.010812419466674328,-0.048922885209321976,0.055172987282276154,0.021573565900325775,0.003446306334808469,-0.10127973556518555,-0.03385036811232567,0.0,0.0,0.0,-0.008811616338789463,-0.017367657274007797,-0.0,0.0,0.0,0.0,0.0009037698619067669,-0.0028980060014873743,0.000616066565271467,23280.0,21389.0,32881.0,15113.0,0.08368177711963654,0.07525995373725891,0.13087622821331024,0.04936698451638222,0.0,0.0,0.0,0.0,23671.0,17903.0,33105.0,18042.0,0.33909791707992554,-0.079112798910886,-0.030156337170230644,-0.06644621736006441,0.06815753877162933,-0.023054931312799454,0.039559442549943924
158,5,-9.362306445837021e-05,0.00010395135905127972,0.00045400080853141844,-0.0038180281408131123,0.007131396792829037,-0.021866915747523308,-0.048922885209321976,0.055172987282276154,0.021573565900325775,0.003446306334808469,-0.10127973556518555,-0.03385036811232567,0.0,0.0,0.0,-0.010363143868744373,-0.004223333206027746,-0.0,0.0,0.0,0.0,0.0009037698619067669,-0.0028980060014873743,0.000616066565271467,23280.0,21389.0,32881.0,15113.0,0.08368177711963654,0.07525995373725891,0.13087622821331024,0.04936698451638222,0.0,0.0,0.0,0.0,23671.0,17903.0,33105.0,18042.0,0.33905482292175293,-0.07736841630900021,-0.030402403036914355,-0.06062171117588461,0.01657264679670334,-0.027110449969768524,0.07592859119176865
163,5,-0.00023905225680209696,0.00017650658264756203,0.0004102530365344137,-0.005134498700499535,0.004565763752907515,0.016395648941397667,-0.048866767436265945,0.05614832043647766,0.021327299997210503,-0.007412652485072613,-0.014927821233868599,-0.029324030503630638,0.0,0.0,0.0,-0.00626203790307045,-0.005794893950223923,-0.0,0.0,0.0,0.0,0.0008654377888888121,-0.0031818256247788668,0.0005999638233333826,24857.0,18377.0,31758.0,18844.0,0.09092378616333008,0.06243903934955597,0.12497077882289886,0.06437799334526062,0.0,0.0,0.0,0.0,23579.0,21383.0,32685.0,15038.0,0.3390459418296814,-0.067176736179385,-0.015096461173336347,-0.06027007995274551,0.022739894688129425,-0.016381507739424706,-0.03786368668079376
168,5,0.00011776610335800797,0.00010744819155661389,0.0005026430008001626,0.04841421917080879,0.01103790383785963,-0.008015898056328297,-0.048866767436265945,0.05614832043647766,0.021327299997210503,-0.007412652485072613,-0.014927821233868599,-0.029324030503630638,0.0,0.0,0.0,-0.015291061252355576,0.046293407678604126,-0.0,0.0,0.0,0.0,0.0008654377888888121,-0.0031818256247788668,0.0005999638233333826,24857.0,18377.0,31758.0,18844.0,0.09092378616333008,0.06243903934955597,0.12497077882289886,0.06437799334526062,0.0,0.0,0.0,0.0,23579.0,21383.0,32685.0,15038.0,0.361358642578125,-0.0896244368869782,-0.03483796424369043,-0.07096136264209915,-0.19352559745311737,-0.04263174161314964,0.03829987347126007
173,5,0.00011776610335800797,0.00010744819155661389,0.0005026430008001626,0.04841421917080879,0.01103790383785963,-0.008015898056328297,-0.04892931878566742,0.05674419552087784,0.021399609744548798,-0.005212557036429644,-0.041622839868068695,-0.057742707431316376,0.0,0.0,0.0,-0.015281678177416325,0.04629947617650032,-0.0,0.0,0.0,0.0,0.0014678346924483776,-0.0009613899164833128,0.0006245046388357878,23857.0,19583.0,32212.0,17271.0,0.08630882203578949,0.06748539209365845,0.12734581530094147,0.057914793491363525,0.0,0.0,0.0,0.0,22642.0,20873.0,32499.0,16891.0,0.3613635301589966,-0.0896244368869782,-0.03483796424369043,-0.07096136264209915,-0.193553626537323,-0.042606171220541,0.03979523479938507
178,5,0.0001705765607766807,-1.156519829237368e-05,0.00048206845531240106,0.02191772870719433,0.01997324451804161,0.00047566514695063233,-0.04892931878566742,0.05674419552087784,0.021399609744548798,-0.005212557036429644,-0.041622839868068695,-0.057742707431316376,0.0,0.0,0.0,-0.029843250289559364,0.02213512361049652,-0.0,0.0,0.0,0.0,0.0014678346924483776,-0.0009613899164833128,0.0006245046388357878,23857.0,19583.0,32212.0,17271.0,0.08630882203578949,0.06748539209365845,0.12734581530094147,0.057914793491363525,0.0,0.0,0.0,0.0,22642.0,20873.0,32499.0,16891.0,0.3433339595794678,-0.09110777898120136,-0.03361077352896338,-0.07134525759559182,-0.08791394531726837,-0.0790354385972023,0.015569093637168407
183,5,0.0002245166979264468,-0.00047909453860484064,1.640349000808783e-05,-0.008770468644797802,0.0677025243639946,0.0570128969848156,-0.04894981160759926,0.05721981078386307,0.021396737545728683,0.012796715833246708,-0.0382903590798378,0.05837888643145561,0.0,0.0,0.0,-0.09338224679231644,-0.007878274656832218,-0.0,0.0,0.0,0.0,0.0012476735282689333,-0.0022096349857747555,0.0007045742240734398,28183.0,17955.0,32351.0,19166.0,0.10685662925243378,0.060700222849845886,0.12807591259479523,0.0657273679971695,0.0,0.0,0.0,0.0,28398.0,17624.0,31490.0,20295.0,0.379718542098999,-0.10571700164993882,-0.0490948266624183,-0.06657304850517849,0.03447246924042702,-0.2727643549442291,-0.15957972407341003
188,5,0.0002245166979264468,-0.00047909453860484064,1.640349000808783e-05,-0.008770468644797802,0.0677025243639946,0.0570128969848156,-0.04894981160759926,0.05721981078386307,0.021396737545728683,0.012796715833246708,-0.0382903590798378,0.05837888643145561,0.0,0.0,0.0,-0.09341589361429214,-0.007865355350077152,-0.0,0.0,0.0,0.0,0.0012476735282689333,-0.0022096349857747555,0.0007045742240734398,28183.0,17955.0,32351.0,19166.0,0.10685662925243378,0.060700222849845886,0.12807591259479523,0.0657273679971695,0.0,0.0,0.0,0.0,28398.0,17624.0,31490.0,20295.0,0.3797437250614166,-0.10571700164993882,-0.0490948266624183,-0.06657304850517849,0.034418586641550064,-0.27287933230400085,-0.15953052043914795
193,5,0.00027421049890108407,-3.307090810267255e-05,0.0006175184971652925,-0.0006951373070478439,-0.01570570282638073,-0.02115686424076557,-0.04895029962062836,0.056732118129730225,0.021335959434509277,0.0002727231476455927,0.03222157433629036,0.0720561146736145,0.0,0.0,0.0,0.024202900007367134,-0.00045011789188720286,-0.0,0.0,0.0,0.0,0.0011187363415956497,4.721356526715681e-05,0.0006733298650942743,28832.0,17027.0,31700.0,20102.0,0.11007089167833328,0.0569290891289711,0.12466815859079361,0.06969199329614639,0.0,0.0,0.0,0.0,28363.0,16932.0,31399.0,16782.0,0.33913296461105347,-0.08720103221169369,-0.03643068157598211,-0.06835177254208787,0.001766262692399323,0.06332028657197952,0.08408854901790619
198,5,-0.0001758921571308747,0.00023643745225854218,0.0003283080877736211,-0.06322291493415833,-0.04244288057088852,0.034142401069402695,-0.04895029962062836,0.056732118129730225,0.021335959434509277,0.0002727231476455927,0.03222157433629036,0.0720561146736145,0.0,0.0,0.0,0.057701267302036285,-0.05701899901032448,-0.0,0.0,0.0,0.0,0.0011187363415956497,4.721356526715681e-05,0.0006733298650942743,28832.0,17027.0,31700.0,20102.0,0.11007089167833328,0.0569290891289711,0.12466815859079361,0.06969199329614639,0.0,0.0,0.0,0.0,28363.0,16932.0,31399.0,16782.0,0.38649865984916687,-0.07666245303863996,-0.019869952983408462,-0.05975294408268192,0.2545042932033539,0.17187759280204773,-0.08405506610870361
203,5,0.00032878213096410036,-1.1596852345974185e-05,0.0005294378497637808,0.05168752744793892,0.02199193835258484,-0.01791544444859028,-0.04890456795692444,0.055407311767339706,0.021922791376709938,-0.008969636633992195,0.1425832360982895,0.05077028274536133,0.0,0.0,0.0,-0.03078010305762291,0.04894917085766792,-0.0,0.0,0.0,0.0,0.0006369849434122443,-0.0007738769636489451,0.0007009487017057836,27856.0,17404.0,30789.0,17705.0,0.10525043308734894,0.058450598269701004,0.11995874345302582,0.059677232056856155,0.0,0.0,0.0,0.0,32106.0,22679.0,31920.0,14282.0,0.3676835894584656,-0.09255344813330466,-0.03418177627172778,-0.06928057133509538,-0.2081267237663269,-0.0872960239648819,0.07609756290912628
208,5,0.0002942743885796517,-2.3047063223202713e-05,0.0006295907078310847,0.010675175115466118,0.008200610987842083,-0.019396038725972176,-0.04890456795692444,0.055407311767339706,0.021922791376709938,-0.008969636633992195,0.1425832360982895,0.05077028274536133,0.0,0.0,0.0,-0.012282360345125198,0.011251714080572128,-0.0,0.0,0.0,0.0,0.0006369849434122443,-0.0007738769636489451,0.0007009487017057836,27856.0,17404.0,30789.0,17705.0,0.10525043308734894,0.058450598269701004,0.11995874345302582,0.059677232056856155,0.0,0.0,0.0,0.0,32106.0,22679.0,31920.0,14282.0,0.3390806317329407,-0.09054452841969053,-0.03412537640010442,-0.06830295840372366,-0.04394713416695595,-0.03220215439796448,0.08359275013208389
214,5,0.000237169602769427,6.77442949381657e-05,0.0006273023318499327,-0.004792118910700083,-0.010250606574118137,-0.005498438607901335,-0.048897434026002884,0.05446673929691315,0.02227943018078804,-0.0006406725151464343,0.13233114778995514,0.028266720473766327,0.0,0.0,0.0,0.01610817387700081,-0.004633153323084116,-0.0,0.0,0.0,0.0,-0.001434469479136169,-0.0010860201437026262,0.0006971399998292327,31439.0,23413.0,30686.0,15974.0,0.12331467121839523,0.08428285270929337,0.119430772960186,0.05273032933473587,0.0,0.0,0.0,0.0,31525.0,23243.0,32260.0,13941.0,0.3390812277793884,-0.0817182352917758,-0.027573552892829922,-0.0627920045088873,0.01818014867603779,0.04214119166135788,0.044132035225629807
219,5,0.00019650936883408576,0.00014608525088988245,0.0006377109093591571,-0.007130067329853773,-0.014042915776371956,-0.003106731455773115,-0.048897434026002884,0.05446673929691315,0.02227943018078804,-0.0006406725151464343,0.13233114778995514,0.028266720473766327,0.0,0.0,0.0,0.022092802450060844,-0.00706057995557785,-0.0,0.0,0.0,0.0,-0.001434469479136169,-0.0010860201437026262,0.0006971399998292327,31439.0,23413.0,30686.0,15974.0,0.12331467121839523,0.08428285270929337,0.119430772960186,0.05273032933473587,0.0,0.0,0.0,0.0,31525.0,23243.0,32260.0,13941.0,0.33912479877471924,-0.07578077324949246,-0.023345950428181557,-0.059457983071129115,0.027706176042556763,0.05780038982629776,0.039418380707502365
224,5,-6.15697936154902e-05,-0.0002107669715769589,-0.00015601188351865858,-0.03827010467648506,0.04574643447995186,0.11018916964530945,-0.04891981929540634,0.05294783040881157,0.02254667691886425,0.001147182541899383,0.09911365061998367,-0.029148252680897713,0.0,0.0,0.0,-0.06415810436010361,-0.03587756305932999,-0.0,0.0,0.0,0.0,0.003513308009132743,-0.0029932358302176,0.0006929821101948619,22556.0,20146.0,38640.0,20979.0,0.0804220661520958,0.06988199800252914,0.16273283958435059,0.0734718069434166,0.0,0.0,0.0,0.0,23934.0,18693.0,38504.0,21135.0,0.37112167477607727,-0.0955165952220076,-0.03795202760182852,-0.04951289948385077,0.15375806391239166,-0.18345659971237183,-0.31007125973701477
229,5,-0.00010914180165855214,-0.00018894890672527254,-0.00021900681895203888,-0.018141113221645355,0.010669402778148651,0.04187604412436485,-0.04891981929540634,0.05294783040881157,0.02254667691886425,0.001147182541899383,0.09911365061998367,-0.029148252680897713,0.0,0.0,0.0,-0.016459470614790916,-0.018739433959126472,-0.0,0.0,0.0,0.0,0.003513308009132743,-0.0029932358302176,0.0006929821101948619,22556.0,20146.0,38640.0,20979.0,0.0804220661520958,0.06988199800252914,0.16273283958435059,0.0734718069434166,0.0,0.0,0.0,0.0,23934.0,18693.0,38504.0,21135.0,0.33913907408714294,-0.09338765935765313,-0.033837188955528195,-0.04791339166559073,0.07354214787483215,-0.043067265301942825,-0.10653862357139587
234,5,-0.00011872908362420276,-0.00013851345283910632,-0.00018284496036358178,-0.006784552708268166,-0.003860142081975937,0.0075001525692641735,-0.04891981929540634,0.05294783040881157,0.02254667691886425,0.001147182541899383,0.09911365061998367,-0.029148252680897713,0.0,0.0,0.0,0.0058482857421040535,-0.007187609560787678,-0.0,0.0,0.0,0.0,0.003513308009132743,-0.0029932358302176,0.0006929821101948619,22556.0,20146.0,38640.0,20979.0,0.0804220661520958,0.06988199800252914,0.16273283958435059,0.0734718069434166,0.0,0.0,0.0,0.0,23934.0,18693.0,38504.0,21135.0,0.3390481472015381,-0.09092763078561882,-0.03097733010348411,-0.04648688312608658,0.028204666450619698,0.015299588441848755,-0.003650563769042492
239,5,-0.00044441636418923736,0.0003686207055579871,1.3407793630904052e-05,-0.04763158783316612,-0.07215682417154312,-0.025225339457392693,-0.04889112338423729,0.05166759341955185,0.02247963473200798,-0.014114143326878548,0.19084307551383972,-0.06211058050394058,0.0,0.0,0.0,0.09547749161720276,-0.042341575026512146,-0.0,0.0,0.0,0.0,0.002388033317402005,-0.000818893953692168,0.0005886326543986797,26079.0,17299.0,29928.0,19895.0,0.0966753214597702,0.05802778899669647,0.11557044088840485,0.06880708038806915,0.0,0.0,0.0,0.0,26261.0,17019.0,30338.0,19467.0,0.3969387412071228,-0.06953009640296075,-0.01023126080538697,-0.044304671194458925,0.1935826689004898,0.29149097204208374,0.09681670367717743
244,5,-0.00015404672012664378,-3.3372427424183115e-05,-0.00014046934666112065,0.02636227384209633,0.034631989896297455,0.013975197449326515,-0.04889112338423729,0.05166759341955185,0.02247963473200798,-0.014114143326878548,0.19084307551383972,-0.06211058050394058,0.0,0.0,0.0,-0.05030230060219765,0.025294028222560883,-0.0,0.0,0.0,0.0,0.002388033317402005,-0.000818893953692168,0.0005886326543986797,26079.0,17299.0,29928.0,19895.0,0.0966753214597702,0.05802778899669647,0.11557044088840485,0.06880708038806915,0.0,0.0,0.0,0.0,26261.0,17019.0,30338.0,19467.0,0.35583773255348206,-0.08831289655364324,-0.027473212434271987,-0.046942649004453225,-0.10403039306402206,-0.13799011707305908,-0.023060869425535202
249,5,-0.00016292024520225823,0.00010597769141895697,-1.4525789993058424e-05,0.00666638882830739,-0.009119420312345028,-0.013439537957310677,-0.049117229878902435,0.04979415610432625,0.021997662261128426,-0.018408967182040215,0.15522116422653198,-0.04806132987141609,0.0,0.0,0.0,0.014465815387666225,0.0064109452068805695,-0.0,0.0,0.0,0.0,0.001781665487214923,-0.0008878624066710472,0.0005366660770960152,23849.0,16323.0,32017.0,20735.0,0.0862739235162735,0.054114121943712234,0.12632466852664948,0.07241217792034149,0.0,0.0,0.0,0.0,24436.0,15814.0,32630.0,19824.0,0.33907604217529297,-0.08505782266715889,-0.023000869100939392,-0.04921914029736989,-0.025156892836093903,0.037844523787498474,0.060664039105176926
254,5,-0.00016516800678800792,-2.7777976356446743e-05,-0.0002075007214443758,0.0016852315748110414,0.015989968553185463,0.02298462949693203,-0.049117229878902435,0.04979415610432625,0.021997662261128426,-0.018408967182040215,0.15522116422653198,-0.04806132987141609,0.0,0.0,0.0,-0.024220189079642296,0.0013180030509829521,-0.0,0.0,0.0,0.0,0.001781665487214923,-0.0008878624066710472,0.0005366660770960152,23849.0,16323.0,32017.0,20735.0,0.0862739235162735,0.054114121943712234,0.12632466852664948,0.07241217792034149,0.0,0.0,0.0,0.0,24436.0,15814.0,32630.0,19824.0,0.3391333520412445,-0.08816636828559672,-0.02721158856572218,-0.04607698753171335,-0.005171516444534063,-0.0633656308054924,-0.05157021805644035
259,5,-0.0001371682737953961,4.247833203407936e-05,-0.00012715249613393098,0.004425531253218651,-0.005038892850279808,-0.004353363066911697,-0.049076396971940994,0.04853808507323265,0.02166018821299076,-0.01411582250148058,0.11191301792860031,-0.025030532851815224,0.0,0.0,0.0,0.008089946582913399,0.004142072983086109,-0.0,0.0,0.0,0.0,-1.5066676496644504e-05,-0.00012813464854843915,0.0005585740436799824,28916.0,19678.0,29152.0,19182.0,0.11048868298530579,0.0678875595331192,0.11166739463806152,0.06579355895519257,0.0,0.0,0.0,0.0,25135.0,16578.0,32252.0,18788.0,0.3390476107597351,-0.0845084139598803,-0.02433017908682395,-0.04682088968380177,-0.01625358685851097,0.021163687109947205,0.030911186710000038
264,5,0.0003307037695776671,-4.707230255007744e-05,2.7976875571766868e-05,0.06682974845170975,0.01102542132139206,-0.023024121299386024,-0.049076396971940994,0.04853808507323265,0.02166018821299076,-0.01411582250148058,0.11191301792860031,-0.025030532851815224,0.0,0.0,0.0,-0.01494878064841032,0.06141817569732666,-0.0,0.0,0.0,0.0,-1.5066676496644504e-05,-0.00012813464854843915,0.0005585740436799824,28916.0,19678.0,29152.0,19182.0,0.11048868298530579,0.0678875595331192,0.11166739463806152,0.06579355895519257,0.0,0.0,0.0,0.0,25135.0,16578.0,32252.0,18788.0,0.3781883120536804,-0.09737351416899967,-0.04734463503859919,-0.06692875483154757,-0.26863938570022583,-0.04361890256404877,0.08879970759153366
269,5,0.00013377434515859932,-0.00018433252989780158,0.00044183633872307837,-0.00752119580283761,0.02252405695617199,-0.06484755873680115,-0.049166709184646606,0.047302085906267166,0.02148406393826008,0.002856731880456209,0.09364356845617294,-0.0010107341222465038,0.0,0.0,0.0,-0.03456819802522659,-0.007611584383994341,-0.0,0.0,0.0,0.0,0.0008064218563959002,-0.0012505276827141643,0.0005796310142613947,25500.0,19124.0,30955.0,17498.0,0.09393389523029327,0.06555037200450897,0.1208139955997467,0.05883508548140526,0.0,0.0,0.0,0.0,29629.0,18835.0,30287.0,17794.0,0.33924609422683716,-0.1270507761746526,-0.03769946256672574,-0.08320074271860327,0.029868433251976967,-0.09044903516769409,0.2205921858549118
275,5,0.0001765751512721181,-0.00022178735525812954,0.00048001762479543686,0.003735753707587719,0.012000893242657185,-0.0247996486723423,-0.049166709184646606,0.047302085906267166,0.02148406393826008,0.002856731880456209,0.09364356845617294,-0.0010107341222465038,0.0,0.0,0.0,-0.018590183928608894,0.003938619047403336,-0.0,0.0,0.0,0.0,0.0008064218563959002,-0.0012505276827141643,0.0005796310142613947,25500.0,19124.0,30955.0,17498.0,0.09393389523029327,0.06555037200450897,0.1208139955997467,0.05883508548140526,0.0,0.0,0.0,0.0,29629.0,18835.0,30287.0,17794.0,0.3390948176383972,-0.09180522924428258,-0.03284277253168334,-0.06495697010928954,-0.015455220825970173,-0.048634789884090424,0.10262569785118103
280,5,0.0001842877536546439,-0.00016429064271505922,0.00046864134492352605,0.0022004900965839624,-0.004449271131306887,-0.00584721565246582,-0.04941728711128235,0.04628919064998627,0.021711867302656174,-0.02979748696088791,0.04202957823872566,0.07994712889194489,0.0,0.0,0.0,0.006668898742645979,0.0023987723980098963,-0.0,0.0,0.0,0.0,0.001145919319242239,0.0009063820471055806,0.0007700991118326783,31266.0,15928.0,31876.0,21930.0,0.12241770327091217,0.052548784762620926,0.12558847665786743,0.07764098048210144,0.0,0.0,0.0,0.0,26104.0,18356.0,30885.0,17671.0,0.33904212713241577,-0.09158061292026766,-0.030168865248347092,-0.06668072177566894,-0.009412800893187523,0.01744600385427475,0.04737182706594467
285,5,-5.059691102360375e-05,0.00013647008745465428,0.0004611868935171515,-0.03222370520234108,-0.0434412844479084,-0.0007105431868694723,-0.04941728711128235,0.04628919064998627,0.021711867302656174,-0.02979748696088791,0.04202957823872566,0.07994712889194489,0.0,0.0,0.0,0.062076784670352936,-0.030650153756141663,-0.0,0.0,0.0,0.0,0.001145919319242239,0.0009063820471055806,0.0007700991118326783,31266.0,15928.0,31876.0,21930.0,0.12241770327091217,0.052548784762620926,0.12558847665786743,0.07764098048210144,0.0,0.0,0.0,0.0,26104.0,18356.0,30885.0,17671.0,0.36621472239494324,-0.075894722978581,-0.017941555127043454,-0.06249057950213133,0.12964320182800293,0.17517469823360443,0.03350120782852173
290,5,0.00020095771469641477,5.6146065617213026e-05,0.00046705451677553356,0.025550536811351776,-0.0017870228039100766,-0.001034627202898264,-0.04941102862358093,0.04570188745856285,0.02178819663822651,0.02618909627199173,0.09086800366640091,0.012307297438383102,0.0,0.0,0.0,0.0030913471709936857,0.026174362748861313,-0.0,0.0,0.0,0.0,0.0009467345080338418,-0.000923263665754348,0.0007208269089460373,26937.0,17159.0,30969.0,17776.0,0.10078394412994385,0.057460635900497437,0.12088288366794586,0.059967443346977234,0.0,0.0,0.0,0.0,30253.0,17080.0,31226.0,22824.0,0.3398813307285309,-0.09852544966621078,-0.028890793957744916,-0.07278594610751701,-0.10295316576957703,0.008107271045446396,0.03592256084084511
295,5,-8.971569513960276e-06,-7.02140387147665e-05,0.0006292834295891225,-0.021724939346313477,0.017154308035969734,-0.02302243933081627,-0.04941102862358093,0.04570188745856285,0.02178819663822651,0.02618909627199173,0.09086800366640091,0.012307297438383102,0.0,0.0,0.0,-0.025952138006687164,-0.022100431844592094,-0.0,0.0,0.0,0.0,0.0009467345080338418,-0.000923263665754348,0.0007208269089460373,26937.0,17159.0,30969.0,17776.0,0.10078394412994385,0.057460635900497437,0.12088288366794586,0.059967443346977234,0.0,0.0,0.0,0.0,30253.0,17080.0,31226.0,22824.0,0.34167560935020447,-0.11492516045683662,-0.01764911002657596,-0.08100057191557965,0.08736135810613632,-0.06840363889932632,0.1057484969496727
300,5,0.00019137977506034076,8.461686229566112e-05,0.0005059849936515093,0.021531706675887108,-0.016530033200979233,0.010355053469538689,-0.0495249480009079,0.04558844119310379,0.02209237590432167,-0.024814791977405548,0.00695705646649003,0.007781051564961672,0.0,0.0,0.0,0.025531750172376633,0.021990971639752388,-0.0,0.0,0.0,0.0,0.003679933026432991,-0.0024427874013781548,0.0007200362742878497,22380.0,17358.0,37247.0,20994.0,0.07963620126247406,0.05826440826058388,0.15478307008743286,0.07353635132312775,0.0,0.0,0.0,0.0,25850.0,18285.0,31454.0,17306.0,0.34142524003982544,-0.0949261551581572,-0.027837236622630514,-0.07110924134617183,-0.08686598390340805,0.06724679470062256,0.005645141936838627
305,5,-0.00010827206278918311,0.00015989290841389447,0.00040463460027240217,-0.03549174591898918,-0.015497657470405102,0.01729556731879711,-0.0495249480009079,0.04558844119310379,0.02209237590432167,-0.024814791977405548,0.00695705646649003,0.007781051564961672,0.0,0.0,0.0,0.02342081069946289,-0.035117778927087784,-0.0,0.0,0.0,0.0,0.003679933026432991,-0.0024427874013781548,0.0007200362742878497,22380.0,17358.0,37247.0,20994.0,0.07963620126247406,0.05826440826058388,0.15478307008743286,0.07353635132312775,0.0,0.0,0.0,0.0,25850.0,18285.0,31454.0,17306.0,0.3519459068775177,-0.07848159920403547,-0.011748544803112071,-0.06562240308076965,0.14298203587532043,0.06359034031629562,-0.015166070312261581
310,5,0.0001473359006922692,8.532809442840517e-05,0.0005298981559462845,0.02513759210705757,0.005789777729660273,-0.012348225340247154,-0.04967845603823662,0.045758701860904694,0.02222553826868534,0.003727074945345521,-0.08293480426073074,0.002908555557951331,0.0,0.0,0.0,-0.00837620534002781,0.02568705566227436,-0.0,0.0,0.0,0.0,0.0008044414571486413,-0.002392655937001109,0.0006455336115323007,24442.0,20646.0,32904.0,15186.0,0.08900129795074463,0.0720302164554596,0.1309947967529297,0.04965159296989441,0.0,0.0,0.0,0.0,25250.0,20070.0,32801.0,14994.0,0.33991706371307373,-0.09108413496947379,-0.026086306949485886,-0.07011101802208976,-0.10104399919509888,-0.02196870930492878,0.07686442881822586
315,5,0.00022441401961259544,6.049769217497669e-05,0.0003993429709225893,0.018332215026021004,0.00521318893879652,0.01457325741648674,-0.04967845603823662,0.045758701860904694,0.02222553826868534,0.003727074945345521,-0.08293480426073074,0.002908555557951331,0.0,0.0,0.0,-0.0075638373382389545,0.018937980756163597,-0.0,0.0,0.0,0.0,0.0008044414571486413,-0.002392655937001109,0.0006455336115323007,24442.0,20646.0,32904.0,15186.0,0.08900129795074463,0.0720302164554596,0.1309947967529297,0.04965159296989441,0.0,0.0,0.0,0.0,25250.0,20070.0,32801.0,14994.0,0.3391041159629822,-0.0844546063276453,-0.03746105709234375,-0.07122006777174954,-0.07432197034358978,-0.019790595397353172,-0.004245230462402105
320,5,9.126347140409052e-05,-6.640849460382015e-05,0.00029465151601471007,-0.01314141321927309,0.0193308237940073,0.019028780981898308,-0.04967845603823662,0.045758701860904694,0.02222553826868534,0.003727074945345521,-0.08293480426073074,0.002908555557951331,0.0,0.0,0.0,-0.0294302050024271,-0.013329708017408848,-0.0,0.0,0.0,0.0,0.0008044414571486413,-0.002392655937001109,0.0006455336115323007,24442.0,20646.0,32904.0,15186.0,0.08900129795074463,0.0720302164554596,0.1309947967529297,0.04965159296989441,0.0,0.0,0.0,0.0,25250.0,20070.0,32801.0,14994.0,0.3392105996608734,-0.0964659300956413,-0.030526277396039542,-0.06697997470619599,0.05230887234210968,-0.07700613886117935,-0.017789706587791443
325,5,-0.0002928602625615895,0.00018356427608523518,0.0003718694788403809,-0.057719748467206955,-0.02919694036245346,-0.005101880989968777,-0.04956824705004692,0.046606533229351044,0.022149324417114258,0.017649810761213303,-0.08346045762300491,0.010397035628557205,0.0,0.0,0.0,0.040912024676799774,-0.053605981171131134,-0.0,0.0,0.0,0.0,0.0006933316471986473,-0.002555299084633589,0.0006460319273173809,22557.0,19486.0,35794.0,17242.0,0.08042778074741364,0.067075714468956,0.1466549187898636,0.0577959269285202,0.0,0.0,0.0,0.0,22321.0,19671.0,35443.0,17784.0,0.37587758898735046,-0.08986218240760588,-0.03057229481910005,-0.057996913621698294,0.2329026162624359,0.11858686059713364,0.05684181675314903
330,5,0.00020223634783178568,9.662833326729015e-05,0.0005153831443749368,0.051997601985931396,0.003411950310692191,-0.02162248082458973,-0.04956824705004692,0.046606533229351044,0.022149324417114258,0.017649810761213303,-0.08346045762300491,0.010397035628557205,0.0,0.0,0.0,-0.004390762187540531,0.04962010309100151,-0.0,0.0,0.0,0.0,0.0006933316471986473,-0.002555299084633589,0.0006460319273173809,22557.0,19486.0,35794.0,17242.0,0.08042778074741364,0.067075714468956,0.1466549187898636,0.0577959269285202,0.0,0.0,0.0,0.0,22321.0,19671.0,35443.0,17784.0,0.3638501465320587,-0.08569256002188066,-0.0366659939627489,-0.07124893395095556,-0.20887383818626404,-0.012326917611062527,0.10971922427415848
335,5,2.0601690266630612e-05,-3.3329720281471964e-06,0.0007624000427313149,-0.009829571470618248,0.015018167905509472,-0.041069112718105316,-0.04880527779459953,0.046817682683467865,0.022054925560951233,0.15973465144634247,-0.023272408172488213,-0.025047723203897476,0.0,0.0,0.0,-0.022676467895507812,-0.010060207918286324,-0.0,0.0,0.0,0.0,0.0020744858775287867,-0.002906323876231909,0.0007078771013766527,23256.0,19565.0,35196.0,17196.0,0.0835733711719513,0.06741011142730713,0.14335975050926208,0.05761110782623291,0.0,0.0,0.0,0.0,25025.0,21697.0,31024.0,15204.0,0.3391379415988922,-0.07834476889842827,-0.025445791912058518,-0.06556797954672453,0.03947754576802254,-0.05932917073369026,0.17335428297519684
340,5,4.0371280192630365e-05,0.00010566902346909046,0.0007112069288268685,-0.0001811289112083614,-0.01075482927262783,-0.005153691861778498,-0.04880527779459953,0.046817682683467865,0.022054925560951233,0.15973465144634247,-0.023272408172488213,-0.025047723203897476,0.0,0.0,0.0,0.016978222876787186,-0.00019337913545314223,-0.0,0.0,0.0,0.0,0.0020744858775287867,-0.002906323876231909,0.0007078771013766527,23256.0,19565.0,35196.0,17196.0,0.0835733711719513,0.06741011142730713,0.14335975050926208,0.05761110782623291,0.0,0.0,0.0,0.0,25025.0,21697.0,31024.0,15204.0,0.3390824794769287,-0.08405956336385706,-0.02538692871152248,-0.06825758612440282,0.0007588197477161884,0.04441692680120468,0.06767366826534271
345,5,0.00011180893488926813,0.00013260332343634218,0.00059678585967049,0.009946933016180992,-0.006997250020503998,0.01447284035384655,-0.045986175537109375,0.04712531343102455,0.02157391794025898,0.25436270236968994,-0.00034431455424055457,-0.05226689577102661,0.0,0.0,0.0,0.01130654290318489,0.010243001393973827,-0.0,0.0,0.0,0.0,-2.5073302367673023e-06,-0.002084574894979596,0.0005591303342953324,25173.0,21805.0,30462.0,15644.0,0.09240096062421799,0.07708720117807388,0.11828584223985672,0.05143659561872482,0.0,0.0,0.0,0.0,29080.0,18243.0,30492.0,20691.0,0.3390730619430542,-0.07631622164772253,-0.03331765781640187,-0.06715330770951514,-0.04019494354724884,0.029580028727650642,0.009709838777780533
351,5,-0.0003023052995558828,0.00021448901679832488,0.0006743394187651575,-0.054991912096738815,-0.01356317289173603,-0.006515644025057554,-0.045986175537109375,0.04712531343102455,0.02157391794025898,0.25436270236968994,-0.00034431455424055457,-0.05226689577102661,0.0,0.0,0.0,0.019835077226161957,-0.05210334435105324,-0.0,0.0,0.0,0.0,-2.5073302367673023e-06,-0.002084574894979596,0.0005591303342953324,25173.0,21805.0,30462.0,15644.0,0.09240096062421799,0.07708720117807388,0.11828584223985672,0.05143659561872482,0.0,0.0,0.0,0.0,29080.0,18243.0,30492.0,20691.0,0.3683924376964569,-0.06633922561735543,-0.01067520857100516,-0.06184609543287838,0.22201474010944366,0.05637450888752937,0.07603760063648224
356,5,-0.0003628880367614329,0.00014153344091027975,0.0005933853681199253,-0.024979155510663986,0.00614482956007123,0.009378873743116856,-0.044475965201854706,0.04717925935983658,0.021393829956650734,0.19344234466552734,0.05232454836368561,-0.015474938787519932,0.0,0.0,0.0,-0.008700734004378319,-0.02600647509098053,-0.0,0.0,0.0,0.0,0.0008680619648657739,7.376742814813042e-06,0.0005945671000517905,28513.0,18408.0,30736.0,20897.0,0.10848359763622284,0.06256578862667084,0.11968773603439331,0.07311427593231201,0.0,0.0,0.0,0.0,24799.0,17724.0,30930.0,19702.0,0.3402588367462158,-0.0659146854966932,-0.011972454256603763,-0.061101909886696074,0.10240350663661957,-0.022842485457658768,0.029234902933239937
361,5,-0.001010064734145999,-0.0002482716809026897,0.00040016911225393414,-0.09809849411249161,0.056416165083646774,0.029863936826586723,-0.044475965201854706,0.04717925935983658,0.021393829956650734,0.19344234466552734,0.05232454836368561,-0.015474938787519932,0.0,0.0,0.0,-0.06968960911035538,-0.0820607990026474,-0.0,0.0,0.0,0.0,0.0008680619648657739,7.376742814813042e-06,0.0005945671000517905,28513.0,18408.0,30736.0,20897.0,0.10848359763622284,0.06256578862667084,0.11968773603439331,0.07311427593231201,0.0,0.0,0.0,0.0,24799.0,17724.0,30930.0,19702.0,0.4214465618133545,-0.10554807385177266,-0.0016452827963999474,-0.04095750903810579,0.39886096119880676,-0.2262365221977234,-0.03332285210490227
366,5,-0.0009762968984432518,5.176625199965201e-05,0.0005985804600641131,-0.0247020423412323,-0.02508046105504036,-0.018818408250808716,-0.04228876903653145,0.04602611064910889,0.02058427408337593,0.15557226538658142,0.07739543914794922,-0.07341351360082626,0.0,0.0,0.0,0.03762985020875931,-0.02604147233068943,-0.0,0.0,0.0,0.0,0.0015222699148580432,-0.0012214374728500843,0.0005620294832624495,24195.0,18387.0,31248.0,19331.0,0.0878576785326004,0.06247936561703682,0.1223243921995163,0.06642104685306549,0.0,0.0,0.0,0.0,24153.0,18362.0,30579.0,20211.0,0.3497186601161957,-0.07895156476398524,0.0010429001604863365,-0.049624582097197646,0.1053207516670227,0.1014915406703949,0.11695071309804916
371,5,-0.0010259115369990468,7.167443982325494e-05,0.0006870598299428821,-0.014356670901179314,-0.01031128503382206,-0.018032630905508995,-0.04228876903653145,0.04602611064910889,0.02058427408337593,0.15557226538658142,0.07739543914794922,-0.07341351360082626,0.0,0.0,0.0,0.016261661425232887,-0.01643316261470318,-0.0,0.0,0.0,0.0,0.0015222699148580432,-0.0012214374728500843,0.0005620294832624495,24195.0,18387.0,31248.0,19331.0,0.0878576785326004,0.06247936561703682,0.1223243921995163,0.06642104685306549,0.0,0.0,0.0,0.0,24153.0,18362.0,30579.0,20211.0,0.33912423253059387,-0.07347903073701197,0.0054545474131750035,-0.04934763535059714,0.06448953598737717,0.04254791885614395,0.11786647886037827
376,5,-0.0010809304658323526,0.0001379599270876497,0.0006738744559697807,-0.012009642086923122,-0.012373354285955429,-0.003563837381079793,-0.04129253700375557,0.04533996805548668,0.020391171798110008,0.09760656207799911,0.08139252662658691,-0.020172132179141045,0.0,0.0,0.0,0.01957481913268566,-0.014203350059688091,-0.0,0.0,0.0,0.0,0.0017918174853548408,-0.002634641947224736,0.0005710261757485569,23959.0,21493.0,34518.0,19290.0,0.08677694201469421,0.0757141262292862,0.13966166973114014,0.0662475973367691,0.0,0.0,0.0,0.0,29020.0,29572.0,35922.0,15102.0,0.33913278579711914,-0.07096963912861731,0.006996018494575579,-0.04841066165238975,0.055739857256412506,0.05121607333421707,0.07683714479207993
381,5,-0.001092187943868339,0.0005133245722390711,0.0005432860925793648,-0.00517894746735692,-0.05626305565237999,0.01721322163939476,-0.04129253700375557,0.04533996805548668,0.020391171798110008,0.09760656207799911,0.08139252662658691,-0.020172132179141045,0.0,0.0,0.0,0.08054386079311371,-0.006758092436939478,-0.0,0.0,0.0,0.0,0.0017918174853548408,-0.002634641947224736,0.0005710261757485569,23959.0,21493.0,34518.0,19290.0,0.08677694201469421,0.0757141262292862,0.13966166973114014,0.0662475973367691,0.0,0.0,0.0,0.0,29020.0,29572.0,35922.0,15102.0,0.36943110823631287,-0.04953959204165388,0.01466189886068312,-0.051180941963204586,0.02880466915667057,0.22907090187072754,0.015027417801320553
386,5,-0.0009174451697617769,9.693385800346732e-05,0.000443024531705305,0.022910306230187416,0.041415780782699585,0.019200578331947327,-0.04062990844249725,0.04491805285215378,0.0202384851872921,0.17100952565670013,0.12361446768045425,-0.01171073503792286,0.0,0.0,0.0,-0.0593559555709362,0.020357513800263405,-0.0,0.0,0.0,0.0,-0.0012601332273334265,-0.003696318017318845,0.0005732765421271324,29653.0,29437.0,34855.0,15966.0,0.11418049782514572,0.11309190094470978,0.14149624109268188,0.052699245512485504,0.0,0.0,0.0,0.0,28945.0,29852.0,35118.0,15970.0,0.3585708737373352,-0.08353561679562545,-0.0037428293046521325,-0.05022588777898019,-0.08432985097169876,-0.16401945054531097,0.009244154207408428
391,5,-0.0003808658802881837,0.0002886714646592736,0.000324586610076949,0.0819941908121109,-0.014418531209230423,0.02234148606657982,-0.04062990844249725,0.04491805285215378,0.0202384851872921,0.17100952565670013,0.12361446768045425,-0.01171073503792286,0.0,0.0,0.0,0.02004065178334713,0.07155032455921173,-0.0,0.0,0.0,0.0,-0.0012601332273334265,-0.003696318017318845,0.0005732765421271324,29653.0,29437.0,34855.0,15966.0,0.11418049782514572,0.11309190094470978,0.14149624109268188,0.052699245512485504,0.0,0.0,0.0,0.0,28945.0,29852.0,35118.0,15970.0,0.3912510573863983,-0.07057653162815092,-0.0341161369999561,-0.07145404705490639,-0.32366421818733215,0.06049302592873573,-0.0006127957021817565
396,5,-0.00044430274283513427,0.00026223139138892293,0.0004019521875306964,0.015717098489403725,-0.0006239486392587423,-0.004128736909478903,-0.03882825747132301,0.04350052401423454,0.02012321539223194,0.10432903468608856,0.15706197917461395,-0.009625425562262535,0.0,0.0,0.0,0.0019984354730695486,0.014799760654568672,-0.0,0.0,0.0,0.0,0.0036285347305238247,-0.0006782609270885587,0.0004980877274647355,24928.0,17794.0,31497.0,18806.0,0.09125377237796783,0.060040056705474854,0.12361253798007965,0.06421807408332825,0.0,0.0,0.0,0.0,24506.0,18173.0,31733.0,18606.0,0.3390714228153229,-0.06953423381057575,-0.030999376481750038,-0.0713606065444038,-0.058078501373529434,0.005228482652455568,0.08099240809679031
401,5,-0.0005899854586459696,0.00045440412941388786,0.0006804598961025476,-0.015680449083447456,-0.027091369032859802,-0.04022970423102379,-0.03882825747132301,0.04350052401423454,0.02012321539223194,0.10432903468608856,0.15706197917461395,-0.009625425562262535,0.0,0.0,0.0,0.04204820469021797,-0.01710398495197296,-0.0,0.0,0.0,0.0,0.0036285347305238247,-0.0006782609270885587,0.0004980877274647355,24928.0,17794.0,31497.0,18806.0,0.09125377237796783,0.060040056705474854,0.12361253798007965,0.06421807408332825,0.0,0.0,0.0,0.0,24506.0,18173.0,31733.0,18606.0,0.3464335501194,-0.053374573288830655,-0.026275363464959553,-0.06594519749311373,0.06851817667484283,0.11232997477054596,0.19498103857040405
406,5,-0.0003655657928902656,0.0003730814205482602,0.0003909565566573292,0.026714615523815155,0.0032577719539403915,0.028461556881666183,-0.03778551146388054,0.04254012554883957,0.019914640113711357,0.10578424483537674,0.11603482812643051,-0.061037883162498474,0.0,0.0,0.0,-0.003600918687880039,0.02600839175283909,-0.0,0.0,0.0,0.0,0.0015636479947715998,0.0010968352435156703,0.0004938675556331873,23149.0,17083.0,34463.0,24625.0,0.08309075981378555,0.05715236812829971,0.13936172425746918,0.08984660357236862,0.0,0.0,0.0,0.0,23197.0,17442.0,34618.0,24081.0,0.3397519886493683,-0.07071774713539036,-0.035993379262252295,-0.07887789101384653,-0.10226099193096161,-0.009439921006560326,-0.013311022892594337
411,5,-0.0006742090918123722,0.0002939811674878001,0.0003474363184068352,-0.03519567474722862,0.012051364406943321,0.014631303958594799,-0.03778551146388054,0.04254012554883957,0.019914640113711357,0.10578424483537674,0.11603482812643051,-0.061037883162498474,0.0,0.0,0.0,-0.01659863442182541,-0.03623997047543526,-0.0,0.0,0.0,0.0,0.0015636479947715998,0.0010968352435156703,0.0004938675556331873,23149.0,17083.0,34463.0,24625.0,0.08309075981378555,0.05715236812829971,0.13936172425746918,0.08984660357236862,0.0,0.0,0.0,0.0,23197.0,17442.0,34618.0,24081.0,0.3513672947883606,-0.06527293096244134,-0.019491988785740332,-0.06723754842993192,0.14732639491558075,-0.04499731585383415,0.02873236872255802
417,5,-0.0005382890230976045,0.0005096731474623084,0.0005420402740128338,0.008470102213323116,-0.026581469923257828,-0.022855162620544434,-0.03637281805276871,0.041583407670259476,0.0191537793725729,0.10973146557807922,0.11495477706193924,-0.06863757967948914,0.0,0.0,0.0,0.04198451340198517,0.0070654237642884254,-0.0,0.0,0.0,0.0,0.002317439764738083,-0.000983702251687646,0.00045867939479649067,23037.0,18311.0,31701.0,21793.0,0.08258507400751114,0.06216730922460556,0.12467638403177261,0.07703452557325363,0.0,0.0,0.0,0.0,30855.0,16971.0,28913.0,27552.0,0.34255126118659973,-0.05588355148895476,-0.031478875340078254,-0.07042488325924318,-0.02798638865351677,0.11090323328971863,0.14521220326423645
422,5,-0.0004371713730506599,0.00032989602186717093,0.00036685721715912223,0.016697503626346588,0.017194358631968498,0.017669079825282097,-0.03637281805276871,0.041583407670259476,0.0191537793725729,0.10973146557807922,0.11495477706193924,-0.06863757967948914,0.0,0.0,0.0,-0.02490132488310337,0.0156389307230711,-0.0,0.0,0.0,0.0,0.002317439764738083,-0.000983702251687646,0.00045867939479649067,23037.0,18311.0,31701.0,21793.0,0.08258507400751114,0.06216730922460556,0.12467638403177261,0.07703452557325363,0.0,0.0,0.0,0.0,30855.0,16971.0,28913.0,27552.0,0.33918020129203796,-0.07069415783548852,-0.03582445533251307,-0.07498842407882389,-0.06137129291892052,-0.06515515595674515,0.02265661023557186
427,5,-0.00037033166154287755,0.00025456101866438985,0.0002830266021192074,0.014366811141371727,0.015705211088061333,0.017037011682987213,-0.035234153270721436,0.04039478302001953,0.018570158630609512,0.10693923383951187,0.13974355161190033,-0.07638318091630936,0.0,0.0,0.0,-0.02276025339961052,0.013331707566976547,-0.0,0.0,0.0,0.0,0.0002630312810651958,-0.002404084661975503,0.00043318161624483764,23978.0,23705.0,31114.0,17115.0,0.08686062693595886,0.08561541140079498,0.12163303792476654,0.05728369578719139,0.0,0.0,0.0,0.0,22091.0,19611.0,32203.0,20919.0,0.3391515612602234,-0.07675895359985418,-0.039300264835044146,-0.0773014336010304,-0.05231672152876854,-0.059550683945417404,0.024683913215994835
432,5,-0.0005353139713406563,0.000326664128806442,0.0005814688629470766,-0.018787480890750885,-0.005382874049246311,-0.03667081147432327,-0.035234153270721436,0.04039478302001953,0.018570158630609512,0.10693923383951187,0.13974355161190033,-0.07638318091630936,0.0,0.0,0.0,0.009672937914729118,-0.02074149064719677,-0.0,0.0,0.0,0.0,0.0002630312810651958,-0.002404084661975503,0.00043318161624483764,23978.0,23705.0,31114.0,17115.0,0.08686062693595886,0.08561541140079498,0.12163303792476654,0.05728369578719139,0.0,0.0,0.0,0.0,22091.0,19611.0,32203.0,20919.0,0.3391224145889282,-0.05800245550576564,-0.03395276589721104,-0.06865553071514739,0.0814012810587883,0.025310201570391655,0.19136105477809906
437,5,-0.00042287728865630925,0.0002302458742633462,0.00039686751551926136,0.010104895569384098,0.011883694678544998,0.014842942357063293,-0.035234153270721436,0.04039478302001953,0.018570158630609512,0.10693923383951187,0.13974355161190033,-0.07638318091630936,0.0,0.0,0.0,-0.016908926889300346,0.008838494308292866,-0.0,0.0,0.0,0.0,0.0002630312810651958,-0.002404084661975503,0.00043318161624483764,23978.0,23705.0,31114.0,17115.0,0.08686062693595886,0.08561541140079498,0.12163303792476654,0.05728369578719139,0.0,0.0,0.0,0.0,22091.0,19611.0,32203.0,20919.0,0.3390953242778778,-0.07344809888317354,-0.035384017867206734,-0.07656989231548558,-0.03468230739235878,-0.04423689469695091,0.03622274845838547
442,5,-0.0006320016109384596,0.00040572957368567586,0.0007683401345275342,-0.02624593675136566,-0.02100260928273201,-0.04755328595638275,-0.03266391158103943,0.03957785665988922,0.016979077830910683,0.1493498533964157,0.12458200752735138,-0.05597994849085808,0.0,0.0,0.0,0.03286018222570419,-0.027778923511505127,-0.0,0.0,0.0,0.0,-3.4369233617326245e-05,-0.00015464471653103828,0.00040133504080586135,26933.0,20194.0,26819.0,19732.0,0.10076358169317245,0.07008688896894455,0.10021410137414932,0.06811518222093582,0.0,0.0,0.0,0.0,24510.0,22942.0,30513.0,18119.0,0.34889885783195496,-0.05012059923565706,-0.028108688874192544,-0.06525422390950111,0.11210261285305023,0.08843077719211578,0.2304890751838684
447,5,-0.0008870628080330789,0.0004155874194111675,0.00032243013265542686,-0.04358234629034996,-0.0076808808371424675,0.04816141724586487,-0.03266391158103943,0.03957785665988922,0.016979077830910683,0.1493498533964157,0.12458200752735138,-0.05597994849085808,0.0,0.0,0.0,0.012755293399095535,-0.04412880912423134,-0.0,0.0,0.0,0.0,-3.4369233617326245e-05,-0.00015464471653103828,0.00040133504080586135,26933.0,20194.0,26819.0,19732.0,0.10076358169317245,0.07008688896894455,0.10021410137414932,0.06811518222093582,0.0,0.0,0.0,0.0,24510.0,22942.0,30513.0,18119.0,0.3587071895599365,-0.059898419838624956,-0.020676545606386737,-0.06459542736711651,0.18313714861869812,0.035302940756082535,-0.06104792281985283
452,5,-0.0006223186501301825,0.0003151952405460179,0.0005015682545490563,0.02398947812616825,0.011750639416277409,-0.010630909353494644,-0.030759235844016075,0.03957236558198929,0.016475658863782883,0.15202106535434723,-0.06227971985936165,-0.06858298927545547,0.0,0.0,0.0,-0.016402970999479294,0.02255479246377945,-0.0,0.0,0.0,0.0,2.0477231373661198e-05,-0.0012712008319795132,0.0003993215213995427,24784.0,22163.0,28398.0,18251.0,0.09058532118797302,0.07867269217967987,0.10791753232479095,0.06191978231072426,0.0,0.0,0.0,0.0,25687.0,21659.0,28698.0,17420.0,0.33916547894477844,-0.06511087018274196,-0.03454603304799422,-0.06981609715297178,-0.08851877599954605,-0.04292216897010803,0.1190631315112114
457,5,-0.0007771945092827082,0.00019435871217865497,0.0005163091118447483,-0.014485778287053108,0.020442305132746696,-0.005252997390925884,-0.030759235844016075,0.03957236558198929,0.016475658863782883,0.15202106535434723,-0.06227971985936165,-0.06858298927545547,0.0,0.0,0.0,-0.02987726405262947,-0.01691407710313797,-0.0,0.0,0.0,0.0,2.0477231373661198e-05,-0.0012712008319795132,0.0003993215213995427,24784.0,22163.0,28398.0,18251.0,0.09058532118797302,0.07867269217967987,0.10791753232479095,0.06191978231072426,0.0,0.0,0.0,0.0,25687.0,21659.0,28698.0,17420.0,0.33984580636024475,-0.059298603572959754,-0.030112900217012514,-0.060423206922755476,0.06649850308895111,-0.07832113653421402,0.10502069443464279
