timestamp,dt,pos_x,pos_y,pos_z,vel_x,vel_y,vel_z,roll,pitch,yaw,agv_x,agv_y,agv_z,x_ref,y_ref,z_ref,roll_ref,pitch_ref,yaw_ref,x_vel_ref,y_vel_ref,z_vel_ref,x_torque,y_torque,z_torque,w0,w1,w2,w3,u0,u1,u2,u3,m0req,m1req,m2req,m3req,thrust0,thrust1,thrust2,thrust3,thrust_ref,roll_vicon,pitch_vicon,yaw_vicon,acc_x,acc_y,acc_z
5,5,0.0,0.0,0.0,-0.0001878100447356701,-0.00015817371604498476,-0.0028125958051532507,0.007169054821133614,0.08911513537168503,0.0011948165483772755,-0.0031809534411877394,-0.008977091871201992,0.001982351066544652,0.0,0.0,0.0,0.00015115989663172513,-0.0001794820709619671,-0.0,0.0,0.0,0.0,-0.002157334703952074,-0.026973707601428032,0.0001490090653533116,1495.0,1495.0,1495.0,1495.0,0.0,0.0,0.0,0.0,0.0,0.0,0.0,0.0,1495.0,1495.0,1495.0,1495.0,1.6284600496292114,-0.03038893526287839,-0.30523457719224717,3.050833375253135,0.0007042876677587628,0.000593151431530714,0.0
31,26,0.0,0.0,0.0,-0.0008871288737282157,0.0006565238581970334,-0.0018965427298098803,0.007169054821133614,0.08911513537168503,0.0011948165483772755,-0.0031809534411877394,-0.008977091871201992,0.001982351066544652,0.0,0.0,0.0,0.00015115989663172513,-0.0001794820709619671,-0.0,0.0,0.0,0.0,-0.002157334703952074,-0.026973707601428032,0.0001490090653533116,1495.0,1495.0,1495.0,1495.0,0.0,0.0,0.0,0.0,0.0,0.0,0.0,0.0,1495.0,1495.0,1495.0,1495.0,1.6284600496292114,-0.02967412577297244,-0.3050788084538578,3.0511048420099707,0.0007042876677587628,0.000593151431530714,0.0
36,5,0.0,0.0,0.0,0.0020862468518316746,0.00083900400204584,0.0003173167060595006,0.007153215352445841,0.08912856876850128,0.001209140638820827,0.002207291079685092,0.002639519516378641,0.003362752264365554,0.0,0.0,0.0,-0.0008113922667689621,-0.00084338104352355,-0.0,0.0,0.0,0.0,-0.002155541442334652,-0.026724863797426224,0.00019345188047736883,1495.0,1495.0,1495.0,1495.0,0.0,0.0,0.0,0.0,0.0,0.0,0.0,0.0,1495.0,1495.0,1495.0,1495.0,1.6369764804840088,-0.02889854276722646,-0.30484620952779184,3.051379737838636,0.0033267333637923002,-0.0024619644973427057,0.0
41,5,0.0,0.0,0.0,0.00030805234564468265,-0.0008182798628695309,-0.0033185044303536415,0.007153215352445841,0.08912856876850128,0.001209140638820827,0.002207291079685092,0.002639519516378641,0.003362752264365554,0.0,0.0,0.0,-0.0008113922667689621,-0.00084338104352355,-0.0,0.0,0.0,0.0,-0.002155541442334652,-0.026724863797426224,0.00019345188047736883,1495.0,1495.0,1495.0,1495.0,0.0,0.0,0.0,0.0,0.0,0.0,0.0,0.0,1495.0,1495.0,1495.0,1495.0,1.6369764804840088,-0.029363650083916858,-0.3041073158834311,3.050983312929517,0.0033267333637923002,-0.0024619644973427057,0.0
46,5,0.0,0.0,0.0,0.00030805234564468265,-0.0008182798628695309,-0.0033185044303536415,0.0071808528155088425,0.08912479132413864,0.001206349697895348,0.0011667627841234207,0.000777537701651454,-0.003361886367201805,0.0,0.0,0.0,0.0010127476416528225,0.0002932787756435573,-0.0,0.0,0.0,0.0,-0.002133636735379696,-0.026850074529647827,0.00011332965368637815,1495.0,1495.0,1495.0,1495.0,0.0,0.0,0.0,0.0,0.0,0.0,0.0,0.0,11611.0,15408.0,15166.0,11267.0,1.6346452236175537,-0.029363650083916858,-0.3041073158834311,3.050983312929517,-0.0011551963398233056,0.003068549558520317,0.0
51,5,0.0,0.0,0.0,0.00030805234564468265,-0.0008182798628695309,-0.0033185044303536415,0.0071808528155088425,0.08912479132413864,0.001206349697895348,0.0011667627841234207,0.000777537701651454,-0.003361886367201805,0.0,0.0,0.0,0.0010127476416528225,0.0002932787756435573,-0.0,0.0,0.0,0.0,-0.002133636735379696,-0.026850074529647827,0.00011332965368637815,1495.0,1495.0,1495.0,1495.0,0.0,0.0,0.0,0.0,0.0,0.0,0.0,0.0,11611.0,15408.0,15166.0,11267.0,1.6346452236175537,-0.029363650083916858,-0.3041073158834311,3.050983312929517,-0.0011551963398233056,0.003068549558520317,0.0
57,5,-3.24816137435846e-05,8.623192115919665e-06,1.8304232298760326e-06,-0.0025205626152455807,-0.000989600201137364,-0.003186275018379092,0.0071844737976789474,0.08913617581129074,0.0011596756521612406,-0.00011996847752016038,-0.008142584003508091,-0.003999128006398678,0.0,0.0,0.0,0.0010127476416528225,0.0002932787756435573,-0.0,0.0,0.0,0.0,-0.0021301519591361284,-0.026996662840247154,-3.052441024919972e-05,11582.0,15433.0,15170.0,11256.0,0.2930496633052826,0.5395068526268005,0.5203072428703308,0.2755962908267975,0.0,0.0,0.0,0.0,11611.0,15408.0,15166.0,11267.0,1.6346452236175537,-0.03051939652795398,-0.30420702002192235,3.050499569669272,-0.0011551963398233056,0.003068549558520317,0.0
62,5,-3.869043939630501e-05,2.3343971406575292e-05,2.7427759050624445e-05,-0.0017532844794914126,-0.0021623338107019663,-0.004346190486103296,0.007185350172221661,0.08915721625089645,0.0011569303460419178,0.0028894818387925625,-0.007280238904058933,0.0046297712251544,0.0,0.0,0.0,0.002685749903321266,-0.0017024247208610177,-0.0,0.0,0.0,0.0,-0.0024454600643366575,-0.027224143967032433,0.00024135338026098907,11755.0,15401.0,15288.0,11121.0,0.30249860882759094,0.5371278524398804,0.5288665294647217,0.26848354935646057,0.0,0.0,0.0,0.0,11658.0,15463.0,15211.0,11242.0,1.654656171798706,-0.030333997390163348,-0.30354429910050557,3.050481238992877,0.006787749473005533,0.008237225003540516,0.0
69,8,-3.60689518856816e-05,2.148445310012903e-05,4.071060902788304e-05,-0.0008528923499397933,-0.001346480450592935,-0.002665905514732003,0.007185350172221661,0.08915721625089645,0.0011569303460419178,0.0028894818387925625,-0.007280238904058933,0.0046297712251544,0.0,0.0,0.0,0.002685749903321266,-0.0017024247208610177,-0.0,0.0,0.0,0.0,-0.0024454600643366575,-0.027224143967032433,0.00024135338026098907,11755.0,15401.0,15288.0,11121.0,0.30249860882759094,0.5371278524398804,0.5288665294647217,0.26848354935646057,0.0,0.0,0.0,0.0,11658.0,15463.0,15211.0,11242.0,1.654656171798706,-0.03115853131610053,-0.30382274462200837,3.0503506282723447,0.006787749473005533,0.008237225003540516,0.0
74,5,-4.649621041608043e-05,4.02827572543174e-05,5.58454921701923e-05,-0.001592427957803011,-0.0027943889144808054,-0.0028825479093939066,0.0071824402548372746,0.08915836364030838,0.001142468536272645,-0.0018222908256575465,0.0002904899592977017,-0.0004976768395863473,0.0,0.0,0.0,0.0034792935475707054,-0.0015576082514598966,-0.0,0.0,0.0,0.0,-0.0018207060638815165,-0.026620354503393173,4.831104160984978e-05,11657.0,15384.0,15214.0,11304.0,0.2971363961696625,0.5359019637107849,0.5235117673873901,0.2780950963497162,0.0,0.0,0.0,0.0,11677.0,15369.0,15252.0,11251.0,1.6592644453048706,-0.031905036510896524,-0.3033608707693435,3.0498839816061825,0.00622763205319643,0.010700736194849014,0.0
79,5,-2.0319752366049215e-05,3.1473660783376545e-05,2.5750905479071662e-05,0.002504203701391816,-6.06638532190118e-05,0.002458331175148487,0.0071824402548372746,0.08915836364030838,0.001142468536272645,-0.0018222908256575465,0.0002904899592977017,-0.0004976768395863473,0.0,0.0,0.0,0.0034792935475707054,-0.0015576082514598966,-0.0,0.0,0.0,0.0,-0.0018207060638815165,-0.026620354503393173,4.831104160984978e-05,11657.0,15384.0,15214.0,11304.0,0.2971363961696625,0.5359019637107849,0.5235117673873901,0.2780950963497162,0.0,0.0,0.0,0.0,11677.0,15369.0,15252.0,11251.0,1.6592644453048706,-0.03089823204457349,-0.3044309938232237,3.0503012292735536,0.00622763205319643,0.010700736194849014,0.0
85,5,9.475801562075503e-06,-1.8491085938876495e-05,-6.735661736456677e-05,0.004577148240059614,0.005971503909677267,0.012156235054135323,0.007158257067203522,0.08913866430521011,0.0011599109275266528,0.001726587419398129,-0.006592215038836002,0.004300367087125778,0.0,0.0,0.0,-0.007130228448659182,0.004197802860289812,-0.0,0.0,0.0,0.0,-0.0013621872058138251,-0.02741396240890026,0.0002501884591765702,11729.0,15414.0,15423.0,11278.0,0.3010806143283844,0.538086473941803,0.5387603640556335,0.27672871947288513,0.0,0.0,0.0,0.0,11672.0,15457.0,15417.0,11371.0,1.7020589113235474,-0.028919592175078383,-0.3060862605660949,3.051509857263472,-0.017216157168149948,-0.022494683042168617,0.0
96,11,-2.697933632589411e-05,-1.1752099453588016e-05,-8.704189895070158e-06,-0.0025530951097607613,0.0017467555589973927,-0.002793758874759078,0.007158257067203522,0.08913866430521011,0.0011599109275266528,0.001726587419398129,-0.006592215038836002,0.004300367087125778,0.0,0.0,0.0,-0.007130228448659182,0.004197802860289812,-0.0,0.0,0.0,0.0,-0.0013621872058138251,-0.02741396240890026,0.0002501884591765702,11729.0,15414.0,15423.0,11278.0,0.3010806143283844,0.538086473941803,0.5387603640556335,0.27672871947288513,0.0,0.0,0.0,0.0,11672.0,15457.0,15417.0,11371.0,1.7020589113235474,-0.03004917027395981,-0.30445772081286177,3.0507779758969527,-0.017216157168149948,-0.022494683042168617,0.0
101,5,-6.335839862003922e-05,3.533430935931392e-05,6.88799555064179e-05,-0.0053867255337536335,-0.0049516670405864716,-0.01042760070413351,0.007158257067203522,0.08913866430521011,0.0011599109275266528,0.001726587419398129,-0.006592215038836002,0.004300367087125778,0.0,0.0,0.0,-0.002152960980311036,-0.0024342606775462627,-0.0,0.0,0.0,0.0,-0.0013621872058138251,-0.02741396240890026,0.0002501884591765702,11729.0,15414.0,15423.0,11278.0,0.3010806143283844,0.538086473941803,0.5387603640556335,0.27672871947288513,0.0,0.0,0.0,0.0,11672.0,15457.0,15417.0,11371.0,1.6575862169265747,-0.03166059845562713,-0.3023531558811344,3.0499779841948556,0.009722852148115635,-0.006614853162318468,0.0
106,5,-1.821188925532624e-05,2.486956691427622e-05,1.4793467926210724e-05,0.003262890735641122,-0.0007248975452966988,0.002319338032975793,0.007151306141167879,0.08917786926031113,0.0011608968488872051,0.002082303399220109,0.0019477022578939795,0.001196267199702561,0.0,0.0,0.0,-0.002152960980311036,-0.0024342606775462627,-0.0,0.0,0.0,0.0,-0.001129355514422059,-0.027324264869093895,0.00010960365034407005,11686.0,15449.0,15398.0,11394.0,0.2987143397331238,0.5407047867774963,0.5369590520858765,0.282886266708374,0.0,0.0,0.0,0.0,11683.0,15450.0,15393.0,11403.0,1.6575862169265747,-0.029961532968828045,-0.30359118429042276,3.0505915416115816,0.009722852148115635,-0.006614853162318468,0.0
111,5,-1.562031320645474e-05,-9.786575901671313e-06,-3.512632611091249e-05,0.001616145484149456,0.0038687782362103462,0.00691811041906476,0.007151306141167879,0.08917786926031113,0.0011608968488872051,0.002082303399220109,0.0019477022578939795,0.001196267199702561,0.0,0.0,0.0,0.0009282740065827966,0.003034748136997223,-0.0,0.0,0.0,0.0,-0.001129355514422059,-0.027324264869093895,0.00010960365034407005,11686.0,15449.0,15398.0,11394.0,0.2987143397331238,0.5407047867774963,0.5369590520858765,0.282886266708374,0.0,0.0,0.0,0.0,11683.0,15450.0,15393.0,11403.0,1.6594916582107544,-0.02988362073908324,-0.3049839270453883,3.051168016180813,-0.012135251425206661,0.00285535235889256,-0.0
116,5,-2.1128485059307422e-06,-1.9224456991651095e-05,-5.119268462294713e-05,0.0022673539351671934,0.0026800569612532854,0.004695207346230745,0.007123840972781181,0.08910468965768814,0.0011424963595345616,-0.001439755316823721,0.007656700909137726,-0.00032262891181744635,0.0,0.0,0.0,0.0009282740065827966,0.003034748136997223,-0.0,0.0,0.0,0.0,-0.004220052622258663,-0.02540966495871544,6.255086191231385e-05,12255.0,15667.0,15233.0,11519.0,0.330715537071228,0.5568629503250122,0.5248629450798035,0.28961747884750366,0.0,0.0,0.0,0.0,11780.0,15560.0,15301.0,11243.0,1.6594916582107544,-0.028956568080005435,-0.3049857233050935,3.051362194392354,-0.012135251425206661,0.00285535235889256,-0.0
121,5,3.92551874028868e-06,-1.760457053023856e-05,-5.629394217976369e-05,0.0016315457178279757,0.0008776364265941083,0.002490233862772584,0.007123840972781181,0.08910468965768814,0.0011424963595345616,-0.001439755316823721,0.007656700909137726,-0.00032262891181744635,0.0,0.0,0.0,-0.0032975252252072096,0.00212063523940742,-0.0,0.0,0.0,0.0,-0.004220052622258663,-0.02540966495871544,6.255086191231385e-05,12255.0,15667.0,15233.0,11519.0,0.330715537071228,0.5568629503250122,0.5248629450798035,0.28961747884750366,0.0,0.0,0.0,0.0,11780.0,15560.0,15301.0,11243.0,1.661572813987732,-0.028855270967784608,-0.30545940971090735,3.051533889670591,-0.008490526117384434,-0.010155811905860901,0.0
126,5,-2.259584107378032e-05,2.0728290110128e-05,-1.1141422646687715e-06,-0.0025299449916929007,-0.004248888697475195,-0.005625482182949781,0.007127348333597183,0.08911226689815521,0.0011684473138302565,0.0011935981456190348,-0.006074544508010149,0.007137460168451071,0.0,0.0,0.0,0.005164807662367821,-0.002379700308665633,-0.0,0.0,0.0,0.0,-0.002825317671522498,-0.02777533046901226,0.0003256176714785397,11861.0,15504.0,15389.0,11114.0,0.3083799481391907,0.5447756052017212,0.5363034605979919,0.2681272625923157,0.0,0.0,0.0,0.0,11822.0,15529.0,15364.0,11156.0,1.6762911081314087,-0.030720580529003866,-0.3043408462509399,3.0501016764261757,0.00961208064109087,0.01604754664003849,0.0
131,5,2.7804273941001156e-06,-7.730502147751395e-06,-7.160176028264686e-05,0.0020331742707639933,0.0017154996749013662,0.006208321079611778,0.007127348333597183,0.08911226689815521,0.0011684473138302565,0.0011935981456190348,-0.006074544508010149,0.007137460168451071,0.0,0.0,0.0,0.005164807662367821,-0.002379700308665633,-0.0,0.0,0.0,0.0,-0.002825317671522498,-0.02777533046901226,0.0003256176714785397,11861.0,15504.0,15389.0,11114.0,0.3083799481391907,0.5447756052017212,0.5363034605979919,0.2681272625923157,0.0,0.0,0.0,0.0,11822.0,15529.0,15364.0,11156.0,1.6762911081314087,-0.028978790584668165,-0.30575352720357085,3.051223137603646,0.00961208064109087,0.01604754664003849,0.0
136,5,-2.308493640157394e-05,1.9621804312919267e-05,-2.7792116270575207e-06,-0.00229057390242815,-0.0025960770435631275,-0.005775377154350281,0.007127348333597183,0.08911226689815521,0.0011684473138302565,0.0011935981456190348,-0.006074544508010149,0.007137460168451071,0.0,0.0,0.0,0.005164807662367821,-0.002379700308665633,-0.0,0.0,0.0,0.0,-0.002825317671522498,-0.02777533046901226,0.0003256176714785397,11861.0,15504.0,15389.0,11114.0,0.3083799481391907,0.5447756052017212,0.5363034605979919,0.2681272625923157,0.0,0.0,0.0,0.0,11822.0,15529.0,15364.0,11156.0,1.6762911081314087,-0.03048629063685174,-0.30441052690083775,3.0504414070391994,0.00961208064109087,0.01604754664003849,0.0
141,5,-7.452104910044e-05,4.909810741082765e-05,0.00012744801642838866,-0.007088562939316034,-0.004575587343424559,-0.017937418073415756,0.007136309519410133,0.08914661407470703,0.0011975961970165372,0.0006381960702128708,-0.0023235687986016273,0.0022232644259929657,0.0,0.0,0.0,0.0031965759117156267,-0.0021775667555630207,-0.0,0.0,0.0,0.0,-0.003115157363936305,-0.026337865740060806,0.00013348661013878882,11859.0,15411.0,15293.0,11416.0,0.30827561020851135,0.5379108190536499,0.5292491316795349,0.284056156873703,0.0,0.0,0.0,0.0,11844.0,15415.0,15274.0,11451.0,1.6613330841064453,-0.03323942665141677,-0.3012123834322601,3.0487433504093917,0.008717210032045841,0.009843486361205578,0.0
146,5,-1.3488853255694266e-05,-1.2665353096963372e-05,-3.2566134905209765e-05,0.004488438367843628,0.00558138033375144,0.012026730924844742,0.007136309519410133,0.08914661407470703,0.0011975961970165372,0.0006381960702128708,-0.0023235687986016273,0.0022232644259929657,0.0,0.0,0.0,0.0031965759117156267,-0.0021775667555630207,-0.0,0.0,0.0,0.0,-0.003115157363936305,-0.026337865740060806,0.00013348661013878882,11859.0,15411.0,15293.0,11416.0,0.30827561020851135,0.5379108190536499,0.5292491316795349,0.284056156873703,0.0,0.0,0.0,0.0,11844.0,15415.0,15274.0,11451.0,1.6613330841064453,-0.03042383224043607,-0.30592787498680796,3.050978066644919,0.008717210032045841,0.009843486361205578,0.0
151,5,-1.0855111213459168e-05,-9.629218766349368e-06,-2.262248563056346e-05,0.0021114242263138294,0.0018682160880416632,0.0036174545530229807,0.0071324994787573814,0.08914511650800705,0.0011900663375854492,0.00011491550685605034,-0.0036090933717787266,0.004783164709806442,0.0,0.0,0.0,0.0031965759117156267,-0.0021775667555630207,-0.0,0.0,0.0,0.0,-0.0005535312811844051,-0.027527375146746635,-7.105730765033513e-05,11957.0,15494.0,15254.0,11290.0,0.3137769103050232,0.5439793467521667,0.5264427661895752,0.277373731136322,0.0,0.0,0.0,0.0,11970.0,15487.0,15255.0,11284.0,1.6613330841064453,-0.030840835402689865,-0.3060106051983828,3.0510960509338836,0.008717210032045841,0.009843486361205578,0.0
157,5,-3.2613366784062237e-05,7.171269771788502e-06,1.1051445653720293e-05,-0.001766420784406364,-0.0012687721755355597,-0.0025938900653272867,0.0071324994787573814,0.08914511650800705,0.0011900663375854492,0.00011491550685605034,-0.0036090933717787266,0.004783164709806442,0.0,0.0,0.0,-0.0023018522188067436,0.0019710862543433905,-0.0,0.0,0.0,0.0,-0.0005535312811844051,-0.027527375146746635,-7.105730765033513e-05,11957.0,15494.0,15254.0,11290.0,0.3137769103050232,0.5439793467521667,0.5264427661895752,0.277373731136322,0.0,0.0,0.0,0.0,11970.0,15487.0,15255.0,11284.0,1.6543552875518799,-0.030554617891179095,-0.3038605662430974,3.05063629761977,-0.007857508957386017,-0.0070585268549621105,0.0
162,5,-4.584863199852407e-05,3.315820504212752e-05,6.150382978376001e-05,-0.0022948002442717552,-0.0036259409971535206,-0.007091842126101255,0.007127163000404835,0.08910131454467773,0.0011616526171565056,-0.011777405627071857,0.0026201296132057905,-0.003245871514081955,0.0,0.0,0.0,-0.0023018522188067436,0.0019710862543433905,-0.0,0.0,0.0,0.0,-0.0013454592553898692,-0.027964066714048386,0.0002597429556772113,11454.0,15655.0,15284.0,11538.0,0.2861042618751526,0.5559662580490112,0.5286023020744324,0.29066020250320435,0.0,0.0,0.0,0.0,11730.0,15446.0,15567.0,11438.0,1.6543552875518799,-0.03168986063283987,-0.30250517247802333,3.0497204260094506,-0.007857508957386017,-0.0070585268549621105,0.0
167,5,-3.6985078622819856e-05,3.0092349334154278e-05,4.055964382132515e-05,0.00014570631901733577,-0.0010824737837538123,-0.00032343436032533646,0.007127163000404835,0.08910131454467773,0.0011616526171565056,-0.011777405627071857,0.0026201296132057905,-0.003245871514081955,0.0,0.0,0.0,0.004451601300388575,-0.002201321767643094,-0.0,0.0,0.0,0.0,-0.0013454592553898692,-0.027964066714048386,0.0002597429556772113,11454.0,15655.0,15284.0,11538.0,0.2861042618751526,0.5559662580490112,0.5286023020744324,0.29066020250320435,0.0,0.0,0.0,0.0,11730.0,15446.0,15567.0,11438.0,1.6700416803359985,-0.030742881841535598,-0.3026743351705501,3.0498867962505405,0.008858457207679749,0.013780009001493454,0.0
172,5,-9.752679034136236e-06,-8.091404197330121e-06,-4.5637360017281026e-05,0.003326170379295945,0.004149060696363449,0.010214266367256641,0.007131810765713453,0.08914052695035934,0.001290718442760408,0.005793543998152018,-0.00908607617020607,-0.040872082114219666,0.0,0.0,0.0,0.004451601300388575,-0.002201321767643094,-0.0,0.0,0.0,0.0,-0.00259400368668139,-0.026870636269450188,0.0020999552216380835,12660.0,14816.0,15926.0,10319.0,0.3545069992542267,0.49503278732299805,0.5764234066009521,0.22839215397834778,0.0,0.0,0.0,0.0,10901.0,16022.0,14859.0,12108.0,1.6700416803359985,-0.028768991473248785,-0.3043327110418041,3.0515161424991684,0.008858457207679749,0.013780009001493454,0.0
177,5,-3.811820351984352e-05,4.04626116505824e-05,6.953202682780102e-05,-0.0020733948331326246,-0.004166857339441776,-0.009734620340168476,0.007131810765713453,0.08914052695035934,0.001290718442760408,0.005793543998152018,-0.00908607617020607,-0.040872082114219666,0.0,0.0,0.0,-0.0050118593499064445,0.00306846690364182,-0.0,0.0,0.0,0.0,-0.00259400368668139,-0.026870636269450188,0.0020999552216380835,12660.0,14816.0,15926.0,10319.0,0.3545069992542267,0.49503278732299805,0.5764234066009521,0.22839215397834778,0.0,0.0,0.0,0.0,10901.0,16022.0,14859.0,12108.0,1.6796085834503174,-0.03131106646037942,-0.30281195739586225,3.0504120098762626,-0.012418676167726517,-0.015603148378431797,0.0
182,5,-5.240294922259636e-05,4.172521585132927e-05,5.377094566938467e-05,-0.002543527400121093,-0.0018182556377723813,-0.0020025179255753756,0.0070759616792202,0.08911377191543579,0.0010288755875080824,0.0047989110462367535,0.0046254852786660194,-0.09794237464666367,0.0,0.0,0.0,-0.0050118593499064445,0.00306846690364182,-0.0,0.0,0.0,0.0,-0.0008656959980726242,-0.02707478031516075,-0.003795412601903081,9965.0,16626.0,14191.0,13005.0,0.21169473230838776,0.6309794783592224,0.45189863443374634,0.3754688501358032,0.0,0.0,0.0,0.0,12742.0,14763.0,15914.0,10314.0,1.6796085834503174,-0.03142075657028694,-0.3025709944084779,3.048990178891148,-0.012418676167726517,-0.015603148378431797,0.0
187,5,-4.101075683138333e-05,3.7293251807568595e-05,6.636090256506577e-05,0.0003496520221233368,-0.00019546640396583825,-0.0023118017707020044,0.0070759616792202,0.08911377191543579,0.0010288755875080824,0.0047989110462367535,0.0046254852786660194,-0.09794237464666367,0.0,0.0,0.0,0.002292830962687731,-0.002459112089127302,-0.0,0.0,0.0,0.0,-0.0008656959980726242,-0.02707478031516075,-0.003795412601903081,9965.0,16626.0,14191.0,13005.0,0.21169473230838776,0.6309794783592224,0.45189863443374634,0.3754688501358032,0.0,0.0,0.0,0.0,12742.0,14763.0,15914.0,10314.0,1.6584875583648682,-0.032114931673910885,-0.3028410021040703,3.0498554551654733,0.009827450849115849,0.007048425264656544,0.0
192,5,-2.337556543352548e-05,3.169929186697118e-05,-7.509531315008644e-06,0.0022560840006917715,0.0005930885672569275,0.007939730770885944,0.007034352980554104,0.08920231461524963,0.0014936910010874271,0.020007368177175522,0.033728089183568954,-0.09810344129800797,0.0,0.0,0.0,0.002292830962687731,-0.002459112089127302,-0.0,0.0,0.0,0.0,-0.003466701600700617,-0.026159293949604034,0.0015877782134339213,12671.0,15090.0,15750.0,10696.0,0.35516270995140076,0.514526903629303,0.56308913230896,0.2468298226594925,0.0,0.0,0.0,0.0,12078.0,15186.0,15832.0,10931.0,1.6584875583648682,-0.03016177329834318,-0.30455966597308354,3.0506336924333146,0.009827450849115849,0.007048425264656544,0.0
197,5,-3.0160599635564722e-05,4.9603067964199e-07,1.2738067198370118e-05,-0.00343355443328619,7.281454600160941e-05,-0.007906590588390827,0.007034352980554104,0.08920231461524963,0.0014936910010874271,0.020007368177175522,0.033728089183568954,-0.09810344129800797,0.0,0.0,0.0,-0.0006704171537421644,0.0020965654402971268,-0.0,0.0,0.0,0.0,-0.003466701600700617,-0.026159293949604034,0.0015877782134339213,12671.0,15090.0,15750.0,10696.0,0.35516270995140076,0.514526903629303,0.56308913230896,0.2468298226594925,0.0,0.0,0.0,0.0,12078.0,15186.0,15832.0,10931.0,1.6489957571029663,-0.030860066564747685,-0.30467036912518536,3.0507878921115896,-0.008330660872161388,-0.0020491471514105797,0.0
203,5,-3.4141292417189106e-05,1.650395461183507e-05,1.932718078023754e-05,-0.001851104898378253,-0.0018918251153081656,-0.003953329753130674,0.007455664686858654,0.08896958082914352,0.0013602768303826451,0.011192236095666885,-0.03917916864156723,0.08005885779857635,0.0,0.0,0.0,-0.0006704171537421644,0.0020965654402971268,-0.0,0.0,0.0,0.0,-0.004120549187064171,-0.0265000369399786,0.0035144048742949963,12942.0,14506.0,16425.0,9675.0,0.3715570867061615,0.4733891189098358,0.6150432825088501,0.19849810004234314,0.0,0.0,0.0,0.0,10227.0,16925.0,13576.0,13227.0,1.6489957571029663,-0.030409926817057453,-0.3039740303912373,3.050417422897492,-0.008330660872161388,-0.0020491471514105797,0.0
208,5,-3.4141292417189106e-05,1.650395461183507e-05,1.932718078023754e-05,-0.001851104898378253,-0.0018918251153081656,-0.003953329753130674,0.007455664686858654,0.08896958082914352,0.0013602768303826451,0.011192236095666885,-0.03917916864156723,0.08005885779857635,0.0,0.0,0.0,0.0023450255393981934,-0.0017900281818583608,-0.0,0.0,0.0,0.0,-0.004120549187064171,-0.0265000369399786,0.0035144048742949963,12942.0,14506.0,16425.0,9675.0,0.3715570867061615,0.4733891189098358,0.6150432825088501,0.19849810004234314,0.0,0.0,0.0,0.0,10227.0,16925.0,13576.0,13227.0,1.653169870376587,-0.030409926817057453,-0.3039740303912373,3.050417422897492,0.007130628451704979,0.007185762748122215,0.0
213,5,-2.044292341452092e-05,-3.4440442959748907e-06,1.3417680747807026e-05,0.0014375486643984914,0.0015508073847740889,0.0009247764246538281,0.007502638269215822,0.08907052129507065,0.0012111843097954988,0.006849018856883049,-0.010486259125173092,0.08404114842414856,0.0,0.0,0.0,0.0023450255393981934,-0.0017900281818583608,-0.0,0.0,0.0,0.0,-0.0023430371657013893,-0.02630772441625595,1.1442613185863593e-06,11760.0,15465.0,15190.0,11387.0,0.3027959167957306,0.5419005155563354,0.5217584371566772,0.28254082798957825,0.0,0.0,0.0,0.0,11286.0,15789.0,15182.0,11600.0,1.653169870376587,-0.030282859727492676,-0.30510298842916594,3.0510920919591378,0.007130628451704979,0.007185762748122215,0.0
218,5,-5.5568762036273256e-05,2.5948182155843824e-05,9.654153109295294e-05,-0.003640081500634551,-0.0029067443683743477,-0.009604951366782188,0.007502638269215822,0.08907052129507065,0.0012111843097954988,0.006849018856883049,-0.010486259125173092,0.08404114842414856,0.0,0.0,0.0,-0.001910882187075913,0.0013296321267262101,-0.0,0.0,0.0,0.0,-0.0023430371657013893,-0.02630772441625595,1.1442613185863593e-06,11760.0,15465.0,15190.0,11387.0,0.3027959167957306,0.5419005155563354,0.5217584371566772,0.28254082798957825,0.0,0.0,0.0,0.0,11286.0,15789.0,15182.0,11600.0,1.6470704078674316,-0.031053276694380703,-0.3028557259642236,3.0498105538142566,-0.005277092102915049,-0.00583383534103632,-0.0
223,5,-3.912032480002381e-05,1.1627443200268317e-05,9.676966874394566e-05,0.0005177799612283707,0.0005557910189963877,-0.003869356820359826,0.0076993294060230255,0.08901224285364151,0.001258350326679647,-0.0025418696459382772,0.01610707864165306,-0.11727022379636765,0.0,0.0,0.0,-0.001910882187075913,0.0013296321267262101,-0.0,0.0,0.0,0.0,-0.00270716636441648,-0.025854650884866714,-0.0026474604383111,10278.0,16410.0,14302.0,12641.0,0.22643159329891205,0.6138895153999329,0.45943260192871094,0.3534160852432251,0.0,0.0,0.0,0.0,13041.0,14475.0,16172.0,9813.0,1.6470704078674316,-0.031768394266424506,-0.30421056209138464,3.050503330559327,-0.005277092102915049,-0.00583383534103632,-0.0
228,5,-4.4490509026218206e-05,1.1824015928141307e-05,0.00010704706801334396,-0.0004373097908683121,0.00019872769189532846,-0.0027810311876237392,0.0076993294060230255,0.08901224285364151,0.001258350326679647,-0.0025418696459382772,0.01610707864165306,-0.11727022379636765,0.0,0.0,0.0,-0.0006672373274341226,0.0004384168714750558,-0.0,0.0,0.0,0.0,-0.00270716636441648,-0.025854650884866714,-0.0026474604383111,10278.0,16410.0,14302.0,12641.0,0.22643159329891205,0.6138895153999329,0.45943260192871094,0.3534160852432251,0.0,0.0,0.0,0.0,13041.0,14475.0,16172.0,9813.0,1.63295578956604,-0.03093552096738031,-0.304612552948662,3.0507119342368565,-0.001725096837617457,-0.0020195902325212955,0.0
233,5,-5.812483868794516e-05,1.932826853590086e-05,0.0001792291150195524,-0.0018110435921698809,-0.0008210191735997796,-0.009774257428944111,0.007512155920267105,0.0882609635591507,0.0015801646513864398,0.010846883058547974,0.12109986692667007,0.010958199389278889,0.0,0.0,0.0,-0.0006672373274341226,0.0004384168714750558,-0.0,0.0,0.0,0.0,-0.0014789196429774165,-0.024859096854925156,0.002381513826549053,12842.0,14513.0,15956.0,10458.0,0.36550310254096985,0.4738311767578125,0.5787456035614014,0.23509004712104797,0.0,0.0,0.0,0.0,11344.0,15657.0,15143.0,11682.0,1.63295578956604,-0.03113533396168972,-0.3021509217666998,3.050184027000818,-0.001725096837617457,-0.0020195902325212955,0.0
238,5,-5.443166082841344e-05,5.370568032958545e-05,0.00024891895009204745,-0.0002812360180541873,-0.004453697241842747,-0.012272482737898827,0.007512155920267105,0.0882609635591507,0.0015801646513864398,0.010846883058547974,0.12109986692667007,0.010958199389278889,0.0,0.0,0.0,0.0010436616139486432,-0.0017923559062182903,-0.0,0.0,0.0,0.0,-0.0014789196429774165,-0.024859096854925156,0.002381513826549053,12842.0,14513.0,15956.0,10458.0,0.36550310254096985,0.4738311767578125,0.5787456035614014,0.23509004712104797,0.0,0.0,0.0,0.0,11344.0,15657.0,15143.0,11682.0,1.646872639656067,-0.032144550405032564,-0.3004359202157471,3.05029770265456,0.007112719584256411,0.003185870358720422,0.0
243,5,-6.71942179906182e-05,4.128479849896394e-05,0.00027657634927891195,-0.0016440012259408832,-0.0002909729373641312,-0.008227882906794548,0.007570954039692879,0.08648193627595901,0.0013439912581816316,-0.019380196928977966,0.24661782383918762,0.14972545206546783,0.0,0.0,0.0,0.0010436616139486432,-0.0017923559062182903,-0.0,0.0,0.0,0.0,-0.002677170094102621,-0.02018376812338829,0.002123388461768627,13591.0,13909.0,15882.0,10323.0,0.4123615026473999,0.43307921290397644,0.5730653405189514,0.2285643219947815,0.0,0.0,0.0,0.0,10486.0,16422.0,13476.0,13254.0,1.646872639656067,-0.031793931876006286,-0.2995035548421175,3.0503960310651337,0.007112719584256411,0.003185870358720422,0.0
248,5,-3.2834803278092295e-05,1.1580702448554803e-05,0.00026187897310592234,0.003465529065579176,0.003448102157562971,-0.0015274683246389031,0.007570954039692879,0.08648193627595901,0.0013439912581816316,-0.019380196928977966,0.24661782383918762,0.14972545206546783,0.0,0.0,0.0,0.00043292599730193615,-0.001650184509344399,-0.0,0.0,0.0,0.0,-0.002677170094102621,-0.02018376812338829,0.002123388461768627,13591.0,13909.0,15882.0,10323.0,0.4123615026473999,0.43307921290397644,0.5730653405189514,0.2285643219947815,0.0,0.0,0.0,0.0,10486.0,16422.0,13476.0,13254.0,1.6438275575637817,-0.030122761483684105,-0.2976648910164796,3.0507663358998927,0.006536427419632673,0.001319102244451642,0.0
253,5,-6.530026439577341e-05,2.5956938770832494e-05,0.0003938083245884627,-0.0025096440222114325,-0.0003459074068814516,-0.01644250936806202,0.007565178442746401,0.08243437856435776,0.0011476294603198767,0.000921060738619417,0.40556150674819946,-0.09127563238143921,0.0,0.0,0.0,0.00043292599730193615,-0.001650184509344399,-0.0,0.0,0.0,0.0,-0.002670970745384693,-0.015872327610850334,-0.0032280804589390755,11211.0,15793.0,13268.0,13423.0,0.2732081413269043,0.5663719177246094,0.3918118476867676,0.4015638828277588,0.0,0.0,0.0,0.0,13599.0,13746.0,15802.0,10368.0,1.6438275575637817,-0.030733398739897458,-0.2941991823396379,3.0512164774226695,0.006536427419632673,0.001319102244451642,0.0
258,5,-3.341596311656758e-05,2.270348159072455e-05,0.00040349637856706977,0.0028222589753568172,0.00025205177371390164,-0.007739568594843149,0.007565178442746401,0.08243437856435776,0.0011476294603198767,0.000921060738619417,0.40556150674819946,-0.09127563238143921,0.0,0.0,0.0,0.0004704143793787807,-0.002454182365909219,-0.0,0.0,0.0,0.0,-0.002670970745384693,-0.015872327610850334,-0.0032280804589390755,11211.0,15793.0,13268.0,13423.0,0.2732081413269043,0.5663719177246094,0.3918118476867676,0.4015638828277588,0.0,0.0,0.0,0.0,13599.0,13746.0,15802.0,10368.0,1.6525057554244995,-0.029881300005103414,-0.29271398121229786,3.051021001681691,0.009772400371730328,0.0014408942079171538,0.0
264,5,-2.9625066417793278e-06,3.076647044508718e-05,0.00045631788088940084,0.004783318378031254,-0.0008667376823723316,-0.009434407576918602,0.007488626055419445,0.0787443146109581,0.001989893615245819,0.013665406033396721,0.5228203535079956,-0.07668318599462509,0.0,0.0,0.0,0.0004704143793787807,-0.002454182365909219,-0.0,0.0,0.0,0.0,-0.002234769519418478,-0.011892820708453655,0.0014314001891762018,12883.0,14532.0,14228.0,12573.0,0.3679768443107605,0.47516191005706787,0.45436644554138184,0.3493674397468567,0.0,0.0,0.0,0.0,11251.0,15841.0,12418.0,14286.0,1.6525057554244995,-0.02910504242006419,-0.2902432937838715,3.0510293962026314,0.009772400371730328,0.0014408942079171538,0.0
269,5,3.7606303521897644e-05,2.1405085135484114e-05,0.0004845287185162306,0.006781584117561579,0.0007766708731651306,-0.007159065455198288,0.007488626055419445,0.0787443146109581,0.001989893615245819,0.013665406033396721,0.5228203535079956,-0.07668318599462509,0.0,0.0,0.0,0.001101704896427691,0.004439564421772957,-0.0,0.0,0.0,0.0,-0.002234769519418478,-0.011892820708453655,0.0014314001891762018,12883.0,14532.0,14228.0,12573.0,0.3679768443107605,0.47516191005706787,0.45436644554138184,0.3493674397468567,0.0,0.0,0.0,0.0,11251.0,15841.0,12418.0,14286.0,1.6750376224517822,-0.028482998398187437,-0.28633124419211203,3.0519236116730233,-0.017919056117534637,0.003420567838475108,0.0
274,5,5.4031817853683606e-05,3.068456499022432e-05,0.0006032774690538645,0.004683695733547211,-0.0008028693264350295,-0.017113476991653442,0.007673864718526602,0.07173000276088715,0.0022032379638403654,0.0072959247045218945,0.6165885329246521,0.19069725275039673,0.0,0.0,0.0,0.001101704896427691,0.004439564421772957,-0.0,0.0,0.0,0.0,-0.002111367415636778,-0.007968435995280743,0.003676606109365821,14922.0,12364.0,15637.0,10751.0,0.502525806427002,0.3370310962200165,0.5546806454658508,0.2495899498462677,0.0,0.0,0.0,0.0,14088.0,13401.0,14835.0,11908.0,1.6750376224517822,-0.03064899438443981,-0.2817920751425981,3.0504900482712607,-0.017919056117534637,0.003420567838475108,0.0
279,5,8.120701386360452e-05,4.899248597212136e-05,0.0006407124456018209,0.005134501960128546,-0.0025180981028825045,-0.011337583884596825,0.007673864718526602,0.07173000276088715,0.0022032379638403654,0.0072959247045218945,0.6165885329246521,0.19069725275039673,0.0,0.0,0.0,0.001024621888063848,0.004425444174557924,-0.0,0.0,0.0,0.0,-0.002111367415636778,-0.007968435995280743,0.003676606109365821,14922.0,12364.0,15637.0,10751.0,0.502525806427002,0.3370310962200165,0.5546806454658508,0.2495899498462677,0.0,0.0,0.0,0.0,14088.0,13401.0,14835.0,11908.0,1.67476224899292,-0.027997903674875514,-0.27814348375150977,3.0507488228526998,-0.01785912923514843,0.0031807185150682926,0.0
284,5,8.21418288978748e-05,8.071403135545552e-05,0.0007045129896141589,0.002165978541597724,-0.004813824780285358,-0.0121911047026515,0.007673864718526602,0.07173000276088715,0.0022032379638403654,0.0072959247045218945,0.6165885329246521,0.19069725275039673,0.0,0.0,0.0,0.001024621888063848,0.004425444174557924,-0.0,0.0,0.0,0.0,-0.002111367415636778,-0.007968435995280743,0.003676606109365821,14922.0,12364.0,15637.0,10751.0,0.502525806427002,0.3370310962200165,0.5546806454658508,0.2495899498462677,0.0,0.0,0.0,0.0,14088.0,13401.0,14835.0,11908.0,1.67476224899292,-0.029011982352364723,-0.27569106131040144,3.0507711061429945,-0.01785912923514843,0.0031807185150682926,0.0
289,5,7.964284304762259e-05,9.181036875816062e-05,0.0007639949908480048,0.0005665130447596312,-0.0032570897601544857,-0.012014279142022133,0.0078035155311226845,0.06662462651729584,0.0012559096794575453,0.013535402715206146,0.6442221999168396,-0.044417448341846466,0.0,0.0,0.0,0.005937250331044197,0.0021166543010622263,-0.0,0.0,0.0,0.0,-0.00251229340210557,-0.005161137320101261,-0.004193097818642855,12206.0,15171.0,12610.0,14203.0,0.3278932571411133,0.5203607678413391,0.3515505790710449,0.4527011513710022,0.0,0.0,0.0,0.0,14475.0,13001.0,14903.0,11798.0,1.6808067560195923,-0.02803740246037856,-0.27282123044821865,3.0502426168207135,-0.00857258215546608,0.018497245386242867,0.0
294,5,6.44110914436169e-05,0.00010900451889028773,0.0008251203689724207,-0.0016012047417461872,-0.0033661345951259136,-0.012140756472945213,0.0078035155311226845,0.06662462651729584,0.0012559096794575453,0.013535402715206146,0.6442221999168396,-0.044417448341846466,0.0,0.0,0.0,0.005937250331044197,0.0021166543010622263,-0.0,0.0,0.0,0.0,-0.00251229340210557,-0.005161137320101261,-0.004193097818642855,12206.0,15171.0,12610.0,14203.0,0.3278932571411133,0.5203607678413391,0.3515505790710449,0.4527011513710022,0.0,0.0,0.0,0.0,14475.0,13001.0,14903.0,11798.0,1.6808067560195923,-0.0274631548472479,-0.2692329585263187,3.049893561691936,-0.00857258215546608,0.018497245386242867,0.0
299,5,6.39837744529359e-05,0.00010375001147622243,0.0008101299754343927,-0.0006917601567693055,-0.0007159126689657569,-0.003057455876842141,0.008057387545704842,0.05968143418431282,0.0015563275665044785,0.03402355685830116,0.527069091796875,-0.16696499288082123,0.0,0.0,0.0,0.004285924602299929,-0.0014089724281802773,-0.0,0.0,0.0,0.0,-0.002586381509900093,-0.0044501726515591145,-0.00031614117324352264,12604.0,15027.0,12885.0,14100.0,0.35117489099502563,0.510013222694397,0.3680875897407532,0.44576191902160645,0.0,0.0,0.0,0.0,11554.0,15847.0,11851.0,14961.0,1.664657473564148,-0.026296518523688275,-0.26896378606512733,3.051217960700049,0.005651648622006178,0.013224386610090733,0.0
304,5,5.8174002333544195e-05,0.00010325967014068738,0.0008430160814896226,-0.0009738766239024699,-0.00022752447694074363,-0.00516931526362896,0.008057387545704842,0.05968143418431282,0.0015563275665044785,0.03402355685830116,0.527069091796875,-0.16696499288082123,0.0,0.0,0.0,0.004285924602299929,-0.0014089724281802773,-0.0,0.0,0.0,0.0,-0.002586381509900093,-0.0044501726515591145,-0.00031614117324352264,12604.0,15027.0,12885.0,14100.0,0.35117489099502563,0.510013222694397,0.3680875897407532,0.44576191902160645,0.0,0.0,0.0,0.0,11554.0,15847.0,11851.0,14961.0,1.664657473564148,-0.025531534350363587,-0.2669357708076938,3.0506394622384763,0.005651648622006178,0.013224386610090733,0.0
309,5,6.320107786450535e-05,7.257521792780608e-05,0.0008552105282433331,0.00021369803289417177,0.0035911251325160265,-0.0035310571547597647,0.008274266496300697,0.05601717531681061,0.0018460453720763326,0.026672055944800377,0.3840808868408203,0.16568125784397125,0.0,0.0,0.0,0.0004694992967415601,-0.0008457579533569515,-0.0,0.0,0.0,0.0,-0.0017831496661528945,-0.009418871253728867,-0.004503543023020029,15177.0,12400.0,15620.0,10984.0,0.5208088159561157,0.3391585350036621,0.5533777475357056,0.2614171504974365,0.0,0.0,0.0,0.0,13778.0,13924.0,14399.0,12587.0,1.6355823278427124,-0.0248828684156311,-0.2660116260453314,3.050555516446198,0.003333268454298377,0.001423363690264523,0.0
315,5,2.932806091848761e-05,8.306020754389465e-05,0.0008840382797643542,-0.003979282453656197,0.0001782506878953427,-0.00487175676971674,0.008274266496300697,0.05601717531681061,0.0018460453720763326,0.026672055944800377,0.3840808868408203,0.16568125784397125,0.0,0.0,0.0,0.0004694992967415601,-0.0008457579533569515,-0.0,0.0,0.0,0.0,-0.0017831496661528945,-0.009418871253728867,-0.004503543023020029,15177.0,12400.0,15620.0,10984.0,0.5208088159561157,0.3391585350036621,0.5533777475357056,0.2614171504974365,0.0,0.0,0.0,0.0,13778.0,13924.0,14399.0,12587.0,1.6355823278427124,-0.02555120389677908,-0.26547517398885645,3.0509231428681516,0.003333268454298377,0.001423363690264523,0.0
320,5,-1.3404289802565472e-06,9.662516094977036e-05,0.0009387460304424167,-0.005271931644529104,-0.0015564935747534037,-0.008513633161783218,0.008671809919178486,0.052402473986148834,0.001071812817826867,0.04119579493999481,0.239403635263443,-0.03307091072201729,0.0,0.0,0.0,-6.772558117518201e-05,-0.0036779455840587616,-0.0,0.0,0.0,0.0,-0.001162423868663609,-0.01411308441311121,-0.000725525722373277,11889.0,15510.0,13120.0,14060.0,0.3099692463874817,0.5452070236206055,0.38254737854003906,0.44308310747146606,0.0,0.0,0.0,0.0,14353.0,13192.0,15644.0,11259.0,1.6656802892684937,-0.026437400345112196,-0.26427495268236223,3.049502150083894,0.014762090519070625,-0.00020909948216285557,0.0
325,5,-3.4958480682689697e-05,0.00010368149378336966,0.0009332539048045874,-0.0061429389752447605,-0.0014693577541038394,-0.0027463980950415134,0.008671809919178486,0.052402473986148834,0.001071812817826867,0.04119579493999481,0.239403635263443,-0.03307091072201729,0.0,0.0,0.0,-6.772558117518201e-05,-0.0036779455840587616,-0.0,0.0,0.0,0.0,-0.001162423868663609,-0.01411308441311121,-0.000725525722373277,11889.0,15510.0,13120.0,14060.0,0.3099692463874817,0.5452070236206055,0.38254737854003906,0.44308310747146606,0.0,0.0,0.0,0.0,14353.0,13192.0,15644.0,11259.0,1.6656802892684937,-0.026225207849369832,-0.26582414049374303,3.0495729413341226,0.014762090519070625,-0.00020909948216285557,0.0
330,5,-7.469645061064512e-05,0.00011157512199133635,0.0009649410494603217,-0.0072257318533957005,-0.0015349786262959242,-0.004901012405753136,0.008695904165506363,0.05134143307805061,0.0016768297646194696,-0.003897817572578788,0.1152796745300293,-0.18829496204853058,0.0,0.0,0.0,0.0019413629779592156,-0.005702600814402103,-0.0,0.0,0.0,0.0,-0.0025228143204003572,-0.015784969553351402,0.004842793103307486,14501.0,12871.0,16173.0,9706.0,0.4730207622051239,0.3672425448894501,0.5954169034957886,0.19990208745002747,0.0,0.0,0.0,0.0,10413.0,16387.0,12510.0,14516.0,1.690511703491211,-0.026878939594833794,-0.26479783546676616,3.0499272096147605,0.023229500278830528,0.006083212327212095,0.0
335,5,-8.055328362388536e-05,9.858093835646287e-05,0.0009262815001420677,-0.003593113273382187,0.0009453108068555593,0.0026787384413182735,0.008695904165506363,0.05134143307805061,0.0016768297646194696,-0.003897817572578788,0.1152796745300293,-0.18829496204853058,0.0,0.0,0.0,0.0019413629779592156,-0.005702600814402103,-0.0,0.0,0.0,0.0,-0.0025228143204003572,-0.015784969553351402,0.004842793103307486,14501.0,12871.0,16173.0,9706.0,0.4730207622051239,0.3672425448894501,0.5954169034957886,0.19990208745002747,0.0,0.0,0.0,0.0,10413.0,16387.0,12510.0,14516.0,1.690511703491211,-0.026248226955318626,-0.26523918383814055,3.0497009769461747,0.023229500278830528,0.006083212327212095,0.0
340,5,-0.00011572397488635033,0.00014394905883818865,0.0010090824216604233,-0.0056577278301119804,-0.005066050682216883,-0.008864608593285084,0.00882901530712843,0.05062678083777428,0.0018011309439316392,0.018312865868210793,0.017269013449549675,0.1754007786512375,0.0,0.0,0.0,0.0019413629779592156,-0.005702600814402103,-0.0,0.0,0.0,0.0,-0.002686567371711135,-0.015573420561850071,-0.004854453261941671,14501.0,12871.0,16173.0,9706.0,0.4730207622051239,0.3672425448894501,0.5954169034957886,0.19990208745002747,0.0,0.0,0.0,0.0,13242.0,14205.0,14934.0,11511.0,1.690511703491211,-0.026778588090078107,-0.26322834206327667,3.049044506003009,0.023229500278830528,0.006083212327212095,0.0
345,5,-0.00013478696928359568,8.647029608255252e-05,0.0009434853564016521,-0.004550650250166655,0.004871032200753689,0.004325798712670803,0.00882901530712843,0.05062678083777428,0.0018011309439316392,0.018312865868210793,0.017269013449549675,0.1754007786512375,0.0,0.0,0.0,0.006262417417019606,-0.00531911663711071,-0.0,0.0,0.0,0.0,-0.002686567371711135,-0.015573420561850071,-0.004854453261941671,14501.0,12871.0,16173.0,9706.0,0.4730207622051239,0.3672425448894501,0.5954169034957886,0.19990208745002747,0.0,0.0,0.0,0.0,13242.0,14205.0,14934.0,11511.0,1.7051457166671753,-0.026571130288964868,-0.2641514762470913,3.0504511928067926,0.021854573860764503,0.019792785868048668,0.0
350,5,-0.0001681746798567474,0.00013424691860564053,0.0010118103818967938,-0.005826786160469055,-0.0037847815547138453,-0.006468683481216431,0.008854089304804802,0.05041387677192688,0.000492260092869401,-0.00347240106202662,0.055125217884778976,-0.04455994814634323,0.0,0.0,0.0,0.006262417417019606,-0.00531911663711071,-0.0,0.0,0.0,0.0,-0.0023066652938723564,-0.015805311501026154,-0.0014046301366761327,11212.0,16000.0,13291.0,13664.0,0.2732415199279785,0.5821132659912109,0.3932586908340454,0.4170668125152588,0.0,0.0,0.0,0.0,14115.0,13564.0,15712.0,10720.0,1.7051457166671753,-0.027046851378157162,-0.2617932345461738,3.048647561112391,0.021854573860764503,0.019792785868048668,0.0
355,5,-0.00018681488290894777,0.00012742128456011415,0.0009712483733892441,-0.004567537922412157,-0.0006948377704247832,0.0022799638099968433,0.008854089304804802,0.05041387677192688,0.000492260092869401,-0.00347240106202662,0.055125217884778976,-0.04455994814634323,0.0,0.0,0.0,0.004742139484733343,-0.005563321057707071,-0.0,0.0,0.0,0.0,-0.0023066652938723564,-0.015805311501026154,-0.0014046301366761327,11212.0,16000.0,13291.0,13664.0,0.2732415199279785,0.5821132659912109,0.3932586908340454,0.4170668125152588,0.0,0.0,0.0,0.0,14115.0,13564.0,15712.0,10720.0,1.6991403102874756,-0.026066185286789282,-0.2626404239541581,3.0484637698654957,0.022777609527111053,0.014935134910047054,0.0
361,5,-0.00019472496933303773,0.000105601480754558,0.0009639824857003987,-0.0027762260288000107,0.002340441569685936,0.0017838948406279087,0.008809428662061691,0.04891545698046684,0.0007096673361957073,0.0006339236861094832,0.11510443687438965,0.14588144421577454,0.0,0.0,0.0,0.004742139484733343,-0.005563321057707071,-0.0,0.0,0.0,0.0,-0.0008345083915628493,-0.01430144626647234,0.004735773894935846,14578.0,13101.0,16245.0,10647.0,0.47836068272590637,0.38138291239738464,0.6010004878044128,0.24440166354179382,0.0,0.0,0.0,0.0,10141.0,16762.0,12358.0,14775.0,1.6991403102874756,-0.025240904832256085,-0.26198484306849845,3.0493233718812296,0.022777609527111053,0.014935134910047054,0.0
366,5,-0.0001908452104544267,9.038834105012938e-05,0.0009704438271000981,-0.00064491928787902,0.0027617537416517735,-6.180132186273113e-05,0.008809428662061691,0.04891545698046684,0.0007096673361957073,0.0006339236861094832,0.11510443687438965,0.14588144421577454,0.0,0.0,0.0,-0.0026560237165540457,-0.0028644397389143705,-0.0,0.0,0.0,0.0,-0.0008345083915628493,-0.01430144626647234,0.004735773894935846,14578.0,13101.0,16245.0,10647.0,0.47836068272590637,0.38138291239738464,0.6010004878044128,0.24440166354179382,0.0,0.0,0.0,0.0,10141.0,16762.0,12358.0,14775.0,1.6639139652252197,-0.025583572616935824,-0.2637949502186018,3.0487284437738187,0.011484717950224876,-0.008191632106900215,-0.0
371,5,-0.0002186901110690087,8.886840078048408e-05,0.0009842508006840944,-0.003599355462938547,0.001287094783037901,-0.0016815620474517345,0.00897515844553709,0.046746596693992615,-0.0005615875707007945,0.010169937275350094,0.2182449847459793,-0.06734020262956619,0.0,0.0,0.0,-0.0026560237165540457,-0.0028644397389143705,-0.0,0.0,0.0,0.0,-0.0009834615048021078,-0.011405247263610363,-0.005892841145396233,11274.0,16040.0,12879.0,14454.0,0.27650338411331177,0.5851451754570007,0.36771243810653687,0.4697793126106262,0.0,0.0,0.0,0.0,13222.0,14444.0,14943.0,12468.0,1.6639139652252197,-0.02583548846658764,-0.2617630040214505,3.0488000023046844,0.011484717950224876,-0.008191632106900215,-0.0
376,5,-0.0002257730666315183,7.411947444779798e-05,0.0010140982922166586,-0.002289697527885437,0.002284708432853222,-0.004254315048456192,0.00897515844553709,0.046746596693992615,-0.0005615875707007945,0.010169937275350094,0.2182449847459793,-0.06734020262956619,0.0,0.0,0.0,-0.0014022389659658074,-0.003660134971141815,-0.0,0.0,0.0,0.0,-0.0009834615048021078,-0.011405247263610363,-0.005892841145396233,11274.0,16040.0,12879.0,14454.0,0.27650338411331177,0.5851451754570007,0.36771243810653687,0.4697793126106262,0.0,0.0,0.0,0.0,13222.0,14444.0,14943.0,12468.0,1.6672037839889526,-0.025764390166942396,-0.2613243800217532,3.0497481427615303,0.014704027213156223,-0.00433330237865448,0.0
381,5,-0.00021382438717409968,9.061884338734671e-05,0.0010401118779554963,0.000517962034791708,-0.001066040713340044,-0.004823361523449421,0.00897515844553709,0.046746596693992615,-0.0005615875707007945,0.010169937275350094,0.2182449847459793,-0.06734020262956619,0.0,0.0,0.0,-0.0014022389659658074,-0.003660134971141815,-0.0,0.0,0.0,0.0,-0.0009834615048021078,-0.011405247263610363,-0.005892841145396233,11274.0,16040.0,12879.0,14454.0,0.27650338411331177,0.5851451754570007,0.36771243810653687,0.4697793126106262,0.0,0.0,0.0,0.0,13222.0,14444.0,14943.0,12468.0,1.6672037839889526,-0.024875827197801337,-0.25812528433731036,3.0489911030396426,-0.0007619266980327666,0.00450089992955327,0.0
386,5,-0.00021553649276029319,9.778732055565342e-05,0.001087835873477161,1.7326208308077184e-06,-0.0012866337783634663,-0.007656218949705362,0.008965744636952877,0.04507097974419594,1.9299774066894315e-05,-0.028740353882312775,0.25784268975257874,-0.24025917053222656,0.0,0.0,0.0,0.0014823204837739468,0.0001930246507981792,-0.0,0.0,0.0,0.0,-0.001138637075200677,-0.01012028194963932,-0.0016549387946724892,11290.0,15978.0,12722.0,14647.0,0.27735573053359985,0.580410897731781,0.358243465423584,0.48313021659851074,0.0,0.0,0.0,0.0,14329.0,13420.0,15553.0,11492.0,1.6381323337554932,-0.026848623636388885,-0.2573580293480716,3.0479560580986855,-0.0007619266980327666,0.00450089992955327,0.0
391,5,-0.00020187915652059019,7.828415982658044e-05,0.0010624253191053867,0.0016395734855905175,0.001825726474635303,-1.3223740097600967e-05,0.008965744636952877,0.04507097974419594,1.9299774066894315e-05,-0.028740353882312775,0.25784268975257874,-0.24025917053222656,0.0,0.0,0.0,-0.002098887460306287,0.0012675297912210226,-0.0,0.0,0.0,0.0,-0.001138637075200677,-0.01012028194963932,-0.0016549387946724892,11290.0,15978.0,12722.0,14647.0,0.27735573053359985,0.580410897731781,0.358243465423584,0.48313021659851074,0.0,0.0,0.0,0.0,14329.0,13420.0,15553.0,11492.0,1.6478384733200073,-0.02552129710420215,-0.2565227271402137,3.049540637293831,-0.005032961722463369,-0.006410793401300907,0.0
396,5,-0.00020319668692536652,9.581344784237444e-05,0.0010764481266960502,0.0004977259086444974,-0.001373224426060915,-0.0016880317125469446,0.008935226127505302,0.04219347611069679,-7.43488926673308e-05,-0.0076277959160506725,0.19887764751911163,0.2085454910993576,0.0,0.0,0.0,-0.002098887460306287,0.0012675297912210226,-0.0,0.0,0.0,0.0,-0.0034337118268013,-0.008608260191977024,0.004593818914145231,15161.0,12431.0,15879.0,10361.0,0.5196508169174194,0.3409840166568756,0.5728632211685181,0.23041591048240662,0.0,0.0,0.0,0.0,10217.0,16739.0,10972.0,15435.0,1.6478384733200073,-0.025720299318213825,-0.25543380267202204,3.0481727813932578,-0.005032961722463369,-0.006410793401300907,0.0
401,5,-0.00017527015006635338,5.857487485627644e-05,0.0010436158627271652,0.0035502752289175987,0.003919339273124933,0.0032646574545651674,0.008935226127505302,0.04219347611069679,-7.43488926673308e-05,-0.0076277959160506725,0.19887764751911163,0.2085454910993576,0.0,0.0,0.0,0.0018677090993151069,0.00018788696615956724,-0.0,0.0,0.0,0.0,-0.0034337118268013,-0.008608260191977024,0.004593818914145231,15161.0,12431.0,15879.0,10361.0,0.5196508169174194,0.3409840166568756,0.5728632211685181,0.23041591048240662,0.0,0.0,0.0,0.0,10217.0,16739.0,10972.0,15435.0,1.6412899494171143,-0.023757887008612814,-0.2560849133071412,3.048083662589666,-0.0007430757977999747,0.005682018585503101,0.0
406,5,-0.00017429213039577007,5.101600618218072e-05,0.0010366219794377685,0.0015374710783362389,0.0024747997522354126,0.0021451290231198072,0.009150996804237366,0.04052605852484703,-0.0018208655528724194,0.02130485326051712,0.17878513038158417,-0.12491337954998016,0.0,0.0,0.0,0.0018677090993151069,0.00018788696615956724,-0.0,0.0,0.0,0.0,-0.002933488693088293,-0.007415482774376869,-0.007331462111324072,10617.0,16251.0,11473.0,14980.0,0.24289189279079437,0.6014758944511414,0.28713107109069824,0.506633460521698,0.0,0.0,0.0,0.0,14292.0,13303.0,15011.0,11458.0,1.6412899494171143,-0.023464703403445402,-0.2546255827867953,3.04947744131954,-0.0007430757977999747,0.005682018585503101,0.0
412,5,-0.0001701948349364102,5.379119829740375e-05,0.0010267684701830149,0.0011066645383834839,0.0006568970857188106,0.0020404779352247715,0.009150996804237366,0.04052605852484703,-0.0018208655528724194,0.02130485326051712,0.17878513038158417,-0.12491337954998016,0.0,0.0,0.0,0.0018677090993151069,0.00018788696615956724,-0.0,0.0,0.0,0.0,-0.002933488693088293,-0.007415482774376869,-0.007331462111324072,10617.0,16251.0,11473.0,14980.0,0.24289189279079437,0.6014758944511414,0.28713107109069824,0.506633460521698,0.0,0.0,0.0,0.0,14292.0,13303.0,15011.0,11458.0,1.6412899494171143,-0.023191803661537273,-0.2542185513462205,3.0488256250233867,-0.0007430757977999747,0.005682018585503101,0.0
417,5,-0.00016677359235472977,5.945916927885264e-05,0.0010655438527464867,0.0008532149950042367,-0.0004173981142230332,-0.003836860414594412,0.009096142835915089,0.039216749370098114,-0.0014127733884379268,-0.003840724006295204,0.10459475219249725,-0.2087719440460205,0.0,0.0,0.0,-0.000712809560354799,0.0008135205134749413,-0.0,0.0,0.0,0.0,-0.003264975966885686,-0.009698067791759968,7.762316090520471e-05,11991.0,15399.0,12970.0,13738.0,0.31568723917007446,0.5370163917541504,0.37330031394958496,0.4218345284461975,0.0,0.0,0.0,0.0,9430.0,17058.0,10568.0,15626.0,1.6362428665161133,-0.024765335155981023,-0.2544633841145193,3.04736169112897,-0.0032075101044028997,-0.0021618709433823824,-0.0
422,5,-0.00015126158541534096,2.916990706580691e-05,0.0010290767531841993,0.002202727133408189,0.0034677525982260704,0.0028413187246769667,0.009096142835915089,0.039216749370098114,-0.0014127733884379268,-0.003840724006295204,0.10459475219249725,-0.2087719440460205,0.0,0.0,0.0,-0.000712809560354799,0.0008135205134749413,-0.0,0.0,0.0,0.0,-0.003264975966885686,-0.009698067791759968,7.762316090520471e-05,11991.0,15399.0,12970.0,13738.0,0.31568723917007446,0.5370163917541504,0.37330031394958496,0.4218345284461975,0.0,0.0,0.0,0.0,9430.0,17058.0,10568.0,15626.0,1.6362428665161133,-0.023113195110128843,-0.25555148052604976,3.049720811049478,-0.0032075101044028997,-0.0021618709433823824,-0.0
427,5,-0.00015982055629137903,4.859275577473454e-05,0.0011015699710696936,-0.00014598562847822905,-0.000943640829063952,-0.00756266713142395,0.009268096648156643,0.038414258509874344,-0.0014600433642044663,0.006962662097066641,0.024327946826815605,0.2669421434402466,0.0,0.0,0.0,-0.004157657269388437,0.0018488260684534907,-0.0,0.0,0.0,0.0,-0.0026659835129976273,-0.010220468044281006,0.005190553143620491,15430.0,11761.0,16432.0,9337.0,0.5392584800720215,0.30280739068984985,0.615587592124939,0.18363647162914276,0.0,0.0,0.0,0.0,13986.0,13420.0,15241.0,11269.0,1.6658612489700317,-0.023749812130844646,-0.2539920081429625,3.0487665674138955,-0.0074213482439517975,-0.012837894260883331,-0.0
432,5,-0.00015445667668245733,7.20079624443315e-05,0.001111841993406415,0.0005852708127349615,-0.003187280846759677,-0.004257712047547102,0.009268096648156643,0.038414258509874344,-0.0014600433642044663,0.006962662097066641,0.024327946826815605,0.2669421434402466,0.0,0.0,0.0,-0.004157657269388437,0.0018488260684534907,-0.0,0.0,0.0,0.0,-0.0026659835129976273,-0.010220468044281006,0.005190553143620491,15430.0,11761.0,16432.0,9337.0,0.5392584800720215,0.30280739068984985,0.615587592124939,0.18363647162914276,0.0,0.0,0.0,0.0,13986.0,13420.0,15241.0,11269.0,1.6658612489700317,-0.024699634062422596,-0.2537647105342999,3.047656489001697,-0.0074213482439517975,-0.012837894260883331,-0.0
437,5,-0.00012444106687325984,5.5850541684776545e-05,0.0010545630939304829,0.004357489291578531,0.0005962121649645269,0.0058968206867575645,0.009294812567532063,0.03822055459022522,-0.002623562468215823,-0.001035742461681366,0.04874873533844948,-0.1167876198887825,0.0,0.0,0.0,0.004016660153865814,0.0003345692821312696,-0.0,0.0,0.0,0.0,-0.0036701830103993416,-0.010620388202369213,0.0013381571043282747,10285.0,16460.0,11590.0,14861.0,0.22676794230937958,0.6177845001220703,0.2934647798538208,0.4982256293296814,0.0,0.0,0.0,0.0,13968.0,13530.0,14961.0,11444.0,1.6593886613845825,-0.022627067783559957,-0.2534842755682171,3.04890671881915,-0.001337773515842855,0.012354342266917229,0.0
442,5,-0.00012444106687325984,5.5850541684776545e-05,0.0010545630939304829,0.004357489291578531,0.0005962121649645269,0.0058968206867575645,0.009294812567532063,0.03822055459022522,-0.002623562468215823,-0.001035742461681366,0.04874873533844948,-0.1167876198887825,0.0,0.0,0.0,0.004016660153865814,0.0003345692821312696,-0.0,0.0,0.0,0.0,-0.0036701830103993416,-0.010620388202369213,0.0013381571043282747,10285.0,16460.0,11590.0,14861.0,0.22676794230937958,0.6177845001220703,0.2934647798538208,0.4982256293296814,0.0,0.0,0.0,0.0,13968.0,13530.0,14961.0,11444.0,1.6593886613845825,-0.022627067783559957,-0.2534842755682171,3.04890671881915,-0.001337773515842855,0.012354342266917229,0.0
447,5,-0.00014375131286215037,8.430432353634387e-05,0.001164622139185667,-0.0005742341163568199,-0.0031759687699377537,-0.010848365724086761,0.00923040509223938,0.03786328807473183,-0.0012325409334152937,-0.012175188399851322,0.03036682866513729,-0.1881982982158661,0.0,0.0,0.0,-0.0006216511828824878,0.003892425913363695,-0.0,0.0,0.0,0.0,-0.0015994302229955792,-0.010243750177323818,0.005682290531694889,12460.0,15207.0,13471.0,13327.0,0.3427000641822815,0.5230190753936768,0.4046398997306824,0.3955022096633911,0.0,0.0,0.0,0.0,8616.0,17641.0,9949.0,16059.0,1.668378233909607,-0.025025800683781532,-0.2522900910419145,3.046452568257385,-0.015648243948817253,-0.0019224266288802028,-0.0
452,5,-0.00013184486306272447,5.348803460947238e-05,0.0011235285783186555,0.0011990817729383707,0.0024275670293718576,0.0005918842507526278,0.00923040509223938,0.03786328807473183,-0.0012325409334152937,-0.012175188399851322,0.03036682866513729,-0.1881982982158661,0.0,0.0,0.0,-0.0006216511828824878,0.003892425913363695,-0.0,0.0,0.0,0.0,-0.0015994302229955792,-0.010243750177323818,0.005682290531694889,12460.0,15207.0,13471.0,13327.0,0.3427000641822815,0.5230190753936768,0.4046398997306824,0.3955022096633911,0.0,0.0,0.0,0.0,8616.0,17641.0,9949.0,16059.0,1.668378233909607,-0.022706930227695363,-0.2525111468457493,3.0488498083303885,-0.015648243948817253,-0.0019224266288802028,-0.0
457,5,-0.00013281285646371543,3.511144677759148e-05,0.0011183895403519273,0.0003634732565842569,0.0031762172002345324,0.0008534378721378744,0.009293295443058014,0.037102360278367996,-0.0014175914693623781,-0.015284094028174877,0.04186762496829033,0.3488154113292694,0.0,0.0,0.0,-0.002875323174521327,0.0009454978862777352,-0.0,0.0,0.0,0.0,-0.003136723767966032,-0.007766697555780411,-0.00964402873069048,15860.0,11177.0,16885.0,8887.0,0.5714008212089539,0.2714354991912842,0.6517616510391235,0.16479068994522095,0.0,0.0,0.0,0.0,14828.0,12439.0,16118.0,10373.0,1.6516855955123901,-0.023186090423715677,-0.25228791061384614,3.0486230802154,-0.0037630326114594936,-0.008802813477814198,-0.0
462,5,-0.0001126906499848701,4.266604082658887e-05,0.0011006355052813888,0.0025600537192076445,0.000363935629138723,0.002471857238560915,0.009293295443058014,0.037102360278367996,-0.0014175914693623781,-0.015284094028174877,0.04186762496829033,0.3488154113292694,0.0,0.0,0.0,-0.002875323174521327,0.0009454978862777352,-0.0,0.0,0.0,0.0,-0.003136723767966032,-0.007766697555780411,-0.00964402873069048,15860.0,11177.0,16885.0,8887.0,0.5714008212089539,0.2714354991912842,0.6517616510391235,0.16479068994522095,0.0,0.0,0.0,0.0,14828.0,12439.0,16118.0,10373.0,1.6516855955123901,-0.024117132651205454,-0.25289927119943517,3.0472286767842665,-0.0037630326114594936,-0.008802813477814198,-0.0
468,5,-0.00014236359857022762,7.356864080065861e-05,0.0011308854445815086,-0.0014238504227250814,-0.00412245886400342,-0.0032404910307377577,0.009291118010878563,0.03650566190481186,-0.003025270067155361,0.013932041823863983,0.11482264846563339,-0.1958332359790802,0.0,0.0,0.0,-0.0003673178143799305,0.0022561666555702686,-0.0,0.0,0.0,0.0,-0.0029955634381622076,-0.010434308089315891,0.003062470816075802,9658.0,17038.0,10534.0,15809.0,0.19776314496994019,0.6641972064971924,0.23883205652236938,0.567585825920105,0.0,0.0,0.0,0.0,14027.0,13714.0,14668.0,12112.0,1.650246262550354,-0.024729047848467234,-0.25089239655651047,3.0481466376311523,-0.008971631526947021,-0.0011235678102821112,-0.0
473,5,-0.00014900205133017153,7.488580740755424e-05,0.0011828106362372637,-0.0013661551056429744,-0.0018070439109578729,-0.007527221459895372,0.009291118010878563,0.03650566190481186,-0.003025270067155361,0.013932041823863983,0.11482264846563339,-0.1958332359790802,0.0,0.0,0.0,-0.0003673178143799305,0.0022561666555702686,-0.0,0.0,0.0,0.0,-0.0029955634381622076,-0.010434308089315891,0.003062470816075802,9658.0,17038.0,10534.0,15809.0,0.19776314496994019,0.6641972064971924,0.23883205652236938,0.567585825920105,0.0,0.0,0.0,0.0,14027.0,13714.0,14668.0,12112.0,1.650246262550354,-0.026063980531158798,-0.2508614028931484,3.046085767299715,-0.008971631526947021,-0.0011235678102821112,-0.0
