timestamp,dt,pos_x,pos_y,pos_z,vel_x,vel_y,vel_z,roll,pitch,yaw,agv_x,agv_y,agv_z,x_ref,y_ref,z_ref,roll_ref,pitch_ref,yaw_ref,x_vel_ref,y_vel_ref,z_vel_ref,x_torque,y_torque,z_torque,w0,w1,w2,w3,u0,u1,u2,u3,m0req,m1req,m2req,m3req,thrust0,thrust1,thrust2,thrust3,thrust_ref,roll_vicon,pitch_vicon,yaw_vicon,acc_x,acc_y,acc_z
5,5,0.0,0.0,0.0,0.002922411309555173,-0.002135533606633544,0.00022815230477135628,0.0,0.0,0.0,0.0,0.0,0.0,0.0,0.0,0.0,0.0025988100096583366,0.002735692076385021,-0.0,0.0,0.0,0.0,0.0,0.0,0.0,0.0,0.0,0.0,0.0,0.0,0.0,0.0,0.0,0.0,0.0,0.0,0.0,0.0,0.0,0.0,0.0,1.6624764204025269,0.011388056110992197,0.06504939099598923,0.009411942969469319,-0.010959042236208916,0.008008250966668129,0.0
36,31,0.0,0.0,0.0,-0.00020316355221439153,-8.943594002630562e-05,0.003635681699961424,0.0,0.0,0.0,0.0,0.0,0.0,0.0,0.0,0.0,0.0025988100096583366,0.002735692076385021,-0.0,0.0,0.0,0.0,0.0,0.0,0.0,0.0,0.0,0.0,0.0,0.0,0.0,0.0,0.0,0.0,0.0,0.0,0.0,0.0,0.0,0.0,0.0,1.6624764204025269,-0.006448282764809589,0.07254112671516266,0.006212364484481384,-0.010959042236208916,0.008008250966668129,0.0
41,5,0.0,0.0,0.0,-0.00012683405657298863,0.0037191640585660934,0.007181874942034483,0.0,0.0,0.0,0.0,0.0,0.0,0.0,0.0,0.0,-0.004523196257650852,-0.000118657284474466,-0.0,0.0,0.0,0.0,0.0,0.0,0.0,0.0,0.0,0.0,0.0,0.0,0.0,0.0,0.0,0.0,0.0,0.0,0.0,0.0,0.0,0.0,0.0,1.663509488105774,-0.005189250631085973,0.07155195322478355,0.006772810484153325,0.000475627719424665,-0.013946864753961563,0.0
56,15,0.0,0.0,0.0,0.005445466376841068,0.002438542665913701,0.010617239400744438,0.0,0.0,0.0,0.0,0.0,0.0,0.0,0.0,0.0,-0.004523196257650852,-0.000118657284474466,-0.0,0.0,0.0,0.0,0.0,0.0,0.0,0.0,0.0,0.0,0.0,0.0,0.0,0.0,0.0,0.0,0.0,0.0,0.0,0.0,0.0,0.0,0.0,1.663509488105774,-0.00101205611836131,0.07070214425292905,0.007867541675890412,0.000475627719424665,-0.013946864753961563,0.0
61,5,0.0,0.0,0.0,0.003819540375843644,0.006188462022691965,0.022873742505908012,0.0,0.0,0.0,0.0,0.0,0.0,0.0,0.0,0.0,-0.004523196257650852,-0.000118657284474466,-0.0,0.0,0.0,0.0,0.0,0.0,0.0,0.0,0.0,0.0,0.0,0.0,0.0,0.0,0.0,0.0,0.0,0.0,0.0,0.0,0.0,0.0,0.0,1.663509488105774,0.0001980216906375063,0.06768453330408744,0.009823509133238421,0.000475627719424665,-0.013946864753961563,0.0
67,5,0.0,0.0,0.0,0.00574215454980731,0.003952924162149429,0.02009507082402706,0.0,0.0,0.0,0.0,0.0,0.0,0.0,0.0,0.0,-0.00736813573166728,0.0034982282668352127,-0.0,0.0,0.0,0.0,0.0,0.0,0.0,0.0,0.0,0.0,0.0,0.0,0.0,0.0,0.0,0.0,0.0,0.0,0.0,0.0,0.0,0.0,0.0,1.699241042137146,0.0018885658427483182,0.06712945845860008,0.009786778287402929,-0.014323276467621326,-0.02320673316717148,0.0
78,11,4.839156099478714e-05,-6.35191026958637e-05,-0.00022541188809555024,0.003789185546338558,0.007819215767085552,0.026440296322107315,0.0,0.0,0.0,0.0,0.0,0.0,0.0,0.0,0.0,-0.009336636401712894,0.003503930987790227,-0.0,0.0,0.0,0.0,0.0,0.0,0.0,0.0,0.0,0.0,0.0,0.0,0.0,0.0,0.0,0.0,0.0,0.0,0.0,0.0,0.0,0.0,0.0,1.7145651578903198,0.006997725757734457,0.06481436993746592,0.010621275684863967,-0.014475768432021141,-0.02967163734138012,0.0
86,8,7.034726877463982e-05,-7.701216236455366e-05,-0.0003218599013052881,0.0026008791755884886,0.0030154043342918158,0.013074724934995174,0.0,0.0,0.0,0.0,0.0,0.0,0.0,0.0,0.0,-0.009336636401712894,0.003503930987790227,-0.0,0.0,0.0,0.0,0.0,0.0,0.0,0.0,0.0,0.0,0.0,0.0,0.0,0.0,0.0,0.0,0.0,0.0,0.0,0.0,0.0,0.0,0.0,1.7145651578903198,0.009663917092516388,0.06471767339443976,0.010177532108208731,-0.014475768432021141,-0.02967163734138012,0.0
91,5,9.39008459681645e-05,-6.208279955899343e-05,-0.00035497453063726425,0.003866780549287796,-0.0005853615002706647,0.009203647263348103,0.0,0.0,0.0,0.0,0.0,0.0,0.0,0.0,0.0,-0.009336636401712894,0.003503930987790227,-0.0,0.0,0.0,0.0,0.0,0.0,0.0,0.0,0.0,0.0,0.0,0.0,0.0,0.0,0.0,0.0,0.0,0.0,0.0,0.0,0.0,0.0,0.0,1.7145651578903198,0.010444088316903223,0.06419745579108384,0.01016549019975252,-0.014475768432021141,-0.02967163734138012,0.0
96,5,7.942127558635548e-05,-7.859287870815024e-05,-0.0003814522351603955,-0.00019083614461123943,0.001747064758092165,0.006858783308416605,0.0,0.0,0.0,0.0,0.0,0.0,0.0,0.0,0.0,-0.0022910721600055695,-7.015744631644338e-05,-0.0,0.0,0.0,0.0,0.0,0.0,0.0,0.0,0.0,0.0,0.0,0.0,0.0,0.0,0.0,0.0,0.0,0.0,0.0,0.0,0.0,0.0,0.0,1.6447001695632935,0.010491056601419392,0.06375615988024509,0.010776017262347377,0.0002780425420496613,-0.006984468549489975,0.0
103,7,8.620550215709955e-05,-9.462120942771435e-05,-0.00043600748176686466,0.000737772963475436,0.0026222257874906063,0.009290143847465515,0.0,0.0,0.0,0.0,0.0,0.0,0.0,0.0,0.0,-0.0022910721600055695,-7.015744631644338e-05,-0.0,0.0,0.0,0.0,0.0,0.0,0.0,0.0,0.0,0.0,0.0,0.0,0.0,0.0,0.0,0.0,0.0,0.0,0.0,0.0,0.0,0.0,0.0,1.6447001695632935,0.011172952364197035,0.06317564885682987,0.01074064629099982,0.0002780425420496613,-0.006984468549489975,0.0
109,5,8.59813517308794e-05,-7.542608364019543e-05,-0.0004255325475241989,0.00026821059873327613,-0.001254524802789092,0.0024590645916759968,0.0,0.0,0.0,0.0,0.0,0.0,0.0,0.0,0.0,-0.0022910721600055695,-7.015744631644338e-05,-0.0,0.0,0.0,0.0,0.0,0.0,0.0,0.0,0.0,0.0,0.0,0.0,0.0,0.0,0.0,0.0,0.0,0.0,0.0,0.0,0.0,0.0,0.0,1.6447001695632935,0.011531062903224445,0.0636816975291342,0.009921680289205528,0.0002780425420496613,-0.006984468549489975,0.0
114,5,0.00010919607302639633,-8.498837269144133e-05,-0.00043648298014886677,0.0024940534494817257,0.00039871910121291876,-0.0006327477167360485,0.0,0.0,0.0,0.0,0.0,0.0,0.0,0.0,0.0,0.0014124828157946467,0.0003748972958419472,-0.0,0.0,0.0,0.0,0.0,0.0,0.0,0.0,0.0,0.0,0.0,0.0,0.0,0.0,0.0,0.0,0.0,0.0,0.0,0.0,0.0,0.0,0.0,1.6380559206008911,0.014033866637258313,0.0641652326191147,0.009613631658932796,-0.001479764119721949,0.004288645926862955,0.0
119,5,0.00011523214197950438,-6.667042907793075e-05,-0.00041614024667069316,0.0017219496658071876,-0.0020386651158332825,-0.0026942286640405655,0.0,0.0,0.0,0.0,0.0,0.0,0.0,0.0,0.0,0.0014124828157946467,0.0003748972958419472,-0.0,0.0,0.0,0.0,0.0,0.0,0.0,0.0,0.0,0.0,0.0,0.0,0.0,0.0,0.0,0.0,0.0,0.0,0.0,0.0,0.0,0.0,0.0,1.6380559206008911,0.012796294595406014,0.06392403264647745,0.009700597768743182,-0.001479764119721949,0.004288645926862955,0.0
124,5,0.00011523214197950438,-6.667042907793075e-05,-0.00041614024667069316,0.0017219496658071876,-0.0020386651158332825,-0.0026942286640405655,0.0,0.0,0.0,0.0,0.0,0.0,0.0,0.0,0.0,0.0023746821098029613,0.0017803619848564267,-0.0,0.0,0.0,0.0,0.0,0.0,0.0,0.0,0.0,0.0,0.0,0.0,0.0,0.0,0.0,0.0,0.0,0.0,0.0,0.0,0.0,0.0,0.0,1.6532737016677856,0.012796294595406014,0.06392403264647745,0.009700597768743182,-0.007092568092048168,0.007277094759047031,0.0
129,5,0.00010099025530507788,-7.409663521684706e-05,-0.0004337356658652425,-0.0010202463017776608,7.567810826003551e-05,0.0010337588610127568,0.0,0.0,0.0,0.0,0.0,0.0,0.0,0.0,0.0,0.0023746821098029613,0.0017803619848564267,-0.0,0.0,0.0,0.0,0.0,0.0,0.0,0.0,0.0,0.0,0.0,0.0,0.0,0.0,0.0,0.0,0.0,0.0,0.0,0.0,0.0,0.0,0.0,1.6532737016677856,0.011996025535956386,0.06289955996436898,0.009961210825582587,-0.007092568092048168,0.007277094759047031,0.0
134,5,0.00010714046220527962,-8.592524682171643e-05,-0.0004358195001259446,-0.00061187514802441,0.0012694211909547448,0.0009979072492569685,0.0,0.0,0.0,0.0,0.0,0.0,0.0,0.0,0.0,-0.00022862738114781678,-0.0008297500316984951,-0.0,0.0,0.0,0.0,0.0,0.0,0.0,0.0,0.0,0.0,0.0,0.0,0.0,0.0,0.0,0.0,0.0,0.0,0.0,0.0,0.0,0.0,0.0,1.6348142623901367,0.011934599666942802,0.06425209661745643,0.010240066256177202,0.0032686435151845217,-0.000692795729264617,0.0
139,5,0.00011239120794925839,-7.663018186576664e-05,-0.0004556824278552085,0.00038533980841748416,-0.0006076398422010243,0.0027827154844999313,0.0,0.0,0.0,0.0,0.0,0.0,0.0,0.0,0.0,-0.00022862738114781678,-0.0008297500316984951,-0.0,0.0,0.0,0.0,0.0,0.0,0.0,0.0,0.0,0.0,0.0,0.0,0.0,0.0,0.0,0.0,0.0,0.0,0.0,0.0,0.0,0.0,0.0,1.6348142623901367,0.012927156158069386,0.06413357722351583,0.010013575487486492,0.0032686435151845217,-0.000692795729264617,0.0
144,5,0.00010285414464306086,-8.758144394960254e-05,-0.00046053092228248715,-0.0009903119644150138,0.0010710954666137695,0.001694904058240354,0.0,0.0,0.0,0.0,0.0,0.0,0.0,0.0,0.0,0.0006128836539573967,0.0005247974768280983,-0.0,0.0,0.0,0.0,0.0,0.0,0.0,0.0,0.0,0.0,0.0,0.0,0.0,0.0,0.0,0.0,0.0,0.0,0.0,0.0,0.0,0.0,0.0,1.6332823038101196,0.011905156731177037,0.06385611467061837,0.010055274337582834,-0.0020654029212892056,0.0018554438138380647,0.0
149,5,0.000104273967735935,-7.484149682568386e-05,-0.0004205135628581047,-0.00022574640752281994,-0.0011003549443557858,-0.004124121740460396,0.0,0.0,0.0,0.0,0.0,0.0,0.0,0.0,0.0,0.0012244428507983685,-6.861081055831164e-05,-0.0,0.0,0.0,0.0,0.0,0.0,0.0,0.0,0.0,0.0,0.0,0.0,0.0,0.0,0.0,0.0,0.0,0.0,0.0,0.0,0.0,0.0,0.0,1.6358486413955688,0.0132368235252422,0.06470800311708565,0.009220722207489367,0.00027045016759075224,0.003712701378390193,0.0
156,7,0.00011590075882850215,-6.144536746433005e-05,-0.0004291438090149313,0.0013049165718257427,-0.002047677291557193,-0.0006140178302302957,0.0,0.0,0.0,0.0,0.0,0.0,0.0,0.0,0.0,0.0012244428507983685,-6.861081055831164e-05,-0.0,0.0,0.0,0.0,0.0,0.0,0.0,0.0,0.0,0.0,0.0,0.0,0.0,0.0,0.0,0.0,0.0,0.0,0.0,0.0,0.0,0.0,0.0,1.6358486413955688,0.013027462230982053,0.06447245065710906,0.009262678958389588,0.00027045016759075224,0.003712701378390193,0.0
161,5,9.104341734200716e-05,-8.473628986394033e-05,-0.0004445775120984763,-0.0024609144311398268,0.001975839724764228,0.0016064344672486186,0.0,0.0,0.0,0.0,0.0,0.0,0.0,0.0,0.0,0.0012244428507983685,-6.861081055831164e-05,-0.0,0.0,0.0,0.0,0.0,0.0,0.0,0.0,0.0,0.0,0.0,0.0,0.0,0.0,0.0,0.0,0.0,0.0,0.0,0.0,0.0,0.0,0.0,1.6358486413955688,0.012403616038817502,0.06378995622870388,0.009802146531678997,0.00027045016759075224,0.003712701378390193,0.0
166,5,0.00010348431533202529,-6.924314220668748e-05,-0.0004203776188660413,0.000508541997987777,-0.001068842364475131,-0.0022614109329879284,0.0,0.0,0.0,0.0,0.0,0.0,0.0,0.0,0.0,-0.002564019523561001,-0.0021843959111720324,-0.0,0.0,0.0,0.0,0.0,0.0,0.0,0.0,0.0,0.0,0.0,0.0,0.0,0.0,0.0,0.0,0.0,0.0,0.0,0.0,0.0,0.0,0.0,1.6575742959976196,0.013072564329850786,0.0643938837934934,0.009373398378529721,0.008724779821932316,-0.007877746596932411,0.0
171,5,0.00010167681466555223,-6.802176358178258e-05,-0.0004175754729658365,-1.348319165117573e-05,-0.0005741019267588854,-0.0012408217880874872,0.0,0.0,0.0,0.0,0.0,0.0,0.0,0.0,0.0,-0.002564019523561001,-0.0021843959111720324,-0.0,0.0,0.0,0.0,0.0,0.0,0.0,0.0,0.0,0.0,0.0,0.0,0.0,0.0,0.0,0.0,0.0,0.0,0.0,0.0,0.0,0.0,0.0,1.6575742959976196,0.011813194354802027,0.06391391522678809,0.009792285572885378,0.008724779821932316,-0.007877746596932411,0.0
176,5,0.00010633034980855882,-8.183200407074764e-05,-0.00045874514034949243,0.0005530315102078021,0.001427588053047657,0.004444031976163387,0.0,0.0,0.0,0.0,0.0,0.0,0.0,0.0,0.0,0.000587622809689492,0.0001302762102568522,-0.0,0.0,0.0,0.0,0.0,0.0,0.0,0.0,0.0,0.0,0.0,0.0,0.0,0.0,0.0,0.0,0.0,0.0,0.0,0.0,0.0,0.0,0.0,1.630764126777649,0.01156689523762392,0.06314763105405653,0.010263913524036742,-0.0005119270645081997,0.0017762263305485249,0.0
181,5,9.417215915163979e-05,-8.218118455260992e-05,-0.0004639463732019067,-0.0012377708917483687,0.0006129364483058453,0.002401758451014757,0.0,0.0,0.0,0.0,0.0,0.0,0.0,0.0,0.0,-0.0009061933378688991,-0.0010431016562506557,-0.0,0.0,0.0,0.0,0.0,0.0,0.0,0.0,0.0,0.0,0.0,0.0,0.0,0.0,0.0,0.0,0.0,0.0,0.0,0.0,0.0,0.0,0.0,1.6391899585723877,0.013128209812898153,0.06350611755177014,0.009610266464859902,0.00412009796127677,-0.0027533320244401693,0.0
187,5,9.546622459311038e-05,-9.412724466528744e-05,-0.00042897090315818787,-0.0003398202534299344,0.001678702188655734,-0.003236353863030672,0.0,0.0,0.0,0.0,0.0,0.0,0.0,0.0,0.0,-0.0009061933378688991,-0.0010431016562506557,-0.0,0.0,0.0,0.0,0.0,0.0,0.0,0.0,0.0,0.0,0.0,0.0,0.0,0.0,0.0,0.0,0.0,0.0,0.0,0.0,0.0,0.0,0.0,1.6391899585723877,0.013132221479004029,0.06425436406945184,0.009783560609321378,0.00412009796127677,-0.0027533320244401693,0.0
192,5,8.878528751665726e-05,-0.00010390667011961341,-0.00044658989645540714,-0.000937640608754009,0.0018450116040185094,0.0008197391289286315,0.0,0.0,0.0,0.0,0.0,0.0,0.0,0.0,0.0,-0.0009061933378688991,-0.0010431016562506557,-0.0,0.0,0.0,0.0,0.0,0.0,0.0,0.0,0.0,0.0,0.0,0.0,0.0,0.0,0.0,0.0,0.0,0.0,0.0,0.0,0.0,0.0,0.0,1.6391899585723877,0.012549361186649646,0.06306247480272827,0.010387968660426006,0.00412009796127677,-0.0027533320244401693,0.0
197,5,9.369512554258108e-05,-9.196039900416508e-05,-0.00040889729280024767,0.00021412441856227815,-0.0006955480203032494,-0.004195216577500105,0.0,0.0,0.0,0.0,0.0,0.0,0.0,0.0,0.0,0.0006937994039617479,0.00033612578408792615,-0.0,0.0,0.0,0.0,0.0,0.0,0.0,0.0,0.0,0.0,0.0,0.0,0.0,0.0,0.0,0.0,0.0,0.0,0.0,0.0,0.0,0.0,0.0,1.6324808597564697,0.012294312289001375,0.06385440367832061,0.00995860979559287,-0.0013222139095887542,0.0020993773359805346,0.0
202,5,8.599432476330549e-05,-7.853900751797482e-05,-0.00042712417780421674,-0.0008384460234083235,-0.0018887862097471952,0.0005091394414193928,0.0,0.0,0.0,0.0,0.0,0.0,0.0,0.0,0.0,0.0006937994039617479,0.00033612578408792615,-0.0,0.0,0.0,0.0,0.0,0.0,0.0,0.0,0.0,0.0,0.0,0.0,0.0,0.0,0.0,0.0,0.0,0.0,0.0,0.0,0.0,0.0,0.0,1.6324808597564697,0.012296868066124867,0.06308111678450433,0.010236212625863687,-0.0013222139095887542,0.0020993773359805346,0.0
207,5,9.035595576278865e-05,-7.230379560496658e-05,-0.0004340999876148999,0.00018801726400852203,-0.0015037397388368845,0.0010407536756247282,0.0,0.0,0.0,0.0,0.0,0.0,0.0,0.0,0.0,0.0006937994039617479,0.00033612578408792615,-0.0,0.0,0.0,0.0,0.0,0.0,0.0,0.0,0.0,0.0,0.0,0.0,0.0,0.0,0.0,0.0,0.0,0.0,0.0,0.0,0.0,0.0,0.0,1.6324808597564697,0.01162898523699193,0.06365661544396783,0.010195926932617318,-0.0013222139095887542,0.0020993773359805346,0.0
212,5,0.00010586937423795462,-6.530194514198229e-05,-0.0004315418191254139,0.0019368164939805865,-0.0014417176134884357,0.00010931889119092375,0.0,0.0,0.0,0.0,0.0,0.0,0.0,0.0,0.0,0.0017227529315277934,0.00030518288258463144,-0.0,0.0,0.0,0.0,0.0,0.0,0.0,0.0,0.0,0.0,0.0,0.0,0.0,0.0,0.0,0.0,0.0,0.0,0.0,0.0,0.0,0.0,0.0,1.6403274536132812,0.012304749843420665,0.06414489802929453,0.009921451179640895,-0.0012062628520652652,0.005237954203039408,0.0
217,5,8.04927694844082e-05,-6.823991134297103e-05,-0.00046052245306782424,-0.0022704654838889837,-0.00022413101396523416,0.0035214051604270935,0.0,0.0,0.0,0.0,0.0,0.0,0.0,0.0,0.0,0.0017227529315277934,0.00030518288258463144,-0.0,0.0,0.0,0.0,0.0,0.0,0.0,0.0,0.0,0.0,0.0,0.0,0.0,0.0,0.0,0.0,0.0,0.0,0.0,0.0,0.0,0.0,0.0,1.6403274536132812,0.011794038721285784,0.062150807209932844,0.010450825193888895,-0.0012062628520652652,0.005237954203039408,0.0
222,5,0.00010478759213583544,-9.231250442098826e-05,-0.0004425611987244338,0.002007192699238658,0.00279905810020864,-0.0007467878749594092,0.0,0.0,0.0,0.0,0.0,0.0,0.0,0.0,0.0,0.0001511231967015192,-0.002031874842941761,-0.0,0.0,0.0,0.0,0.0,0.0,0.0,0.0,0.0,0.0,0.0,0.0,0.0,0.0,0.0,0.0,0.0,0.0,0.0,0.0,0.0,0.0,0.0,1.6476472616195679,0.013447691018113333,0.0639183802850883,0.00975969683605546,0.008067013695836067,0.00046153421862982213,0.0
227,5,8.912786142900586e-05,-8.738123142393306e-05,-0.0004162367549724877,-0.0010762905003502965,0.000527871074154973,-0.003457649378105998,0.0,0.0,0.0,0.0,0.0,0.0,0.0,0.0,0.0,-0.0008118461119011045,-0.0008974538068287075,-0.0,0.0,0.0,0.0,0.0,0.0,0.0,0.0,0.0,0.0,0.0,0.0,0.0,0.0,0.0,0.0,0.0,0.0,0.0,0.0,0.0,0.0,0.0,1.6374517679214478,0.013570009488635577,0.06361479672672028,0.009638665855895106,0.003541052108630538,-0.0024640567135065794,0.0
233,6,-0.00013724231394007802,0.00010697374818846583,0.0004598559462465346,-0.02759493701159954,-0.02311144955456257,-0.10651418566703796,0.0,0.0,0.0,0.0,0.0,0.0,0.0,0.0,0.0,-0.0008118461119011045,-0.0008974538068287075,-0.0,0.0,0.0,0.0,0.0,0.0,0.0,0.0,0.0,0.0,0.0,0.0,0.0,0.0,0.0,0.0,0.0,0.0,0.0,0.0,0.0,0.0,0.0,1.6374517679214478,-0.0056449299349821645,0.07174436784862777,0.006303027958539764,0.003541052108630538,-0.0024640567135065794,0.0
238,5,-0.00012402750144246966,0.00013354317343328148,0.0004970745067112148,-0.009452198632061481,-0.012432911433279514,-0.047071900218725204,0.0,0.0,0.0,0.0,0.0,0.0,0.0,0.0,0.0,-0.0008118461119011045,-0.0008974538068287075,-0.0,0.0,0.0,0.0,0.0,0.0,0.0,0.0,0.0,0.0,0.0,0.0,0.0,0.0,0.0,0.0,0.0,0.0,0.0,0.0,0.0,0.0,0.0,1.6374517679214478,-0.006135084436007341,0.0727333853297283,0.00585983879800145,0.003541052108630538,-0.0024640567135065794,0.0
243,5,-0.0001457565522287041,7.688502228120342e-05,0.00042377060162834823,-0.0063883643597364426,0.0018258143682032824,-0.010032295249402523,0.0,0.0,0.0,0.0,0.0,0.0,0.0,0.0,0.0,0.014316204935312271,-0.008401104249060154,-0.0,0.0,0.0,0.0,0.0,0.0,0.0,0.0,0.0,0.0,0.0,0.0,0.0,0.0,0.0,0.0,0.0,0.0,0.0,0.0,0.0,0.0,0.0,1.784641981124878,-0.006807480685151992,0.0698366889558244,0.00818481477260254,0.03612349554896355,0.047354429960250854,0.0
248,5,-0.0001282195735257119,0.00013549704453907907,0.0005073475185781717,-0.0004509090504143387,-0.006303117144852877,-0.014042146503925323,0.0,0.0,0.0,0.0,0.0,0.0,0.0,0.0,0.0,0.014316204935312271,-0.008401104249060154,-0.0,0.0,0.0,0.0,0.0,0.0,0.0,0.0,0.0,0.0,0.0,0.0,0.0,0.0,0.0,0.0,0.0,0.0,0.0,0.0,0.0,0.0,0.0,1.784641981124878,-0.007332846652381766,0.0724335226909909,0.006246279111878753,0.03612349554896355,0.047354429960250854,0.0
253,5,-0.00013527025294024497,9.58954551606439e-05,0.00043059451854787767,-0.0010264437878504395,0.0022309438791126013,0.003593500703573227,0.0,0.0,0.0,0.0,0.0,0.0,0.0,0.0,0.0,0.007774251978844404,-0.000586809532251209,-0.0,0.0,0.0,0.0,0.0,0.0,0.0,0.0,0.0,0.0,0.0,0.0,0.0,0.0,0.0,0.0,0.0,0.0,0.0,0.0,0.0,0.0,0.0,1.6918243169784546,-0.0067052797305505564,0.0711307136039794,0.007568992490473695,0.0023921653628349304,0.02437892183661461,0.0
260,6,-0.00013100897194817662,9.904834587359801e-05,0.00041494128527119756,-0.000868719769641757,0.0009532571421004832,0.003581523196771741,0.0,0.0,0.0,0.0,0.0,0.0,0.0,0.0,0.0,-0.000998036121018231,-0.0010062314104288816,-0.0,0.0,0.0,0.0,0.0,0.0,0.0,0.0,0.0,0.0,0.0,0.0,0.0,0.0,0.0,0.0,0.0,0.0,0.0,0.0,0.0,0.0,0.0,1.6393095254898071,-0.004957855666969247,0.07139162813540574,0.0069078535020596805,0.003974755760282278,-0.003032603533938527,0.0
265,5,-0.00010881230264203623,9.14101765374653e-05,0.0003778694663196802,0.0023161114659160376,0.0012978834565728903,0.005881228484213352,0.0,0.0,0.0,0.0,0.0,0.0,0.0,0.0,0.0,-0.000998036121018231,-0.0010062314104288816,-0.0,0.0,0.0,0.0,0.0,0.0,0.0,0.0,0.0,0.0,0.0,0.0,0.0,0.0,0.0,0.0,0.0,0.0,0.0,0.0,0.0,0.0,0.0,1.6393095254898071,-0.0035989623932222103,0.07194332769890602,0.006555257981847706,0.003974755760282278,-0.003032603533938527,0.0
270,5,-0.00013846713409293443,0.00012852821964770555,0.00045990757644176483,-0.0026321355253458023,-0.0039350115694105625,-0.007492084056138992,0.0,0.0,0.0,0.0,0.0,0.0,0.0,0.0,0.0,-0.000998036121018231,-0.0010062314104288816,-0.0,0.0,0.0,0.0,0.0,0.0,0.0,0.0,0.0,0.0,0.0,0.0,0.0,0.0,0.0,0.0,0.0,0.0,0.0,0.0,0.0,0.0,0.0,1.6393095254898071,-0.0068009481474011245,0.07188289144568802,0.006264706193946792,0.010629069060087204,0.01546099316328764,0.0
275,5,-0.0001284168683923781,0.0001232984068337828,0.00046735903015360236,0.0001531789603177458,-0.0009464278700761497,-0.003891006577759981,0.0,0.0,0.0,0.0,0.0,0.0,0.0,0.0,0.0,0.004975580610334873,-0.002631242386996746,-0.0,0.0,0.0,0.0,0.0,0.0,0.0,0.0,0.0,0.0,0.0,0.0,0.0,0.0,0.0,0.0,0.0,0.0,0.0,0.0,0.0,0.0,0.0,1.6764411926269531,-0.006295183826528387,0.0723460819775288,0.006213788431303231,0.010629069060087204,0.01546099316328764,0.0
280,5,-0.00011444097617641091,0.0001286474580410868,0.00047175915096886456,0.0017383778467774391,-0.0010204570135101676,-0.002084415638819337,0.0,0.0,0.0,0.0,0.0,0.0,0.0,0.0,0.0,0.004975580610334873,-0.002631242386996746,-0.0,0.0,0.0,0.0,0.0,0.0,0.0,0.0,0.0,0.0,0.0,0.0,0.0,0.0,0.0,0.0,0.0,0.0,0.0,0.0,0.0,0.0,0.0,1.6764411926269531,-0.006987978831049282,0.07246316256651579,0.006300650546253995,0.010629069060087204,0.01546099316328764,0.0
285,5,-0.00011732285929610953,0.00011949955660384148,0.0004584390262607485,0.0003495254786685109,0.0006895654951222241,0.0007646479643881321,0.0,0.0,0.0,0.0,0.0,0.0,0.0,0.0,0.0,0.00148568965960294,0.0014856462366878986,-0.0,0.0,0.0,0.0,0.0,0.0,0.0,0.0,0.0,0.0,0.0,0.0,0.0,0.0,0.0,0.0,0.0,0.0,0.0,0.0,0.0,0.0,0.0,1.6458996534347534,-0.00701466680661996,0.07227043385115837,0.006615428352839019,-0.005892098881304264,0.004532519727945328,0.0
290,5,-0.000111450906842947,0.00011429803998908028,0.0004762807220686227,0.00084444391541183,0.000900007551535964,-0.0018351443577557802,0.0,0.0,0.0,0.0,0.0,0.0,0.0,0.0,0.0,-0.0009061562013812363,0.0006483772303909063,-0.0,0.0,0.0,0.0,0.0,0.0,0.0,0.0,0.0,0.0,0.0,0.0,0.0,0.0,0.0,0.0,0.0,0.0,0.0,0.0,0.0,0.0,0.0,1.6359301805496216,-0.006080018655391192,0.07252790441775842,0.0063758230728832264,-0.0025559021160006523,-0.0027477440889924765,0.0
295,5,-0.00010284365271218121,0.00010977704368997365,0.0004444196238182485,0.001370648737065494,0.0009025227627716959,0.003089273814111948,0.0,0.0,0.0,0.0,0.0,0.0,0.0,0.0,0.0,-0.0009061562013812363,0.0006483772303909063,-0.0,0.0,0.0,0.0,0.0,0.0,0.0,0.0,0.0,0.0,0.0,0.0,0.0,0.0,0.0,0.0,0.0,0.0,0.0,0.0,0.0,0.0,0.0,1.6359301805496216,-0.006057323769691525,0.07234461054785775,0.006564546720449853,-0.0025559021160006523,-0.0027477440889924765,0.0
301,5,-0.00011696280125761405,6.0844777181046084e-05,0.0003887274069711566,-0.001146038994193077,0.006232880987226963,0.007918776012957096,0.0,0.0,0.0,0.0,0.0,0.0,0.0,0.0,0.0,-0.0009061562013812363,0.0006483772303909063,-0.0,0.0,0.0,0.0,0.0,0.0,0.0,0.0,0.0,0.0,0.0,0.0,0.0,0.0,0.0,0.0,0.0,0.0,0.0,0.0,0.0,0.0,0.0,1.6359301805496216,-0.003987706421723383,0.07178348184235543,0.006763404852353132,-0.0025559021160006523,-0.0027477440889924765,0.0
306,5,-0.00011115779489045963,8.507949678460136e-05,0.0003676382184494287,0.0002381853701081127,-0.00041501360828988254,0.005698210559785366,0.0,0.0,0.0,0.0,0.0,0.0,0.0,0.0,0.0,-0.007358069531619549,-0.0012133815325796604,-0.0,0.0,0.0,0.0,0.0,0.0,0.0,0.0,0.0,0.0,0.0,0.0,0.0,0.0,0.0,0.0,0.0,0.0,0.0,0.0,0.0,0.0,0.0,1.6893255710601807,-0.00501736416661184,0.07116593791937983,0.007353656330165156,0.004939133767038584,-0.0230397991836071,0.0
311,5,-9.262650564778596e-05,6.322568515315652e-05,0.0003031322848983109,0.002319028601050377,0.0024564513005316257,0.0100199980661273,0.0,0.0,0.0,0.0,0.0,0.0,0.0,0.0,0.0,-0.0028838373254984617,0.002049060072749853,-0.0,0.0,0.0,0.0,0.0,0.0,0.0,0.0,0.0,0.0,0.0,0.0,0.0,0.0,0.0,0.0,0.0,0.0,0.0,0.0,0.0,0.0,0.0,1.6584190130233765,-0.0029025680988366835,0.07065115297350878,0.007859426079370376,-0.008188394829630852,-0.0088648721575737,0.0
316,5,-5.6185494031524286e-05,3.4913286071969196e-05,0.00019129591237287968,0.005300533026456833,0.004380068741738796,0.017428362742066383,0.0,0.0,0.0,0.0,0.0,0.0,0.0,0.0,0.0,-0.0028838373254984617,0.002049060072749853,-0.0,0.0,0.0,0.0,0.0,0.0,0.0,0.0,0.0,0.0,0.0,0.0,0.0,0.0,0.0,0.0,0.0,0.0,0.0,0.0,0.0,0.0,0.0,1.6584190130233765,-0.0018219422090849167,0.06904709653184561,0.008783021169186722,-0.008188394829630852,-0.0088648721575737,0.0
321,5,-1.9162687749485485e-05,2.7124300686409697e-05,0.00012440714635886252,0.00656295008957386,0.002686705905944109,0.014997998252511024,0.0,0.0,0.0,0.0,0.0,0.0,0.0,0.0,0.0,-0.0028838373254984617,0.002049060072749853,-0.0,0.0,0.0,0.0,0.0,0.0,0.0,0.0,0.0,0.0,0.0,0.0,0.0,0.0,0.0,0.0,0.0,0.0,0.0,0.0,0.0,0.0,0.0,1.6584190130233765,0.0006730260320826526,0.06850660820387725,0.00875056199356809,-0.008188394829630852,-0.0088648721575737,0.0
326,5,1.295711535931332e-05,-2.10412654269021e-05,-2.6211700969724916e-05,0.006479556206613779,0.006854550447314978,0.024073461070656776,0.0,0.0,0.0,0.0,0.0,0.0,0.0,0.0,0.0,-0.003155858488753438,0.005993223283439875,-0.0,0.0,0.0,0.0,0.0,0.0,0.0,0.0,0.0,0.0,0.0,0.0,0.0,0.0,0.0,0.0,0.0,0.0,0.0,0.0,0.0,0.0,0.0,1.6970086097717285,0.00255591785989575,0.06627636629557192,0.010187576499417582,-0.024507084861397743,-0.009926789440214634,0.0
331,5,4.908294431515969e-05,-2.180429146392271e-05,-0.00010880989430006593,0.0069269221276044846,0.002833383157849312,0.019541166722774506,0.0,0.0,0.0,0.0,0.0,0.0,0.0,0.0,0.0,-0.003155858488753438,0.005993223283439875,-0.0,0.0,0.0,0.0,0.0,0.0,0.0,0.0,0.0,0.0,0.0,0.0,0.0,0.0,0.0,0.0,0.0,0.0,0.0,0.0,0.0,0.0,0.0,1.6970086097717285,0.005521142293159378,0.06655628766406022,0.009642918898936342,-0.024507084861397743,-0.009926789440214634,0.0
336,5,4.629069735528901e-05,-6.11382638453506e-05,-0.00022068833641242236,0.0024356991052627563,0.005853429902344942,0.02124188095331192,0.0,0.0,0.0,0.0,0.0,0.0,0.0,0.0,0.0,-0.003406004048883915,0.0063995057716965675,-0.0,0.0,0.0,0.0,0.0,0.0,0.0,0.0,0.0,0.0,0.0,0.0,0.0,0.0,0.0,0.0,0.0,0.0,0.0,0.0,0.0,0.0,0.0,1.7021394968032837,0.006957520352575158,0.06509107775418957,0.010134312191707101,-0.026247503235936165,-0.010746012441813946,0.0
341,5,7.975632615853101e-05,-7.390251994365826e-05,-0.0002883182023651898,0.0049901544116437435,0.0038730830419808626,0.016612336039543152,0.0,0.0,0.0,0.0,0.0,0.0,0.0,0.0,0.0,-0.003406004048883915,0.0063995057716965675,-0.0,0.0,0.0,0.0,0.0,0.0,0.0,0.0,0.0,0.0,0.0,0.0,0.0,0.0,0.0,0.0,0.0,0.0,0.0,0.0,0.0,0.0,0.0,1.7021394968032837,0.008725283937438872,0.06473313899673505,0.010272710256456567,-0.026247503235936165,-0.010746012441813946,0.0
346,5,7.407227531075478e-05,-8.546798198949546e-05,-0.0003338380192872137,0.0013139760121703148,0.002937088720500469,0.012107310816645622,0.0,0.0,0.0,0.0,0.0,0.0,0.0,0.0,0.0,-0.0047631640918552876,0.004699995741248131,-0.0,0.0,0.0,0.0,0.0,0.0,0.0,0.0,0.0,0.0,0.0,0.0,0.0,0.0,0.0,0.0,0.0,0.0,0.0,0.0,0.0,0.0,0.0,1.6912497282028198,0.009980337208263888,0.06450868888974332,0.010362254756732331,-0.01915360614657402,-0.014931686222553253,0.0
351,5,8.261555194621906e-05,-5.567774860537611e-05,-0.00033662523492239416,0.0015507836360484362,-0.00239999289624393,0.005177392158657312,0.0,0.0,0.0,0.0,0.0,0.0,0.0,0.0,0.0,-0.0047631640918552876,0.004699995741248131,-0.0,0.0,0.0,0.0,0.0,0.0,0.0,0.0,0.0,0.0,0.0,0.0,0.0,0.0,0.0,0.0,0.0,0.0,0.0,0.0,0.0,0.0,0.0,1.6912497282028198,0.0098454672088183,0.06491209495263507,0.00998004146459015,-0.01915360614657402,-0.014931686222553253,0.0
356,5,9.538794256513938e-05,-8.917048398870975e-05,-0.00039998756255954504,0.0021530003286898136,0.003059131558984518,0.009674434550106525,0.0,0.0,0.0,0.0,0.0,0.0,0.0,0.0,0.0,0.002833947306498885,0.0015729495789855719,-0.0,0.0,0.0,0.0,0.0,0.0,0.0,0.0,0.0,0.0,0.0,0.0,0.0,0.0,0.0,0.0,0.0,0.0,0.0,0.0,0.0,0.0,0.0,1.6547788381576538,0.010050325444987244,0.06428770279102847,0.010840511296953185,-0.006271981168538332,0.008692390285432339,0.0
361,5,9.232023148797452e-05,-6.581787602044642e-05,-0.0003767126181628555,0.0004930745926685631,-0.0015786603325977921,0.0010767823550850153,0.0,0.0,0.0,0.0,0.0,0.0,0.0,0.0,0.0,0.002833947306498885,0.0015729495789855719,-0.0,0.0,0.0,0.0,0.0,0.0,0.0,0.0,0.0,0.0,0.0,0.0,0.0,0.0,0.0,0.0,0.0,0.0,0.0,0.0,0.0,0.0,0.0,1.6547788381576538,0.011328103677004233,0.06481952375990158,0.00962452202361235,-0.006271981168538332,0.008692390285432339,0.0
366,5,-0.0001401684567099437,0.00011670724779833108,0.0004733813984785229,-0.02770141139626503,-0.022534480318427086,-0.10158056765794754,0.0,0.0,0.0,0.0,0.0,0.0,0.0,0.0,0.0,0.00182549306191504,0.0005962413852103055,-0.0,0.0,0.0,0.0,0.0,0.0,0.0,0.0,0.0,0.0,0.0,0.0,0.0,0.0,0.0,0.0,0.0,0.0,0.0,0.0,0.0,0.0,0.0,1.6421188116073608,-0.006812973422946671,0.07191144870756452,0.006720967759183389,-0.0023592710494995117,0.005556392017751932,0.0
371,5,-0.000128839528770186,0.00013709274935536087,0.0004975480842404068,-0.009721094742417336,-0.011460051871836185,-0.04353222995996475,0.0,0.0,0.0,0.0,0.0,0.0,0.0,0.0,0.0,0.00182549306191504,0.0005962413852103055,-0.0,0.0,0.0,0.0,0.0,0.0,0.0,0.0,0.0,0.0,0.0,0.0,0.0,0.0,0.0,0.0,0.0,0.0,0.0,0.0,0.0,0.0,0.0,1.6421188116073608,-0.006524813306001347,0.0722957984235579,0.006191326730520788,-0.0023592710494995117,0.005556392017751932,0.0
376,5,-0.00011812573939096183,0.00011882644321303815,0.0004804066848009825,-0.002602782566100359,-0.0023920638486742973,-0.015355926007032394,0.0,0.0,0.0,0.0,0.0,0.0,0.0,0.0,0.0,0.013262145221233368,-0.008669901639223099,-0.0,0.0,0.0,0.0,0.0,0.0,0.0,0.0,0.0,0.0,0.0,0.0,0.0,0.0,0.0,0.0,0.0,0.0,0.0,0.0,0.0,0.0,0.0,1.7789403200149536,-0.005342323070381903,0.07243394305162376,0.0059250887726923175,0.03716069459915161,0.04372809827327728,0.0
382,5,-0.00014374384772963822,9.142144699580967e-05,0.0004298863059375435,-0.004115284886211157,0.0023317739833146334,-7.992496102815494e-05,0.0,0.0,0.0,0.0,0.0,0.0,0.0,0.0,0.0,0.013262145221233368,-0.008669901639223099,-0.0,0.0,0.0,0.0,0.0,0.0,0.0,0.0,0.0,0.0,0.0,0.0,0.0,0.0,0.0,0.0,0.0,0.0,0.0,0.0,0.0,0.0,0.0,1.7789403200149536,-0.006621444790441239,0.0701271471964627,0.007557965884806303,0.03716069459915161,0.04372809827327728,0.0
387,5,-0.00012718622747343034,0.00014749850379303098,0.00045943327131681144,0.0003407988988328725,-0.005796536803245544,-0.0035776058211922646,0.0,0.0,0.0,0.0,0.0,0.0,0.0,0.0,0.0,-0.0026548458263278008,-0.004019265063107014,-0.0,0.0,0.0,0.0,0.0,0.0,0.0,0.0,0.0,0.0,0.0,0.0,0.0,0.0,0.0,0.0,0.0,0.0,0.0,0.0,0.0,0.0,0.0,1.6749122142791748,-0.006069633973535144,0.07246418316654185,0.005695016956626557,0.016221383586525917,-0.00824212096631527,0.0
392,5,-0.00011920448741875589,0.00011876210919581354,0.0004226317978464067,0.0010941291693598032,0.0011297522578388453,0.0029851363506168127,0.0,0.0,0.0,0.0,0.0,0.0,0.0,0.0,0.0,-0.0026548458263278008,-0.004019265063107014,-0.0,0.0,0.0,0.0,0.0,0.0,0.0,0.0,0.0,0.0,0.0,0.0,0.0,0.0,0.0,0.0,0.0,0.0,0.0,0.0,0.0,0.0,0.0,1.6749122142791748,-0.005677899760966266,0.07195839195696581,0.00616082234508406,0.016221383586525917,-0.00824212096631527,0.0
397,5,-0.0001210160698974505,0.00011042930418625474,0.00038847027462907135,0.0002202618052251637,0.0014518374809995294,0.0052934372797608376,0.0,0.0,0.0,0.0,0.0,0.0,0.0,0.0,0.0,-0.0015924181789159775,4.08959313062951e-05,-0.0,0.0,0.0,0.0,0.0,0.0,0.0,0.0,0.0,0.0,0.0,0.0,0.0,0.0,0.0,0.0,0.0,0.0,0.0,0.0,0.0,0.0,0.0,1.6388781070709229,-0.006018256092625781,0.07126598445605345,0.007249839986914039,-0.0001615020737517625,-0.004837399814277887,0.0
402,5,-0.00011233134137000889,0.00010371983080403879,0.0003996239393018186,0.001130271703004837,0.0013858716702088714,0.0007789340452291071,0.0,0.0,0.0,0.0,0.0,0.0,0.0,0.0,0.0,-0.0015924181789159775,4.08959313062951e-05,-0.0,0.0,0.0,0.0,0.0,0.0,0.0,0.0,0.0,0.0,0.0,0.0,0.0,0.0,0.0,0.0,0.0,0.0,0.0,0.0,0.0,0.0,0.0,1.6388781070709229,-0.005639295730446289,0.07135928948294541,0.0070379731815797325,-0.0001615020737517625,-0.004837399814277887,0.0
407,5,-8.861983951646835e-05,5.9061992942588404e-05,0.0003264181432314217,0.003297489369288087,0.005913289729505777,0.009096268564462662,0.0,0.0,0.0,0.0,0.0,0.0,0.0,0.0,0.0,-0.0015924181789159775,4.08959313062951e-05,-0.0,0.0,0.0,0.0,0.0,0.0,0.0,0.0,0.0,0.0,0.0,0.0,0.0,0.0,0.0,0.0,0.0,0.0,0.0,0.0,0.0,0.0,0.0,1.6928220987319946,-0.0028934819063716503,0.07136038582721199,0.00742950749248024,-0.011878974735736847,-0.021850159391760826,0.0
412,5,-7.726658077444881e-05,1.3120660696586128e-05,0.0002006627037189901,0.0026813861913979053,0.007878275588154793,0.018729161471128464,0.0,0.0,0.0,0.0,0.0,0.0,0.0,0.0,0.0,-0.00696371728554368,0.0029122382402420044,-0.0,0.0,0.0,0.0,0.0,0.0,0.0,0.0,0.0,0.0,0.0,0.0,0.0,0.0,0.0,0.0,0.0,0.0,0.0,0.0,0.0,0.0,0.0,1.6928220987319946,-0.0023579709018725944,0.06806892428690815,0.009260348147769742,-0.011878974735736847,-0.021850159391760826,0.0
417,5,-0.00013062420475762337,0.00011461708345450461,0.0004896929604001343,-0.00533036096021533,-0.009028260596096516,-0.027191970497369766,0.0,0.0,0.0,0.0,0.0,0.0,0.0,0.0,0.0,0.010731933638453484,-0.004956918768584728,-0.0,0.0,0.0,0.0,0.0,0.0,0.0,0.0,0.0,0.0,0.0,0.0,0.0,0.0,0.0,0.0,0.0,0.0,0.0,0.0,0.0,0.0,0.0,1.7337206602096558,-0.00698777613331482,0.07243016438916164,0.00649078029491419,0.020706946030259132,0.03448661044239998,0.0
422,5,-0.00012452418741304427,0.0001322450116276741,0.0005218301666900516,-0.001400141161866486,-0.005726655945181847,-0.014733249321579933,0.0,0.0,0.0,0.0,0.0,0.0,0.0,0.0,0.0,0.010731933638453484,-0.004956918768584728,-0.0,0.0,0.0,0.0,0.0,0.0,0.0,0.0,0.0,0.0,0.0,0.0,0.0,0.0,0.0,0.0,0.0,0.0,0.0,0.0,0.0,0.0,0.0,1.7337206602096558,-0.006239408895618144,0.07337340521077775,0.0054027374875083075,0.020706946030259132,0.03448661044239998,0.0
427,5,-0.000128204541397281,0.00010773792746476829,0.0004789465747307986,-0.00100169877987355,0.0006501880707219243,-0.0007472679717466235,0.0,0.0,0.0,0.0,0.0,0.0,0.0,0.0,0.0,0.010731933638453484,-0.004956918768584728,-0.0,0.0,0.0,0.0,0.0,0.0,0.0,0.0,0.0,0.0,0.0,0.0,0.0,0.0,0.0,0.0,0.0,0.0,0.0,0.0,0.0,0.0,0.0,1.7337206602096558,-0.00721009916777917,0.07220934652772706,0.0070398189179822455,0.020706946030259132,0.03448661044239998,0.0
432,5,-0.0001222920254804194,0.00014637589629273862,0.00046034425031393766,0.00030882167629897594,-0.004376481287181377,0.0019333696691319346,0.0,0.0,0.0,0.0,0.0,0.0,0.0,0.0,0.0,-0.0006073760450817645,-0.001129799522459507,-0.0,0.0,0.0,0.0,0.0,0.0,0.0,0.0,0.0,0.0,0.0,0.0,0.0,0.0,0.0,0.0,0.0,0.0,0.0,0.0,0.0,0.0,0.0,1.6388447284698486,-0.008611216564055753,0.07191263251092679,0.006990667570463534,0.00446160277351737,-0.0018450322095304728,0.0
437,5,-0.00013255288649816066,0.00012575549772009254,0.0004368014051578939,-0.0011077752569690347,0.0007238553371280432,0.0035984916612505913,0.0,0.0,0.0,0.0,0.0,0.0,0.0,0.0,0.0,-0.0006073760450817645,-0.001129799522459507,-0.0,0.0,0.0,0.0,0.0,0.0,0.0,0.0,0.0,0.0,0.0,0.0,0.0,0.0,0.0,0.0,0.0,0.0,0.0,0.0,0.0,0.0,0.0,1.6388447284698486,-0.006495800889740497,0.07206059143540348,0.006715859520520038,0.00446160277351737,-0.0018450322095304728,0.0
442,5,-0.0001259420532733202,0.00010332235251553357,0.00040997492033056915,0.00035019064671359956,0.002981519792228937,0.004658572841435671,0.0,0.0,0.0,0.0,0.0,0.0,0.0,0.0,0.0,-0.000665046798530966,-0.0012357687810435891,-0.0,0.0,0.0,0.0,0.0,0.0,0.0,0.0,0.0,0.0,0.0,0.0,0.0,0.0,0.0,0.0,0.0,0.0,0.0,0.0,0.0,0.0,0.0,1.6400846242904663,-0.005739797078431218,0.07151578378255992,0.006674648324014786,0.004883769433945417,-0.0020217476412653923,0.0
447,5,-0.00011736950546037406,0.00010578954970696941,0.0004304430913180113,0.0011687824735417962,0.0008965447777882218,-0.0005927522433921695,0.0,0.0,0.0,0.0,0.0,0.0,0.0,0.0,0.0,-0.000665046798530966,-0.0012357687810435891,-0.0,0.0,0.0,0.0,0.0,0.0,0.0,0.0,0.0,0.0,0.0,0.0,0.0,0.0,0.0,0.0,0.0,0.0,0.0,0.0,0.0,0.0,0.0,1.6400846242904663,-0.0045797446081834794,0.07160442977422661,0.006348939476935126,0.004883769433945417,-0.0020217476412653923,0.0
453,5,-0.0001029814884532243,9.51686452026479e-05,0.000391477340599522,0.0021940749138593674,0.0016331259394064546,0.004438790492713451,0.0,0.0,0.0,0.0,0.0,0.0,0.0,0.0,0.0,-0.0009150196565315127,0.0009464320028200746,-0.0,0.0,0.0,0.0,0.0,0.0,0.0,0.0,0.0,0.0,0.0,0.0,0.0,0.0,0.0,0.0,0.0,0.0,0.0,0.0,0.0,0.0,0.0,1.6383798122406006,-0.004838443905580567,0.07112954758613545,0.006814611457692339,-0.0037364198360592127,-0.0027787755243480206,0.0
458,5,-8.975969831226394e-05,5.304381556925364e-05,0.00030106736812740564,0.0024642443750053644,0.005708230193704367,0.012624713592231274,0.0,0.0,0.0,0.0,0.0,0.0,0.0,0.0,0.0,-0.0009150196565315127,0.0009464320028200746,-0.0,0.0,0.0,0.0,0.0,0.0,0.0,0.0,0.0,0.0,0.0,0.0,0.0,0.0,0.0,0.0,0.0,0.0,0.0,0.0,0.0,0.0,0.0,1.6383798122406006,-0.0041043992500650155,0.06994055798611225,0.0083950741678733,-0.0037364198360592127,-0.0027787755243480206,0.0
463,5,-5.5022243031999096e-05,5.174491525394842e-05,0.0002451375767122954,0.005154192913323641,0.002439160132780671,0.011761460453271866,0.0,0.0,0.0,0.0,0.0,0.0,0.0,0.0,0.0,-0.006750165950506926,0.0021510079968720675,-0.0,0.0,0.0,0.0,0.0,0.0,0.0,0.0,0.0,0.0,0.0,0.0,0.0,0.0,0.0,0.0,0.0,0.0,0.0,0.0,0.0,0.0,0.0,1.687418818473816,-0.0015345567342383226,0.06972708807687286,0.008138071625919764,-0.008745941333472729,-0.021112510934472084,-0.0
468,5,-1.9136237824568525e-05,-1.524381514173001e-05,9.074222180061042e-05,0.006367997732013464,0.009014311246573925,0.023232026025652885,0.0,0.0,0.0,0.0,0.0,0.0,0.0,0.0,0.0,-0.006750165950506926,0.0021510079968720675,-0.0,0.0,0.0,0.0,0.0,0.0,0.0,0.0,0.0,0.0,0.0,0.0,0.0,0.0,0.0,0.0,0.0,0.0,0.0,0.0,0.0,0.0,0.0,1.687418818473816,0.0003036988265820772,0.06785365671967163,0.009595526970433553,-0.008745941333472729,-0.021112510934472084,-0.0
473,5,7.38511380404816e-06,1.0641709195624571e-05,4.034069934277795e-05,0.005729761440306902,0.0004994617193005979,0.01534099318087101,0.0,0.0,0.0,0.0,0.0,0.0,0.0,0.0,0.0,-0.010526233352720737,0.005680841859430075,-0.0,0.0,0.0,0.0,0.0,0.0,0.0,0.0,0.0,0.0,0.0,0.0,0.0,0.0,0.0,0.0,0.0,0.0,0.0,0.0,0.0,0.0,0.0,1.7368115186691284,0.002711782932627484,0.06802996578668576,0.009311240398108853,-0.023773379623889923,-0.03388595208525658,-0.0
478,5,2.7124495318275876e-05,-5.0065162213286385e-05,-0.00013501646753866225,0.0046606301330029964,0.0074846092611551285,0.027179256081581116,0.0,0.0,0.0,0.0,0.0,0.0,0.0,0.0,0.0,-0.010526233352720737,0.005680841859430075,-0.0,0.0,0.0,0.0,0.0,0.0,0.0,0.0,0.0,0.0,0.0,0.0,0.0,0.0,0.0,0.0,0.0,0.0,0.0,0.0,0.0,0.0,0.0,1.7368115186691284,0.004796940655397877,0.06574660972782952,0.010679982966907016,-0.023773379623889923,-0.03388595208525658,-0.0
483,5,5.66762792004738e-05,-4.663073195843026e-05,-0.0002023786655627191,0.005410466343164444,0.0025817120913416147,0.01895516738295555,0.0,0.0,0.0,0.0,0.0,0.0,0.0,0.0,0.0,-0.00891302153468132,0.0042638955637812614,-0.0,0.0,0.0,0.0,0.0,0.0,0.0,0.0,0.0,0.0,0.0,0.0,0.0,0.0,0.0,0.0,0.0,0.0,0.0,0.0,0.0,0.0,0.0,1.7155213356018066,0.00711511134628747,0.06611186375378973,0.009957203429831488,-0.01762527972459793,-0.0283412616699934,0.0
488,5,6.642935477430001e-05,-5.650196908391081e-05,-0.0002680248289834708,0.0033345555420964956,0.002217233180999756,0.015459605492651463,0.0,0.0,0.0,0.0,0.0,0.0,0.0,0.0,0.0,-0.00891302153468132,0.0042638955637812614,-0.0,0.0,0.0,0.0,0.0,0.0,0.0,0.0,0.0,0.0,0.0,0.0,0.0,0.0,0.0,0.0,0.0,0.0,0.0,0.0,0.0,0.0,0.0,1.7155213356018066,0.008360671180916154,0.06476072695550313,0.010466660689007931,-0.01762527972459793,-0.0283412616699934,0.0
493,5,9.15982891456224e-05,-6.389804184436798e-05,-0.00031466613290831447,0.0043540941551327705,0.0017744216602295637,0.011780800297856331,0.0,0.0,0.0,0.0,0.0,0.0,0.0,0.0,0.0,-0.002790027065202594,0.0032025016844272614,-0.0,0.0,0.0,0.0,0.0,0.0,0.0,0.0,0.0,0.0,0.0,0.0,0.0,0.0,0.0,0.0,0.0,0.0,0.0,0.0,0.0,0.0,0.0,1.66764235496521,0.009478186442734137,0.06510442326063624,0.01011097870896998,-0.012868909165263176,-0.008624200709164143,0.0
498,5,9.844369196798652e-05,-6.05105742579326e-05,-0.0003400190034881234,0.002563085872679949,0.00030327276908792555,0.007754663471132517,0.0,0.0,0.0,0.0,0.0,0.0,0.0,0.0,0.0,-0.002790027065202594,0.0032025016844272614,-0.0,0.0,0.0,0.0,0.0,0.0,0.0,0.0,0.0,0.0,0.0,0.0,0.0,0.0,0.0,0.0,0.0,0.0,0.0,0.0,0.0,0.0,0.0,1.66764235496521,0.010472437215102704,0.06491982690381617,0.009867249370824869,-0.012868909165263176,-0.008624200709164143,0.0
503,5,9.367086022393778e-05,-8.383901149500161e-05,-0.0004074366588611156,0.0004524942778516561,0.0029207218904048204,0.01119198463857174,0.0,0.0,0.0,0.0,0.0,0.0,0.0,0.0,0.0,-0.0004793279804289341,0.0025480114854872227,-0.0,0.0,0.0,0.0,0.0,0.0,0.0,0.0,0.0,0.0,0.0,0.0,0.0,0.0,0.0,0.0,0.0,0.0,0.0,0.0,0.0,0.0,0.0,1.6535320281982422,0.01080800292396394,0.06323717683561726,0.010687159320918769,-0.010152321308851242,-0.0014691086253151298,0.0
509,5,0.0001053155938279815,-8.17419495433569e-05,-0.00041120711830444634,0.0015783662674948573,0.0009166405652649701,0.004929248709231615,0.0,0.0,0.0,0.0,0.0,0.0,0.0,0.0,0.0,-0.0004793279804289341,0.0025480114854872227,-0.0,0.0,0.0,0.0,0.0,0.0,0.0,0.0,0.0,0.0,0.0,0.0,0.0,0.0,0.0,0.0,0.0,0.0,0.0,0.0,0.0,0.0,0.0,1.6535320281982422,0.011607340615103526,0.06408308382841853,0.010202513986249625,-0.010152321308851242,-0.0014691086253151298,0.0
514,5,0.00011171689402544871,-7.947005360620096e-05,-0.0004343882028479129,0.0013995026238262653,9.402903378941119e-05,0.004753428511321545,0.0,0.0,0.0,0.0,0.0,0.0,0.0,0.0,0.0,-0.0012735797790810466,0.0016379952430725098,-0.0,0.0,0.0,0.0,0.0,0.0,0.0,0.0,0.0,0.0,0.0,0.0,0.0,0.0,0.0,0.0,0.0,0.0,0.0,0.0,0.0,0.0,0.0,1.6462714672088623,0.011565957430711331,0.06421015669864573,0.010295614723868302,-0.006497786846011877,-0.003886296646669507,0.0
519,5,0.00010610933532007039,-8.173340029316023e-05,-0.0004354070406407118,-0.0008527725003659725,0.0013492139987647533,0.0018754387274384499,0.0,0.0,0.0,0.0,0.0,0.0,0.0,0.0,0.0,-0.0018096377607434988,-0.0006606131209991872,-0.0,0.0,0.0,0.0,0.0,0.0,0.0,0.0,0.0,0.0,0.0,0.0,0.0,0.0,0.0,0.0,0.0,0.0,0.0,0.0,0.0,0.0,0.0,1.6422839164733887,0.012844404251504776,0.06372365285228383,0.010024332932335215,0.002614246914163232,-0.005508685950189829,0.0
524,5,0.00010610933532007039,-8.173340029316023e-05,-0.0004354070406407118,-0.0008527725003659725,0.0013492139987647533,0.0018754387274384499,0.0,0.0,0.0,0.0,0.0,0.0,0.0,0.0,0.0,-0.0018096377607434988,-0.0006606131209991872,-0.0,0.0,0.0,0.0,0.0,0.0,0.0,0.0,0.0,0.0,0.0,0.0,0.0,0.0,0.0,0.0,0.0,0.0,0.0,0.0,0.0,0.0,0.0,1.6422839164733887,0.012844404251504776,0.06372365285228383,0.010024332932335215,0.002614246914163232,-0.005508685950189829,0.0
529,5,7.360773452091962e-05,-9.479278378421441e-05,-0.0004291018412914127,-0.004241300746798515,0.0021068118512630463,-6.449545253417455e-06,0.0,0.0,0.0,0.0,0.0,0.0,0.0,0.0,0.0,-0.0027151519898325205,-0.0038438797928392887,-0.0,0.0,0.0,0.0,0.0,0.0,0.0,0.0,0.0,0.0,0.0,0.0,0.0,0.0,0.0,0.0,0.0,0.0,0.0,0.0,0.0,0.0,0.0,1.6734204292297363,0.012813339865431761,0.06375979631226388,0.00967450832543871,0.015499728731811047,-0.008421836420893669,0.0
534,5,0.00010500555799808353,-5.438956941361539e-05,-0.00042159680742770433,0.0020712187979370356,-0.004005661234259605,-0.0009031823719851673,0.0,0.0,0.0,0.0,0.0,0.0,0.0,0.0,0.0,-0.0027151519898325205,-0.0038438797928392887,-0.0,0.0,0.0,0.0,0.0,0.0,0.0,0.0,0.0,0.0,0.0,0.0,0.0,0.0,0.0,0.0,0.0,0.0,0.0,0.0,0.0,0.0,0.0,1.6734204292297363,0.012485479338680817,0.06451090426809342,0.009151505525716004,0.015499728731811047,-0.008421836420893669,0.0
539,5,0.00011627515050349757,-8.259344031102955e-05,-0.0004491395375225693,0.0018942086026072502,0.002161184558644891,0.002617812482640147,0.0,0.0,0.0,0.0,0.0,0.0,0.0,0.0,0.0,-0.0027151519898325205,-0.0038438797928392887,-0.0,0.0,0.0,0.0,0.0,0.0,0.0,0.0,0.0,0.0,0.0,0.0,0.0,0.0,0.0,0.0,0.0,0.0,0.0,0.0,0.0,0.0,0.0,1.6734204292297363,0.011878506840698686,0.06373035521414074,0.010338247589953928,0.015499728731811047,-0.008421836420893669,0.0
544,5,0.00011627515050349757,-8.259344031102955e-05,-0.0004491395375225693,0.0018942086026072502,0.002161184558644891,0.002617812482640147,0.0,0.0,0.0,0.0,0.0,0.0,0.0,0.0,0.0,-0.002786693861708045,0.0019393910188227892,-0.0,0.0,0.0,0.0,0.0,0.0,0.0,0.0,0.0,0.0,0.0,0.0,0.0,0.0,0.0,0.0,0.0,0.0,0.0,0.0,0.0,0.0,0.0,1.656999945640564,0.011878506840698686,0.06373035521414074,0.010338247589953928,-0.007743509020656347,-0.008558926172554493,0.0
549,5,0.00011974685185123235,-7.438945613102987e-05,-0.0004324018373154104,0.0011742875212803483,-0.00012000388960586861,-0.0009613981819711626,0.0,0.0,0.0,0.0,0.0,0.0,0.0,0.0,0.0,-0.002786693861708045,0.0019393910188227892,-0.0,0.0,0.0,0.0,0.0,0.0,0.0,0.0,0.0,0.0,0.0,0.0,0.0,0.0,0.0,0.0,0.0,0.0,0.0,0.0,0.0,0.0,0.0,1.656999945640564,0.012273521682353579,0.06396630230011119,0.010090483236405318,-0.007743509020656347,-0.008558926172554493,0.0
554,5,0.00011013049515895545,-9.077921276912093e-05,-0.00045961292926222086,-0.0004491987929213792,0.0006000514840707183,0.001618121168576181,0.0,0.0,0.0,0.0,0.0,0.0,0.0,0.0,0.0,1.3291556570038665e-05,0.0012816713424399495,-0.0,0.0,0.0,0.0,0.0,0.0,0.0,0.0,0.0,0.0,0.0,0.0,0.0,0.0,0.0,0.0,0.0,0.0,0.0,0.0,0.0,0.0,0.0,1.6394823789596558,0.01272019946538985,0.0638035205455514,0.009483135498156828,-0.005063318181782961,4.0391609218204394e-05,0.0
559,5,0.00010643213317962363,-9.402608702657744e-05,-0.0004615641664713621,-0.0006234837346710265,0.0006296458304859698,0.0008813938475213945,0.0,0.0,0.0,0.0,0.0,0.0,0.0,0.0,0.0,1.3291556570038665e-05,0.0012816713424399495,-0.0,0.0,0.0,0.0,0.0,0.0,0.0,0.0,0.0,0.0,0.0,0.0,0.0,0.0,0.0,0.0,0.0,0.0,0.0,0.0,0.0,0.0,0.0,1.6394823789596558,0.012161351593511251,0.06339145823890364,0.010210636762901345,-0.005063318181782961,4.0391609218204394e-05,0.0
564,5,0.0001006084494292736,-6.393258809112012e-05,-0.00040438203723169863,-0.0009482355089858174,-0.0033593615517020226,-0.006509297527372837,0.0,0.0,0.0,0.0,0.0,0.0,0.0,0.0,0.0,-0.0009500862215645611,-0.0004445192462299019,-0.0,0.0,0.0,0.0,0.0,0.0,0.0,0.0,0.0,0.0,0.0,0.0,0.0,0.0,0.0,0.0,0.0,0.0,0.0,0.0,0.0,0.0,0.0,1.6348921060562134,0.011979385491426743,0.06463143778403015,0.009534864424607995,0.0017511823680251837,-0.0028791252989321947,0.0
569,5,8.922404958866537e-05,-7.173029734985903e-05,-0.0004425276129040867,-0.001745422137901187,-0.00040802013245411217,0.001973750302568078,0.0,0.0,0.0,0.0,0.0,0.0,0.0,0.0,0.0,-0.0009500862215645611,-0.0004445192462299019,-0.0,0.0,0.0,0.0,0.0,0.0,0.0,0.0,0.0,0.0,0.0,0.0,0.0,0.0,0.0,0.0,0.0,0.0,0.0,0.0,0.0,0.0,0.0,1.6348921060562134,0.010921671418382087,0.06366480091770245,0.010238139001232452,0.0017511823680251837,-0.0028791252989321947,0.0
574,5,0.00011795877071563154,-6.808077887399122e-05,-0.00045228347880765796,0.002749997889623046,-0.0006011497462168336,0.0019602039828896523,0.0,0.0,0.0,0.0,0.0,0.0,0.0,0.0,0.0,0.0003726521972566843,-0.0015293682226911187,-0.0,0.0,0.0,0.0,0.0,0.0,0.0,0.0,0.0,0.0,0.0,0.0,0.0,0.0,0.0,0.0,0.0,0.0,0.0,0.0,0.0,0.0,0.0,1.6424471139907837,0.011789105420947618,0.0643994934177304,0.010364158131622331,0.006052783690392971,0.0011344976956024766,0.0
579,5,0.00011795877071563154,-6.808077887399122e-05,-0.00045228347880765796,0.002749997889623046,-0.0006011497462168336,0.0019602039828896523,0.0,0.0,0.0,0.0,0.0,0.0,0.0,0.0,0.0,0.0003726521972566843,-0.0015293682226911187,-0.0,0.0,0.0,0.0,0.0,0.0,0.0,0.0,0.0,0.0,0.0,0.0,0.0,0.0,0.0,0.0,0.0,0.0,0.0,0.0,0.0,0.0,0.0,1.6424471139907837,0.011789105420947618,0.0643994934177304,0.010364158131622331,0.006052783690392971,0.0011344976956024766,0.0
584,5,0.00010331237717764452,-9.077449794858694e-05,-0.00044962132233195007,-0.0004943397361785173,0.0018750972812995315,0.0008060567197389901,0.0,0.0,0.0,0.0,0.0,0.0,0.0,0.0,0.0,0.0006120582693256438,0.0027477180119603872,-0.0,0.0,0.0,0.0,0.0,0.0,0.0,0.0,0.0,0.0,0.0,0.0,0.0,0.0,0.0,0.0,0.0,0.0,0.0,0.0,0.0,0.0,0.0,1.655867576599121,0.013662639149900027,0.06470486848439623,0.00947744463983317,-0.010963495820760727,0.001878567854873836,0.0
590,6,9.956966823665425e-05,-0.0001124358459492214,-0.00047168959281407297,-0.0006468611536547542,0.0033494008239358664,0.0029706130735576153,0.0,0.0,0.0,0.0,0.0,0.0,0.0,0.0,0.0,0.0006120582693256438,0.0027477180119603872,-0.0,0.0,0.0,0.0,0.0,0.0,0.0,0.0,0.0,0.0,0.0,0.0,0.0,0.0,0.0,0.0,0.0,0.0,0.0,0.0,0.0,0.0,0.0,1.655867576599121,0.014266469398222783,0.06382702005879742,0.009552555855538526,-0.010963495820760727,0.001878567854873836,0.0
595,5,0.00010278957051923499,-9.078001312445849e-05,-0.0004400113830342889,0.0001276445109397173,-0.0012589391553774476,-0.0026131384074687958,0.0,0.0,0.0,0.0,0.0,0.0,0.0,0.0,0.0,-0.004279048647731543,-0.00046838162234053016,-0.0,0.0,0.0,0.0,0.0,0.0,0.0,0.0,0.0,0.0,0.0,0.0,0.0,0.0,0.0,0.0,0.0,0.0,0.0,0.0,0.0,0.0,0.0,1.6617794036865234,0.013566840341689996,0.06384070875544154,0.00952118830160433,0.0018755175406113267,-0.013180343434214592,0.0
600,5,0.00010916474275290966,-7.863016799092293e-05,-0.00044175656512379646,0.000816078158095479,-0.001961557427421212,-0.0008358327322639525,0.0,0.0,0.0,0.0,0.0,0.0,0.0,0.0,0.0,-0.004279048647731543,-0.00046838162234053016,-0.0,0.0,0.0,0.0,0.0,0.0,0.0,0.0,0.0,0.0,0.0,0.0,0.0,0.0,0.0,0.0,0.0,0.0,0.0,0.0,0.0,0.0,0.0,1.6617794036865234,0.012740415370003469,0.06367798467341297,0.009622541720788951,0.0018755175406113267,-0.013180343434214592,0.0
605,5,9.373328066430986e-05,-8.755714225117117e-05,-0.00043943090713582933,-0.0015253439778462052,0.00028661396936513484,-0.0006134133436717093,0.0,0.0,0.0,0.0,0.0,0.0,0.0,0.0,0.0,-0.0005124866729602218,-0.0013158641522750258,-0.0,0.0,0.0,0.0,0.0,0.0,0.0,0.0,0.0,0.0,0.0,0.0,0.0,0.0,0.0,0.0,0.0,0.0,0.0,0.0,0.0,0.0,0.0,1.6404752731323242,0.012019649585852351,0.06363870941297153,0.01019320344173712,0.005201546009629965,-0.0015583347994834185,0.0
610,5,0.00011250333773205057,-6.730160384904593e-05,-0.00043112848652526736,0.0016422688495367765,-0.0023160194978117943,-0.001241654739715159,0.0,0.0,0.0,0.0,0.0,0.0,0.0,0.0,0.0,-0.0005124866729602218,-0.0013158641522750258,-0.0,0.0,0.0,0.0,0.0,0.0,0.0,0.0,0.0,0.0,0.0,0.0,0.0,0.0,0.0,0.0,0.0,0.0,0.0,0.0,0.0,0.0,0.0,1.6404752731323242,0.013131444257899522,0.06456877282877115,0.00960799681708421,0.005201546009629965,-0.0015583347994834185,0.0
615,5,0.00010339252185076475,-8.994419476948678e-05,-0.00045992195373401046,-0.0004363899352028966,0.0017907030414789915,0.0029585552401840687,0.0,0.0,0.0,0.0,0.0,0.0,0.0,0.0,0.0,-0.0005124866729602218,-0.0013158641522750258,-0.0,0.0,0.0,0.0,0.0,0.0,0.0,0.0,0.0,0.0,0.0,0.0,0.0,0.0,0.0,0.0,0.0,0.0,0.0,0.0,0.0,0.0,0.0,1.6404752731323242,0.012534892798921215,0.0634164856227385,0.010340948525144774,0.005201546009629965,-0.0015583347994834185,0.0
621,5,9.679296636022627e-05,-7.956878835102543e-05,-0.0004587009607348591,-0.0009665030520409346,-0.0005287668318487704,0.0010369031224399805,0.0,0.0,0.0,0.0,0.0,0.0,0.0,0.0,0.0,-0.0023645770270377398,-0.000268463947577402,-0.0,0.0,0.0,0.0,0.0,0.0,0.0,0.0,0.0,0.0,0.0,0.0,0.0,0.0,0.0,0.0,0.0,0.0,0.0,0.0,0.0,0.0,0.0,1.645512580871582,0.011841863399296583,0.0633530786340057,0.010418006217131098,0.001064480864442885,-0.007212112192064524,0.0
626,5,9.22469625947997e-05,-8.749769767746329e-05,-0.00043579103657975793,-0.0009321219404228032,0.0007399623282253742,-0.0023344301152974367,0.0,0.0,0.0,0.0,0.0,0.0,0.0,0.0,0.0,-0.0023645770270377398,-0.000268463947577402,-0.0,0.0,0.0,0.0,0.0,0.0,0.0,0.0,0.0,0.0,0.0,0.0,0.0,0.0,0.0,0.0,0.0,0.0,0.0,0.0,0.0,0.0,0.0,1.645512580871582,0.012965463415147503,0.06380486508421303,0.0097526761184246,0.001064480864442885,-0.007212112192064524,0.0
631,5,-0.00014486048894468695,0.00010492598084965721,0.00044515804620459676,-0.02882574312388897,-0.022794857621192932,-0.10664766281843185,0.0,0.0,0.0,0.0,0.0,0.0,0.0,0.0,0.0,-0.0010734705720096827,-0.0007562568644061685,-0.0,0.0,0.0,0.0,0.0,0.0,0.0,0.0,0.0,0.0,0.0,0.0,0.0,0.0,0.0,0.0,0.0,0.0,0.0,0.0,0.0,0.0,0.0,1.6377360820770264,-0.006551644271919266,0.07163218251164068,0.006948101716435561,0.0029844536911696196,-0.0032586853485554457,0.0
636,5,-0.00014616352564189583,7.099517824826762e-05,0.0003966622753068805,-0.011686661280691624,-0.005046246573328972,-0.036839574575424194,0.0,0.0,0.0,0.0,0.0,0.0,0.0,0.0,0.0,-0.0010734705720096827,-0.0007562568644061685,-0.0,0.0,0.0,0.0,0.0,0.0,0.0,0.0,0.0,0.0,0.0,0.0,0.0,0.0,0.0,0.0,0.0,0.0,0.0,0.0,0.0,0.0,0.0,1.6377360820770264,-0.005534100949304899,0.07113001723690765,0.00735771272068103,0.0029844536911696196,-0.0032586853485554457,0.0
641,5,-0.0001470793504267931,9.06507921172306e-05,0.00042399062658660114,-0.004784564021974802,-0.004377172328531742,-0.01801523193717003,0.0,0.0,0.0,0.0,0.0,0.0,0.0,0.0,0.0,0.005933606531471014,-0.010547623969614506,-0.0,0.0,0.0,0.0,0.0,0.0,0.0,0.0,0.0,0.0,0.0,0.0,0.0,0.0,0.0,0.0,0.0,0.0,0.0,0.0,0.0,0.0,0.0,1.7558791637420654,-0.006540896999554263,0.07092626880298977,0.00745844967665586,0.044625744223594666,0.019311556592583656,0.0
646,5,-0.00011082612036261708,0.00012099654850317165,0.0004479399649426341,0.0024365619756281376,-0.0053923591040074825,-0.010080013424158096,0.0,0.0,0.0,0.0,0.0,0.0,0.0,0.0,0.0,0.005933606531471014,-0.010547623969614506,-0.0,0.0,0.0,0.0,0.0,0.0,0.0,0.0,0.0,0.0,0.0,0.0,0.0,0.0,0.0,0.0,0.0,0.0,0.0,0.0,0.0,0.0,0.0,1.7558791637420654,-0.006402465818222245,0.07234125309580264,0.00628887440277221,0.044625744223594666,0.019311556592583656,0.0
651,5,-0.00012578850146383047,0.00011692940461216494,0.0004436908639036119,-0.0008208599756471813,-0.0016688872128725052,-0.003522113896906376,0.0,0.0,0.0,0.0,0.0,0.0,0.0,0.0,0.0,0.006680498365312815,0.0020989486947655678,-0.0,0.0,0.0,0.0,0.0,0.0,0.0,0.0,0.0,0.0,0.0,0.0,0.0,0.0,0.0,0.0,0.0,0.0,0.0,0.0,0.0,0.0,0.0,1.6866347789764404,-0.006367125989261322,0.07154843470585491,0.006773282447119835,-0.008530309423804283,0.020884910598397255,0.0
656,5,-0.000124104117276147,0.00012572540435940027,0.0004544080584309995,-0.00012621899077203125,-0.0017230749363079667,-0.002694908296689391,0.0,0.0,0.0,0.0,0.0,0.0,0.0,0.0,0.0,0.006680498365312815,0.0020989486947655678,-0.0,0.0,0.0,0.0,0.0,0.0,0.0,0.0,0.0,0.0,0.0,0.0,0.0,0.0,0.0,0.0,0.0,0.0,0.0,0.0,0.0,0.0,0.0,1.6866347789764404,-0.006442677810484966,0.07206772765993272,0.006423380375693772,-0.008530309423804283,0.020884910598397255,0.0
661,5,-0.00012240743672009557,9.474904072703794e-05,0.00040663304389454424,0.00015311404422391206,0.0030279343482106924,0.004655038937926292,0.0,0.0,0.0,0.0,0.0,0.0,0.0,0.0,0.0,0.00234489724971354,-0.0002909575996454805,-0.0,0.0,0.0,0.0,0.0,0.0,0.0,0.0,0.0,0.0,0.0,0.0,0.0,0.0,0.0,0.0,0.0,0.0,0.0,0.0,0.0,0.0,0.0,1.6453874111175537,-0.005363186694410018,0.07098410903740976,0.007266596525786882,0.0011535822413861752,0.007151543628424406,0.0
667,5,-0.00013620930258184671,9.870209760265425e-05,0.00044586797594092786,-0.0015949776861816645,0.0007368067745119333,-0.002846175106242299,0.0,0.0,0.0,0.0,0.0,0.0,0.0,0.0,0.0,0.00234489724971354,-0.0002909575996454805,-0.0,0.0,0.0,0.0,0.0,0.0,0.0,0.0,0.0,0.0,0.0,0.0,0.0,0.0,0.0,0.0,0.0,0.0,0.0,0.0,0.0,0.0,0.0,1.6453874111175537,-0.005461378790713841,0.07153683804090993,0.006728649019351417,0.0011535822413861752,0.007151543628424406,0.0
672,5,-0.0001452153956051916,9.317365038441494e-05,0.0004406158404890448,-0.0017187228659167886,0.0009581364574842155,-0.0005082158604636788,0.0,0.0,0.0,0.0,0.0,0.0,0.0,0.0,0.0,-0.0007285229512490332,-0.0016975043108686805,-0.0,0.0,0.0,0.0,0.0,0.0,0.0,0.0,0.0,0.0,0.0,0.0,0.0,0.0,0.0,0.0,0.0,0.0,0.0,0.0,0.0,0.0,0.0,1.644957423210144,-0.0058826801913366,0.07177534019601699,0.00655882483756051,0.006728482432663441,-0.0022212956100702286,0.0
677,5,-0.00013427862722892314,0.0001040164424921386,0.0004570946912281215,0.0006249226862564683,-0.000917881028726697,-0.0021807479206472635,0.0,0.0,0.0,0.0,0.0,0.0,0.0,0.0,0.0,-0.0007285229512490332,-0.0016975043108686805,-0.0,0.0,0.0,0.0,0.0,0.0,0.0,0.0,0.0,0.0,0.0,0.0,0.0,0.0,0.0,0.0,0.0,0.0,0.0,0.0,0.0,0.0,0.0,1.644957423210144,-0.005644027434437496,0.07209246482633543,0.006324580978763064,0.006728482432663441,-0.0022212956100702286,0.0
682,5,-0.00014727826055604964,0.00010322890739189461,0.0004484280070755631,-0.0013099859934300184,-0.0002726480015553534,0.00016770270303823054,0.0,0.0,0.0,0.0,0.0,0.0,0.0,0.0,0.0,0.0013222896959632635,0.00040709719178266823,-0.0,0.0,0.0,0.0,0.0,0.0,0.0,0.0,0.0,0.0,0.0,0.0,0.0,0.0,0.0,0.0,0.0,0.0,0.0,0.0,0.0,0.0,0.0,1.6374762058258057,-0.00679312247747253,0.07132288667976139,0.006970571108122053,-0.0016062924405559897,0.004013376776129007,0.0
687,5,-0.00013773819955531508,9.801059059100226e-05,0.00045216144644655287,0.0006208132836036384,0.000517138687428087,-0.00038093075272627175,0.0,0.0,0.0,0.0,0.0,0.0,0.0,0.0,0.0,0.0013222896959632635,0.00040709719178266823,-0.0,0.0,0.0,0.0,0.0,0.0,0.0,0.0,0.0,0.0,0.0,0.0,0.0,0.0,0.0,0.0,0.0,0.0,0.0,0.0,0.0,0.0,0.0,1.6374762058258057,-0.006502596032128258,0.0723282756180259,0.006791094779187732,-0.0016062924405559897,0.004013376776129007,0.0
692,5,-0.0001331888051936403,8.27780895633623e-05,0.0004275092505849898,0.0007942523225210607,0.0020347554236650467,0.002805891679599881,0.0,0.0,0.0,0.0,0.0,0.0,0.0,0.0,0.0,-0.0004631699703168124,0.00039971532532945275,-0.0,0.0,0.0,0.0,0.0,0.0,0.0,0.0,0.0,0.0,0.0,0.0,0.0,0.0,0.0,0.0,0.0,0.0,0.0,0.0,0.0,0.0,0.0,1.6314603090286255,-0.006443795403385135,0.07122880361240844,0.007030417180366109,-0.0015713725006207824,-0.0014006363926455379,0.0
697,5,-0.00011724722571671009,0.00012216792674735188,0.00047689001075923443,0.002230689860880375,-0.003912877757102251,-0.004803335759788752,0.0,0.0,0.0,0.0,0.0,0.0,0.0,0.0,0.0,-0.0004631699703168124,0.00039971532532945275,-0.0,0.0,0.0,0.0,0.0,0.0,0.0,0.0,0.0,0.0,0.0,0.0,0.0,0.0,0.0,0.0,0.0,0.0,0.0,0.0,0.0,0.0,0.0,1.6314603090286255,-0.0060372231355382425,0.07249277275658463,0.005990420523020302,-0.0015713725006207824,-0.0014006363926455379,0.0
702,5,-0.00012183202488813549,8.781701035331935e-05,0.0004217004170641303,0.0003421006549615413,0.00255695846863091,0.004701416939496994,0.0,0.0,0.0,0.0,0.0,0.0,0.0,0.0,0.0,0.004950893111526966,0.001916135079227388,-0.0,0.0,0.0,0.0,0.0,0.0,0.0,0.0,0.0,0.0,0.0,0.0,0.0,0.0,0.0,0.0,0.0,0.0,0.0,0.0,0.0,0.0,0.0,1.6721845865249634,-0.005723627943701619,0.07136454978966209,0.0069537472898058015,-0.007720699533820152,0.01534521859139204,0.0
707,5,-0.00011501448170747608,0.00012053302634740248,0.00042849068995565176,0.0009549451642669737,-0.002903138054534793,0.0010657331440597773,0.0,0.0,0.0,0.0,0.0,0.0,0.0,0.0,0.0,0.004950893111526966,0.001916135079227388,-0.0,0.0,0.0,0.0,0.0,0.0,0.0,0.0,0.0,0.0,0.0,0.0,0.0,0.0,0.0,0.0,0.0,0.0,0.0,0.0,0.0,0.0,0.0,1.6721845865249634,-0.005937451423282428,0.07110107504080104,0.006521941855576306,-0.007720699533820152,0.01534521859139204,0.0
713,5,-0.0001082024464267306,9.993072308134288e-05,0.0003950159880332649,0.0011994221713393927,0.0013110211584717035,0.004443258512765169,0.0,0.0,0.0,0.0,0.0,0.0,0.0,0.0,0.0,0.0037582814693450928,0.0007380177266895771,-0.0,0.0,0.0,0.0,0.0,0.0,0.0,0.0,0.0,0.0,0.0,0.0,0.0,0.0,0.0,0.0,0.0,0.0,0.0,0.0,0.0,0.0,0.0,1.6580233573913574,-0.00529445419880104,0.07169881389973297,0.007048511915756046,-0.0029485346749424934,0.011550123803317547,0.0
718,5,-7.928562990855426e-05,6.703552935505286e-05,0.0002951448841486126,0.003949787467718124,0.004471831023693085,0.013761836104094982,0.0,0.0,0.0,0.0,0.0,0.0,0.0,0.0,0.0,-0.005252165254205465,0.003541398560628295,-0.0,0.0,0.0,0.0,0.0,0.0,0.0,0.0,0.0,0.0,0.0,0.0,0.0,0.0,0.0,0.0,0.0,0.0,0.0,0.0,0.0,0.0,0.0,1.6846157312393188,-0.003183060976435057,0.07114701348657647,0.007544252695010395,-0.014375424012541771,-0.016400011256337166,0.0
723,5,-5.380147194955498e-05,4.096570410183631e-05,0.00021297892089933157,0.004638013429939747,0.004917111713439226,0.015364649705588818,0.0,0.0,0.0,0.0,0.0,0.0,0.0,0.0,0.0,-0.005252165254205465,0.003541398560628295,-0.0,0.0,0.0,0.0,0.0,0.0,0.0,0.0,0.0,0.0,0.0,0.0,0.0,0.0,0.0,0.0,0.0,0.0,0.0,0.0,0.0,0.0,0.0,1.6846157312393188,-0.0020146768412242647,0.07001465750912468,0.00833754254269493,-0.014375424012541771,-0.016400011256337166,0.0
728,5,-2.9808023100486025e-05,7.649617145943921e-06,8.684618660481647e-05,0.004734419286251068,0.00596477510407567,0.021281788125634193,0.0,0.0,0.0,0.0,0.0,0.0,0.0,0.0,0.0,-0.007075431756675243,0.004288271069526672,-0.0,0.0,0.0,0.0,0.0,0.0,0.0,0.0,0.0,0.0,0.0,0.0,0.0,0.0,0.0,0.0,0.0,0.0,0.0,0.0,0.0,0.0,0.0,1.70231294631958,-0.00029403021521810487,0.06777190183769508,0.009919121470719347,-0.017589816823601723,-0.022325146943330765,0.0
733,5,1.1810930118372198e-05,-7.529482900281437e-06,-3.4569304716569604e-06,0.006888042204082012,0.004207402002066374,0.01934908889234066,0.0,0.0,0.0,0.0,0.0,0.0,0.0,0.0,0.0,-0.007075431756675243,0.004288271069526672,-0.0,0.0,0.0,0.0,0.0,0.0,0.0,0.0,0.0,0.0,0.0,0.0,0.0,0.0,0.0,0.0,0.0,0.0,0.0,0.0,0.0,0.0,0.0,1.70231294631958,0.0019424603309540567,0.06750241112448277,0.009962287563462246,-0.017589816823601723,-0.022325146943330765,0.0
738,5,3.301345350337215e-05,-6.433964153984562e-05,-0.00015189741679932922,0.005299519747495651,0.008500180207192898,0.02555249258875847,0.0,0.0,0.0,0.0,0.0,0.0,0.0,0.0,0.0,-0.01006427314132452,0.0048174248076975346,-0.0,0.0,0.0,0.0,0.0,0.0,0.0,0.0,0.0,0.0,0.0,0.0,0.0,0.0,0.0,0.0,0.0,0.0,0.0,0.0,0.0,0.0,0.0,1.7277079820632935,0.0062129978965614644,0.06561514919614765,0.010267906087696272,-0.02005457691848278,-0.03222908452153206,0.0
