timestamp,dt,pos_x,pos_y,pos_z,vel_x,vel_y,vel_z,roll,pitch,yaw,agv_x,agv_y,agv_z,x_ref,y_ref,z_ref,roll_ref,pitch_ref,yaw_ref,x_vel_ref,y_vel_ref,z_vel_ref,x_torque,y_torque,z_torque,w0,w1,w2,w3,u0,u1,u2,u3,m0req,m1req,m2req,m3req,thrust0,thrust1,thrust2,thrust3,thrust_ref,roll_vicon,pitch_vicon,yaw_vicon,acc_x,acc_y,acc_z
5,5,0.0,0.0,0.0,0.002327693859115243,-0.0036736144684255123,-0.0052017574198544025,0.006526794284582138,0.3591883182525635,0.0028944273944944143,-4.339216320659034e-05,-0.00041851188871078193,-0.0022171332966536283,0.0,0.0,0.0,0.004450847394764423,0.00216937018558383,-0.0,0.0,0.0,0.0,-0.004999999888241291,-0.004999999888241291,-4.0927677913416005e-10,1495.0,1495.0,1495.0,1495.0,0.0,0.0,0.0,0.0,0.0,0.0,0.0,0.0,1495.0,1495.0,1495.0,1495.0,1.6698451042175293,-0.2728127649521929,-0.36744944929728607,-0.10658722267140021,-0.008728851564228535,0.013776054605841637,0.0
35,30,0.0,0.0,0.0,0.002020074287429452,-0.002752674976363778,-0.0034763473086059093,0.006526794284582138,0.3591883182525635,0.0028944273944944143,-4.339216320659034e-05,-0.00041851188871078193,-0.0022171332966536283,0.0,0.0,0.0,0.004450847394764423,0.00216937018558383,-0.0,0.0,0.0,0.0,-0.004999999888241291,-0.004999999888241291,-4.0927677913416005e-10,1495.0,1495.0,1495.0,1495.0,0.0,0.0,0.0,0.0,0.0,0.0,0.0,0.0,1495.0,1495.0,1495.0,1495.0,1.6698451042175293,-0.27161398948933274,-0.36869023935299183,-0.10659871607357349,-0.008728851564228535,0.013776054605841637,0.0
40,5,0.0,0.0,0.0,-0.0009711160673759878,-0.0004163730191066861,-0.0002651267568580806,0.006516842171549797,0.35923606157302856,0.0028786789625883102,-0.0031803573947399855,-0.00617254339158535,0.0007072846638038754,0.0,0.0,0.0,0.004450847394764423,0.00216937018558383,-0.0,0.0,0.0,0.0,-0.004999999888241291,-0.004999999888241291,-1.3625113537418798e-10,1495.0,1495.0,1495.0,1495.0,0.0,0.0,0.0,0.0,0.0,0.0,0.0,0.0,1495.0,1495.0,1495.0,1495.0,1.6698451042175293,-0.2720371539026876,-0.36752648311605285,-0.10678946787218235,-0.008728851564228535,0.013776054605841637,0.0
45,5,0.0,0.0,0.0,-0.0029918323270976543,0.004916234407573938,0.004902145825326443,0.006516842171549797,0.35923606157302856,0.0028786789625883102,-0.0031803573947399855,-0.00617254339158535,0.0007072846638038754,0.0,0.0,0.0,0.0005147422198206186,-0.0009234960889443755,-0.0,0.0,0.0,0.0,-0.004999999888241291,-0.004999999888241291,-1.3625113537418798e-10,1495.0,1495.0,1495.0,1495.0,0.0,0.0,0.0,0.0,0.0,0.0,0.0,0.0,1495.0,1495.0,1495.0,1495.0,1.6364983320236206,-0.2732577959665109,-0.3645354581510991,-0.10755983227803821,0.003641685238108039,0.0015613988507539034,0.0
51,5,0.0,0.0,0.0,-0.0029918323270976543,0.004916234407573938,0.004902145825326443,0.00651754392310977,0.35924941301345825,0.002886515809223056,0.0008473850903101265,0.0024790267925709486,0.0004922760999761522,0.0,0.0,0.0,0.0005147422198206186,-0.0009234960889443755,-0.0,0.0,0.0,0.0,-0.004999999888241291,-0.004999999888241291,4.0678163615304186e-10,1495.0,1495.0,1495.0,1495.0,0.0,0.0,0.0,0.0,0.0,0.0,0.0,0.0,1495.0,1495.0,1495.0,1495.0,1.6364983320236206,-0.2732577959665109,-0.3645354581510991,-0.10755983227803821,0.003641685238108039,0.0015613988507539034,0.0
56,5,0.0,0.0,0.0,-0.0029918323270976543,0.004916234407573938,0.004902145825326443,0.00651754392310977,0.35924941301345825,0.002886515809223056,0.0008473850903101265,0.0024790267925709486,0.0004922760999761522,0.0,0.0,0.0,-0.005906298756599426,-0.0027649053372442722,-0.0,0.0,0.0,0.0,-0.004999999888241291,-0.004999999888241291,4.0678163615304186e-10,1495.0,1495.0,1495.0,1495.0,0.0,0.0,0.0,0.0,0.0,0.0,0.0,0.0,1495.0,1495.0,1495.0,1495.0,1.684009313583374,-0.2732577959665109,-0.3645354581510991,-0.10755983227803821,0.011219371110200882,-0.018435878679156303,0.0
61,5,1.1699377864715643e-05,3.9089471101760864e-05,4.2211944673908874e-05,0.0003090272657573223,-0.0012904696632176638,-0.0004880747583229095,0.0065227472223341465,0.3592130243778229,0.0028781848959624767,-0.002120902296155691,0.008147542364895344,-0.0067070056684315205,0.0,0.0,0.0,0.0016628651646897197,0.00030956880073063076,-0.0,0.0,0.0,0.0,-0.004999999888241291,-0.004999999888241291,-1.3846256086136322e-10,1495.0,1495.0,1495.0,1495.0,0.0,0.0,0.0,0.0,0.0,0.0,0.0,0.0,1495.0,1495.0,1495.0,1495.0,1.639854073524475,-0.27237531839601553,-0.3663121860602226,-0.10705448737202579,-0.0012232456356287003,0.0050544096156954765,0.0
67,6,3.283600017311983e-05,5.2850504289381206e-05,4.96967913932167e-05,0.0013791017699986696,-0.0006258245557546616,0.00032876513432711363,0.0065227472223341465,0.3592130243778229,0.0028781848959624767,-0.002120902296155691,0.008147542364895344,-0.0067070056684315205,0.0,0.0,0.0,0.0016628651646897197,0.00030956880073063076,-0.0,0.0,0.0,0.0,-0.004999999888241291,-0.004999999888241291,-1.3846256086136322e-10,1495.0,1495.0,1495.0,1495.0,0.0,0.0,0.0,0.0,0.0,0.0,0.0,0.0,1495.0,1495.0,1495.0,1495.0,1.639854073524475,-0.27207442318023706,-0.36778923347255954,-0.10635119750018673,-0.0012232456356287003,0.0050544096156954765,0.0
72,5,2.030285759246908e-05,1.4284194548963569e-05,-2.0463943656068295e-05,-0.000952336355112493,0.004377627279609442,0.00855079386383295,0.006501529365777969,0.3592156171798706,0.002868292387574911,-0.00343306758441031,8.64815156091936e-05,0.002387250540778041,0.0,0.0,0.0,-0.005275040864944458,-0.0008592374506406486,-0.0,0.0,0.0,0.0,-0.004999999888241291,-0.004999999888241291,-5.821792492533007e-10,1495.0,1495.0,1495.0,1495.0,0.0,0.0,0.0,0.0,0.0,0.0,0.0,0.0,1495.0,1495.0,1495.0,1495.0,1.6708992719650269,-0.2730390744855249,-0.36570705327254516,-0.10742185462816943,0.003459467552602291,-0.016337325796484947,0.0
77,5,5.512553343578475e-06,2.875774953281507e-05,-1.5422661817865446e-05,-0.0021557710133492947,1.4224300684873015e-05,0.0028153639286756516,0.006501529365777969,0.3592156171798706,0.002868292387574911,-0.00343306758441031,8.64815156091936e-05,0.002387250540778041,0.0,0.0,0.0,-0.005275040864944458,-0.0008592374506406486,-0.0,0.0,0.0,0.0,-0.004999999888241291,-0.004999999888241291,-5.821792492533007e-10,1495.0,1495.0,1495.0,1495.0,0.0,0.0,0.0,0.0,0.0,0.0,0.0,0.0,1495.0,1495.0,1495.0,1495.0,1.6708992719650269,-0.27347995055718916,-0.36507652681406305,-0.10752502498522773,0.003459467552602291,-0.016337325796484947,0.0
82,5,1.6453115676995367e-05,3.338998430990614e-05,2.1643754735123366e-05,0.0004505590768530965,-0.0005501782870851457,-0.003321824362501502,0.006487595848739147,0.35924533009529114,0.002852327423170209,-0.002001775661483407,0.002135551068931818,-0.001584398909471929,0.0,0.0,0.0,-0.005275040864944458,-0.0008592374506406486,-0.0,0.0,0.0,0.0,-0.004999999888241291,-0.004999999888241291,-3.3910124708214084e-10,1495.0,1495.0,1495.0,1495.0,0.0,0.0,0.0,0.0,0.0,0.0,0.0,0.0,1495.0,1495.0,1495.0,1495.0,1.6708992719650269,-0.27320573802148096,-0.3654939978941488,-0.10717219154417214,0.003459467552602291,-0.016337325796484947,0.0
87,5,1.4698374798172154e-05,2.4544655389036052e-05,3.497357101878151e-05,-3.0345232516992837e-05,0.0008413680479861796,-0.002928307745605707,0.006487595848739147,0.35924533009529114,0.002852327423170209,-0.002001775661483407,0.002135551068931818,-0.001584398909471929,0.0,0.0,0.0,0.0007421626360155642,0.00045228336239233613,-0.0,0.0,0.0,0.0,-0.004999999888241291,-0.004999999888241291,-3.3910124708214084e-10,1495.0,1495.0,1495.0,1495.0,0.0,0.0,0.0,0.0,0.0,0.0,0.0,0.0,1495.0,1495.0,1495.0,1495.0,1.6335277557373047,-0.2736538534788953,-0.3650166854170973,-0.10722031230796591,-0.001780282473191619,0.0022471605334430933,0.0
92,5,1.840881486714352e-05,2.5417160941287875e-05,3.1181010854197666e-05,0.0004331147065386176,0.00023184657038655132,-0.0007162159308791161,0.0064714462496340275,0.3591940402984619,0.0028699564281851053,-0.00047797581646591425,-0.0017060964601114392,-0.0023350368719547987,0.0,0.0,0.0,0.0007421626360155642,0.00045228336239233613,-0.0,0.0,0.0,0.0,-0.004999999888241291,-0.004999999888241291,3.113752311545426e-10,1495.0,1495.0,1495.0,1495.0,0.0,0.0,0.0,0.0,0.0,0.0,0.0,0.0,1495.0,1495.0,1495.0,1495.0,1.6335277557373047,-0.27388894433202277,-0.36504022316389895,-0.10773914089111657,-0.001780282473191619,0.0022471605334430933,0.0
98,5,4.119403820368461e-05,5.754341691499576e-05,0.00010227365419268608,0.002907472662627697,-0.003762412117794156,-0.008817603811621666,0.0064714462496340275,0.3591940402984619,0.0028699564281851053,-0.00047797581646591425,-0.0017060964601114392,-0.0023350368719547987,0.0,0.0,0.0,-0.0002412225876469165,0.0004391403344925493,-0.0,0.0,0.0,0.0,-0.004999999888241291,-0.004999999888241291,3.113752311545426e-10,1495.0,1495.0,1495.0,1495.0,0.0,0.0,0.0,0.0,0.0,0.0,0.0,0.0,1495.0,1495.0,1495.0,1495.0,1.6308317184448242,-0.2717372883252275,-0.3688513608017087,-0.10618845971801147,-0.001725696143694222,-0.0007291815127246082,0.0
103,5,-9.206529284710996e-06,2.0344272343209013e-05,2.9935574275441468e-05,-0.004885078873485327,0.002958932425826788,0.005153528414666653,0.006463560275733471,0.359231173992157,0.0028854557313024998,0.0024204046931117773,-0.0042442940175533295,0.002428524661809206,0.0,0.0,0.0,-0.0002412225876469165,0.0004391403344925493,-0.0,0.0,0.0,0.0,-0.004999999888241291,-0.004999999888241291,3.9092784565042393e-10,1495.0,1495.0,1495.0,1495.0,0.0,0.0,0.0,0.0,0.0,0.0,0.0,0.0,1495.0,1495.0,1495.0,1495.0,1.6308317184448242,-0.27382356999078605,-0.3645706723503876,-0.10766217312568993,-0.001725696143694222,-0.0007291815127246082,0.0
108,5,3.347716119606048e-05,5.000896635465324e-05,6.961234612390399e-05,0.0031680113170295954,-0.0023761901538819075,-0.0026998016983270645,0.006463560275733471,0.359231173992157,0.0028854557313024998,0.0024204046931117773,-0.0042442940175533295,0.002428524661809206,0.0,0.0,0.0,-0.003519798628985882,-0.004528240766376257,-0.0,0.0,0.0,0.0,-0.004999999888241291,-0.004999999888241291,3.9092784565042393e-10,1495.0,1495.0,1495.0,1495.0,0.0,0.0,0.0,0.0,0.0,0.0,0.0,0.0,1495.0,1495.0,1495.0,1495.0,1.6835224628448486,-0.27173380439932276,-0.3689984396076291,-0.10675224860880451,0.01836945116519928,-0.010983573272824287,-0.0
114,6,1.0238623872282915e-05,1.6908481484279037e-05,-4.5445889895745495e-07,-0.0015214199665933847,0.003021582029759884,0.0073280963115394115,0.006463560275733471,0.359231173992157,0.0028854557313024998,0.0024204046931117773,-0.0042442940175533295,0.002428524661809206,0.0,0.0,0.0,-0.003519798628985882,-0.004528240766376257,-0.0,0.0,0.0,0.0,-0.004999999888241291,-0.004999999888241291,9.187978849967138e-11,1495.0,1495.0,1495.0,1495.0,0.0,0.0,0.0,0.0,0.0,0.0,0.0,0.0,1495.0,1495.0,1495.0,1495.0,1.6835224628448486,-0.27262903256604887,-0.365824316653633,-0.10703674253467735,0.01836945116519928,-0.010983573272824287,-0.0
119,5,2.365040018048603e-06,1.542853169667069e-05,-3.6616689612856135e-05,-0.0015533980913460255,0.0013862267369404435,0.0072707063518464565,0.006472368724644184,0.35926541686058044,0.0028744088485836983,0.001145746442489326,0.002385741099715233,-0.001268173917196691,0.0,0.0,0.0,-0.003652603132650256,-0.0014123704750090837,-0.0,0.0,0.0,0.0,-0.004999999888241291,-0.004999999888241291,5.12960895981962e-10,1495.0,1495.0,1495.0,1495.0,0.0,0.0,0.0,0.0,0.0,0.0,0.0,0.0,1495.0,1495.0,1495.0,1495.0,1.6597939729690552,-0.27315309680773875,-0.3647066231072798,-0.10763765240280564,0.005648741032928228,-0.011237338185310364,0.0
124,5,2.711369415919762e-05,4.573194746626541e-05,2.5089939299505204e-05,0.002348479116335511,-0.003081918926909566,-0.004496512934565544,0.006472368724644184,0.35926541686058044,0.0028744088485836983,0.001145746442489326,0.002385741099715233,-0.001268173917196691,0.0,0.0,0.0,-0.003652603132650256,-0.0014123704750090837,-0.0,0.0,0.0,0.0,-0.004999999888241291,-0.004999999888241291,5.12960895981962e-10,1495.0,1495.0,1495.0,1495.0,0.0,0.0,0.0,0.0,0.0,0.0,0.0,0.0,1495.0,1495.0,1495.0,1495.0,1.6597939729690552,-0.2716385702188098,-0.36745063570292824,-0.10645166052699638,0.005648741032928228,-0.011237338185310364,0.0
129,5,3.1968003895599395e-05,5.660852912114933e-05,4.99579036841169e-05,0.0015219089109450579,-0.0025379573926329613,-0.0047827609814703465,0.006472368724644184,0.35926541686058044,0.0028744088485836983,0.001145746442489326,0.002385741099715233,-0.001268173917196691,0.0,0.0,0.0,0.003824646584689617,0.002231242135167122,-0.0,0.0,0.0,0.0,-0.004999999888241291,-0.004999999888241291,5.12960895981962e-10,1495.0,1495.0,1495.0,1495.0,0.0,0.0,0.0,0.0,0.0,0.0,0.0,0.0,1495.0,1495.0,1495.0,1495.0,1.6658414602279663,-0.27250504018488864,-0.3674069982488726,-0.10685089383562699,-0.00895630195736885,0.011809502728283405,0.0
134,5,2.4459193809889257e-05,2.0757683159899898e-05,2.9284243282745592e-05,-0.00029229364008642733,0.003286918392404914,0.0005677347653545439,0.00640856521204114,0.3591695725917816,0.0029113672208040953,-0.0008798593189567327,0.0016187640139833093,0.0007093920139595866,0.0,0.0,0.0,0.003824646584689617,0.002231242135167122,-0.0,0.0,0.0,0.0,-0.004999999888241291,-0.004999999888241291,3.828436179187378e-10,1495.0,1495.0,1495.0,1495.0,0.0,0.0,0.0,0.0,0.0,0.0,0.0,0.0,1495.0,1495.0,1495.0,1495.0,1.6658414602279663,-0.2734451096044326,-0.3652829612601153,-0.10745280896739529,-0.00895630195736885,0.011809502728283405,0.0
139,5,4.203470962238498e-05,6.003198723192327e-05,9.103051706915721e-05,0.001992144389078021,-0.003398149274289608,-0.007182459346950054,0.00640856521204114,0.3591695725917816,0.0029113672208040953,-0.0008798593189567327,0.0016187640139833093,0.0007093920139595866,0.0,0.0,0.0,-0.003971175756305456,-0.00024043435405474156,-0.0,0.0,0.0,0.0,-0.004999999888241291,-0.004999999888241291,3.828436179187378e-10,1495.0,1495.0,1495.0,1495.0,0.0,0.0,0.0,0.0,0.0,0.0,0.0,0.0,1495.0,1495.0,1495.0,1495.0,1.6589089632034302,-0.2724156972025917,-0.36768751436884006,-0.10705214475772189,0.0009610977140255272,-0.012210913002490997,-0.0
144,5,3.053582986467518e-05,5.5566873925272375e-05,8.797003101790324e-05,-0.000583007640670985,-0.0008234457927756011,-0.002505724783986807,0.006401142571121454,0.3592037260532379,0.002894597826525569,-0.0032772328704595566,-0.009682060219347477,-0.002459942130371928,0.0,0.0,0.0,-0.003971175756305456,-0.00024043435405474156,-0.0,0.0,0.0,0.0,-0.004999999888241291,-0.004999999888241291,-9.815721568884328e-10,1495.0,1495.0,1495.0,1495.0,0.0,0.0,0.0,0.0,0.0,0.0,0.0,0.0,1495.0,1495.0,1495.0,1495.0,1.6589089632034302,-0.27240012891944565,-0.3679734777980916,-0.1065995275837027,0.0009610977140255272,-0.012210913002490997,-0.0
150,5,3.3858188544400036e-05,6.11765353824012e-05,8.462742698611692e-05,0.00016547967970836908,-0.0010025377850979567,-0.0006011775112710893,0.006401142571121454,0.3592037260532379,0.002894597826525569,-0.0032772328704595566,-0.009682060219347477,-0.002459942130371928,0.0,0.0,0.0,0.0011191219091415405,-0.0005116885295137763,-0.0,0.0,0.0,0.0,-0.004999999888241291,-0.004999999888241291,-9.815721568884328e-10,1495.0,1495.0,1495.0,1495.0,0.0,0.0,0.0,0.0,0.0,0.0,0.0,0.0,1495.0,1495.0,1495.0,1495.0,1.6364625692367554,-0.27247773526094826,-0.3685395691911775,-0.10700116106954782,0.0020177315454930067,0.0033946253824979067,0.0
155,5,9.002587830764242e-06,9.975183274946176e-06,1.2936076927871909e-05,-0.0029164799489080906,0.005743146874010563,0.008362490683794022,0.006403928156942129,0.3592088222503662,0.0028782442677766085,-0.0009376324014738202,0.007637107744812965,0.0020700949244201183,0.0,0.0,0.0,0.0011191219091415405,-0.0005116885295137763,-0.0,0.0,0.0,0.0,-0.004999999888241291,-0.004999999888241291,-5.767257227340394e-10,1495.0,1495.0,1495.0,1495.0,0.0,0.0,0.0,0.0,0.0,0.0,0.0,0.0,1495.0,1495.0,1495.0,1495.0,1.6364625692367554,-0.2735618544125758,-0.3647462477773608,-0.10717983050088895,0.0020177315454930067,0.0033946253824979067,0.0
160,5,2.4964900148916058e-05,3.161868153256364e-05,2.0089168174308725e-05,0.0007488855626434088,-0.00029996075318194926,0.0024866252206265926,0.006403928156942129,0.3592088222503662,0.0028782442677766085,-0.0009376324014738202,0.007637107744812965,0.0020700949244201183,0.0,0.0,0.0,-0.006854546256363392,-0.002672289265319705,-0.0,0.0,0.0,0.0,-0.004999999888241291,-0.004999999888241291,-5.767257227340394e-10,1495.0,1495.0,1495.0,1495.0,0.0,0.0,0.0,0.0,0.0,0.0,0.0,0.0,1495.0,1495.0,1495.0,1495.0,1.6907118558883667,-0.27247091672085255,-0.3664962032202974,-0.10715358341754987,0.01088664960116148,-0.02148081175982952,-0.0
165,5,1.85850167326862e-05,2.2037813323549926e-05,5.184060682950076e-06,-0.0004660318372771144,0.0010297197150066495,0.0027832631021738052,0.00640172278508544,0.35917946696281433,0.0028601642698049545,-0.003143381793051958,0.004160614218562841,0.002305005444213748,0.0,0.0,0.0,-0.006854546256363392,-0.002672289265319705,-0.0,0.0,0.0,0.0,-0.004999999888241291,-0.004999999888241291,4.5543807614123466e-10,1495.0,1495.0,1495.0,1495.0,0.0,0.0,0.0,0.0,0.0,0.0,0.0,0.0,1495.0,1495.0,1495.0,1495.0,1.6907118558883667,-0.27333378144005993,-0.3654051540371709,-0.10726356937771613,0.01088664960116148,-0.02148081175982952,-0.0
171,6,2.3905100533738732e-05,2.516257154638879e-05,7.2188954618468415e-06,0.0004519972135312855,3.691689926199615e-05,0.0008691250695846975,0.00640172278508544,0.35917946696281433,0.0028601642698049545,-0.003143381793051958,0.004160614218562841,0.002305005444213748,0.0,0.0,0.0,-0.0012323851697146893,-0.00041699333814904094,-0.0,0.0,0.0,0.0,-0.004999999888241291,-0.004999999888241291,4.5543807614123466e-10,1495.0,1495.0,1495.0,1495.0,0.0,0.0,0.0,0.0,0.0,0.0,0.0,0.0,1495.0,1495.0,1495.0,1495.0,1.6368306875228882,-0.2725214137830981,-0.3659665134527703,-0.10712772869162093,0.001644691452383995,-0.003739026840776205,-0.0
176,5,1.7399406715412624e-05,1.996136415982619e-05,1.3465840311255306e-05,-0.0005998842534609139,0.0006389116169884801,-0.00040198341594077647,0.0063848053105175495,0.3591897189617157,0.0029108659364283085,0.0010752175003290176,-0.009628553874790668,-0.00018227784312330186,0.0,0.0,0.0,-0.0012323851697146893,-0.00041699333814904094,-0.0,0.0,0.0,0.0,-0.004999999888241291,-0.004999999888241291,1.249128439573255e-10,1495.0,1495.0,1495.0,1495.0,0.0,0.0,0.0,0.0,0.0,0.0,0.0,0.0,1495.0,1495.0,1495.0,1495.0,1.6368306875228882,-0.27297775611767283,-0.36546275772761855,-0.10722207477915101,0.001644691452383995,-0.003739026840776205,-0.0
181,5,2.1086476408527233e-05,2.6283663828507997e-05,3.3928427001228556e-05,0.0001828803651733324,0.0003899077419191599,-0.0017375617753714323,0.00639531621709466,0.35925328731536865,0.0028866331558674574,-0.0025468345265835524,-0.004406914580613375,-0.005644007585942745,0.0,0.0,0.0,-0.0007542645907960832,-0.0005467480514198542,-0.0,0.0,0.0,0.0,-0.004999999888241291,-0.004999999888241291,-4.1483252943841364e-10,1495.0,1495.0,1495.0,1495.0,0.0,0.0,0.0,0.0,0.0,0.0,0.0,0.0,1495.0,1495.0,1495.0,1495.0,1.6342672109603882,-0.2731177511061684,-0.3653100725166405,-0.10713316905353121,0.0021530892699956894,-0.0022848371881991625,0.0
187,6,9.285607120546047e-06,2.020872852881439e-05,3.035933150385972e-05,-0.0013429520186036825,0.0008849555160850286,-0.0002667331136763096,0.00639531621709466,0.35925328731536865,0.0028866331558674574,-0.0025468345265835524,-0.004406914580613375,-0.005644007585942745,0.0,0.0,0.0,-0.0007542645907960832,-0.0005467480514198542,-0.0,0.0,0.0,0.0,-0.004999999888241291,-0.004999999888241291,-4.1483252943841364e-10,1495.0,1495.0,1495.0,1495.0,0.0,0.0,0.0,0.0,0.0,0.0,0.0,0.0,1495.0,1495.0,1495.0,1495.0,1.6342672109603882,-0.27357356936248517,-0.36478855312537767,-0.10781884623852028,0.0021530892699956894,-0.0022848371881991625,0.0
192,5,1.9763030650210567e-05,4.782625910593197e-05,5.245397551334463e-05,0.0007201099069789052,-0.0029601214919239283,-0.002758050337433815,0.00639531621709466,0.35925328731536865,0.0028866331558674574,-0.0025468345265835524,-0.004406914580613375,-0.005644007585942745,0.0,0.0,0.0,-0.0010535081382840872,-0.0012598445173352957,-0.0,0.0,0.0,0.0,-0.004999999888241291,-0.004999999888241291,-4.1483252943841364e-10,1495.0,1495.0,1495.0,1495.0,0.0,0.0,0.0,0.0,0.0,0.0,0.0,0.0,1495.0,1495.0,1495.0,1495.0,1.6418195962905884,-0.27286914784939253,-0.36646289570980584,-0.10717532279066987,0.004984182305634022,-0.0032060605008155107,0.0
197,5,1.0290579666616395e-05,6.4113351072592195e-06,9.922346180246677e-07,-0.000848650059197098,0.003785742213949561,0.005072188563644886,0.006408527959138155,0.3592364192008972,0.0028611752204596996,0.000938833225518465,0.004842845257371664,0.0010448626708239317,0.0,0.0,0.0,-0.0010535081382840872,-0.0012598445173352957,-0.0,0.0,0.0,0.0,-0.004999999888241291,-0.004999999888241291,-2.1538062999759688e-10,1495.0,1495.0,1495.0,1495.0,0.0,0.0,0.0,0.0,0.0,0.0,0.0,0.0,1495.0,1495.0,1495.0,1495.0,1.6418195962905884,-0.27353652277848817,-0.3649006582063202,-0.10776128762154233,0.004984182305634022,-0.0032060605008155107,0.0
202,5,1.3481191672326531e-05,1.6205449355766177e-05,3.314697460155003e-05,4.341332896729e-05,0.0003390031342860311,-0.0018296933267265558,0.006408527959138155,0.3592364192008972,0.0028611752204596996,0.000938833225518465,0.004842845257371664,0.0010448626708239317,0.0,0.0,0.0,-0.004588224459439516,-0.0007789171650074422,-0.0,0.0,0.0,0.0,-0.004999999888241291,-0.004999999888241291,-2.1538062999759688e-10,1495.0,1495.0,1495.0,1495.0,0.0,0.0,0.0,0.0,0.0,0.0,0.0,0.0,1495.0,1495.0,1495.0,1495.0,1.664979338645935,-0.27329077966686166,-0.3651712017259166,-0.10726259553823457,0.0031249811872839928,-0.014159870333969593,-0.0
207,5,2.849648990377318e-05,2.5714029106893577e-05,4.882679058937356e-05,0.0018192012794315815,-0.0010054282611235976,-0.0026134552899748087,0.006416969001293182,0.3591756224632263,0.0028745844028890133,0.0010981739033013582,0.007042104844003916,0.0016734111122786999,0.0,0.0,0.0,-0.004588224459439516,-0.0007789171650074422,-0.0,0.0,0.0,0.0,-0.004999999888241291,-0.004999999888241291,-3.355242750302523e-10,1495.0,1495.0,1495.0,1495.0,0.0,0.0,0.0,0.0,0.0,0.0,0.0,0.0,1495.0,1495.0,1495.0,1495.0,1.664979338645935,-0.2731561122618881,-0.3665509794674272,-0.10729239353449346,0.0031249811872839928,-0.014159870333969593,-0.0
212,5,1.081784375855932e-05,1.9694534785230644e-05,4.042916771140881e-05,-0.0013937571784481406,0.00032016803743317723,-3.766715235542506e-05,0.006416969001293182,0.3591756224632263,0.0028745844028890133,0.0010981739033013582,0.007042104844003916,0.0016734111122786999,0.0,0.0,0.0,-0.000358828401658684,-0.0013072432484477758,-0.0,0.0,0.0,0.0,-0.004999999888241291,-0.004999999888241291,-3.355242750302523e-10,1495.0,1495.0,1495.0,1495.0,0.0,0.0,0.0,0.0,0.0,0.0,0.0,0.0,1495.0,1495.0,1495.0,1495.0,1.6400692462921143,-0.27293457569639024,-0.3656571448987978,-0.10732924095047225,0.00516618974506855,-0.0010908311232924461,0.0
217,5,1.5732834071968682e-05,1.5065614206832834e-05,-4.688969511335017e-06,3.2296040444634855e-05,0.0006835376261733472,0.0053991093300282955,0.006402515806257725,0.35919496417045593,0.002881645457819104,-0.001715947757475078,-0.009191201068460941,-0.0025664863642305136,0.0,0.0,0.0,-0.000358828401658684,-0.0013072432484477758,-0.0,0.0,0.0,0.0,-0.004999999888241291,-0.004999999888241291,-6.406604413644601e-11,1495.0,1495.0,1495.0,1495.0,0.0,0.0,0.0,0.0,0.0,0.0,0.0,0.0,1495.0,1495.0,1495.0,1495.0,1.6400692462921143,-0.27326763497876255,-0.3650604237663309,-0.10767796314502358,0.00516618974506855,-0.0010908311232924461,0.0
222,5,1.4616194675909355e-05,2.3000542569207028e-05,1.8961811292683706e-05,-0.00012107833754271269,-0.0006787763559259474,-0.0006784500437788665,0.006402515806257725,0.35919496417045593,0.002881645457819104,-0.001715947757475078,-0.009191201068460941,-0.0025664863642305136,0.0,0.0,0.0,-0.000358828401658684,-0.0013072432484477758,-0.0,0.0,0.0,0.0,-0.004999999888241291,-0.004999999888241291,-6.406604413644601e-11,1495.0,1495.0,1495.0,1495.0,0.0,0.0,0.0,0.0,0.0,0.0,0.0,0.0,1495.0,1495.0,1495.0,1495.0,1.6400692462921143,-0.2738442554084696,-0.36539611816480116,-0.10732075581109987,0.00516618974506855,-0.0010908311232924461,0.0
228,5,1.7354997908114456e-05,1.61249736265745e-05,2.093519924528664e-06,0.0002802250673994422,0.0005535578820854425,0.0017528150929138064,0.006387665402144194,0.359192818403244,0.002896556630730629,0.0016942864749580622,-0.001802756916731596,0.0008541343850083649,0.0,0.0,0.0,0.0008832094608806074,-9.470999066252261e-05,-0.0,0.0,0.0,0.0,-0.004999999888241291,-0.004999999888241291,-2.4425027972396762e-12,1495.0,1495.0,1495.0,1495.0,0.0,0.0,0.0,0.0,0.0,0.0,0.0,0.0,1495.0,1495.0,1495.0,1495.0,1.633073329925537,-0.27370575950363896,-0.3652848025301072,-0.10749823936418712,0.00037269468884915113,0.0026734855491667986,0.0
233,6,1.8606528101372533e-05,2.397073149040807e-05,-9.166980817099102e-06,0.00026227356283925474,-0.0007200679974630475,0.0020523860584944487,0.006387665402144194,0.359192818403244,0.002896556630730629,0.0016942864749580622,-0.001802756916731596,0.0008541343850083649,0.0,0.0,0.0,0.0008832094608806074,-9.470999066252261e-05,-0.0,0.0,0.0,0.0,-0.004999999888241291,-0.004999999888241291,-2.4425027972396762e-12,1495.0,1495.0,1495.0,1495.0,0.0,0.0,0.0,0.0,0.0,0.0,0.0,0.0,1495.0,1495.0,1495.0,1495.0,1.633073329925537,-0.27322582964707326,-0.36521958862095866,-0.10775431687769094,0.00037269468884915113,0.0026734855491667986,0.0
238,5,4.400400212034583e-05,7.090916915331036e-05,5.688719102181494e-05,0.0031526065431535244,-0.005920639261603355,-0.007105546537786722,0.006430097855627537,0.3591875731945038,0.002858871128410101,0.0018484600586816669,0.002518898108974099,-0.001460167346522212,0.0,0.0,0.0,0.0009356361115351319,0.0002760505012702197,-0.0,0.0,0.0,0.0,-0.004999999888241291,-0.004999999888241291,-1.9177798238345645e-10,1495.0,1495.0,1495.0,1495.0,0.0,0.0,0.0,0.0,0.0,0.0,0.0,0.0,1495.0,1495.0,1495.0,1495.0,1.633984088897705,-0.2713260281164461,-0.36910070551573027,-0.10666578873823038,-0.001086896168999374,0.002833761041983962,0.0
245,7,1.2194055898362421e-06,1.6010333638405427e-05,-1.649421847105259e-06,-0.003873109119012952,0.004219604190438986,0.004182175267487764,0.006430097855627537,0.3591875731945038,0.002858871128410101,0.0018484600586816669,0.002518898108974099,-0.001460167346522212,0.0,0.0,0.0,0.007192444521933794,0.0029545000288635492,-0.0,0.0,0.0,0.0,-0.004999999888241291,-0.004999999888241291,-1.9177798238345645e-10,1495.0,1495.0,1495.0,1495.0,0.0,0.0,0.0,0.0,0.0,0.0,0.0,0.0,1495.0,1495.0,1495.0,1495.0,1.6948120594024658,-0.2733688555015573,-0.36423160744275646,-0.10749192318703775,-0.012065506540238857,0.022594347596168518,0.0
250,5,2.939269870694261e-05,5.107290780870244e-05,5.393292667577043e-05,0.0018315515480935574,-0.0025196673814207315,-0.004997011739760637,0.00644100084900856,0.35917192697525024,0.0028512668795883656,-0.003248028689995408,-0.0064787776209414005,0.00228892988525331,0.0,0.0,0.0,0.007192444521933794,0.0029545000288635492,-0.0,0.0,0.0,0.0,-0.004999999888241291,-0.004999999888241291,2.6766469249372982e-11,1495.0,1495.0,1495.0,1495.0,0.0,0.0,0.0,0.0,0.0,0.0,0.0,0.0,1495.0,1495.0,1495.0,1495.0,1.6948120594024658,-0.2721964285730487,-0.3671043851046712,-0.10699539663144121,-0.012065506540238857,0.022594347596168518,0.0
255,5,1.5154559150687419e-05,2.7734446121030487e-05,4.434044603840448e-05,-0.0009759562090039253,0.0017927485750988126,-0.0008477068622596562,0.00644100084900856,0.35917192697525024,0.0028512668795883656,-0.003248028689995408,-0.0064787776209414005,0.00228892988525331,0.0,0.0,0.0,0.003166179871186614,0.0017596883699297905,-0.0,0.0,0.0,0.0,-0.004999999888241291,-0.004999999888241291,2.6766469249372982e-11,1495.0,1495.0,1495.0,1495.0,0.0,0.0,0.0,0.0,0.0,0.0,0.0,0.0,1495.0,1495.0,1495.0,1495.0,1.6582528352737427,-0.27260247398964765,-0.36593724082420803,-0.10719348672314538,-0.007031306158751249,0.009731808677315712,0.0
260,5,2.771915569610428e-05,3.576397284632549e-05,4.016957973362878e-05,0.0011173691600561142,-0.00024644366931170225,0.00016142119420692325,0.006434191018342972,0.3592411279678345,0.002846911083906889,-0.0016616984503343701,0.0010564145632088184,-0.0016429238021373749,0.0,0.0,0.0,0.003166179871186614,0.0017596883699297905,-0.0,0.0,0.0,0.0,-0.004999999888241291,-0.004999999888241291,2.7405708258321226e-10,1495.0,1495.0,1495.0,1495.0,0.0,0.0,0.0,0.0,0.0,0.0,0.0,0.0,1495.0,1495.0,1495.0,1495.0,1.6582528352737427,-0.27367615542416523,-0.36585069763976114,-0.10758255181874841,-0.007031306158751249,0.009731808677315712,0.0
265,5,2.7473322916193865e-05,4.4856536987936124e-05,4.9905847845366225e-05,0.0004174477362539619,-0.0011896854266524315,-0.0011037839576601982,0.006434191018342972,0.3592411279678345,0.002846911083906889,-0.0016616984503343701,0.0010564145632088184,-0.0016429238021373749,0.0,0.0,0.0,0.003166179871186614,0.0017596883699297905,-0.0,0.0,0.0,0.0,-0.004999999888241291,-0.004999999888241291,2.7405708258321226e-10,1495.0,1495.0,1495.0,1495.0,0.0,0.0,0.0,0.0,0.0,0.0,0.0,0.0,1495.0,1495.0,1495.0,1495.0,1.6582528352737427,-0.2736066794097337,-0.3660825116733385,-0.10724901159119057,-0.001717971172183752,0.004710329230874777,0.0
271,5,2.6720545065472834e-05,5.447106377687305e-05,6.73774047754705e-05,7.664575969101861e-05,-0.0016296171816065907,-0.0025380998849868774,0.006434191018342972,0.3592411279678345,0.002846911083906889,-0.0016616984503343701,0.0010564145632088184,-0.0016429238021373749,0.0,0.0,0.0,0.001550142653286457,0.0004349037481006235,-0.0,0.0,0.0,0.0,-0.004999999888241291,-0.004999999888241291,2.7405708258321226e-10,1495.0,1495.0,1495.0,1495.0,0.0,0.0,0.0,0.0,0.0,0.0,0.0,0.0,1495.0,1495.0,1495.0,1495.0,1.6393487453460693,-0.2729256683273556,-0.3668782394496462,-0.107102196763753,-0.001717971172183752,0.004710329230874777,0.0
276,5,2.1558156731771305e-05,2.105596286128275e-05,1.706415969238151e-05,-0.000588828232139349,0.0033579652663320303,0.005022348836064339,0.006436584517359734,0.3592231273651123,0.0028216952923685312,0.0009962780168280005,0.008273441344499588,-0.003394035156816244,0.0,0.0,0.0,0.001550142653286457,0.0004349037481006235,-0.0,0.0,0.0,0.0,-0.004999999888241291,-0.004999999888241291,8.818248908859516e-11,1495.0,1495.0,1495.0,1495.0,0.0,0.0,0.0,0.0,0.0,0.0,0.0,0.0,1495.0,1495.0,1495.0,1495.0,1.6393487453460693,-0.2733062003741728,-0.36518592682262413,-0.10724772423477333,-0.001717971172183752,0.004710329230874777,0.0
281,5,2.893566488637589e-05,5.5664644605712965e-05,3.333580752951093e-05,0.0006497694994322956,-0.0028098556213080883,5.6342094467254356e-05,0.006420894060283899,0.3591426908969879,0.002818854758515954,-0.0023379651829600334,0.0010091967415064573,0.00046074780402705073,0.0,0.0,0.0,-0.004054164979606867,-0.0005220116581767797,-0.0,0.0,0.0,0.0,-0.004999999888241291,-0.004999999888241291,8.093039571832605e-10,1495.0,1495.0,1495.0,1495.0,0.0,0.0,0.0,0.0,0.0,0.0,0.0,0.0,1495.0,1495.0,1495.0,1495.0,1.6599851846694946,-0.2715426583218003,-0.3677724889825997,-0.1066654417901326,0.0020880107767879963,-0.012474180199205875,-0.0
286,5,6.098656285757897e-06,1.1421313502069097e-05,-2.0892064640065655e-05,-0.002480533206835389,0.004185257479548454,0.006529881153255701,0.006420894060283899,0.3591426908969879,0.002818854758515954,-0.0023379651829600334,0.0010091967415064573,0.00046074780402705073,0.0,0.0,0.0,-0.004054164979606867,-0.0005220116581767797,-0.0,0.0,0.0,0.0,-0.004999999888241291,-0.004999999888241291,8.093039571832605e-10,1495.0,1495.0,1495.0,1495.0,0.0,0.0,0.0,0.0,0.0,0.0,0.0,0.0,1495.0,1495.0,1495.0,1495.0,1.6599851846694946,-0.27305312359801515,-0.3647987124619902,-0.10759240781691923,0.0020880107767879963,-0.012474180199205875,-0.0
291,5,1.2206332939967979e-05,1.0015297448262572e-05,-4.040720159537159e-05,-0.00025929202092811465,0.0018428248586133122,0.004953769035637379,0.00640128692612052,0.3591579794883728,0.00281767756678164,0.0002219380985479802,-0.010053614154458046,0.0008173570386134088,0.0,0.0,0.0,-0.005034574773162603,-0.002296214923262596,-0.0,0.0,0.0,0.0,-0.004999999888241291,-0.004999999888241291,-3.2120039961114344e-10,1495.0,1495.0,1495.0,1495.0,0.0,0.0,0.0,0.0,0.0,0.0,0.0,0.0,1495.0,1495.0,1495.0,1495.0,1.6748512983322144,-0.2728946109748135,-0.36516660873729606,-0.10749352886233836,0.009266907349228859,-0.015629470348358154,0.0
296,5,2.027139453275595e-05,1.8903627278632484e-05,-1.4473384908342268e-05,0.0008640905725769699,-0.0003294696216471493,-0.0011305504012852907,0.00640128692612052,0.3591579794883728,0.00281767756678164,0.0002219380985479802,-0.010053614154458046,0.0008173570386134088,0.0,0.0,0.0,-0.005034574773162603,-0.002296214923262596,-0.0,0.0,0.0,0.0,-0.004999999888241291,-0.004999999888241291,-3.2120039961114344e-10,1495.0,1495.0,1495.0,1495.0,0.0,0.0,0.0,0.0,0.0,0.0,0.0,0.0,1495.0,1495.0,1495.0,1495.0,1.6748512983322144,-0.2724341240350569,-0.36595272421823816,-0.10718315010805453,0.009266907349228859,-0.015629470348358154,0.0
301,5,1.231625174114015e-05,1.925978904182557e-05,-1.134149897552561e-05,-0.0025100605562329292,0.0014793815789744258,0.0007406873628497124,0.00642343470826745,0.35924169421195984,0.0027839692775160074,-0.0015787685988470912,-0.0022988913115113974,-0.0028299218975007534,0.0,0.0,0.0,0.00044266536133363843,0.000850899494253099,-0.0,0.0,0.0,0.0,-0.004999999888241291,-0.004999999888241291,6.569297514823214e-13,1495.0,1495.0,1495.0,1495.0,0.0,0.0,0.0,0.0,0.0,0.0,0.0,0.0,1495.0,1495.0,1495.0,1495.0,1.6355485916137695,-0.2742047988112845,-0.3639352978011514,-0.10757660794546405,-0.0033534630201756954,0.0013419844908639789,0.0
306,5,3.749812094611116e-05,7.403072231682017e-05,7.602464756928384e-05,0.0020178002305328846,-0.005980759393423796,-0.010187662206590176,0.00642343470826745,0.35924169421195984,0.0027839692775160074,-0.0015787685988470912,-0.0022988913115113974,-0.0028299218975007534,0.0,0.0,0.0,0.00044266536133363843,0.000850899494253099,-0.0,0.0,0.0,0.0,-0.004999999888241291,-0.004999999888241291,6.569297514823214e-13,1495.0,1495.0,1495.0,1495.0,0.0,0.0,0.0,0.0,0.0,0.0,0.0,0.0,1495.0,1495.0,1495.0,1495.0,1.6355485916137695,-0.2717772392209273,-0.36736506953481246,-0.1066053060956037,-0.0033534630201756954,0.0013419844908639789,0.0
311,5,6.700155154248932e-06,3.152286808472127e-05,4.157920557190664e-05,-0.002888635965064168,0.0027086385525763035,5.838783908984624e-05,0.00642343470826745,0.35924169421195984,0.0027839692775160074,-0.0015787685988470912,-0.0022988913115113974,-0.0028299218975007534,0.0,0.0,0.0,0.007287077140063047,0.0019083053339272738,-0.0,0.0,0.0,0.0,-0.004999999888241291,-0.004999999888241291,6.569297514823214e-13,1495.0,1495.0,1495.0,1495.0,0.0,0.0,0.0,0.0,0.0,0.0,0.0,0.0,1495.0,1495.0,1495.0,1495.0,1.690828800201416,-0.2734136226529804,-0.3647911007723349,-0.10761763035359835,-0.007774771191179752,0.022837815806269646,0.0
316,5,6.961066901567392e-06,4.770886152982712e-05,5.92471806157846e-05,-0.0011241448810324073,-0.0008588636410422623,-0.002096801996231079,0.006428968161344528,0.35921376943588257,0.0027916717808693647,-0.0002413545298622921,0.005279453471302986,-0.0023522863630205393,0.0,0.0,0.0,0.0011464585550129414,-0.0010562703246250749,-0.0,0.0,0.0,0.0,-0.004999999888241291,-0.004999999888241291,-7.220978814892476e-10,1495.0,1495.0,1495.0,1495.0,0.0,0.0,0.0,0.0,0.0,0.0,0.0,0.0,1495.0,1495.0,1495.0,1495.0,1.6405012607574463,-0.2739678472702143,-0.3655681889160972,-0.10747292020272359,0.004175448790192604,0.0034861278254538774,0.0
321,5,7.60148259359994e-06,2.7237194444751367e-05,4.188487946521491e-05,-0.000372808106476441,0.002113054506480694,0.0012447554618120193,0.006428968161344528,0.35921376943588257,0.0027916717808693647,-0.0002413545298622921,0.005279453471302986,-0.0023522863630205393,0.0,0.0,0.0,0.0011464585550129414,-0.0010562703246250749,-0.0,0.0,0.0,0.0,-0.004999999888241291,-0.004999999888241291,-7.220978814892476e-10,1495.0,1495.0,1495.0,1495.0,0.0,0.0,0.0,0.0,0.0,0.0,0.0,0.0,1495.0,1495.0,1495.0,1495.0,1.6405012607574463,-0.2732754230036522,-0.3661776575092354,-0.10750937404723351,0.004175448790192604,0.0034861278254538774,0.0
327,5,3.3363972761435434e-05,5.8979669120162725e-05,7.024017395451665e-05,0.0029423756059259176,-0.002963875187560916,-0.002904733410105109,0.006418943405151367,0.35916581749916077,0.0027882838621735573,0.0014883122639730573,-0.002203837502747774,0.00378175126388669,0.0,0.0,0.0,0.0011464585550129414,-0.0010562703246250749,-0.0,0.0,0.0,0.0,-0.004999999888241291,-0.004999999888241291,1.87866163597894e-11,1495.0,1495.0,1495.0,1495.0,0.0,0.0,0.0,0.0,0.0,0.0,0.0,0.0,1495.0,1495.0,1495.0,1495.0,1.6405012607574463,-0.27208666473721976,-0.3690542981652457,-0.10702435267159964,0.004175448790192604,0.0034861278254538774,0.0
332,5,2.4743847461650148e-05,4.8661011533113196e-05,6.044568362995051e-05,0.00014253525296226144,5.268877430353314e-05,1.3445833246805705e-05,0.006418943405151367,0.35916581749916077,0.0027882838621735573,0.0014883122639730573,-0.002203837502747774,0.00378175126388669,0.0,0.0,0.0,0.0036984835751354694,0.0027896028477698565,-0.0,0.0,0.0,0.0,-0.004999999888241291,-0.004999999888241291,1.87866163597894e-11,1495.0,1495.0,1495.0,1495.0,0.0,0.0,0.0,0.0,0.0,0.0,0.0,0.0,1495.0,1495.0,1495.0,1495.0,1.6690796613693237,-0.27187629511769784,-0.36764122946960176,-0.10651388697648581,-0.01121935248374939,0.011442146264016628,0.0
337,5,3.504278356558643e-05,3.4010310628218576e-05,2.2884996724314988e-05,0.001292886328883469,0.0017791598802432418,0.004512660671025515,0.006418326403945684,0.3592231869697571,0.0028130116406828165,0.0018822550773620605,-0.006970029789954424,0.0005825937259942293,0.0,0.0,0.0,-0.002121798461303115,0.0012699643848463893,-0.0,0.0,0.0,0.0,-0.004999999888241291,-0.004999999888241291,-3.47952638923843e-11,1495.0,1495.0,1495.0,1495.0,0.0,0.0,0.0,0.0,0.0,0.0,0.0,0.0,1495.0,1495.0,1495.0,1495.0,1.6480059623718262,-0.2728174992072375,-0.36628598549422325,-0.1071304406826235,-0.0050431410782039165,-0.006481430493295193,-0.0
342,5,2.919664984801784e-05,2.639490776346065e-05,1.1264096428931225e-05,-0.00018438156985212117,0.0016255121445283294,0.003199572442099452,0.006418326403945684,0.3592231869697571,0.0028130116406828165,0.0018822550773620605,-0.006970029789954424,0.0005825937259942293,0.0,0.0,0.0,-0.002121798461303115,0.0012699643848463893,-0.0,0.0,0.0,0.0,-0.004999999888241291,-0.004999999888241291,-3.47952638923843e-11,1495.0,1495.0,1495.0,1495.0,0.0,0.0,0.0,0.0,0.0,0.0,0.0,0.0,1495.0,1495.0,1495.0,1495.0,1.6480059623718262,-0.2725246874736304,-0.3653965321936363,-0.10737429914362023,-0.0050431410782039165,-0.006481430493295193,-0.0
347,5,1.8926455595646985e-05,2.3584278096677735e-05,6.810395007050829e-06,-0.0013061758363619447,0.000987480510957539,0.0018142730696126819,0.006440534722059965,0.359234094619751,0.0028075517620891333,0.0009925736812874675,0.002744533820077777,0.000891754636541009,0.0,0.0,0.0,-0.002121798461303115,0.0012699643848463893,-0.0,0.0,0.0,0.0,-0.004999999888241291,-0.004999999888241291,1.3118114927657132e-10,1495.0,1495.0,1495.0,1495.0,0.0,0.0,0.0,0.0,0.0,0.0,0.0,0.0,1495.0,1495.0,1495.0,1495.0,1.6480059623718262,-0.273863723866409,-0.3650096134537447,-0.10763478000377356,-0.0050431410782039165,-0.006481430493295193,-0.0
352,5,1.139122832682915e-05,3.1361429137177765e-05,8.362891094293445e-06,-0.0014266975922510028,-0.0005382659728638828,0.0005394096369855106,0.006440534722059965,0.359234094619751,0.0028075517620891333,0.0009925736812874675,0.002744533820077777,0.000891754636541009,0.0,0.0,0.0,-0.0011729642283171415,-0.0012111449614167213,-0.0,0.0,0.0,0.0,-0.004999999888241291,-0.004999999888241291,1.3118114927657132e-10,1495.0,1495.0,1495.0,1495.0,0.0,0.0,0.0,0.0,0.0,0.0,0.0,0.0,1495.0,1495.0,1495.0,1495.0,1.6419528722763062,-0.27365721727734066,-0.3648475134234978,-0.10744606268388311,0.004791906103491783,-0.0035698816645890474,-0.0
357,5,3.3980464650085196e-05,6.609204137930647e-05,5.979388515697792e-05,0.002140029100701213,-0.004382980056107044,-0.005955955479294062,0.006492634303867817,0.35924357175827026,0.0027866256423294544,0.0013103445526212454,-0.006480413023382425,-0.0006301736575551331,0.0,0.0,0.0,-0.0011729642283171415,-0.0012111449614167213,-0.0,0.0,0.0,0.0,-0.004999999888241291,-0.004999999888241291,5.277481784915494e-10,1495.0,1495.0,1495.0,1495.0,0.0,0.0,0.0,0.0,0.0,0.0,0.0,0.0,1495.0,1495.0,1495.0,1495.0,1.6419528722763062,-0.2719595519122104,-0.3681555417414864,-0.10646028817254873,0.004791906103491783,-0.0035698816645890474,-0.0
362,5,2.5623912733863108e-06,1.641696144361049e-05,5.359247552405577e-06,-0.002914156997576356,0.00420781783759594,0.004149774555116892,0.006492634303867817,0.35924357175827026,0.0027866256423294544,0.0013103445526212454,-0.006480413023382425,-0.0006301736575551331,0.0,0.0,0.0,0.005408097058534622,0.0020336539018899202,-0.0,0.0,0.0,0.0,-0.004999999888241291,-0.004999999888241291,5.277481784915494e-10,1495.0,1495.0,1495.0,1495.0,0.0,0.0,0.0,0.0,0.0,0.0,0.0,0.0,1495.0,1495.0,1495.0,1495.0,1.676285743713379,-0.27370747041490995,-0.36440327018244684,-0.10753201161332132,-0.008214295841753483,0.016803402453660965,0.0
367,5,1.541735946375411e-05,3.536444273777306e-05,1.7032713003573008e-05,0.0003769333998207003,-0.0005905707948841155,0.00025909399846568704,0.006479421630501747,0.359273761510849,0.002787994919344783,5.629628503811546e-05,-0.00029210600769147277,0.0012823729775846004,0.0,0.0,0.0,0.0007969699217937887,0.00038125866558402777,-0.0,0.0,0.0,0.0,-0.004999999888241291,-0.004999999888241291,7.06331798605575e-11,1495.0,1495.0,1495.0,1495.0,0.0,0.0,0.0,0.0,0.0,0.0,0.0,0.0,1495.0,1495.0,1495.0,1495.0,1.6334590911865234,-0.2730849119289324,-0.36578804657028285,-0.10725318949852307,-0.001500651123933494,0.00241300743073225,-0.0
372,5,2.451818909321446e-05,1.7329666661680676e-05,-3.474341610854026e-06,0.001242872909642756,0.001927945064380765,0.0025644840206950903,0.006479421630501747,0.359273761510849,0.002787994919344783,5.629628503811546e-05,-0.00029210600769147277,0.0012823729775846004,0.0,0.0,0.0,0.0007969699217937887,0.00038125866558402777,-0.0,0.0,0.0,0.0,-0.004999999888241291,-0.004999999888241291,7.06331798605575e-11,1495.0,1495.0,1495.0,1495.0,0.0,0.0,0.0,0.0,0.0,0.0,0.0,0.0,1495.0,1495.0,1495.0,1495.0,1.6334590911865234,-0.27321426852877534,-0.365702134064171,-0.10749042145195677,-0.001500651123933494,0.00241300743073225,-0.0
377,5,1.700756729405839e-05,1.915627763082739e-06,-2.6448789867572486e-05,-0.0004041254287585616,0.002620862564072013,0.003782727289944887,0.006475905422121286,0.35930711030960083,0.00280920322984457,0.0034404215402901173,0.005694968160241842,0.003585770493373275,0.0,0.0,0.0,-0.003203763859346509,-0.00035646476317197084,-0.0,0.0,0.0,0.0,-0.004999999888241291,-0.004999999888241291,2.5623225763382607e-10,1495.0,1495.0,1495.0,1495.0,0.0,0.0,0.0,0.0,0.0,0.0,0.0,0.0,1495.0,1495.0,1495.0,1495.0,1.652611494064331,-0.27345014382081334,-0.36385466292231566,-0.10767150967445857,0.001419505337253213,-0.009813828393816948,0.0
382,5,2.4208104150602594e-05,1.6931913705775514e-05,2.2982905647950247e-05,0.000702414195984602,-0.0007536092307418585,-0.004418712574988604,0.006475905422121286,0.35930711030960083,0.00280920322984457,0.0034404215402901173,0.005694968160241842,0.003585770493373275,0.0,0.0,0.0,-0.003203763859346509,-0.00035646476317197084,-0.0,0.0,0.0,0.0,-0.004999999888241291,-0.004999999888241291,2.5623225763382607e-10,1495.0,1495.0,1495.0,1495.0,0.0,0.0,0.0,0.0,0.0,0.0,0.0,0.0,1495.0,1495.0,1495.0,1495.0,1.652611494064331,-0.27393365471199094,-0.36465095249113766,-0.10765379538677328,0.001419505337253213,-0.009813828393816948,0.0
387,5,9.262979801860638e-06,1.545883424114436e-05,2.1262711015879177e-05,-0.001512449118308723,-0.00012467421765904874,-0.0015610615955665708,0.006466301158070564,0.3592676520347595,0.0027886712923645973,-0.00042933784425258636,-0.004907121881842613,-0.0035127494484186172,0.0,0.0,0.0,-0.003203763859346509,-0.00035646476317197084,-0.0,0.0,0.0,0.0,-0.004999999888241291,-0.004999999888241291,5.365531352552466e-10,1495.0,1495.0,1495.0,1495.0,0.0,0.0,0.0,0.0,0.0,0.0,0.0,0.0,1495.0,1495.0,1495.0,1495.0,1.652611494064331,-0.2731009268782925,-0.36458716885567766,-0.1075729317832538,0.001419505337253213,-0.009813828393816948,0.0
392,5,3.236611155443825e-05,5.3690873755840585e-05,6.941128231119365e-05,0.0021673960145562887,-0.004637714475393295,-0.006402252707630396,0.006466301158070564,0.3592676520347595,0.0027886712923645973,-0.00042933784425258636,-0.004907121881842613,-0.0035127494484186172,0.0,0.0,0.0,0.00018294467008672655,-0.0014207807835191488,-0.0,0.0,0.0,0.0,-0.004999999888241291,-0.004999999888241291,5.365531352552466e-10,1495.0,1495.0,1495.0,1495.0,0.0,0.0,0.0,0.0,0.0,0.0,0.0,0.0,1495.0,1495.0,1495.0,1495.0,1.6410596370697021,-0.2721646244705691,-0.3683418932377491,-0.10666554447166392,0.005618277471512556,0.0005564839811995625,0.0
398,5,-7.754696525807958e-06,4.573562910081819e-05,3.5096356441499665e-05,-0.003947538323700428,-0.0009004565654322505,0.0015568898525089025,0.006475063040852547,0.35933226346969604,0.0027816928923130035,0.0007820514147169888,-0.00688613997772336,-0.001653006300330162,0.0,0.0,0.0,0.00018294467008672655,-0.0014207807835191488,-0.0,0.0,0.0,0.0,-0.004999999888241291,-0.004999999888241291,3.678957832820018e-11,1495.0,1495.0,1495.0,1495.0,0.0,0.0,0.0,0.0,0.0,0.0,0.0,0.0,1495.0,1495.0,1495.0,1495.0,1.6410596370697021,-0.2735460740096914,-0.3658060974812622,-0.1072459415607306,0.005618277471512556,0.0005564839811995625,0.0
403,5,-9.208072697219905e-06,3.999947875854559e-05,1.2129643437219784e-05,-0.0017534205690026283,0.0003281554381828755,0.0033787612337619066,0.006475063040852547,0.35933226346969604,0.0027816928923130035,0.0007820514147169888,-0.00688613997772336,-0.001653006300330162,0.0,0.0,0.0,0.0011755117448046803,-0.003695134771987796,-0.0,0.0,0.0,0.0,-0.004999999888241291,-0.004999999888241291,3.678957832820018e-11,1495.0,1495.0,1495.0,1495.0,0.0,0.0,0.0,0.0,0.0,0.0,0.0,0.0,1495.0,1495.0,1495.0,1495.0,1.6670749187469482,-0.27354626127524706,-0.36521379349297844,-0.10751070315288057,0.014843489974737167,0.0036323731765151024,-0.0
408,5,2.5789940991671756e-05,5.1906201406382024e-05,4.083553358213976e-05,0.003498393576592207,-0.001297544571571052,-0.0020932022016495466,0.006475063040852547,0.35933226346969604,0.0027816928923130035,0.0007820514147169888,-0.00688613997772336,-0.001653006300330162,0.0,0.0,0.0,0.0011755117448046803,-0.003695134771987796,-0.0,0.0,0.0,0.0,-0.004999999888241291,-0.004999999888241291,3.678957832820018e-11,1495.0,1495.0,1495.0,1495.0,0.0,0.0,0.0,0.0,0.0,0.0,0.0,0.0,1495.0,1495.0,1495.0,1495.0,1.6670749187469482,-0.2725619582670998,-0.3673272297708926,-0.1069544769721502,0.014843489974737167,0.0036323731765151024,-0.0
413,5,1.014381086861249e-05,2.0756322555826046e-05,6.670660241070436e-06,-0.0004781782627105713,0.0032189679332077503,0.003262503771111369,0.00646771676838398,0.35937443375587463,0.002787739271298051,-0.001776676275767386,-0.002481417264789343,-0.00015100688324309886,0.0,0.0,0.0,0.0016712973592802882,0.003307391656562686,-0.0,0.0,0.0,0.0,-0.004999999888241291,-0.004999999888241291,2.1183622911369326e-10,1495.0,1495.0,1495.0,1495.0,0.0,0.0,0.0,0.0,0.0,0.0,0.0,0.0,1495.0,1495.0,1495.0,1495.0,1.6642447710037231,-0.2734416890008009,-0.3647472462203258,-0.10724746199201927,-0.013263353146612644,0.005155598744750023,0.0
418,5,2.160022449970711e-05,4.231080674799159e-05,1.833524765970651e-05,0.0011834984179586172,-0.0012989508686587214,-9.474898251937702e-05,0.00646771676838398,0.35937443375587463,0.002787739271298051,-0.001776676275767386,-0.002481417264789343,-0.00015100688324309886,0.0,0.0,0.0,0.0016712973592802882,0.003307391656562686,-0.0,0.0,0.0,0.0,-0.004999999888241291,-0.004999999888241291,2.1183622911369326e-10,1495.0,1495.0,1495.0,1495.0,0.0,0.0,0.0,0.0,0.0,0.0,0.0,0.0,1495.0,1495.0,1495.0,1495.0,1.6642447710037231,-0.27329183393518797,-0.3653457389379265,-0.1073351282546606,-0.013263353146612644,0.005155598744750023,0.0
423,5,4.110536610824056e-05,5.3000887419329956e-05,4.321510641602799e-05,0.0028140160720795393,-0.001802390324883163,-0.0030234823934733868,0.006475248374044895,0.35927703976631165,0.0027548957150429487,0.00013818166917189956,-0.002405457431450486,0.006031172350049019,0.0,0.0,0.0,0.0016760268481448293,0.0011507614981383085,-0.0,0.0,0.0,0.0,-0.004999999888241291,-0.004999999888241291,-1.5679593734496677e-10,1495.0,1495.0,1495.0,1495.0,0.0,0.0,0.0,0.0,0.0,0.0,0.0,0.0,1495.0,1495.0,1495.0,1495.0,1.644312858581543,-0.2717097143711681,-0.36817541334908166,-0.10649274636417923,-0.004559539258480072,0.005108267068862915,0.0
428,5,3.2698906579753384e-05,2.6153264116146602e-05,2.2103340597823262e-05,0.00011683138291118667,0.0025007587391883135,0.001324018812738359,0.006475248374044895,0.35927703976631165,0.0027548957150429487,0.00013818166917189956,-0.002405457431450486,0.006031172350049019,0.0,0.0,0.0,0.0016760268481448293,0.0011507614981383085,-0.0,0.0,0.0,0.0,-0.004999999888241291,-0.004999999888241291,-1.5679593734496677e-10,1495.0,1495.0,1495.0,1495.0,0.0,0.0,0.0,0.0,0.0,0.0,0.0,0.0,1495.0,1495.0,1495.0,1495.0,1.644312858581543,-0.2725221598692112,-0.3662602803918948,-0.1071938967236874,-0.004559539258480072,0.005108267068862915,0.0
433,5,1.3507332369044889e-05,2.0168965420452878e-05,6.578691682079807e-06,-0.0022562562953680754,0.001718419254757464,0.0023925653658807278,0.006446728948503733,0.35932424664497375,0.0027525571640580893,-0.005197205115109682,0.0007654007058590651,-0.00841046217828989,0.0,0.0,0.0,-0.003016258357092738,0.00015604218060616404,-0.0,0.0,0.0,0.0,-0.004999999888241291,-0.004999999888241291,-3.536842207996216e-10,1495.0,1495.0,1495.0,1495.0,0.0,0.0,0.0,0.0,0.0,0.0,0.0,0.0,1495.0,1495.0,1495.0,1495.0,1.6508128643035889,-0.2735955358186145,-0.3654188587358402,-0.1072513791028001,-0.0006207114784047008,-0.009229405783116817,-0.0
438,5,1.799759775167331e-05,9.346085789729841e-06,-7.910502404229192e-07,-0.0003636706678662449,0.001986113376915455,0.0018413951620459557,0.006446728948503733,0.35932424664497375,0.0027525571640580893,-0.005197205115109682,0.0007654007058590651,-0.00841046217828989,0.0,0.0,0.0,-0.003016258357092738,0.00015604218060616404,-0.0,0.0,0.0,0.0,-0.004999999888241291,-0.004999999888241291,-3.536842207996216e-10,1495.0,1495.0,1495.0,1495.0,0.0,0.0,0.0,0.0,0.0,0.0,0.0,0.0,1495.0,1495.0,1495.0,1495.0,1.6508128643035889,-0.2733673466651107,-0.3653500612462569,-0.10759072474170917,-0.0006207114784047008,-0.009229405783116817,-0.0
443,5,2.6802645152201876e-05,5.692561171599664e-05,5.42857960681431e-05,0.0009111373219639063,-0.00491509772837162,-0.005872663576155901,0.006444246042519808,0.35932356119155884,0.002724724356085062,-0.001738145248964429,0.004102058243006468,-0.0021619205363094807,0.0,0.0,0.0,-0.002422687830403447,-0.00031815856345929205,-0.0,0.0,0.0,0.0,-0.004999999888241291,-0.004999999888241291,7.628857615071816e-12,1495.0,1495.0,1495.0,1495.0,0.0,0.0,0.0,0.0,0.0,0.0,0.0,0.0,1495.0,1495.0,1495.0,1495.0,1.6460769176483154,-0.2710192127230983,-0.3685533195139197,-0.10667824043450322,0.001261956407688558,-0.007391887716948986,0.0
448,5,-1.850949502113508e-06,8.307450116262771e-06,-1.5265228284988552e-05,-0.0030739763751626015,0.0038681402802467346,0.005997057538479567,0.006444246042519808,0.35932356119155884,0.002724724356085062,-0.001738145248964429,0.004102058243006468,-0.0021619205363094807,0.0,0.0,0.0,-0.002422687830403447,-0.00031815856345929205,-0.0,0.0,0.0,0.0,-0.004999999888241291,-0.004999999888241291,7.628857615071816e-12,1495.0,1495.0,1495.0,1495.0,0.0,0.0,0.0,0.0,0.0,0.0,0.0,0.0,1495.0,1495.0,1495.0,1495.0,1.6460769176483154,-0.273478040484672,-0.36442005889037266,-0.10758563433676326,0.001261956407688558,-0.007391887716948986,0.0
453,5,1.0677119462343398e-05,2.7788826628238894e-05,2.55288523476338e-05,0.00027377778314985335,-0.0007905091042630374,-0.002496466739103198,0.006421769503504038,0.35925158858299255,0.0027268396224826574,-0.0013333647511899471,0.005516808945685625,0.006943174172192812,0.0,0.0,0.0,-0.002422687830403447,-0.00031815856345929205,-0.0,0.0,0.0,0.0,-0.004999999888241291,-0.004999999888241291,4.699916567041384e-10,1495.0,1495.0,1495.0,1495.0,0.0,0.0,0.0,0.0,0.0,0.0,0.0,0.0,1495.0,1495.0,1495.0,1495.0,1.6460769176483154,-0.272775721303488,-0.3656579423619097,-0.10722683831666745,-0.0010882553178817034,0.0031219928059726954,0.0
458,5,1.3670349972016993e-06,3.129545439151116e-05,1.960910412890371e-05,-0.0010076990583911538,-0.0007369989762082696,-0.0002882169501390308,0.006421769503504038,0.35925158858299255,0.0027268396224826574,-0.0013333647511899471,0.005516808945685625,0.006943174172192812,0.0,0.0,0.0,0.0010303391609340906,0.0002762713411357254,-0.0,0.0,0.0,0.0,-0.004999999888241291,-0.004999999888241291,4.699916567041384e-10,1495.0,1495.0,1495.0,1495.0,0.0,0.0,0.0,0.0,0.0,0.0,0.0,0.0,1495.0,1495.0,1495.0,1495.0,1.6347196102142334,-0.2737851191410462,-0.3651269448771222,-0.1072689253619434,-0.0010882553178817034,0.0031219928059726954,0.0
463,5,1.938789318955969e-05,4.243806324666366e-05,5.4357977205654606e-05,0.0017594232922419906,-0.0016319126589223742,-0.0042851511389017105,0.006413374561816454,0.35925114154815674,0.002745092613622546,8.766845712671056e-05,-0.002349506365135312,0.0028476284351199865,0.0,0.0,0.0,0.0010303391609340906,0.0002762713411357254,-0.0,0.0,0.0,0.0,-0.004999999888241291,-0.004999999888241291,-7.085757328106901e-12,1495.0,1495.0,1495.0,1495.0,0.0,0.0,0.0,0.0,0.0,0.0,0.0,0.0,1495.0,1495.0,1495.0,1495.0,1.6347196102142334,-0.27311866430785603,-0.36668082146895964,-0.10719845439529926,-0.0010882553178817034,0.0031219928059726954,0.0
469,5,2.295896047144197e-05,4.932941737934016e-05,5.650697858072817e-05,0.0011322975624352694,-0.0014797274488955736,-0.0019719405099749565,0.006413374561816454,0.35925114154815674,0.002745092613622546,8.766845712671056e-05,-0.002349506365135312,0.0028476284351199865,0.0,0.0,0.0,0.0020778817124664783,0.0016862142365425825,-0.0,0.0,0.0,0.0,-0.004999999888241291,-0.004999999888241291,-7.085757328106901e-12,1495.0,1495.0,1495.0,1495.0,0.0,0.0,0.0,0.0,0.0,0.0,0.0,0.0,1495.0,1495.0,1495.0,1495.0,1.6507887840270996,-0.27347093613091916,-0.3667056760951283,-0.10741326887773991,-0.006707412656396627,0.006357996724545956,0.0
474,5,9.35730986384442e-06,3.821252175839618e-05,3.75124545826111e-05,-0.0011792790610343218,0.0007421366171911359,0.0014905662974342704,0.006422081030905247,0.35929495096206665,0.002743464196100831,0.0019253400387242436,-0.003353771520778537,-0.00019105139654129744,0.0,0.0,0.0,0.0020778817124664783,0.0016862142365425825,-0.0,0.0,0.0,0.0,-0.004999999888241291,-0.004999999888241291,1.9705974352302036e-10,1495.0,1495.0,1495.0,1495.0,0.0,0.0,0.0,0.0,0.0,0.0,0.0,0.0,1495.0,1495.0,1495.0,1495.0,1.6507887840270996,-0.2734612712155243,-0.3650190465917674,-0.1075024246281284,-0.006707412656396627,0.006357996724545956,0.0
479,5,3.369168553035706e-05,6.404894520528615e-05,6.932858377695084e-05,0.002448413288220763,-0.0028035161085426807,-0.003221709281206131,0.006422081030905247,0.35929495096206665,0.002743464196100831,0.0019253400387242436,-0.003353771520778537,-0.00019105139654129744,0.0,0.0,0.0,-0.0008449665037915111,-0.0011056229704990983,-0.0,0.0,0.0,0.0,-0.004999999888241291,-0.004999999888241291,1.9705974352302036e-10,1495.0,1495.0,1495.0,1495.0,0.0,0.0,0.0,0.0,0.0,0.0,0.0,0.0,1495.0,1495.0,1495.0,1495.0,1.6394914388656616,-0.27224052942839727,-0.36842728795829444,-0.106753723155295,0.00436785165220499,-0.0025677757803350687,-0.0
484,5,2.5096138415392488e-05,3.1250412575900555e-05,3.900819501723163e-05,-5.210020754020661e-05,0.0028144174721091986,0.0023497631773352623,0.006441123783588409,0.3592945635318756,0.0027453554794192314,-0.0007585104322060943,0.0038125738501548767,0.005124276969581842,0.0,0.0,0.0,-0.0008449665037915111,-0.0011056229704990983,-0.0,0.0,0.0,0.0,-0.004999999888241291,-0.004999999888241291,3.5865603022211534e-12,1495.0,1495.0,1495.0,1495.0,0.0,0.0,0.0,0.0,0.0,0.0,0.0,0.0,1495.0,1495.0,1495.0,1495.0,1.6394914388656616,-0.27309950491468754,-0.3661222920090289,-0.10715216100987622,0.00436785165220499,-0.0025677757803350687,-0.0
489,5,9.018092896440066e-06,2.4145092538674362e-05,3.099886089330539e-05,-0.0019502055365592241,0.00197840528562665,0.0019010254181921482,0.006441123783588409,0.3592945635318756,0.0027453554794192314,-0.0007585104322060943,0.0038125738501548767,0.005124276969581842,0.0,0.0,0.0,-0.0033850613981485367,-1.3617258446174674e-05,-0.0,0.0,0.0,0.0,-0.004999999888241291,-0.004999999888241291,3.5865603022211534e-12,1495.0,1495.0,1495.0,1495.0,0.0,0.0,0.0,0.0,0.0,0.0,0.0,0.0,1495.0,1495.0,1495.0,1495.0,1.6538572311401367,-0.27255236767081426,-0.36576233360782007,-0.1072865967981096,5.4267162340693176e-05,-0.01037699542939663,-0.0
494,5,8.018830158107448e-06,1.3551553820434492e-05,1.534475086373277e-05,-0.0008999937563203275,0.002062586834654212,0.002638903446495533,0.006431383080780506,0.35926300287246704,0.002753830747678876,0.0007934981258586049,0.0004758106078952551,0.0013082630466669798,0.0,0.0,0.0,-0.0033850613981485367,-1.3617258446174674e-05,-0.0,0.0,0.0,0.0,-0.004999999888241291,-0.004999999888241291,-3.6017818502015464e-12,1495.0,1495.0,1495.0,1495.0,0.0,0.0,0.0,0.0,0.0,0.0,0.0,0.0,1495.0,1495.0,1495.0,1495.0,1.6538572311401367,-0.2728591287967892,-0.3653026854413817,-0.10696560334862558,5.4267162340693176e-05,-0.01037699542939663,-0.0
499,5,1.5949619410093874e-05,1.7302112610195763e-05,1.1472925507405307e-05,0.000591697113122791,0.0003749676689039916,0.0015201803762465715,0.006434800568968058,0.3592897355556488,0.002760724164545536,0.00039015538641251624,-0.007921222597360611,0.0032834436278790236,0.0,0.0,0.0,-0.002505405806005001,-0.0008378124330192804,-0.0,0.0,0.0,0.0,-0.004999999888241291,-0.004999999888241291,2.2066437566081731e-10,1495.0,1495.0,1495.0,1495.0,0.0,0.0,0.0,0.0,0.0,0.0,0.0,0.0,1495.0,1495.0,1495.0,1495.0,1.6483705043792725,-0.27290373709541893,-0.3659656468147559,-0.10756100392486243,0.0033277610782533884,-0.007654920220375061,-0.0
504,5,2.311242133146152e-05,1.0399637176305987e-05,7.308179192477837e-06,0.00109621521551162,0.0009782841661944985,0.0011078417301177979,0.006434800568968058,0.3592897355556488,0.002760724164545536,0.00039015538641251624,-0.007921222597360611,0.0032834436278790236,0.0,0.0,0.0,-0.002505405806005001,-0.0008378124330192804,-0.0,0.0,0.0,0.0,-0.004999999888241291,-0.004999999888241291,2.2066437566081731e-10,1495.0,1495.0,1495.0,1495.0,0.0,0.0,0.0,0.0,0.0,0.0,0.0,0.0,1495.0,1495.0,1495.0,1495.0,1.6483705043792725,-0.27352058829746234,-0.36567369056761084,-0.10764753272909432,0.0033277610782533884,-0.007654920220375061,-0.0
509,5,1.3990343177283648e-05,1.6189396774279885e-05,1.0973307325912174e-05,-0.0006561633781529963,-0.00030345754930749536,3.3213232200068887e-06,0.006434800568968058,0.3592897355556488,0.002760724164545536,0.00039015538641251624,-0.007921222597360611,0.0032834436278790236,0.0,0.0,0.0,-0.001185656525194645,0.0010726599721238017,-0.0,0.0,0.0,0.0,-0.004999999888241291,-0.004999999888241291,2.2066437566081731e-10,1495.0,1495.0,1495.0,1495.0,0.0,0.0,0.0,0.0,0.0,0.0,0.0,0.0,1495.0,1495.0,1495.0,1495.0,1.640846610069275,-0.27247474525389354,-0.36582535692589363,-0.1072601482677386,-0.004241129849106073,-0.0036060791462659836,-0.0
514,5,1.5656265532015823e-05,1.1059381904487964e-05,-2.531322707000072e-06,-6.255469634197652e-05,0.0004942187806591392,0.0016218841774389148,0.006431249435991049,0.3593645989894867,0.002762306248769164,0.0038760786410421133,-0.0033291950821876526,0.0022352926898747683,0.0,0.0,0.0,-0.001185656525194645,0.0010726599721238017,-0.0,0.0,0.0,0.0,-0.004999999888241291,-0.004999999888241291,-3.496861827878561e-11,1495.0,1495.0,1495.0,1495.0,0.0,0.0,0.0,0.0,0.0,0.0,0.0,0.0,1495.0,1495.0,1495.0,1495.0,1.640846610069275,-0.273133604754153,-0.3651784429757865,-0.10739515731743857,-0.004241129849106073,-0.0036060791462659836,-0.0
519,5,2.1531557649723254e-05,2.9726486900472082e-05,2.2248814275371842e-05,0.0006800132687203586,-0.002042365027591586,-0.002324862638488412,0.006431249435991049,0.3593645989894867,0.002762306248769164,0.0038760786410421133,-0.0033291950821876526,0.0022352926898747683,0.0,0.0,0.0,-0.000591294898185879,-3.6955119867343456e-05,-0.0,0.0,0.0,0.0,-0.004999999888241291,-0.004999999888241291,-3.496861827878561e-11,1495.0,1495.0,1495.0,1495.0,0.0,0.0,0.0,0.0,0.0,0.0,0.0,0.0,1495.0,1495.0,1495.0,1495.0,1.6306135654449463,-0.27277201686936553,-0.3661793840732465,-0.10727405894511577,0.00014520363765768707,-0.001787161105312407,0.0
