timestamp,dt,pos_x,pos_y,pos_z,vel_x,vel_y,vel_z,roll,pitch,yaw,agv_x,agv_y,agv_z,x_ref,y_ref,z_ref,roll_ref,pitch_ref,yaw_ref,x_vel_ref,y_vel_ref,z_vel_ref,x_torque,y_torque,z_torque,w0,w1,w2,w3,u0,u1,u2,u3,m0req,m1req,m2req,m3req,thrust0,thrust1,thrust2,thrust3,thrust_ref,roll_vicon,pitch_vicon,yaw_vicon,acc_x,acc_y,acc_z
5,5,0.0,0.0,0.0,-0.003612549975514412,-0.005180741660296917,-0.008681491948664188,0.0017791419522836804,0.29877087473869324,0.005996598396450281,1.2508498002716806e-05,0.0036460377741605043,-0.003159464104101062,0.0,0.0,0.0,0.006203320808708668,-0.003327414393424988,-0.0,0.0,0.0,0.0,-0.004999999888241291,-0.004999999888241291,-4.4166694607161716e-11,1495.0,1495.0,1495.0,1495.0,0.0,0.0,0.0,0.0,0.0,0.0,0.0,0.0,1495.0,1495.0,1495.0,1495.0,1.6896451711654663,-2.948102272381597,0.3881412506798627,1.6566244873431513,0.013547062873840332,0.01942778192460537,0.0
52,47,0.0,0.0,0.0,0.001779259997420013,-0.002012210665270686,0.00142059032805264,0.0017791419522836804,0.29877087473869324,0.005996598396450281,1.2508498002716806e-05,0.0036460377741605043,-0.003159464104101062,0.0,0.0,0.0,0.006203320808708668,-0.003327414393424988,-0.0,0.0,0.0,0.0,-0.004999999888241291,-0.004999999888241291,-4.4166694607161716e-11,1495.0,1495.0,1495.0,1495.0,0.0,0.0,0.0,0.0,0.0,0.0,0.0,0.0,1495.0,1495.0,1495.0,1495.0,1.6896451711654663,-2.944879231986127,0.38726862950734675,1.654979044954117,0.013547062873840332,0.01942778192460537,0.0
57,5,0.0,0.0,0.0,-0.01603834144771099,-0.0035910331644117832,-0.045531343668699265,0.0017692631809040904,0.2987474799156189,0.006001659668982029,-0.001978631829842925,0.0062680053524672985,0.0006696865311823785,0.0,0.0,0.0,0.0024627221282571554,0.0016750922659412026,-0.0,0.0,0.0,0.0,-0.004999999888241291,-0.004999999888241291,1.8758931907836285e-10,1495.0,1495.0,1495.0,1495.0,0.0,0.0,0.0,0.0,0.0,0.0,0.0,0.0,1495.0,1495.0,1495.0,1495.0,1.6530331373214722,-2.9644006288905147,0.387882563830237,1.661979147902998,-0.006672224961221218,0.007545790169388056,0.0
62,5,0.0,0.0,0.0,-0.01603834144771099,-0.0035910331644117832,-0.045531343668699265,0.0017692631809040904,0.2987474799156189,0.006001659668982029,-0.001978631829842925,0.0062680053524672985,0.0006696865311823785,0.0,0.0,0.0,0.0024627221282571554,0.0016750922659412026,-0.0,0.0,0.0,0.0,-0.004999999888241291,-0.004999999888241291,1.8758931907836285e-10,1495.0,1495.0,1495.0,1495.0,0.0,0.0,0.0,0.0,0.0,0.0,0.0,0.0,1495.0,1495.0,1495.0,1495.0,1.6530331373214722,-2.9644006288905147,0.387882563830237,1.661979147902998,-0.006672224961221218,0.007545790169388056,0.0
73,11,0.0,0.0,0.0,0.010362844914197922,0.0019655865617096424,-0.009219515137374401,0.0017692631809040904,0.2987474799156189,0.006001659668982029,-0.001978631829842925,0.0062680053524672985,0.0006696865311823785,0.0,0.0,0.0,0.004058758728206158,-0.013944578357040882,-0.0,0.0,0.0,0.0,-0.004999999888241291,-0.004999999888241291,-1.1149962030054805e-11,1495.0,1495.0,1495.0,1495.0,0.0,0.0,0.0,0.0,0.0,0.0,0.0,0.0,1495.0,1495.0,1495.0,1495.0,1.7899919748306274,-2.965025879018325,0.3943370853319648,1.6561233268790316,0.06014377996325493,0.013466374017298222,0.0
78,5,0.011281493119895458,0.01059808861464262,0.005100298207253218,0.010362844914197922,0.0019655865617096424,-0.009219515137374401,0.0017692631809040904,0.2987474799156189,0.006001659668982029,-0.001978631829842925,0.0062680053524672985,0.0006696865311823785,0.0,0.0,0.0,-0.0022961089853197336,0.009311993606388569,-0.0,0.0,0.0,0.0,-0.004999999888241291,-0.004999999888241291,-1.1149962030054805e-11,1495.0,1495.0,1495.0,1495.0,0.0,0.0,0.0,0.0,0.0,0.0,0.0,0.0,1495.0,1495.0,1495.0,1495.0,1.7319010496139526,-0.1626878544969329,-0.5063113498728863,-0.09114287292596518,-0.03886066749691963,-0.007370949722826481,0.0
83,5,0.011804867535829544,0.010498115792870522,0.0036263728979974985,0.06695001572370529,0.012782925739884377,0.17318321764469147,0.0017692631809040904,0.2987474799156189,0.006001659668982029,-0.001978631829842925,0.0062680053524672985,0.0006696865311823785,0.0,0.0,0.0,-0.0022961089853197336,0.009311993606388569,-0.0,0.0,0.0,0.0,-0.004999999888241291,-0.004999999888241291,-1.1149962030054805e-11,1495.0,1495.0,1495.0,1495.0,0.0,0.0,0.0,0.0,0.0,0.0,0.0,0.0,1495.0,1495.0,1495.0,1495.0,1.7319010496139526,-0.1534556430579286,-0.4584509234326672,-0.08445529606693167,-0.03886066749691963,-0.007370949722826481,0.0
88,5,0.012250077910721302,0.010290619917213917,0.0016330997459590435,0.06695001572370529,0.012782925739884377,0.17318321764469147,0.0017779582412913442,0.2987566292285919,0.005991088226437569,-0.0003848158521577716,0.0024325528647750616,-0.001982111018151045,0.0,0.0,0.0,0.0022149919532239437,0.054719049483537674,-0.0,0.0,0.0,0.0,-0.004999999888241291,-0.004999999888241291,-6.887469067295982e-11,1495.0,1495.0,1495.0,1495.0,0.0,0.0,0.0,0.0,0.0,0.0,0.0,0.0,1495.0,1495.0,1495.0,1495.0,2.398085594177246,-0.14590757092708237,-0.4008148288612139,-0.0798484071511722,-0.31603655219078064,0.009845658205449581,-0.0
95,7,0.012474940158426762,0.01021493412554264,0.0010044337250292301,0.053763411939144135,0.014195437543094158,0.14471320807933807,0.0017779582412913442,0.2987566292285919,0.005991088226437569,-0.0003848158521577716,0.0024325528647750616,-0.001982111018151045,0.0,0.0,0.0,0.0007121586822904646,0.04885898157954216,-0.0,0.0,0.0,0.0,-0.004999999888241291,-0.004999999888241291,-6.887469067295982e-11,1495.0,1495.0,1495.0,1495.0,0.0,0.0,0.0,0.0,0.0,0.0,0.0,0.0,1495.0,1495.0,1495.0,1495.0,2.296984910964966,-0.143714858600372,-0.37524815693508795,-0.07900993991312798,-0.2703220844268799,0.003032098989933729,-0.0
100,5,0.012442103587090969,0.010294514708220959,0.0010697789257392287,0.01756497286260128,-0.0038714406546205282,0.05004385858774185,0.0017779582412913442,0.2987566292285919,0.005991088226437569,-0.0003848158521577716,0.0024325528647750616,-0.001982111018151045,0.0,0.0,0.0,0.0007121586822904646,0.04885898157954216,-0.0,0.0,0.0,0.0,-0.004999999888241291,-0.004999999888241291,-6.887469067295982e-11,1495.0,1495.0,1495.0,1495.0,0.0,0.0,0.0,0.0,0.0,0.0,0.0,0.0,1495.0,1495.0,1495.0,1495.0,2.296984910964966,-0.1429766554951846,-0.3772748948274946,-0.07743189682740959,-0.2703220844268799,0.003032098989933729,-0.0
105,5,0.012416426092386246,0.010396493598818779,0.0011163372546434402,0.0039447033777832985,-0.013786098919808865,0.014430544339120388,0.0017536170780658722,0.29874783754348755,0.005957461893558502,-0.002345113316550851,0.002198116621002555,0.002789480844512582,0.0,0.0,0.0,0.029669517651200294,0.017430292442440987,-0.0,0.0,0.0,0.0,-0.004999999888241291,-0.004999999888241291,3.2726021892415247e-10,1495.0,1495.0,1495.0,1495.0,0.0,0.0,0.0,0.0,0.0,0.0,0.0,0.0,1495.0,1495.0,1495.0,1495.0,1.9826006889343262,-0.1417798775082008,-0.37798892295830694,-0.07502692282778364,-0.08322976529598236,0.10900302231311798,-0.0
110,5,0.012382663786411285,0.010566133074462414,0.001232492970302701,-0.002473597414791584,-0.025871172547340393,-0.008166471496224403,0.0017438599606975913,0.2987406253814697,0.00597131485119462,-0.002171517349779606,0.006130566820502281,0.0010727198095992208,0.0,0.0,0.0,0.029669517651200294,0.017430292442440987,-0.0,0.0,0.0,0.0,-0.004999999888241291,-0.004999999888241291,3.888422916986656e-11,1495.0,1495.0,1495.0,1495.0,0.0,0.0,0.0,0.0,0.0,0.0,0.0,0.0,1495.0,1495.0,1495.0,1495.0,1.9826006889343262,-0.14019173583415348,-0.37998647059078294,-0.07145285147436363,-0.08322976529598236,0.10900302231311798,-0.0
115,5,4.263003938831389e-05,2.051536830549594e-05,-0.0007226290181279182,-0.002473597414791584,-0.025871172547340393,-0.008166471496224403,0.0017438599606975913,0.2987406253814697,0.00597131485119462,-0.002171517349779606,0.006130566820502281,0.0010727198095992208,0.0,0.0,0.0,0.029669517651200294,0.017430292442440987,-0.0,0.0,0.0,0.0,-0.004999999888241291,-0.004999999888241291,3.888422916986656e-11,1495.0,1495.0,1495.0,1495.0,0.0,0.0,0.0,0.0,0.0,0.0,0.0,0.0,1495.0,1495.0,1495.0,1495.0,1.9826006889343262,-2.943532846798188,0.38806160415974217,1.6549352311460288,-0.08322976529598236,0.10900302231311798,-0.0
121,5,3.758700404432602e-05,2.0424024114618078e-05,-0.0006254750769585371,-0.0015946031780913472,-0.010337508283555508,-0.014925061725080013,0.0017438599606975913,0.2987406253814697,0.00597131485119462,-0.002171517349779606,0.006130566820502281,0.0010727198095992208,0.0,0.0,0.0,0.027867240831255913,-0.0019608018919825554,-0.0,0.0,0.0,0.0,-0.004999999888241291,-0.004999999888241291,3.888422916986656e-11,1495.0,1495.0,1495.0,1495.0,0.0,0.0,0.0,0.0,0.0,0.0,0.0,0.0,1495.0,1495.0,1495.0,1495.0,1.8832510709762573,-2.946209678136528,0.3883474438502654,1.6554135903476555,0.008894569240510464,0.09725425392389297,0.0
126,5,2.4410489913861966e-06,9.135937034443486e-06,-0.0005608954816125333,-0.004855355713516474,-0.002780432580038905,-0.013719579204916954,0.0017448526341468096,0.29875877499580383,0.00596033688634634,-0.0007105066324584186,-0.0041111549362540245,0.0012862838339060545,0.0,0.0,0.0,0.027867240831255913,-0.0019608018919825554,-0.0,0.0,0.0,0.0,-0.004999999888241291,-0.004999999888241291,-1.868440402397198e-10,1495.0,1495.0,1495.0,1495.0,0.0,0.0,0.0,0.0,0.0,0.0,0.0,0.0,1495.0,1495.0,1495.0,1495.0,1.8832510709762573,-2.948881973398721,0.38763527779978163,1.6567635383716826,0.008894569240510464,0.09725425392389297,0.0
131,5,-0.00017068289162125438,1.7356833268422633e-05,-9.453215170651674e-05,-0.02271701581776142,-0.0020986804738640785,-0.06145142763853073,0.0017365140374749899,0.2987767457962036,0.00599064351990819,0.000423270306782797,-0.00034807942574843764,6.06795510975644e-05,0.0,0.0,0.0,0.0033998917788267136,-0.004452147521078587,-0.0,0.0,0.0,0.0,-0.004999999888241291,-0.004999999888241291,1.4382646462696158e-10,1495.0,1495.0,1495.0,1495.0,0.0,0.0,0.0,0.0,0.0,0.0,0.0,0.0,1495.0,1495.0,1495.0,1495.0,1.6822563409805298,-2.964788258098371,0.38746602434839944,1.6625753342007874,0.018047193065285683,0.010601426474750042,0.0
136,5,-0.00015580689068883657,9.478449101152364e-06,-8.16440733615309e-05,-0.00730168679729104,0.00010593386832624674,-0.02612714096903801,0.0017365140374749899,0.2987767457962036,0.00599064351990819,0.000423270306782797,-0.00034807942574843764,6.06795510975644e-05,0.0,0.0,0.0,0.0033998917788267136,-0.004452147521078587,-0.0,0.0,0.0,0.0,-0.004999999888241291,-0.004999999888241291,1.4382646462696158e-10,1495.0,1495.0,1495.0,1495.0,0.0,0.0,0.0,0.0,0.0,0.0,0.0,0.0,1495.0,1495.0,1495.0,1495.0,1.6822563409805298,-2.964769238477441,0.3885776449689949,1.6618236148106658,0.018047193065285683,0.010601426474750042,0.0
141,5,-7.965799886733294e-05,-1.0746323823696002e-05,-5.645630517392419e-05,0.006217192858457565,0.002469346160069108,-0.013473388738930225,0.0017365140374749899,0.2987767457962036,0.00599064351990819,0.000423270306782797,-0.00034807942574843764,6.06795510975644e-05,0.0,0.0,0.0,-6.992626003921032e-05,-0.006852077320218086,-0.0,0.0,0.0,0.0,-0.004999999888241291,-0.004999999888241291,1.4382646462696158e-10,1495.0,1495.0,1495.0,1495.0,0.0,0.0,0.0,0.0,0.0,0.0,0.0,0.0,1495.0,1495.0,1495.0,1495.0,1.7014166116714478,-2.9644206209038506,0.39055116678727086,1.6586446985258292,0.028091920539736748,-0.00022052584972698241,0.0
146,5,-3.0008438898221357e-06,-1.4808145351707935e-05,-4.2457657400518656e-05,0.011685735546052456,0.00147515709977597,-0.007069192826747894,0.0017460542730987072,0.29878145456314087,0.005976641084998846,0.0020408222917467356,-0.00011110645573353395,0.0013201478868722916,0.0,0.0,0.0,-6.992626003921032e-05,-0.006852077320218086,-0.0,0.0,0.0,0.0,-0.004999999888241291,-0.004999999888241291,-4.6292888966625867e-10,1495.0,1495.0,1495.0,1495.0,0.0,0.0,0.0,0.0,0.0,0.0,0.0,0.0,1495.0,1495.0,1495.0,1495.0,1.7014166116714478,-2.9642866389388596,0.3942619730184441,1.655555219747936,0.028091920539736748,-0.00022052584972698241,0.0
153,7,0.00023056540521793067,6.320634611256537e-07,6.770169420633465e-05,0.02188163809478283,-0.0013222108827903867,-0.011048808693885803,0.0017805441748350859,0.29874661564826965,0.005989999044686556,1.7740047042025253e-05,0.005644860211759806,0.00031740989652462304,0.0,0.0,0.0,-6.992626003921032e-05,-0.006852077320218086,-0.0,0.0,0.0,0.0,-0.004999999888241291,-0.004999999888241291,-3.6846383583144515e-11,1495.0,1495.0,1495.0,1495.0,0.0,0.0,0.0,0.0,0.0,0.0,0.0,0.0,1495.0,1495.0,1495.0,1495.0,1.7014166116714478,-2.9624733180943874,0.4038604089435782,1.6458224313229295,-0.08347151428461075,0.005086364224553108,0.0
158,5,0.00023056540521793067,6.320634611256537e-07,6.770169420633465e-05,0.02188163809478283,-0.0013222108827903867,-0.011048808693885803,0.0017805441748350859,0.29874661564826965,0.005989999044686556,1.7740047042025253e-05,0.005644860211759806,0.00031740989652462304,0.0,0.0,0.0,0.0014856976922601461,0.018756143748760223,-0.0,0.0,0.0,0.0,-0.004999999888241291,-0.004999999888241291,-3.6846383583144515e-11,1495.0,1495.0,1495.0,1495.0,0.0,0.0,0.0,0.0,0.0,0.0,0.0,0.0,1495.0,1495.0,1495.0,1495.0,1.8470079898834229,-2.9624733180943874,0.4038604089435782,1.6458224313229295,-0.08347151428461075,0.005086364224553108,0.0
163,5,0.0004070192517247051,5.69250296393875e-05,0.00019647731096483767,0.01692129485309124,-0.005328727420419455,-0.012825429439544678,0.0017805441748350859,0.29874661564826965,0.005989999044686556,0.0008329327683895826,-0.005024781916290522,0.00261516822502017,0.0,0.0,0.0,0.0014856976922601461,0.018756143748760223,-0.0,0.0,0.0,0.0,-0.004999999888241291,-0.004999999888241291,-3.6846383583144515e-11,1495.0,1495.0,1495.0,1495.0,0.0,0.0,0.0,0.0,0.0,0.0,0.0,0.0,1495.0,1495.0,1495.0,1495.0,1.8470079898834229,-2.958277940801986,0.41247519609411526,1.6366266149565625,-0.08347151428461075,0.005086364224553108,0.0
168,5,0.00045444080024026334,8.324329974129796e-05,0.00025393188116140664,0.012459103949368,-0.0052896831184625626,-0.012024719268083572,0.0017730187391862273,0.29877179861068726,0.005978220142424107,0.0008329327683895826,-0.005024781916290522,0.00261516822502017,0.0,0.0,0.0,0.006090044043958187,0.015105417929589748,-0.0,0.0,0.0,0.0,-0.004999999888241291,-0.004999999888241291,-3.6846383583144515e-11,1495.0,1495.0,1495.0,1495.0,0.0,0.0,0.0,0.0,0.0,0.0,0.0,0.0,1495.0,1495.0,1495.0,1495.0,1.809027910232544,-2.9567111319188677,0.4153691720021449,1.6339468650447122,-0.06584235280752182,0.02042064070701599,0.0
174,5,0.0004663318395614624,9.961050091078505e-05,0.00030776101630181074,0.006410567089915276,-0.004079937934875488,-0.011269384063780308,0.0017792967846617103,0.29880136251449585,0.005979014560580254,0.0004949013236910105,0.0007699289126321673,0.0024125610943883657,0.0,0.0,0.0,0.006090044043958187,0.015105417929589748,-0.0,0.0,0.0,0.0,-0.004999999888241291,-0.004999999888241291,4.377312401437905e-11,1495.0,1495.0,1495.0,1495.0,0.0,0.0,0.0,0.0,0.0,0.0,0.0,0.0,1495.0,1495.0,1495.0,1495.0,1.809027910232544,-2.9559845184454345,0.4178780135190705,1.6319244712800862,-0.06584235280752182,0.02042064070701599,0.0
179,5,0.0004799185262527317,0.00010453660797793418,0.00033011281630024314,0.004194627050310373,-0.0022231077309697866,-0.007189970463514328,0.0017792967846617103,0.29880136251449585,0.005979014560580254,0.0004949013236910105,0.0007699289126321673,0.0024125610943883657,0.0,0.0,0.0,0.005040585063397884,0.006494845263659954,-0.0,0.0,0.0,0.0,-0.004999999888241291,-0.004999999888241291,4.377312401437905e-11,1495.0,1495.0,1495.0,1495.0,0.0,0.0,0.0,0.0,0.0,0.0,0.0,0.0,1495.0,1495.0,1495.0,1495.0,1.7096067667007446,-2.9551755378500366,0.4201396024386225,1.6302565444072858,-0.026755210012197495,0.01597284898161888,0.0
184,5,0.00048602334572933614,0.00010540040966589004,0.0003301461401861161,0.002410430693998933,-0.000992899644188583,-0.002879986073821783,0.001770894043147564,0.29881250858306885,0.005981301888823509,-0.0008027137373574078,-0.0023998948745429516,-0.0027918661944568157,0.0,0.0,0.0,0.005040585063397884,0.006494845263659954,-0.0,0.0,0.0,0.0,-0.004999999888241291,-0.004999999888241291,-2.0517618160020845e-10,1495.0,1495.0,1495.0,1495.0,0.0,0.0,0.0,0.0,0.0,0.0,0.0,0.0,1495.0,1495.0,1495.0,1495.0,1.7096067667007446,-2.9540786551988334,0.42158450125329366,1.6287295006777167,-0.026755210012197495,0.01597284898161888,0.0
189,5,0.00048602334572933614,0.00010540040966589004,0.0003301461401861161,0.002410430693998933,-0.000992899644188583,-0.002879986073821783,0.001770894043147564,0.29881250858306885,0.005981301888823509,-0.0008027137373574078,-0.0023998948745429516,-0.0027918661944568157,0.0,0.0,0.0,0.0014393130550161004,0.002966197906062007,-0.0,0.0,0.0,0.0,-0.004999999888241291,-0.004999999888241291,-2.0517618160020845e-10,1495.0,1495.0,1495.0,1495.0,0.0,0.0,0.0,0.0,0.0,0.0,0.0,0.0,1495.0,1495.0,1495.0,1495.0,1.6600255966186523,-2.9540786551988334,0.42158450125329366,1.6287295006777167,-0.01186494529247284,0.004428721033036709,0.0
194,5,0.00048602334572933614,0.00010540040966589004,0.0003301461401861161,0.002410430693998933,-0.000992899644188583,-0.002879986073821783,0.0017808214761316776,0.2988128364086151,0.0059769959188997746,0.0018474638927727938,0.00308101624250412,-0.0012770146131515503,0.0,0.0,0.0,0.0014393130550161004,0.002966197906062007,-0.0,0.0,0.0,0.0,-0.004999999888241291,-0.004999999888241291,1.388771259450139e-12,1495.0,1495.0,1495.0,1495.0,0.0,0.0,0.0,0.0,0.0,0.0,0.0,0.0,1495.0,1495.0,1495.0,1495.0,1.6600255966186523,-2.9540786551988334,0.42158450125329366,1.6287295006777167,-0.01186494529247284,0.004428721033036709,0.0
199,5,0.0005041053518652916,0.00012751106987707317,0.0003168494440615177,0.001318779424764216,-0.0017190652433782816,0.000707450439222157,0.0017808214761316776,0.2988128364086151,0.0059769959188997746,0.0018474638927727938,0.00308101624250412,-0.0012770146131515503,0.0,0.0,0.0,0.0014394454192370176,0.0029666745103895664,-0.0,0.0,0.0,0.0,-0.004999999888241291,-0.004999999888241291,1.388771259450139e-12,1495.0,1495.0,1495.0,1495.0,0.0,0.0,0.0,0.0,0.0,0.0,0.0,0.0,1495.0,1495.0,1495.0,1495.0,1.6600309610366821,-2.9516410624659195,0.4226492858331071,1.6267324292208265,-0.011866888962686062,0.004429142456501722,0.0
204,5,0.0005126711330376565,0.0001359679299639538,0.00032058791839517653,0.0015554045094177127,-0.0017024482367560267,-0.00016563934332225472,0.0017808214761316776,0.2988128364086151,0.0059769959188997746,0.0018474638927727938,0.00308101624250412,-0.0012770146131515503,0.0,0.0,0.0,0.0014394454192370176,0.0029666745103895664,-0.0,0.0,0.0,0.0,-0.004999999888241291,-0.004999999888241291,1.388771259450139e-12,1495.0,1495.0,1495.0,1495.0,0.0,0.0,0.0,0.0,0.0,0.0,0.0,0.0,1495.0,1495.0,1495.0,1495.0,1.6600309610366821,-2.950996548917387,0.42250336664984045,1.6264907605684404,-0.011866888962686062,0.004429142456501722,0.0
209,5,0.000513278238940984,0.00015488662756979465,0.0003598463663365692,0.0006950146635062993,-0.0029512234032154083,-0.004777268506586552,0.0017655654810369015,0.2987593114376068,0.0060051074251532555,0.0020389265846461058,0.006378815975040197,0.0028892606496810913,0.0,0.0,0.0,0.0023638170678168535,0.002206743462011218,-0.0,0.0,0.0,0.0,-0.004999999888241291,-0.004999999888241291,-1.1924472520519203e-10,1495.0,1495.0,1495.0,1495.0,0.0,0.0,0.0,0.0,0.0,0.0,0.0,0.0,1495.0,1495.0,1495.0,1495.0,1.656654953956604,-2.9509724890375097,0.42297445446024945,1.6262491279062372,-0.008809154853224754,0.007258614990860224,0.0
214,5,0.0005116399843245745,0.00015516899293288589,0.0003834576637018472,8.141298167174682e-05,-0.0012143723433837295,-0.004744262900203466,0.0017597649712115526,0.2987881302833557,0.006040297448635101,-1.5568073649774306e-05,-0.004910627380013466,0.0018534061964601278,0.0,0.0,0.0,0.0023638170678168535,0.002206743462011218,-0.0,0.0,0.0,0.0,-0.004999999888241291,-0.004999999888241291,-5.217607942920033e-11,1495.0,1495.0,1495.0,1495.0,0.0,0.0,0.0,0.0,0.0,0.0,0.0,0.0,1495.0,1495.0,1495.0,1495.0,1.656654953956604,-2.95174857994118,0.4228390359309326,1.6265383590221643,-0.008809154853224754,0.007258614990860224,0.0
219,5,0.0005076260422356427,0.00014258472947403789,0.0003859602438751608,-0.00044910560245625675,0.0010243612341582775,-0.002198015106841922,0.0017597649712115526,0.2987881302833557,0.006040297448635101,-1.5568073649774306e-05,-0.004910627380013466,0.0018534061964601278,0.0,0.0,0.0,0.001817133161239326,0.0008279002504423261,-0.0,0.0,0.0,0.0,-0.004999999888241291,-0.004999999888241291,-5.217607942920033e-11,1495.0,1495.0,1495.0,1495.0,0.0,0.0,0.0,0.0,0.0,0.0,0.0,0.0,1495.0,1495.0,1495.0,1495.0,1.6431907415390015,-2.951649882597311,0.4237867503659112,1.6262090338806463,-0.0032780617475509644,0.005534556694328785,0.0
224,5,0.0005112402723170817,0.00015255005564540625,0.00039771548472344875,0.00025406069471500814,-0.0007860944606363773,-0.002289834897965193,0.0017597649712115526,0.2987881302833557,0.006040297448635101,-1.5568073649774306e-05,-0.004910627380013466,0.0018534061964601278,0.0,0.0,0.0,0.001817133161239326,0.0008279002504423261,-0.0,0.0,0.0,0.0,-0.004999999888241291,-0.004999999888241291,-5.217607942920033e-11,1495.0,1495.0,1495.0,1495.0,0.0,0.0,0.0,0.0,0.0,0.0,0.0,0.0,1495.0,1495.0,1495.0,1495.0,1.6431907415390015,-2.951701248627946,0.42386355586686336,1.6263448553698199,-0.0032780617475509644,0.005534556694328785,0.0
230,5,0.0005124665331095457,0.00014858401846140623,0.00038178754039108753,0.00024878012482076883,0.00016148666327353567,0.0009954186389222741,0.0017571705393493176,0.2987907826900482,0.006071887444704771,0.001671930542215705,-0.001894668908789754,0.006085622124373913,0.0,0.0,0.0,0.0012871853541582823,0.0009928281651809812,-0.0,0.0,0.0,0.0,-0.004999999888241291,-0.004999999888241291,6.430140864210898e-10,1495.0,1495.0,1495.0,1495.0,0.0,0.0,0.0,0.0,0.0,0.0,0.0,0.0,1495.0,1495.0,1495.0,1495.0,1.6407839059829712,-2.9515159091748786,0.4237123184247801,1.6262295082266216,-0.003925336990505457,0.003914720844477415,0.0
235,5,0.0005161699955351651,0.00013954764290247113,0.0003684266994241625,0.0005439241067506373,0.0011489596217870712,0.002001469489187002,0.0017571705393493176,0.2987907826900482,0.006071887444704771,0.001671930542215705,-0.001894668908789754,0.006085622124373913,0.0,0.0,0.0,0.0012871853541582823,0.0009928281651809812,-0.0,0.0,0.0,0.0,-0.004999999888241291,-0.004999999888241291,6.430140864210898e-10,1495.0,1495.0,1495.0,1495.0,0.0,0.0,0.0,0.0,0.0,0.0,0.0,0.0,1495.0,1495.0,1495.0,1495.0,1.6407839059829712,-2.9511633570753526,0.42326566237840013,1.626028975559822,-0.003925336990505457,0.003914720844477415,0.0
240,5,0.0005166014889255166,0.00014132671640254557,0.00034123193472623825,0.0002693483547773212,0.000246095733018592,0.004063960164785385,0.0017297315644100308,0.2987702190876007,0.006106339395046234,-0.0008491192129440606,0.005005582235753536,-0.0027001467533409595,0.0,0.0,0.0,-0.0011211064411327243,0.0012739937519654632,-0.0,0.0,0.0,0.0,-0.004999999888241291,-0.004999999888241291,6.430140864210898e-10,1495.0,1495.0,1495.0,1495.0,0.0,0.0,0.0,0.0,0.0,0.0,0.0,0.0,1495.0,1495.0,1495.0,1495.0,1.6422573328018188,-2.9505233910583333,0.42426849862990884,1.6257839246998875,-0.005041502881795168,-0.003412686986848712,-0.0
245,5,0.0005133668892085552,0.00013872628915123641,0.0003556246228981763,-0.000280407490208745,0.0004104889230802655,-0.00010153825860470533,0.0017297315644100308,0.2987702190876007,0.006106339395046234,-0.0008491192129440606,0.005005582235753536,-0.0027001467533409595,0.0,0.0,0.0,-0.0011211064411327243,0.0012739937519654632,-0.0,0.0,0.0,0.0,-0.004999999888241291,-0.004999999888241291,6.430140864210898e-10,1495.0,1495.0,1495.0,1495.0,0.0,0.0,0.0,0.0,0.0,0.0,0.0,0.0,1495.0,1495.0,1495.0,1495.0,1.6422573328018188,-2.950605457084249,0.42412367075059687,1.6258294574232817,-0.005041502881795168,-0.003412686986848712,-0.0
250,5,0.0005149125354364514,0.00013410739484243095,0.0003539036842994392,7.331534288823605e-05,0.0007184640853665769,0.00016589595179539174,0.0017462284304201603,0.29875436425209045,0.006079878658056259,0.0024899253621697426,0.0012560480972751975,0.00022694279323332012,0.0,0.0,0.0,-0.00021410291083157063,0.0004927462432533503,-0.0,0.0,0.0,0.0,-0.004999999888241291,-0.004999999888241291,-2.530200771122537e-10,1495.0,1495.0,1495.0,1495.0,0.0,0.0,0.0,0.0,0.0,0.0,0.0,0.0,1495.0,1495.0,1495.0,1495.0,1.6312898397445679,-2.9506539045717397,0.42451359438739344,1.6255960347685134,-0.0019368960056453943,-0.0006473844405263662,0.0
255,5,0.0005030000465922058,0.0001365467469440773,0.0003758586826734245,-0.0014001752715557814,-5.337607490218943e-06,-0.002568239578977227,0.0017462284304201603,0.29875436425209045,0.006079878658056259,0.0024899253621697426,0.0012560480972751975,0.00022694279323332012,0.0,0.0,0.0,-0.00021410291083157063,0.0004927462432533503,-0.0,0.0,0.0,0.0,-0.004999999888241291,-0.004999999888241291,-2.530200771122537e-10,1495.0,1495.0,1495.0,1495.0,0.0,0.0,0.0,0.0,0.0,0.0,0.0,0.0,1495.0,1495.0,1495.0,1495.0,1.6312898397445679,-2.9510768548845814,0.4245321981056644,1.6257719868909124,-0.0019368960056453943,-0.0006473844405263662,0.0
260,5,0.0005053728818893433,0.00014259810268413275,0.00037577503826469183,-0.00027532767853699625,-0.0007282968144863844,-0.0010172603651881218,0.001757869846187532,0.29875653982162476,0.0060806190595030785,2.4548682631575502e-05,-0.0012708826689049602,-0.0016600789967924356,0.0,0.0,0.0,0.0012013060040771961,0.0004852476413361728,-0.0,0.0,0.0,0.0,-0.004999999888241291,-0.004999999888241291,-1.3891178485270217e-10,1495.0,1495.0,1495.0,1495.0,0.0,0.0,0.0,0.0,0.0,0.0,0.0,0.0,1495.0,1495.0,1495.0,1495.0,1.6369178295135498,-2.9519377881023474,0.42442428429035983,1.6259424111050749,-0.0019139997893944383,0.003644927404820919,0.0
265,5,0.0005029154708608985,0.0001563053810968995,0.0003965652431361377,-0.00040502066258341074,-0.0019361927406862378,-0.0029017271008342505,0.001757869846187532,0.29875653982162476,0.0060806190595030785,2.4548682631575502e-05,-0.0012708826689049602,-0.0016600789967924356,0.0,0.0,0.0,0.0012013060040771961,0.0004852476413361728,-0.0,0.0,0.0,0.0,-0.004999999888241291,-0.004999999888241291,-1.3891178485270217e-10,1495.0,1495.0,1495.0,1495.0,0.0,0.0,0.0,0.0,0.0,0.0,0.0,0.0,1495.0,1495.0,1495.0,1495.0,1.6369178295135498,-2.9520394471096583,0.4242126732849404,1.6259352744297724,-0.0019139997893944383,0.003644927404820919,0.0
270,5,0.0005019202362746,0.00016102952940855175,0.00039868528256192803,-0.00028144169482402503,-0.0013413747074082494,-0.0014150978531688452,0.0017476826906204224,0.29877984523773193,0.006088858470320702,-0.003995388280600309,-0.00012411853822413832,-0.000993942841887474,0.0,0.0,0.0,0.0012013060040771961,0.0004852476413361728,-0.0,0.0,0.0,0.0,-0.004999999888241291,-0.004999999888241291,2.07881576536062e-11,1495.0,1495.0,1495.0,1495.0,0.0,0.0,0.0,0.0,0.0,0.0,0.0,0.0,1495.0,1495.0,1495.0,1495.0,1.6369178295135498,-2.9517562935647472,0.42362112997759993,1.6260838056529037,-0.0019139997893944383,0.003644927404820919,0.0
275,5,0.011119465343654156,0.0106516033411026,0.0055696675553917885,-0.00028144169482402503,-0.0013413747074082494,-0.0014150978531688452,0.0017476826906204224,0.29877984523773193,0.006088858470320702,-0.003995388280600309,-0.00012411853822413832,-0.000993942841887474,0.0,0.0,0.0,0.0019853843841701746,0.0004733963869512081,-0.0,0.0,0.0,0.0,-0.004999999888241291,-0.004999999888241291,2.07881576536062e-11,1495.0,1495.0,1495.0,1495.0,0.0,0.0,0.0,0.0,0.0,0.0,0.0,0.0,1495.0,1495.0,1495.0,1495.0,1.6429128646850586,-0.1634661127692384,-0.5215939413967493,-0.09196097489010971,-0.0018740902887657285,0.00604598643258214,0.0
280,5,0.01184056419879198,0.010443780571222305,0.0032682539895176888,-0.00028144169482402503,-0.0013413747074082494,-0.0014150978531688452,0.0017368869157508016,0.29876789450645447,0.006077373865991831,0.0002631030511111021,-0.0021585512440651655,-0.0024615214206278324,0.0,0.0,0.0,0.0019853843841701746,0.0004733963869512081,-0.0,0.0,0.0,0.0,-0.004999999888241291,-0.004999999888241291,-1.471430338684243e-10,1495.0,1495.0,1495.0,1495.0,0.0,0.0,0.0,0.0,0.0,0.0,0.0,0.0,1495.0,1495.0,1495.0,1495.0,1.6429128646850586,-0.1543235167517126,-0.45115026243071543,-0.08466948534417212,-0.0018740902887657285,0.00604598643258214,0.0
285,5,4.33144232374616e-05,1.1734167856047861e-05,-0.0006980856414884329,-0.00028144169482402503,-0.0013413747074082494,-0.0014150978531688452,0.0017368869157508016,0.29876789450645447,0.006077373865991831,0.0002631030511111021,-0.0021585512440651655,-0.0024615214206278324,0.0,0.0,0.0,0.018143517896533012,0.014323602430522442,-0.0,0.0,0.0,0.0,-0.004999999888241291,-0.004999999888241291,-1.471430338684243e-10,1495.0,1495.0,1495.0,1495.0,0.0,0.0,0.0,0.0,0.0,0.0,0.0,0.0,1495.0,1495.0,1495.0,1495.0,1.8628807067871094,-2.944628394795915,0.38719714354361356,1.6552939107064573,-0.06428399682044983,0.0626428946852684,0.0
291,5,2.973856135213282e-05,4.660213562601712e-06,-0.0006964695639908314,-0.0017416803166270256,0.00031232464243657887,-0.0007599664968438447,0.001740834559313953,0.29874637722969055,0.0061006974428892136,0.002352486364543438,-0.0008215269190259278,0.005002710968255997,0.0,0.0,0.0,0.018143517896533012,0.014323602430522442,-0.0,0.0,0.0,0.0,-0.004999999888241291,-0.004999999888241291,-1.6553500237215246e-10,1495.0,1495.0,1495.0,1495.0,0.0,0.0,0.0,0.0,0.0,0.0,0.0,0.0,1495.0,1495.0,1495.0,1495.0,1.8628807067871094,-2.944966901593245,0.3881374128039726,1.6553849927012974,-0.06428399682044983,0.0626428946852684,0.0
296,5,2.1182870113989338e-05,-7.1369586294167675e-06,-0.0006496919668279588,-0.0017233550315722823,0.0015405905432999134,-0.005917300004512072,0.001740834559313953,0.29874637722969055,0.0061006974428892136,0.002352486364543438,-0.0008215269190259278,0.005002710968255997,0.0,0.0,0.0,-0.0003197726036887616,-0.0015540877357125282,-0.0,0.0,0.0,0.0,-0.004999999888241291,-0.004999999888241291,-1.6553500237215246e-10,1495.0,1495.0,1495.0,1495.0,0.0,0.0,0.0,0.0,0.0,0.0,0.0,0.0,1495.0,1495.0,1495.0,1495.0,1.6426358222961426,-2.9465023322054478,0.38820712092607534,1.6555950788124032,0.006151322741061449,-0.0009736235369928181,0.0
301,5,-0.00010970130097121,-3.8857127947267145e-05,-0.0002874316123779863,-0.016395442187786102,0.0044226567260921,-0.04583815857768059,0.0017486171564087272,0.29874783754348755,0.006091548129916191,0.001351653947494924,0.0019518922781571746,0.0006886448245495558,0.0,0.0,0.0,-0.0003197726036887616,-0.0015540877357125282,-0.0,0.0,0.0,0.0,-0.004999999888241291,-0.004999999888241291,-2.705041919626172e-12,1495.0,1495.0,1495.0,1495.0,0.0,0.0,0.0,0.0,0.0,0.0,0.0,0.0,1495.0,1495.0,1495.0,1495.0,1.6426358222961426,-2.9588884719735136,0.3883677017547462,1.659638929594548,0.006151322741061449,-0.0009736235369928181,0.0
306,5,-0.00014723768981639296,-7.640903277206235e-06,-0.00011510910553624853,-0.011062542907893658,-0.0019768844358623028,-0.03901396691799164,0.0017486171564087272,0.29874783754348755,0.006091548129916191,0.001351653947494924,0.0019518922781571746,0.0006886448245495558,0.0,0.0,0.0,-0.004993625450879335,-0.014294242486357689,-0.0,0.0,0.0,0.0,-0.004999999888241291,-0.004999999888241291,-2.705041919626172e-12,1495.0,1495.0,1495.0,1495.0,0.0,0.0,0.0,0.0,0.0,0.0,0.0,0.0,1495.0,1495.0,1495.0,1495.0,1.7963430881500244,-2.965078452045854,0.3892619277592317,1.6611909049981775,0.06187028810381889,-0.0166268702596426,0.0
311,5,-8.289668767247349e-05,-9.957344445865601e-06,-6.400019628927112e-05,0.003295901929959655,-0.0005127809126861393,-0.021738655865192413,0.001736992853693664,0.29873397946357727,0.006080930121243,0.0005395336193032563,0.0007561358506791294,-0.001366824028082192,0.0,0.0,0.0,-0.004993625450879335,-0.014294242486357689,-0.0,0.0,0.0,0.0,-0.004999999888241291,-0.004999999888241291,-5.507247002184412e-12,1495.0,1495.0,1495.0,1495.0,0.0,0.0,0.0,0.0,0.0,0.0,0.0,0.0,1495.0,1495.0,1495.0,1495.0,1.7963430881500244,-2.96471399399889,0.391533656820592,1.6583905390046143,0.06187028810381889,-0.0166268702596426,0.0
316,5,-5.083042537989968e-07,-5.340390089259017e-06,-6.405065505532548e-06,0.011204967275261879,-0.0007591468747705221,-0.015606878325343132,0.001736992853693664,0.29873397946357727,0.006080930121243,0.0005395336193032563,0.0007561358506791294,-0.001366824028082192,0.0,0.0,0.0,0.0006633712910115719,0.0030316412448883057,-0.0,0.0,0.0,0.0,-0.004999999888241291,-0.004999999888241291,-5.507247002184412e-12,1495.0,1495.0,1495.0,1495.0,0.0,0.0,0.0,0.0,0.0,0.0,0.0,0.0,1495.0,1495.0,1495.0,1495.0,1.6590147018432617,-2.964779408772324,0.3943193153949135,1.655678280856139,-0.012119346298277378,0.0020399305503815413,0.0
321,5,0.00010805664351209998,-4.088873083674116e-06,4.276433901395649e-05,0.017509780824184418,-0.00045384076656773686,-0.012143080122768879,0.001736992853693664,0.29873397946357727,0.006080930121243,0.0005395336193032563,0.0007561358506791294,-0.001366824028082192,0.0,0.0,0.0,0.0006633712910115719,0.0030316412448883057,-0.0,0.0,0.0,0.0,-0.004999999888241291,-0.004999999888241291,-5.507247002184412e-12,1495.0,1495.0,1495.0,1495.0,0.0,0.0,0.0,0.0,0.0,0.0,0.0,0.0,1495.0,1495.0,1495.0,1495.0,1.6590147018432617,-2.963807419719006,0.3983562215807689,1.6513519797156706,-0.012119346298277378,0.0020399305503815413,0.0
326,5,0.00023566599702462554,1.837716808950063e-05,0.00012704422988463193,0.022317035123705864,-0.0028774612583220005,-0.014970818534493446,0.0017422273522242904,0.29871639609336853,0.006043251603841782,-9.107770165428519e-05,0.005293909460306168,-0.0013500486966222525,0.0,0.0,0.0,0.0005540131824091077,0.015303393825888634,-0.0,0.0,0.0,0.0,-0.004999999888241291,-0.004999999888241291,1.8025743397931393e-10,1495.0,1495.0,1495.0,1495.0,0.0,0.0,0.0,0.0,0.0,0.0,0.0,0.0,1495.0,1495.0,1495.0,1495.0,1.8026713132858276,-2.9627516480350318,0.40325132938331965,1.6460274235681494,-0.06647206842899323,0.0018511652015149593,0.0
331,5,0.00033697576145641506,3.646238474175334e-05,0.00016209010209422559,0.02108398638665676,-0.0033212103880941868,-0.010193832218647003,0.0017422273522242904,0.29871639609336853,0.006043251603841782,-9.107770165428519e-05,0.005293909460306168,-0.0013500486966222525,0.0,0.0,0.0,0.0005540131824091077,0.015303393825888634,-0.0,0.0,0.0,0.0,-0.004999999888241291,-0.004999999888241291,1.8025743397931393e-10,1495.0,1495.0,1495.0,1495.0,0.0,0.0,0.0,0.0,0.0,0.0,0.0,0.0,1495.0,1495.0,1495.0,1495.0,1.8026713132858276,-2.960730797691654,0.4084810202443382,1.6412463260867614,-0.06647206842899323,0.0018511652015149593,0.0
336,5,0.0004084256652276963,5.251535912975669e-05,0.00019318974227644503,0.017007581889629364,-0.0032548410817980766,-0.007809489965438843,0.001752336509525776,0.2987208962440491,0.006036631762981415,-0.001159693580120802,-0.0009120627655647695,-0.0008405729895457625,0.0,0.0,0.0,0.003754452569410205,0.018269071355462074,-0.0,0.0,0.0,0.0,-0.004999999888241291,-0.004999999888241291,-1.6814073744431113e-10,1495.0,1495.0,1495.0,1495.0,0.0,0.0,0.0,0.0,0.0,0.0,0.0,0.0,1495.0,1495.0,1495.0,1495.0,1.8431941270828247,-2.9585454587733837,0.4130385163871494,1.6367936649981107,-0.08113574236631393,0.012826979160308838,0.0
341,5,0.00045048215542919934,7.423084753099829e-05,0.00022036749578546733,0.011849811300635338,-0.003907795529812574,-0.006385125685483217,0.001752336509525776,0.2987208962440491,0.006036631762981415,-0.001159693580120802,-0.0009120627655647695,-0.0008405729895457625,0.0,0.0,0.0,0.003754452569410205,0.018269071355462074,-0.0,0.0,0.0,0.0,-0.004999999888241291,-0.004999999888241291,-1.6814073744431113e-10,1495.0,1495.0,1495.0,1495.0,0.0,0.0,0.0,0.0,0.0,0.0,0.0,0.0,1495.0,1495.0,1495.0,1495.0,1.8431941270828247,-2.95630991050579,0.4159585835164674,1.633496686827947,-0.08113574236631393,0.012826979160308838,0.0
346,5,0.00046207799459807575,0.00010131219460163265,0.00025723164435476065,0.006131424568593502,-0.004812879487872124,-0.006977749522775412,0.0017500986577942967,0.29876211285591125,0.006028696894645691,0.0003227563574910164,-0.0008226467180065811,0.001103247283026576,0.0,0.0,0.0,0.004674580413848162,0.011125193908810616,-0.0,0.0,0.0,0.0,-0.004999999888241291,-0.004999999888241291,-1.8512679236803997e-11,1495.0,1495.0,1495.0,1495.0,0.0,0.0,0.0,0.0,0.0,0.0,0.0,0.0,1495.0,1495.0,1495.0,1495.0,1.7582697868347168,-2.955126354916982,0.41849589807616916,1.6312475006652378,-0.0471336729824543,0.015234696678817272,0.0
351,5,0.0004765110497828573,0.00010988824215019122,0.00026451944722793996,0.004184535704553127,-0.0029542772099375725,-0.003665636759251356,0.0017507858574390411,0.29875755310058594,0.006044093519449234,0.0004995176568627357,0.002638300647959113,-0.0013377926079556346,0.0,0.0,0.0,0.004674580413848162,0.011125193908810616,-0.0,0.0,0.0,0.0,-0.004999999888241291,-0.004999999888241291,-2.7006095276727038e-11,1495.0,1495.0,1495.0,1495.0,0.0,0.0,0.0,0.0,0.0,0.0,0.0,0.0,1495.0,1495.0,1495.0,1495.0,1.7582697868347168,-2.9536690110370096,0.4203933214056477,1.629147462607072,-0.0471336729824543,0.015234696678817272,0.0
357,5,0.0004727519699372351,0.00011739859473891556,0.00030544440960511565,0.001222727238200605,-0.002082953928038478,-0.0063772499561309814,0.0017507858574390411,0.29875755310058594,0.006044093519449234,0.0004995176568627357,0.002638300647959113,-0.0013377926079556346,0.0,0.0,0.0,0.0037956174928694963,0.0045644440688192844,-0.0,0.0,0.0,0.0,-0.004999999888241291,-0.004999999888241291,-2.7006095276727038e-11,1495.0,1495.0,1495.0,1495.0,0.0,0.0,0.0,0.0,0.0,0.0,0.0,0.0,1495.0,1495.0,1495.0,1495.0,1.685128092765808,-2.953404202996861,0.42192226400737887,1.6283645307459524,-0.01853395439684391,0.01185555849224329,0.0
362,5,0.0004741475568152964,0.00012463676102925092,0.0003364064614288509,0.000656560470815748,-0.0017017617356032133,-0.006266343407332897,0.0017704953206703067,0.298748642206192,0.006020883098244667,-0.0026059031952172518,-0.00032340671168640256,-0.005849141627550125,0.0,0.0,0.0,0.0023672706447541714,0.0013312188675627112,-0.0,0.0,0.0,0.0,-0.004999999888241291,-0.004999999888241291,-2.511748309341755e-10,1495.0,1495.0,1495.0,1495.0,0.0,0.0,0.0,0.0,0.0,0.0,0.0,0.0,1495.0,1495.0,1495.0,1495.0,1.6500506401062012,-2.9529134531700607,0.4230823313085738,1.6273892693902587,-0.005292944144457579,0.007240240462124348,0.0
367,5,0.0004955215845257044,0.0001372055266983807,0.0003599738120101392,0.002827506512403488,-0.002188955433666706,-0.005334621295332909,0.0017704953206703067,0.298748642206192,0.006020883098244667,-0.0026059031952172518,-0.00032340671168640256,-0.005849141627550125,0.0,0.0,0.0,0.0023672706447541714,0.0013312188675627112,-0.0,0.0,0.0,0.0,-0.004999999888241291,-0.004999999888241291,-2.511748309341755e-10,1495.0,1495.0,1495.0,1495.0,0.0,0.0,0.0,0.0,0.0,0.0,0.0,0.0,1495.0,1495.0,1495.0,1495.0,1.6500506401062012,-2.9525520521873196,0.42367746036846793,1.626797232160172,-0.005292944144457579,0.007240240462124348,0.0
372,5,0.000499765039421618,0.0001388469827361405,0.00038776962901465595,0.001640215516090393,-0.0010725567117333412,-0.005469345487654209,0.0017704953206703067,0.298748642206192,0.006020883098244667,-0.0026059031952172518,-0.00032340671168640256,-0.005849141627550125,0.0,0.0,0.0,0.0023672706447541714,0.0013312188675627112,-0.0,0.0,0.0,0.0,-0.004999999888241291,-0.004999999888241291,-2.511748309341755e-10,1495.0,1495.0,1495.0,1495.0,0.0,0.0,0.0,0.0,0.0,0.0,0.0,0.0,1495.0,1495.0,1495.0,1495.0,1.6500506401062012,-2.952310412172216,0.4236491022698688,1.6265353962639961,-0.005292944144457579,0.007240240462124348,0.0
377,5,0.0005094962543807924,0.00015787278243806213,0.0003945338830817491,0.0018238374032080173,-0.00271212006919086,-0.0029994489159435034,0.0018167030066251755,0.2987017035484314,0.005957957357168198,0.00035124164423905313,9.951396350516006e-05,-0.002685912186279893,0.0,0.0,0.0,0.0016177851939573884,0.0022895876318216324,-0.0,0.0,0.0,0.0,-0.004999999888241291,-0.004999999888241291,1.1399032759373817e-11,1495.0,1495.0,1495.0,1495.0,0.0,0.0,0.0,0.0,0.0,0.0,0.0,0.0,1495.0,1495.0,1495.0,1495.0,1.6538761854171753,-2.9519293683104526,0.42399905182314185,1.626489776443883,-0.009124545380473137,0.00495943333953619,0.0
382,5,0.0005145561881363392,0.0001704133173916489,0.00040280050598084927,0.0013367211213335395,-0.002589711220934987,-0.002191775944083929,0.0018120754975825548,0.29871219396591187,0.005944766569882631,-5.10481113451533e-05,-0.0008473776397295296,-0.00046126233064569533,0.0,0.0,0.0,0.003512678202241659,0.002014707075431943,-0.0,0.0,0.0,0.0,-0.004999999888241291,-0.004999999888241291,-3.628360112362117e-11,1495.0,1495.0,1495.0,1495.0,0.0,0.0,0.0,0.0,0.0,0.0,0.0,0.0,1495.0,1495.0,1495.0,1495.0,1.662282109260559,-2.9515105259270964,0.4241488178925668,1.625895669173755,-0.00806985143572092,0.010823058895766735,0.0
387,5,0.0005237232544459403,0.00016314997628796846,0.00036740172072313726,0.001634738058783114,-0.00016428441449534148,0.0033711453434079885,0.0018120754975825548,0.29871219396591187,0.005944766569882631,-5.10481113451533e-05,-0.0008473776397295296,-0.00046126233064569533,0.0,0.0,0.0,0.003512678202241659,0.002014707075431943,-0.0,0.0,0.0,0.0,-0.004999999888241291,-0.004999999888241291,-3.628360112362117e-11,1495.0,1495.0,1495.0,1495.0,0.0,0.0,0.0,0.0,0.0,0.0,0.0,0.0,1495.0,1495.0,1495.0,1495.0,1.662282109260559,-2.951228647351484,0.42339008851928667,1.6259869350470306,-0.00806985143572092,0.010823058895766735,0.0
392,5,0.000515824998728931,0.00016260097618214786,0.00034921913174912333,-0.00029389618430286646,1.660829838101563e-07,0.0035303703043609858,0.0018190161790698767,0.2987261414527893,0.005928853992372751,-0.0011125989258289337,-0.00253948662430048,-0.0010102627566084266,0.0,0.0,0.0,0.003512678202241659,0.002014707075431943,-0.0,0.0,0.0,0.0,-0.004999999888241291,-0.004999999888241291,5.341790551560699e-11,1495.0,1495.0,1495.0,1495.0,0.0,0.0,0.0,0.0,0.0,0.0,0.0,0.0,1495.0,1495.0,1495.0,1495.0,1.662282109260559,-2.951179009121734,0.4240602103477586,1.6257894333010987,-0.00806985143572092,0.010823058895766735,0.0
397,5,0.0005101226270198822,0.00016747285553719848,0.00035678670974448323,-0.0008018435910344124,-0.000584558816626668,0.0005040380638092756,0.0018190161790698767,0.2987261414527893,0.005928853992372751,-0.0011125989258289337,-0.00253948662430048,-0.0010102627566084266,0.0,0.0,0.0,0.0003533270792104304,0.0004995003691874444,-0.0,0.0,0.0,0.0,-0.004999999888241291,-0.004999999888241291,5.341790551560699e-11,1495.0,1495.0,1495.0,1495.0,0.0,0.0,0.0,0.0,0.0,0.0,0.0,0.0,1495.0,1495.0,1495.0,1495.0,1.631815791130066,-2.9513495486893864,0.4239260865799361,1.6260090267700604,-0.0019640782848000526,0.0010687019675970078,-0.0
402,5,0.0005081247654743493,0.0001435941958334297,0.00035262128221802413,0.00025108264526352286,0.0011659226147457957,-0.0007376241264864802,0.0018190161790698767,0.2987261414527893,0.005928853992372751,-0.0011125989258289337,-0.00253948662430048,-0.0010102627566084266,0.0,0.0,0.0,0.0003533270792104304,0.0004995003691874444,-0.0,0.0,0.0,0.0,-0.004999999888241291,-0.004999999888241291,5.341790551560699e-11,1495.0,1495.0,1495.0,1495.0,0.0,0.0,0.0,0.0,0.0,0.0,0.0,0.0,1495.0,1495.0,1495.0,1495.0,1.631815791130066,-2.951057701519317,0.425106011129744,1.625095609609957,-0.0019640782848000526,0.0010687019675970078,-0.0
407,5,0.0005010689492337406,0.00015590449038427323,0.0003417580737732351,-0.000746259989682585,-0.0010108668357133865,0.0010085359681397676,0.0018108533695340157,0.2987087368965149,0.005920402705669403,0.000246225215960294,0.0017262089531868696,1.0495936294319108e-05,0.0,0.0,0.0,-0.001120775006711483,0.0010039954213425517,-0.0,0.0,0.0,0.0,-0.004999999888241291,-0.004999999888241291,1.2634700230496065e-10,1495.0,1495.0,1495.0,1495.0,0.0,0.0,0.0,0.0,0.0,0.0,0.0,0.0,1495.0,1495.0,1495.0,1495.0,1.63993239402771,-2.9505999187841843,0.4251953223218652,1.6253642897614988,-0.003967429976910353,-0.0034068480599671602,0.0
412,5,0.0005010689492337406,0.00015590449038427323,0.0003417580737732351,-0.000746259989682585,-0.0010108668357133865,0.0010085359681397676,0.0018108533695340157,0.2987087368965149,0.005920402705669403,0.000246225215960294,0.0017262089531868696,1.0495936294319108e-05,0.0,0.0,0.0,-0.001120775006711483,0.0010039954213425517,-0.0,0.0,0.0,0.0,-0.004999999888241291,-0.004999999888241291,1.2634700230496065e-10,1495.0,1495.0,1495.0,1495.0,0.0,0.0,0.0,0.0,0.0,0.0,0.0,0.0,1495.0,1495.0,1495.0,1495.0,1.63993239402771,-2.9505999187841843,0.4251953223218652,1.6253642897614988,-0.003967429976910353,-0.0034068480599671602,0.0
418,5,0.0005086709279567003,0.0001616894587641582,0.0003668188292067498,7.083616947056726e-05,-0.0005682928604073822,-0.0014409591676667333,0.0018368734745308757,0.2986896336078644,0.005903976038098335,0.0024651684798300266,-0.003974933177232742,-0.0024949030485004187,0.0,0.0,0.0,0.00158818403724581,4.8263227654388174e-05,-0.0,0.0,0.0,0.0,-0.004999999888241291,-0.004999999888241291,8.598533343673331e-12,1495.0,1495.0,1495.0,1495.0,0.0,0.0,0.0,0.0,0.0,0.0,0.0,0.0,1495.0,1495.0,1495.0,1495.0,1.6388458013534546,-2.9508800677138445,0.42487314422355066,1.625439468677929,-0.0001905925018945709,0.0048244427889585495,-0.0
423,5,0.0005120856803841889,0.0001660131965763867,0.0003812489740084857,0.0004381004546303302,-0.0007461659843102098,-0.002308003371581435,0.0018368734745308757,0.2986896336078644,0.005903976038098335,0.0024651684798300266,-0.003974933177232742,-0.0024949030485004187,0.0,0.0,0.0,0.00158818403724581,4.8263227654388174e-05,-0.0,0.0,0.0,0.0,-0.004999999888241291,-0.004999999888241291,8.598533343673331e-12,1495.0,1495.0,1495.0,1495.0,0.0,0.0,0.0,0.0,0.0,0.0,0.0,0.0,1495.0,1495.0,1495.0,1495.0,1.6388458013534546,-2.9509990631109337,0.4244756173286598,1.6258974483982733,-0.0001905925018945709,0.0048244427889585495,-0.0
428,5,0.0005120856803841889,0.0001660131965763867,0.0003812489740084857,0.0004381004546303302,-0.0007461659843102098,-0.002308003371581435,0.0018395326333120465,0.2986925542354584,0.00588194141164422,0.0014257514849305153,0.0041710310615599155,-0.0037787568289786577,0.0,0.0,0.0,0.0012772612972185016,0.001186312292702496,-0.0,0.0,0.0,0.0,-0.004999999888241291,-0.004999999888241291,2.1039169018077786e-10,1495.0,1495.0,1495.0,1495.0,0.0,0.0,0.0,0.0,0.0,0.0,0.0,0.0,1495.0,1495.0,1495.0,1495.0,1.6422781944274902,-2.9509990631109337,0.4244756173286598,1.6258974483982733,-0.004694584757089615,0.003888076404109597,0.0
433,5,0.0005154919344931841,0.00016344526375178248,0.0004064949753228575,0.0005839902441948652,9.686508747108746e-06,-0.0039527202025055885,0.0018395326333120465,0.2986925542354584,0.00588194141164422,0.0014257514849305153,0.0041710310615599155,-0.0037787568289786577,0.0,0.0,0.0,0.0012772612972185016,0.001186312292702496,-0.0,0.0,0.0,0.0,-0.004999999888241291,-0.004999999888241291,2.1039169018077786e-10,1495.0,1495.0,1495.0,1495.0,0.0,0.0,0.0,0.0,0.0,0.0,0.0,0.0,1495.0,1495.0,1495.0,1495.0,1.6422781944274902,-2.951479550614401,0.42413894403299546,1.6256990932002218,-0.004694584757089615,0.003888076404109597,0.0
438,5,0.0005111674545332789,0.00015597227320540696,0.0003785290755331516,-0.0007093423046171665,0.0012787048472091556,0.0032207160256803036,0.0018544747726991773,0.2986919581890106,0.005909212399274111,0.00254020350985229,-0.003065223339945078,0.002713496098294854,0.0,0.0,0.0,-0.0012398550752550364,9.859241981757805e-05,-0.0,0.0,0.0,0.0,-0.004999999888241291,-0.004999999888241291,6.508636685165214e-11,1495.0,1495.0,1495.0,1495.0,0.0,0.0,0.0,0.0,0.0,0.0,0.0,0.0,1495.0,1495.0,1495.0,1495.0,1.6360039710998535,-2.9517213305051837,0.4238913362481194,1.6261595901948198,-0.000388668617233634,-0.0037597904447466135,-0.0
443,5,0.0005173732643015683,0.00016220053657889366,0.00037794181844219565,0.0004609651805367321,-0.0002359087811782956,0.0013587574940174818,0.0018544747726991773,0.2986919581890106,0.005909212399274111,0.00254020350985229,-0.003065223339945078,0.002713496098294854,0.0,0.0,0.0,-0.0012398550752550364,9.859241981757805e-05,-0.0,0.0,0.0,0.0,-0.004999999888241291,-0.004999999888241291,6.508636685165214e-11,1495.0,1495.0,1495.0,1495.0,0.0,0.0,0.0,0.0,0.0,0.0,0.0,0.0,1495.0,1495.0,1495.0,1495.0,1.6360039710998535,-2.95181039498337,0.4241145011981303,1.6258859343262355,-0.000388668617233634,-0.0037597904447466135,-0.0
448,5,0.0005162199959158897,0.00016544663230888546,0.00036434706998988986,4.5989512727828696e-05,-0.00048389582661911845,0.002174873137846589,0.001854289323091507,0.298721581697464,0.005930437706410885,0.0009015288669615984,-0.0012762824771925807,-0.0003242360253352672,0.0,0.0,0.0,0.0009563090279698372,0.0008238860755227506,-0.0,0.0,0.0,0.0,-0.004999999888241291,-0.004999999888241291,9.246261395423616e-11,1495.0,1495.0,1495.0,1495.0,0.0,0.0,0.0,0.0,0.0,0.0,0.0,0.0,1495.0,1495.0,1495.0,1495.0,1.637571930885315,-2.951115973183953,0.4240118705405576,1.625670409702006,-0.003251016838476062,0.002902732929214835,-0.0
453,5,0.0005186746711842716,0.00016719845007173717,0.0003603044606279582,0.00031295642838813365,-0.0004037764738313854,0.001355064450763166,0.001854289323091507,0.298721581697464,0.005930437706410885,0.0009015288669615984,-0.0012762824771925807,-0.0003242360253352672,0.0,0.0,0.0,0.0009563090279698372,0.0008238860755227506,-0.0,0.0,0.0,0.0,-0.004999999888241291,-0.004999999888241291,9.246261395423616e-11,1495.0,1495.0,1495.0,1495.0,0.0,0.0,0.0,0.0,0.0,0.0,0.0,0.0,1495.0,1495.0,1495.0,1495.0,1.637571930885315,-2.950998409392664,0.4241404096919009,1.6255196470552757,-0.003251016838476062,0.002902732929214835,-0.0
458,5,0.0005016077193431556,0.00016278011025860906,0.00034949975088238716,-0.0019228465389460325,0.00036869090399704874,0.0018385890871286392,0.0018487899797037244,0.29875898361206055,0.005940692499279976,0.0025986393447965384,-0.0020654199179261923,-0.0007842764025554061,0.0,0.0,0.0,-0.00010165276762563735,-0.0010672780917957425,-0.0,0.0,0.0,0.0,-0.004999999888241291,-0.004999999888241291,9.246261395423616e-11,1495.0,1495.0,1495.0,1495.0,0.0,0.0,0.0,0.0,0.0,0.0,0.0,0.0,1495.0,1495.0,1495.0,1495.0,1.6372015476226807,-2.950426401493887,0.42409083912280215,1.6255836809474,0.004210479557514191,-0.0003084820637013763,-0.0
463,5,0.0005025980644859374,0.00015617285680491477,0.00034615115146152675,-0.0006503007025457919,0.000940346741117537,0.0011372670996934175,0.0018487899797037244,0.29875898361206055,0.005940692499279976,0.0025986393447965384,-0.0020654199179261923,-0.0007842764025554061,0.0,0.0,0.0,-0.00010165276762563735,-0.0010672780917957425,-0.0,0.0,0.0,0.0,-0.004999999888241291,-0.004999999888241291,9.246261395423616e-11,1495.0,1495.0,1495.0,1495.0,0.0,0.0,0.0,0.0,0.0,0.0,0.0,0.0,1495.0,1495.0,1495.0,1495.0,1.6372015476226807,-2.950754044645159,0.42446743298472756,1.6254356823450526,0.004210479557514191,-0.0003084820637013763,-0.0
468,5,0.0004992897738702595,0.00014787456893827766,0.0003656031913124025,-0.000657114025671035,0.0013719330308958888,-0.0018793375929817557,0.0018476377008482814,0.2987634241580963,0.005934529006481171,0.0005493985372595489,0.0008834887412376702,0.001179612590931356,0.0,0.0,0.0,-0.00010165276762563735,-0.0010672780917957425,-0.0,0.0,0.0,0.0,-0.004999999888241291,-0.004999999888241291,6.677364772222916e-10,1495.0,1495.0,1495.0,1495.0,0.0,0.0,0.0,0.0,0.0,0.0,0.0,0.0,1495.0,1495.0,1495.0,1495.0,1.6372015476226807,-2.9512916010138848,0.4247033063814174,1.6257162957912097,0.004210479557514191,-0.0003084820637013763,-0.0
473,5,0.0005062334821559489,0.00015550488024018705,0.00039826982538215816,0.0005704014911316335,-0.00036686327075585723,-0.004671729635447264,0.0018476377008482814,0.2987634241580963,0.005934529006481171,0.0005493985372595489,0.0008834887412376702,0.001179612590931356,0.0,0.0,0.0,-0.0013682835269719362,0.00013315324031282216,-0.0,0.0,0.0,0.0,-0.004999999888241291,-0.004999999888241291,6.677364772222916e-10,1495.0,1495.0,1495.0,1495.0,0.0,0.0,0.0,0.0,0.0,0.0,0.0,0.0,1495.0,1495.0,1495.0,1495.0,1.6371028423309326,-2.951850109434242,0.4243265278892423,1.625841913632696,-0.000525265873875469,-0.004152028821408749,0.0
478,5,0.0005037260707467794,0.000149440485984087,0.00038515101186931133,-7.27347141946666e-05,0.0005809820722788572,-0.0002944350126199424,0.00183013710193336,0.29871368408203125,0.0059563289396464825,-0.003128359094262123,0.005936481524258852,0.0035071964375674725,0.0,0.0,0.0,-0.0013682835269719362,0.00013315324031282216,-0.0,0.0,0.0,0.0,-0.004999999888241291,-0.004999999888241291,1.0286652779578631e-10,1495.0,1495.0,1495.0,1495.0,0.0,0.0,0.0,0.0,0.0,0.0,0.0,0.0,1495.0,1495.0,1495.0,1495.0,1.6371028423309326,-2.951909584111995,0.42482657004965163,1.626105326326279,-0.000525265873875469,-0.004152028821408749,0.0
483,5,0.0005169386859051883,0.00016145406698342413,0.0003974309074692428,0.0015564255882054567,-0.0012092370307072997,-0.0015913599636405706,0.00183013710193336,0.29871368408203125,0.0059563289396464825,-0.003128359094262123,0.005936481524258852,0.0035071964375674725,0.0,0.0,0.0,-0.00038856625906191766,0.0006967527442611754,-0.0,0.0,0.0,0.0,-0.004999999888241291,-0.004999999888241291,1.0286652779578631e-10,1495.0,1495.0,1495.0,1495.0,0.0,0.0,0.0,0.0,0.0,0.0,0.0,0.0,1495.0,1495.0,1495.0,1495.0,1.6338475942611694,-2.9514706987594588,0.4246227847828084,1.6258617924787226,-0.0027431028429418802,-0.0011767526157200336,0.0
488,5,0.000518905115313828,0.00016988650895655155,0.00039289670530706644,0.0008585422765463591,-0.0014955888036638498,-9.2440823209472e-05,0.0018267680425196886,0.2987442910671234,0.006011561024934053,-0.001129461219534278,-0.0032465853728353977,0.002216864377260208,0.0,0.0,0.0,-0.00038856625906191766,0.0006967527442611754,-0.0,0.0,0.0,0.0,-0.004999999888241291,-0.004999999888241291,-1.8037950300087147e-10,1495.0,1495.0,1495.0,1495.0,0.0,0.0,0.0,0.0,0.0,0.0,0.0,0.0,1495.0,1495.0,1495.0,1495.0,1.6338475942611694,-2.951628760259664,0.4244081298968906,1.6259593338584444,-0.0027431028429418802,-0.0011767526157200336,0.0
494,5,0.0005185631453059614,0.00016576894267927855,0.0003729535674210638,0.00030237779719755054,-0.0001041268405970186,0.0023562011774629354,0.0018267680425196886,0.2987442910671234,0.006011561024934053,-0.001129461219534278,-0.0032465853728353977,0.002216864377260208,0.0,0.0,0.0,0.002197389490902424,0.001589095569215715,-0.0,0.0,0.0,0.0,-0.004999999888241291,-0.004999999888241291,-1.8037950300087147e-10,1495.0,1495.0,1495.0,1495.0,0.0,0.0,0.0,0.0,0.0,0.0,0.0,0.0,1495.0,1495.0,1495.0,1495.0,1.6507518291473389,-2.95117810138341,0.4239753908225212,1.6256186673355377,-0.006320951972156763,0.006723520811647177,0.0
499,5,0.000525748124346137,0.00015787957818247378,0.00034776603570207953,0.0009831477655097842,0.0009050723747350276,0.003964983858168125,0.0018267680425196886,0.2987442910671234,0.006011561024934053,-0.001129461219534278,-0.0032465853728353977,0.002216864377260208,0.0,0.0,0.0,0.002197389490902424,0.001589095569215715,-0.0,0.0,0.0,0.0,-0.004999999888241291,-0.004999999888241291,-1.8037950300087147e-10,1495.0,1495.0,1495.0,1495.0,0.0,0.0,0.0,0.0,0.0,0.0,0.0,0.0,1495.0,1495.0,1495.0,1495.0,1.6507518291473389,-2.9505919912187286,0.4238333620995419,1.6253760875999237,-0.006320951972156763,0.006723520811647177,0.0
504,5,0.0005142774316482246,0.00015541361062787473,0.0003387551987543702,-0.0009832250652834773,0.000657944823615253,0.0026672917883843184,0.0018331813625991344,0.2987182140350342,0.0060130152851343155,-0.0035593356005847454,0.0018931138329207897,-0.0007842010818421841,0.0,0.0,0.0,-0.0007687174947932363,0.0017222234746441245,-0.0,0.0,0.0,0.0,-0.004999999888241291,-0.004999999888241291,3.604462284201304e-10,1495.0,1495.0,1495.0,1495.0,0.0,0.0,0.0,0.0,0.0,0.0,0.0,0.0,1495.0,1495.0,1495.0,1495.0,1.6453187465667725,-2.950720538728753,0.42382056657131867,1.62574952839525,-0.00682796211913228,-0.002344365231692791,-0.0
509,5,0.0005043561686761677,0.00014237289724405855,0.0003268204163759947,-0.0015838374383747578,0.0018280647927895188,0.002499092137441039,0.0018331813625991344,0.2987182140350342,0.0060130152851343155,-0.0035593356005847454,0.0018931138329207897,-0.0007842010818421841,0.0,0.0,0.0,-0.0007687174947932363,0.0017222234746441245,-0.0,0.0,0.0,0.0,-0.004999999888241291,-0.004999999888241291,3.604462284201304e-10,1495.0,1495.0,1495.0,1495.0,0.0,0.0,0.0,0.0,0.0,0.0,0.0,0.0,1495.0,1495.0,1495.0,1495.0,1.6453187465667725,-2.951285514669513,0.4238144073847829,1.6259084413287381,-0.00682796211913228,-0.002344365231692791,-0.0
514,5,0.0005040231044404209,0.0001502731320215389,0.0003476738347671926,-0.0006735066999681294,-0.00021680351346731186,-0.0015027746558189392,0.0018155056750401855,0.2986973822116852,0.006010113283991814,-0.0009360337862744927,0.00015670097491238266,0.0018240739591419697,0.0,0.0,0.0,-0.0019334907410666347,-0.0007357524591498077,-0.0,0.0,0.0,0.0,-0.004999999888241291,-0.004999999888241291,2.8824761588025494e-12,1495.0,1495.0,1495.0,1495.0,0.0,0.0,0.0,0.0,0.0,0.0,0.0,0.0,1495.0,1495.0,1495.0,1495.0,1.643567442893982,-2.951586620525803,0.4241397200986953,1.6260156542192004,0.0029138708487153053,-0.005890303757041693,-0.0
519,5,0.0005098919500596821,0.00014190352521836758,0.0003547265660017729,0.00043485916103236377,0.0009176325984299183,-0.0014474369818344712,0.0018155056750401855,0.2986973822116852,0.006010113283991814,-0.0009360337862744927,0.00015670097491238266,0.0018240739591419697,0.0,0.0,0.0,-0.0019334907410666347,-0.0007357524591498077,-0.0,0.0,0.0,0.0,-0.004999999888241291,-0.004999999888241291,2.8824761588025494e-12,1495.0,1495.0,1495.0,1495.0,0.0,0.0,0.0,0.0,0.0,0.0,0.0,0.0,1495.0,1495.0,1495.0,1495.0,1.643567442893982,-2.9514822185175116,0.4242459161601073,1.6257072491685245,0.0029138708487153053,-0.005890303757041693,-0.0
524,5,0.0005023257108405232,0.00015658550546504557,0.00038638358819298446,-0.0007340016891248524,-0.0013947859406471252,-0.004377817269414663,0.001822643680498004,0.2986803650856018,0.0059937844052910805,0.0023829855490475893,-0.0007453027064912021,-0.00044425789383240044,0.0,0.0,0.0,-0.0008151705260388553,0.001186381676234305,-0.0,0.0,0.0,0.0,-0.004999999888241291,-0.004999999888241291,-7.401982672627927e-12,1495.0,1495.0,1495.0,1495.0,0.0,0.0,0.0,0.0,0.0,0.0,0.0,0.0,1495.0,1495.0,1495.0,1495.0,1.6401324272155762,-2.9516474462932614,0.42423232702216784,1.6260648799121988,-0.004688727669417858,-0.00247819721698761,0.0
529,5,0.000514415733050555,0.00016726439935155213,0.0003945782082155347,0.001157197286374867,-0.0018393811769783497,-0.002734479261562228,0.001822643680498004,0.2986803650856018,0.0059937844052910805,0.0023829855490475893,-0.0007453027064912021,-0.00044425789383240044,0.0,0.0,0.0,-0.0008151705260388553,0.001186381676234305,-0.0,0.0,0.0,0.0,-0.004999999888241291,-0.004999999888241291,-7.401982672627927e-12,1495.0,1495.0,1495.0,1495.0,0.0,0.0,0.0,0.0,0.0,0.0,0.0,0.0,1495.0,1495.0,1495.0,1495.0,1.6401324272155762,-2.952074209816683,0.42393160326550594,1.6260419434306204,-0.004688727669417858,-0.00247819721698761,0.0
534,5,0.0005074375658296049,0.00017589767230674624,0.0004137048381380737,-0.00037449871888384223,-0.001771745621226728,-0.003388987621292472,0.0018151457188650966,0.29871973395347595,0.006013934034854174,-0.00029476734925992787,-0.0008647366776131094,0.0006522555486299098,0.0,0.0,0.0,0.0026076233480125666,0.001861377852037549,-0.0,0.0,0.0,0.0,-0.004999999888241291,-0.004999999888241291,-1.8608278806730993e-10,1495.0,1495.0,1495.0,1495.0,0.0,0.0,0.0,0.0,0.0,0.0,0.0,0.0,1495.0,1495.0,1495.0,1495.0,1.6553072929382324,-2.9518810556532844,0.4235739397389837,1.6264816481629187,-0.007424434181302786,0.008000758476555347,0.0
540,5,0.0005166221526451409,0.00017213396495208144,0.0003944278578273952,0.000952352536842227,-0.00025705277221277356,0.0009576420416124165,0.0018151457188650966,0.29871973395347595,0.006013934034854174,-0.00029476734925992787,-0.0008647366776131094,0.0006522555486299098,0.0,0.0,0.0,0.0026076233480125666,0.001861377852037549,-0.0,0.0,0.0,0.0,-0.004999999888241291,-0.004999999888241291,-1.8608278806730993e-10,1495.0,1495.0,1495.0,1495.0,0.0,0.0,0.0,0.0,0.0,0.0,0.0,0.0,1495.0,1495.0,1495.0,1495.0,1.6553072929382324,-2.9514482797511077,0.4242406953415002,1.62596367222598,-0.007424434181302786,0.008000758476555347,0.0
