timestamp,dt,pos_x,pos_y,pos_z,vel_x,vel_y,vel_z,roll,pitch,yaw,agv_x,agv_y,agv_z,x_ref,y_ref,z_ref,roll_ref,pitch_ref,yaw_ref,x_vel_ref,y_vel_ref,z_vel_ref,x_torque,y_torque,z_torque,w0,w1,w2,w3,u0,u1,u2,u3,m0req,m1req,m2req,m3req,thrust0,thrust1,thrust2,thrust3,thrust_ref,roll_vicon,pitch_vicon,yaw_vicon,acc_x,acc_y,acc_z
5,5,0.0,0.0,0.0,0.0007255439995788038,-0.00014981170534156263,-3.9626920624868944e-05,0.04885850474238396,0.32843074202537537,-0.015324270352721214,-0.0016876773443073034,-0.0007982276729308069,-0.0012412136420607567,0.0,0.0,0.0,0.00017405195103492588,0.000648415763862431,-0.0,0.0,0.0,0.0,-0.02229624055325985,-0.14763012528419495,-0.002149535808712244,1495.0,1495.0,1495.0,1495.0,0.0,0.0,0.0,0.0,0.0,0.0,0.0,0.0,1495.0,1495.0,1495.0,1495.0,1.7413641214370728,-0.05249444899659749,-0.1926646103501637,0.060501798345479633,-0.002720789983868599,0.0005617939168587327,0.0
32,27,0.0,0.0,0.0,-0.001420078449882567,-0.00035891126026399434,-0.00028060594922862947,0.04885850474238396,0.32843074202537537,-0.015324270352721214,-0.0016876773443073034,-0.0007982276729308069,-0.0012412136420607567,0.0,0.0,0.0,0.00017405195103492588,0.000648415763862431,-0.0,0.0,0.0,0.0,-0.02229624055325985,-0.14763012528419495,-0.002149535808712244,1495.0,1495.0,1495.0,1495.0,0.0,0.0,0.0,0.0,0.0,0.0,0.0,0.0,1495.0,1495.0,1495.0,1495.0,1.7413641214370728,-0.052267662682352826,-0.19282604357100624,0.06029490065156843,-0.002720789983868599,0.0005617939168587327,0.0
37,5,0.0,0.0,0.0,0.00046747963642701507,0.001505049061961472,0.0002636660647112876,0.04889439791440964,0.32833266258239746,-0.015332438051700592,0.002258504508063197,0.0010052690049633384,-0.005397377535700798,0.0,0.0,0.0,0.00041708475328050554,-0.0012694229371845722,-0.0,0.0,0.0,0.0,-0.022024674341082573,-0.14760570228099823,-0.002392346737906337,1495.0,1495.0,1495.0,1495.0,0.0,0.0,0.0,0.0,0.0,0.0,0.0,0.0,1495.0,1495.0,1495.0,1495.0,1.7409467697143555,-0.05205828633183979,-0.192829720497394,0.060426356862600256,0.005325294099748135,0.0013459172332659364,0.0
42,5,0.0,0.0,0.0,-0.00020709844829980284,-0.0008459140663035214,-0.0009620203054510057,0.04889439791440964,0.32833266258239746,-0.015332438051700592,0.002258504508063197,0.0010052690049633384,-0.005397377535700798,0.0,0.0,0.0,0.00041708475328050554,-0.0012694229371845722,-0.0,0.0,0.0,0.0,-0.022024674341082573,-0.14760570228099823,-0.002392346737906337,1495.0,1495.0,1495.0,1495.0,0.0,0.0,0.0,0.0,0.0,0.0,0.0,0.0,1495.0,1495.0,1495.0,1495.0,1.7409467697143555,-0.05199061950082196,-0.19292893959309826,0.060608972217440514,0.005325294099748135,0.0013459172332659364,0.0
56,14,0.0,0.0,0.0,-0.00020709844829980284,-0.0008459140663035214,-0.0009620203054510057,0.04889439791440964,0.32833266258239746,-0.015332438051700592,0.002258504508063197,0.0010052690049633384,-0.005397377535700798,0.0,0.0,0.0,0.00041708475328050554,-0.0012694229371845722,-0.0,0.0,0.0,0.0,-0.022024674341082573,-0.14760570228099823,-0.002392346737906337,1495.0,1495.0,1495.0,1495.0,0.0,0.0,0.0,0.0,0.0,0.0,0.0,0.0,1495.0,1495.0,1495.0,1495.0,1.7409467697143555,-0.05199061950082196,-0.19292893959309826,0.060608972217440514,0.0007766191847622395,0.0031721778213977814,0.0
61,5,1.389034150633961e-05,-1.582473487360403e-05,7.811683644831646e-06,0.0017562543507665396,0.0006262098322622478,-0.0008623814210295677,0.04889439791440964,0.32833266258239746,-0.015332438051700592,0.002258504508063197,0.0010052690049633384,-0.005397377535700798,0.0,0.0,0.0,0.0009829271584749222,-0.00018510948575567454,-0.0,0.0,0.0,0.0,-0.022130431607365608,-0.14786304533481598,-0.0021698640193790197,1495.0,1495.0,1495.0,1495.0,0.0,0.0,0.0,0.0,0.0,0.0,0.0,0.0,1495.0,1495.0,1495.0,1495.0,1.7411161661148071,-0.0521610327159464,-0.1926651340491291,0.060632866999497104,0.0007766191847622395,0.0031721778213977814,0.0
66,5,1.1875165910169017e-05,-1.1768825970648322e-05,9.573671377438586e-06,0.0004606806905940175,-0.00023622496519237757,-0.0005563910817727447,0.04890304431319237,0.3283465504646301,-0.015332034789025784,-0.0003445643524173647,-0.004790208768099546,0.0008112004143185914,0.0,0.0,0.0,0.0002544169838074595,0.00042734481394290924,-0.0,0.0,0.0,0.0,-0.022130431607365608,-0.14786304533481598,-0.0021698640193790197,1495.0,1495.0,1495.0,1495.0,0.0,0.0,0.0,0.0,0.0,0.0,0.0,0.0,1495.0,1495.0,1495.0,1495.0,1.7411155700683594,-0.05224577347230514,-0.1924753959266449,0.0605891282323224,-0.0017929075984284282,0.0008210738888010383,0.0
71,5,3.303526682429947e-06,-1.1515088544911123e-06,7.739362445136067e-06,-0.0008443243568763137,-0.0013685680460184813,-2.4393325475102756e-06,0.04890304431319237,0.3283465504646301,-0.015332034789025784,-0.0003445643524173647,-0.004790208768099546,0.0008112004143185914,0.0,0.0,0.0,0.0002544169838074595,0.00042734481394290924,-0.0,0.0,0.0,0.0,-0.022130431607365608,-0.14786304533481598,-0.0021698640193790197,1495.0,1495.0,1495.0,1495.0,0.0,0.0,0.0,0.0,0.0,0.0,0.0,0.0,1495.0,1495.0,1495.0,1495.0,1.7411155700683594,-0.05242633258820048,-0.19263042430608218,0.060472194405833166,-0.0017929075984284282,0.0008210738888010383,0.0
76,5,2.253417505926336e-06,3.3734622775227763e-06,-3.504301639623009e-05,-0.00010434454452479258,-0.0007731263758614659,0.003388781566172838,0.048862773925065994,0.32840201258659363,-0.015308399684727192,-0.0021133865229785442,-0.0026754853315651417,0.004600715823471546,0.0,0.0,0.0,0.0009040944278240204,-9.03001637198031e-05,-0.0,0.0,0.0,0.0,-0.022130116820335388,-0.14778266847133636,-0.0023550393525511026,1495.0,1495.0,1495.0,1495.0,0.0,0.0,0.0,0.0,0.0,0.0,0.0,0.0,1495.0,1495.0,1495.0,1495.0,1.741107702255249,-0.052509536234558514,-0.19250901968495265,0.060233989958954244,0.00037884878111071885,0.0029177486430853605,0.0
84,8,6.679798843833851e-06,5.4818005992274266e-06,-2.678597957128659e-05,0.0004894279409199953,-0.000562251138035208,0.0003646681143436581,0.048862773925065994,0.32840201258659363,-0.015308399684727192,-0.0021133865229785442,-0.0026754853315651417,0.004600715823471546,0.0,0.0,0.0,0.0009040944278240204,-9.03001637198031e-05,-0.0,0.0,0.0,0.0,-0.022130116820335388,-0.14778266847133636,-0.0023550393525511026,1495.0,1495.0,1495.0,1495.0,0.0,0.0,0.0,0.0,0.0,0.0,0.0,0.0,1495.0,1495.0,1495.0,1495.0,1.741107702255249,-0.05291979739274628,-0.19300850494049687,0.06037722788654893,0.00037884878111071885,0.0029177486430853605,0.0
89,5,2.2333463221002603e-06,8.110251314974448e-07,-2.4216136807808653e-05,-0.0003378031251486391,0.0003355926019139588,-0.00016251392662525177,0.04885755106806755,0.3284091055393219,-0.015352444723248482,-0.003881906857714057,-0.0037374563980847597,-0.0031386716291308403,0.0,0.0,0.0,0.0006628488190472126,0.00044636474922299385,-0.0,0.0,0.0,0.0,-0.021767767146229744,-0.14785560965538025,-0.0024053361266851425,1495.0,1495.0,1495.0,1495.0,0.0,0.0,0.0,0.0,0.0,0.0,0.0,0.0,1495.0,1495.0,1495.0,1495.0,1.7406152486801147,-0.05217278059990293,-0.19300759461690317,0.06064166125856883,-0.0018721665255725384,0.002138581359758973,0.0
94,5,-1.6976396182144526e-06,-3.8089371656724325e-08,-1.5540403182967566e-05,-0.000606839545071125,0.00023613078519701958,-0.0011060936376452446,0.04885755106806755,0.3284091055393219,-0.015352444723248482,-0.003881906857714057,-0.0037374563980847597,-0.0031386716291308403,0.0,0.0,0.0,0.0006628488190472126,0.00044636474922299385,-0.0,0.0,0.0,0.0,-0.021767767146229744,-0.14785560965538025,-0.0024053361266851425,1495.0,1495.0,1495.0,1495.0,0.0,0.0,0.0,0.0,0.0,0.0,0.0,0.0,1495.0,1495.0,1495.0,1495.0,1.7406152486801147,-0.05168222791655989,-0.19249815283377938,0.06055537418723464,-0.0018721665255725384,0.002138581359758973,0.0
99,5,4.747247203340521e-06,-5.6839853641577065e-06,-2.933244786618161e-06,0.000530650548171252,0.0007719598361290991,-0.001955296378582716,0.04883814603090286,0.3284303545951843,-0.015360221266746521,-0.0023725873325020075,-0.00023484145640395582,0.0020080083049833775,0.0,0.0,0.0,-0.00027437947574071586,-0.0005444867420010269,-0.0,0.0,0.0,0.0,-0.021698998287320137,-0.147836372256279,-0.0022794862743467093,1495.0,1495.0,1495.0,1495.0,0.0,0.0,0.0,0.0,0.0,0.0,0.0,0.0,1495.0,1495.0,1495.0,1495.0,1.741532325744629,-0.05201558829095589,-0.19291527278077616,0.06052126976323707,0.0022849184460937977,-0.0008857102948240936,0.0
108,8,1.4015789020049851e-05,-1.0393899174232502e-05,1.9761269868467934e-05,0.0005585249164141715,0.00035455089528113604,-0.0025612791068851948,0.04883814603090286,0.3284303545951843,-0.015360221266746521,-0.0023725873325020075,-0.00023484145640395582,0.0020080083049833775,0.0,0.0,0.0,-0.00027437947574071586,-0.0005444867420010269,-0.0,0.0,0.0,0.0,-0.021698998287320137,-0.147836372256279,-0.0022794862743467093,1495.0,1495.0,1495.0,1495.0,0.0,0.0,0.0,0.0,0.0,0.0,0.0,0.0,1495.0,1495.0,1495.0,1495.0,1.741532325744629,-0.05223314701854763,-0.19256116997256448,0.060465382875194436,0.0022849184460937977,-0.0008857102948240936,0.0
113,5,5.072666226624278e-06,-8.488289495289791e-06,2.4127919459715486e-05,-0.0008497647359035909,-8.68528732098639e-05,-0.001548509462736547,0.04883814603090286,0.3284303545951843,-0.015360221266746521,-0.0023725873325020075,-0.00023484145640395582,0.0020080083049833775,0.0,0.0,0.0,-0.00042956293327733874,0.0005174523103050888,-0.0,0.0,0.0,0.0,-0.021840384230017662,-0.14793425798416138,-0.0022653043270111084,1495.0,1495.0,1495.0,1495.0,0.0,0.0,0.0,0.0,0.0,0.0,0.0,0.0,1495.0,1495.0,1495.0,1495.0,1.7416943311691284,-0.05181222765849263,-0.192613202205026,0.06053331844855033,-0.002171671250835061,-0.0013867790112271905,0.0
118,5,5.545256499317475e-06,-1.5899694290055777e-06,6.601781024073716e-06,-0.00028319505508989096,-0.0008625395130366087,0.0014837328344583511,0.04883366823196411,0.3284403085708618,-0.015348216518759727,-0.004925725050270557,-0.0007248186157085001,-0.0019860384054481983,0.0,0.0,0.0,0.0009991874685510993,-0.0002457429945934564,-0.0,0.0,0.0,0.0,-0.02175455540418625,-0.1473914533853531,-0.0025341222062706947,1495.0,1495.0,1495.0,1495.0,0.0,0.0,0.0,0.0,0.0,0.0,0.0,0.0,1495.0,1495.0,1495.0,1495.0,1.7416948080062866,-0.05221708154151817,-0.19239905694536066,0.060463710151119544,0.00103134720120579,0.0032257260754704475,0.0
126,8,-5.298519454299822e-07,-1.5094465197762474e-06,2.2524406517732132e-07,-0.0008422910468652844,-0.00035467854468151927,0.0013586775166913867,0.04883366823196411,0.3284403085708618,-0.015348216518759727,-0.004925725050270557,-0.0007248186157085001,-0.0019860384054481983,0.0,0.0,0.0,0.0009991874685510993,-0.0002457429945934564,-0.0,0.0,0.0,0.0,-0.02175455540418625,-0.1473914533853531,-0.0025341222062706947,1495.0,1495.0,1495.0,1495.0,0.0,0.0,0.0,0.0,0.0,0.0,0.0,0.0,1495.0,1495.0,1495.0,1495.0,1.7416948080062866,-0.05235396003840156,-0.19283477725010478,0.0604461605713542,0.00103134720120579,0.0032257260754704475,0.0
131,5,1.0789291991386563e-05,-1.2030717698507942e-05,-4.114367038710043e-05,0.001471303985454142,0.0014352973084896803,0.004617664963006973,0.04883366823196411,0.3284403085708618,-0.015348216518759727,-0.004925725050270557,-0.0007248186157085001,-0.0019860384054481983,0.0,0.0,0.0,0.0004094584146514535,-0.0007533800671808422,-0.0,0.0,0.0,0.0,-0.02175455540418625,-0.1473914533853531,-0.0025341222062706947,1495.0,1495.0,1495.0,1495.0,0.0,0.0,0.0,0.0,0.0,0.0,0.0,0.0,1495.0,1495.0,1495.0,1495.0,1.7414445877075195,-0.05271852411423163,-0.19261369103340142,0.060423545297449095,0.0031613721512258053,0.0013216850347816944,0.0
136,5,1.0789291991386563e-05,-1.2030717698507942e-05,-4.114367038710043e-05,0.001471303985454142,0.0014352973084896803,0.004617664963006973,0.04882313683629036,0.32836490869522095,-0.015380016528069973,-0.001459164428524673,0.008651352487504482,-0.007075335364788771,0.0,0.0,0.0,0.0004094584146514535,-0.0007533800671808422,-0.0,0.0,0.0,0.0,-0.021824900060892105,-0.14779455959796906,-0.002249622717499733,1495.0,1495.0,1495.0,1495.0,0.0,0.0,0.0,0.0,0.0,0.0,0.0,0.0,1495.0,1495.0,1495.0,1495.0,1.7414445877075195,-0.05271852411423163,-0.19261369103340142,0.060423545297449095,0.0031613721512258053,0.0013216850347816944,0.0
141,5,9.152656275546178e-06,7.278941666299943e-06,-2.6364126824773848e-05,0.001116095227189362,-0.0009246524423360825,-0.0006185891106724739,0.0488307811319828,0.32833877205848694,-0.015400467440485954,-0.0035863500088453293,-0.002168063074350357,0.006006304640322924,0.0,0.0,0.0,-0.0016873447457328439,0.0013285145396366715,-0.0,0.0,0.0,0.0,-0.02175425924360752,-0.14776313304901123,-0.00217223702929914,1495.0,1495.0,1495.0,1495.0,0.0,0.0,0.0,0.0,0.0,0.0,0.0,0.0,1495.0,1495.0,1495.0,1495.0,1.7421101331710815,-0.051957170705802816,-0.19261518310771641,0.06060476877826867,-0.005576902534812689,-0.005448633339256048,0.0
146,5,9.13505118660396e-06,1.1145881444463157e-06,-1.960759072971996e-05,0.00044432541471906006,0.00036986146005801857,-0.0010582200484350324,0.0488307811319828,0.32833877205848694,-0.015400467440485954,-0.0035863500088453293,-0.002168063074350357,0.006006304640322924,0.0,0.0,0.0,-0.0016873447457328439,0.0013285145396366715,-0.0,0.0,0.0,0.0,-0.02175425924360752,-0.14776313304901123,-0.00217223702929914,1495.0,1495.0,1495.0,1495.0,0.0,0.0,0.0,0.0,0.0,0.0,0.0,0.0,1495.0,1495.0,1495.0,1495.0,1.7421101331710815,-0.052403686187883276,-0.19275846118571996,0.06030676894415822,-0.005576902534812689,-0.005448633339256048,0.0
151,5,9.13505118660396e-06,1.1145881444463157e-06,-1.960759072971996e-05,0.00044432541471906006,0.00036986146005801857,-0.0010582200484350324,0.0487990528345108,0.32835495471954346,-0.015368860214948654,-0.0025281261187046766,0.004915441852062941,-0.0017202357994392514,0.0,0.0,0.0,-0.0004275504616089165,0.0004088398418389261,-0.0,0.0,0.0,0.0,-0.02185024507343769,-0.14776046574115753,-0.0023619288112968206,1495.0,1495.0,1495.0,1495.0,0.0,0.0,0.0,0.0,0.0,0.0,0.0,0.0,1495.0,1495.0,1495.0,1495.0,1.7425321340560913,-0.052403686187883276,-0.19275846118571996,0.06030676894415822,-0.001716666272841394,-0.001380946021527052,0.0
157,5,2.129281938323402e-06,-4.0268009797728155e-06,9.055145710590295e-06,-0.0008407772984355688,0.0012671787990257144,-0.001368114142678678,0.0487990528345108,0.32835495471954346,-0.015368860214948654,-0.0025281261187046766,0.004915441852062941,-0.0017202357994392514,0.0,0.0,0.0,-0.0004275504616089165,0.0004088398418389261,-0.0,0.0,0.0,0.0,-0.02185024507343769,-0.14776046574115753,-0.0023619288112968206,1495.0,1495.0,1495.0,1495.0,0.0,0.0,0.0,0.0,0.0,0.0,0.0,0.0,1495.0,1495.0,1495.0,1495.0,1.7425321340560913,-0.05177386929681123,-0.19278368817109964,0.06046795821563547,-0.001716666272841394,-0.001380946021527052,0.0
162,5,-2.1174425910430728e-06,-3.157320406899089e-06,1.7884794942801818e-05,-0.0008459178498014808,0.0004025338275823742,-0.0016068037366494536,0.0487990528345108,0.32835495471954346,-0.015368860214948654,-0.0025281261187046766,0.004915441852062941,-0.0017202357994392514,0.0,0.0,0.0,-0.0014786761021241546,-0.0007483388762921095,-0.0,0.0,0.0,0.0,-0.02185024507343769,-0.14776046574115753,-0.0023619288112968206,1495.0,1495.0,1495.0,1495.0,0.0,0.0,0.0,0.0,0.0,0.0,0.0,0.0,1495.0,1495.0,1495.0,1495.0,1.741876244544983,-0.05165759300903058,-0.19287143695422687,0.06071888454558222,0.003140993183478713,-0.00477417791262269,0.0
167,5,-3.871051376336254e-06,-1.0072934855998028e-05,4.637182883016067e-06,-0.0005488001625053585,0.0009908872889354825,0.0009469920769333839,0.0487990528345108,0.32835495471954346,-0.015368860214948654,-0.0025281261187046766,0.004915441852062941,-0.0017202357994392514,0.0,0.0,0.0,-0.0014786761021241546,-0.0007483388762921095,-0.0,0.0,0.0,0.0,-0.02192574366927147,-0.147596538066864,-0.002431099768728018,1495.0,1495.0,1495.0,1495.0,0.0,0.0,0.0,0.0,0.0,0.0,0.0,0.0,1495.0,1495.0,1495.0,1495.0,1.741876244544983,-0.05216359362312848,-0.1926551643760623,0.060507630304026734,0.003140993183478713,-0.00477417791262269,0.0
172,5,-3.6933037961262016e-08,-2.124858474417124e-05,3.2475115858687786e-06,0.0002405741106485948,0.001737432787194848,0.0005455573555082083,0.048803992569446564,0.32829368114471436,-0.015383097343146801,-0.0005314864683896303,0.0025014872662723064,0.00010570689482847229,0.0,0.0,0.0,-0.0011680842144414783,-0.0004953424795530736,-0.0,0.0,0.0,0.0,-0.022005317732691765,-0.147889643907547,-0.0023070890456438065,1495.0,1495.0,1495.0,1495.0,0.0,0.0,0.0,0.0,0.0,0.0,0.0,0.0,1495.0,1495.0,1495.0,1495.0,1.741875171661377,-0.05239043071079071,-0.1924112796829868,0.06041702891564689,0.0020790942944586277,-0.00377137353643775,0.0
177,5,-8.166652150976006e-06,-1.450773015676532e-05,-6.9893785621388815e-06,-0.0008793366723693907,-0.00011392937449272722,0.0014466497814282775,0.048803992569446564,0.32829368114471436,-0.015383097343146801,-0.0005314864683896303,0.0025014872662723064,0.00010570689482847229,0.0,0.0,0.0,-0.0011680842144414783,-0.0004953424795530736,-0.0,0.0,0.0,0.0,-0.022005317732691765,-0.147889643907547,-0.0023070890456438065,1495.0,1495.0,1495.0,1495.0,0.0,0.0,0.0,0.0,0.0,0.0,0.0,0.0,1495.0,1495.0,1495.0,1495.0,1.741875171661377,-0.05270562383368854,-0.19234027442107438,0.06018606517140892,0.0020790942944586277,-0.00377137353643775,0.0
182,5,7.074638233461883e-06,-6.872953235870227e-06,-1.5782125046825968e-05,0.001477220212109387,-0.0009617449250072241,0.0016337893903255463,0.04880985990166664,0.32831764221191406,-0.015366041101515293,-0.00010220865806331858,-0.004227374214679003,0.0028994849417358637,0.0,0.0,0.0,0.00010753228707471862,-0.0007961551891639829,-0.0,0.0,0.0,0.0,-0.02191871963441372,-0.14789573848247528,-0.002180614974349737,1495.0,1495.0,1495.0,1495.0,0.0,0.0,0.0,0.0,0.0,0.0,0.0,0.0,1495.0,1495.0,1495.0,1495.0,1.742170810699463,-0.05249730687575811,-0.19250860527007327,0.060356813232787125,0.003342260606586933,0.00034724673605524004,0.0
187,5,1.4804719285166357e-05,-4.666161203203956e-06,-7.633209861523937e-06,0.001518497709184885,-0.0006495129782706499,-0.00032435398316010833,0.04880985990166664,0.32831764221191406,-0.015366041101515293,-0.00010220865806331858,-0.004227374214679003,0.0028994849417358637,0.0,0.0,0.0,0.00010753228707471862,-0.0007961551891639829,-0.0,0.0,0.0,0.0,-0.02191871963441372,-0.14789573848247528,-0.002180614974349737,1495.0,1495.0,1495.0,1495.0,0.0,0.0,0.0,0.0,0.0,0.0,0.0,0.0,1495.0,1495.0,1495.0,1495.0,1.742170810699463,-0.052480166520610806,-0.19262592680920793,0.0603928106725399,0.003342260606586933,0.00034724673605524004,0.0
192,5,5.563001195696415e-06,-1.3163199810151127e-06,-3.007099985552486e-05,-0.0005016070208512247,-0.0006617861799895763,0.002562793204560876,0.04880985990166664,0.32831764221191406,-0.015366041101515293,-0.00010220865806331858,-0.004227374214679003,0.0028994849417358637,0.0,0.0,0.0,0.0007463963702321053,0.0013761757872998714,-0.0,0.0,0.0,0.0,-0.02191871963441372,-0.14789573848247528,-0.002180614974349737,1495.0,1495.0,1495.0,1495.0,0.0,0.0,0.0,0.0,0.0,0.0,0.0,0.0,1495.0,1495.0,1495.0,1495.0,1.7418172359466553,-0.05255747426102052,-0.1925610143784228,0.06026718177689543,-0.005776012782007456,0.002409797627478838,0.0
197,5,1.0208095773123205e-05,-5.660386705130804e-06,-3.0088407584116794e-05,0.00035676854895427823,0.000256573548540473,0.001027206308208406,0.048802752047777176,0.3283002972602844,-0.01537980604916811,0.00037809601053595543,0.007183785550296307,-0.010638773441314697,0.0,0.0,0.0,0.0007463963702321053,0.0013761757872998714,-0.0,0.0,0.0,0.0,-0.02212396077811718,-0.14754778146743774,-0.0025716586969792843,1495.0,1495.0,1495.0,1495.0,0.0,0.0,0.0,0.0,0.0,0.0,0.0,0.0,1495.0,1495.0,1495.0,1495.0,1.7418172359466553,-0.05237112127677846,-0.19270766819130192,0.060518044848525285,-0.005776012782007456,0.002409797627478838,0.0
202,5,1.1797472325270064e-05,8.147006155923009e-06,-4.879972038906999e-06,0.0003334326029289514,-0.0015542577020823956,-0.002614129800349474,0.048802752047777176,0.3283002972602844,-0.01537980604916811,0.00037809601053595543,0.007183785550296307,-0.010638773441314697,0.0,0.0,0.0,-0.00030767510179430246,0.00033214324503205717,-0.0,0.0,0.0,0.0,-0.02212396077811718,-0.14754778146743774,-0.0025716586969792843,1495.0,1495.0,1495.0,1495.0,0.0,0.0,0.0,0.0,0.0,0.0,0.0,0.0,1495.0,1495.0,1495.0,1495.0,1.7421019077301025,-0.05160357640140686,-0.1927407303028691,0.06070686998443954,-0.0013942826772108674,-0.00099351501557976,0.0
207,5,1.126413008023519e-05,-6.093600404710742e-06,-5.658247573592234e-06,6.937199214007705e-05,0.0010871697450056672,-0.0009522588225081563,0.048799242824316025,0.3282807469367981,-0.015386860817670822,5.491037154570222e-05,-4.470315980142914e-05,-0.0026611005887389183,0.0,0.0,0.0,-0.00030767510179430246,0.00033214324503205717,-0.0,0.0,0.0,0.0,-0.021944560110569,-0.14766241610050201,-0.0023975579533725977,1495.0,1495.0,1495.0,1495.0,0.0,0.0,0.0,0.0,0.0,0.0,0.0,0.0,1495.0,1495.0,1495.0,1495.0,1.7421019077301025,-0.05168869928300365,-0.19285557973073694,0.06075584102129738,-0.0013942826772108674,-0.00099351501557976,0.0
212,5,-6.781379511267005e-07,1.8249994582220097e-06,-1.2258582273716456e-06,-0.001405323389917612,-0.0005153641104698181,-0.0009127903031185269,0.048799242824316025,0.3282807469367981,-0.015386860817670822,5.491037154570222e-05,-4.470315980142914e-05,-0.0026611005887389183,0.0,0.0,0.0,-0.00030767510179430246,0.00033214324503205717,-0.0,0.0,0.0,0.0,-0.021944560110569,-0.14766241610050201,-0.0023975579533725977,1495.0,1495.0,1495.0,1495.0,0.0,0.0,0.0,0.0,0.0,0.0,0.0,0.0,1495.0,1495.0,1495.0,1495.0,1.7421019077301025,-0.05202950617145712,-0.1925847716380654,0.060636339626930796,-0.0013942826772108674,-0.00099351501557976,0.0
218,5,2.5691831524454756e-06,-1.3650044820678886e-05,-2.9684536002605455e-06,-0.00017245083290617913,0.0016508597182109952,-0.0001560046657687053,0.0487644337117672,0.3283022344112396,-0.015373161993920803,-0.0032045638654381037,-0.00263581657782197,-0.0017227085772901773,0.0,0.0,0.0,0.0006014862447045743,-0.0012561214389279485,-0.0,0.0,0.0,0.0,-0.021581143140792847,-0.14786598086357117,-0.002284641144797206,1495.0,1495.0,1495.0,1495.0,0.0,0.0,0.0,0.0,0.0,0.0,0.0,0.0,1495.0,1495.0,1495.0,1495.0,1.7422503232955933,-0.051778451555290025,-0.19250569531471481,0.060554136713983756,0.005273438524454832,0.0019424272468313575,0.0
223,5,-1.4954287053114967e-06,-9.3496555564343e-06,-1.483933283452643e-05,-0.0005567337502725422,0.00014429718430619687,0.0013621036196127534,0.0487644337117672,0.3283022344112396,-0.015373161993920803,-0.0032045638654381037,-0.00263581657782197,-0.0017227085772901773,0.0,0.0,0.0,0.0006014862447045743,-0.0012561214389279485,-0.0,0.0,0.0,0.0,-0.021581143140792847,-0.14786598086357117,-0.002284641144797206,1495.0,1495.0,1495.0,1495.0,0.0,0.0,0.0,0.0,0.0,0.0,0.0,0.0,1495.0,1495.0,1495.0,1495.0,1.7422503232955933,-0.05238991492183507,-0.19245144729939542,0.060342322076151866,0.005273438524454832,0.0019424272468313575,0.0
228,5,-5.1870733841496985e-06,-5.211958068684908e-06,-1.3578773177869152e-05,-0.0006656908662989736,-0.000438804883742705,0.00039357427158392966,0.04875299334526062,0.32829225063323975,-0.01536496914923191,-0.0007721972069703043,0.002960100071504712,-0.0012543202610686421,0.0,0.0,0.0,-0.00018359361274633557,-0.0004992797621525824,-0.0,0.0,0.0,0.0,-0.021860918030142784,-0.14768236875534058,-0.0022580523509532213,1495.0,1495.0,1495.0,1495.0,0.0,0.0,0.0,0.0,0.0,0.0,0.0,0.0,1495.0,1495.0,1495.0,1495.0,1.7419636249542236,-0.05233738428090119,-0.19271887959091977,0.060565493514530166,0.002095727948471904,-0.0005927958991378546,0.0
233,5,-8.53231358632911e-06,-6.874954124214128e-06,-1.3183491319068708e-05,-0.0006677050841972232,2.4037552066147327e-05,0.00010999595542671159,0.04875299334526062,0.32829225063323975,-0.01536496914923191,-0.0007721972069703043,0.002960100071504712,-0.0012543202610686421,0.0,0.0,0.0,-0.00018359361274633557,-0.0004992797621525824,-0.0,0.0,0.0,0.0,-0.021860918030142784,-0.14768236875534058,-0.0022580523509532213,1495.0,1495.0,1495.0,1495.0,0.0,0.0,0.0,0.0,0.0,0.0,0.0,0.0,1495.0,1495.0,1495.0,1495.0,1.7419636249542236,-0.05227436071475434,-0.1928470417815606,0.06041094749118599,0.002095727948471904,-0.0005927958991378546,0.0
238,5,1.5414794916068786e-06,-1.1089114195783623e-05,-9.347602826892398e-06,0.0009417730616405606,0.0005153142265044153,-0.00041630829218775034,0.04880033805966377,0.32825547456741333,-0.01538876723498106,0.0031067656818777323,0.0006510389503091574,-0.0015928561333566904,0.0,0.0,0.0,-3.97194417018909e-05,-0.000607707304880023,-0.0,0.0,0.0,0.0,-0.022363154217600822,-0.14766480028629303,-0.0024414164945483208,1495.0,1495.0,1495.0,1495.0,0.0,0.0,0.0,0.0,0.0,0.0,0.0,0.0,1495.0,1495.0,1495.0,1495.0,1.741793155670166,-0.05198713143047809,-0.19255816707023857,0.0606083115969117,0.002550603123381734,-0.00012823549332097173,0.0
243,5,-3.947458480979549e-06,-1.3349043683774653e-06,-1.4932014892110601e-05,-0.0002819633227773011,-0.0009643794619478285,0.0005036062211729586,0.04880033805966377,0.32825547456741333,-0.01538876723498106,0.0031067656818777323,0.0006510389503091574,-0.0015928561333566904,0.0,0.0,0.0,-3.97194417018909e-05,-0.000607707304880023,-0.0,0.0,0.0,0.0,-0.022363154217600822,-0.14766480028629303,-0.0024414164945483208,1495.0,1495.0,1495.0,1495.0,0.0,0.0,0.0,0.0,0.0,0.0,0.0,0.0,1495.0,1495.0,1495.0,1495.0,1.741793155670166,-0.052294268538087545,-0.1924265659437579,0.06046994064204161,0.002550603123381734,-0.00012823549332097173,0.0
248,5,1.1780570275732316e-05,-1.8654955056263134e-06,-1.7414817193639465e-05,0.0017745781224220991,-0.0003220808575861156,0.0004993787151761353,0.04878519847989082,0.3282603919506073,-0.015356362797319889,0.00034579011844471097,-0.004003564361482859,0.006343779619783163,0.0,0.0,0.0,0.0011174636892974377,-0.0002569784119259566,-0.0,0.0,0.0,0.0,-0.021969780325889587,-0.14788185060024261,-0.0021094598341733217,1495.0,1495.0,1495.0,1495.0,0.0,0.0,0.0,0.0,0.0,0.0,0.0,0.0,1495.0,1495.0,1495.0,1495.0,1.742289423942566,-0.05222413547141039,-0.19235996540907674,0.06047475772462782,0.0010788686340674758,0.0036087939515709877,0.0
253,5,1.71861956914654e-05,3.6834244383499026e-06,-1.536423951620236e-05,0.0013585062697529793,-0.0007947027334012091,-4.631778210750781e-05,0.04878519847989082,0.3282603919506073,-0.015356362797319889,0.00034579011844471097,-0.004003564361482859,0.006343779619783163,0.0,0.0,0.0,0.0011174636892974377,-0.0002569784119259566,-0.0,0.0,0.0,0.0,-0.021969780325889587,-0.14788185060024261,-0.0021094598341733217,1495.0,1495.0,1495.0,1495.0,0.0,0.0,0.0,0.0,0.0,0.0,0.0,0.0,1495.0,1495.0,1495.0,1495.0,1.742289423942566,-0.05244051253883984,-0.19276654367144333,0.06034819406622466,0.0010788686340674758,0.0036087939515709877,0.0
258,5,5.753761342930375e-06,-1.7748719756127684e-06,-1.1252354852331337e-05,-0.0008284896030090749,0.00033711447031237185,-0.0005119533743709326,0.04878519847989082,0.3282603919506073,-0.015356362797319889,0.00034579011844471097,-0.004003564361482859,0.006343779619783163,0.0,0.0,0.0,0.0009293468901887536,0.0012365037109702826,-0.0,0.0,0.0,0.0,-0.021863477304577827,-0.1479143649339676,-0.0022107530385255814,1495.0,1495.0,1495.0,1495.0,0.0,0.0,0.0,0.0,0.0,0.0,0.0,0.0,1495.0,1495.0,1495.0,1495.0,1.741615653038025,-0.05282094141049064,-0.1927026519270559,0.060219258837996587,-0.005189187359064817,0.003000119933858514,0.0
263,5,9.515699275652878e-06,2.4637901674395835e-07,-2.223900446551852e-05,0.00012003677693428472,-0.00010770431981654838,0.0011136167449876666,0.04878519847989082,0.3282603919506073,-0.015356362797319889,0.00034579011844471097,-0.004003564361482859,0.006343779619783163,0.0,0.0,0.0,0.0009293468901887536,0.0012365037109702826,-0.0,0.0,0.0,0.0,-0.021863477304577827,-0.1479143649339676,-0.0022107530385255814,1495.0,1495.0,1495.0,1495.0,0.0,0.0,0.0,0.0,0.0,0.0,0.0,0.0,1495.0,1495.0,1495.0,1495.0,1.741615653038025,-0.05270282468777442,-0.19256341143210134,0.06052649044205874,-0.005189187359064817,0.003000119933858514,0.0
268,5,1.628222526051104e-05,3.6029732655151747e-06,-1.7102094716392457e-05,0.0008599978173151612,-0.00044587304000742733,-0.00017098247190006077,0.04876646026968956,0.3283150792121887,-0.015327622182667255,0.0006119381869211793,0.00013191204925533384,-0.0011235803831368685,0.0,0.0,0.0,0.0001254485541721806,0.00011980303679592907,-0.0,0.0,0.0,0.0,-0.02198016829788685,-0.14748717844486237,-0.0022961352951824665,1495.0,1495.0,1495.0,1495.0,0.0,0.0,0.0,0.0,0.0,0.0,0.0,0.0,1495.0,1495.0,1495.0,1495.0,1.7416136264801025,-0.05227801103500644,-0.19237361339135922,0.06047244030720595,-0.000502772512845695,0.0004049729323014617,0.0
273,5,1.2044981303915847e-05,-2.8721049716295965e-07,-8.548892765247729e-06,-0.00016447021334897727,0.0002884728310164064,-0.0010947772534564137,0.04876646026968956,0.3283150792121887,-0.015327622182667255,0.0006119381869211793,0.00013191204925533384,-0.0011235803831368685,0.0,0.0,0.0,0.0001254485541721806,0.00011980303679592907,-0.0,0.0,0.0,0.0,-0.02198016829788685,-0.14748717844486237,-0.0022961352951824665,1495.0,1495.0,1495.0,1495.0,0.0,0.0,0.0,0.0,0.0,0.0,0.0,0.0,1495.0,1495.0,1495.0,1495.0,1.7416136264801025,-0.05180281428526197,-0.19252598635812895,0.060529521346279286,-0.000502772512845695,0.0004049729323014617,0.0
278,5,5.3930070862406865e-06,-3.5684633985511027e-06,-8.263596100732684e-06,-0.0008640249725431204,0.0005091394996270537,-0.00047214649384841323,0.04876309633255005,0.32826948165893555,-0.015344833955168724,-0.0013835493009537458,0.008088598027825356,-0.0001850895641837269,0.0,0.0,0.0,-0.0003357907698955387,-0.0001311435189563781,-0.0,0.0,0.0,0.0,-0.02198016829788685,-0.14748717844486237,-0.0022961352951824665,1495.0,1495.0,1495.0,1495.0,0.0,0.0,0.0,0.0,0.0,0.0,0.0,0.0,1495.0,1495.0,1495.0,1495.0,1.7410151958465576,-0.05189461448054392,-0.1925537365544609,0.060410553381325324,0.0005501754931174219,-0.0010836271103471518,0.0
283,5,-9.365795108351449e-07,-1.0104068678629119e-05,1.1645521226455458e-05,-0.001105160336010158,0.0009879284771159291,-0.0025779528077691793,0.04876309633255005,0.32826948165893555,-0.015344833955168724,-0.0013835493009537458,0.008088598027825356,-0.0001850895641837269,0.0,0.0,0.0,-0.0003357907698955387,-0.0001311435189563781,-0.0,0.0,0.0,0.0,-0.02198016829788685,-0.14748717844486237,-0.0022961352951824665,1495.0,1495.0,1495.0,1495.0,0.0,0.0,0.0,0.0,0.0,0.0,0.0,0.0,1495.0,1495.0,1495.0,1495.0,1.7410151958465576,-0.05163852591076588,-0.19228487668420227,0.06053126351563128,0.0005501754931174219,-0.0010836271103471518,0.0
288,5,-4.331336185714463e-06,-1.213376617670292e-05,-5.100960606796434e-06,-0.0008494349312968552,0.0006387350149452686,0.0009783967398107052,0.04876825958490372,0.32820072770118713,-0.015386651270091534,-0.0006928440998308361,0.0017749681137502193,-0.005400816909968853,0.0,0.0,0.0,-0.0011650859378278255,-0.0009888189379125834,-0.0,0.0,0.0,0.0,-0.021796271204948425,-0.14796793460845947,-0.0021645452361553907,1495.0,1495.0,1495.0,1495.0,0.0,0.0,0.0,0.0,0.0,0.0,0.0,0.0,1495.0,1495.0,1495.0,1495.0,1.7413755655288696,-0.0523374210042126,-0.19280047432506442,0.060463037672719,0.004149165470153093,-0.0037606139667332172,0.0
293,5,1.411504626958049e-06,-5.441398116090568e-06,-6.978109013289213e-06,0.00034936692100018263,-0.0005475900834426284,0.0006166164530441165,0.04876825958490372,0.32820072770118713,-0.015386651270091534,-0.0006928440998308361,0.0017749681137502193,-0.005400816909968853,0.0,0.0,0.0,-0.0011650859378278255,-0.0009888189379125834,-0.0,0.0,0.0,0.0,-0.021796271204948425,-0.14796793460845947,-0.0021645452361553907,1495.0,1495.0,1495.0,1495.0,0.0,0.0,0.0,0.0,0.0,0.0,0.0,0.0,1495.0,1495.0,1495.0,1495.0,1.7413755655288696,-0.05243492148169379,-0.19253015484990266,0.06032587393314156,0.004149165470153093,-0.0037606139667332172,0.0
298,5,1.021330490402761e-06,-2.1667342480213847e-06,-1.831729434798035e-07,9.292587492382154e-05,-0.0006119956960901618,-0.000568745716009289,0.04875325411558151,0.32824885845184326,-0.015356612391769886,-0.0011654673144221306,-0.00566068384796381,0.006783324759453535,0.0,0.0,0.0,0.0006265020929276943,0.0003140007611364126,-0.0,0.0,0.0,0.0,-0.021871080622076988,-0.14780409634113312,-0.0022355522960424423,1495.0,1495.0,1495.0,1495.0,0.0,0.0,0.0,0.0,0.0,0.0,0.0,0.0,1495.0,1495.0,1495.0,1495.0,1.7422446012496948,-0.05198957847127764,-0.192930797106224,0.06076792980729194,-0.0013182313414290547,0.002023206325247884,0.0
304,5,1.1083775461884215e-05,1.034836827784602e-06,-7.581674253742676e-06,0.0012446637265384197,-0.0006289868033491075,0.0006603219080716372,0.04875325411558151,0.32824885845184326,-0.015356612391769886,-0.0011654673144221306,-0.00566068384796381,0.006783324759453535,0.0,0.0,0.0,0.0006265020929276943,0.0003140007611364126,-0.0,0.0,0.0,0.0,-0.021871080622076988,-0.14780409634113312,-0.0022355522960424423,1495.0,1495.0,1495.0,1495.0,0.0,0.0,0.0,0.0,0.0,0.0,0.0,0.0,1495.0,1495.0,1495.0,1495.0,1.7422446012496948,-0.05302139626803198,-0.19258812536727063,0.060157006727975346,-0.0013182313414290547,0.002023206325247884,0.0
309,5,2.3690452508162707e-05,3.576562221496715e-06,-7.196801107056672e-06,0.0020106667652726173,-0.0005566017935052514,0.00021794397616758943,0.04875325411558151,0.32824885845184326,-0.015356612391769886,-0.0011654673144221306,-0.00566068384796381,0.006783324759453535,0.0,0.0,0.0,0.0007323147729039192,0.0011268045054748654,-0.0,0.0,0.0,0.0,-0.021871080622076988,-0.14780409634113312,-0.0022355522960424423,1495.0,1495.0,1495.0,1495.0,0.0,0.0,0.0,0.0,0.0,0.0,0.0,0.0,1495.0,1495.0,1495.0,1495.0,1.7416203022003174,-0.052358388853709255,-0.1927826252565211,0.0606995835430536,-0.004728830419480801,0.002364066895097494,0.0
314,5,1.3323762686923146e-05,-4.836236257688142e-06,-8.019899723876733e-06,-0.00043973614810965955,0.0007868951070122421,0.00018594946595840156,0.04874390363693237,0.3282405734062195,-0.015358254313468933,7.730894139967859e-05,0.0031929663382470608,-0.004565903451293707,0.0,0.0,0.0,0.0007323147729039192,0.0011268045054748654,-0.0,0.0,0.0,0.0,-0.021800950169563293,-0.14745843410491943,-0.0025400605518370867,1495.0,1495.0,1495.0,1495.0,0.0,0.0,0.0,0.0,0.0,0.0,0.0,0.0,1495.0,1495.0,1495.0,1495.0,1.7416203022003174,-0.05222555812530869,-0.19236566557935555,0.060516865599204946,-0.004728830419480801,0.002364066895097494,0.0
319,5,1.526343112345785e-05,-5.232983767200494e-06,-2.2608883227803744e-05,5.6865697843022645e-05,0.00036236774758435786,0.0018250576686114073,0.04874390363693237,0.3282405734062195,-0.015358254313468933,7.730894139967859e-05,0.0031929663382470608,-0.004565903451293707,0.0,0.0,0.0,-0.0009224120294675231,-0.0003753620549105108,-0.0,0.0,0.0,0.0,-0.021800950169563293,-0.14745843410491943,-0.0025400605518370867,1495.0,1495.0,1495.0,1495.0,0.0,0.0,0.0,0.0,0.0,0.0,0.0,0.0,1495.0,1495.0,1495.0,1495.0,1.7416538000106812,-0.052497505692998096,-0.19260073441296433,0.06042974187080608,0.0015753023326396942,-0.00297779799439013,0.0
324,5,-4.7499052016064525e-06,-4.273899321560748e-06,-2.3185693862615153e-05,-0.0023788539692759514,2.985698483826127e-05,0.0007992404862307012,0.04873275384306908,0.32821229100227356,-0.015356955118477345,-0.0024948695208877325,-0.0022894570138305426,-0.0027841583359986544,0.0,0.0,0.0,-0.0009224120294675231,-0.0003753620549105108,-0.0,0.0,0.0,0.0,-0.0219411663711071,-0.147683784365654,-0.0022382393945008516,1495.0,1495.0,1495.0,1495.0,0.0,0.0,0.0,0.0,0.0,0.0,0.0,0.0,1495.0,1495.0,1495.0,1495.0,1.7416538000106812,-0.052618503387134856,-0.1927355109102283,0.06031653809083137,0.0015753023326396942,-0.00297779799439013,0.0
329,5,-2.8650758849835256e-06,1.706451939753606e-06,-2.796528315229807e-05,-0.0007253621006384492,-0.0007056993781588972,0.0008932468481361866,0.04873275384306908,0.32821229100227356,-0.015356955118477345,-0.0024948695208877325,-0.0022894570138305426,-0.0027841583359986544,0.0,0.0,0.0,-4.2074818338733166e-05,-0.0021317764185369015,-0.0,0.0,0.0,0.0,-0.0219411663711071,-0.147683784365654,-0.0022382393945008516,1495.0,1495.0,1495.0,1495.0,0.0,0.0,0.0,0.0,0.0,0.0,0.0,0.0,1495.0,1495.0,1495.0,1495.0,1.7416298389434814,-0.052259754881974915,-0.1927144969681898,0.060552885129614945,0.008946415968239307,-0.0001358271692879498,0.0
334,5,-6.255815605982207e-06,-1.075321688404074e-05,-1.527931817690842e-05,-0.0006970335962250829,0.0012128804810345173,-0.001165017019957304,0.0487341582775116,0.32825157046318054,-0.0153194610029459,0.0015209277626127005,-0.0038060019724071026,0.007893742993474007,0.0,0.0,0.0,-4.2074818338733166e-05,-0.0021317764185369015,-0.0,0.0,0.0,0.0,-0.022228477522730827,-0.1478750854730606,-0.002024467568844557,1495.0,1495.0,1495.0,1495.0,0.0,0.0,0.0,0.0,0.0,0.0,0.0,0.0,1495.0,1495.0,1495.0,1495.0,1.7416298389434814,-0.052191172834586026,-0.19246121111260947,0.06043219634407541,0.008946415968239307,-0.0001358271692879498,0.0
339,5,5.424507207862916e-07,-8.751244422455784e-06,-6.485538051492767e-06,0.0005369785358197987,0.000244915543589741,-0.0015212604776024818,0.0487341582775116,0.32825157046318054,-0.0153194610029459,0.0015209277626127005,-0.0038060019724071026,0.007893742993474007,0.0,0.0,0.0,-0.0014280005125328898,-0.0006312312907539308,-0.0,0.0,0.0,0.0,-0.022228477522730827,-0.1478750854730606,-0.002024467568844557,1495.0,1495.0,1495.0,1495.0,0.0,0.0,0.0,0.0,0.0,0.0,0.0,0.0,1495.0,1495.0,1495.0,1495.0,1.7408472299575806,-0.05265512887047337,-0.19249352025096703,0.06033031648674513,0.0026478939689695835,-0.004607839044183493,0.0
344,5,3.605663096095668e-06,-1.9408178559388034e-05,7.789420124026947e-06,0.0005823769024573267,0.00137679826002568,-0.002321499167010188,0.04871993884444237,0.3282432556152344,-0.015312583185732365,0.00013917106844019145,0.0014735197182744741,0.0008564390009269118,0.0,0.0,0.0,-0.0014280005125328898,-0.0006312312907539308,-0.0,0.0,0.0,0.0,-0.021894333884119987,-0.14770537614822388,-0.0021970635280013084,1495.0,1495.0,1495.0,1495.0,0.0,0.0,0.0,0.0,0.0,0.0,0.0,0.0,1495.0,1495.0,1495.0,1495.0,1.7408472299575806,-0.05219015353156941,-0.19248466846016898,0.06041113766265787,0.0026478939689695835,-0.004607839044183493,0.0
349,5,3.7674803934351075e-06,-8.28330848889891e-06,1.1369577805453446e-05,0.0002523688308428973,-0.000784265052061528,-0.001358218491077423,0.04871993884444237,0.3282432556152344,-0.015312583185732365,0.00013917106844019145,0.0014735197182744741,0.0008564390009269118,0.0,0.0,0.0,-0.0016334053361788392,0.0005254895659163594,-0.0,0.0,0.0,0.0,-0.021894333884119987,-0.14770537614822388,-0.0021970635280013084,1495.0,1495.0,1495.0,1495.0,0.0,0.0,0.0,0.0,0.0,0.0,0.0,0.0,1495.0,1495.0,1495.0,1495.0,1.7407044172286987,-0.052155248190571414,-0.192787419596405,0.060451563147771295,-0.002204146236181259,-0.005270201247185469,0.0
354,5,7.180964530562051e-06,-5.324998710420914e-06,-5.3190046855888795e-06,0.0005105656455270946,-0.0006687032291665673,0.0014593424275517464,0.04870898649096489,0.32817190885543823,-0.01533755287528038,-0.0015254043973982334,0.00455040019005537,-0.002550549106672406,0.0,0.0,0.0,-0.0016334053361788392,0.0005254895659163594,-0.0,0.0,0.0,0.0,-0.021689550951123238,-0.14750277996063232,-0.002422724850475788,1495.0,1495.0,1495.0,1495.0,0.0,0.0,0.0,0.0,0.0,0.0,0.0,0.0,1495.0,1495.0,1495.0,1495.0,1.7407044172286987,-0.05176879891666375,-0.1921235990009683,0.060659983763412466,-0.002204146236181259,-0.005270201247185469,0.0
359,5,1.4917352018528618e-05,1.4341717360366601e-06,-2.5281960915890522e-06,0.0011325926752761006,-0.0010785817867144942,0.0002488399331923574,0.04870898649096489,0.32817190885543823,-0.01533755287528038,-0.0015254043973982334,0.00455040019005537,-0.002550549106672406,0.0,0.0,0.0,0.0007677423418499529,0.00046584263327531517,-0.0,0.0,0.0,0.0,-0.021689550951123238,-0.14750277996063232,-0.002422724850475788,1495.0,1495.0,1495.0,1495.0,0.0,0.0,0.0,0.0,0.0,0.0,0.0,0.0,1495.0,1495.0,1495.0,1495.0,1.741222620010376,-0.0521232177902808,-0.19295308499062008,0.06058562903392664,-0.0019545431714504957,0.0024778684601187706,0.0
364,5,1.0626878975017462e-05,2.0899462924717227e-06,-2.2265083316597156e-05,-6.181966455187649e-05,-0.0005101256538182497,0.002467962447553873,0.04870898649096489,0.32817190885543823,-0.01533755287528038,-0.0015254043973982334,0.00455040019005537,-0.002550549106672406,0.0,0.0,0.0,0.0007677423418499529,0.00046584263327531517,-0.0,0.0,0.0,0.0,-0.02192317694425583,-0.14769217371940613,-0.0021772633772343397,1495.0,1495.0,1495.0,1495.0,0.0,0.0,0.0,0.0,0.0,0.0,0.0,0.0,1495.0,1495.0,1495.0,1495.0,1.741222620010376,-0.05272384912138405,-0.19224031654648518,0.06025734720011509,-0.0019545431714504957,0.0024778684601187706,0.0
369,5,4.443600573722506e-06,4.225164957460947e-06,-1.5121812793950085e-05,-0.0007667212630622089,-0.0004602764965966344,0.0001299925788771361,0.04870898649096489,0.32817190885543823,-0.01533755287528038,-0.0015254043973982334,0.00455040019005537,-0.002550549106672406,0.0,0.0,0.0,0.0005418482469394803,-0.0006793360225856304,-0.0,0.0,0.0,0.0,-0.02192317694425583,-0.14769217371940613,-0.0021772633772343397,1495.0,1495.0,1495.0,1495.0,0.0,0.0,0.0,0.0,0.0,0.0,0.0,0.0,1495.0,1495.0,1495.0,1495.0,1.7412225008010864,-0.052575377602687434,-0.19288247769582642,0.06057291726033321,0.0028503010980784893,0.0017488013254478574,0.0
374,5,1.660622160670755e-06,3.8142736684676493e-06,-1.3126610610925127e-05,-0.0006406459142453969,-0.0001348036457784474,-0.00018742730026133358,0.04870886355638504,0.32822996377944946,-0.01531029213219881,0.0010333505924791098,-0.0030646556988358498,0.00318268989212811,0.0,0.0,0.0,0.0005418482469394803,-0.0006793360225856304,-0.0,0.0,0.0,0.0,-0.02193584106862545,-0.14794529974460602,-0.002186613855883479,1495.0,1495.0,1495.0,1495.0,0.0,0.0,0.0,0.0,0.0,0.0,0.0,0.0,1495.0,1495.0,1495.0,1495.0,1.7412225008010864,-0.051926635489124906,-0.19246148390455686,0.06053902817317792,0.0028503010980784893,0.0017488013254478574,0.0
379,5,2.7100959414383397e-06,-3.5396624298300594e-06,-1.7607939298613928e-05,-0.00013032151036895812,0.0008285508956760168,0.00046278865193016827,0.04870886355638504,0.32822996377944946,-0.01531029213219881,0.0010333505924791098,-0.0030646556988358498,0.00318268989212811,0.0,0.0,0.0,0.0005418482469394803,-0.0006793360225856304,-0.0,0.0,0.0,0.0,-0.02193584106862545,-0.14794529974460602,-0.002186613855883479,1495.0,1495.0,1495.0,1495.0,0.0,0.0,0.0,0.0,0.0,0.0,0.0,0.0,1495.0,1495.0,1495.0,1495.0,1.7412225008010864,-0.052093512827622514,-0.19272964833406658,0.06045703632908929,0.0028503010980784893,0.0017488013254478574,0.0
385,5,-4.382472525321646e-06,-5.814643827761756e-06,2.5247372832382098e-06,-0.0009032368543557823,0.0006044181063771248,-0.0022308058105409145,0.04870886355638504,0.32822996377944946,-0.01531029213219881,0.0010333505924791098,-0.0030646556988358498,0.00318268989212811,0.0,0.0,0.0,-0.0009691914892755449,-0.00011284872016403824,-0.0,0.0,0.0,0.0,-0.022003445774316788,-0.1477023959159851,-0.0024683650117367506,1495.0,1495.0,1495.0,1495.0,0.0,0.0,0.0,0.0,0.0,0.0,0.0,0.0,1495.0,1495.0,1495.0,1495.0,1.7406549453735352,-0.05175444022472233,-0.1926449154478157,0.06062922162384618,0.0004733267123810947,-0.0031270203180611134,0.0
390,5,-3.146670479736713e-08,-1.9360435544513166e-05,-1.514151426817989e-05,0.00016082597721833736,0.001867262297309935,0.0012276278575882316,0.04870886355638504,0.32822996377944946,-0.01531029213219881,0.0010333505924791098,-0.0030646556988358498,0.00318268989212811,0.0,0.0,0.0,-0.0009691914892755449,-0.00011284872016403824,-0.0,0.0,0.0,0.0,-0.022003445774316788,-0.1477023959159851,-0.0024683650117367506,1495.0,1495.0,1495.0,1495.0,0.0,0.0,0.0,0.0,0.0,0.0,0.0,0.0,1495.0,1495.0,1495.0,1495.0,1.7406549453735352,-0.052451767265448125,-0.19252186317433245,0.060420472334459935,0.0004733267123810947,-0.0031270203180611134,0.0
395,5,-1.1311005891911918e-06,-1.2112703188904561e-05,-1.0123700121766888e-05,-6.762567500118166e-05,-0.00012282295210752636,-0.00011108658509328961,0.048711273819208145,0.32824066281318665,-0.0153254559263587,0.0031729957554489374,0.002916016848757863,-0.002705690683797002,0.0,0.0,0.0,-0.0022034517023712397,0.0001438597246306017,-0.0,0.0,0.0,0.0,-0.022000165656208992,-0.14750367403030396,-0.0023987852036952972,1495.0,1495.0,1495.0,1495.0,0.0,0.0,0.0,0.0,0.0,0.0,0.0,0.0,1495.0,1495.0,1495.0,1495.0,1.7406584024429321,-0.0520295207910426,-0.19209982100596582,0.06054765376494803,-0.0006033976678736508,-0.007109269965440035,0.0
400,5,-6.888214556965977e-06,-1.0803638588186004e-06,6.395262971636839e-06,-0.0007179039530456066,-0.0013730099890381098,-0.002026710193604231,0.048711273819208145,0.32824066281318665,-0.0153254559263587,0.0031729957554489374,0.002916016848757863,-0.002705690683797002,0.0,0.0,0.0,-0.0022034517023712397,0.0001438597246306017,-0.0,0.0,0.0,0.0,-0.022000165656208992,-0.14750367403030396,-0.0023987852036952972,1495.0,1495.0,1495.0,1495.0,0.0,0.0,0.0,0.0,0.0,0.0,0.0,0.0,1495.0,1495.0,1495.0,1495.0,1.7406584024429321,-0.052295884541266546,-0.19249012417076986,0.06040860667477936,-0.0006033976678736508,-0.007109269965440035,0.0
405,5,5.784593213320477e-06,-6.380275408446323e-06,-1.3673398825631011e-05,0.0012335753999650478,8.678539597894996e-05,0.0015975553542375565,0.04872668907046318,0.32819992303848267,-0.015333378687500954,-0.004143184516578913,-0.004304299596697092,0.008417046628892422,0.0,0.0,0.0,0.0015935153933241963,-0.0006506567588075995,-0.0,0.0,0.0,0.0,-0.021757356822490692,-0.14789913594722748,-0.0019838393200188875,1495.0,1495.0,1495.0,1495.0,0.0,0.0,0.0,0.0,0.0,0.0,0.0,0.0,1495.0,1495.0,1495.0,1495.0,1.7409725189208984,-0.05205075706354753,-0.1921576268631229,0.06047575362562526,0.0027295758482068777,0.005142287816852331,0.0
410,5,3.969673656456507e-08,7.098125024640467e-06,-2.137082992703654e-05,-0.00019595744379330426,-0.0015826938906684518,0.0015627138782292604,0.04872668907046318,0.32819992303848267,-0.015333378687500954,-0.004143184516578913,-0.004304299596697092,0.008417046628892422,0.0,0.0,0.0,0.0015935153933241963,-0.0006506567588075995,-0.0,0.0,0.0,0.0,-0.021757356822490692,-0.14789913594722748,-0.0019838393200188875,1495.0,1495.0,1495.0,1495.0,0.0,0.0,0.0,0.0,0.0,0.0,0.0,0.0,1495.0,1495.0,1495.0,1495.0,1.7409725189208984,-0.052234789253418644,-0.19272431242595278,0.06033975258802408,0.0027295758482068777,0.005142287816852331,0.0
415,5,1.3159436775822542e-06,1.2994585631531663e-05,-1.5347119187936187e-05,7.476666360162199e-05,-0.0013406528159976006,-9.775980288395658e-05,0.04869313910603523,0.32824739813804626,-0.015313987620174885,-0.003840249264612794,0.0010924902744591236,-0.003408790100365877,0.0,0.0,0.0,0.0018509534420445561,-0.00017499028763268143,-0.0,0.0,0.0,0.0,-0.02184082381427288,-0.14779628813266754,-0.002320216502994299,1495.0,1495.0,1495.0,1495.0,0.0,0.0,0.0,0.0,0.0,0.0,0.0,0.0,1495.0,1495.0,1495.0,1495.0,1.741137981414795,-0.05192492978002989,-0.19238876439753322,0.060335221896393454,0.0007341727614402771,0.005973608698695898,0.0
420,5,9.634584785089828e-06,-7.434028361785749e-07,-2.0124190996284597e-05,0.0010281435679644346,0.001112297410145402,0.0005341448122635484,0.04869313910603523,0.32824739813804626,-0.015313987620174885,-0.003840249264612794,0.0010924902744591236,-0.003408790100365877,0.0,0.0,0.0,0.0018509534420445561,-0.00017499028763268143,-0.0,0.0,0.0,0.0,-0.02184082381427288,-0.14779628813266754,-0.002320216502994299,1495.0,1495.0,1495.0,1495.0,0.0,0.0,0.0,0.0,0.0,0.0,0.0,0.0,1495.0,1495.0,1495.0,1495.0,1.741137981414795,-0.0521208875764525,-0.1926534721290686,0.060407911402005694,0.0007341727614402771,0.005973608698695898,0.0
425,5,4.143453224969562e-06,-4.7553285185131244e-06,-5.450016942631919e-06,-0.0002476783702149987,0.0009263500687666237,-0.0015472429804503918,0.04870167374610901,0.32822710275650024,-0.015341768972575665,0.004677184391766787,0.00036044808803126216,-0.0008633933612145483,0.0,0.0,0.0,-0.001294174580834806,0.0009319299715571105,-0.0,0.0,0.0,0.0,-0.021998170763254166,-0.14777329564094543,-0.0024451762437820435,1495.0,1495.0,1495.0,1495.0,0.0,0.0,0.0,0.0,0.0,0.0,0.0,0.0,1495.0,1495.0,1495.0,1495.0,1.74073326587677,-0.05231852682420155,-0.1928340594010724,0.060395102785299526,-0.003909011837095022,-0.004175739828497171,0.0
430,5,1.1304457984806504e-05,-6.1067307797202375e-06,1.7251746839974658e-06,0.0007602492114529014,0.0005327083053998649,-0.001479920232668519,0.04870167374610901,0.32822710275650024,-0.015341768972575665,0.004677184391766787,0.00036044808803126216,-0.0008633933612145483,0.0,0.0,0.0,-0.001294174580834806,0.0009319299715571105,-0.0,0.0,0.0,0.0,-0.021998170763254166,-0.14777329564094543,-0.0024451762437820435,1495.0,1495.0,1495.0,1495.0,0.0,0.0,0.0,0.0,0.0,0.0,0.0,0.0,1495.0,1495.0,1495.0,1495.0,1.74073326587677,-0.05254056272388939,-0.19255046988566754,0.060243222048246135,-0.003909011837095022,-0.004175739828497171,0.0
435,5,1.2838976545026526e-05,3.7605019542752416e-08,1.2503820471465588e-05,0.00048824193072505295,-0.0005242369952611625,-0.001885405508801341,0.04870167374610901,0.32822710275650024,-0.015341768972575665,0.004677184391766787,0.00036044808803126216,-0.0008633933612145483,0.0,0.0,0.0,-0.0006295007769949734,0.0006943951593711972,-0.0,0.0,0.0,0.0,-0.021998170763254166,-0.14777329564094543,-0.0024451762437820435,1495.0,1495.0,1495.0,1495.0,0.0,0.0,0.0,0.0,0.0,0.0,0.0,0.0,1495.0,1495.0,1495.0,1495.0,1.741310477256775,-0.05249461842936534,-0.19267668909419508,0.06047780438095756,-0.002913631731644273,-0.002031800104305148,0.0
440,5,9.725632480694912e-06,-8.800420800980646e-06,1.8048950778393191e-06,-0.0001783045445336029,0.0008508683531545103,0.000529708806425333,0.04873920977115631,0.32821205258369446,-0.015333057381212711,0.003751639509573579,-0.006105723325163126,0.0012418784899637103,0.0,0.0,0.0,-0.0006295007769949734,0.0006943951593711972,-0.0,0.0,0.0,0.0,-0.02214132808148861,-0.14777608215808868,-0.0022322956938296556,1495.0,1495.0,1495.0,1495.0,0.0,0.0,0.0,0.0,0.0,0.0,0.0,0.0,1495.0,1495.0,1495.0,1495.0,1.741310477256775,-0.05250439475863266,-0.19278313240222558,0.060425308942619244,-0.002913631731644273,-0.002031800104305148,0.0
446,5,4.132447429583408e-06,-4.0416002775600646e-06,1.0579858098935802e-05,-0.0007425040239468217,-0.00023071114264894277,-0.0008411120506934822,0.04873920977115631,0.32821205258369446,-0.015333057381212711,0.003751639509573579,-0.006105723325163126,0.0012418784899637103,0.0,0.0,0.0,-0.0010038564214482903,-0.00014648929936811328,-0.0,0.0,0.0,0.0,-0.02214132808148861,-0.14777608215808868,-0.0022322956938296556,1495.0,1495.0,1495.0,1495.0,0.0,0.0,0.0,0.0,0.0,0.0,0.0,0.0,1495.0,1495.0,1495.0,1495.0,1.7411291599273682,-0.052757605786352864,-0.19233680148101126,0.060302987769225755,0.0006145943771116436,-0.0032397464383393526,0.0
451,5,8.83542907104129e-06,-1.224559764523292e-05,1.0124707841896452e-05,0.0002673561975825578,0.0008921951521188021,-0.000281826825812459,0.048715345561504364,0.3282800018787384,-0.015296162106096745,-0.00014913665654603392,-0.002760071773082018,0.0076543367467820644,0.0,0.0,0.0,-0.0010038564214482903,-0.00014648929936811328,-0.0,0.0,0.0,0.0,-0.02175377681851387,-0.14752593636512756,-0.0023134031798690557,1495.0,1495.0,1495.0,1495.0,0.0,0.0,0.0,0.0,0.0,0.0,0.0,0.0,1495.0,1495.0,1495.0,1495.0,1.7411291599273682,-0.052301634292729826,-0.19258754565192673,0.06042821445797339,0.0006145943771116436,-0.0032397464383393526,0.0
456,5,-1.5510448747591e-07,-1.079172761819791e-05,-8.594249266025145e-06,-0.0009719215449877083,0.00018241367070004344,0.0021335440687835217,0.048715345561504364,0.3282800018787384,-0.015296162106096745,-0.00014913665654603392,-0.002760071773082018,0.0076543367467820644,0.0,0.0,0.0,-0.0010582281975075603,0.0002508008910808712,-0.0,0.0,0.0,0.0,-0.02175377681851387,-0.14752593636512756,-0.0023134031798690557,1495.0,1495.0,1495.0,1495.0,0.0,0.0,0.0,0.0,0.0,0.0,0.0,0.0,1495.0,1495.0,1495.0,1495.0,1.7403608560562134,-0.0523314756478195,-0.19275542913317548,0.06030992517548494,-0.0010517681948840618,-0.0034137133043259382,0.0
461,5,-1.1011628942014795e-07,-4.737662948173238e-06,-9.138831046584528e-06,-0.00038337003206834197,-0.0006535222637467086,0.0009187674731947482,0.048680659383535385,0.3282628357410431,-0.015271454118192196,-0.0029872790910303593,0.00770709291100502,0.0005183052271604538,0.0,0.0,0.0,-0.0010582281975075603,0.0002508008910808712,-0.0,0.0,0.0,0.0,-0.022165270522236824,-0.14763878285884857,-0.0023682820610702038,1495.0,1495.0,1495.0,1495.0,0.0,0.0,0.0,0.0,0.0,0.0,0.0,0.0,1495.0,1495.0,1495.0,1495.0,1.7403608560562134,-0.052030079803098046,-0.19252204146106472,0.06054517278807885,-0.0010517681948840618,-0.0034137133043259382,0.0
466,5,1.2511383147284505e-06,-5.090810191177297e-06,-2.330721872567665e-05,1.000254360405961e-05,-0.0002190312516177073,0.0020677135325968266,0.048680659383535385,0.3282628357410431,-0.015271454118192196,-0.0029872790910303593,0.00770709291100502,0.0005183052271604538,0.0,0.0,0.0,0.0007516473415307701,-0.00034291972406208515,-0.0,0.0,0.0,0.0,-0.022165270522236824,-0.14763878285884857,-0.0023682820610702038,1495.0,1495.0,1495.0,1495.0,0.0,0.0,0.0,0.0,0.0,0.0,0.0,0.0,1495.0,1495.0,1495.0,1495.0,1.7398457527160645,-0.051347397438734864,-0.1926213701902398,0.060680821473145484,0.0014376559993252158,0.0024240040220320225,0.0
471,5,-1.1399793038435746e-06,-1.7183708678203402e-06,-2.4155548089765944e-05,-0.0002829330915119499,-0.0004923052038066089,0.0009288848377764225,0.04869774356484413,0.3282427191734314,-0.01529212761670351,0.0016553138848394156,0.0002843408437911421,-0.001207921071909368,0.0,0.0,0.0,0.0007516473415307701,-0.00034291972406208515,-0.0,0.0,0.0,0.0,-0.02193651907145977,-0.14776279032230377,-0.002428936306387186,1495.0,1495.0,1495.0,1495.0,0.0,0.0,0.0,0.0,0.0,0.0,0.0,0.0,1495.0,1495.0,1495.0,1495.0,1.7398457527160645,-0.0521364243366724,-0.1931711163649806,0.060565550809598016,0.0014376559993252158,0.0024240040220320225,0.0
476,5,6.072603355278261e-06,6.139483502920484e-06,-3.3660737244645134e-05,0.00040096911834552884,-0.0005072217318229377,0.0007731540827080607,0.04869774356484413,0.3282427191734314,-0.01529212761670351,0.0016553138848394156,0.0002843408437911421,-0.001207921071909368,0.0,0.0,0.0,0.0005691877449862659,-0.0002543703594710678,-0.0,0.0,0.0,0.0,-0.02193651907145977,-0.14776279032230377,-0.002428936306387186,1495.0,1495.0,1495.0,1495.0,0.0,0.0,0.0,0.0,0.0,0.0,0.0,0.0,1495.0,1495.0,1495.0,1495.0,1.7402760982513428,-0.05283888092475147,-0.19252989558023434,0.06013002747928734,0.001066685770638287,0.0018360402900725603,0.0
481,5,6.3034317463461775e-06,4.590553089656169e-06,1.1001824304912589e-06,0.00018808708409778774,-1.70170114870416e-05,-0.0038620487321168184,0.0487050898373127,0.32826313376426697,-0.015324223786592484,-0.0011085773585364223,-0.00019360666919965297,-0.001993822166696191,0.0,0.0,0.0,0.0005691877449862659,-0.0002543703594710678,-0.0,0.0,0.0,0.0,-0.021680045872926712,-0.14797794818878174,-0.002209651516750455,1495.0,1495.0,1495.0,1495.0,0.0,0.0,0.0,0.0,0.0,0.0,0.0,0.0,1495.0,1495.0,1495.0,1495.0,1.7402760982513428,-0.05254738494241853,-0.19255259377117784,0.060258696892983285,0.001066685770638287,0.0018360402900725603,0.0
486,5,6.3034317463461775e-06,4.590553089656169e-06,1.1001824304912589e-06,0.00018808708409778774,-1.70170114870416e-05,-0.0038620487321168184,0.0487050898373127,0.32826313376426697,-0.015324223786592484,-0.0011085773585364223,-0.00019360666919965297,-0.001993822166696191,0.0,0.0,0.0,2.7401858460507356e-05,0.00017654172552283853,-0.0,0.0,0.0,0.0,-0.021680045872926712,-0.14797794818878174,-0.002209651516750455,1495.0,1495.0,1495.0,1495.0,0.0,0.0,0.0,0.0,0.0,0.0,0.0,0.0,1495.0,1495.0,1495.0,1495.0,1.740944266319275,-0.05254738494241853,-0.19255259377117784,0.060258696892983285,-0.0007406007498502731,8.842466922942549e-05,0.0
491,5,2.084709421978914e-06,1.3294653626871877e-06,8.86922498466447e-06,-0.0007690734346397221,0.00019752467051148415,-0.0018749618902802467,0.04868951812386513,0.3282521665096283,-0.015341797843575478,0.0015953596448525786,0.006525265518575907,-0.003324796911329031,0.0,0.0,0.0,2.7401858460507356e-05,0.00017654172552283853,-0.0,0.0,0.0,0.0,-0.02176702208817005,-0.14746730029582977,-0.0025315084494650364,1495.0,1495.0,1495.0,1495.0,0.0,0.0,0.0,0.0,0.0,0.0,0.0,0.0,1495.0,1495.0,1495.0,1495.0,1.740944266319275,-0.052534499212063816,-0.1924160685641845,0.06045684931476364,-0.0007406007498502731,8.842466922942549e-05,0.0
496,5,2.084709421978914e-06,1.3294653626871877e-06,8.86922498466447e-06,-0.0007690734346397221,0.00019752467051148415,-0.0018749618902802467,0.04868951812386513,0.3282521665096283,-0.015341797843575478,0.0015953596448525786,0.006525265518575907,-0.003324796911329031,0.0,0.0,0.0,-0.00022742264263797551,-0.0006844603340141475,-0.0,0.0,0.0,0.0,-0.02176702208817005,-0.14746730029582977,-0.0025315084494650364,1495.0,1495.0,1495.0,1495.0,0.0,0.0,0.0,0.0,0.0,0.0,0.0,0.0,1495.0,1495.0,1495.0,1495.0,1.741310715675354,-0.052534499212063816,-0.1924160685641845,0.06045684931476364,0.0028719468973577023,-0.0007340379524976015,0.0
501,5,3.511863269523019e-06,-1.4352671314554755e-05,1.087028704205295e-05,0.00014778818876948208,0.001578122959472239,0.0001744960609357804,0.048703569918870926,0.32822877168655396,-0.015381286852061749,-0.0013239877298474312,0.00031437037978321314,0.0013036293676123023,0.0,0.0,0.0,-0.00022742264263797551,-0.0006844603340141475,-0.0,0.0,0.0,0.0,-0.021788127720355988,-0.14769905805587769,-0.002329874085262418,1495.0,1495.0,1495.0,1495.0,0.0,0.0,0.0,0.0,0.0,0.0,0.0,0.0,1495.0,1495.0,1495.0,1495.0,1.741310715675354,-0.05244908914763336,-0.19210521907749076,0.06034326336501911,0.0028719468973577023,-0.0007340379524976015,0.0
506,5,-2.4414831045760366e-07,-1.7159160051960498e-05,6.575377483386546e-06,-0.0003916060959454626,0.0009680278599262238,0.0005851875757798553,0.048703569918870926,0.32822877168655396,-0.015381286852061749,-0.0013239877298474312,0.00031437037978321314,0.0013036293676123023,0.0,0.0,0.0,-0.0018573181005194783,0.00013676944945473224,-0.0,0.0,0.0,0.0,-0.021788127720355988,-0.14769905805587769,-0.002329874085262418,1495.0,1495.0,1495.0,1495.0,0.0,0.0,0.0,0.0,0.0,0.0,0.0,0.0,1495.0,1495.0,1495.0,1495.0,1.7421355247497559,-0.052437405941833444,-0.1921680318159709,0.06026678389484104,-0.0005741458153352141,-0.005997583735734224,0.0
512,5,-2.4414831045760366e-07,-1.7159160051960498e-05,6.575377483386546e-06,-0.0003916060959454626,0.0009680278599262238,0.0005851875757798553,0.04871514439582825,0.32828420400619507,-0.015382710844278336,0.0018506841734051704,-0.008617869578301907,-0.0012664146488532424,0.0,0.0,0.0,-0.0018573181005194783,0.00013676944945473224,-0.0,0.0,0.0,0.0,-0.02207222953438759,-0.14802558720111847,-0.002270214259624481,1495.0,1495.0,1495.0,1495.0,0.0,0.0,0.0,0.0,0.0,0.0,0.0,0.0,1495.0,1495.0,1495.0,1495.0,1.7421355247497559,-0.052437405941833444,-0.1921680318159709,0.06026678389484104,-0.0005741458153352141,-0.005997583735734224,0.0
517,5,1.915230313898064e-06,5.4261627155938186e-06,-6.786803623981541e-06,-0.0006906001945026219,-0.0016744725871831179,0.001653809566050768,0.04871514439582825,0.32828420400619507,-0.015382710844278336,0.0018506841734051704,-0.008617869578301907,-0.0012664146488532424,0.0,0.0,0.0,-0.0011535992380231619,-0.0003499876765999943,-0.0,0.0,0.0,0.0,-0.02207222953438759,-0.14802558720111847,-0.002270214259624481,1495.0,1495.0,1495.0,1495.0,0.0,0.0,0.0,0.0,0.0,0.0,0.0,0.0,1495.0,1495.0,1495.0,1495.0,1.7421634197235107,-0.05258905456394886,-0.19249744461577425,0.06032376282876058,0.001469241688027978,-0.0037252227775752544,0.0
522,5,2.813214905472705e-06,1.7873765045806067e-07,-1.704444548522588e-05,-0.0001684819144429639,-4.009804251836613e-05,0.0018924408359453082,0.04871514439582825,0.32828420400619507,-0.015382710844278336,0.0018506841734051704,-0.008617869578301907,-0.0012664146488532424,0.0,0.0,0.0,-0.0011535992380231619,-0.0003499876765999943,-0.0,0.0,0.0,0.0,-0.02207222953438759,-0.14802558720111847,-0.002270214259624481,1495.0,1495.0,1495.0,1495.0,0.0,0.0,0.0,0.0,0.0,0.0,0.0,0.0,1495.0,1495.0,1495.0,1495.0,1.7421634197235107,-0.0524659855209153,-0.19243956655272132,0.060342239581768674,0.001469241688027978,-0.0037252227775752544,0.0
