timestamp,dt,pos_x,pos_y,pos_z,vel_x,vel_y,vel_z,roll,pitch,yaw,agv_x,agv_y,agv_z,x_ref,y_ref,z_ref,roll_ref,pitch_ref,yaw_ref,x_vel_ref,y_vel_ref,z_vel_ref,x_torque,y_torque,z_torque,w0,w1,w2,w3,u0,u1,u2,u3,m0req,m1req,m2req,m3req,thrust0,thrust1,thrust2,thrust3,thrust_ref,roll_vicon,pitch_vicon,yaw_vicon,acc_x,acc_y,acc_z
5,5,0.0,0.0,0.0,-0.0006831898936070502,-0.0015541483880952,-0.0018680908251553774,-0.015311108902096748,0.1692066788673401,-0.0038017532788217068,0.0008064208668656647,-0.005109650082886219,-0.002649694448336959,0.0,0.0,0.0,0.0019137051422148943,-0.0006471142405644059,-0.0,0.0,0.0,0.0,0.004999999888241291,-0.004999999888241291,-1.3660095277145956e-10,1495.0,1495.0,1495.0,1495.0,0.0,0.0,0.0,0.0,0.0,0.0,0.0,0.0,1495.0,1495.0,1495.0,1495.0,1.6430116891860962,-1.2693951114555957,-0.05491749850550505,3.0572425992776275,0.0025619619991630316,0.005828056484460831,0.0
46,41,0.0,0.0,0.0,-0.0006571446429006755,0.0017855297774076462,0.001412511570379138,-0.015311108902096748,0.1692066788673401,-0.0038017532788217068,0.0008064208668656647,-0.005109650082886219,-0.002649694448336959,0.0,0.0,0.0,0.0019137051422148943,-0.0006471142405644059,-0.0,0.0,0.0,0.0,0.004999999888241291,-0.004999999888241291,-1.3660095277145956e-10,1495.0,1495.0,1495.0,1495.0,0.0,0.0,0.0,0.0,0.0,0.0,0.0,0.0,1495.0,1495.0,1495.0,1495.0,1.6430116891860962,-1.2700569728451698,-0.0549659262574457,3.057259107585742,0.0025619619991630316,0.005828056484460831,0.0
51,5,0.0,0.0,0.0,-0.0001466364919906482,0.0009947698563337326,0.0010754247196018696,-0.015315258875489235,0.1692596971988678,-0.00380362244322896,-0.006249428726732731,-0.004632462747395039,0.0032370768021792173,0.0,0.0,0.0,0.0019137051422148943,-0.0006471142405644059,-0.0,0.0,0.0,0.0,0.004999999888241291,-0.004999999888241291,7.704973881139665e-10,1495.0,1495.0,1495.0,1495.0,0.0,0.0,0.0,0.0,0.0,0.0,0.0,0.0,1495.0,1495.0,1495.0,1495.0,1.6430116891860962,-1.2698401483739756,-0.05468480530169694,3.0574541999901745,0.0025619619991630316,0.005828056484460831,0.0
56,5,0.0,0.0,0.0,-0.0028339335694909096,-0.005665675271302462,-0.004644351080060005,-0.015315258875489235,0.1692596971988678,-0.00380362244322896,-0.006249428726732731,-0.004632462747395039,0.0032370768021792173,0.0,0.0,0.0,-0.0012301773531362414,-0.0001394902792526409,-0.0,0.0,0.0,0.0,0.004999999888241291,-0.004999999888241291,7.704973881139665e-10,1495.0,1495.0,1495.0,1495.0,0.0,0.0,0.0,0.0,0.0,0.0,0.0,0.0,1495.0,1495.0,1495.0,1495.0,1.6359792947769165,-1.2708281549709923,-0.05579447990771112,3.056325226283259,0.000549886841326952,-0.0037303869612514973,0.0
61,5,0.0,0.0,0.0,0.002222997834905982,0.00030358173535205424,0.004807836376130581,-0.015315258875489235,0.1692596971988678,-0.00380362244322896,-0.006249428726732731,-0.004632462747395039,0.0032370768021792173,0.0,0.0,0.0,-0.0012301773531362414,-0.0001394902792526409,-0.0,0.0,0.0,0.0,0.004999999888241291,-0.004999999888241291,7.704973881139665e-10,1495.0,1495.0,1495.0,1495.0,0.0,0.0,0.0,0.0,0.0,0.0,0.0,0.0,1495.0,1495.0,1495.0,1495.0,1.6359792947769165,-1.2705953168367772,-0.055168612994815985,3.0571895988966262,0.000549886841326952,-0.0037303869612514973,0.0
71,10,2.464552926539909e-05,-1.1229589290451258e-05,2.315824167453684e-05,0.0029337950982153416,0.00197196239605546,-0.0005784035311080515,-0.015353810042142868,0.1692880094051361,-0.00377991097047925,0.0009036832489073277,-0.0008375858888030052,0.0009945587953552604,0.0,0.0,0.0,-0.0003725603164639324,0.0020985386800020933,-0.0,0.0,0.0,0.0,0.004999999888241291,-0.004999999888241291,7.704973881139665e-10,1495.0,1495.0,1495.0,1495.0,0.0,0.0,0.0,0.0,0.0,0.0,0.0,0.0,1495.0,1495.0,1495.0,1495.0,1.6485487222671509,-1.2688618902581863,-0.05472924532435084,3.0577427348506836,-0.008336242288351059,-0.0011384314857423306,0.0
76,5,1.3250311894807965e-05,-2.0576910173986107e-05,1.6614136256976053e-05,-0.00019390812667552382,0.0019104634411633015,0.0005539312260225415,-0.015353810042142868,0.1692880094051361,-0.00377991097047925,0.0009036832489073277,-0.0008375858888030052,0.0009945587953552604,0.0,0.0,0.0,-0.002420478966087103,0.0027809767052531242,-0.0,0.0,0.0,0.0,0.004999999888241291,-0.004999999888241291,7.704973881139665e-10,1495.0,1495.0,1495.0,1495.0,0.0,0.0,0.0,0.0,0.0,0.0,0.0,0.0,1495.0,1495.0,1495.0,1495.0,1.6620177030563354,-1.269355779707876,-0.055067101937021586,3.057134603762043,-0.011137380264699459,-0.00745666678994894,0.0
81,5,2.0422627130756155e-05,-1.8619062757352367e-05,-9.536315133118478e-07,0.0007831145776435733,0.0005292436690069735,0.0023297045845538378,-0.015366782434284687,0.16924454271793365,-0.003777469042688608,0.003066977020353079,0.006075098644942045,0.0017027772264555097,0.0,0.0,0.0,-0.0006883824244141579,0.0007735860417596996,-0.0,0.0,0.0,0.0,0.004999999888241291,-0.004999999888241291,7.628716547358749e-10,13497.0,13568.0,13635.0,13565.0,0.40632501244544983,0.4108704626560211,0.41518083214759827,0.410635381937027,0.0,0.0,0.0,0.0,1495.0,1495.0,1495.0,1495.0,1.63577401638031,-1.2697175529316855,-0.054849585967846795,3.057506136307851,-0.0030491843353956938,-0.0020871879532933235,0.0
89,8,-1.7000593288685195e-05,-4.755635472974973e-06,3.505945278448053e-05,-0.002645342145115137,-9.682999370852485e-05,5.34534701728262e-05,-0.015366782434284687,0.16924454271793365,-0.003777469042688608,0.003066977020353079,0.006075098644942045,0.0017027772264555097,0.0,0.0,0.0,-0.0006883824244141579,0.0007735860417596996,-0.0,0.0,0.0,0.0,0.004999999888241291,-0.004999999888241291,7.628716547358749e-10,13497.0,13568.0,13635.0,13565.0,0.40632501244544983,0.4108704626560211,0.41518083214759827,0.410635381937027,0.0,0.0,0.0,0.0,1495.0,1495.0,1495.0,1495.0,1.63577401638031,-1.2702793496353826,-0.055833183183113824,3.056306518997364,-0.0030491843353956938,-0.0020871879532933235,0.0
94,5,-1.5567427908536047e-05,1.07571977423504e-05,6.087619112804532e-05,-0.0008861569804139435,-0.0019002719782292843,-0.0030766271520406008,-0.015351328067481518,0.16925303637981415,-0.0037522187922149897,0.00012542519834823906,-0.007331863045692444,0.0009228649432770908,0.0,0.0,0.0,0.0023531613405793905,-0.0008587179472669959,-0.0,0.0,0.0,0.0,0.004999999888241291,-0.004999999888241291,-3.562609582341558e-11,13497.0,13568.0,13635.0,13565.0,0.4063250422477722,0.41087043285369873,0.41518086194992065,0.4106353521347046,0.0,0.0,0.0,0.0,13497.0,13568.0,13635.0,13565.0,1.6473040580749512,-1.2711086754506336,-0.05580718447607838,3.0562090993163675,0.0034085914958268404,0.007185108028352261,0.0
100,6,-2.0552532077999786e-05,-4.064159838890191e-06,4.431144770933315e-05,-0.0009526753565296531,0.001018454204313457,0.0007571184542030096,-0.015351328067481518,0.16925303637981415,-0.0037522187922149897,0.00012542519834823906,-0.007331863045692444,0.0009228649432770908,0.0,0.0,0.0,0.0023531613405793905,-0.0008587179472669959,-0.0,0.0,0.0,0.0,0.004999999888241291,-0.004999999888241291,-3.562609582341558e-11,13497.0,13568.0,13635.0,13565.0,0.4063250422477722,0.41087043285369873,0.41518086194992065,0.4106353521347046,0.0,0.0,0.0,0.0,13497.0,13568.0,13635.0,13565.0,1.6473040580749512,-1.2704497666774262,-0.055751595545234636,3.0561677268167564,0.0034085914958268404,0.007185108028352261,0.0
105,5,6.509825993816776e-07,-1.545945087855216e-05,7.091084171406692e-06,0.002163351746276021,0.0017748165410012007,0.0047692907974123955,-0.015351328067481518,0.16925303637981415,-0.0037522187922149897,0.00012542519834823906,-0.007331863045692444,0.0009228649432770908,0.0,0.0,0.0,0.0023531613405793905,-0.0008587179472669959,-0.0,0.0,0.0,0.0,0.004999999888241291,-0.004999999888241291,-3.562609582341558e-11,13497.0,13568.0,13635.0,13565.0,0.4063250422477722,0.41087043285369873,0.41518086194992065,0.4106353521347046,0.0,0.0,0.0,0.0,13497.0,13568.0,13635.0,13565.0,1.6473040580749512,-1.270307124515116,-0.054460320063479215,3.057838511398962,0.0034085914958268404,0.007185108028352261,0.0
111,5,-4.6841219045745675e-06,-2.5517547328490764e-05,-1.6483543731737882e-05,0.00022512815485242754,0.0019168981816619635,0.004736671689897776,-0.015365292318165302,0.169277623295784,-0.0037678752560168505,0.0013072785222902894,-0.0024524268228560686,-0.0004320938896853477,0.0,0.0,0.0,-0.0021982574835419655,0.0020360371563583612,-0.0,0.0,0.0,0.0,0.004999999888241291,-0.004999999888241291,7.381342759238407e-11,13571.0,13642.0,13708.0,13638.0,0.41107651591300964,0.41562196612358093,0.4199323356151581,0.4153868854045868,0.0,0.0,0.0,0.0,13519.0,13590.0,13657.0,13586.0,1.654322862625122,-1.2699696974336434,-0.055180585878912954,3.056908271698878,-0.008116270415484905,-0.006740726996213198,-0.0
116,5,-1.4707477021147497e-05,-2.543214759498369e-05,-3.5511914120434085e-06,-0.0011127513134852052,0.000756511406507343,0.00034278639941476285,-0.015360741876065731,0.16929879784584045,-0.003756911726668477,-0.0034146918915212154,0.007122107781469822,0.0013040656922385097,0.0,0.0,0.0,-0.000979436794295907,-0.001076492015272379,-0.0,0.0,0.0,0.0,0.004999999888241291,-0.004999999888241291,-1.135411487052096e-10,13469.0,13540.0,13607.0,13536.0,0.4045155942440033,0.4090610444545746,0.41337141394615173,0.40882596373558044,0.0,0.0,0.0,0.0,13571.0,13642.0,13708.0,13638.0,1.6398307085037231,-1.2699858672492743,-0.055560423527482417,3.0564362739764483,0.004253646824508905,-0.002977034542709589,0.0
121,5,-3.1271492844098248e-06,-6.448595740948804e-06,1.4767070751986466e-05,0.0009445387404412031,-0.001975421793758869,-0.0020610769279301167,-0.015360741876065731,0.16929879784584045,-0.003756911726668477,-0.0034146918915212154,0.007122107781469822,0.0013040656922385097,0.0,0.0,0.0,-0.000979436794295907,-0.001076492015272379,-0.0,0.0,0.0,0.0,0.004999999888241291,-0.004999999888241291,-1.135411487052096e-10,13469.0,13540.0,13607.0,13536.0,0.4045155942440033,0.4090610444545746,0.41337141394615173,0.40882596373558044,0.0,0.0,0.0,0.0,13571.0,13642.0,13708.0,13638.0,1.6398307085037231,-1.2699490787701286,-0.055138640913675756,3.0568731004640073,0.004253646824508905,-0.002977034542709589,0.0
126,5,1.1337988325976767e-05,-2.2856504074297845e-05,7.145582912926329e-06,0.0021136319264769554,0.0011787803377956152,9.014781244331971e-05,-0.015355152077972889,0.1692289412021637,-0.003785761771723628,0.0020456307101994753,0.00021412732894532382,0.001575880916789174,0.0,0.0,0.0,-0.001485970919020474,0.002008459996432066,-0.0,0.0,0.0,0.0,0.004999999888241291,-0.004999999888241291,2.469165323593092e-11,13514.0,13585.0,13652.0,13581.0,0.4073981046676636,0.41194355487823486,0.416253924369812,0.4117084741592407,0.0,0.0,0.0,0.0,13469.0,13540.0,13607.0,13536.0,1.6506524085998535,-1.269528053597993,-0.05462225578690078,3.057827628439997,-0.007988586090505123,-0.004546468611806631,-0.0
131,5,8.12767211755272e-06,-1.158546183432918e-05,1.4066891708353069e-05,0.00046021491289138794,-0.0008810129947960377,-0.0007944979588501155,-0.015355152077972889,0.1692289412021637,-0.003785761771723628,0.0020456307101994753,0.00021412732894532382,0.001575880916789174,0.0,0.0,0.0,-0.001485970919020474,0.002008459996432066,-0.0,0.0,0.0,0.0,0.004999999888241291,-0.004999999888241291,2.469165323593092e-11,13514.0,13585.0,13652.0,13581.0,0.4073981046676636,0.41194355487823486,0.416253924369812,0.4117084741592407,0.0,0.0,0.0,0.0,13469.0,13540.0,13607.0,13536.0,1.6506524085998535,-1.2701185552285308,-0.05502499881218578,3.0569734558446306,-0.007988586090505123,-0.004546468611806631,-0.0
136,5,9.667459380580112e-06,-1.7846094124251977e-05,2.6413910745759495e-05,0.00036886040470562875,0.0003988705575466156,-0.0017994414083659649,-0.015355152077972889,0.1692289412021637,-0.003785761771723628,0.0020456307101994753,0.00021412732894532382,0.001575880916789174,0.0,0.0,0.0,-0.001485970919020474,0.002008459996432066,-0.0,0.0,0.0,0.0,0.004999999888241291,-0.004999999888241291,2.469165323593092e-11,13514.0,13585.0,13652.0,13581.0,0.4073981046676636,0.41194355487823486,0.416253924369812,0.4117084741592407,0.0,0.0,0.0,0.0,13469.0,13540.0,13607.0,13536.0,1.6506524085998535,-1.2695168622649822,-0.05472748564602891,3.0576422134182497,-0.007988586090505123,-0.004546468611806631,-0.0
141,5,-5.656366397488455e-07,2.244292858222252e-07,7.169919990701601e-05,-0.0010804273188114166,-0.0020089144818484783,-0.006154011469334364,-0.015341599471867085,0.16926850378513336,-0.003792170435190201,0.0016834549605846405,0.0019001018954440951,-0.0003696250496432185,0.0,0.0,0.0,-0.0005271825939416885,0.00036539341090247035,-0.0,0.0,0.0,0.0,0.004999999888241291,-0.004999999888241291,2.2572875513215962e-10,13542.0,13612.0,13679.0,13609.0,0.4091528058052063,0.4136982560157776,0.41800862550735474,0.41346317529678345,0.0,0.0,0.0,0.0,13514.0,13585.0,13652.0,13581.0,1.631571650505066,-1.269222578772871,-0.055456211288587146,3.056808437063433,-0.001436543301679194,-0.001594320870935917,0.0
146,5,-7.885886589065194e-06,6.100240625528386e-06,4.140487726544961e-05,-0.0013106008991599083,-0.0015086631756275892,0.001173713942989707,-0.015332935377955437,0.16922743618488312,-0.0038065474946051836,-0.0008219122537411749,0.007016182877123356,-0.004590002354234457,0.0,0.0,0.0,0.0018649614648893476,-0.0012498900759965181,-0.0,0.0,0.0,0.0,0.004999999888241291,-0.004999999888241291,-3.997405531586118e-11,13542.0,13612.0,13679.0,13609.0,0.4091528058052063,0.4136982560157776,0.41800862550735474,0.41346317529678345,0.0,0.0,0.0,0.0,13542.0,13612.0,13679.0,13609.0,1.6462078094482422,-1.2704317000627998,-0.0557496990966512,3.0563374375372683,0.0049580116756260395,0.005690659862011671,-0.0
151,5,1.2837473150284495e-05,-2.8297881726757623e-05,-1.1868108231283259e-05,0.0019625627901405096,0.003524309489876032,0.006862244103103876,-0.015332935377955437,0.16922743618488312,-0.0038065474946051836,-0.0008219122537411749,0.007016182877123356,-0.004590002354234457,0.0,0.0,0.0,0.0018649614648893476,-0.0012498900759965181,-0.0,0.0,0.0,0.0,0.004999999888241291,-0.004999999888241291,-3.997405531586118e-11,13542.0,13612.0,13679.0,13609.0,0.4091528058052063,0.4136982560157776,0.41800862550735474,0.41346317529678345,0.0,0.0,0.0,0.0,13542.0,13612.0,13679.0,13609.0,1.6462078094482422,-1.2696617842058442,-0.055213673184120036,3.0571890973602844,0.0049580116756260395,0.005690659862011671,-0.0
156,5,3.5868790746462764e-06,-3.25279361277353e-05,-1.3136360394128133e-05,-0.0003250461886636913,0.0019173300825059414,0.002897087950259447,-0.015332935377955437,0.16922743618488312,-0.0038065474946051836,-0.0008219122537411749,0.007016182877123356,-0.004590002354234457,0.0,0.0,0.0,0.0018649614648893476,-0.0012498900759965181,-0.0,0.0,0.0,0.0,0.004999999888241291,-0.004999999888241291,-3.997405531586118e-11,13542.0,13612.0,13679.0,13609.0,0.4091528058052063,0.4136982560157776,0.41800862550735474,0.41346317529678345,0.0,0.0,0.0,0.0,13542.0,13612.0,13679.0,13609.0,1.6462078094482422,-1.2697815504241468,-0.05507590400451122,3.057070399410421,0.0049580116756260395,0.005690659862011671,-0.0
161,5,-1.4288572174336878e-06,-2.610002047731541e-05,7.6267128861218225e-06,-0.0007319067954085767,-4.4175517359690275e-06,-0.0013327336637303233,-0.015330405905842781,0.16922974586486816,-0.003793960204347968,-0.0009881360456347466,0.001622624578885734,-0.0006734396447427571,0.0,0.0,0.0,-0.002415446564555168,-0.00030231926939450204,-0.0,0.0,0.0,0.0,0.004999999888241291,-0.004999999888241291,-8.785049770976272e-11,13527.0,13598.0,13665.0,13594.0,0.40823519229888916,0.41278064250946045,0.4170910120010376,0.4125455617904663,0.0,0.0,0.0,0.0,13453.0,13524.0,13591.0,13520.0,1.645988941192627,-1.2698430761298651,-0.05506029250095207,3.057260448305811,0.001199066755361855,-0.007369400002062321,0.0
166,5,-5.61512342756032e-06,-7.609154181409394e-06,5.388786303228699e-05,-0.0007951146690174937,-0.002220671158283949,-0.006084431428462267,-0.015330405905842781,0.16922974586486816,-0.003793960204347968,-0.0009881360456347466,0.001622624578885734,-0.0006734396447427571,0.0,0.0,0.0,-0.002415446564555168,-0.00030231926939450204,-0.0,0.0,0.0,0.0,0.004999999888241291,-0.004999999888241291,-8.785049770976272e-11,13527.0,13598.0,13665.0,13594.0,0.40823519229888916,0.41278064250946045,0.4170910120010376,0.4125455617904663,0.0,0.0,0.0,0.0,13453.0,13524.0,13591.0,13520.0,1.645988941192627,-1.2694409348965499,-0.0557119597817485,3.056375692552074,0.001199066755361855,-0.007369400002062321,0.0
172,6,-1.070023517968366e-05,1.22423432458163e-06,2.5595752958906814e-05,0.0001686543255345896,-0.0005338061018846929,0.0021852662321180105,-0.015336158685386181,0.16927476227283478,-0.003799479454755783,-0.0005312769208103418,-0.007294054608792067,-0.00395028805360198,0.0,0.0,0.0,0.002709585940465331,-0.0007578476215712726,-0.0,0.0,0.0,0.0,0.004999999888241291,-0.004999999888241291,1.037342156617882e-10,13510.0,13581.0,13647.0,13577.0,0.40712404251098633,0.4116694927215576,0.41597986221313477,0.4114344120025635,0.0,0.0,0.0,0.0,13510.0,13581.0,13647.0,13577.0,1.6496381759643555,-1.2708917612887067,-0.055545702956629806,3.0570032417982826,0.0030124569311738014,0.008285127580165863,0.0
177,5,-3.6635716242017224e-05,7.095401088008657e-05,0.00016559913638047874,-0.0030447959434241056,-0.00858109537512064,-0.01592629961669445,-0.015336158685386181,0.16927476227283478,-0.003799479454755783,-0.0005312769208103418,-0.007294054608792067,-0.00395028805360198,0.0,0.0,0.0,0.002709585940465331,-0.0007578476215712726,-0.0,0.0,0.0,0.0,0.004999999888241291,-0.004999999888241291,1.037342156617882e-10,13510.0,13581.0,13647.0,13577.0,0.40712404251098633,0.4116694927215576,0.41597986221313477,0.4114344120025635,0.0,0.0,0.0,0.0,13510.0,13581.0,13647.0,13577.0,1.6496381759643555,-1.2697188017036225,-0.05797616630409881,3.0541771507656406,0.0030124569311738014,0.008285127580165863,0.0
182,5,3.6856492897641147e-06,-2.837571173586184e-06,2.6554927899269387e-05,0.003620645496994257,0.005422551650553942,0.01031478587538004,-0.015362324193120003,0.16926750540733337,-0.0036105767358094454,0.0002494642394594848,0.009431982412934303,0.034559767693281174,0.0,0.0,0.0,0.010223559103906155,-0.0028057615272700787,-0.0,0.0,0.0,0.0,0.004999999888241291,-0.004999999888241291,-2.1975976594035274e-10,13509.0,13580.0,13647.0,13576.0,0.4070693254470825,0.4116147756576538,0.41592514514923096,0.41137969493865967,0.0,0.0,0.0,0.0,13510.0,13581.0,13647.0,13577.0,1.7187347412109375,-1.2693285284156433,-0.05508645066175174,3.056739532903234,0.01161952130496502,0.032569099217653275,0.0
187,5,-2.103153929056134e-05,1.3410909559752326e-05,3.508923327899538e-05,-0.0015178044559434056,0.00021920293511357158,0.0031017973087728024,-0.015362324193120003,0.16926750540733337,-0.0036105767358094454,0.0002494642394594848,0.009431982412934303,0.034559767693281174,0.0,0.0,0.0,0.010223559103906155,-0.0028057615272700787,-0.0,0.0,0.0,0.0,0.004999999888241291,-0.004999999888241291,-2.1975976594035274e-10,13509.0,13580.0,13647.0,13576.0,0.4070693254470825,0.4116147756576538,0.41592514514923096,0.41137969493865967,0.0,0.0,0.0,0.0,13510.0,13581.0,13647.0,13577.0,1.7187347412109375,-1.2703223043349807,-0.055753020462672935,3.056663782441833,0.01161952130496502,0.032569099217653275,0.0
192,5,1.1985567653027829e-05,-6.339416358969174e-06,2.087434404529631e-05,0.003354931017383933,0.0024577202275395393,0.00294650555588305,-0.015362324193120003,0.16926750540733337,-0.0036105767358094454,0.0002494642394594848,0.009431982412934303,0.034559767693281174,0.0,0.0,0.0,-0.0002459693350829184,-0.001468140515498817,-0.0,0.0,0.0,0.0,0.004999999888241291,-0.004999999888241291,-2.1975976594035274e-10,13509.0,13580.0,13647.0,13576.0,0.4070693254470825,0.4116147756576538,0.41592514514923096,0.41137969493865967,0.0,0.0,0.0,0.0,13510.0,13581.0,13647.0,13577.0,1.6416277885437012,-1.270333841660124,-0.05446210498755043,3.057790678362128,0.005807564593851566,-0.0007484524394385517,-0.0
197,5,-2.875475365726743e-05,1.847837665991392e-05,9.802986460272223e-05,-0.0035468661226332188,-0.001995047088712454,-0.008080060593783855,-0.015335763804614544,0.1692783236503601,-0.003937138710170984,1.2369112482701894e-05,-0.025985531508922577,-0.017186924815177917,0.0,0.0,0.0,-0.0002459693350829184,-0.001468140515498817,-0.0,0.0,0.0,0.0,0.004999999888241291,-0.004999999888241291,2.7998980911547733e-10,13523.0,13594.0,13661.0,13590.0,0.4079815447330475,0.4125271737575531,0.4168373644351959,0.41229209303855896,0.0,0.0,0.0,0.0,13509.0,13580.0,13647.0,13576.0,1.6416277885437012,-1.2700409837851856,-0.05643277445897038,3.0554294683462064,0.005807564593851566,-0.0007484524394385517,-0.0
203,5,2.1800929062010255e-06,-2.473206041031517e-05,3.76165667148598e-06,0.0022934351582080126,0.004387233406305313,0.008080161176621914,-0.015335763804614544,0.1692783236503601,-0.003937138710170984,1.2369112482701894e-05,-0.025985531508922577,-0.017186924815177917,0.0,0.0,0.0,0.002453334629535675,-0.003349615726619959,-0.0,0.0,0.0,0.0,0.004999999888241291,-0.004999999888241291,2.7998980911547733e-10,13523.0,13594.0,13661.0,13590.0,0.4079815447330475,0.4125271737575531,0.4168373644351959,0.41229209303855896,0.0,0.0,0.0,0.0,13509.0,13580.0,13647.0,13576.0,1.6675255298614502,-1.269837040603957,-0.05430454423196863,3.057736936913649,0.013459138572216034,0.007582929916679859,0.0
208,5,4.093953407391382e-07,-2.8696695153485052e-05,6.125456820882391e-06,0.0007048903498798609,0.002230649581179023,0.002948408480733633,-0.01535837259143591,0.16938580572605133,-0.0037323764991015196,-0.011130347847938538,0.013286489062011242,-0.03262607753276825,0.0,0.0,0.0,-0.002786888973787427,0.0006653767195530236,-0.0,0.0,0.0,0.0,0.004999999888241291,-0.004999999888241291,2.634201745621567e-10,13790.0,13859.0,13925.0,13856.0,0.42525577545166016,0.42980122566223145,0.4341115951538086,0.4295661449432373,0.0,0.0,0.0,0.0,13523.0,13594.0,13661.0,13590.0,1.6499310731887817,-1.269718895777738,-0.05485734926925693,3.0571691121630122,-0.0026453526224941015,-0.008523009717464447,-0.0
213,5,-7.935429493954871e-06,-3.61300481017679e-05,8.990421520138625e-06,-0.0007194227655418217,0.0017842623637989163,0.0008355675381608307,-0.01535837259143591,0.16938580572605133,-0.0037323764991015196,-0.011130347847938538,0.013286489062011242,-0.03262607753276825,0.0,0.0,0.0,-0.002786888973787427,0.0006653767195530236,-0.0,0.0,0.0,0.0,0.004999999888241291,-0.004999999888241291,2.634201745621567e-10,13790.0,13859.0,13925.0,13856.0,0.42525577545166016,0.42980122566223145,0.4341115951538086,0.4295661449432373,0.0,0.0,0.0,0.0,13523.0,13594.0,13661.0,13590.0,1.6499310731887817,-1.2699339369866978,-0.05496764845795246,3.056777265589375,-0.0026453526224941015,-0.008523009717464447,-0.0
218,5,-2.232633050880395e-05,0.00010259391274303198,0.00017345693777315319,-0.0020146772731095552,-0.015933170914649963,-0.019401755183935165,-0.015304400585591793,0.1694384664297104,-0.004016694147139788,0.01943787932395935,-0.020210780203342438,0.0168918427079916,0.0,0.0,0.0,-0.002786888973787427,0.0006653767195530236,-0.0,0.0,0.0,0.0,0.004999999888241291,-0.004999999888241291,1.1549310396929968e-09,13492.0,13563.0,13630.0,13559.0,0.4059793949127197,0.4105241298675537,0.41483521461486816,0.41028904914855957,0.0,0.0,0.0,0.0,13492.0,13563.0,13630.0,13559.0,1.6499310731887817,-1.2684594614531695,-0.058805539469152276,3.054308199509341,-0.0026453526224941015,-0.008523009717464447,-0.0
223,5,-2.938380384875927e-05,7.568084402009845e-05,0.00011698916205205023,-0.0016527676489204168,-0.0031436996068805456,-0.0009845687309280038,-0.015304400585591793,0.1694384664297104,-0.004016694147139788,0.01943787932395935,-0.020210780203342438,0.0168918427079916,0.0,0.0,0.0,0.018201231956481934,-0.0017824872629716992,-0.0,0.0,0.0,0.0,0.004999999888241291,-0.004999999888241291,1.1549310396929968e-09,13492.0,13563.0,13630.0,13559.0,0.4059793949127197,0.4105241298675537,0.41483521461486816,0.41028904914855957,0.0,0.0,0.0,0.0,13492.0,13563.0,13630.0,13559.0,1.7879323959350586,-1.2681993763157604,-0.05800544248937411,3.054522579175689,0.007678161840885878,0.06031382456421852,0.0
228,5,-0.010295012965798378,-0.007943435572087765,-0.0029991718474775553,-0.0016527676489204168,-0.0031436996068805456,-0.0009845687309280038,-0.015366652980446815,0.1695159673690796,-0.00432637520134449,-0.01826152205467224,-0.0015360936522483826,-0.03540625795722008,0.0,0.0,0.0,0.018201231956481934,-0.0017824872629716992,-0.0,0.0,0.0,0.0,0.004999999888241291,-0.004999999888241291,5.697397220671974e-09,13593.0,13663.0,13730.0,13660.0,0.4124535918235779,0.41699880361557007,0.4213094115257263,0.4167637228965759,0.0,0.0,0.0,0.0,13593.0,13663.0,13730.0,13660.0,1.7879323959350586,-0.26802987539788603,-0.22814862740108302,-1.608327039973317,0.007678161840885878,0.06031382456421852,0.0
233,5,-0.009871014393866062,-0.007387485355138779,-0.0025536450557410717,0.05021873116493225,-0.06797148287296295,-0.05385705456137657,-0.015366652980446815,0.1695159673690796,-0.00432637520134449,-0.01826152205467224,-0.0015360936522483826,-0.03540625795722008,0.0,0.0,0.0,0.052215054631233215,-0.011963183991611004,-0.0,0.0,0.0,0.0,0.004999999888241291,-0.004999999888241291,5.697397220671974e-09,13593.0,13663.0,13730.0,13660.0,0.4124535918235779,0.41699880361557007,0.4213094115257263,0.4167637228965759,0.0,0.0,0.0,0.0,13593.0,13663.0,13730.0,13660.0,2.18369460105896,-0.2558827590988347,-0.24725217154262047,-1.6002918076189498,0.06286195665597916,0.21117256581783295,0.0
238,5,-0.010349081829190254,-0.007846564054489136,-0.0028268848545849323,-0.037280578166246414,0.027900902554392815,0.011245962232351303,-0.015214676968753338,0.1696428805589676,-0.004516905173659325,-0.02108696475625038,-0.039048437029123306,-0.07375682145357132,0.0,0.0,0.0,0.052215054631233215,-0.011963183991611004,-0.0,0.0,0.0,0.0,0.004999999888241291,-0.004999999888241291,-4.783612084224842e-08,13524.0,13595.0,13662.0,13592.0,0.40805500745773315,0.41260015964508057,0.4169108271598816,0.4123650789260864,0.0,0.0,0.0,0.0,13524.0,13595.0,13662.0,13592.0,2.18369460105896,-0.2741434204280701,-0.22732735190312855,-1.6058944531824269,0.06286195665597916,0.21117256581783295,0.0
244,5,-0.010181445628404617,-0.00754427770152688,-0.002482606563717127,0.005204073153436184,-0.0251140259206295,-0.03681500256061554,-0.015214676968753338,0.1696428805589676,-0.004516905173659325,-0.02108696475625038,-0.039048437029123306,-0.07375682145357132,0.0,0.0,0.0,0.015804341062903404,-0.008448008447885513,-0.0,0.0,0.0,0.0,0.004999999888241291,-0.004999999888241291,-4.783612084224842e-08,13524.0,13595.0,13662.0,13592.0,0.40805500745773315,0.41260015964508057,0.4169108271598816,0.4123650789260864,0.0,0.0,0.0,0.0,13524.0,13595.0,13662.0,13592.0,1.7964603900909424,-0.27663421004813027,-0.23081152827709767,-1.602122261942235,0.0365649089217186,0.05262228846549988,0.0
249,5,-0.009811542928218842,-0.007102752570062876,-0.0020149298943579197,0.04646999388933182,-0.06302864849567413,-0.07084721326828003,-0.015445377677679062,0.170594722032547,-0.004672973416745663,-0.01405489630997181,-0.09912768006324768,-0.005333906505256891,0.0,0.0,0.0,0.015804341062903404,-0.008448008447885513,-0.0,0.0,0.0,0.0,0.004999999888241291,-0.004999999888241291,-7.667259893651135e-08,14052.0,14120.0,14184.0,14116.0,0.4425544738769531,0.447101354598999,0.45141029357910156,0.4468662738800049,0.0,0.0,0.0,0.0,14052.0,14120.0,14184.0,14116.0,1.7964603900909424,-0.27811279530250343,-0.23722939604414212,-1.5959126874524094,0.0365649089217186,0.05262228846549988,0.0
254,5,-0.009500620886683464,-0.006812824867665768,-0.0016756687546148896,0.05589870363473892,-0.06000274047255516,-0.06905022263526917,-0.015445377677679062,0.170594722032547,-0.004672973416745663,-0.01405489630997181,-0.09912768006324768,-0.005333906505256891,0.0,0.0,0.0,0.045181162655353546,0.029170537367463112,-0.0,0.0,0.0,0.0,0.004999999888241291,-0.004999999888241291,-7.667259893651135e-08,14052.0,14120.0,14184.0,14116.0,0.4425544738769531,0.447101354598999,0.45141029357910156,0.4468662738800049,0.0,0.0,0.0,0.0,14052.0,14120.0,14184.0,14116.0,2.239698886871338,-0.2806009183860957,-0.24635916840056868,-1.5872131380874621,-0.15724648535251617,0.18745070695877075,0.0
259,5,-0.009257313795387745,-0.006589068565517664,-0.0013969815336167812,0.05155627429485321,-0.05085184797644615,-0.06106254830956459,-0.01548197865486145,0.17166580259799957,-0.005167299881577492,0.015927374362945557,-0.18559466302394867,0.026105588302016258,0.0,0.0,0.0,0.045181162655353546,0.029170537367463112,-0.0,0.0,0.0,0.0,0.004999999888241291,-0.004999999888241291,-2.2706338143052562e-07,14084.0,14152.0,14215.0,14148.0,0.44468432664871216,0.4492354989051819,0.4535401463508606,0.44900041818618774,0.0,0.0,0.0,0.0,15460.0,15521.0,15579.0,15518.0,2.239698886871338,-0.28195355197907707,-0.25471011424934425,-1.578409516311613,-0.15724648535251617,0.18745070695877075,0.0
264,5,-0.009107295423746109,-0.006388480309396982,-0.001115071470849216,0.03862469270825386,-0.04441137611865997,-0.05825423821806908,-0.01548197865486145,0.17166580259799957,-0.005167299881577492,0.015927374362945557,-0.18559466302394867,0.026105588302016258,0.0,0.0,0.0,0.045181162655353546,0.029170537367463112,-0.0,0.0,0.0,0.0,0.004999999888241291,-0.004999999888241291,-2.2706338143052562e-07,14084.0,14152.0,14215.0,14148.0,0.44468432664871216,0.4492354989051819,0.4535401463508606,0.44900041818618774,0.0,0.0,0.0,0.0,15460.0,15521.0,15579.0,15518.0,2.239698886871338,-0.28410401716802985,-0.2623737758742069,-1.5706910178736524,-0.15724648535251617,0.18745070695877075,0.0
269,5,-0.009017501026391983,-0.0062201665714383125,-0.0008905244758352637,0.02622518129646778,-0.03796220198273659,-0.050247326493263245,-0.015368688851594925,0.1740306168794632,-0.005503098014742136,0.0221884623169899,-0.24212247133255005,-0.06933528184890747,0.0,0.0,0.0,0.03467612341046333,0.019224384799599648,-0.0,0.0,0.0,0.0,0.004999999888241291,-0.004999999888241291,1.914907130640131e-07,14084.0,14152.0,14215.0,14148.0,0.44468432664871216,0.4492354989051819,0.4535401463508606,0.44900041818618774,0.0,0.0,0.0,0.0,14084.0,14151.0,14216.0,14148.0,2.043409585952759,-0.28458969154846575,-0.26866217180288254,-1.5638282082500543,-0.09459580481052399,0.1312914341688156,0.0
274,5,-0.009061445482075214,-0.0061236475594341755,-0.0007615092908963561,0.005216814577579498,-0.02676714025437832,-0.03558075428009033,-0.015368688851594925,0.1740306168794632,-0.005503098014742136,0.0221884623169899,-0.24212247133255005,-0.06933528184890747,0.0,0.0,0.0,0.019729480147361755,-0.006947882939130068,-0.0,0.0,0.0,0.0,0.004999999888241291,-0.004999999888241291,1.914907130640131e-07,14084.0,14152.0,14215.0,14148.0,0.44468432664871216,0.4492354989051819,0.4535401463508606,0.44900041818618774,0.0,0.0,0.0,0.0,14084.0,14151.0,14216.0,14148.0,1.8202239274978638,-0.2833335501122067,-0.2740822131562544,-1.5587786373472199,0.0304678063839674,0.0665576308965683,0.0
279,5,-0.009161672554910183,-0.0060409121215343475,-0.0006827947217971087,-0.009940518997609615,-0.0206350926309824,-0.023678047582507133,-0.015287918038666248,0.17668811976909637,-0.005424016620963812,-0.020493729040026665,-0.4127815365791321,-0.017133327201008797,0.0,0.0,0.0,0.019729480147361755,-0.006947882939130068,-0.0,0.0,0.0,0.0,0.004999999888241291,-0.004999999888241291,3.9733780710093924e-08,14084.0,14152.0,14215.0,14148.0,0.44468745589256287,0.4492323696613312,0.4535432755947113,0.44899728894233704,0.0,0.0,0.0,0.0,15648.0,15709.0,15766.0,15706.0,1.8202239274978638,-0.2820078237155468,-0.27869536316389365,-1.5548123913501755,0.0304678063839674,0.0665576308965683,0.0
284,5,-0.009338143281638622,-0.0059331986121833324,-0.0005908237071707845,-0.02515271306037903,-0.021179670467972755,-0.02050773985683918,-0.015152160078287125,0.18199214339256287,-0.0054779741913080215,0.0231044702231884,-0.5076035857200623,0.01712213270366192,0.0,0.0,0.0,0.012442615814507008,-0.029956398531794548,-0.0,0.0,0.0,0.0,0.004999999888241291,-0.004999999888241291,-5.6114657809303026e-08,14977.0,15040.0,15100.0,15037.0,0.5064157843589783,0.510978639125824,0.5152716040611267,0.5107435584068298,0.0,0.0,0.0,0.0,14977.0,15040.0,15100.0,15037.0,2.0218560695648193,-0.2825593644360238,-0.2834365589126165,-1.5524005086056403,0.14591272175312042,0.046628355979919434,0.0
291,6,-0.009545911103487015,-0.005880889017134905,-0.0006163748912513256,-0.034993190318346024,-0.014749045483767986,-0.005136954598128796,-0.015152160078287125,0.18199214339256287,-0.0054779741913080215,0.0231044702231884,-0.5076035857200623,0.01712213270366192,0.0,0.0,0.0,0.012442615814507008,-0.029956398531794548,-0.0,0.0,0.0,0.0,0.004999999888241291,-0.004999999888241291,-5.6114657809303026e-08,14977.0,15040.0,15100.0,15037.0,0.5064157843589783,0.510978639125824,0.5152716040611267,0.5107435584068298,0.0,0.0,0.0,0.0,14977.0,15040.0,15100.0,15037.0,2.0218560695648193,-0.2815904538133229,-0.287218349207853,-1.5513110339285623,0.14591272175312042,0.046628355979919434,0.0
296,5,-0.003256045049056411,0.006646088324487209,-0.0032922562677413225,-0.034993190318346024,-0.014749045483767986,-0.005136954598128796,-0.015152160078287125,0.18199214339256287,-0.0054779741913080215,0.0231044702231884,-0.5076035857200623,0.01712213270366192,0.0,0.0,0.0,0.023843541741371155,-0.029876399785280228,-0.0,0.0,0.0,0.0,0.004999999888241291,-0.004999999888241291,-5.6114657809303026e-08,14977.0,15040.0,15100.0,15037.0,0.5064157843589783,0.510978639125824,0.5152716040611267,0.5107435584068298,0.0,0.0,0.0,0.0,14977.0,15040.0,15100.0,15037.0,2.075815439224243,-0.0894521652506033,-0.38340927313292383,0.09274462817737883,0.1493760049343109,0.09172617644071579,0.0
301,5,-0.003200755687430501,0.00675682257860899,-0.004690756555646658,-0.0073625571094453335,-0.019187714904546738,0.16576524078845978,-0.01489125844091177,0.19214387238025665,-0.005160958506166935,-0.002882196567952633,-0.543752133846283,0.007195379119366407,0.0,0.0,0.0,0.023843541741371155,-0.029876399785280228,-0.0,0.0,0.0,0.0,0.004999999888241291,-0.004999999888241291,6.165748800412985e-07,14172.0,14240.0,14303.0,14236.0,0.45063483715057373,0.455166757106781,0.45949065685272217,0.45493167638778687,0.0,0.0,0.0,0.0,14172.0,14240.0,14303.0,14236.0,2.075815439224243,-0.08717773212916084,-0.33882787291119487,0.09376545046822225,0.1493760049343109,0.09172617644071579,0.0
306,5,-0.0031476549338549376,0.006634830962866545,-0.006859355140477419,-0.0073625571094453335,-0.019187714904546738,0.16576524078845978,-0.01489125844091177,0.19214387238025665,-0.005160958506166935,-0.002882196567952633,-0.543752133846283,0.007195379119366407,0.0,0.0,0.0,0.023843541741371155,-0.029876399785280228,-0.0,0.0,0.0,0.0,0.004999999888241291,-0.004999999888241291,6.165748800412985e-07,14172.0,14240.0,14303.0,14236.0,0.45063483715057373,0.455166757106781,0.45949065685272217,0.45493167638778687,0.0,0.0,0.0,0.0,14172.0,14240.0,14303.0,14236.0,2.075815439224243,-0.08620478867008806,-0.26968988343408307,0.09232060997267166,0.1493760049343109,0.09172617644071579,0.0
311,5,-0.0033837181981652975,0.006685603875666857,-0.006848703138530254,-0.03127261623740196,-0.01376781240105629,0.0650278702378273,-0.01492819469422102,0.19631005823612213,-0.004904501605778933,0.018931394442915916,-0.5178607702255249,0.032426491379737854,0.0,0.0,0.0,0.03024115227162838,-0.009702663868665695,-0.0,0.0,0.0,0.0,0.004999999888241291,-0.004999999888241291,7.971998616795872e-10,14901.0,14965.0,15025.0,14962.0,0.501036524772644,0.5055811405181885,0.5098923444747925,0.5053460597991943,0.0,0.0,0.0,0.0,14901.0,14965.0,15025.0,14962.0,1.9332383871078491,-0.08331218839456529,-0.27036110069383534,0.0925889582619785,0.04517756775021553,0.10833580791950226,0.0
316,5,-0.0037500604521483183,0.006822208873927593,-0.00653441296890378,-0.056470125913619995,-0.021899724379181862,-0.011703683994710445,-0.01492819469422102,0.19631005823612213,-0.004904501605778933,0.018931394442915916,-0.5178607702255249,0.032426491379737854,0.0,0.0,0.0,0.03024115227162838,-0.009702663868665695,-0.0,0.0,0.0,0.0,0.004999999888241291,-0.004999999888241291,7.971998616795872e-10,14901.0,14965.0,15025.0,14962.0,0.501036524772644,0.5055811405181885,0.5098923444747925,0.5053460597991943,0.0,0.0,0.0,0.0,14901.0,14965.0,15025.0,14962.0,1.9332383871078491,-0.08120367679726129,-0.27860818509214713,0.0947645083888374,0.04517756775021553,0.10833580791950226,0.0
321,5,-0.004069914575666189,0.006933103781193495,-0.006436643656343222,-0.06097054108977318,-0.02206731215119362,-0.016413753852248192,-0.01470562256872654,0.20216421782970428,-0.004552958533167839,0.00767945684492588,-0.5127679109573364,0.02480345405638218,0.0,0.0,0.0,0.02832784317433834,-0.04242188483476639,-0.0,0.0,0.0,0.0,0.004999999888241291,-0.004999999888241291,5.465527124215441e-07,15090.0,15153.0,15212.0,15149.0,0.5145342946052551,0.5190630555152893,0.5233901143074036,0.5188279747962952,0.0,0.0,0.0,0.0,14586.0,14651.0,14713.0,14647.0,2.2776284217834473,-0.07939870197009458,-0.28178015635036596,0.09661537390126032,0.23265917599201202,0.11956371366977692,0.0
326,5,-0.004411947447806597,0.0070785111747682095,-0.006229580380022526,-0.06543214619159698,-0.026275793090462685,-0.031413108110427856,-0.01470562256872654,0.20216421782970428,-0.004552958533167839,0.00767945684492588,-0.5127679109573364,0.02480345405638218,0.0,0.0,0.0,0.03129446879029274,-0.0473138689994812,-0.0,0.0,0.0,0.0,0.004999999888241291,-0.004999999888241291,5.465527124215441e-07,15090.0,15153.0,15212.0,15149.0,0.5145342946052551,0.5190630555152893,0.5233901143074036,0.5188279747962952,0.0,0.0,0.0,0.0,14586.0,14651.0,14713.0,14647.0,2.3696115016937256,-0.07967956243382066,-0.2902094092337294,0.09910220634204545,0.2699247896671295,0.1374119520187378,0.0
331,5,-0.0047578150406479836,0.007261507213115692,-0.0061994013376533985,-0.06767699867486954,-0.03246985003352165,-0.01618674024939537,-0.01470562256872654,0.20216421782970428,-0.004552958533167839,0.00767945684492588,-0.5127679109573364,0.02480345405638218,0.0,0.0,0.0,0.03129446879029274,-0.0473138689994812,-0.0,0.0,0.0,0.0,0.004999999888241291,-0.004999999888241291,5.465527124215441e-07,15090.0,15153.0,15212.0,15149.0,0.5145342946052551,0.5190630555152893,0.5233901143074036,0.5188279747962952,0.0,0.0,0.0,0.0,14586.0,14651.0,14713.0,14647.0,2.3696115016937256,-0.08132941545119225,-0.29450744641198096,0.1031372225189862,0.2699247896671295,0.1374119520187378,0.0
336,5,-0.005083952099084854,0.007447549607604742,-0.006245344411581755,-0.06620725244283676,-0.03531303256750107,-0.0009615139570087194,-0.014709683135151863,0.20603151619434357,-0.004282733425498009,0.03811061009764671,-0.4698597490787506,0.018715698271989822,0.0,0.0,0.0,0.03129446879029274,-0.0473138689994812,-0.0,0.0,0.0,0.0,0.004999999888241291,-0.004999999888241291,2.9116347377566854e-07,14586.0,14651.0,14713.0,14647.0,0.4788998067378998,0.48340901732444763,0.4877556264400482,0.4831739366054535,0.0,0.0,0.0,0.0,15775.0,15835.0,15892.0,15832.0,2.3696115016937256,-0.0864714051405022,-0.29813214897339924,0.10639522153829477,0.2699247896671295,0.1374119520187378,0.0
341,5,-0.005453904625028372,0.007633420173078775,-0.005986046977341175,-0.07087715715169907,-0.03642968088388443,-0.031500283628702164,-0.014889172278344631,0.2115069180727005,-0.00390224508009851,-0.020386001095175743,-0.49046123027801514,0.016966737806797028,0.0,0.0,0.0,0.038652557879686356,-0.04746183380484581,-0.0,0.0,0.0,0.0,0.004999999888241291,-0.004999999888241291,-1.2325345721819758e-07,15775.0,15835.0,15892.0,15832.0,0.5649663209915161,0.5695375204086304,0.5738221406936646,0.5693024396896362,0.0,0.0,0.0,0.0,15775.0,15835.0,15892.0,15832.0,2.42081356048584,-0.08832411202116133,-0.3064528014451173,0.10873600591474566,0.27654778957366943,0.17336109280586243,0.0
346,5,-0.005899192299693823,0.007814853452146053,-0.005840316880494356,-0.0817854255437851,-0.03634386882185936,-0.03008771687746048,-0.014889172278344631,0.2115069180727005,-0.00390224508009851,-0.020386001095175743,-0.49046123027801514,0.016966737806797028,0.0,0.0,0.0,0.038652557879686356,-0.04746183380484581,-0.0,0.0,0.0,0.0,0.004999999888241291,-0.004999999888241291,-1.2325345721819758e-07,15775.0,15835.0,15892.0,15832.0,0.5649663209915161,0.5695375204086304,0.5738221406936646,0.5693024396896362,0.0,0.0,0.0,0.0,15775.0,15835.0,15892.0,15832.0,2.42081356048584,-0.08847928491512075,-0.30970240542331157,0.11131201382426915,0.27654778957366943,0.17336109280586243,0.0
351,5,-0.006336651276797056,0.00790612306445837,-0.005728710908442736,-0.0852092057466507,-0.02548987977206707,-0.02542782761156559,-0.0149814672768116,0.2156735509634018,-0.00372972059994936,0.010568455792963505,-0.5783963799476624,0.0057207150384783745,0.0,0.0,0.0,0.03807579353451729,-0.055504877120256424,-0.0,0.0,0.0,0.0,0.004999999888241291,-0.004999999888241291,1.3189755065923237e-07,16077.0,16136.0,16192.0,16133.0,0.5879824757575989,0.5925129055976868,0.5968382954597473,0.5922778248786926,0.0,0.0,0.0,0.0,15775.0,15835.0,15892.0,15832.0,2.5413272380828857,-0.09166150495584488,-0.3154112903971827,0.11212448333670365,0.3394733667373657,0.179278165102005,0.0
357,5,-0.007112741004675627,0.008087599650025368,-0.005454904865473509,-0.07721032947301865,-0.02118000201880932,-0.021736562252044678,-0.0149814672768116,0.2156735509634018,-0.00372972059994936,0.010568455792963505,-0.5783963799476624,0.0057207150384783745,0.0,0.0,0.0,0.03807579353451729,-0.055504877120256424,-0.0,0.0,0.0,0.0,0.004999999888241291,-0.004999999888241291,1.3189755065923237e-07,16077.0,16136.0,16192.0,16133.0,0.5879824757575989,0.5925129055976868,0.5968382954597473,0.5922778248786926,0.0,0.0,0.0,0.0,15775.0,15835.0,15892.0,15832.0,2.5413272380828857,-0.09333432736884122,-0.32879303201075155,0.11461511812593268,0.3394733667373657,0.179278165102005,0.0
362,5,-0.007112741004675627,0.008087599650025368,-0.005454904865473509,-0.07721032947301865,-0.02118000201880932,-0.021736562252044678,-0.014884364791214466,0.2229006588459015,-0.0034396862611174583,0.023592721670866013,-0.6658468842506409,0.026983439922332764,0.0,0.0,0.0,0.02703506126999855,-0.055240362882614136,-0.0,0.0,0.0,0.0,0.004999999888241291,-0.004999999888241291,1.9021373987015977e-07,16242.0,16301.0,16356.0,16298.0,0.6007863879203796,0.6053100228309631,0.6096422076225281,0.605074942111969,0.0,0.0,0.0,0.0,16243.0,16300.0,16356.0,16297.0,2.4739625453948975,-0.09333432736884122,-0.32879303201075155,0.11461511812593268,0.3290197253227234,0.12394611537456512,0.0
367,5,-0.008060927502810955,0.008241542614996433,-0.005341256503015757,-0.09405148029327393,-0.01604587212204933,-0.016005557030439377,-0.014884364791214466,0.2229006588459015,-0.0034396862611174583,0.023592721670866013,-0.6658468842506409,0.026983439922332764,0.0,0.0,0.0,0.02703506126999855,-0.055240362882614136,-0.0,0.0,0.0,0.0,0.004999999888241291,-0.004999999888241291,1.9021373987015977e-07,16242.0,16301.0,16356.0,16298.0,0.6007863879203796,0.6053100228309631,0.6096422076225281,0.605074942111969,0.0,0.0,0.0,0.0,16243.0,16300.0,16356.0,16297.0,2.4739625453948975,-0.09237713978414128,-0.33614168662414345,0.11750639552955647,0.3290197253227234,0.12394611537456512,0.0
372,5,-0.008587298914790154,0.00827761460095644,-0.005240228958427906,-0.10078517347574234,-0.010747012682259083,-0.018525516614317894,-0.014698361977934837,0.2287529557943344,-0.003278345102444291,0.01604757271707058,-0.7926381230354309,0.010194404982030392,0.0,0.0,0.0,0.02194351702928543,-0.06359105557203293,-0.0,0.0,0.0,0.0,0.004999999888241291,-0.004999999888241291,4.521660628142854e-07,16625.0,16682.0,16736.0,16679.0,0.6309211850166321,0.6354320645332336,0.6397770047187805,0.6351969838142395,0.0,0.0,0.0,0.0,16625.0,16682.0,16736.0,16679.0,2.595974922180176,-0.09124251423977163,-0.3427280136108223,0.11816154420297488,0.39742130041122437,0.10557278245687485,0.0
377,5,-0.009086310863494873,0.008177162148058414,-0.005366870202124119,-0.1001954972743988,0.007755471859127283,0.007786720059812069,-0.014698361977934837,0.2287529557943344,-0.003278345102444291,0.01604757271707058,-0.7926381230354309,0.010194404982030392,0.0,0.0,0.0,0.02194351702928543,-0.06359105557203293,-0.0,0.0,0.0,0.0,0.004999999888241291,-0.004999999888241291,4.521660628142854e-07,16625.0,16682.0,16736.0,16679.0,0.6309211850166321,0.6354320645332336,0.6397770047187805,0.6351969838142395,0.0,0.0,0.0,0.0,16625.0,16682.0,16736.0,16679.0,2.595974922180176,-0.09680790377478511,-0.34228999698051094,0.11549062596231545,0.39742130041122437,0.10557278245687485,0.0
382,5,-0.009558304212987423,0.00807289220392704,-0.005383399780839682,-0.09671740978956223,0.015614619478583336,0.0050982399843633175,-0.01453009806573391,0.23871412873268127,-0.003160201944410801,0.011772092431783676,-0.8947025537490845,-0.017611898481845856,0.0,0.0,0.0,0.00328649184666574,-0.0673980712890625,-0.0,0.0,0.0,0.0,0.004999999888241291,-0.004999999888241291,6.275292321333836e-07,16413.0,16470.0,16525.0,16467.0,0.6140794157981873,0.6185914874076843,0.6229352355003357,0.6183564066886902,0.0,0.0,0.0,0.0,16413.0,16470.0,16525.0,16467.0,2.6259195804595947,-0.10496093929183571,-0.34874936300879605,0.11100343247381046,0.4261373281478882,0.015996357426047325,0.0
388,6,-0.010172594338655472,0.008226881735026836,-0.005253627896308899,-0.1124018207192421,-0.01223292388021946,-0.01353332120925188,-0.01453009806573391,0.23871412873268127,-0.003160201944410801,0.011772092431783676,-0.8947025537490845,-0.017611898481845856,0.0,0.0,0.0,0.00328649184666574,-0.0673980712890625,-0.0,0.0,0.0,0.0,0.004999999888241291,-0.004999999888241291,6.275292321333836e-07,16413.0,16470.0,16525.0,16467.0,0.6140794157981873,0.6185914874076843,0.6229352355003357,0.6183564066886902,0.0,0.0,0.0,0.0,16413.0,16470.0,16525.0,16467.0,2.6259195804595947,-0.09953925032127697,-0.3530456377866328,0.11376585919138292,0.4261373281478882,0.015996357426047325,0.0
393,5,-0.010786629281938076,0.008283071219921112,-0.0051045469008386135,-0.11864491552114487,-0.011635851114988327,-0.023303061723709106,-0.01453009806573391,0.23871412873268127,-0.003160201944410801,0.011772092431783676,-0.8947025537490845,-0.017611898481845856,0.0,0.0,0.0,0.017962343990802765,-0.07242879271507263,-0.0,0.0,0.0,0.0,0.004999999888241291,-0.004999999888241291,6.275292321333836e-07,16413.0,16470.0,16525.0,16467.0,0.6140794157981873,0.6185914874076843,0.6229352355003357,0.6183564066886902,0.0,0.0,0.0,0.0,16413.0,16470.0,16525.0,16467.0,2.741243362426758,-0.09463728181824466,-0.3595129877973059,0.11512958711359886,0.4779262840747833,0.09125921130180359,0.0
398,5,-0.01140118669718504,0.00818958505988121,-0.005248907022178173,-0.12120480090379715,0.006563897710293531,0.008002026937901974,-0.014214403927326202,0.25772717595100403,-0.0031349449418485165,0.013777188025414944,-1.064732313156128,-0.012249395251274109,0.0,0.0,0.0,0.017962343990802765,-0.07242879271507263,-0.0,0.0,0.0,0.0,0.004999999888241291,-0.004999999888241291,3.585884371659631e-07,16889.0,16944.0,16998.0,16942.0,0.6520671844482422,0.656582236289978,0.6609230041503906,0.6563471555709839,0.0,0.0,0.0,0.0,16796.0,16852.0,16906.0,16849.0,2.741243362426758,-0.10227491770724202,-0.3672349405070138,0.11302931192899342,0.4779262840747833,0.09125921130180359,0.0
403,5,-0.012015721760690212,0.00815858505666256,-0.005208706483244896,-0.12222616374492645,0.006345641333609819,-0.0016232782509177923,-0.014214403927326202,0.25772717595100403,-0.0031349449418485165,0.013777188025414944,-1.064732313156128,-0.012249395251274109,0.0,0.0,0.0,0.003970382735133171,-0.07684027403593063,-0.0,0.0,0.0,0.0,0.004999999888241291,-0.004999999888241291,3.585884371659631e-07,16889.0,16944.0,16998.0,16942.0,0.6520671844482422,0.656582236289978,0.6609230041503906,0.6563471555709839,0.0,0.0,0.0,0.0,16796.0,16852.0,16906.0,16849.0,2.798994541168213,-0.10371093055780814,-0.37173869431997625,0.1116615499595742,0.5177403092384338,0.020598752424120903,0.0
408,5,-0.012746108695864677,0.008255871944129467,-0.005018596071749926,-0.1365368813276291,-0.009136199951171875,-0.0234625656157732,-0.01410652045160532,0.26616549491882324,-0.003322036936879158,0.004819077905267477,-1.154848337173462,-0.03553134948015213,0.0,0.0,0.0,0.003970382735133171,-0.07684027403593063,-0.0,0.0,0.0,0.0,0.004999999888241291,-0.004999999888241291,5.248824663794949e-07,17241.0,17296.0,17348.0,17293.0,0.6808966994285583,0.6854146122932434,0.6897525191307068,0.6851795315742493,0.0,0.0,0.0,0.0,16889.0,16944.0,16998.0,16942.0,2.798994541168213,-0.09704627845308225,-0.3788260912742672,0.11407636474790815,0.5177403092384338,0.020598752424120903,0.0
413,5,-0.020902320742607117,-0.0046800351701676846,0.0010255262022837996,-0.1365368813276291,-0.009136199951171875,-0.0234625656157732,-0.01410652045160532,0.26616549491882324,-0.003322036936879158,0.004819077905267477,-1.154848337173462,-0.03553134948015213,0.0,0.0,0.0,0.014752456918358803,-0.08288516849279404,-0.0,0.0,0.0,0.0,0.004999999888241291,-0.004999999888241291,5.248824663794949e-07,17241.0,17296.0,17348.0,17293.0,0.6808966994285583,0.6854146122932434,0.6897525191307068,0.6851795315742493,0.0,0.0,0.0,0.0,16889.0,16944.0,16998.0,16942.0,2.9211156368255615,-0.3175414629399457,-0.41287341050120907,-1.5853335702500952,0.5826836824417114,0.07987172156572342,0.0
418,5,-0.02162032760679722,-0.004728368483483791,0.0008455997449345887,-0.14077548682689667,0.0021455283276736736,0.012206153944134712,-0.014003241434693336,0.27985939383506775,-0.0034329243935644627,0.00804962869733572,-1.2282353639602661,-0.030821898952126503,0.0,0.0,0.0,0.014752456918358803,-0.08288516849279404,-0.0,0.0,0.0,0.0,0.004999999888241291,-0.004999999888241291,7.601315701322164e-07,17415.0,17468.0,17520.0,17466.0,0.6953407526016235,0.6998461484909058,0.704196572303772,0.6996110677719116,0.0,0.0,0.0,0.0,17241.0,17296.0,17348.0,17293.0,2.9211156368255615,-0.3116778241476753,-0.41842415959506685,-1.5848949292651704,0.5826836824417114,0.07987172156572342,0.0
423,5,-0.022389698773622513,-0.004781733267009258,0.0008631982491351664,-0.14863477647304535,0.007262014783918858,0.0027706436812877655,-0.014003241434693336,0.27985939383506775,-0.0034329243935644627,0.00804962869733572,-1.2282353639602661,-0.030821898952126503,0.0,0.0,0.0,-0.006052106153219938,-0.08912231773138046,-0.0,0.0,0.0,0.0,0.004999999888241291,-0.004999999888241291,7.601315701322164e-07,17415.0,17468.0,17520.0,17466.0,0.6953407526016235,0.6998461484909058,0.704196572303772,0.6996110677719116,0.0,0.0,0.0,0.0,17241.0,17296.0,17348.0,17293.0,3.0190229415893555,-0.31126873950485684,-0.4246051999068228,-1.584890327533002,0.647473156452179,-0.033866997808218,0.0
428,5,-0.02332448586821556,-0.004833117127418518,0.0007053895969875157,-0.17162847518920898,0.009070866741240025,0.020045289769768715,-0.013880057260394096,0.28965792059898376,-0.0036571063101291656,-0.012697158381342888,-1.333598256111145,-0.0538845956325531,0.0,0.0,0.0,-0.006052106153219938,-0.08912231773138046,-0.0,0.0,0.0,0.0,0.004999999888241291,-0.004999999888241291,7.094805596352671e-07,17414.0,17469.0,17520.0,17466.0,0.6953243017196655,0.6998625993728638,0.704180121421814,0.6996275186538696,0.0,0.0,0.0,0.0,17415.0,17469.0,17520.0,17466.0,3.0190229415893555,-0.3096794984225904,-0.42982378433170676,-1.5889831620426678,0.647473156452179,-0.033866997808218,0.0
433,5,-0.02436661161482334,-0.004857899621129036,0.0007921934011392295,-0.1937064379453659,0.006602250970900059,-0.002398338634520769,-0.013880057260394096,0.28965792059898376,-0.0036571063101291656,-0.012697158381342888,-1.333598256111145,-0.0538845956325531,0.0,0.0,0.0,-0.006052106153219938,-0.08912231773138046,-0.0,0.0,0.0,0.0,0.004999999888241291,-0.004999999888241291,7.094805596352671e-07,17414.0,17469.0,17520.0,17466.0,0.6953243017196655,0.6998625993728638,0.704180121421814,0.6996275186538696,0.0,0.0,0.0,0.0,17415.0,17469.0,17520.0,17466.0,3.0190229415893555,-0.316225616170043,-0.4351170088986695,-1.595204394433835,0.647473156452179,-0.033866997808218,0.0
438,5,-0.025396324694156647,-0.0048850905150175095,0.0007618718082085252,-0.20104806125164032,0.0059037827886641026,0.0026792583521455526,-0.014675880782306194,0.30569010972976685,-0.004258352797478437,-0.19711662828922272,-1.446806788444519,-0.08466197550296783,0.0,0.0,0.0,-0.008349556475877762,-0.10800465196371078,-0.0,0.0,0.0,0.0,0.004999999888241291,-0.004999999888241291,-2.0392005808389513e-06,17774.0,17831.0,17877.0,17828.0,0.7256935834884644,0.7305538654327393,0.7345494031906128,0.7303187847137451,0.0,0.0,0.0,0.0,17775.0,17829.0,17879.0,17827.0,3.315526008605957,-0.31885053669425806,-0.4400277337523551,-1.5995177166077361,0.86116623878479,-0.05131155997514725,0.0
444,5,-0.02634594775736332,-0.004905886948108673,0.0006500273593701422,-0.19437409937381744,0.00485706701874733,0.014493033289909363,-0.014675880782306194,0.30569010972976685,-0.004258352797478437,-0.19711662828922272,-1.446806788444519,-0.08466197550296783,0.0,0.0,0.0,-0.008349556475877762,-0.10800465196371078,-0.0,0.0,0.0,0.0,0.004999999888241291,-0.004999999888241291,-2.0392005808389513e-06,17774.0,17831.0,17877.0,17828.0,0.7256935834884644,0.7305538654327393,0.7345494031906128,0.7303187847137451,0.0,0.0,0.0,0.0,17775.0,17829.0,17879.0,17827.0,3.315526008605957,-0.31714472112988384,-0.44678273616333486,-1.5998101103342839,0.86116623878479,-0.05131155997514725,0.0
449,5,-0.02756071276962757,-0.0053086853586137295,0.00020442863751668483,-0.22352133691310883,0.0502786785364151,0.05926905944943428,-0.01979370228946209,0.3174498677253723,-0.004672503098845482,-0.9406772255897522,-1.5898393392562866,-0.050646476447582245,0.0,0.0,0.0,-0.007296633441001177,-0.10919075459241867,-0.0,0.0,0.0,0.0,0.004999999888241291,-0.004999999888241291,-3.747102164197713e-05,18040.0,18132.0,18142.0,18129.0,0.7486271858215332,0.7565739154815674,0.7574830055236816,0.7563388347625732,0.0,0.0,0.0,0.0,18052.0,18120.0,18154.0,18117.0,3.331019878387451,-0.3357111601162482,-0.4199342626904573,-1.6117858482907248,0.8746616840362549,-0.04505067318677902,0.0
454,5,-0.028690440580248833,-0.005294797010719776,0.0002415492490399629,-0.22497592866420746,0.01844487339258194,0.01925315149128437,-0.01979370228946209,0.3174498677253723,-0.004672503098845482,-0.9406772255897522,-1.5898393392562866,-0.050646476447582245,0.0,0.0,0.0,-0.007296633441001177,-0.10919075459241867,-0.0,0.0,0.0,0.0,0.004999999888241291,-0.004999999888241291,-3.747102164197713e-05,18040.0,18132.0,18142.0,18129.0,0.7486271858215332,0.7565739154815674,0.7574830055236816,0.7563388347625732,0.0,0.0,0.0,0.0,18052.0,18120.0,18154.0,18117.0,3.331019878387451,-0.3386042027717717,-0.4265518102069912,-1.615348474903723,0.8746616840362549,-0.04505067318677902,0.0
459,5,-0.029883401468396187,-0.00527837174013257,0.000495525193400681,-0.23314553499221802,0.005406916607171297,-0.02277585305273533,-0.03281078860163689,0.336880087852478,-0.005391224753111601,-1.2130017280578613,-1.7681834697723389,-0.11931948363780975,0.0,0.0,0.0,-0.01526558306068182,-0.12020772695541382,-0.0,0.0,0.0,0.0,0.004999999888241291,-0.004999999888241291,-6.668377318419516e-05,18864.0,18972.0,18962.0,18970.0,0.8218223452568054,0.831630289554596,0.8306781649589539,0.8313952088356018,0.0,0.0,0.0,0.0,18870.0,18967.0,18967.0,18964.0,3.4694924354553223,-0.3466710749499241,-0.4330614188002801,-1.620667718680527,1.0024280548095703,-0.0981651321053505,0.0
464,5,-0.031164441257715225,-0.005228223279118538,0.0008434929768554866,-0.2469830960035324,-0.003855048445984721,-0.05086647719144821,-0.03281078860163689,0.336880087852478,-0.005391224753111601,-1.2130017280578613,-1.7681834697723389,-0.11931948363780975,0.0,0.0,0.0,-0.01526558306068182,-0.12020772695541382,-0.0,0.0,0.0,0.0,0.004999999888241291,-0.004999999888241291,-6.668377318419516e-05,18864.0,18972.0,18962.0,18970.0,0.8218223452568054,0.831630289554596,0.8306781649589539,0.8313952088356018,0.0,0.0,0.0,0.0,18870.0,18967.0,18967.0,18964.0,3.4694924354553223,-0.3556826044223908,-0.4379305833702359,-1.627676327290037,1.0024280548095703,-0.0981651321053505,0.0
469,5,-0.03253445401787758,-0.005111376289278269,0.001043420284986496,-0.26319482922554016,-0.015563691034913063,-0.04433787241578102,-0.0425749272108078,0.35105037689208984,-0.006416423711925745,-1.3031771183013916,-1.9266685247421265,-0.202474907040596,0.0,0.0,0.0,-0.00215870956890285,-0.12888045608997345,-0.0,0.0,0.0,0.0,0.004999999888241291,-0.004999999888241291,-8.22850051918067e-05,18902.0,19020.0,18999.0,19017.0,0.8251979947090149,0.8360015749931335,0.8340538144111633,0.8357664942741394,0.0,0.0,0.0,0.0,18904.0,19018.0,19001.0,19015.0,3.5476338863372803,-0.3626587902272971,-0.445554141894748,-1.6339560707749075,1.0986865758895874,-0.014195181429386139,0.0
474,5,-0.033889684826135635,-0.005059857852756977,0.0012675462057814002,-0.26790565252304077,-0.01240769773721695,-0.0446302592754364,-0.0425749272108078,0.35105037689208984,-0.006416423711925745,-1.3031771183013916,-1.9266685247421265,-0.202474907040596,0.0,0.0,0.0,-0.00215870956890285,-0.12888045608997345,-0.0,0.0,0.0,0.0,0.004999999888241291,-0.004999999888241291,-8.22850051918067e-05,18902.0,19020.0,18999.0,19017.0,0.8251979947090149,0.8360015749931335,0.8340538144111633,0.8357664942741394,0.0,0.0,0.0,0.0,18904.0,19018.0,19001.0,19015.0,3.5476338863372803,-0.3667826707518792,-0.45301627665268834,-1.6373573284217129,1.0986865758895874,-0.014195181429386139,0.0
479,5,-0.035330720245838165,-0.0049245040863752365,0.001585521618835628,-0.280086487531662,-0.02120552584528923,-0.056009143590927124,-0.05812685564160347,0.37405675649642944,-0.007907477207481861,-1.3949826955795288,-2.063962697982788,-0.23048457503318787,0.0,0.0,0.0,0.0028051959816366434,-0.13740332424640656,-0.0,0.0,0.0,0.0,0.004999999888241291,-0.004999999888241291,-9.255745681002736e-05,19273.0,19399.0,19368.0,19396.0,0.8593363165855408,0.8710995316505432,0.8681921362876892,0.8708644509315491,0.0,0.0,0.0,0.0,19479.0,19609.0,19573.0,19607.0,3.612391233444214,-0.37441372100400083,-0.4596647860737097,-1.6427789997184095,1.1922705173492432,0.018783023580908775,0.0
484,5,-0.03679805248975754,-0.004806698765605688,0.0018399532418698072,-0.28811439871788025,-0.022618841379880905,-0.05293545499444008,-0.05812685564160347,0.37405675649642944,-0.007907477207481861,-1.3949826955795288,-2.063962697982788,-0.23048457503318787,0.0,0.0,0.0,0.0028051959816366434,-0.13740332424640656,-0.0,0.0,0.0,0.0,0.004999999888241291,-0.004999999888241291,-9.255745681002736e-05,19273.0,19399.0,19368.0,19396.0,0.8593363165855408,0.8710995316505432,0.8681921362876892,0.8708644509315491,0.0,0.0,0.0,0.0,19479.0,19609.0,19573.0,19607.0,3.612391233444214,-0.3811728966904016,-0.4604509084053389,-1.6494696577811696,1.1922705173492432,0.018783023580908775,0.0
489,5,-0.03825405240058899,-0.004892786964774132,0.0015641850186511874,-0.2899657189846039,0.0012830562191084027,0.011918002739548683,-0.05812685564160347,0.37405675649642944,-0.007907477207481861,-1.3949826955795288,-2.063962697982788,-0.23048457503318787,0.0,0.0,0.0,0.008612161502242088,-0.14607737958431244,-0.0,0.0,0.0,0.0,0.004999999888241291,-0.004999999888241291,-9.255745681002736e-05,19273.0,19399.0,19368.0,19396.0,0.8593363165855408,0.8710995316505432,0.8681921362876892,0.8708644509315491,0.0,0.0,0.0,0.0,19479.0,19609.0,19573.0,19607.0,3.661494493484497,-0.3752651755140866,-0.46936633297653685,-1.6511472925300181,1.2841966152191162,0.05844796076416969,0.0
494,5,-0.03981390222907066,-0.004853672813624144,0.0015238397754728794,-0.30316823720932007,-0.00418047932907939,0.009608625434339046,-0.06904921680688858,0.39070022106170654,-0.008929816074669361,-1.329710602760315,-2.247380495071411,-0.22080187499523163,0.0,0.0,0.0,0.008612161502242088,-0.14607737958431244,-0.0,0.0,0.0,0.0,0.004999999888241291,-0.004999999888241291,-0.0001089111901819706,19477.0,19611.0,19571.0,19608.0,0.8784480094909668,0.8910585641860962,0.8873038291931152,0.890823483467102,0.0,0.0,0.0,0.0,19655.0,19775.0,19748.0,19773.0,3.661494493484497,-0.3824326560699546,-0.4746155959852223,-1.6593833297642033,1.2841966152191162,0.05844796076416969,0.0
