timestamp,dt,pos_x,pos_y,pos_z,vel_x,vel_y,vel_z,roll,pitch,yaw,agv_x,agv_y,agv_z,x_ref,y_ref,z_ref,roll_ref,pitch_ref,yaw_ref,x_vel_ref,y_vel_ref,z_vel_ref,x_torque,y_torque,z_torque,w0,w1,w2,w3,u0,u1,u2,u3,m0req,m1req,m2req,m3req,thrust0,thrust1,thrust2,thrust3,thrust_ref,roll_vicon,pitch_vicon,yaw_vicon,acc_x,acc_y,acc_z
5,5,0.0,0.0,0.0,0.0005988628836348653,0.0029653473757207394,0.00019535802130121738,0.002213198458775878,0.2076931893825531,-0.032799508422613144,-0.0011287882225587964,0.008637760765850544,0.009701382368803024,0.0,0.0,0.0,-0.002867401111871004,0.00044544864795170724,-0.0,0.0,0.0,0.0,-0.06639571487903595,-3.7384777069091797,3.288507521848061e-10,1495.0,1495.0,1495.0,1495.0,0.0,0.0,0.0,0.0,0.0,0.0,0.0,0.0,1495.0,1495.0,1495.0,1495.0,2.0922372341156006,-0.11123273570811243,-0.22307574209355016,0.1385483246518089,-0.0022457358427345753,-0.011120053008198738,0.0
32,26,0.0,0.0,0.0,0.0016897768946364522,0.0025925436057150364,-0.0008188147912733257,0.002213198458775878,0.2076931893825531,-0.032799508422613144,-0.0011287882225587964,0.008637760765850544,0.009701382368803024,0.0,0.0,0.0,-0.002867401111871004,0.00044544864795170724,-0.0,0.0,0.0,0.0,-0.06639571487903595,-3.7384777069091797,3.288507521848061e-10,1495.0,1495.0,1495.0,1495.0,0.0,0.0,0.0,0.0,0.0,0.0,0.0,0.0,1495.0,1495.0,1495.0,1495.0,2.0922372341156006,-0.11118888519160836,-0.22228380876127968,0.13929426148024393,-0.0022457358427345753,-0.011120053008198738,0.0
37,5,0.0,0.0,0.0,0.0021606103982776403,0.0014093664940446615,-0.00045487520401366055,0.002213198458775878,0.2076931893825531,-0.032799508422613144,-0.0011287882225587964,0.008637760765850544,0.009701382368803024,0.0,0.0,0.0,-0.0025123762898147106,0.0012596367159858346,-0.0,0.0,0.0,0.0,-0.06639571487903595,-3.7384777069091797,3.288507521848061e-10,1495.0,1495.0,1495.0,1495.0,0.0,0.0,0.0,0.0,0.0,0.0,0.0,0.0,1495.0,1495.0,1495.0,1495.0,2.0876846313476562,-0.11135273213034289,-0.22277408800781168,0.1392687333844763,-0.006336663383990526,-0.009722038172185421,0.0
56,19,0.0,0.0,0.0,-0.0002168785285903141,-0.0010581202805042267,6.310516619123518e-05,0.0022642668336629868,0.20753829181194305,-0.032733675092458725,-0.004296992905437946,0.006779915653169155,0.0028123846277594566,0.0,0.0,0.0,-0.0013665989972651005,0.0016115754842758179,-0.0,0.0,0.0,0.0,-0.0677446573972702,-3.7366437911987305,3.4646366331436695e-10,1495.0,1495.0,1495.0,1495.0,0.0,0.0,0.0,0.0,0.0,0.0,0.0,0.0,1495.0,1495.0,1495.0,1495.0,2.086439609527588,-0.11108069714785773,-0.22224196776856786,0.13887355751625585,-0.008102289400994778,-0.00528512429445982,0.0
61,5,0.0,0.0,0.0,0.00039300398202612996,-0.003440168919041753,0.0017390927532687783,0.002320486819371581,0.2074795961380005,-0.032769061625003815,0.004225726239383221,-0.007631347049027681,-0.009930504485964775,0.0,0.0,0.0,0.0033347078133374453,0.0002930438204202801,-0.0,0.0,0.0,0.0,-0.07189276069402695,-3.733994483947754,8.489786651466602e-11,1495.0,1495.0,1495.0,1495.0,0.0,0.0,0.0,0.0,0.0,0.0,0.0,0.0,1495.0,1495.0,1495.0,1495.0,2.087114095687866,-0.11189222427287075,-0.2225509592593732,0.1387368382447839,-0.0014737648889422417,0.012900633737444878,0.0
66,5,-3.5862435652234126e-06,2.313161758138449e-06,-3.480857776594348e-05,-0.00027314762701280415,-0.0016536469338461757,0.004872666206210852,0.002320486819371581,0.2074795961380005,-0.032769061625003815,0.004225726239383221,-0.007631347049027681,-0.009930504485964775,0.0,0.0,0.0,0.0033347078133374453,0.0002930438204202801,-0.0,0.0,0.0,0.0,-0.07189276069402695,-3.733994483947754,8.489786651466602e-11,1495.0,1495.0,1495.0,1495.0,0.0,0.0,0.0,0.0,0.0,0.0,0.0,0.0,1495.0,1495.0,1495.0,1495.0,2.087114095687866,-0.11096359707757154,-0.2224091269855809,0.138613456072362,-0.0014737648889422417,0.012900633737444878,0.0
71,5,1.6734123846617877e-06,2.8585822292370722e-05,-1.3303341802384239e-05,0.0005218996666371822,-0.003814178053289652,-0.0006315617356449366,0.002320486819371581,0.2074795961380005,-0.032769061625003815,0.004225726239383221,-0.007631347049027681,-0.009930504485964775,0.0,0.0,0.0,0.0033347078133374453,0.0002930438204202801,-0.0,0.0,0.0,0.0,-0.07189276069402695,-3.733994483947754,8.489786651466602e-11,1495.0,1495.0,1495.0,1495.0,0.0,0.0,0.0,0.0,0.0,0.0,0.0,0.0,1495.0,1495.0,1495.0,1495.0,2.087114095687866,-0.11086481493838202,-0.22231422258098596,0.13857079367903408,-0.0014737648889422417,0.012900633737444878,0.0
76,5,-3.6036083201906877e-06,1.4142284271656536e-05,-1.4323217328637838e-05,-0.00042448259773664176,0.00020755332661792636,-0.00013023964129388332,0.002424366306513548,0.20743031799793243,-0.03289744257926941,0.0031783995218575,-0.004743640776723623,-0.0023731826804578304,0.0,0.0,0.0,0.0037379192654043436,0.0003909864171873778,-0.0,0.0,0.0,0.0,-0.07383564859628677,-3.7330708503723145,-1.5462735258875426e-12,1495.0,1495.0,1495.0,1495.0,0.0,0.0,0.0,0.0,0.0,0.0,0.0,0.0,1495.0,1495.0,1495.0,1495.0,2.0871169567108154,-0.11118132763174059,-0.2225081515486634,0.13862640407586924,-0.001966334180906415,0.014460504055023193,0.0
81,5,4.544245257420698e-06,5.595758921117522e-06,-2.0260060409782454e-05,0.0008079493418335915,0.001108604366891086,0.000660325400531292,0.002424366306513548,0.20743031799793243,-0.03289744257926941,0.0031783995218575,-0.004743640776723623,-0.0023731826804578304,0.0,0.0,0.0,0.0037379192654043436,0.0003909864171873778,-0.0,0.0,0.0,0.0,-0.07383564859628677,-3.7330708503723145,-1.5462735258875426e-12,1495.0,1495.0,1495.0,1495.0,0.0,0.0,0.0,0.0,0.0,0.0,0.0,0.0,1495.0,1495.0,1495.0,1495.0,2.0871169567108154,-0.11158569337722872,-0.22248412713760418,0.13854993448796948,-0.001966334180906415,0.014460504055023193,0.0
86,5,5.801789029646898e-06,3.1424799090018496e-05,8.717011041881051e-06,0.0004740850126836449,-0.002656043041497469,-0.003213118528947234,0.002441423712298274,0.20735029876232147,-0.03304091840982437,-0.0013222771231085062,0.003504604334011674,-0.005189449526369572,0.0,0.0,0.0,-0.0010653948411345482,0.0006067192298360169,-0.0,0.0,0.0,0.0,-0.0738120973110199,-3.7326998710632324,-1.255800463617618e-10,1495.0,1495.0,1495.0,1495.0,0.0,0.0,0.0,0.0,0.0,0.0,0.0,0.0,1495.0,1495.0,1495.0,1495.0,2.089524030685425,-0.11182906949413464,-0.22287847977284658,0.13880707883176535,-0.0030548281501978636,-0.0041263531893491745,0.0
91,5,-1.9934213923988864e-06,2.148897146980744e-05,5.378998594096629e-06,-0.0007457912433892488,0.00012988191156182438,-0.0008846858399920166,0.002441423712298274,0.20735029876232147,-0.03304091840982437,-0.0013222771231085062,0.003504604334011674,-0.005189449526369572,0.0,0.0,0.0,-0.0010653948411345482,0.0006067192298360169,-0.0,0.0,0.0,0.0,-0.0738120973110199,-3.7326998710632324,-1.255800463617618e-10,1495.0,1495.0,1495.0,1495.0,0.0,0.0,0.0,0.0,0.0,0.0,0.0,0.0,1495.0,1495.0,1495.0,1495.0,2.089524030685425,-0.11171493277003568,-0.22275702606227615,0.13870435675927015,-0.0030548281501978636,-0.0041263531893491745,0.0
97,5,-6.293057595030405e-06,9.079182746063452e-06,2.3821280592528637e-06,-0.0008142728474922478,0.001541127567179501,5.750114269176265e-06,0.002393504837527871,0.20720164477825165,-0.033092644065618515,-0.000553375983145088,0.009240183979272842,-0.004743379075080156,0.0,0.0,0.0,-9.505861817160621e-05,-0.0005569096538238227,-0.0,0.0,0.0,0.0,-0.07084428519010544,-3.7272655963897705,-8.774851505133352e-12,1495.0,1495.0,1495.0,1495.0,0.0,0.0,0.0,0.0,0.0,0.0,0.0,0.0,1495.0,1495.0,1495.0,1495.0,2.0922255516052246,-0.1115767872929414,-0.22243627823849405,0.1387639007159306,0.0028076639864593744,-0.00036864515277557075,0.0
102,5,-1.2117948244849686e-05,1.4517524505208712e-05,1.1404913493606728e-05,-0.00102469592820853,-3.615003151935525e-05,-0.0010804341873154044,0.002393504837527871,0.20720164477825165,-0.033092644065618515,-0.000553375983145088,0.009240183979272842,-0.004743379075080156,0.0,0.0,0.0,-9.505861817160621e-05,-0.0005569096538238227,-0.0,0.0,0.0,0.0,-0.07084428519010544,-3.7272655963897705,-8.774851505133352e-12,1495.0,1495.0,1495.0,1495.0,0.0,0.0,0.0,0.0,0.0,0.0,0.0,0.0,1495.0,1495.0,1495.0,1495.0,2.0922255516052246,-0.11169603280278967,-0.22254891443831593,0.13883598568172742,0.0028076639864593744,-0.00036864515277557075,0.0
107,5,-1.819919270928949e-05,2.465342367941048e-05,-1.5386392988148145e-05,-0.0011396277695894241,-0.0012307678116485476,0.0027827832382172346,0.002347461646422744,0.20704421401023865,-0.0330800898373127,0.0009268794092349708,-0.004099482204765081,0.006109321024268866,0.0,0.0,0.0,5.559174678637646e-05,-0.0007750600925646722,-0.0,0.0,0.0,0.0,-0.07063484936952591,-3.7274866104125977,1.530074400513115e-09,1495.0,1495.0,1495.0,1495.0,0.0,0.0,0.0,0.0,0.0,0.0,0.0,0.0,1495.0,1495.0,1495.0,1495.0,2.0931994915008545,-0.11127788553078542,-0.22245398251478174,0.13870824628493092,0.003909289836883545,0.00021568975353147835,0.0
112,5,-1.828873973863665e-05,3.542328340699896e-05,-2.1619100152747706e-05,-0.00046659662621095777,-0.0017846905393525958,0.0018610380357131362,0.002347461646422744,0.20704421401023865,-0.0330800898373127,0.0009268794092349708,-0.004099482204765081,0.006109321024268866,0.0,0.0,0.0,5.559174678637646e-05,-0.0007750600925646722,-0.0,0.0,0.0,0.0,-0.07063484936952591,-3.7274866104125977,1.530074400513115e-09,1495.0,1495.0,1495.0,1495.0,0.0,0.0,0.0,0.0,0.0,0.0,0.0,0.0,1495.0,1495.0,1495.0,1495.0,2.0931994915008545,-0.11197456150386369,-0.2223053078454621,0.13852614954697998,0.003909289836883545,0.00021568975353147835,0.0
117,5,-2.4805944121908396e-05,1.896660978673026e-05,-2.9817076210747473e-05,-0.0009687033016234636,0.0012609247351065278,0.001728172181174159,0.0023544910363852978,0.2070825845003128,-0.033027198165655136,0.0014966336311772466,-0.02492273412644863,0.0072169522754848,0.0,0.0,0.0,0.001775467535480857,-0.0003669097786769271,-0.0,0.0,0.0,0.0,-0.07086876779794693,-3.7306699752807617,3.180224528165354e-09,1495.0,1495.0,1495.0,1495.0,0.0,0.0,0.0,0.0,0.0,0.0,0.0,0.0,1495.0,1495.0,1495.0,1495.0,2.092966079711914,-0.11161625627996355,-0.2225281978544892,0.13862908140062466,0.001850430155172944,0.006887840107083321,0.0
122,5,-3.277623181929812e-05,8.898897249309812e-06,-1.8147860828321427e-05,-0.0013439158210530877,0.0017124954611063004,-0.0007090368890203536,0.0023544910363852978,0.2070825845003128,-0.033027198165655136,0.0014966336311772466,-0.02492273412644863,0.0072169522754848,0.0,0.0,0.0,0.001775467535480857,-0.0003669097786769271,-0.0,0.0,0.0,0.0,-0.07086876779794693,-3.7306699752807617,3.180224528165354e-09,1495.0,1495.0,1495.0,1495.0,0.0,0.0,0.0,0.0,0.0,0.0,0.0,0.0,1495.0,1495.0,1495.0,1495.0,2.092966079711914,-0.1110594211232078,-0.22311580519035065,0.13867797958387684,0.001850430155172944,0.006887840107083321,0.0
127,5,-3.640404247562401e-05,9.134865649684798e-06,-1.4061002730159089e-05,-0.0009729035082273185,0.0006566820084117353,-0.0007740376750007272,0.0023655551485717297,0.20733459293842316,-0.032934002578258514,0.000821845605969429,-0.021303217858076096,0.0030997416470199823,0.0,0.0,0.0,-0.0016433990094810724,-0.0010355698177590966,-0.0,0.0,0.0,0.0,-0.07043153047561646,-3.7334165573120117,-4.173303196075562e-12,1495.0,1495.0,1495.0,1495.0,0.0,0.0,0.0,0.0,0.0,0.0,0.0,0.0,1495.0,1495.0,1495.0,1495.0,2.091970682144165,-0.11041372732046609,-0.22323699044663972,0.1389618793997178,0.0052201892249286175,-0.006372455973178148,0.0
132,5,-3.28852329403162e-05,3.4420236261212267e-06,-9.417522051080596e-06,3.309558451292105e-05,0.0009458137792535126,-0.0008668327936902642,0.0023655551485717297,0.20733459293842316,-0.032934002578258514,0.000821845605969429,-0.021303217858076096,0.0030997416470199823,0.0,0.0,0.0,-0.0016433990094810724,-0.0010355698177590966,-0.0,0.0,0.0,0.0,-0.07043153047561646,-3.7334165573120117,-4.173303196075562e-12,1495.0,1495.0,1495.0,1495.0,0.0,0.0,0.0,0.0,0.0,0.0,0.0,0.0,1495.0,1495.0,1495.0,1495.0,2.091970682144165,-0.1109498006930504,-0.2229309878070099,0.13900236043961517,0.0052201892249286175,-0.006372455973178148,0.0
137,5,-3.408692282391712e-05,7.756705599604174e-06,-4.9245049922319595e-06,-0.00013096470502205193,-0.00013943634985480458,-0.0008858951041474938,0.0023655551485717297,0.20733459293842316,-0.032934002578258514,0.000821845605969429,-0.021303217858076096,0.0030997416470199823,0.0,0.0,0.0,-0.0009104491909965873,-1.1342393918312155e-05,-0.0,0.0,0.0,0.0,-0.07043153047561646,-3.7334165573120117,-4.173303196075562e-12,1495.0,1495.0,1495.0,1495.0,0.0,0.0,0.0,0.0,0.0,0.0,0.0,0.0,1495.0,1495.0,1495.0,1495.0,2.090212345123291,-0.1111255547293719,-0.22263048982616374,0.13898672716709237,5.712771599064581e-05,-0.0035273986868560314,0.0
142,5,-3.6362831451697275e-05,7.833948075131048e-06,-1.3006672816118225e-05,-0.00032549462048336864,-6.504361954284832e-05,0.0006155020673759282,0.0023583676666021347,0.20736081898212433,-0.032898761332035065,-0.0006860579014755785,0.0013571056770160794,-0.0009253831813111901,0.0,0.0,0.0,-0.0009104491909965873,-1.1342393918312155e-05,-0.0,0.0,0.0,0.0,-0.07081764936447144,-3.732783555984497,7.868887486051079e-11,1495.0,1495.0,1495.0,1495.0,0.0,0.0,0.0,0.0,0.0,0.0,0.0,0.0,1495.0,1495.0,1495.0,1495.0,2.090212345123291,-0.11160955304023057,-0.22213198077396917,0.13881018262060107,5.712771599064581e-05,-0.0035273986868560314,0.0
147,5,-3.939417365472764e-05,1.2533030712802429e-05,-1.7930043441083399e-06,-0.0004939588834531605,-0.0005899073439650238,-0.001099439337849617,0.0023583676666021347,0.20736081898212433,-0.032898761332035065,-0.0006860579014755785,0.0013571056770160794,-0.0009253831813111901,0.0,0.0,0.0,-0.0009104491909965873,-1.1342393918312155e-05,-0.0,0.0,0.0,0.0,-0.07081764936447144,-3.732783555984497,7.868887486051079e-11,1495.0,1495.0,1495.0,1495.0,0.0,0.0,0.0,0.0,0.0,0.0,0.0,0.0,1495.0,1495.0,1495.0,1495.0,2.090212345123291,-0.11172598782446318,-0.2226641878632998,0.1389861370466583,5.712771599064581e-05,-0.0035273986868560314,0.0
152,5,-3.0894418159732595e-05,-3.185685727657983e-06,-1.059792521118652e-05,0.0008223868208006024,0.0016502829967066646,0.0006168147665448487,0.002363772364333272,0.20732837915420532,-0.03292585164308548,-0.001128442119807005,-0.003111561294645071,-0.0035969677846878767,0.0,0.0,0.0,0.0005890875472687185,-0.00041102609247900546,-0.0,0.0,0.0,0.0,-0.07091314345598221,-3.7319107055664062,-1.146411507391143e-10,1495.0,1495.0,1495.0,1495.0,0.0,0.0,0.0,0.0,0.0,0.0,0.0,0.0,1495.0,1495.0,1495.0,1495.0,2.089547872543335,-0.11138123524991131,-0.222483285651094,0.13877715071687663,0.0020695386920124292,0.0022816061973571777,0.0
157,5,-3.23693202517461e-05,7.776833626849111e-06,2.3314223653869703e-05,0.00015196653839666396,-0.0006553890998475254,-0.0038227320183068514,0.002363772364333272,0.20732837915420532,-0.03292585164308548,-0.001128442119807005,-0.003111561294645071,-0.0035969677846878767,0.0,0.0,0.0,0.0005890875472687185,-0.00041102609247900546,-0.0,0.0,0.0,0.0,-0.07091314345598221,-3.7319107055664062,-1.146411507391143e-10,1495.0,1495.0,1495.0,1495.0,0.0,0.0,0.0,0.0,0.0,0.0,0.0,0.0,1495.0,1495.0,1495.0,1495.0,2.089547872543335,-0.1112221476059223,-0.22209182812450567,0.1386301850992092,-0.0003911888343282044,0.0025010346435010433,0.0
162,5,-4.184253339190036e-05,3.3567841910553398e-06,1.1117133908555843e-05,-0.0010759986471384764,0.00026825026725418866,-6.544195639435202e-05,0.002345133339986205,0.20728836953639984,-0.03292616084218025,0.0014457427896559238,-0.010205269791185856,0.0031127585098147392,0.0,0.0,0.0,0.0006455840775743127,7.767409988446161e-05,-0.0,0.0,0.0,0.0,-0.07062674313783646,-3.731210231781006,-7.536990996592774e-12,1495.0,1495.0,1495.0,1495.0,0.0,0.0,0.0,0.0,0.0,0.0,0.0,0.0,1495.0,1495.0,1495.0,1495.0,2.0900583267211914,-0.11142663448037182,-0.22274485336260388,0.1388280431900637,-0.0003911888343282044,0.0025010346435010433,0.0
168,5,-5.4722640925319865e-05,-2.079322985082399e-05,-1.3924662198405713e-05,-0.0014178322162479162,0.0019473321735858917,0.001153552089817822,0.002345133339986205,0.20728836953639984,-0.03292616084218025,0.0014457427896559238,-0.010205269791185856,0.0031127585098147392,0.0,0.0,0.0,0.0006455840775743127,7.767409988446161e-05,-0.0,0.0,0.0,0.0,-0.07062674313783646,-3.731210231781006,-7.536990996592774e-12,1495.0,1495.0,1495.0,1495.0,0.0,0.0,0.0,0.0,0.0,0.0,0.0,0.0,1495.0,1495.0,1495.0,1495.0,2.0900583267211914,-0.11092469162192979,-0.22290354488260625,0.1389423859407176,-0.0003911888343282044,0.0025010346435010433,0.0
173,5,-5.885996142751537e-05,-1.905734279716853e-05,1.3574805279858992e-06,-0.0010636114748194814,0.0005706262891180813,-0.0013724362943321466,0.0023363870568573475,0.2073499709367752,-0.03282899782061577,0.0025040782056748867,-0.018461396917700768,0.013577870093286037,0.0,0.0,0.0,-0.0019143609097227454,-0.0011156441178172827,-0.0,0.0,0.0,0.0,-0.07009228318929672,-3.732299566268921,2.8973419219369134e-09,1495.0,1495.0,1495.0,1495.0,0.0,0.0,0.0,0.0,0.0,0.0,0.0,0.0,1495.0,1495.0,1495.0,1495.0,2.090068817138672,-0.11138582025386251,-0.22312661272796486,0.13903148547257466,0.0056187184527516365,-0.007416388485580683,0.0
178,5,-6.745493737980723e-05,-3.635520988609642e-05,-1.389237331750337e-05,-0.0014568419428542256,0.0023039947263896465,0.0012810078915208578,0.0023363870568573475,0.2073499709367752,-0.03282899782061577,0.0025040782056748867,-0.018461396917700768,0.013577870093286037,0.0,0.0,0.0,-0.0019143609097227454,-0.0011156441178172827,-0.0,0.0,0.0,0.0,-0.07009228318929672,-3.732299566268921,2.8973419219369134e-09,1495.0,1495.0,1495.0,1495.0,0.0,0.0,0.0,0.0,0.0,0.0,0.0,0.0,1495.0,1495.0,1495.0,1495.0,2.090068817138672,-0.11200206490776399,-0.2222615776246119,0.1388809490645505,0.0056187184527516365,-0.007416388485580683,0.0
183,5,-8.285223884740844e-05,-6.035286787664518e-05,-3.08760572806932e-05,-0.0024304126854985952,0.0038013167213648558,0.002550445031374693,0.0022705174051225185,0.20755349099636078,-0.03263987973332405,0.002656199736520648,-0.03143317252397537,0.01765475422143936,0.0,0.0,0.0,-0.002283731009811163,-0.0011596647091209888,-0.0,0.0,0.0,0.0,-0.06879307329654694,-3.7342655658721924,9.216679086598845e-10,1495.0,1495.0,1495.0,1495.0,0.0,0.0,0.0,0.0,0.0,0.0,0.0,0.0,1495.0,1495.0,1495.0,1495.0,2.0882391929626465,-0.11154908327969151,-0.2226549677555221,0.1388837511644525,0.005835302639752626,-0.00883960910141468,0.0
188,5,-0.00010784749611048028,-8.891215111361817e-05,-1.7673322872724384e-05,-0.003971596248447895,0.0049476404674351215,-0.0005641499301418662,0.0022705174051225185,0.20755349099636078,-0.03263987973332405,0.002656199736520648,-0.03143317252397537,0.01765475422143936,0.0,0.0,0.0,-0.004928100388497114,-0.003083273069933057,-0.0,0.0,0.0,0.0,-0.06879307329654694,-3.7342655658721924,9.216679086598845e-10,1495.0,1495.0,1495.0,1495.0,0.0,0.0,0.0,0.0,0.0,0.0,0.0,0.0,1495.0,1495.0,1495.0,1495.0,2.084700345993042,-0.11014743217543375,-0.22279758132874805,0.13928876870521242,0.015488221310079098,-0.01904270052909851,0.0
193,5,-0.00011083170829806477,-9.691587183624506e-05,2.572172661530203e-06,-0.0019467438105493784,0.0029395034071058035,-0.002655119402334094,0.0022311704233288765,0.20774909853935242,-0.03252114728093147,-0.0037503312341868877,-0.0287285428494215,0.009577244520187378,0.0,0.0,0.0,-0.004928100388497114,-0.003083273069933057,-0.0,0.0,0.0,0.0,-0.0669359490275383,-3.7394840717315674,-2.5660609193067785e-09,1495.0,1495.0,1495.0,1495.0,0.0,0.0,0.0,0.0,0.0,0.0,0.0,0.0,1495.0,1495.0,1495.0,1495.0,2.084700345993042,-0.11074793625832642,-0.2235269367936204,0.13938562931808568,0.015488221310079098,-0.01904270052909851,0.0
199,6,-0.0001376934815198183,-0.00011974704102613032,-2.5991057555074804e-05,-0.004002111032605171,0.003915541339665651,0.002365540014579892,0.0022311704233288765,0.20774909853935242,-0.03252114728093147,-0.0037503312341868877,-0.0287285428494215,0.009577244520187378,0.0,0.0,0.0,-0.0039747715927660465,-0.003142219502478838,-0.0,0.0,0.0,0.0,-0.0669359490275383,-3.7394840717315674,-2.5660609193067785e-09,1495.0,1495.0,1495.0,1495.0,0.0,0.0,0.0,0.0,0.0,0.0,0.0,0.0,1495.0,1495.0,1495.0,1495.0,2.0824501514434814,-0.10986792117491025,-0.22407162101424655,0.1395547355627455,0.015767356380820274,-0.015342398546636105,0.0
204,5,-0.00014772861322853714,-9.966194920707494e-05,-1.3203592970967293e-05,-0.0028050588443875313,-0.0008439949015155435,-0.0005882798577658832,0.0022321739234030247,0.20799291133880615,-0.03241138905286789,-0.0009465598268434405,-0.027592124417424202,0.007331699598580599,0.0,0.0,0.0,-0.0039747715927660465,-0.003142219502478838,-0.0,0.0,0.0,0.0,-0.06673374027013779,-3.74236798286438,-1.6583299178307698e-09,1495.0,1495.0,1495.0,1495.0,0.0,0.0,0.0,0.0,0.0,0.0,0.0,0.0,1495.0,1495.0,1495.0,1495.0,2.0824501514434814,-0.10996762377718142,-0.2237619284125613,0.13933318067866035,0.015767356380820274,-0.015342398546636105,0.0
209,5,-0.00015148556849453598,-8.828802674543113e-05,-1.4035365893505514e-05,-0.0015728587750345469,-0.0017024681437760592,-0.0001354992127744481,0.0022321739234030247,0.20799291133880615,-0.03241138905286789,-0.0009465598268434405,-0.027592124417424202,0.007331699598580599,0.0,0.0,0.0,-0.0039747715927660465,-0.003142219502478838,-0.0,0.0,0.0,0.0,-0.06673374027013779,-3.74236798286438,-1.6583299178307698e-09,1495.0,1495.0,1495.0,1495.0,0.0,0.0,0.0,0.0,0.0,0.0,0.0,0.0,1495.0,1495.0,1495.0,1495.0,2.0803539752960205,-0.11073141870776763,-0.223856738371829,0.13911703970746864,0.006734122056514025,0.005897807888686657,0.0
214,5,-0.00016223257989622653,-7.275536336237565e-05,-2.935715383500792e-05,-0.0019187843427062035,-0.002544907620176673,0.0017844148678705096,0.002284117043018341,0.20815446972846985,-0.03243366628885269,-0.0036095506511628628,-0.023271096870303154,-0.007631785701960325,0.0,0.0,0.0,0.0015294847544282675,-0.0013433602871373296,-0.0,0.0,0.0,0.0,-0.06852304935455322,-3.7467803955078125,-6.043323619309149e-10,1495.0,1495.0,1495.0,1495.0,0.0,0.0,0.0,0.0,0.0,0.0,0.0,0.0,1495.0,1495.0,1495.0,1495.0,2.0803539752960205,-0.1108765625547124,-0.2246092714098826,0.13904357981487087,0.006734122056514025,0.005897807888686657,0.0
219,5,-0.0001659263070905581,-7.036217721179128e-05,-2.475479050190188e-05,-0.0012107619550079107,-0.0013051449786871672,0.00016148234135471284,0.002284117043018341,0.20815446972846985,-0.03243366628885269,-0.0036095506511628628,-0.023271096870303154,-0.007631785701960325,0.0,0.0,0.0,0.0011683505726978183,-0.0010882425121963024,-0.0,0.0,0.0,0.0,-0.06852304935455322,-3.7467803955078125,-6.043323619309149e-10,1495.0,1495.0,1495.0,1495.0,0.0,0.0,0.0,0.0,0.0,0.0,0.0,0.0,1495.0,1495.0,1495.0,1495.0,2.08077335357666,-0.1113028074518514,-0.22391990608690251,0.138630155845158,0.005456347018480301,0.004506156779825687,0.0
224,5,-0.00016229409084189683,-5.635019260807894e-05,-2.3024102119961753e-05,-4.843839633394964e-05,-0.0022034961730241776,-0.00014308960817288607,0.0023347889073193073,0.20833344757556915,-0.03263922035694122,-0.0020335898734629154,-0.00734674371778965,-0.024676870554685593,0.0,0.0,0.0,0.0011683505726978183,-0.0010882425121963024,-0.0,0.0,0.0,0.0,-0.06931435316801071,-3.749359369277954,-7.018306491524129e-10,1495.0,1495.0,1495.0,1495.0,0.0,0.0,0.0,0.0,0.0,0.0,0.0,0.0,1495.0,1495.0,1495.0,1495.0,2.08077335357666,-0.11137593937795082,-0.22347499145034738,0.13818884313605606,0.005456347018480301,0.004506156779825687,0.0
229,5,-0.0001655272935749963,-6.056649363017641e-05,-4.314980105846189e-05,-0.0004073601448908448,-0.00037544229417108,0.0023578477557748556,0.0023347889073193073,0.20833344757556915,-0.03263922035694122,-0.0020335898734629154,-0.00734674371778965,-0.024676870554685593,0.0,0.0,0.0,0.0011683505726978183,-0.0010882425121963024,-0.0,0.0,0.0,0.0,-0.06931435316801071,-3.749359369277954,-7.018306491524129e-10,1495.0,1495.0,1495.0,1495.0,0.0,0.0,0.0,0.0,0.0,0.0,0.0,0.0,1495.0,1495.0,1495.0,1495.0,2.08077335357666,-0.11118892143425003,-0.22335573051530158,0.13841420304432991,0.002442044671624899,0.0010734227253124118,0.0
234,5,-0.00014557107351720333,-6.171791028464213e-05,-5.8452664234209806e-05,0.0022318032570183277,-1.2007248187728692e-05,0.002779482863843441,0.0023733056150376797,0.20830991864204407,-0.03285027667880058,-0.0011256231227889657,0.021973831579089165,-0.028779633343219757,0.0,0.0,0.0,0.0002777976042125374,-0.0004861474153585732,-0.0,0.0,0.0,0.0,-0.07120011001825333,-3.7495784759521484,1.7079541947406796e-10,1495.0,1495.0,1495.0,1495.0,0.0,0.0,0.0,0.0,0.0,0.0,0.0,0.0,1495.0,1495.0,1495.0,1495.0,2.084652900695801,-0.11003608763256519,-0.22357593597076778,0.1384436736231292,0.002442044671624899,0.0010734227253124118,0.0
239,5,-0.0001363733026664704,-3.280775126768276e-05,-4.369484304334037e-05,0.001996452920138836,-0.0034740217961370945,-0.0006591455894522369,0.0023733056150376797,0.20830991864204407,-0.03285027667880058,-0.0011256231227889657,0.021973831579089165,-0.028779633343219757,0.0,0.0,0.0,-7.646746962564066e-05,0.0015029229689389467,-0.0,0.0,0.0,0.0,-0.07120011001825333,-3.7495784759521484,1.7079541947406796e-10,1495.0,1495.0,1495.0,1495.0,0.0,0.0,0.0,0.0,0.0,0.0,0.0,0.0,1495.0,1495.0,1495.0,1495.0,2.0886359214782715,-0.11032720209640846,-0.22336539412293874,0.13859424113137103,-0.0075639947317540646,-0.00029603837174363434,0.0
244,5,-0.00013176797074265778,-2.3349903131020255e-05,-5.539764606510289e-05,0.0013512206496670842,-0.0025245503056794405,0.0011406783014535904,0.0024406611919403076,0.2079283893108368,-0.033180348575115204,-0.00022768085182178766,0.03604559972882271,-0.02262166142463684,0.0,0.0,0.0,-7.646746962564066e-05,0.0015029229689389467,-0.0,0.0,0.0,0.0,-0.07425761967897415,-3.73628568649292,-9.186963967344752e-10,1495.0,1495.0,1495.0,1495.0,0.0,0.0,0.0,0.0,0.0,0.0,0.0,0.0,1495.0,1495.0,1495.0,1495.0,2.0886359214782715,-0.10992526894534443,-0.22364134183666484,0.13856380198845913,-0.0075639947317540646,-0.00029603837174363434,0.0
249,5,-0.00011900595563929528,8.372730007977225e-06,-4.228813122608699e-05,0.0020719312597066164,-0.004816536325961351,-0.0011168703204020858,0.0024406611919403076,0.2079283893108368,-0.033180348575115204,-0.00022768085182178766,0.03604559972882271,-0.02262166142463684,0.0,0.0,0.0,-7.646746962564066e-05,0.0015029229689389467,-0.0,0.0,0.0,0.0,-0.07425761967897415,-3.73628568649292,-9.186963967344752e-10,1495.0,1495.0,1495.0,1495.0,0.0,0.0,0.0,0.0,0.0,0.0,0.0,0.0,1495.0,1495.0,1495.0,1495.0,2.0886359214782715,-0.10993461726590953,-0.22337864587533554,0.13828497107782572,-0.0075639947317540646,-0.00029603837174363434,0.0
255,5,-0.00011163340241182595,5.9403373597888276e-05,-5.558203497457725e-07,0.001713478472083807,-0.008050291799008846,-0.005454625468701124,0.0024752099998295307,0.20757141709327698,-0.03333499655127525,0.002271435223519802,0.04086017236113548,-0.010357323102653027,0.0,0.0,0.0,0.004663052503019571,0.0014085464645177126,-0.0,0.0,0.0,0.0,-0.07549960166215897,-3.7303717136383057,-4.203554393455988e-09,1495.0,1495.0,1495.0,1495.0,0.0,0.0,0.0,0.0,0.0,0.0,0.0,0.0,1495.0,1495.0,1495.0,1495.0,2.094874143600464,-0.11008763088614996,-0.22295639185675367,0.138227559578114,-0.007110107224434614,0.018106477335095406,0.0
260,5,-9.830966882873327e-05,7.436018495354801e-05,-1.1751679267035797e-05,0.002284239511936903,-0.00501493364572525,-0.0008383471285924315,0.0024752099998295307,0.20757141709327698,-0.03333499655127525,0.002271435223519802,0.04086017236113548,-0.010357323102653027,0.0,0.0,0.0,0.004663052503019571,0.0014085464645177126,-0.0,0.0,0.0,0.0,-0.07549960166215897,-3.7303717136383057,-4.203554393455988e-09,1495.0,1495.0,1495.0,1495.0,0.0,0.0,0.0,0.0,0.0,0.0,0.0,0.0,1495.0,1495.0,1495.0,1495.0,2.094874143600464,-0.11098564744689689,-0.22224914264911935,0.13803049474981305,-0.007110107224434614,0.018106477335095406,0.0
265,5,-9.09147784113884e-05,0.00010013010614784434,6.114752864050388e-07,0.0018010822823271155,-0.005098363850265741,-0.0018189174588769674,0.0025508825201541185,0.20711131393909454,-0.03342737257480621,0.007257918827235699,0.02820463851094246,0.002312223194167018,0.0,0.0,0.0,0.004941337276250124,0.0015865383902564645,-0.0,0.0,0.0,0.0,-0.0771062970161438,-3.72456955909729,-7.86280374143189e-10,1495.0,1495.0,1495.0,1495.0,0.0,0.0,0.0,0.0,0.0,0.0,0.0,0.0,1495.0,1495.0,1495.0,1495.0,2.097785711288452,-0.11096578398497703,-0.22253869938680876,0.13827258642705834,-0.008019699715077877,0.01921369694173336,0.0
270,5,-7.281512080226094e-05,0.00010658998508006334,-2.6095371140399948e-05,0.0028923924546688795,-0.002814530860632658,0.002477254718542099,0.0025508825201541185,0.20711131393909454,-0.03342737257480621,0.007257918827235699,0.02820463851094246,0.002312223194167018,0.0,0.0,0.0,0.004941337276250124,0.0015865383902564645,-0.0,0.0,0.0,0.0,-0.0771062970161438,-3.72456955909729,-7.86280374143189e-10,1495.0,1495.0,1495.0,1495.0,0.0,0.0,0.0,0.0,0.0,0.0,0.0,0.0,1495.0,1495.0,1495.0,1495.0,2.097785711288452,-0.11081375643995695,-0.22308478732822054,0.13853909572753356,-0.008019699715077877,0.01921369694173336,0.0
275,5,-6.442939047701657e-05,0.00012385161244310439,-3.522284532664344e-05,0.0021632444113492966,-0.003197208046913147,0.0020861986558884382,0.0025508825201541185,0.20711131393909454,-0.03342737257480621,0.007257918827235699,0.02820463851094246,0.002312223194167018,0.0,0.0,0.0,0.002862567314878106,0.002063677879050374,-0.0,0.0,0.0,0.0,-0.0771062970161438,-3.72456955909729,-7.86280374143189e-10,1495.0,1495.0,1495.0,1495.0,0.0,0.0,0.0,0.0,0.0,0.0,0.0,0.0,1495.0,1495.0,1495.0,1495.0,2.099506139755249,-0.11126170937471014,-0.2231493057185437,0.1386392997094204,-0.010440201498568058,0.011139876209199429,0.0
280,5,-5.405384217738174e-05,0.0001420679473085329,-5.149269418325275e-05,0.0021103634499013424,-0.0034648438449949026,0.002786861266940832,0.002570222830399871,0.20692051947116852,-0.033378105610609055,0.0026331564877182245,0.013491499237716198,0.012616611085832119,0.0,0.0,0.0,0.002862567314878106,0.002063677879050374,-0.0,0.0,0.0,0.0,-0.07725399732589722,-3.7226810455322266,-4.143458354199936e-10,1495.0,1495.0,1495.0,1495.0,0.0,0.0,0.0,0.0,0.0,0.0,0.0,0.0,1495.0,1495.0,1495.0,1495.0,2.099506139755249,-0.1102406886124291,-0.22309516364636325,0.138739792972022,-0.010440201498568058,0.011139876209199429,0.0
285,5,-4.7627170715713874e-05,0.00016015884466469288,-6.856187246739864e-05,0.0016153458273038268,-0.00355684501118958,0.0031630455050617456,0.002570222830399871,0.20692051947116852,-0.033378105610609055,0.0026331564877182245,0.013491499237716198,0.012616611085832119,0.0,0.0,0.0,0.003541072364896536,0.0015050178626552224,-0.0,0.0,0.0,0.0,-0.07725399732589722,-3.7226810455322266,-4.143458354199936e-10,1495.0,1495.0,1495.0,1495.0,0.0,0.0,0.0,0.0,0.0,0.0,0.0,0.0,1495.0,1495.0,1495.0,1495.0,2.0985829830169678,-0.11034183389846121,-0.2234573500844731,0.1389632434353283,-0.007610563654452562,0.013774246908724308,0.0
290,5,-4.728579369839281e-05,0.00017399514035787433,-6.006852345308289e-05,0.0006871035438962281,-0.0030830937903374434,0.00024601665791124105,0.0025247728917747736,0.20681636035442352,-0.032872602343559265,0.00729525089263916,-0.012424840591847897,0.03453459590673447,0.0,0.0,0.0,0.003541072364896536,0.0015050178626552224,-0.0,0.0,0.0,0.0,-0.07574400305747986,-3.7226943969726562,2.5815207749246838e-09,1495.0,1495.0,1495.0,1495.0,0.0,0.0,0.0,0.0,0.0,0.0,0.0,0.0,1495.0,1495.0,1495.0,1495.0,2.0985829830169678,-0.10985237387339944,-0.2234991163451983,0.1389758280192227,-0.007610563654452562,0.013774246908724308,0.0
295,5,-3.535016003297642e-05,0.00019507022807374597,-1.5628795154043473e-05,0.0017071175388991833,-0.003762247506529093,-0.005234360694885254,0.0025247728917747736,0.20681636035442352,-0.032872602343559265,0.00729525089263916,-0.012424840591847897,0.03453459590673447,0.0,0.0,0.0,0.0032330297399312258,0.00045896609663031995,-0.0,0.0,0.0,0.0,-0.07574400305747986,-3.7226943969726562,2.5815207749246838e-09,1495.0,1495.0,1495.0,1495.0,0.0,0.0,0.0,0.0,0.0,0.0,0.0,0.0,1495.0,1495.0,1495.0,1495.0,2.0890655517578125,-0.10993718752705778,-0.22324270696492804,0.13914817246837574,-0.002310374053195119,0.012518979609012604,0.0
300,5,-2.1677165932487696e-05,0.0002028584567597136,3.4230147321068216e-06,0.0023236065171658993,-0.0024394867941737175,-0.004379961173981428,0.002480845432728529,0.2069585919380188,-0.032450370490550995,0.008560188114643097,-0.018272675573825836,0.034543637186288834,0.0,0.0,0.0,0.0032330297399312258,0.00045896609663031995,-0.0,0.0,0.0,0.0,-0.07490450143814087,-3.72434139251709,9.07765862478982e-09,1495.0,1495.0,1495.0,1495.0,0.0,0.0,0.0,0.0,0.0,0.0,0.0,0.0,1495.0,1495.0,1495.0,1495.0,2.0890655517578125,-0.11075435830802965,-0.22262952419062873,0.1390681310543251,-0.002310374053195119,0.012518979609012604,0.0
306,5,-1.6399813830503263e-05,0.00021131128596607596,4.7818382881814614e-05,0.0015627247048541903,-0.0019901348277926445,-0.007079428527504206,0.002480845432728529,0.2069585919380188,-0.032450370490550995,0.008560188114643097,-0.018272675573825836,0.034543637186288834,0.0,0.0,0.0,0.0026610903441905975,0.0017125792801380157,-0.0,0.0,0.0,0.0,-0.07490450143814087,-3.72434139251709,9.07765862478982e-09,1495.0,1495.0,1495.0,1495.0,0.0,0.0,0.0,0.0,0.0,0.0,0.0,0.0,1495.0,1495.0,1495.0,1495.0,2.081096649169922,-0.11181741816006724,-0.2227874733841236,0.1391336969630882,-0.00858802068978548,0.010265013203024864,0.0
311,5,-1.1763738257286604e-05,0.00019549168064258993,3.517188088153489e-05,0.0011814190074801445,0.0011022996623069048,-0.0013141914969310164,0.002428643638268113,0.20698347687721252,-0.032184991985559464,0.0075050657615065575,-0.01037645060569048,0.031355638056993484,0.0,0.0,0.0,0.0026610903441905975,0.0017125792801380157,-0.0,0.0,0.0,0.0,-0.072859987616539,-3.7257020473480225,2.135438270656209e-09,1495.0,1495.0,1495.0,1495.0,0.0,0.0,0.0,0.0,0.0,0.0,0.0,0.0,1495.0,1495.0,1495.0,1495.0,2.081096649169922,-0.11177725266353322,-0.22255851258259432,0.13943323386046175,-0.00858802068978548,0.010265013203024864,0.0
316,5,-8.953803444455843e-06,0.00018983047630172223,2.672421032912098e-05,0.000809759774710983,0.0011202640598639846,0.0004880440828856081,0.002428643638268113,0.20698347687721252,-0.032184991985559464,0.0075050657615065575,-0.01037645060569048,0.031355638056993484,0.0,0.0,0.0,-0.0007942604715935886,0.0008714102441444993,-0.0,0.0,0.0,0.0,-0.072859987616539,-3.7257020473480225,2.135438270656209e-09,1495.0,1495.0,1495.0,1495.0,0.0,0.0,0.0,0.0,0.0,0.0,0.0,0.0,1495.0,1495.0,1495.0,1495.0,2.0760693550109863,-0.1114516297989337,-0.22187917858789494,0.13922111704551854,-0.004359294660389423,-0.0030564216431230307,0.0
321,5,-1.3010545444558375e-05,0.0001896834874060005,3.473061588010751e-05,-0.00016290514031425118,0.0004657437966670841,-0.0007655509980395436,0.002368742832913995,0.20703697204589844,-0.03184900060296059,0.004686584696173668,-0.013647513464093208,0.02588649094104767,0.0,0.0,0.0,-0.0007942604715935886,0.0008714102441444993,-0.0,0.0,0.0,0.0,-0.07155054062604904,-3.7262723445892334,1.3934637888013413e-09,1495.0,1495.0,1495.0,1495.0,0.0,0.0,0.0,0.0,0.0,0.0,0.0,0.0,1495.0,1495.0,1495.0,1495.0,2.0760693550109863,-0.11137887102230956,-0.22247004983395238,0.13950106169080564,-0.004359294660389423,-0.0030564216431230307,0.0
326,5,-7.10231233824743e-06,0.00017460979870520532,-5.844507541041821e-06,0.0006438259151764214,0.0019951402209699154,0.004562794230878353,0.002368742832913995,0.20703697204589844,-0.03184900060296059,0.004686584696173668,-0.013647513464093208,0.02588649094104767,0.0,0.0,0.0,-0.0007942604715935886,0.0008714102441444993,-0.0,0.0,0.0,0.0,-0.07155054062604904,-3.7262723445892334,1.3934637888013413e-09,1495.0,1495.0,1495.0,1495.0,0.0,0.0,0.0,0.0,0.0,0.0,0.0,0.0,1495.0,1495.0,1495.0,1495.0,2.0760693550109863,-0.11075337124390941,-0.22344790085511862,0.14010031971480427,-0.004359294660389423,-0.0030564216431230307,0.0
331,5,4.100225851288997e-06,0.000167765625519678,-1.3123261851433199e-05,0.0016018350142985582,0.0016193579649552703,0.0026985681615769863,0.002349025337025523,0.2070685178041458,-0.031670112162828445,0.0020385857205837965,-0.008836743421852589,0.021566374227404594,0.0,0.0,0.0,-0.0016992053715512156,0.00047499858192168176,-0.0,0.0,0.0,0.0,-0.07047124207019806,-3.727233648300171,6.934897101018578e-10,1495.0,1495.0,1495.0,1495.0,0.0,0.0,0.0,0.0,0.0,0.0,0.0,0.0,1495.0,1495.0,1495.0,1495.0,2.0697059631347656,-0.1116773796302743,-0.2237175682743465,0.14011990359545493,-0.0023689300287514925,-0.006518725771456957,0.0
336,5,-3.245699815579428e-07,0.00016037673049140722,-2.1966592612443492e-05,0.00010975848272209987,0.001534409704618156,0.002140627009794116,0.002349025337025523,0.2070685178041458,-0.031670112162828445,0.0020385857205837965,-0.008836743421852589,0.021566374227404594,0.0,0.0,0.0,-0.0016992053715512156,0.00047499858192168176,-0.0,0.0,0.0,0.0,-0.07047124207019806,-3.727233648300171,6.934897101018578e-10,1495.0,1495.0,1495.0,1495.0,0.0,0.0,0.0,0.0,0.0,0.0,0.0,0.0,1495.0,1495.0,1495.0,1495.0,2.0697059631347656,-0.1108047489012894,-0.22344140183642203,0.1399466229139506,-0.0023689300287514925,-0.006518725771456957,0.0
341,5,-7.025387731118826e-06,0.00015201341011561453,-1.110183984565083e-05,-0.0007601947290822864,0.0016173628391698003,-0.0004475195601116866,0.0023407447151839733,0.20712688565254211,-0.03149525076150894,0.0017070422181859612,-0.015217523090541363,0.015101716853678226,0.0,0.0,0.0,-0.0012711668387055397,8.103008440230042e-05,-0.0,0.0,0.0,0.0,-0.07022053003311157,-3.7278385162353516,9.896774511020112e-10,1495.0,1495.0,1495.0,1495.0,0.0,0.0,0.0,0.0,0.0,0.0,0.0,0.0,1495.0,1495.0,1495.0,1495.0,2.066310405731201,-0.1110069307586095,-0.22332575186547698,0.13992746722395574,-0.00040345342131331563,-0.004868626594543457,0.0
346,5,-2.1598889361484908e-05,0.00013054662849754095,-3.938818736060057e-06,-0.002052898285910487,0.003222959814593196,-0.001038570306263864,0.0023407447151839733,0.20712688565254211,-0.03149525076150894,0.0017070422181859612,-0.015217523090541363,0.015101716853678226,0.0,0.0,0.0,-0.0012711668387055397,8.103008440230042e-05,-0.0,0.0,0.0,0.0,-0.07022053003311157,-3.7278385162353516,9.896774511020112e-10,1495.0,1495.0,1495.0,1495.0,0.0,0.0,0.0,0.0,0.0,0.0,0.0,0.0,1495.0,1495.0,1495.0,1495.0,2.066310405731201,-0.11069306475701579,-0.2230798611730105,0.13983673241126274,-0.00040345342131331563,-0.004868626594543457,0.0
351,5,-2.7516112822922878e-05,0.0001369868841720745,8.712341355021636e-07,-0.0015312258619815111,0.0005163525929674506,-0.0009926344500854611,0.0023463356774300337,0.20716533064842224,-0.03145633637905121,0.0013777283020317554,-0.01773245632648468,0.001312356791459024,0.0,0.0,0.0,-0.002972962101921439,-0.001574395108036697,-0.0,0.0,0.0,0.0,-0.07039006799459457,-3.728976011276245,3.4992102965203387e-11,1495.0,1495.0,1495.0,1495.0,0.0,0.0,0.0,0.0,0.0,0.0,0.0,0.0,1495.0,1495.0,1495.0,1495.0,2.0622596740722656,-0.1111023851452413,-0.223051321884917,0.1398065962449115,0.00782360415905714,-0.011364232748746872,0.0
356,5,-4.557630745694041e-05,0.00013907991524320096,1.7597205896890955e-06,-0.002779713599011302,-4.4622418499784544e-05,-0.0005036721704527736,0.0023463356774300337,0.20716533064842224,-0.03145633637905121,0.0013777283020317554,-0.01773245632648468,0.001312356791459024,0.0,0.0,0.0,-0.002972962101921439,-0.001574395108036697,-0.0,0.0,0.0,0.0,-0.07039006799459457,-3.728976011276245,3.4992102965203387e-11,1495.0,1495.0,1495.0,1495.0,0.0,0.0,0.0,0.0,0.0,0.0,0.0,0.0,1495.0,1495.0,1495.0,1495.0,2.0622596740722656,-0.11062127087644832,-0.22300828336042067,0.1398195158623771,0.00782360415905714,-0.011364232748746872,0.0
361,5,-5.5911434174049646e-05,0.0001468722039135173,3.0740033253096044e-05,-0.002352100796997547,-0.0009529232629574835,-0.003679106244817376,0.002371180569753051,0.20735734701156616,-0.03144719451665878,-0.0027284526731818914,-0.02706265263259411,-0.003449792508035898,0.0,0.0,0.0,0.0002450653992127627,-0.0021496315021067858,-0.0,0.0,0.0,0.0,-0.07127156108617783,-3.731015682220459,-6.386398632152179e-10,1495.0,1495.0,1495.0,1495.0,0.0,0.0,0.0,0.0,0.0,0.0,0.0,0.0,1495.0,1495.0,1495.0,1495.0,2.0620789527893066,-0.11141113928122315,-0.22255614126944276,0.13961343113546806,0.010681220330297947,0.0009366899612359703,0.0
367,5,-7.28092563804239e-05,0.00012703212269116193,6.639250841544708e-06,-0.002968579065054655,0.0019996403716504574,0.0014204512117430568,0.002371180569753051,0.20735734701156616,-0.03144719451665878,-0.0027284526731818914,-0.02706265263259411,-0.003449792508035898,0.0,0.0,0.0,0.0002450653992127627,-0.0021496315021067858,-0.0,0.0,0.0,0.0,-0.07127156108617783,-3.731015682220459,-6.386398632152179e-10,1495.0,1495.0,1495.0,1495.0,0.0,0.0,0.0,0.0,0.0,0.0,0.0,0.0,1495.0,1495.0,1495.0,1495.0,2.0620789527893066,-0.11104660111403182,-0.22354823381944217,0.13965890175436949,0.010681220330297947,0.0009366899612359703,0.0
372,5,-8.111771603580564e-05,0.00011779378110077232,4.961495505995117e-06,-0.0021844464354217052,0.0019084560917690396,0.0007695111562497914,0.0023680157028138638,0.20752112567424774,-0.03146210312843323,-0.0005707858363166451,-0.025925057008862495,-0.010553325526416302,0.0,0.0,0.0,-0.0017777815228328109,-0.0023223701864480972,-0.0,0.0,0.0,0.0,-0.07104012370109558,-3.735380172729492,-7.65440100192194e-10,1495.0,1495.0,1495.0,1495.0,0.0,0.0,0.0,0.0,0.0,0.0,0.0,0.0,1495.0,1495.0,1495.0,1495.0,2.0620830059051514,-0.11080498013295174,-0.22368900247668244,0.13973198974296264,0.011539538390934467,-0.006795050110667944,0.0
377,5,-0.00011264927888987586,0.0001009458428598009,-8.805192010186147e-06,-0.0046575660817325115,0.002785135293379426,0.0019598070066422224,0.0023680157028138638,0.20752112567424774,-0.03146210312843323,-0.0005707858363166451,-0.025925057008862495,-0.010553325526416302,0.0,0.0,0.0,-0.0017777815228328109,-0.0023223701864480972,-0.0,0.0,0.0,0.0,-0.07104012370109558,-3.735380172729492,-7.65440100192194e-10,1495.0,1495.0,1495.0,1495.0,0.0,0.0,0.0,0.0,0.0,0.0,0.0,0.0,1495.0,1495.0,1495.0,1495.0,2.0620830059051514,-0.11004954790364863,-0.22453253672629878,0.1398107401147371,0.011539538390934467,-0.006795050110667944,0.0
382,5,-0.0001249112538062036,0.0001061140646925196,9.079716619453393e-06,-0.0033344628755003214,0.0004938672645948827,-0.0013622662518173456,0.0023210367653518915,0.20775876939296722,-0.03154517337679863,-0.004659346304833889,-0.025959622114896774,-0.004284018184989691,0.0,0.0,0.0,-0.0025855014100670815,-0.003640727838501334,-0.0,0.0,0.0,0.0,-0.07031870633363724,-3.738429546356201,-6.8604939507110885e-09,1495.0,1495.0,1495.0,1495.0,0.0,0.0,0.0,0.0,0.0,0.0,0.0,0.0,1495.0,1495.0,1495.0,1495.0,2.062378168106079,-0.11090062794659625,-0.22395980850333516,0.13932782951391812,0.01809280924499035,-0.009883726947009563,0.0
387,5,-0.0001431606651749462,7.901015487732366e-05,-2.4397048036917113e-05,-0.00352371484041214,0.003450016025453806,0.003472305368632078,0.0023210367653518915,0.20775876939296722,-0.03154517337679863,-0.004659346304833889,-0.025959622114896774,-0.004284018184989691,0.0,0.0,0.0,-0.0025855014100670815,-0.003640727838501334,-0.0,0.0,0.0,0.0,-0.07031870633363724,-3.738429546356201,-6.8604939507110885e-09,1495.0,1495.0,1495.0,1495.0,0.0,0.0,0.0,0.0,0.0,0.0,0.0,0.0,1495.0,1495.0,1495.0,1495.0,2.062378168106079,-0.11080950581136823,-0.2232791822913683,0.13913828572042797,0.01809280924499035,-0.009883726947009563,0.0
392,5,-0.000178058267920278,7.108481077011675e-05,-3.220334110665135e-05,-0.005597198847681284,0.0023310482501983643,0.002325677080079913,0.00230193673633039,0.20786121487617493,-0.031556952744722366,-0.004869889002293348,-0.024080034345388412,-0.0042502256110310555,0.0,0.0,0.0,-0.003266711952164769,-0.0028168626595288515,-0.0,0.0,0.0,0.0,-0.06905811280012131,-3.741501808166504,-2.100863233378547e-10,1495.0,1495.0,1495.0,1495.0,0.0,0.0,0.0,0.0,0.0,0.0,0.0,0.0,1495.0,1495.0,1495.0,1495.0,2.063955307006836,-0.11016567251463168,-0.22343676206601584,0.13938522398945172,0.01400925312191248,-0.01249735988676548,0.0
397,5,-0.00020252725516911596,7.528892456321046e-05,-3.082226248807274e-05,-0.005175158381462097,0.00042792526073753834,0.000764541735406965,0.00230193673633039,0.20786121487617493,-0.031556952744722366,-0.004869889002293348,-0.024080034345388412,-0.0042502256110310555,0.0,0.0,0.0,-0.003266711952164769,-0.0028168626595288515,-0.0,0.0,0.0,0.0,-0.06905811280012131,-3.741501808166504,-2.100863233378547e-10,1495.0,1495.0,1495.0,1495.0,0.0,0.0,0.0,0.0,0.0,0.0,0.0,0.0,1495.0,1495.0,1495.0,1495.0,2.063955307006836,-0.11035062114890605,-0.2240674406264753,0.13964199971019314,0.01400925312191248,-0.01249735988676548,0.0
402,5,-0.0002303246728843078,1.3335991752683185e-05,-5.7118442782666534e-05,-0.005405752453953028,0.0076055219396948814,0.003461357904598117,0.002229006728157401,0.20814163982868195,-0.03161347657442093,-0.002699062693864107,-0.03631201013922691,-0.001973105128854513,0.0,0.0,0.0,-0.0003096330910921097,-0.004127437714487314,-0.0,0.0,0.0,0.0,-0.0675157755613327,-3.7444145679473877,-1.5172700873478107e-09,1495.0,1495.0,1495.0,1495.0,0.0,0.0,0.0,0.0,0.0,0.0,0.0,0.0,1495.0,1495.0,1495.0,1495.0,2.0641775131225586,-0.10965586662970568,-0.22413761656906578,0.13965716485229934,0.02052949368953705,-0.001184685155749321,0.0
407,5,-0.00024338331422768533,1.0452380593051203e-05,-2.5186884158756584e-05,-0.0037293380592018366,0.003388242097571492,-0.00244724377989769,0.002229006728157401,0.20814163982868195,-0.03161347657442093,-0.002699062693864107,-0.03631201013922691,-0.001973105128854513,0.0,0.0,0.0,-0.0003096330910921097,-0.004127437714487314,-0.0,0.0,0.0,0.0,-0.0675157755613327,-3.7444145679473877,-1.5172700873478107e-09,1495.0,1495.0,1495.0,1495.0,0.0,0.0,0.0,0.0,0.0,0.0,0.0,0.0,1495.0,1495.0,1495.0,1495.0,2.0641775131225586,-0.11081127036059686,-0.22482778600829115,0.13951284769541994,0.02052949368953705,-0.001184685155749321,0.0
412,5,-0.0002861321554519236,-3.734695928869769e-05,-3.5709585063159466e-05,-0.0037900961469858885,0.004049972631037235,0.0005370938451960683,0.0022168434225022793,0.2084437757730484,-0.031621918082237244,-0.003824159037321806,-0.0440710224211216,-0.0028381759766489267,0.0,0.0,0.0,-0.0003096330910921097,-0.004127437714487314,-0.0,0.0,0.0,0.0,-0.06604810059070587,-3.756779670715332,-2.4194179992775844e-09,1495.0,1495.0,1495.0,1495.0,0.0,0.0,0.0,0.0,0.0,0.0,0.0,0.0,1495.0,1495.0,1495.0,1495.0,2.0641775131225586,-0.109672004864146,-0.2250230470830316,0.13979799613394273,0.01579648070037365,-0.01538700982928276,0.0
417,5,-0.0003159029583912343,-2.552009937062394e-05,-9.852650691755116e-06,-0.00508853467181325,0.00020076590590178967,-0.0028879947494715452,0.0022168434225022793,0.2084437757730484,-0.031621918082237244,-0.003824159037321806,-0.0440710224211216,-0.0028381759766489267,0.0,0.0,0.0,-0.004019508603960276,-0.0031742260325700045,-0.0,0.0,0.0,0.0,-0.06604810059070587,-3.756779670715332,-2.4194179992775844e-09,1495.0,1495.0,1495.0,1495.0,0.0,0.0,0.0,0.0,0.0,0.0,0.0,0.0,1495.0,1495.0,1495.0,1495.0,2.065260410308838,-0.10997385080263646,-0.22515670026584705,0.13950861901384268,0.01579648070037365,-0.01538700982928276,0.0
422,5,-0.000330386363202706,-4.668028122978285e-05,-3.250723602832295e-05,-0.003773422446101904,0.0026195282116532326,0.001563352532684803,0.0022168434225022793,0.2084437757730484,-0.031621918082237244,-0.003824159037321806,-0.0440710224211216,-0.0028381759766489267,0.0,0.0,0.0,-0.004019508603960276,-0.0031742260325700045,-0.0,0.0,0.0,0.0,-0.06604810059070587,-3.756779670715332,-2.4194179992775844e-09,1495.0,1495.0,1495.0,1495.0,0.0,0.0,0.0,0.0,0.0,0.0,0.0,0.0,1495.0,1495.0,1495.0,1495.0,2.065260410308838,-0.11018065491305372,-0.22500961915785067,0.13936763965976154,0.01579648070037365,-0.01538700982928276,0.0
427,5,-0.000352190516423434,-5.212339237914421e-05,-4.564284608932212e-05,-0.0041258679702878,0.0017009845469146967,0.0022016139701008797,0.002204594202339649,0.20880694687366486,-0.03161918371915817,-0.0022780003491789103,-0.030025513842701912,-0.0005489378236234188,0.0,0.0,0.0,-0.002631566021591425,-0.003210667986422777,-0.0,0.0,0.0,0.0,-0.06604810059070587,-3.756779670715332,-2.4194179992775844e-09,1495.0,1495.0,1495.0,1495.0,0.0,0.0,0.0,0.0,0.0,0.0,0.0,0.0,1495.0,1495.0,1495.0,1495.0,2.065359592437744,-0.11029550432902437,-0.22495473043002423,0.13948866514519687,0.015978673473000526,-0.010074363090097904,0.0
433,5,-0.00038489862345159054,-4.596384314936586e-05,-6.06756002525799e-05,-0.005575318355113268,-5.875208807992749e-05,0.002684576204046607,0.002204594202339649,0.20880694687366486,-0.03161918371915817,-0.0022780003491789103,-0.030025513842701912,-0.0005489378236234188,0.0,0.0,0.0,-0.002631566021591425,-0.003210667986422777,-0.0,0.0,0.0,0.0,-0.06604810059070587,-3.756779670715332,-2.4194179992775844e-09,1495.0,1495.0,1495.0,1495.0,0.0,0.0,0.0,0.0,0.0,0.0,0.0,0.0,1495.0,1495.0,1495.0,1495.0,2.065359592437744,-0.11010010492702975,-0.22538265657600534,0.13972151232540733,0.015978673473000526,-0.010074363090097904,0.0
438,5,-0.0004027850227430463,-4.4242005969863385e-05,-3.830731293419376e-05,-0.004376493860036135,-0.00023012120800558478,-0.001610363950021565,0.00221015652641654,0.20902635157108307,-0.031586747616529465,-0.004634188022464514,-0.028699859976768494,0.0005834049661643803,0.0,0.0,0.0,-7.069311322993599e-06,-0.004630322102457285,-0.0,0.0,0.0,0.0,-0.06630508601665497,-3.762474298477173,-4.2465329030960675e-09,1495.0,1495.0,1495.0,1495.0,0.0,0.0,0.0,0.0,0.0,0.0,0.0,0.0,1495.0,1495.0,1495.0,1495.0,2.0647480487823486,-0.11014337899109651,-0.22533707532066805,0.13944122306359163,0.02303714118897915,-2.705532097024843e-05,0.0
443,5,-0.0004077832854818553,-8.164912287611514e-05,-6.354258948704228e-05,-0.0023503892589360476,0.004396805074065924,0.002384087536484003,0.00221015652641654,0.20902635157108307,-0.031586747616529465,-0.004634188022464514,-0.028699859976768494,0.0005834049661643803,0.0,0.0,0.0,-7.069311322993599e-06,-0.004630322102457285,-0.0,0.0,0.0,0.0,-0.06630508601665497,-3.762474298477173,-4.2465329030960675e-09,1495.0,1495.0,1495.0,1495.0,0.0,0.0,0.0,0.0,0.0,0.0,0.0,0.0,1495.0,1495.0,1495.0,1495.0,2.0647480487823486,-0.10966769541336964,-0.22587582045483875,0.13951246866948566,0.02303714118897915,-2.705532097024843e-05,0.0
448,5,-0.000423669524025172,-7.489597192034125e-05,-6.66524501866661e-05,-0.0028465071227401495,0.0009483445319347084,0.0013268182519823313,0.0022291233763098717,0.209364652633667,-0.03163526952266693,-0.00197492609731853,-0.038195859640836716,-0.0028800598811358213,0.0,0.0,0.0,-0.004424195736646652,-0.002225245349109173,-0.0,0.0,0.0,0.0,-0.06736461818218231,-3.772775411605835,-5.983479822724291e-10,1495.0,1495.0,1495.0,1495.0,0.0,0.0,0.0,0.0,0.0,0.0,0.0,0.0,1495.0,1495.0,1495.0,1495.0,2.064751148223877,-0.10985309549258428,-0.22595268591593415,0.139528804997555,0.011071153916418552,-0.016931990161538124,0.0
453,5,-0.0004244785523042083,-7.291830115718767e-05,-6.738129013683647e-05,-0.0012356846127659082,0.0001420175685780123,0.0006181879434734583,0.0022291233763098717,0.209364652633667,-0.03163526952266693,-0.00197492609731853,-0.038195859640836716,-0.0028800598811358213,0.0,0.0,0.0,-0.004424195736646652,-0.002225245349109173,-0.0,0.0,0.0,0.0,-0.06736461818218231,-3.772775411605835,-5.983479822724291e-10,1495.0,1495.0,1495.0,1495.0,0.0,0.0,0.0,0.0,0.0,0.0,0.0,0.0,1495.0,1495.0,1495.0,1495.0,2.064751148223877,-0.10944849821305513,-0.22631008601596175,0.13966103910144204,0.011071153916418552,-0.016931990161538124,0.0
458,5,-0.0004342275788076222,-6.0524620494106784e-05,-5.804346801596694e-05,-0.001664156443439424,-0.0014304348733276129,-0.000873262993991375,0.002245497889816761,0.2095986157655716,-0.03167988732457161,0.0003767198359128088,-0.02483132667839527,-0.001869257539510727,0.0,0.0,0.0,-0.0002425835991743952,-0.0014032305916771293,-0.0,0.0,0.0,0.0,-0.06784556806087494,-3.775416374206543,8.390440009442557e-10,1495.0,1495.0,1495.0,1495.0,0.0,0.0,0.0,0.0,0.0,0.0,0.0,0.0,1495.0,1495.0,1495.0,1495.0,2.0656492710113525,-0.11012455976239749,-0.22600493679463687,0.13952530835274596,0.006984533276408911,-0.0009288093424402177,0.0
463,5,-0.0004418652970343828,-6.585146184079349e-05,-5.409665027400479e-05,-0.0015821895794942975,6.70471927151084e-05,-0.0008229233790189028,0.002245497889816761,0.2095986157655716,-0.03167988732457161,0.0003767198359128088,-0.02483132667839527,-0.001869257539510727,0.0,0.0,0.0,-0.0002425835991743952,-0.0014032305916771293,-0.0,0.0,0.0,0.0,-0.06784556806087494,-3.775416374206543,8.390440009442557e-10,1495.0,1495.0,1495.0,1495.0,0.0,0.0,0.0,0.0,0.0,0.0,0.0,0.0,1495.0,1495.0,1495.0,1495.0,2.0656492710113525,-0.10963264366216315,-0.2260515675928549,0.13971415976807164,0.006984533276408911,-0.0009288093424402177,0.0
468,5,-0.00044586724834516644,-4.9437083362136036e-05,-3.1911575206322595e-05,-0.0011131088249385357,-0.0019429067615419626,-0.002991378540173173,0.0022682135459035635,0.20977981388568878,-0.03167133778333664,0.0016243853606283665,-0.010608911514282227,0.0006772548658773303,0.0,0.0,0.0,-0.00015900879225227982,-0.0016831621760502458,-0.0,0.0,0.0,0.0,-0.06816622614860535,-3.7767560482025146,1.3458194281223967e-10,1495.0,1495.0,1495.0,1495.0,0.0,0.0,0.0,0.0,0.0,0.0,0.0,0.0,1495.0,1495.0,1495.0,1495.0,2.066497325897217,-0.1097592336305315,-0.22545703109828655,0.13955865344473364,0.008381321094930172,-0.0006090662209317088,0.0
473,5,-0.00045971086365170777,-4.563180118566379e-05,-2.250828947580885e-05,-0.0021064772736281157,-0.0012337969383224845,-0.0023249455261975527,0.0022682135459035635,0.20977981388568878,-0.03167133778333664,0.0016243853606283665,-0.010608911514282227,0.0006772548658773303,0.0,0.0,0.0,-0.00015900879225227982,-0.0016831621760502458,-0.0,0.0,0.0,0.0,-0.06816622614860535,-3.7767560482025146,1.3458194281223967e-10,1495.0,1495.0,1495.0,1495.0,0.0,0.0,0.0,0.0,0.0,0.0,0.0,0.0,1495.0,1495.0,1495.0,1495.0,2.066497325897217,-0.10945960690694612,-0.2249608681852648,0.1392071373640025,0.008381321094930172,-0.0006090662209317088,0.0
478,5,-0.0004503706004470587,-5.7887333241524175e-05,-2.6889385480899364e-05,0.000278238469036296,0.0009771451586857438,-0.00040424667531624436,0.0022556986659765244,0.20988082885742188,-0.03169046714901924,0.0014347269898280501,-0.00918392464518547,0.001807373366318643,0.0,0.0,0.0,0.0011434060288593173,-0.0020978711545467377,-0.0,0.0,0.0,0.0,-0.06776652485132217,-3.777266502380371,-3.08469527698918e-10,1495.0,1495.0,1495.0,1495.0,0.0,0.0,0.0,0.0,0.0,0.0,0.0,0.0,1495.0,1495.0,1495.0,1495.0,2.0667009353637695,-0.10963093375556067,-0.22538081017884826,0.13927284691596958,0.01044738944619894,0.0043801250867545605,0.0
483,5,-0.0004305095935706049,-7.49627870391123e-05,-4.720534707303159e-05,0.002494616899639368,0.002439912874251604,0.0022762164007872343,0.0022556986659765244,0.20988082885742188,-0.03169046714901924,0.0014347269898280501,-0.00918392464518547,0.001807373366318643,0.0,0.0,0.0,0.0011434060288593173,-0.0020978711545467377,-0.0,0.0,0.0,0.0,-0.06776652485132217,-3.777266502380371,-3.08469527698918e-10,1495.0,1495.0,1495.0,1495.0,0.0,0.0,0.0,0.0,0.0,0.0,0.0,0.0,1495.0,1495.0,1495.0,1495.0,2.0667009353637695,-0.1100554983416854,-0.22558167360208214,0.13928696046517874,0.01044738944619894,0.0043801250867545605,0.0
488,5,-0.0004112228052690625,-7.864152576075867e-05,-6.262106035137549e-05,0.0033122606109827757,0.0014174137031659484,0.0027603718917816877,0.0022160105872899294,0.20985177159309387,-0.03168106824159622,-0.0011727320961654186,0.006889941170811653,-7.898056355770677e-05,0.0,0.0,0.0,-0.002495251828804612,0.0013988376595079899,-0.0,0.0,0.0,0.0,-0.06648030877113342,-3.777331829071045,7.336407037428216e-10,1495.0,1495.0,1495.0,1495.0,0.0,0.0,0.0,0.0,0.0,0.0,0.0,0.0,1495.0,1495.0,1495.0,1495.0,2.0665252208709717,-0.11011752258353212,-0.22560659392057747,0.13950183892854315,-0.0069655985571444035,-0.009557907469570637,0.0
493,5,-0.00041588672320358455,-6.130103429313749e-05,-6.76559066050686e-05,0.0007652341737411916,-0.0015138931339606643,0.0017083309357985854,0.0022160105872899294,0.20985177159309387,-0.03168106824159622,-0.0011727320961654186,0.006889941170811653,-7.898056355770677e-05,0.0,0.0,0.0,-0.002495251828804612,0.0013988376595079899,-0.0,0.0,0.0,0.0,-0.06648030877113342,-3.777331829071045,7.336407037428216e-10,1495.0,1495.0,1495.0,1495.0,0.0,0.0,0.0,0.0,0.0,0.0,0.0,0.0,1495.0,1495.0,1495.0,1495.0,2.0665252208709717,-0.1088177105696808,-0.2256138474321943,0.139464182600617,-0.0069655985571444035,-0.009557907469570637,0.0
498,5,-0.00039797270437702537,-5.3670719353249297e-05,-5.352407606551424e-05,0.002455775160342455,-0.0015211954014375806,-0.0010124873369932175,0.002204646123573184,0.20974154770374298,-0.031646840274333954,0.0022905615624040365,0.007482015527784824,0.0018323278054594994,0.0,0.0,0.0,0.001395519357174635,0.00011232951510464773,-0.0,0.0,0.0,0.0,-0.06622133404016495,-3.7759456634521484,-4.664208463900366e-10,1495.0,1495.0,1495.0,1495.0,0.0,0.0,0.0,0.0,0.0,0.0,0.0,0.0,1495.0,1495.0,1495.0,1495.0,2.065868854522705,-0.1096932380038487,-0.225873349330216,0.13964230959790083,-0.0005591755034402013,0.005343759898096323,0.0
503,5,-0.00037459327722899616,-6.392881914507598e-05,-6.408991612261161e-05,0.0037878428120166063,0.0006224940880201757,0.0008629054063931108,0.002204646123573184,0.20974154770374298,-0.031646840274333954,0.0022905615624040365,0.007482015527784824,0.0018323278054594994,0.0,0.0,0.0,0.001395519357174635,0.00011232951510464773,-0.0,0.0,0.0,0.0,-0.06622133404016495,-3.7759456634521484,-4.664208463900366e-10,1495.0,1495.0,1495.0,1495.0,0.0,0.0,0.0,0.0,0.0,0.0,0.0,0.0,1495.0,1495.0,1495.0,1495.0,2.065868854522705,-0.10986293238094247,-0.22555221211474394,0.13959638496011278,-0.0005591755034402013,0.005343759898096323,0.0
508,5,-0.0003457771672401577,-6.382067658705637e-05,-5.4749649279983714e-05,0.004973068833351135,0.00023602049623150378,-0.0007756695849820971,0.0021696684416383505,0.20960016548633575,-0.03162817656993866,-0.003827903652563691,0.018874086439609528,0.00043301674304530025,0.0,0.0,0.0,0.001395519357174635,0.00011232951510464773,-0.0,0.0,0.0,0.0,-0.06508999317884445,-3.77280330657959,3.3100633345384267e-09,1495.0,1495.0,1495.0,1495.0,0.0,0.0,0.0,0.0,0.0,0.0,0.0,0.0,1495.0,1495.0,1495.0,1495.0,2.065868854522705,-0.11020476489588979,-0.2249498122002547,0.13951513778520622,-0.0005591755034402013,0.005343759898096323,0.0
513,5,-0.00032778640161268413,-5.617037822958082e-05,-2.7861113267135806e-05,0.004148121923208237,-0.0008236280991695821,-0.0035368921235203743,0.0021696684416383505,0.20960016548633575,-0.03162817656993866,-0.003827903652563691,0.018874086439609528,0.00043301674304530025,0.0,0.0,0.0,-0.0003219278296455741,0.0033599045127630234,-0.0,0.0,0.0,0.0,-0.06508999317884445,-3.77280330657959,3.3100633345384267e-09,1495.0,1495.0,1495.0,1495.0,0.0,0.0,0.0,0.0,0.0,0.0,0.0,0.0,1495.0,1495.0,1495.0,1495.0,2.0655243396759033,-0.10997473693016015,-0.22466703124611467,0.1394335001551331,-0.016722774133086205,-0.0012325296411290765,0.0
518,5,-0.0002969848283100873,-6.162908539408818e-05,-1.3052637768851127e-05,0.005355438217520714,0.0003255936608184129,-0.0031917740125209093,0.002141093835234642,0.209263414144516,-0.03162561357021332,-0.0033021168783307076,0.033822253346443176,0.00327832973562181,0.0,0.0,0.0,-0.0003219278296455741,0.0033599045127630234,-0.0,0.0,0.0,0.0,-0.06470968574285507,-3.7693450450897217,4.198351000184175e-09,1495.0,1495.0,1495.0,1495.0,0.0,0.0,0.0,0.0,0.0,0.0,0.0,0.0,1495.0,1495.0,1495.0,1495.0,2.0655243396759033,-0.1113738896272489,-0.2243693660243289,0.13928839750157412,-0.016722774133086205,-0.0012325296411290765,0.0
523,5,-0.000275144528131932,-7.820047903805971e-05,-1.1713684671121882e-06,0.004763010423630476,0.0021188047248870134,-0.00270246178843081,0.002141093835234642,0.209263414144516,-0.03162561357021332,-0.0033021168783307076,0.033822253346443176,0.00327832973562181,0.0,0.0,0.0,-0.00040658743819221854,0.0037017613649368286,-0.0,0.0,0.0,0.0,-0.06470968574285507,-3.7693450450897217,4.198351000184175e-09,1495.0,1495.0,1495.0,1495.0,0.0,0.0,0.0,0.0,0.0,0.0,0.0,0.0,1495.0,1495.0,1495.0,1495.0,2.0654783248901367,-0.11059662764504921,-0.2245333705040043,0.13930872395357427,-0.01842382922768593,-0.0015566217480227351,0.0
