timestamp,dt,pos_x,pos_y,pos_z,vel_x,vel_y,vel_z,roll,pitch,yaw,agv_x,agv_y,agv_z,x_ref,y_ref,z_ref,roll_ref,pitch_ref,yaw_ref,x_vel_ref,y_vel_ref,z_vel_ref,x_torque,y_torque,z_torque,w0,w1,w2,w3,u0,u1,u2,u3,m0req,m1req,m2req,m3req,thrust0,thrust1,thrust2,thrust3,thrust_ref,roll_vicon,pitch_vicon,yaw_vicon,acc_x,acc_y,acc_z
5,5,0.0,0.0,0.0,0.0005431707832030952,0.00024702309747226536,-0.0031309507321566343,-0.004424352198839188,0.002277144929394126,-0.00012675496691372246,0.0017819218337535858,-0.002474954817444086,-0.002733757486566901,0.0,0.0,0.0,-0.0003062583855353296,0.0005180164007470012,-0.0,0.0,0.0,0.0,0.0013140705414116383,-0.0006517834262922406,-6.260677764657885e-05,1495.0,1495.0,1495.0,1495.0,0.0,0.0,0.0,0.0,0.0,0.0,0.0,0.0,1495.0,1495.0,1495.0,1495.0,1.6318202018737793,-0.072129613130771,0.10179183331252989,-0.0015445093864105404,-0.0020368904806673527,-0.0009263366227969527,0.0
26,21,0.0,0.0,0.0,0.001617256086319685,-0.0006612823926843703,0.001040383125655353,-0.004424352198839188,0.002277144929394126,-0.00012675496691372246,0.0017819218337535858,-0.002474954817444086,-0.002733757486566901,0.0,0.0,0.0,-0.0003062583855353296,0.0005180164007470012,-0.0,0.0,0.0,0.0,0.0013140705414116383,-0.0006517834262922406,-6.260677764657885e-05,1495.0,1495.0,1495.0,1495.0,0.0,0.0,0.0,0.0,0.0,0.0,0.0,0.0,1495.0,1495.0,1495.0,1495.0,1.6318202018737793,-0.0718340314203377,0.1020369732467001,-0.0019403724732839928,-0.0020368904806673527,-0.0009263366227969527,0.0
32,5,0.0,0.0,0.0,6.212933658389375e-05,0.0013428699458017945,0.0033934335224330425,-0.004427955951541662,0.002298732753843069,-0.0001325618795817718,0.000265591312199831,-0.0061236280016601086,-0.0010625305585563183,0.0,0.0,0.0,-0.0003062583855353296,0.0005180164007470012,-0.0,0.0,0.0,0.0,0.0013651975896209478,-0.0008668975206092,-6.669043068541214e-05,1495.0,1495.0,1495.0,1495.0,0.0,0.0,0.0,0.0,0.0,0.0,0.0,0.0,1495.0,1495.0,1495.0,1495.0,1.6318202018737793,-0.07157292410794462,0.10125359967432146,-0.0016937332029294955,-0.0020368904806673527,-0.0009263366227969527,0.0
45,13,0.0,0.0,0.0,6.212933658389375e-05,0.0013428699458017945,0.0033934335224330425,-0.004424220882356167,0.0023315150756388903,-0.0001311471569351852,0.0005343250231817365,0.0007472039433196187,0.0013052757130935788,0.0,0.0,0.0,-0.001657166052609682,5.897740993532352e-05,-0.0,0.0,0.0,0.0,0.0012577817542478442,-0.0006459673750214279,3.8799396861577407e-05,13411.0,13467.0,13662.0,13549.0,0.4008427560329437,0.4044009745121002,0.41692402958869934,0.409652441740036,0.0,0.0,0.0,0.0,1495.0,1495.0,1495.0,1495.0,1.63942289352417,-0.07157292410794462,0.10125359967432146,-0.0016937332029294955,-0.00023298501037061214,-0.005035762209445238,0.0
50,5,0.0,0.0,0.0,0.0006192961591295898,-0.0030056063551455736,-0.008476624265313148,-0.004424220882356167,0.0023315150756388903,-0.0001311471569351852,0.0005343250231817365,0.0007472039433196187,0.0013052757130935788,0.0,0.0,0.0,0.00366992992348969,0.0005816770135425031,-0.0,0.0,0.0,0.0,0.0012656584149226546,-0.000719507341273129,8.197077113436535e-05,13450.0,13537.0,13687.0,13535.0,0.4032703936100006,0.40887925028800964,0.4185260832309723,0.4087471663951874,0.0,0.0,0.0,0.0,13414.0,13468.0,13633.0,13575.0,1.656909704208374,-0.0726454452148273,0.1018936307550163,-0.001732325676141203,-0.0023223606403917074,0.011271024122834206,0.0
56,6,0.0,0.0,0.0,0.0004171143809799105,0.00026699251611717045,0.0028302303981035948,-0.004424220882356167,0.0023315150756388903,-0.0001311471569351852,0.0005343250231817365,0.0007472039433196187,0.0013052757130935788,0.0,0.0,0.0,0.00366992992348969,0.0005816770135425031,-0.0,0.0,0.0,0.0,0.0012656584149226546,-0.000719507341273129,8.197077113436535e-05,13450.0,13537.0,13687.0,13535.0,0.4032703936100006,0.40887925028800964,0.4185260832309723,0.4087471663951874,0.0,0.0,0.0,0.0,13414.0,13468.0,13633.0,13575.0,1.656909704208374,-0.0719027317416808,0.10101146171906618,-0.0011687464918624635,-0.0023223606403917074,0.011271024122834206,0.0
61,5,-1.4976552620282746e-06,2.8432526960386895e-05,-1.858351424743887e-05,0.0008851581951603293,-0.000882416614331305,0.004451747052371502,-0.004424220882356167,0.0023315150756388903,-0.0001311471569351852,0.0005343250231817365,0.0007472039433196187,0.0013052757130935788,0.0,0.0,0.0,0.00366992992348969,0.0005816770135425031,-0.0,0.0,0.0,0.0,0.0012656584149226546,-0.000719507341273129,8.197077113436535e-05,13450.0,13537.0,13687.0,13535.0,0.4032703936100006,0.40887925028800964,0.4185260832309723,0.4087471663951874,0.0,0.0,0.0,0.0,13414.0,13468.0,13633.0,13575.0,1.656909704208374,-0.07101721465737058,0.1017418772524821,-0.0014139851805620208,-0.0023223606403917074,0.011271024122834206,0.0
66,5,-2.586818482086528e-05,2.7033040169044398e-05,-1.5874138625804335e-05,-0.002570400247350335,-0.0001850282569648698,0.0014555738307535648,-0.004435406066477299,0.0023649849463254213,-0.0001406937517458573,-0.0013869256945326924,-0.004447063431143761,-0.0012356399092823267,0.0,0.0,0.0,0.0011409060098230839,0.0008385097025893629,-0.0,0.0,0.0,0.0,0.0008754997397772968,-0.0007897592731751502,-0.00012578809401020408,13404.0,13584.0,13634.0,13587.0,0.4003906846046448,0.4118592143058777,0.4150826334953308,0.41209036111831665,0.0,0.0,0.0,0.0,13406.0,13586.0,13644.0,13573.0,1.6387501955032349,-0.07183616009422704,0.10160239881575632,-0.0019376455695052338,-0.0033111008815467358,0.0034655407071113586,0.0
71,5,-1.4265621757658664e-05,7.202362667158013e-06,-2.9543734854087234e-05,0.00036414741771295667,0.0023056701757013798,0.0022225810680538416,-0.004435406066477299,0.0023649849463254213,-0.0001406937517458573,-0.0013869256945326924,-0.004447063431143761,-0.0012356399092823267,0.0,0.0,0.0,0.0011409060098230839,0.0008385097025893629,-0.0,0.0,0.0,0.0,0.0008754997397772968,-0.0007897592731751502,-0.00012578809401020408,13404.0,13584.0,13634.0,13587.0,0.4003906846046448,0.4118592143058777,0.4150826334953308,0.41209036111831665,0.0,0.0,0.0,0.0,13406.0,13586.0,13644.0,13573.0,1.6387501955032349,-0.07175361422943419,0.10142352429238327,-0.0013874470549121954,-0.0033111008815467358,0.0034655407071113586,0.0
76,5,-1.4845607438473962e-05,1.3212075828050729e-05,-4.466357950150268e-07,7.606077269883826e-05,0.00020110246259719133,-0.0026026195846498013,-0.004449004307389259,0.0023433661554008722,-0.00014444763655774295,0.0008025740389712155,0.0016188701847568154,-0.00043224089313298464,0.0,0.0,0.0,-0.002815220272168517,0.00032384172664023936,-0.0,0.0,0.0,0.0,0.0008667222573421896,-0.0006526739452965558,-4.8792233428684995e-05,13406.0,13506.0,13803.0,13763.0,0.40052103996276855,0.40685349702835083,0.42607957124710083,0.4234555959701538,0.0,0.0,0.0,0.0,13448.0,13542.0,13670.0,13550.0,1.6493314504623413,-0.0712612155198891,0.10227245843354106,-0.0016268621991991552,-0.0012870366917923093,-0.008606525138020515,0.0
81,5,-1.6820423525132355e-06,5.719053660868667e-06,-1.7163642041850835e-05,0.0016100520733743906,0.000979603617452085,0.0009649929706938565,-0.004449004307389259,0.0023433661554008722,-0.00014444763655774295,0.0008025740389712155,0.0016188701847568154,-0.00043224089313298464,0.0,0.0,0.0,-0.002815220272168517,0.00032384172664023936,-0.0,0.0,0.0,0.0,0.0008667222573421896,-0.0006526739452965558,-4.8792233428684995e-05,13406.0,13506.0,13803.0,13763.0,0.40052103996276855,0.40685349702835083,0.42607957124710083,0.4234555959701538,0.0,0.0,0.0,0.0,13448.0,13542.0,13670.0,13550.0,1.6493314504623413,-0.0717688154412807,0.10071426794271629,-0.001394447002345249,-0.0012870366917923093,-0.008606525138020515,0.0
86,5,-7.326723334699636e-06,-1.0746453881438356e-05,3.403618393349461e-05,-3.3340904337819666e-05,0.0023677023127675056,-0.005757981911301613,-0.004449004307389259,0.0023433661554008722,-0.00014444763655774295,0.0008025740389712155,0.0016188701847568154,-0.00043224089313298464,0.0,0.0,0.0,-0.002815220272168517,0.00032384172664023936,-0.0,0.0,0.0,0.0,0.0008667222573421896,-0.0006526739452965558,-4.8792233428684995e-05,13406.0,13506.0,13803.0,13763.0,0.40052103996276855,0.40685349702835083,0.42607957124710083,0.4234555959701538,0.0,0.0,0.0,0.0,13448.0,13542.0,13670.0,13550.0,1.6493314504623413,-0.07257723684052066,0.1016486932377756,-0.0015094021739072271,-0.0012870366917923093,-0.008606525138020515,0.0
92,5,-1.2529102605185471e-05,-3.2365960578317754e-06,1.9410976165090688e-05,-0.0006376218516379595,4.5897984819021076e-05,-0.0005481677944771945,-0.004449347499758005,0.0023164874874055386,-0.00013311393558979034,0.00011471434845589101,0.001202964223921299,0.005723543465137482,0.0,0.0,0.0,-0.0029224788304418325,-4.160302341915667e-05,-0.0,0.0,0.0,0.0,0.0024477080442011356,-0.0004909581621177495,0.00010117416240973398,13472.0,13441.0,13865.0,13699.0,0.4046787619590759,0.4027412533760071,0.43017441034317017,0.41931527853012085,0.0,0.0,0.0,0.0,13545.0,13570.0,13699.0,13549.0,1.649972677230835,-0.07195206962136033,0.10067657775694046,-0.0016034857403646513,0.0001654061779845506,-0.008937901817262173,0.0
97,5,-1.758726102707442e-05,-1.2386417438392527e-05,-2.265013608848676e-05,-0.0008620278094895184,0.0011163378367200494,0.004828066099435091,-0.004449347499758005,0.0023164874874055386,-0.00013311393558979034,0.00011471434845589101,0.001202964223921299,0.005723543465137482,0.0,0.0,0.0,-0.0029224788304418325,-4.160302341915667e-05,-0.0,0.0,0.0,0.0,0.0024477080442011356,-0.0004909581621177495,0.00010117416240973398,13472.0,13441.0,13865.0,13699.0,0.4046787619590759,0.4027412533760071,0.43017441034317017,0.41931527853012085,0.0,0.0,0.0,0.0,13545.0,13570.0,13699.0,13549.0,1.649972677230835,-0.07138988245706858,0.10097249750158252,-0.0013197741443999528,0.00332947657443583,-0.004254348576068878,0.0
102,5,-7.149249086069176e-06,6.839257821411593e-06,4.29128558607772e-05,0.0009077503927983344,-0.0018605459481477737,-0.0059363325126469135,-0.004453887231647968,0.002331303432583809,-0.00012250659347046167,-0.0009906518971547484,-0.001522423466667533,0.0009152819984592497,0.0,0.0,0.0,-0.0013991838786751032,-0.0008423150284215808,-0.0,0.0,0.0,0.0,0.0005123391165398061,-0.0007333281100727618,-4.686222746386193e-05,13501.0,13612.0,13666.0,13586.0,0.4065253734588623,0.41367822885513306,0.41714560985565186,0.4119822382926941,0.0,0.0,0.0,0.0,13545.0,13570.0,13699.0,13549.0,1.6404008865356445,-0.0710282835518495,0.102375245734059,-0.0019074680871437612,0.00332947657443583,-0.004254348576068878,0.0
107,5,-1.536769445920072e-06,1.2053140380885452e-05,1.0094370736624114e-05,0.0010365976486355066,-0.0013698842376470566,0.0015636853640899062,-0.004435230977833271,0.0023317881859838963,-0.00011872599134221673,-0.0015911164227873087,0.0032045459374785423,-0.0030941395089030266,0.0,0.0,0.0,0.0017082588747143745,0.0009794884826987982,-0.0,0.0,0.0,0.0,0.0004375030694063753,-0.0007141362293623388,-2.5925630325218663e-05,13493.0,13632.0,13649.0,13600.0,0.4060208797454834,0.4149758815765381,0.41609054803848267,0.4128853678703308,0.0,0.0,0.0,0.0,13470.0,13649.0,13624.0,13630.0,1.6433461904525757,-0.07255849508895822,0.1012194413020969,-0.0016399847653478846,-0.003878641175106168,0.005203444045037031,0.0
112,6,-7.371392712229863e-06,-1.6168745560207753e-06,-4.490086575970054e-05,-0.00028551570721901953,0.0010924481321126223,0.007224902510643005,-0.004435230977833271,0.0023317881859838963,-0.00011872599134221673,-0.0015911164227873087,0.0032045459374785423,-0.0030941395089030266,0.0,0.0,0.0,0.0017082588747143745,0.0009794884826987982,-0.0,0.0,0.0,0.0,0.0004375030694063753,-0.0007141362293623388,-2.5925630325218663e-05,13493.0,13632.0,13649.0,13600.0,0.4060208797454834,0.4149758815765381,0.41609054803848267,0.4128853678703308,0.0,0.0,0.0,0.0,13470.0,13649.0,13624.0,13630.0,1.6433461904525757,-0.07253302322185247,0.1004128723293316,-0.0011187506715319383,-0.003878641175106168,0.005203444045037031,0.0
117,5,6.156437848403584e-07,3.791465496760793e-05,2.8169695269752992e-06,0.0008442380931228399,-0.00430680438876152,-0.002836179221048951,-0.004435230977833271,0.0023317881859838963,-0.00011872599134221673,-0.0015911164227873087,0.0032045459374785423,-0.0030941395089030266,0.0,0.0,0.0,0.0017082588747143745,0.0009794884826987982,-0.0,0.0,0.0,0.0,0.0004375030694063753,-0.0007141362293623388,-2.5925630325218663e-05,13493.0,13632.0,13649.0,13600.0,0.4060208797454834,0.4149758815765381,0.41609054803848267,0.4128853678703308,0.0,0.0,0.0,0.0,13470.0,13649.0,13624.0,13630.0,1.6433461904525757,-0.07081459897258228,0.10278070546551223,-0.001659664922160205,-0.003878641175106168,0.005203444045037031,0.0
123,5,-6.054686764400685e-06,7.87225962994853e-06,-3.2347990782000124e-05,-0.00046274441410787404,0.0018823656719177961,0.00308532384224236,-0.0044622221030294895,0.002279735868796706,-0.0001274904643651098,-0.0008953327196650207,0.0012589930556714535,0.0021205530501902103,0.0,0.0,0.0,0.005282432306557894,0.0007871721754781902,-0.0,0.0,0.0,0.0,0.0009740971145220101,-0.0009095334098674357,1.7352875147480518e-05,13440.0,13544.0,13697.0,13543.0,0.4026504456996918,0.4092976748943329,0.4192042052745819,0.40924856066703796,0.0,0.0,0.0,0.0,13441.0,13548.0,13689.0,13546.0,1.6708019971847534,-0.07233637626209628,0.1008318551851099,-0.0009830654411868193,-0.0031691333279013634,0.01635926589369774,0.0
128,5,-3.099356717939372e-06,-3.353720330778742e-06,-7.645587902516127e-05,0.00016954183229245245,0.00210006395354867,0.006527076009660959,-0.0044622221030294895,0.002279735868796706,-0.0001274904643651098,-0.0008953327196650207,0.0012589930556714535,0.0021205530501902103,0.0,0.0,0.0,0.005282432306557894,0.0007871721754781902,-0.0,0.0,0.0,0.0,0.0009740971145220101,-0.0009095334098674357,1.7352875147480518e-05,13440.0,13544.0,13697.0,13543.0,0.4026504456996918,0.4092976748943329,0.4192042052745819,0.40924856066703796,0.0,0.0,0.0,0.0,13441.0,13548.0,13689.0,13546.0,1.6708019971847534,-0.07121432458522889,0.10140235385321468,-0.0013909157876587732,-0.0031691333279013634,0.01635926589369774,0.0
133,5,-1.3341114936338272e-05,7.020843440841418e-06,-1.4013125110068358e-05,-0.0011611941736191511,-0.0004049220588058233,-0.0048823002725839615,-0.004465857055038214,0.002282039262354374,-0.0001234050141647458,-0.0016992322634905577,-0.008043590001761913,-0.002249048324301839,0.0,0.0,0.0,-0.0025853051338344812,0.00015584603534080088,-0.0,0.0,0.0,0.0,0.002906773006543517,-0.0008311877609230578,-3.650837606983259e-05,13377.0,13504.0,13718.0,13670.0,0.3986511528491974,0.40674611926078796,0.4205422103404999,0.41740670800209045,0.0,0.0,0.0,0.0,13348.0,13534.0,13678.0,13708.0,1.6472100019454956,-0.07062654928822872,0.1017847976796544,-0.0017025602277044663,-0.000618578982539475,-0.007893478497862816,0.0
138,5,-8.154606803145725e-06,-1.0041249879577663e-05,-6.293473234109115e-06,0.00015790326870046556,0.0018854823429137468,-0.0028792782686650753,-0.004465857055038214,0.002282039262354374,-0.0001234050141647458,-0.0016992322634905577,-0.008043590001761913,-0.002249048324301839,0.0,0.0,0.0,-0.0025853051338344812,0.00015584603534080088,-0.0,0.0,0.0,0.0,0.002906773006543517,-0.0008311877609230578,-3.650837606983259e-05,13377.0,13504.0,13718.0,13670.0,0.3986511528491974,0.40674611926078796,0.4205422103404999,0.41740670800209045,0.0,0.0,0.0,0.0,13348.0,13534.0,13678.0,13708.0,1.6472100019454956,-0.07156601535405406,0.1005813269682362,-0.0016779846848294698,-0.000618578982539475,-0.007893478497862816,0.0
143,5,3.7525155676121358e-06,-2.1682206352124922e-05,-2.718085397646064e-06,0.0014920160174369812,0.002151107881218195,-0.0015807579038664699,-0.004456064663827419,0.0023781259078532457,-0.00015948152577038854,0.0008656659629195929,-0.0097834886983037,-0.003700732719153166,0.0,0.0,0.0,-0.002336769364774227,0.0001380126632284373,-0.0,0.0,0.0,0.0,0.002906773006543517,-0.0008311877609230578,-3.650837606983259e-05,13391.0,13567.0,13888.0,13845.0,0.3995306193828583,0.4107697904109955,0.4316619336605072,0.42883965373039246,0.0,0.0,0.0,0.0,13413.0,13544.0,13896.0,13836.0,1.645123839378357,-0.07074498357031903,0.1012099754012807,-0.0012804300676350073,-0.000547101953998208,-0.007125613745301962,0.0
148,5,-2.341853814868955e-06,-1.7303693311987445e-05,2.3603672616445692e-06,-0.00013451793347485363,0.0003350215556565672,-0.0012417174875736237,-0.004456064663827419,0.0023781259078532457,-0.00015948152577038854,0.0008656659629195929,-0.0097834886983037,-0.003700732719153166,0.0,0.0,0.0,-0.002336769364774227,0.0001380126632284373,-0.0,0.0,0.0,0.0,0.002906773006543517,-0.0008311877609230578,-3.650837606983259e-05,13391.0,13567.0,13888.0,13845.0,0.3995306193828583,0.4107697904109955,0.4316619336605072,0.42883965373039246,0.0,0.0,0.0,0.0,13413.0,13544.0,13896.0,13836.0,1.645123839378357,-0.07183134015658185,0.10032049928699549,-0.0012163598300650505,-0.000547101953998208,-0.007125613745301962,0.0
153,5,-1.1576815268199425e-05,-7.127246590243885e-06,-3.1904019124340266e-05,-0.0011620025616139174,-0.0010871649719774723,0.0036150396335870028,-0.004449023865163326,0.002380075864493847,-0.00016354524996131659,-0.0017469044541940093,0.00498197739943862,-0.003450223011896014,0.0,0.0,0.0,-0.00044737462303601205,-0.00013178646622691303,-0.0,0.0,0.0,0.0,0.0005378850037232041,-0.0005870346212759614,0.0003799546684604138,13474.0,13613.0,13632.0,13611.0,0.4048328697681427,0.4137185513973236,0.4150056540966034,0.4136529266834259,0.0,0.0,0.0,0.0,13484.0,13605.0,13648.0,13593.0,1.6296743154525757,-0.07205704922379139,0.10079624700568027,-0.001462978811439109,0.0005175156402401626,-0.0013513899175450206,0.0
158,5,-9.16763110581087e-06,9.64279394111145e-08,5.857104952156078e-06,-0.00017569889314472675,-0.0013017070014029741,-0.003085319185629487,-0.004449023865163326,0.002380075864493847,-0.00016354524996131659,-0.0017469044541940093,0.00498197739943862,-0.003450223011896014,0.0,0.0,0.0,-0.00044737462303601205,-0.00013178646622691303,-0.0,0.0,0.0,0.0,0.0005378850037232041,-0.0005870346212759614,0.0003799546684604138,13474.0,13613.0,13632.0,13611.0,0.4048328697681427,0.4137185513973236,0.4150056540966034,0.4136529266834259,0.0,0.0,0.0,0.0,13484.0,13605.0,13648.0,13593.0,1.6296743154525757,-0.07178288443016151,0.10222920933398369,-0.0009055092995541778,0.0005175156402401626,-0.0013513899175450206,0.0
163,5,-3.3029416954377666e-05,9.193872756441124e-06,8.112166142382193e-06,-0.002933693816885352,-0.0016123760724440217,-0.0015047350898385048,-0.004398609511554241,0.002329988405108452,-0.00016898517787922174,0.004617484752088785,0.004914348013699055,-0.031278133392333984,0.0,0.0,0.0,0.0016068666009232402,-0.00017963814025279135,-0.0,0.0,0.0,0.0,0.0011533582583069801,-0.0015135479625314474,0.0006007947959005833,13313.0,13558.0,13685.0,13499.0,0.394614577293396,0.410184383392334,0.41842859983444214,0.40644675493240356,0.0,0.0,0.0,0.0,13032.0,14017.0,13207.0,14011.0,1.639130711555481,-0.07148104435126787,0.10199816772987044,-0.001838791094790349,0.0007095180917531252,0.004882043227553368,0.0
168,5,-1.3734770618611947e-05,8.72255327521998e-07,-1.8990953321917914e-05,0.0011418800568208098,0.0003536436124704778,0.0026504802517592907,-0.004398609511554241,0.002329988405108452,-0.00016898517787922174,0.004617484752088785,0.004914348013699055,-0.031278133392333984,0.0,0.0,0.0,0.0016068666009232402,-0.00017963814025279135,-0.0,0.0,0.0,0.0,0.0011533582583069801,-0.0015135479625314474,0.0006007947959005833,13313.0,13558.0,13685.0,13499.0,0.394614577293396,0.410184383392334,0.41842859983444214,0.40644675493240356,0.0,0.0,0.0,0.0,13032.0,14017.0,13207.0,14011.0,1.639130711555481,-0.07112445915366462,0.10181608819172809,-0.0018015382307293199,0.0007095180917531252,0.004882043227553368,0.0
173,5,-1.2466165571822785e-05,8.234231245296542e-06,-5.2455234254011884e-06,0.000608984671998769,-0.0007419796893373132,-0.000589259434491396,-0.004398609511554241,0.002329988405108452,-0.00016898517787922174,0.004617484752088785,0.004914348013699055,-0.031278133392333984,0.0,0.0,0.0,-0.00043525153887458146,0.0010658722603693604,-0.0,0.0,0.0,0.0,0.0011533582583069801,-0.0015135479625314474,0.0006007947959005833,13313.0,13558.0,13685.0,13499.0,0.394614577293396,0.410184383392334,0.41842859983444214,0.40644675493240356,0.0,0.0,0.0,0.0,13032.0,14017.0,13207.0,14011.0,1.6377087831497192,-0.07080532228998715,0.10168765361228892,-0.0012710286608996612,-0.004206235520541668,-0.001321251504123211,0.0
178,5,-1.3133033462509047e-05,-3.95605165977031e-05,-8.5880805272609e-05,0.0001635697262827307,0.005438577849417925,0.009440530091524124,-0.0043579633347690105,0.002436345675960183,-6.163980287965387e-05,0.003923175390809774,-0.0011793503072112799,0.024024995043873787,0.0,0.0,0.0,-0.00043525153887458146,0.0010658722603693604,-0.0,0.0,0.0,0.0,0.0017386357067152858,-0.0007498556515201926,0.0011516885133460164,13764.0,13095.0,14100.0,13220.0,0.4235704243183136,0.38099512457847595,0.4457686245441437,0.38879653811454773,0.0,0.0,0.0,0.0,12880.0,13957.0,13233.0,13954.0,1.6377087831497192,-0.07214186728431718,0.09974912183083391,-0.0005792800947008776,-0.004206235520541668,-0.001321251504123211,0.0
184,5,1.8573326769910636e-06,-2.4848619432304986e-05,-4.8517322284169495e-05,0.0018642718205228448,0.00041000344208441675,-0.0007074062013998628,-0.0043579633347690105,0.002436345675960183,-6.163980287965387e-05,0.003923175390809774,-0.0011793503072112799,0.024024995043873787,0.0,0.0,0.0,-0.0066136871464550495,0.000133488341816701,-0.0,0.0,0.0,0.0,0.0017386357067152858,-0.0007498556515201926,0.0011516885133460164,13764.0,13095.0,14100.0,13220.0,0.4235704243183136,0.38099512457847595,0.4457686245441437,0.38879653811454773,0.0,0.0,0.0,0.0,12880.0,13957.0,13233.0,13954.0,1.6814324855804443,-0.0725008201683426,0.0993216855738015,-0.0007599728468581301,-0.0005408354918472469,-0.02061227336525917,0.0
189,5,2.062253770418465e-06,1.0174091585213318e-05,-1.5996174624888226e-05,0.0007702992297708988,-0.0040387241169810295,-0.004185500089079142,-0.004310652147978544,0.002393619855865836,-0.000417527713580057,-0.015612690709531307,-0.0020604943856596947,-0.025515999644994736,0.0,0.0,0.0,-0.0066136871464550495,0.000133488341816701,-0.0,0.0,0.0,0.0,0.001165822148323059,-0.0003512621042318642,-0.0010883373906835914,13064.0,13843.0,13299.0,13956.0,0.3790507912635803,0.4287137985229492,0.39374250173568726,0.43620169162750244,0.0,0.0,0.0,0.0,13178.0,13687.0,13523.0,13808.0,1.6814324855804443,-0.07146337833908721,0.10002737943181537,-0.0011142703539744293,-0.0005408354918472469,-0.02061227336525917,0.0
194,5,-1.2378220162645448e-05,-1.4263140428738552e-06,-1.4897858818585519e-05,-0.0014247371582314372,-0.00022344091848935932,-0.001805997802875936,-0.004310652147978544,0.002393619855865836,-0.000417527713580057,-0.015612690709531307,-0.0020604943856596947,-0.025515999644994736,0.0,0.0,0.0,0.004917892627418041,0.0007216162630356848,-0.0,0.0,0.0,0.0,0.001165822148323059,-0.0003512621042318642,-0.0010883373906835914,13064.0,13843.0,13299.0,13956.0,0.3790507912635803,0.4287137985229492,0.39374250173568726,0.43620169162750244,0.0,0.0,0.0,0.0,13178.0,13687.0,13523.0,13808.0,1.6676043272018433,-0.07149392515546636,0.09966567414653558,-0.0009669748721598575,-0.002899652346968651,0.015201184898614883,0.0
199,5,-7.385122444247827e-05,7.2162679316534195e-06,5.950214836047962e-05,-0.00794665515422821,-0.0011264862259849906,-0.009650399908423424,-0.00436845188960433,0.0026891084853559732,-0.0004327003553044051,0.023769302293658257,-0.04289078712463379,-0.052076853811740875,0.0,0.0,0.0,0.004917892627418041,0.0007216162630356848,-0.0,0.0,0.0,0.0,0.0009046731283888221,-0.0016637782100588083,0.00011990682105533779,13416.0,14138.0,13553.0,13741.0,0.40116065740585327,0.4483177065849304,0.4098716378211975,0.42208248376846313,0.0,0.0,0.0,0.0,13440.0,13423.0,13758.0,13560.0,1.6676043272018433,-0.07242673660802147,0.10053876021289705,-0.0021951619776094653,-0.002899652346968651,0.015201184898614883,0.0
204,5,-5.690808393410407e-05,3.11769254039973e-05,5.398870780481957e-05,-0.00114548543933779,-0.003325873287394643,-0.003198547288775444,-0.00436845188960433,0.0026891084853559732,-0.0004327003553044051,0.023769302293658257,-0.04289078712463379,-0.052076853811740875,0.0,0.0,0.0,0.0013469855766743422,-0.007340147625654936,-0.0,0.0,0.0,0.0,0.0009046731283888221,-0.0016637782100588083,0.00011990682105533779,13416.0,14138.0,13553.0,13741.0,0.40116065740585327,0.4483177065849304,0.4098716378211975,0.42208248376846313,0.0,0.0,0.0,0.0,13440.0,13423.0,13758.0,13560.0,1.707854986190796,-0.0702209571324329,0.10003068599518652,-0.0004088663019321201,0.0302067082375288,0.00426404969766736,0.0
209,5,-0.00011750850535463542,6.535226566484198e-05,0.00023151011555455625,-0.007730244658887386,-0.005431389901787043,-0.02258198708295822,-0.004431892652064562,0.002889821073040366,-0.0005610241205431521,-0.033319342881441116,-0.0324581004679203,0.03676391392946243,0.0,0.0,0.0,0.0013469855766743422,-0.007340147625654936,-0.0,0.0,0.0,0.0,-0.00018256278417538851,-0.001577467191964388,0.0007476664031855762,13699.0,13170.0,14325.0,13424.0,0.41934239864349365,0.3856423497200012,0.4610016942024231,0.4016178846359253,0.0,0.0,0.0,0.0,12795.0,14698.0,12885.0,14368.0,1.707854986190796,-0.06936829343319145,0.10238823118462272,-0.0026479426584111497,0.0302067082375288,0.00426404969766736,0.0
214,5,-8.438316581305116e-05,8.398128557018936e-05,0.00016286017489619553,0.0008829425205476582,-0.004408038686960936,-0.0007948015118017793,-0.004431892652064562,0.002889821073040366,-0.0005610241205431521,-0.033319342881441116,-0.0324581004679203,0.03676391392946243,0.0,0.0,0.0,0.0064904652535915375,-0.007138546090573072,-0.0,0.0,0.0,0.0,-0.00018256278417538851,-0.001577467191964388,0.0007476664031855762,13699.0,13170.0,14325.0,13424.0,0.41934239864349365,0.3856423497200012,0.4610016942024231,0.4016178846359253,0.0,0.0,0.0,0.0,12795.0,14698.0,12885.0,14368.0,1.7229247093200684,-0.06686306717245762,0.10220702737722412,-0.0009665714330102622,0.02963569574058056,0.02072741463780403,0.0
219,5,-0.00011588849156396464,0.00011190702207386494,0.0001893807202577591,-0.0034274624194949865,-0.005114303436130285,-0.0035003870725631714,-0.004568139556795359,0.0034905869979411364,-0.0008050885517150164,-0.025256142020225525,-0.07285044342279434,0.008873386308550835,0.0,0.0,0.0,0.0064904652535915375,-0.007138546090573072,-0.0,0.0,0.0,0.0,0.0026976994704455137,-0.00242248410359025,-0.001139670261181891,13094.0,13824.0,13847.0,13864.0,0.38096293807029724,0.42748430371284485,0.42902132868766785,0.4301357567310333,0.0,0.0,0.0,0.0,13302.0,13582.0,13981.0,13773.0,1.7229247093200684,-0.06656369895199815,0.10133303432580384,-0.000709928336163963,0.02963569574058056,0.02072741463780403,0.0
224,5,-0.0001703304296825081,0.000151444532093592,0.00027942933957092464,-0.00790401641279459,-0.006790223065763712,-0.012205990962684155,-0.004568139556795359,0.0034905869979411364,-0.0008050885517150164,-0.025256142020225525,-0.07285044342279434,0.008873386308550835,0.0,0.0,0.0,0.006317795719951391,-0.003312411019578576,-0.0,0.0,0.0,0.0,0.0026976994704455137,-0.00242248410359025,-0.001139670261181891,13094.0,13824.0,13847.0,13864.0,0.38096293807029724,0.42748430371284485,0.42902132868766785,0.4301357567310333,0.0,0.0,0.0,0.0,13302.0,13582.0,13981.0,13773.0,1.6903704404830933,-0.0634569097037474,0.10214826182855027,-0.00026603220926594044,0.013491758145391941,0.019794784486293793,0.0
229,5,-6.374844815582037e-05,-5.9869784308830276e-05,0.00011112802167190239,0.009628230705857277,0.022641628980636597,0.015313764102756977,-0.004743519239127636,0.003889757674187422,-0.0008015528437681496,0.000763598654884845,-0.03393520414829254,-0.055956076830625534,0.0,0.0,0.0,0.006317795719951391,-0.003312411019578576,-0.0,0.0,0.0,0.0,0.001657122396863997,-0.0044178725220263,-0.0008657394209876657,12876.0,14482.0,13735.0,14117.0,0.36752042174339294,0.47173216938972473,0.42166396975517273,0.4469384253025055,0.0,0.0,0.0,0.0,13607.0,13678.0,14637.0,13304.0,1.6903704404830933,-0.07280038118794714,0.09718718114671991,-0.002171861884515773,0.013491758145391941,0.019794784486293793,0.0
235,5,-8.132611401379108e-05,-8.386848639929667e-05,0.00014372971781995147,0.0017419729847460985,0.011936496011912823,0.0022133023012429476,-0.004743519239127636,0.003889757674187422,-0.0008015528437681496,0.000763598654884845,-0.03393520414829254,-0.055956076830625534,0.0,0.0,0.0,-0.024597283452749252,0.007937847636640072,-0.0,0.0,0.0,0.0,0.001657122396863997,-0.0044178725220263,-0.0008657394209876657,12876.0,14482.0,13735.0,14117.0,0.36752042174339294,0.47173216938972473,0.42166396975517273,0.4469384253025055,0.0,0.0,0.0,0.0,13607.0,13678.0,14637.0,13304.0,1.8698275089263916,-0.0732115866425565,0.09647693948643482,-0.002019629297094935,-0.03575363755226135,-0.08523494750261307,-0.0
240,5,-8.721638732822612e-05,-7.122075476218015e-05,0.0002173049870179966,-1.0043789188785013e-05,0.003256870899349451,-0.007943711243569851,-0.0050485944375395775,0.003904170822352171,-0.0006999705219641328,-0.034272633492946625,0.02516775205731392,-0.0032059650402516127,0.0,0.0,0.0,-0.024597283452749252,0.007937847636640072,-0.0,0.0,0.0,0.0,0.003820131067186594,-0.0032420610077679157,-0.00033401240943931043,13230.0,13995.0,14148.0,14100.0,0.389374703168869,0.4387924373149872,0.44896236062049866,0.4457952082157135,0.0,0.0,0.0,0.0,13401.0,13512.0,14206.0,13863.0,1.8698275089263916,-0.07312685416128965,0.0971961804135915,-0.002562653802853322,-0.03575363755226135,-0.08523494750261307,-0.0
245,5,-0.00011938100215047598,-8.115753735182807e-05,0.00026289894594810903,-0.0038637714460492134,0.002495161723345518,-0.008648761548101902,-0.0050485944375395775,0.003904170822352171,-0.0006999705219641328,-0.034272633492946625,0.02516775205731392,-0.0032059650402516127,0.0,0.0,0.0,-0.004096825607120991,-0.00012982658518012613,-0.0,0.0,0.0,0.0,0.003820131067186594,-0.0032420610077679157,-0.00033401240943931043,13230.0,13995.0,14148.0,14100.0,0.389374703168869,0.4387924373149872,0.44896236062049866,0.4457952082157135,0.0,0.0,0.0,0.0,13401.0,13512.0,14206.0,13863.0,1.659898281097412,-0.07251887499802898,0.09752878106332358,-0.0025314226142484726,0.0005192701937630773,-0.012604781426489353,0.0
250,5,-0.00021075336553622037,-0.00010999799997080117,0.0003134231665171683,-0.012510191649198532,0.004458920564502478,-0.009522408246994019,-0.005505233537405729,0.0037404694594442844,-0.0006515136919915676,-0.09777434915304184,-0.014121725223958492,0.034503720700740814,0.0,0.0,0.0,-0.004096825607120991,-0.00012982658518012613,-0.0,0.0,0.0,0.0,0.004658831283450127,-0.00207634549587965,0.0011830618605017662,13745.0,13089.0,14693.0,13415.0,0.4223237633705139,0.3805961608886719,0.48639631271362305,0.4010542035102844,0.0,0.0,0.0,0.0,14752.0,14539.0,14189.0,14191.0,1.659898281097412,-0.0785112829114106,0.09599000203736262,-0.002593784886195206,0.0005192701937630773,-0.012604781426489353,0.0
255,5,-0.00019474985310807824,-4.457495379028842e-05,0.00036514271050691605,-0.0030836553778499365,-0.0060671973042190075,-0.010015308856964111,-0.005505233537405729,0.0037404694594442844,-0.0006515136919915676,-0.09777434915304184,-0.014121725223958492,0.034503720700740814,0.0,0.0,0.0,-0.005303873680531979,-0.011320860125124454,-0.0,0.0,0.0,0.0,0.004658831283450127,-0.00207634549587965,0.0011830618605017662,13745.0,13089.0,14693.0,13415.0,0.4223237633705139,0.3805961608886719,0.48639631271362305,0.4010542035102844,0.0,0.0,0.0,0.0,14752.0,14539.0,14189.0,14191.0,1.762395977973938,-0.07488563430699105,0.09790361027336675,-0.0025341915894825486,0.04807501658797264,-0.017326127737760544,0.0
260,5,-0.0002753943554125726,-5.3278025006875396e-05,0.0003920853778254241,-0.010910801589488983,-0.001382510527037084,-0.007239243946969509,-0.006963286083191633,0.003742489730939269,-0.0006638917257077992,-0.14187510311603546,-0.009724103845655918,0.02435135282576084,0.0,0.0,0.0,-0.005303873680531979,-0.011320860125124454,-0.0,0.0,0.0,0.0,-0.0032903843093663454,0.0015477770939469337,-0.0010700497077777982,14628.0,14610.0,14060.0,14374.0,0.48180389404296875,0.48059988021850586,0.4430769085884094,0.46434682607650757,0.0,0.0,0.0,0.0,14916.0,14315.0,14358.0,14077.0,1.762395977973938,-0.07751993096341028,0.09815720590396057,-0.003625866744596472,0.04807501658797264,-0.017326127737760544,0.0
265,5,-0.0002496048982720822,-1.994635931623634e-05,0.00044130446622148156,-0.0012695860350504518,-0.004552803933620453,-0.008801990188658237,-0.006963286083191633,0.003742489730939269,-0.0006638917257077992,-0.14187510311603546,-0.009724103845655918,0.02435135282576084,0.0,0.0,0.0,0.0015162623021751642,-0.01011932734400034,-0.0,0.0,0.0,0.0,-0.0032903843093663454,0.0015477770939469337,-0.0010700497077777982,14628.0,14610.0,14060.0,14374.0,0.48180389404296875,0.48059988021850586,0.4430769085884094,0.46434682607650757,0.0,0.0,0.0,0.0,14916.0,14315.0,14358.0,14077.0,1.7402682304382324,-0.07517520626572699,0.0979150854244878,-0.0026344101166846092,0.04243379086256027,0.004891012329608202,0.0
270,5,-0.00028803152963519096,-3.917858975910349e-06,0.00046887778444215655,-0.005119032692164183,-0.0037445416674017906,-0.00682959146797657,-0.007887211628258228,0.003756187856197357,-0.00046409954666160047,-0.15128175914287567,-0.035060398280620575,-0.007219534367322922,0.0,0.0,0.0,0.0015162623021751642,-0.01011932734400034,-0.0,0.0,0.0,0.0,0.003305101301521063,-0.0015106028877198696,5.98368096689228e-05,13146.0,13646.0,13842.0,13880.0,0.3841826021671295,0.41586610674858093,0.42866620421409607,0.4311833679676056,0.0,0.0,0.0,0.0,13134.0,13622.0,14012.0,13744.0,1.7402682304382324,-0.07623538825828462,0.09615083524963494,-0.0027397321527630764,0.04243379086256027,0.004891012329608202,0.0
275,5,-0.0003704802074935287,-1.8444351326252217e-06,0.0005638525472022593,-0.011941454373300076,-0.001746627502143383,-0.014128809794783592,-0.007887211628258228,0.003756187856197357,-0.00046409954666160047,-0.15128175914287567,-0.035060398280620575,-0.007219534367322922,0.0,0.0,0.0,0.004466818179935217,-0.005094025284051895,-0.0,0.0,0.0,0.0,0.003305101301521063,-0.0015106028877198696,5.98368096689228e-05,13146.0,13646.0,13842.0,13880.0,0.3841826021671295,0.41586610674858093,0.42866620421409607,0.4311833679676056,0.0,0.0,0.0,0.0,13134.0,13622.0,14012.0,13744.0,1.6933503150939941,-0.08065092920118282,0.09494998201528114,-0.0029164305587983607,0.020785171538591385,0.014020096510648727,0.0
280,5,-0.0003714860649779439,2.5065766749321483e-05,0.0005700247129425406,-0.004897281993180513,-0.003927875310182571,-0.006392184644937515,-0.007887211628258228,0.003756187856197357,-0.00046409954666160047,-0.15128175914287567,-0.035060398280620575,-0.007219534367322922,0.0,0.0,0.0,0.004466818179935217,-0.005094025284051895,-0.0,0.0,0.0,0.0,0.003305101301521063,-0.0015106028877198696,5.98368096689228e-05,13146.0,13646.0,13842.0,13880.0,0.3841826021671295,0.41586610674858093,0.42866620421409607,0.4311833679676056,0.0,0.0,0.0,0.0,13134.0,13622.0,14012.0,13744.0,1.6933503150939941,-0.08052199327860683,0.0936074266715778,-0.002122340890223665,0.020785171538591385,0.014020096510648727,0.0
286,5,-0.0004398958117235452,0.0001227394095622003,0.0006177020259201527,-0.010168083943426609,-0.013291987590491772,-0.008278151974081993,-0.009884391911327839,0.004682930186390877,-0.00011509400064824149,-0.20699818432331085,-0.09757181257009506,0.04545534774661064,0.0,0.0,0.0,0.0047353110276162624,-0.005001598969101906,-0.0,0.0,0.0,0.0,0.0076134405098855495,-0.00689198262989521,-0.00023362357751466334,13721.0,13739.0,15198.0,13356.0,0.42076146602630615,0.42194443941116333,0.5223416090011597,0.39734846353530884,0.0,0.0,0.0,0.0,13505.0,13906.0,15155.0,13453.0,1.6938385963439941,-0.08027987091350594,0.09292711749442498,-0.004198625631042641,0.02041390724480152,0.014867095276713371,0.0
291,5,-0.0005037562223151326,0.0001995370112126693,0.0006524983909912407,-0.011730482801795006,-0.01453250739723444,-0.007486825808882713,-0.009884391911327839,0.004682930186390877,-0.00011509400064824149,-0.20699818432331085,-0.09757181257009506,0.04545534774661064,0.0,0.0,0.0,0.0047353110276162624,-0.005001598969101906,-0.0,0.0,0.0,0.0,0.0076134405098855495,-0.00689198262989521,-0.00023362357751466334,13721.0,13739.0,15198.0,13356.0,0.42076146602630615,0.42194443941116333,0.5223416090011597,0.39734846353530884,0.0,0.0,0.0,0.0,13505.0,13906.0,15155.0,13453.0,1.6938385963439941,-0.0812280832156469,0.09203620900074368,-0.004229685033695307,0.02041390724480152,0.014867095276713371,0.0
296,5,-0.0005680641042999923,0.0002136009861715138,0.0007224029395729303,-0.012409142218530178,-0.007500679697841406,-0.011383270844817162,-0.011563687585294247,0.0053931307047605515,-0.00022146161063574255,-0.21524111926555634,-0.07014967501163483,0.012346017174422741,0.0,0.0,0.0,0.016492515802383423,-0.010673009790480137,-0.0,0.0,0.0,0.0,0.007743958383798599,-0.004142078571021557,0.0003948270168621093,12923.0,13938.0,14815.0,14013.0,0.3703886866569519,0.434989869594574,0.49495524168014526,0.4399344325065613,0.0,0.0,0.0,0.0,13586.0,13293.0,15431.0,13328.0,1.8187546730041504,-0.08402246717738088,0.09193677026831297,-0.004763743882506558,0.04676765948534012,0.055594757199287415,0.0
301,5,-0.0006702027167193592,0.00027571359532885253,0.0007065194076858461,-0.011303839273750782,-0.006281804293394089,-0.0011421255767345428,-0.011563687585294247,0.0053931307047605515,-0.00022146161063574255,-0.21524111926555634,-0.07014967501163483,0.012346017174422741,0.0,0.0,0.0,0.016492515802383423,-0.010673009790480137,-0.0,0.0,0.0,0.0,0.007743958383798599,-0.004142078571021557,0.0003948270168621093,12923.0,13938.0,14815.0,14013.0,0.3703886866569519,0.434989869594574,0.49495524168014526,0.4399344325065613,0.0,0.0,0.0,0.0,13586.0,13293.0,15431.0,13328.0,1.8187546730041504,-0.08415468859966733,0.0909592706512812,-0.0028402529169826657,0.04676765948534012,0.055594757199287415,0.0
306,5,-0.000737352529540658,0.0003401120484340936,0.0007386779179796576,-0.01257951371371746,-0.01024053618311882,-0.004315871279686689,-0.013569301925599575,0.0057625602930784225,9.770011092768982e-05,-0.1288876086473465,0.014762111008167267,-0.029456865042448044,0.0,0.0,0.0,0.007660266477614641,-0.010830426588654518,-0.0,0.0,0.0,0.0,0.005936187691986561,-0.0032364826183766127,0.0020560824777930975,13859.0,12844.0,15047.0,13192.0,0.42977583408355713,0.36559343338012695,0.5114437937736511,0.38702553510665894,0.0,0.0,0.0,0.0,13016.0,13564.0,14325.0,14099.0,1.7659912109375,-0.08538873235353786,0.09107362874597381,-0.003842727563465042,0.04608554765582085,0.025074554607272148,0.0
311,5,-0.0007666560704819858,0.0003570782137103379,0.0007104413234628737,-0.008548228070139885,-0.006132152397185564,0.0016620478127151728,-0.013569301925599575,0.0057625602930784225,9.770011092768982e-05,-0.1288876086473465,0.014762111008167267,-0.029456865042448044,0.0,0.0,0.0,0.007660266477614641,-0.010830426588654518,-0.0,0.0,0.0,0.0,0.005936187691986561,-0.0032364826183766127,0.0020560824777930975,13859.0,12844.0,15047.0,13192.0,0.42977583408355713,0.36559343338012695,0.5114437937736511,0.38702553510665894,0.0,0.0,0.0,0.0,13016.0,13564.0,14325.0,14099.0,1.7659912109375,-0.08411033846194156,0.09155909110318945,-0.0031386713706993918,0.04608554765582085,0.025074554607272148,0.0
316,5,-0.0008135458920150995,0.0003706452844198793,0.0007168662850745022,-0.009046070277690887,-0.004080909304320812,-0.00010618183296173811,-0.013897348195314407,0.005829684901982546,0.0005015027127228677,-0.015013227239251137,0.024969419464468956,0.05381159484386444,0.0,0.0,0.0,0.007722974289208651,-0.008635741658508778,-0.0,0.0,0.0,0.0,0.008758501149713993,-0.003506088862195611,-0.0007234967197291553,13316.0,13985.0,15041.0,14527.0,0.39482152462005615,0.4381105899810791,0.5110222697257996,0.4748002886772156,0.0,0.0,0.0,0.0,13523.0,13274.0,14490.0,13731.0,1.7437976598739624,-0.08310102176057578,0.09188740631863328,-0.002141127287445044,0.03628518059849739,0.02496211603283882,-0.0
321,5,-0.0008748669642955065,0.000367671309504658,0.0007684694137424231,-0.01097695343196392,-0.00127548782620579,-0.006234843283891678,-0.013897348195314407,0.005829684901982546,0.0005015027127228677,-0.015013227239251137,0.024969419464468956,0.05381159484386444,0.0,0.0,0.0,0.007722974289208651,-0.008635741658508778,-0.0,0.0,0.0,0.0,0.008758501149713993,-0.003506088862195611,-0.0007234967197291553,13316.0,13985.0,15041.0,14527.0,0.39482152462005615,0.4381105899810791,0.5110222697257996,0.4748002886772156,0.0,0.0,0.0,0.0,13523.0,13274.0,14490.0,13731.0,1.7437976598739624,-0.08430754873682515,0.09261158779349792,-0.002640507753694284,0.03628518059849739,0.02496211603283882,-0.0
326,5,-0.0009133772109635174,0.0003843270824290812,0.0007664576405659318,-0.009012013673782349,-0.0025088880211114883,-0.002252524718642235,-0.013568184338510036,0.005411588121205568,0.0007593548507429659,0.03195526823401451,-0.027692219242453575,-0.04496735334396362,0.0,0.0,0.0,0.0020988776814192533,-0.010905169881880283,-0.0,0.0,0.0,0.0,0.008773373439908028,-0.005151944700628519,0.0007058738265186548,13253.0,14018.0,14771.0,14059.0,0.3908316493034363,0.44033193588256836,0.4918147325515747,0.44301289319992065,0.0,0.0,0.0,0.0,14021.0,13314.0,15631.0,13853.0,1.750246524810791,-0.08304897723349916,0.09292015684962229,-0.001933975278431777,0.04599112272262573,0.006809172686189413,0.0
331,5,-0.0008744086371734738,0.0003115071449428797,0.0005265214713290334,0.0010714208474382758,0.00773483794182539,0.027891330420970917,-0.013568184338510036,0.005411588121205568,0.0007593548507429659,0.03195526823401451,-0.027692219242453575,-0.04496735334396362,0.0,0.0,0.0,0.0020988776814192533,-0.010905169881880283,-0.0,0.0,0.0,0.0,0.008773373439908028,-0.005151944700628519,0.0007058738265186548,13253.0,14018.0,14771.0,14059.0,0.3908316493034363,0.44033193588256836,0.4918147325515747,0.44301289319992065,0.0,0.0,0.0,0.0,14021.0,13314.0,15631.0,13853.0,1.750246524810791,-0.07866227146276487,0.08692254649740874,0.0011931719469202822,0.04599112272262573,0.006809172686189413,0.0
337,5,-0.0008608016651123762,0.0004080414364580065,0.0003036662528757006,0.0020614087115973234,-0.008490179665386677,0.03789915516972542,-0.013162646442651749,0.005442057270556688,0.0007854257710278034,0.06678172200918198,-0.05076681450009346,0.062343087047338486,0.0,0.0,0.0,-0.008663366548717022,-0.0001978847722057253,-0.0,0.0,0.0,0.0,0.005254484247416258,-0.005388698074966669,0.0016950221033766866,13854.0,13358.0,15228.0,13278.0,0.4294508099555969,0.39745277166366577,0.5245011448860168,0.39239293336868286,0.0,0.0,0.0,0.0,12878.0,14401.0,14361.0,14438.0,1.6993240118026733,-0.06711799833654467,0.08848903344221185,0.0026236431111887172,0.000810259603895247,-0.02728736214339733,-0.0
342,5,-0.000895033881533891,0.00039686859236098826,0.0002955578966066241,-0.0032833016011863947,-0.002055330201983452,0.016132665798068047,-0.013162646442651749,0.005442057270556688,0.0007854257710278034,0.06678172200918198,-0.05076681450009346,0.062343087047338486,0.0,0.0,0.0,-0.008663366548717022,-0.0001978847722057253,-0.0,0.0,0.0,0.0,0.005254484247416258,-0.005388698074966669,0.0016950221033766866,13854.0,13358.0,15228.0,13278.0,0.4294508099555969,0.39745277166366577,0.5245011448860168,0.39239293336868286,0.0,0.0,0.0,0.0,12878.0,14401.0,14361.0,14438.0,1.6993240118026733,-0.06700263656474888,0.08783637940655208,0.003439700608166002,0.000810259603895247,-0.02728736214339733,-0.0
347,5,-0.0009516182471998036,0.00036338146310299635,0.000284982961602509,-0.008103445172309875,0.003196322824805975,0.007722059730440378,-0.012379632331430912,0.005803152918815613,0.0006147197564132512,0.05979814752936363,-0.02846326120197773,-0.03708533197641373,0.0,0.0,0.0,-0.008663366548717022,-0.0001978847722057253,-0.0,0.0,0.0,0.0,0.005074730142951012,-0.00473684212192893,-0.0014855213230475783,12734.0,14448.0,14094.0,14457.0,0.35898566246032715,0.46941959857940674,0.4453606605529785,0.47003173828125,0.0,0.0,0.0,0.0,13659.0,13577.0,15042.0,13469.0,1.6993240118026733,-0.06666652999167999,0.08683698216748328,0.004823992352673455,0.000810259603895247,-0.02728736214339733,-0.0
352,5,-0.0010296398540958762,0.0003925440541934222,0.00036242869100533426,-0.012603970244526863,-0.0022209801245480776,-0.0062046661041677,-0.012379632331430912,0.005803152918815613,0.0006147197564132512,0.05979814752936363,-0.02846326120197773,-0.03708533197641373,0.0,0.0,0.0,-0.0031214035116136074,-0.00857451930642128,-0.0,0.0,0.0,0.0,0.005074730142951012,-0.00473684212192893,-0.0014855213230475783,12734.0,14448.0,14094.0,14457.0,0.35898566246032715,0.46941959857940674,0.4453606605529785,0.47003173828125,0.0,0.0,0.0,0.0,13659.0,13577.0,15042.0,13469.0,1.7251707315444946,-0.0655112505178647,0.08842918560629763,0.004046904865476993,0.03564399108290672,-0.009981349110603333,-0.0
357,5,-0.0011047652224078774,0.00036437116796150804,0.00036004502908326685,-0.014056634157896042,0.002492352155968547,-0.0021958264987915754,-0.012379632331430912,0.005803152918815613,0.0006147197564132512,0.05979814752936363,-0.02846326120197773,-0.03708533197641373,0.0,0.0,0.0,-0.0031214035116136074,-0.00857451930642128,-0.0,0.0,0.0,0.0,0.005074730142951012,-0.00473684212192893,-0.0014855213230475783,12734.0,14448.0,14094.0,14457.0,0.35898566246032715,0.46941959857940674,0.4453606605529785,0.47003173828125,0.0,0.0,0.0,0.0,13659.0,13577.0,15042.0,13469.0,1.7251707315444946,-0.06706361312464063,0.0873773687700909,0.004923965218939772,0.03564399108290672,-0.009981349110603333,-0.0
362,5,-0.0011379830539226532,0.00037387144402600825,0.0003615961759351194,-0.009608788415789604,-0.00014309145626612008,-0.001064467360265553,-0.011937683448195457,0.006341176573187113,0.0009305317071266472,0.04662509635090828,-0.07665697485208511,-0.050864703953266144,0.0,0.0,0.0,-0.002218338195234537,-0.013683554716408253,-0.0,0.0,0.0,0.0,0.003427456133067608,-0.0071936845779418945,0.00026166500174440444,13015.0,14442.0,14465.0,13932.0,0.37608444690704346,0.4689840078353882,0.4705762267112732,0.4346018433570862,0.0,0.0,0.0,0.0,13564.0,13935.0,14853.0,13513.0,1.783812165260315,-0.06569825174606307,0.08721540749177957,0.00592664325027086,0.058814626187086105,-0.007334740832448006,0.0
367,5,-0.0012194495648145676,0.0003695821505971253,0.0003719062951859087,-0.013619507662951946,0.00045747734839096665,-0.0016630018362775445,-0.011937683448195457,0.006341176573187113,0.0009305317071266472,0.04662509635090828,-0.07665697485208511,-0.050864703953266144,0.0,0.0,0.0,-0.002218338195234537,-0.013683554716408253,-0.0,0.0,0.0,0.0,0.003427456133067608,-0.0071936845779418945,0.00026166500174440444,13015.0,14442.0,14465.0,13932.0,0.37608444690704346,0.4689840078353882,0.4705762267112732,0.4346018433570862,0.0,0.0,0.0,0.0,13564.0,13935.0,14853.0,13513.0,1.783812165260315,-0.06604917139852513,0.08759737618459955,0.005786278744588846,0.058814626187086105,-0.007334740832448006,0.0
372,5,-0.001227938337251544,0.0003700070083141327,0.00027671243879012764,-0.006466445978730917,0.00013200817920733243,0.01075806189328432,-0.011601043865084648,0.007157724350690842,0.0005919731338508427,0.02400190196931362,-0.08842761069536209,0.04791620001196861,0.0,0.0,0.0,9.880586731014773e-05,-0.01347874104976654,-0.0,0.0,0.0,0.0,0.0006558130262419581,-0.004194620065391064,0.0005199240404181182,13793.0,13689.0,14464.0,13155.0,0.4254574775695801,0.41865265369415283,0.47051775455474854,0.3846961259841919,0.0,0.0,0.0,0.0,13499.0,13982.0,14791.0,13200.0,1.7799924612045288,-0.06324544483654673,0.08691980231018478,0.007378635654459168,0.05781043320894241,0.00032599386759102345,0.0
377,5,-0.0013033110881224275,0.0004030063864775002,0.00028245983412489295,-0.011631317436695099,-0.003907120320945978,0.0036135371774435043,-0.011601043865084648,0.007157724350690842,0.0005919731338508427,0.02400190196931362,-0.08842761069536209,0.04791620001196861,0.0,0.0,0.0,9.880586731014773e-05,-0.01347874104976654,-0.0,0.0,0.0,0.0,0.0006558130262419581,-0.004194620065391064,0.0005199240404181182,13793.0,13689.0,14464.0,13155.0,0.4254574775695801,0.41865265369415283,0.47051775455474854,0.3846961259841919,0.0,0.0,0.0,0.0,13499.0,13982.0,14791.0,13200.0,1.7799924612045288,-0.06200220560587573,0.08639502206712779,0.007811883947155047,0.05781043320894241,0.00032599386759102345,0.0
382,5,-0.001355100073851645,0.00042383407708257437,0.00023435514594893903,-0.010867205448448658,-0.004062171094119549,0.007217977195978165,-0.011467640288174152,0.00796038843691349,0.00020864387624897063,0.008012045174837112,-0.09151863306760788,-0.07118033617734909,0.0,0.0,0.0,0.005148046184331179,-0.011923875659704208,-0.0,0.0,0.0,0.0,0.0025002595502883196,-0.007282102946192026,-0.002683047903701663,12141.0,15119.0,13594.0,14483.0,0.32419583201408386,0.5166395306587219,0.41253069043159485,0.4718047082424164,0.0,0.0,0.0,0.0,13068.0,14354.0,14468.0,13589.0,1.7688287496566772,-0.05863054043236634,0.08739180762514477,0.008759298117523202,0.05082051828503609,0.016878478229045868,-0.0
387,5,-0.0013901750789955258,0.000477846508147195,0.00022023059136699885,-0.008555877022445202,-0.008106361143290997,0.004582138266414404,-0.011467640288174152,0.00796038843691349,0.00020864387624897063,0.008012045174837112,-0.09151863306760788,-0.07118033617734909,0.0,0.0,0.0,0.005148046184331179,-0.011923875659704208,-0.0,0.0,0.0,0.0,0.0025002595502883196,-0.007282102946192026,-0.002683047903701663,12141.0,15119.0,13594.0,14483.0,0.32419583201408386,0.5166395306587219,0.41253069043159485,0.4718047082424164,0.0,0.0,0.0,0.0,13068.0,14354.0,14468.0,13589.0,1.7688287496566772,-0.054524056956036474,0.08856750466089504,0.01008936134826819,0.05082051828503609,0.016878478229045868,-0.0
392,5,-0.0014692448312416673,0.0005131245707161725,0.00024492695229128003,-0.012910719029605389,-0.00747591070830822,-0.001130707678385079,-0.011506346054375172,0.009094218723475933,5.486615191330202e-05,0.0027126516215503216,-0.08897829055786133,-0.06780894845724106,0.0,0.0,0.0,0.01010487973690033,-0.009356968104839325,-0.0,0.0,0.0,0.0,0.002751567168161273,-0.009341842494904995,-0.00017852270684670657,12787.0,14960.0,14490.0,14076.0,0.3621343970298767,0.5052411556243896,0.47227969765663147,0.4441568851470947,0.0,0.0,0.0,0.0,12300.0,15397.0,13910.0,14608.0,1.7640042304992676,-0.05223613866906972,0.08943105316553074,0.0107688765317516,0.03977023437619209,0.033038925379514694,-0.0
397,5,-0.0015568046364933252,0.0005625030025839806,0.00025991586153395474,-0.015671469271183014,-0.008915779180824757,-0.002250953344628215,-0.011506346054375172,0.009094218723475933,5.486615191330202e-05,0.0027126516215503216,-0.08897829055786133,-0.06780894845724106,0.0,0.0,0.0,0.01010487973690033,-0.009356968104839325,-0.0,0.0,0.0,0.0,0.002751567168161273,-0.009341842494904995,-0.00017852270684670657,12787.0,14960.0,14490.0,14076.0,0.3621343970298767,0.5052411556243896,0.47227969765663147,0.4441568851470947,0.0,0.0,0.0,0.0,12300.0,15397.0,13910.0,14608.0,1.7640042304992676,-0.05103336271441397,0.09018964653513133,0.010634181053595973,0.03977023437619209,0.033038925379514694,-0.0
402,5,-0.0015891073271632195,0.0005682877381332219,0.00024991409736685455,-0.010144914500415325,-0.004260476212948561,0.0002998321724589914,-0.011300258338451385,0.00956126768141985,-0.00047430352424271405,-0.000992781831882894,-0.05820854380726814,0.03620855137705803,0.0,0.0,0.0,0.010778842493891716,-0.01528861653059721,-0.0,0.0,0.0,0.0,0.0031276994850486517,-0.008329982869327068,-4.416509909788147e-06,13416.0,14311.0,14985.0,13583.0,0.4011390805244446,0.46004629135131836,0.5070049166679382,0.41180217266082764,0.0,0.0,0.0,0.0,13586.0,14146.0,15073.0,13489.0,1.8290467262268066,-0.04940841483515573,0.09145975784347102,0.011707435963778478,0.06737561523914337,0.03654182329773903,0.0
407,5,-0.001652963226661086,0.0006127601373009384,0.000267653726041317,-0.011720673181116581,-0.007040880154818296,-0.0020088255405426025,-0.011300258338451385,0.00956126768141985,-0.00047430352424271405,-0.000992781831882894,-0.05820854380726814,0.03620855137705803,0.0,0.0,0.0,0.010778842493891716,-0.01528861653059721,-0.0,0.0,0.0,0.0,0.0031276994850486517,-0.008329982869327068,-4.416509909788147e-06,13416.0,14311.0,14985.0,13583.0,0.4011390805244446,0.46004629135131836,0.5070049166679382,0.41180217266082764,0.0,0.0,0.0,0.0,13586.0,14146.0,15073.0,13489.0,1.8290467262268066,-0.04709175472305303,0.0934432228922785,0.011143190851489623,0.06737561523914337,0.03654182329773903,0.0
413,5,-0.0017169113270938396,0.0005833462928421795,0.0002823926624841988,-0.012362033128738403,0.0007133081671781838,-0.0025722021237015724,-0.011227807030081749,0.009724505245685577,-0.0012610418489202857,0.0013306302716955543,0.03482222184538841,-0.12501049041748047,0.0,0.0,0.0,0.008988467045128345,-0.012323915958404541,-0.0,0.0,0.0,0.0,0.006245061289519072,-0.004551009275019169,-0.0004740389413200319,11635.0,15529.0,13233.0,15395.0,0.2958959937095642,0.5466009974479675,0.3896174430847168,0.5367143154144287,0.0,0.0,0.0,0.0,12847.0,14552.0,14293.0,14423.0,1.7880505323410034,-0.04761307494239901,0.0931887419618552,0.011326425457411778,0.05309478938579559,0.029789509251713753,0.0
418,5,-0.0018096285639330745,0.0005652548279613256,0.00032368439133279026,-0.016070883721113205,0.0024562999606132507,-0.00598388584330678,-0.011227807030081749,0.009724505245685577,-0.0012610418489202857,0.0013306302716955543,0.03482222184538841,-0.12501049041748047,0.0,0.0,0.0,0.008988467045128345,-0.012323915958404541,-0.0,0.0,0.0,0.0,0.006245061289519072,-0.004551009275019169,-0.0004740389413200319,11635.0,15529.0,13233.0,15395.0,0.2958959937095642,0.5466009974479675,0.3896174430847168,0.5367143154144287,0.0,0.0,0.0,0.0,12847.0,14552.0,14293.0,14423.0,1.7880505323410034,-0.047739914726206444,0.09458818595291066,0.010344970045771743,0.05309478938579559,0.029789509251713753,0.0
423,5,-0.001861890428699553,0.0005774380988441408,0.0002874848432838917,-0.01269978005439043,-0.00047947076382115483,0.001950391218997538,-0.011186224408447742,0.00936165452003479,-0.0012348650489002466,0.01754584163427353,0.06556586176156998,-0.09846453368663788,0.0,0.0,0.0,0.008988467045128345,-0.012323915958404541,-0.0,0.0,0.0,0.0,0.0065078409388661385,-0.0054948581382632256,-0.0009373395005241036,12632.0,14543.0,14082.0,14753.0,0.35286378860473633,0.4759608507156372,0.444582998752594,0.49059659242630005,0.0,0.0,0.0,0.0,11800.0,15203.0,13292.0,15480.0,1.7880505323410034,-0.04649578524301312,0.09454274136841917,0.00996933641755384,0.05309478938579559,0.029789509251713753,0.0
428,5,-0.0019128797575831413,0.0005747875547967851,0.00028182604000903666,-0.011198635213077068,0.00012627376418095082,0.0014592116931453347,-0.011186224408447742,0.00936165452003479,-0.0012348650489002466,0.01754584163427353,0.06556586176156998,-0.09846453368663788,0.0,0.0,0.0,0.0015122998738661408,-0.013498315587639809,-0.0,0.0,0.0,0.0,0.0065078409388661385,-0.0054948581382632256,-0.0009373395005241036,12632.0,14543.0,14082.0,14753.0,0.35286378860473633,0.4759608507156372,0.444582998752594,0.49059659242630005,0.0,0.0,0.0,0.0,11800.0,15203.0,13292.0,15480.0,1.7808451652526855,-0.04563639006395229,0.09475859539715632,0.009476066150435013,0.057922057807445526,0.004991974215954542,-0.0
433,5,-0.0019564167596399784,0.0005936833913438022,0.0003117811575066298,-0.009703896008431911,-0.0022169891744852066,-0.0030109297949820757,-0.010999422520399094,0.008445236831903458,-0.0023439330980181694,0.020222218707203865,0.06952696293592453,0.008121965453028679,0.0,0.0,0.0,0.0015122998738661408,-0.013498315587639809,-0.0,0.0,0.0,0.0,0.005582461133599281,-0.004498958121985197,-0.004839567933231592,13301.0,14389.0,14863.0,14479.0,0.3938731253147125,0.46536901593208313,0.49831274151802063,0.47149184346199036,0.0,0.0,0.0,0.0,13573.0,14151.0,15148.0,14163.0,1.7808451652526855,-0.04534909942454853,0.09497718467942125,0.008998728041821941,0.057922057807445526,0.004991974215954542,-0.0
438,5,-0.0020000545773655176,0.0006049518706277013,0.00034282830893062055,-0.009118083864450455,-0.0022390149533748627,-0.0049300300888717175,-0.010999422520399094,0.008445236831903458,-0.0023439330980181694,0.020222218707203865,0.06952696293592453,0.008121965453028679,0.0,0.0,0.0,0.00356392958201468,-0.011159498244524002,-0.0,0.0,0.0,0.0,0.005582461133599281,-0.004498958121985197,-0.004839567933231592,13301.0,14389.0,14863.0,14479.0,0.3938731253147125,0.46536901593208313,0.49831274151802063,0.47149184346199036,0.0,0.0,0.0,0.0,13573.0,14151.0,15148.0,14163.0,1.7558529376983643,-0.045775470326147004,0.09499792825792171,0.00931180718074418,0.04721423238515854,0.011599095538258553,0.0
443,5,-0.0020382364746183157,0.0006390364142134786,0.0002986862964462489,-0.008229057304561138,-0.0049857511185109615,0.0033250306732952595,-0.010745999403297901,0.008004417642951012,-0.0030043271835893393,0.021091999486088753,0.06471511721611023,-0.17236019670963287,0.0,0.0,0.0,0.00356392958201468,-0.011159498244524002,-0.0,0.0,0.0,0.0,0.0032975783105939627,-0.0055726016871631145,-0.0005083235446363688,12962.0,14714.0,14239.0,14384.0,0.37280601263046265,0.4878755807876587,0.45516401529312134,0.46499955654144287,0.0,0.0,0.0,0.0,12201.0,15152.0,13655.0,15234.0,1.7558529376983643,-0.045621486198844416,0.09412841823987483,0.008893952389621821,0.04721423238515854,0.011599095538258553,0.0
448,5,-0.0020716306753456593,0.0006264238618314266,0.00027816015062853694,-0.007298942655324936,-0.0004807925724890083,0.0037931480910629034,-0.010745999403297901,0.008004417642951012,-0.0030043271835893393,0.021091999486088753,0.06471511721611023,-0.17236019670963287,0.0,0.0,0.0,0.00684148957952857,-0.00997493788599968,-0.0,0.0,0.0,0.0,0.0032975783105939627,-0.0055726016871631145,-0.0005083235446363688,12962.0,14714.0,14239.0,14384.0,0.37280601263046265,0.4878755807876587,0.45516401529312134,0.46499955654144287,0.0,0.0,0.0,0.0,12201.0,15152.0,13655.0,15234.0,1.7533044815063477,-0.04634219691724892,0.09349898631887178,0.008500391104047463,0.04214072972536087,0.02223363146185875,-0.0
453,5,-0.00214294227771461,0.0006554319988936186,0.00026393274310976267,-0.011476955376565456,-0.0036732973530888557,0.003224549815058708,-0.010745999403297901,0.008004417642951012,-0.0030043271835893393,0.021091999486088753,0.06471511721611023,-0.17236019670963287,0.0,0.0,0.0,0.00684148957952857,-0.00997493788599968,-0.0,0.0,0.0,0.0,0.0032975783105939627,-0.0055726016871631145,-0.0005083235446363688,12962.0,14714.0,14239.0,14384.0,0.37280601263046265,0.4878755807876587,0.45516401529312134,0.46499955654144287,0.0,0.0,0.0,0.0,12201.0,15152.0,13655.0,15234.0,1.7533044815063477,-0.04498210964056543,0.09385670197533946,0.0075227231780157005,0.04214072972536087,0.02223363146185875,-0.0
458,5,-0.0021767672151327133,0.0006450195796787739,0.0002880974789150059,-0.00864977017045021,-0.0002198248403146863,-0.0016099507920444012,-0.010481254197657108,0.007441195193678141,-0.003720494220033288,0.012016046792268753,0.023203089833259583,-0.07024931162595749,0.0,0.0,0.0,0.005276803858578205,-0.012805149890482426,-0.0,0.0,0.0,0.0,0.003952909726649523,-0.0049429419450461864,-0.003015643684193492,12525.0,14840.0,13878.0,14625.0,0.34651079773902893,0.4966868460178375,0.4310245215892792,0.48163077235221863,0.0,0.0,0.0,0.0,11700.0,15745.0,12982.0,15502.0,1.7794393301010132,-0.04535194896896454,0.09362061354384359,0.007678502002146354,0.05490373075008392,0.017404399812221527,-0.0
463,5,-0.0022347355261445045,0.000629885820671916,0.0002583008026704192,-0.010416113771498203,0.0017281181644648314,0.002931620692834258,-0.010481254197657108,0.007441195193678141,-0.003720494220033288,0.012016046792268753,0.023203089833259583,-0.07024931162595749,0.0,0.0,0.0,0.005276803858578205,-0.012805149890482426,-0.0,0.0,0.0,0.0,0.003952909726649523,-0.0049429419450461864,-0.003015643684193492,12525.0,14840.0,13878.0,14625.0,0.34651079773902893,0.4966868460178375,0.4310245215892792,0.48163077235221863,0.0,0.0,0.0,0.0,11700.0,15745.0,12982.0,15502.0,1.7794393301010132,-0.04439250037576027,0.0935866654202661,0.005930694256453333,0.05490373075008392,0.017404399812221527,-0.0
