timestamp,dt,pos_x,pos_y,pos_z,vel_x,vel_y,vel_z,roll,pitch,yaw,agv_x,agv_y,agv_z,x_ref,y_ref,z_ref,roll_ref,pitch_ref,yaw_ref,x_vel_ref,y_vel_ref,z_vel_ref,x_torque,y_torque,z_torque,w0,w1,w2,w3,u0,u1,u2,u3,m0req,m1req,m2req,m3req,thrust0,thrust1,thrust2,thrust3,thrust_ref,roll_vicon,pitch_vicon,yaw_vicon,acc_x,acc_y,acc_z
5,5,0.0,0.0,0.0,0.0015028808265924454,-0.0008873333572410047,-0.0017778008477762341,0.0,0.0,0.0,0.0,0.0,0.0,0.0,0.0,0.0,0.001092299004085362,0.0014231025706976652,-0.0,0.0,0.0,0.0,0.0,0.0,0.0,0.0,0.0,0.0,0.0,0.0,0.0,0.0,0.0,0.0,0.0,0.0,0.0,0.0,0.0,0.0,0.0,1.6434940099716187,0.03255512025728189,-0.2706975780611996,0.047169832712011396,-0.00563580309972167,0.0033275000751018524,0.0
47,42,0.0,0.0,0.0,0.0035179276019334793,0.002914633834734559,-0.0016333912499248981,0.0,0.0,0.0,0.0,0.0,0.0,0.0,0.0,0.0,0.001092299004085362,0.0014231025706976652,-0.0,0.0,0.0,0.0,0.0,0.0,0.0,0.0,0.0,0.0,0.0,0.0,0.0,0.0,0.0,0.0,0.0,0.0,0.0,0.0,0.0,0.0,0.0,1.6434940099716187,0.032186452813083966,-0.2698853171209677,0.04722500886314397,-0.00563580309972167,0.0033275000751018524,0.0
52,5,0.0,0.0,0.0,0.0004665370797738433,-0.00039476860547438264,0.003928434103727341,0.0,0.0,0.0,0.0,0.0,0.0,0.0,0.0,0.0,0.001092299004085362,0.0014231025706976652,-0.0,0.0,0.0,0.0,0.0,0.0,0.0,0.0,0.0,0.0,0.0,0.0,0.0,0.0,0.0,0.0,0.0,0.0,0.0,0.0,0.0,0.0,0.0,1.6434940099716187,0.03275030983539674,-0.2696701290055191,0.04682298563717803,-0.00563580309972167,0.0033275000751018524,0.0
57,5,0.0,0.0,0.0,0.0007330694934353232,-6.096252764109522e-05,-0.0014164875028654933,0.0,0.0,0.0,0.0,0.0,0.0,0.0,0.0,0.0,0.0004893887089565396,0.00044489154242910445,-0.0,0.0,0.0,0.0,0.0,0.0,0.0,0.0,0.0,0.0,0.0,0.0,0.0,0.0,0.0,0.0,0.0,0.0,0.0,0.0,0.0,0.0,0.0,1.631967306137085,0.03211402845182612,-0.26947061969522584,0.046969999158680824,-0.0017495140200480819,0.0014803822850808501,0.0
62,5,-1.462166073906701e-05,3.5108175779896555e-06,1.885636811493896e-05,-0.001461371430195868,-0.00044568313751369715,-0.002829359145835042,0.0,0.0,0.0,0.0,0.0,0.0,0.0,0.0,0.0,0.0004893887089565396,0.00044489154242910445,-0.0,0.0,0.0,0.0,0.0,0.0,0.0,0.0,0.0,0.0,0.0,0.0,0.0,0.0,0.0,0.0,0.0,0.0,0.0,0.0,0.0,0.0,0.0,1.631967306137085,0.03310301859270651,-0.2699598076117224,0.04709568469411516,-0.0017495140200480819,0.0014803822850808501,0.0
68,5,-2.421015324216569e-06,9.848104127740953e-07,1.3407630831352435e-05,0.0008795288158580661,0.00012484760372899473,-0.00047789516975171864,0.0,0.0,0.0,0.0,0.0,0.0,0.0,0.0,0.0,0.0005556451505981386,-0.0014058129163458943,-0.0,0.0,0.0,0.0,0.0,0.0,0.0,0.0,0.0,0.0,0.0,0.0,0.0,0.0,0.0,0.0,0.0,0.0,0.0,0.0,0.0,0.0,0.0,1.6415096521377563,0.0329134036605674,-0.2702887161539007,0.04704425183098597,0.005560613237321377,0.0016906335949897766,0.0
73,5,-2.4082264644675888e-05,2.6075034838868305e-05,4.4237676775082946e-05,-0.0022475384175777435,-0.002960887737572193,-0.0038907635025680065,0.0,0.0,0.0,0.0,0.0,0.0,0.0,0.0,0.0,0.0005556451505981386,-0.0014058129163458943,-0.0,0.0,0.0,0.0,0.0,0.0,0.0,0.0,0.0,0.0,0.0,0.0,0.0,0.0,0.0,0.0,0.0,0.0,0.0,0.0,0.0,0.0,0.0,1.6415096521377563,0.03368980836549011,-0.27031141110277335,0.046931934677982456,0.005560613237321377,0.0016906335949897766,0.0
79,7,-5.75486183151952e-06,-4.530347723630257e-06,-3.654792453744449e-05,0.00130027299746871,0.0024882906582206488,0.008137966506183147,0.0,0.0,0.0,0.0,0.0,0.0,0.0,0.0,0.0,0.0036464740987867117,-0.002135097747668624,-0.0,0.0,0.0,0.0,0.0,0.0,0.0,0.0,0.0,0.0,0.0,0.0,0.0,0.0,0.0,0.0,0.0,0.0,0.0,0.0,0.0,0.0,0.0,1.6639902591705322,0.03259068800112048,-0.27025850391164435,0.046871179547444644,0.00856085680425167,0.011246845126152039,0.0
84,5,-2.3245334887178615e-05,3.3017924579326063e-05,2.9950066164019518e-05,-0.0015787475276738405,-0.003510476555675268,-0.004724572412669659,0.0,0.0,0.0,0.0,0.0,0.0,0.0,0.0,0.0,0.0036464740987867117,-0.002135097747668624,-0.0,0.0,0.0,0.0,0.0,0.0,0.0,0.0,0.0,0.0,0.0,0.0,0.0,0.0,0.0,0.0,0.0,0.0,0.0,0.0,0.0,0.0,0.0,1.6639902591705322,0.033712377393727844,-0.27043505702686554,0.04745143630810789,0.00856085680425167,0.011246845126152039,0.0
89,5,-1.730191070237197e-05,2.464349745423533e-05,1.3944640159024857e-05,8.171180525096133e-05,-0.0003992592974100262,3.082225157413632e-05,0.0,0.0,0.0,0.0,0.0,0.0,0.0,0.0,0.0,0.004323475528508425,-0.0015072148526087403,-0.0,0.0,0.0,0.0,0.0,0.0,0.0,0.0,0.0,0.0,0.0,0.0,0.0,0.0,0.0,0.0,0.0,0.0,0.0,0.0,0.0,0.0,0.0,1.6653881072998047,0.03326196206984275,-0.2698573226659212,0.04731142799150732,0.006048369221389294,0.013346104882657528,0.0
94,5,-1.8369477402302437e-05,1.1009160516550764e-05,2.1523386749322526e-05,-9.542332554701716e-05,0.0014764168299734592,-0.0008971206261776388,0.0,0.0,0.0,0.0,0.0,0.0,0.0,0.0,0.0,0.004323475528508425,-0.0015072148526087403,-0.0,0.0,0.0,0.0,0.0,0.0,0.0,0.0,0.0,0.0,0.0,0.0,0.0,0.0,0.0,0.0,0.0,0.0,0.0,0.0,0.0,0.0,0.0,1.6653881072998047,0.03243920893844388,-0.270503754433184,0.04739433488319737,0.006048369221389294,0.013346104882657528,0.0
99,5,-3.0294871976366267e-05,1.930673352035228e-05,5.5057269491953775e-05,-0.0014692166587337852,-0.00040514199645258486,-0.004382914397865534,0.0,0.0,0.0,0.0,0.0,0.0,0.0,0.0,0.0,0.0005342406802810729,-0.001434893230907619,-0.0,0.0,0.0,0.0,0.0,0.0,0.0,0.0,0.0,0.0,0.0,0.0,0.0,0.0,0.0,0.0,0.0,0.0,0.0,0.0,0.0,0.0,0.0,1.6417609453201294,0.033284967032144716,-0.2702363978699724,0.04728447325761744,0.005676507018506527,0.0016257561510428786,0.0
105,5,-1.9418068404775113e-05,-9.84927191893803e-06,9.06626974028768e-06,0.0007175297942012548,0.0033366638235747814,0.0037657544016838074,0.0,0.0,0.0,0.0,0.0,0.0,0.0,0.0,0.0,0.0005342406802810729,-0.001434893230907619,-0.0,0.0,0.0,0.0,0.0,0.0,0.0,0.0,0.0,0.0,0.0,0.0,0.0,0.0,0.0,0.0,0.0,0.0,0.0,0.0,0.0,0.0,0.0,1.6417609453201294,0.03296030935587079,-0.27020152779862866,0.04692498096898041,0.005676507018506527,0.0016257561510428786,0.0
110,5,-3.639761416707188e-05,1.2500465345510747e-05,5.4937358072493225e-05,-0.0017505335854366422,-0.0013473029248416424,-0.003998228814452887,0.0,0.0,0.0,0.0,0.0,0.0,0.0,0.0,0.0,0.0005342406802810729,-0.001434893230907619,-0.0,0.0,0.0,0.0,0.0,0.0,0.0,0.0,0.0,0.0,0.0,0.0,0.0,0.0,0.0,0.0,0.0,0.0,0.0,0.0,0.0,0.0,0.0,1.6487427949905396,0.033764087708172186,-0.27047296108311225,0.04743180652877238,0.006765137892216444,0.005121469032019377,0.0
115,5,-1.9116334442514926e-05,-1.2893763596366625e-05,1.4296177141659427e-05,0.0013735401444137096,0.0025083862710744143,0.0032776501029729843,0.0,0.0,0.0,0.0,0.0,0.0,0.0,0.0,0.0,0.0016758434940129519,-0.0017028354341164231,-0.0,0.0,0.0,0.0,0.0,0.0,0.0,0.0,0.0,0.0,0.0,0.0,0.0,0.0,0.0,0.0,0.0,0.0,0.0,0.0,0.0,0.0,0.0,1.6487427949905396,0.03256405601841834,-0.2703783410694725,0.04710435990005616,0.006765137892216444,0.005121469032019377,0.0
120,5,-8.15421935840277e-06,1.962137048394652e-07,6.329140887828544e-06,0.0018648699624463916,-0.000567442795727402,0.0022671043407171965,0.0,0.0,0.0,0.0,0.0,0.0,0.0,0.0,0.0,0.0006981496699154377,0.0017523471033200622,-0.0,0.0,0.0,0.0,0.0,0.0,0.0,0.0,0.0,0.0,0.0,0.0,0.0,0.0,0.0,0.0,0.0,0.0,0.0,0.0,0.0,0.0,0.0,1.6454477310180664,0.03291182248839175,-0.2703317829580974,0.04708525280715941,-0.006947935558855534,0.002129320753738284,-0.0
125,5,-1.729056384647265e-05,1.8664570234250277e-05,3.9598486182512715e-05,-0.0003504134074319154,-0.002443179953843355,-0.003085479838773608,0.0,0.0,0.0,0.0,0.0,0.0,0.0,0.0,0.0,0.0006981496699154377,0.0017523471033200622,-0.0,0.0,0.0,0.0,0.0,0.0,0.0,0.0,0.0,0.0,0.0,0.0,0.0,0.0,0.0,0.0,0.0,0.0,0.0,0.0,0.0,0.0,0.0,1.6454477310180664,0.033076691867853836,-0.2701379215905256,0.04744568261814062,-0.006947935558855534,0.002129320753738284,-0.0
130,5,-1.308974879066227e-05,1.4579901289835107e-05,8.406701113017334e-07,0.00036393245682120323,-0.0004871116834692657,0.0034167461562901735,0.0,0.0,0.0,0.0,0.0,0.0,0.0,0.0,0.0,0.0006981496699154377,0.0017523471033200622,-0.0,0.0,0.0,0.0,0.0,0.0,0.0,0.0,0.0,0.0,0.0,0.0,0.0,0.0,0.0,0.0,0.0,0.0,0.0,0.0,0.0,0.0,0.0,1.6454477310180664,0.03299319562186003,-0.2703065262097208,0.04753836199834831,-0.006947935558855534,0.002129320753738284,-0.0
135,5,-3.668877252493985e-05,-5.386759221437387e-05,-0.00011471150355646387,-0.0026863098610192537,0.008018854074180126,0.01523295883089304,0.0,0.0,0.0,0.0,0.0,0.0,0.0,0.0,0.0,0.0006304880371317267,0.00032859985367394984,-0.0,0.0,0.0,0.0,0.0,0.0,0.0,0.0,0.0,0.0,0.0,0.0,0.0,0.0,0.0,0.0,0.0,0.0,0.0,0.0,0.0,0.0,0.0,1.6319998502731323,0.0313270249930743,-0.2724804756538989,0.04815548418300084,-0.001292228465899825,0.0019072404829785228,-0.0
140,5,-9.72027555690147e-06,6.2033032008912414e-06,-7.261026894411771e-06,0.0021616958547383547,-0.004000965505838394,-0.006800873205065727,0.0,0.0,0.0,0.0,0.0,0.0,0.0,0.0,0.0,0.0006304880371317267,0.00032859985367394984,-0.0,0.0,0.0,0.0,0.0,0.0,0.0,0.0,0.0,0.0,0.0,0.0,0.0,0.0,0.0,0.0,0.0,0.0,0.0,0.0,0.0,0.0,0.0,1.6319998502731323,0.03307186236920037,-0.27052744598303774,0.04720665498087071,-0.001292228465899825,0.0019072404829785228,-0.0
145,5,-3.107705924776383e-05,6.65401557853329e-06,3.507367364363745e-05,-0.001698135631158948,-0.0016544717364013195,-0.0078005134128034115,0.0,0.0,0.0,0.0,0.0,0.0,0.0,0.0,0.0,0.004852753598242998,0.0019988263957202435,-0.0,0.0,0.0,0.0,0.0,0.0,0.0,0.0,0.0,0.0,0.0,0.0,0.0,0.0,0.0,0.0,0.0,0.0,0.0,0.0,0.0,0.0,0.0,1.6718623638153076,0.03392043962662427,-0.27049930832067437,0.04739014180845699,-0.008052339777350426,0.015038142912089825,0.0
150,5,-4.005623486591503e-05,-6.552042032126337e-05,-0.00011217393330298364,-0.0017567554023116827,0.007999143563210964,0.01454950775951147,0.0,0.0,0.0,0.0,0.0,0.0,0.0,0.0,0.0,-0.009580611251294613,-0.0016529990825802088,-0.0,0.0,0.0,0.0,0.0,0.0,0.0,0.0,0.0,0.0,0.0,0.0,0.0,0.0,0.0,0.0,0.0,0.0,0.0,0.0,0.0,0.0,0.0,1.7094987630844116,0.03119594024846841,-0.2725898875346548,0.04796367671433087,0.006808840669691563,-0.03035697527229786,0.0
155,5,-2.3628394046681933e-05,1.8658920453162864e-05,2.9019509383942932e-05,0.0012686386471614242,-0.006901863496750593,-0.011123409494757652,0.0,0.0,0.0,0.0,0.0,0.0,0.0,0.0,0.0,-0.009580611251294613,-0.0016529990825802088,-0.0,0.0,0.0,0.0,0.0,0.0,0.0,0.0,0.0,0.0,0.0,0.0,0.0,0.0,0.0,0.0,0.0,0.0,0.0,0.0,0.0,0.0,0.0,1.7094987630844116,0.034206606990687456,-0.27076262735532264,0.04767746702846051,0.006808840669691563,-0.03035697527229786,0.0
161,5,-2.034103818004951e-05,8.769001397013199e-06,2.011784636124503e-05,0.0009019381832331419,-0.001573955174535513,-0.003381164278835058,0.0,0.0,0.0,0.0,0.0,0.0,0.0,0.0,0.0,-0.009580611251294613,-0.0016529990825802088,-0.0,0.0,0.0,0.0,0.0,0.0,0.0,0.0,0.0,0.0,0.0,0.0,0.0,0.0,0.0,0.0,0.0,0.0,0.0,0.0,0.0,0.0,0.0,1.7094987630844116,0.03339350973323794,-0.27040704796448634,0.04745711606670006,0.006808840669691563,-0.03035697527229786,0.0
166,5,-5.533363946597092e-05,-1.812843584048096e-05,-2.0430454242159612e-05,-0.0038383370265364647,0.0025981103535741568,0.00351333012804389,0.0,0.0,0.0,0.0,0.0,0.0,0.0,0.0,0.0,0.0019526360556483269,0.0008252832340076566,-0.0,0.0,0.0,0.0,0.0,0.0,0.0,0.0,0.0,0.0,0.0,0.0,0.0,0.0,0.0,0.0,0.0,0.0,0.0,0.0,0.0,0.0,0.0,1.6441580057144165,0.03229214914280369,-0.27275725788337507,0.04899072406425746,-0.003269622568041086,0.0059507666155695915,0.0
171,5,-5.444398425424879e-07,-1.110134780901717e-05,-2.8841604944318533e-06,0.005039369221776724,0.00019599359075073153,-0.0007002231432124972,0.0,0.0,0.0,0.0,0.0,0.0,0.0,0.0,0.0,0.0019526360556483269,0.0008252832340076566,-0.0,0.0,0.0,0.0,0.0,0.0,0.0,0.0,0.0,0.0,0.0,0.0,0.0,0.0,0.0,0.0,0.0,0.0,0.0,0.0,0.0,0.0,0.0,1.6441580057144165,0.03332856776423668,-0.27006882191253967,0.04740936258296859,-0.003269622568041086,0.0059507666155695915,0.0
176,5,-1.8376535081188194e-05,-1.165995513474627e-06,2.9863851523259655e-05,-0.00012410379713401198,-0.0011138448026031256,-0.004209850914776325,0.0,0.0,0.0,0.0,0.0,0.0,0.0,0.0,0.0,-0.0002560604771133512,0.004676071461290121,-0.0,0.0,0.0,0.0,0.0,0.0,0.0,0.0,0.0,0.0,0.0,0.0,0.0,0.0,0.0,0.0,0.0,0.0,0.0,0.0,0.0,0.0,0.0,1.6768314838409424,0.03317044094066992,-0.2710672493245922,0.047836388475578646,-0.01889386773109436,-0.0007958670030348003,0.0
181,5,-4.2316507460782304e-05,-5.790380237158388e-05,-7.983131217770278e-05,-0.0029224383179098368,0.006362999323755503,0.011479479260742664,0.0,0.0,0.0,0.0,0.0,0.0,0.0,0.0,0.0,-0.0002560604771133512,0.004676071461290121,-0.0,0.0,0.0,0.0,0.0,0.0,0.0,0.0,0.0,0.0,0.0,0.0,0.0,0.0,0.0,0.0,0.0,0.0,0.0,0.0,0.0,0.0,0.0,1.6768314838409424,0.03216651623291547,-0.2727704719766197,0.04841453880370647,-0.01889386773109436,-0.0007958670030348003,0.0
186,5,-1.2804175639757887e-05,-2.3468710423912853e-05,-2.4387081793975085e-05,0.0023725046776235104,-0.001587011618539691,-0.002061516046524048,0.0,0.0,0.0,0.0,0.0,0.0,0.0,0.0,0.0,-0.00768464058637619,-0.002736357506364584,-0.0,0.0,0.0,0.0,0.0,0.0,0.0,0.0,0.0,0.0,0.0,0.0,0.0,0.0,0.0,0.0,0.0,0.0,0.0,0.0,0.0,0.0,0.0,1.6975693702697754,0.03291218774001494,-0.27107756859136994,0.047432634978664165,0.0111928042024374,-0.02417975477874279,0.0
191,5,-1.211914604937192e-05,1.60313391006639e-06,1.020898071146803e-05,0.0010312054073438048,-0.0036434258799999952,-0.004976133815944195,0.0,0.0,0.0,0.0,0.0,0.0,0.0,0.0,0.0,-0.00768464058637619,-0.002736357506364584,-0.0,0.0,0.0,0.0,0.0,0.0,0.0,0.0,0.0,0.0,0.0,0.0,0.0,0.0,0.0,0.0,0.0,0.0,0.0,0.0,0.0,0.0,0.0,1.6975693702697754,0.03364079638203978,-0.27092131941973147,0.047948510849521994,0.0111928042024374,-0.02417975477874279,0.0
196,5,-1.3420598406810313e-05,-1.7002159893309e-06,-3.177500548190437e-05,0.0015042362501844764,0.0007083365344442427,0.005641330033540726,0.0,0.0,0.0,0.0,0.0,0.0,0.0,0.0,0.0,0.004432248882949352,0.0009474961552768946,-0.0,0.0,0.0,0.0,0.0,0.0,0.0,0.0,0.0,0.0,0.0,0.0,0.0,0.0,0.0,0.0,0.0,0.0,0.0,0.0,0.0,0.0,0.0,1.6641416549682617,0.0333363122304004,-0.2707144197056602,0.047742827882156336,-0.0037994026206433773,0.013671633787453175,0.0
201,5,-1.0912199286394753e-05,-1.397463620378403e-05,-4.5278415200300515e-05,0.0009027023916132748,0.0017562650609761477,0.003876941278576851,0.0,0.0,0.0,0.0,0.0,0.0,0.0,0.0,0.0,0.004432248882949352,0.0009474961552768946,-0.0,0.0,0.0,0.0,0.0,0.0,0.0,0.0,0.0,0.0,0.0,0.0,0.0,0.0,0.0,0.0,0.0,0.0,0.0,0.0,0.0,0.0,0.0,1.6641416549682617,0.03283392558856847,-0.26999962622661156,0.0473398173901851,-0.0037994026206433773,0.013671633787453175,0.0
206,5,-2.630808921821881e-05,-1.4919560271664523e-05,-1.0680701961973682e-05,-0.0014864258700981736,0.0008158968994393945,-0.0026009490247815847,0.0,0.0,0.0,0.0,0.0,0.0,0.0,0.0,0.0,-0.0021839626133441925,0.0008381331572309136,-0.0,0.0,0.0,0.0,0.0,0.0,0.0,0.0,0.0,0.0,0.0,0.0,0.0,0.0,0.0,0.0,0.0,0.0,0.0,0.0,0.0,0.0,0.0,1.6459338665008545,0.033228815667400005,-0.2705824582917771,0.047731231858100645,-0.0033241163473576307,-0.006662934087216854,0.0
212,5,-1.859703115769662e-05,-1.1992327927146107e-05,5.947671070316574e-06,0.00033075676765292883,-2.4909115381888114e-05,-0.0030357844661921263,0.0,0.0,0.0,0.0,0.0,0.0,0.0,0.0,0.0,-0.0021839626133441925,0.0008381331572309136,-0.0,0.0,0.0,0.0,0.0,0.0,0.0,0.0,0.0,0.0,0.0,0.0,0.0,0.0,0.0,0.0,0.0,0.0,0.0,0.0,0.0,0.0,0.0,1.6459338665008545,0.03396972081747447,-0.27098172545469323,0.047416350489774335,-0.0033241163473576307,-0.006662934087216854,0.0
217,5,-2.5517389076412655e-05,-2.2243497369345278e-05,3.133660720777698e-05,-0.0006981402402743697,0.0012201765784993768,-0.004260986112058163,0.0,0.0,0.0,0.0,0.0,0.0,0.0,0.0,0.0,9.052149835042655e-06,0.0002896860823966563,-0.0,0.0,0.0,0.0,0.0,0.0,0.0,0.0,0.0,0.0,0.0,0.0,0.0,0.0,0.0,0.0,0.0,0.0,0.0,0.0,0.0,0.0,0.0,1.6288329362869263,0.03381446350189061,-0.2712607629950396,0.047832064807104016,-0.0011369885178282857,2.7329824661137536e-05,0.0
222,5,-2.012262848438695e-05,-2.4994666091515683e-05,-3.29741601490241e-06,0.0003681151138152927,0.0008182110032066703,0.0024516882840543985,0.0,0.0,0.0,0.0,0.0,0.0,0.0,0.0,0.0,-0.0010578056098893285,0.00032198449480347335,-0.0,0.0,0.0,0.0,0.0,0.0,0.0,0.0,0.0,0.0,0.0,0.0,0.0,0.0,0.0,0.0,0.0,0.0,0.0,0.0,0.0,0.0,0.0,1.635103702545166,0.03440230435781412,-0.27106323219113,0.04784960137041273,-0.0012686210684478283,-0.003205970861017704,0.0
227,5,1.6848251789269852e-06,-4.81927054352127e-05,-2.4662536816322245e-05,0.0027641404885798693,0.0031110490672290325,0.0035444898530840874,0.0,0.0,0.0,0.0,0.0,0.0,0.0,0.0,0.0,-0.0010578056098893285,0.00032198449480347335,-0.0,0.0,0.0,0.0,0.0,0.0,0.0,0.0,0.0,0.0,0.0,0.0,0.0,0.0,0.0,0.0,0.0,0.0,0.0,0.0,0.0,0.0,0.0,1.635103702545166,0.032769346593938826,-0.27103791613837525,0.04795034894639125,-0.0012686210684478283,-0.003205970861017704,0.0
232,5,1.9960373265348608e-06,-1.9281627828604542e-05,-1.1995759450655896e-05,0.0011430016020312905,-0.0022249098401516676,-0.0001022173382807523,0.0,0.0,0.0,0.0,0.0,0.0,0.0,0.0,0.0,-0.0010578056098893285,0.00032198449480347335,-0.0,0.0,0.0,0.0,0.0,0.0,0.0,0.0,0.0,0.0,0.0,0.0,0.0,0.0,0.0,0.0,0.0,0.0,0.0,0.0,0.0,0.0,0.0,1.635103702545166,0.03322620902440849,-0.2707308476838989,0.04823518149512029,-0.0012686210684478283,-0.003205970861017704,0.0
237,5,3.111543264822103e-06,-1.85956869245274e-05,-8.802596198620449e-07,0.0005910613690502942,-0.0009722766699269414,-0.0013747469056397676,0.0,0.0,0.0,0.0,0.0,0.0,0.0,0.0,0.0,0.0026917827781289816,0.0010799375595524907,-0.0,0.0,0.0,0.0,0.0,0.0,0.0,0.0,0.0,0.0,0.0,0.0,0.0,0.0,0.0,0.0,0.0,0.0,0.0,0.0,0.0,0.0,0.0,1.6509199142456055,0.03268006343826402,-0.2703087454703149,0.04807867629693985,-0.0042961048893630505,0.008237086236476898,0.0
242,5,-8.491255357512273e-06,-1.4853944776405115e-05,1.321729905612301e-05,-0.0011559112463146448,-0.000837919709738344,-0.002241605892777443,0.0,0.0,0.0,0.0,0.0,0.0,0.0,0.0,0.0,0.001006534555926919,-0.0011088278843089938,-0.0,0.0,0.0,0.0,0.0,0.0,0.0,0.0,0.0,0.0,0.0,0.0,0.0,0.0,0.0,0.0,0.0,0.0,0.0,0.0,0.0,0.0,0.0,1.6402459144592285,0.03307496219535709,-0.2711762739307137,0.04850456800409872,0.004382527898997068,0.0030601737089455128,0.0
248,6,-1.3206334187998436e-05,-8.718464414414484e-06,3.429325715842424e-06,-0.0010281739523634315,-0.0010714256204664707,0.0002779145142994821,0.0,0.0,0.0,0.0,0.0,0.0,0.0,0.0,0.0,0.001006534555926919,-0.0011088278843089938,-0.0,0.0,0.0,0.0,0.0,0.0,0.0,0.0,0.0,0.0,0.0,0.0,0.0,0.0,0.0,0.0,0.0,0.0,0.0,0.0,0.0,0.0,0.0,1.6402459144592285,0.03363246900034337,-0.2715558586906664,0.048658884120310976,0.004382527898997068,0.0030601737089455128,0.0
253,5,9.915829650708474e-06,-3.5847471735905856e-05,-4.227634781273082e-05,0.0023633900564163923,0.002826910698786378,0.005595846567302942,0.0,0.0,0.0,0.0,0.0,0.0,0.0,0.0,0.0,0.001006534555926919,-0.0011088278843089938,-0.0,0.0,0.0,0.0,0.0,0.0,0.0,0.0,0.0,0.0,0.0,0.0,0.0,0.0,0.0,0.0,0.0,0.0,0.0,0.0,0.0,0.0,0.0,1.6402459144592285,0.03287577180522664,-0.27162264169315287,0.048034104040827724,0.004382527898997068,0.0030601737089455128,0.0
258,5,3.9372580431518145e-06,-2.6853307645069435e-05,1.4840326002740767e-05,0.0002279274194734171,5.146459807292558e-05,-0.004615662153810263,0.0,0.0,0.0,0.0,0.0,0.0,0.0,0.0,0.0,-0.003501860424876213,0.002224172232672572,-0.0,0.0,0.0,0.0,0.0,0.0,0.0,0.0,0.0,0.0,0.0,0.0,0.0,0.0,0.0,0.0,0.0,0.0,0.0,0.0,0.0,0.0,0.0,1.6636382341384888,0.032213559071442174,-0.2722319139026811,0.04880146668779839,-0.008916125632822514,-0.010798530653119087,0.0
263,5,-2.895275792980101e-05,-5.485097426571883e-05,-6.469689105870202e-05,-0.003855630988255143,0.00338030606508255,0.007698201574385166,0.0,0.0,0.0,0.0,0.0,0.0,0.0,0.0,0.0,-0.004171409644186497,-0.0036144182085990906,-0.0,0.0,0.0,0.0,0.0,0.0,0.0,0.0,0.0,0.0,0.0,0.0,0.0,0.0,0.0,0.0,0.0,0.0,0.0,0.0,0.0,0.0,0.0,1.6785509586334229,0.03215338163048414,-0.27361524183516844,0.04968180177134868,0.01461908221244812,-0.01297847367823124,0.0
268,5,2.8880580771328823e-07,-2.6216765036224388e-05,-2.609655712149106e-05,0.0019667353481054306,-0.0020839828066527843,-0.0015527599025517702,0.0,0.0,0.0,0.0,0.0,0.0,0.0,0.0,0.0,-0.004171409644186497,-0.0036144182085990906,-0.0,0.0,0.0,0.0,0.0,0.0,0.0,0.0,0.0,0.0,0.0,0.0,0.0,0.0,0.0,0.0,0.0,0.0,0.0,0.0,0.0,0.0,0.0,1.6785509586334229,0.03285132295414363,-0.2711114535442373,0.04842406762156125,0.01461908221244812,-0.01297847367823124,0.0
273,5,-1.810680259950459e-05,-3.0377066650544293e-05,-4.279701897758059e-05,-0.0014207788044586778,-0.0003343569114804268,0.0013829515082761645,0.0,0.0,0.0,0.0,0.0,0.0,0.0,0.0,0.0,-0.004171409644186497,-0.0036144182085990906,-0.0,0.0,0.0,0.0,0.0,0.0,0.0,0.0,0.0,0.0,0.0,0.0,0.0,0.0,0.0,0.0,0.0,0.0,0.0,0.0,0.0,0.0,0.0,1.6785509586334229,0.03385089070102465,-0.2716492386890872,0.04822346296944551,0.01461908221244812,-0.01297847367823124,0.0
278,5,-2.4065546313067898e-05,-2.029890674748458e-05,-1.943373899848666e-05,-0.001283360761590302,-0.0013431219849735498,-0.002250412944704294,0.0,0.0,0.0,0.0,0.0,0.0,0.0,0.0,0.0,0.00035709209623746574,-0.0013731117360293865,-0.0,0.0,0.0,0.0,0.0,0.0,0.0,0.0,0.0,0.0,0.0,0.0,0.0,0.0,0.0,0.0,0.0,0.0,0.0,0.0,0.0,0.0,0.0,1.6407634019851685,0.03426453818994702,-0.27125332336111085,0.04814358905593783,0.005428796634078026,0.001086012227460742,0.0
283,5,1.4865979665046325e-06,-4.727405757876113e-05,-5.105540913064033e-05,0.002552913036197424,0.002699769102036953,0.002894435077905655,0.0,0.0,0.0,0.0,0.0,0.0,0.0,0.0,0.0,0.00035709209623746574,-0.0013731117360293865,-0.0,0.0,0.0,0.0,0.0,0.0,0.0,0.0,0.0,0.0,0.0,0.0,0.0,0.0,0.0,0.0,0.0,0.0,0.0,0.0,0.0,0.0,0.0,1.6407634019851685,0.033146802906035375,-0.2712921660194718,0.0478379803880219,0.005428796634078026,0.001086012227460742,0.0
288,5,-2.58434683928499e-05,-3.657622801256366e-05,-3.44413892889861e-05,-0.002258442807942629,-0.00020383154333103448,-0.0008359081693924963,0.0,0.0,0.0,0.0,0.0,0.0,0.0,0.0,0.0,-0.0033670917619019747,0.002389372792094946,-0.0,0.0,0.0,0.0,0.0,0.0,0.0,0.0,0.0,0.0,0.0,0.0,0.0,0.0,0.0,0.0,0.0,0.0,0.0,0.0,0.0,0.0,0.0,1.663975477218628,0.03396040093842917,-0.2720755334421757,0.04836219583640758,-0.009580316953361034,-0.01038505882024765,0.0
293,5,-6.278914952417836e-06,-4.902758519165218e-05,-8.924824942369014e-05,0.0014443693216890097,0.0014126300811767578,0.0062424601055681705,0.0,0.0,0.0,0.0,0.0,0.0,0.0,0.0,0.0,-0.0033670917619019747,0.002389372792094946,-0.0,0.0,0.0,0.0,0.0,0.0,0.0,0.0,0.0,0.0,0.0,0.0,0.0,0.0,0.0,0.0,0.0,0.0,0.0,0.0,0.0,0.0,0.0,1.663975477218628,0.03267040745094925,-0.2715018026736055,0.047349391572548916,-0.009580316953361034,-0.01038505882024765,0.0
299,5,-2.468057573423721e-05,-1.9253300706623122e-05,-3.146018570987508e-05,-0.0016304515302181244,-0.0030078620184212923,-0.004437583964318037,0.0,0.0,0.0,0.0,0.0,0.0,0.0,0.0,0.0,-0.0018242112128064036,0.0013559733051806688,-0.0,0.0,0.0,0.0,0.0,0.0,0.0,0.0,0.0,0.0,0.0,0.0,0.0,0.0,0.0,0.0,0.0,0.0,0.0,0.0,0.0,0.0,0.0,1.6467365026474,0.03412724447326416,-0.27159800091446784,0.048128358912695984,-0.005380545277148485,-0.005568103864789009,0.0
304,5,-2.7988851797999814e-05,-2.1869209376745857e-05,-5.9090885770274326e-05,-0.0010491737630218267,-0.0008892358746379614,0.0015406504971906543,0.0,0.0,0.0,0.0,0.0,0.0,0.0,0.0,0.0,-0.0018242112128064036,0.0013559733051806688,-0.0,0.0,0.0,0.0,0.0,0.0,0.0,0.0,0.0,0.0,0.0,0.0,0.0,0.0,0.0,0.0,0.0,0.0,0.0,0.0,0.0,0.0,0.0,1.6467365026474,0.03337011024592163,-0.2716458251670417,0.047901581419781805,-0.005380545277148485,-0.005568103864789009,0.0
309,5,-2.126352774212137e-05,-4.426582017913461e-05,-0.00010663627472240478,0.00038736924761906266,0.0023318990133702755,0.006321706809103489,0.0,0.0,0.0,0.0,0.0,0.0,0.0,0.0,0.0,0.0010571148013696074,-0.0010349967051297426,-0.0,0.0,0.0,0.0,0.0,0.0,0.0,0.0,0.0,0.0,0.0,0.0,0.0,0.0,0.0,0.0,0.0,0.0,0.0,0.0,0.0,0.0,0.0,1.6398553848266602,0.032998012683234414,-0.27145892407591393,0.047542256797092494,0.004089743830263615,0.003213187912479043,0.0
314,5,-1.6032718122005463e-05,-2.1737150746048428e-05,-5.659022644977085e-05,0.0007826449000276625,-0.0017706808866932988,-0.003476843237876892,0.0,0.0,0.0,0.0,0.0,0.0,0.0,0.0,0.0,0.0010571148013696074,-0.0010349967051297426,-0.0,0.0,0.0,0.0,0.0,0.0,0.0,0.0,0.0,0.0,0.0,0.0,0.0,0.0,0.0,0.0,0.0,0.0,0.0,0.0,0.0,0.0,0.0,1.6398553848266602,0.03372084107849625,-0.27144370264930007,0.04801429542948624,0.004089743830263615,0.003213187912479043,0.0
319,5,-3.388379991520196e-05,-8.84034889168106e-05,-0.00017959612887352705,-0.0018290719017386436,0.007291688583791256,0.013369970954954624,0.0,0.0,0.0,0.0,0.0,0.0,0.0,0.0,0.0,0.002138038631528616,0.0007177931838668883,-0.0,0.0,0.0,0.0,0.0,0.0,0.0,0.0,0.0,0.0,0.0,0.0,0.0,0.0,0.0,0.0,0.0,0.0,0.0,0.0,0.0,0.0,0.0,1.6450330018997192,0.03209089389023894,-0.27378975117158233,0.04897777555717647,-0.0028452787082642317,0.006519257090985775,0.0
324,5,-1.9102133592241444e-05,-3.285241837147623e-05,-6.215267057996243e-05,0.0010421712649986148,-0.003749453229829669,-0.008745226077735424,0.0,0.0,0.0,0.0,0.0,0.0,0.0,0.0,0.0,0.002138038631528616,0.0007177931838668883,-0.0,0.0,0.0,0.0,0.0,0.0,0.0,0.0,0.0,0.0,0.0,0.0,0.0,0.0,0.0,0.0,0.0,0.0,0.0,0.0,0.0,0.0,0.0,1.6450330018997192,0.03435903136829086,-0.2715999207929103,0.0480140457973531,-0.0028452787082642317,0.006519257090985775,0.0
329,5,-3.3810418244684115e-05,-3.831060166703537e-05,-4.913277371088043e-05,-0.001348125864751637,-0.0008447996224276721,-0.005060478579252958,0.0,0.0,0.0,0.0,0.0,0.0,0.0,0.0,0.0,0.0009711620514281094,-0.0013250650372356176,-0.0,0.0,0.0,0.0,0.0,0.0,0.0,0.0,0.0,0.0,0.0,0.0,0.0,0.0,0.0,0.0,0.0,0.0,0.0,0.0,0.0,0.0,0.0,1.6420701742172241,0.03364732566007329,-0.27185394743749064,0.047825955080273666,0.005243007559329271,0.002955914242193103,0.0
334,5,-1.1372228073014412e-05,-5.429175871540792e-05,-0.00010874920553760603,0.0021533325780183077,0.001579819479957223,0.005129780154675245,0.0,0.0,0.0,0.0,0.0,0.0,0.0,0.0,0.0,0.0009711620514281094,-0.0013250650372356176,-0.0,0.0,0.0,0.0,0.0,0.0,0.0,0.0,0.0,0.0,0.0,0.0,0.0,0.0,0.0,0.0,0.0,0.0,0.0,0.0,0.0,0.0,0.0,1.6420701742172241,0.03318199676182797,-0.27187442754740654,0.04781414763651328,0.005243007559329271,0.002955914242193103,0.0
339,5,-2.309974661329761e-06,-5.394002073444426e-05,-7.305268809432164e-05,0.0019488034304231405,0.0005897191585972905,-0.002231669845059514,0.0,0.0,0.0,0.0,0.0,0.0,0.0,0.0,0.0,-0.0008222567266784608,0.001838209107518196,-0.0,0.0,0.0,0.0,0.0,0.0,0.0,0.0,0.0,0.0,0.0,0.0,0.0,0.0,0.0,0.0,0.0,0.0,0.0,0.0,0.0,0.0,0.0,1.646655559539795,0.03371495739134012,-0.2713871910271946,0.048159683783032425,-0.0072937216609716415,-0.0025096817407757044,0.0
345,5,-1.9929255358874798e-05,-3.72243594028987e-05,-5.889409294468351e-05,-0.001334792235866189,-0.0017699920572340488,-0.002591699128970504,0.0,0.0,0.0,0.0,0.0,0.0,0.0,0.0,0.0,-0.0008222567266784608,0.001838209107518196,-0.0,0.0,0.0,0.0,0.0,0.0,0.0,0.0,0.0,0.0,0.0,0.0,0.0,0.0,0.0,0.0,0.0,0.0,0.0,0.0,0.0,0.0,0.0,1.646655559539795,0.03346809280660233,-0.27147113273707496,0.04813612592768366,-0.0072937216609716415,-0.0025096817407757044,0.0
350,5,-2.581424269010313e-05,-3.816134267253801e-05,-7.175590872066095e-05,-0.0012401152634993196,-0.0005955588421784341,0.0005067380261607468,0.0,0.0,0.0,0.0,0.0,0.0,0.0,0.0,0.0,0.0006651417352259159,-0.0012132417177781463,-0.0,0.0,0.0,0.0,0.0,0.0,0.0,0.0,0.0,0.0,0.0,0.0,0.0,0.0,0.0,0.0,0.0,0.0,0.0,0.0,0.0,0.0,0.0,1.6398603916168213,0.034051538691694645,-0.27167294396744396,0.0480088421920456,0.004794087260961533,0.002021759981289506,0.0
355,5,-3.0373021218110807e-05,-3.571465640561655e-05,-6.210589344846085e-05,-0.0010430996771901846,-0.000531825702637434,-0.0009553066920489073,0.0,0.0,0.0,0.0,0.0,0.0,0.0,0.0,0.0,0.0006651417352259159,-0.0012132417177781463,-0.0,0.0,0.0,0.0,0.0,0.0,0.0,0.0,0.0,0.0,0.0,0.0,0.0,0.0,0.0,0.0,0.0,0.0,0.0,0.0,0.0,0.0,0.0,1.6398603916168213,0.0335810102218307,-0.2716504760586556,0.04815799377947356,0.004794087260961533,0.002021759981289506,0.0
360,5,-8.997755685413722e-06,-5.38766871613916e-05,-0.00010150697926292196,0.00214779214002192,0.001966713462024927,0.004346007946878672,0.0,0.0,0.0,0.0,0.0,0.0,0.0,0.0,0.0,0.0006651417352259159,-0.0012132417177781463,-0.0,0.0,0.0,0.0,0.0,0.0,0.0,0.0,0.0,0.0,0.0,0.0,0.0,0.0,0.0,0.0,0.0,0.0,0.0,0.0,0.0,0.0,0.0,1.6398603916168213,0.03327147534893166,-0.27167611608526143,0.048014921027815564,0.004794087260961533,0.002021759981289506,0.0
365,5,-9.472284546063747e-06,-6.412900984287262e-05,-8.619390428066254e-05,0.0008021733374334872,0.00201696390286088,-9.916572162183002e-05,0.0,0.0,0.0,0.0,0.0,0.0,0.0,0.0,0.0,-0.002500221598893404,0.002005872083827853,-0.0,0.0,0.0,0.0,0.0,0.0,0.0,0.0,0.0,0.0,0.0,0.0,0.0,0.0,0.0,0.0,0.0,0.0,0.0,0.0,0.0,0.0,0.0,1.6557726860046387,0.034057367528863715,-0.2716001210907281,0.04790444787525188,-0.008003025315701962,-0.0076733841560781,0.0
370,5,3.97827443521237e-06,-5.612157110590488e-05,-6.99747251928784e-05,0.0019349363865330815,-0.000154106950503774,-0.0019859683234244585,0.0,0.0,0.0,0.0,0.0,0.0,0.0,0.0,0.0,-0.002500221598893404,0.002005872083827853,-0.0,0.0,0.0,0.0,0.0,0.0,0.0,0.0,0.0,0.0,0.0,0.0,0.0,0.0,0.0,0.0,0.0,0.0,0.0,0.0,0.0,0.0,0.0,1.6557726860046387,0.0329411289507464,-0.2716903223568438,0.04811041431660924,-0.008003025315701962,-0.0076733841560781,0.0
375,5,8.272660352304229e-07,-5.5859934946056455e-05,-0.00010607983131194487,0.00039585353806614876,-9.303916158387437e-05,0.0035382260102778673,0.0,0.0,0.0,0.0,0.0,0.0,0.0,0.0,0.0,8.758926560403779e-05,0.001835095463320613,-0.0,0.0,0.0,0.0,0.0,0.0,0.0,0.0,0.0,0.0,0.0,0.0,0.0,0.0,0.0,0.0,0.0,0.0,0.0,0.0,0.0,0.0,0.0,1.6454859972000122,0.03318313430278386,-0.27148292678922453,0.047723144593463246,-0.007276197895407677,0.00026714903651736677,0.0
381,5,-1.2115387107769493e-05,-4.8019450332503766e-05,-7.13772969902493e-05,-0.0013947769766673446,-0.0009780736872926354,-0.0027490141801536083,0.0,0.0,0.0,0.0,0.0,0.0,0.0,0.0,0.0,8.758926560403779e-05,0.001835095463320613,-0.0,0.0,0.0,0.0,0.0,0.0,0.0,0.0,0.0,0.0,0.0,0.0,0.0,0.0,0.0,0.0,0.0,0.0,0.0,0.0,0.0,0.0,0.0,1.6454859972000122,0.03326365226644108,-0.2717014550534164,0.04813572923744433,-0.007276197895407677,0.00026714903651736677,0.0
386,5,-3.1217074138112366e-05,-0.00010568205470917746,-0.0001956816267920658,-0.0028501134365797043,0.006528283469378948,0.013816914521157742,0.0,0.0,0.0,0.0,0.0,0.0,0.0,0.0,0.0,0.0011170203797519207,-0.0013385489583015442,-0.0,0.0,0.0,0.0,0.0,0.0,0.0,0.0,0.0,0.0,0.0,0.0,0.0,0.0,0.0,0.0,0.0,0.0,0.0,0.0,0.0,0.0,0.0,1.6428221464157104,0.03105150497338229,-0.27435263271870935,0.04900669307837134,0.00529878493398428,0.0034014179836958647,0.0
391,5,-1.1893176633748226e-05,-5.259786485112272e-05,-8.688038360560313e-05,0.0011788224801421165,-0.003758789738640189,-0.007529383525252342,0.0,0.0,0.0,0.0,0.0,0.0,0.0,0.0,0.0,0.0011170203797519207,-0.0013385489583015442,-0.0,0.0,0.0,0.0,0.0,0.0,0.0,0.0,0.0,0.0,0.0,0.0,0.0,0.0,0.0,0.0,0.0,0.0,0.0,0.0,0.0,0.0,0.0,1.6428221464157104,0.033835888239493676,-0.27164542496664645,0.048055080861006336,0.00529878493398428,0.0034014179836958647,0.0
396,5,-3.856260082102381e-05,-6.110948015702888e-05,-6.602048233617097e-05,-0.0027288019191473722,-0.00048212186084128916,-0.005514942109584808,0.0,0.0,0.0,0.0,0.0,0.0,0.0,0.0,0.0,0.004473018925637007,0.0010851516854017973,-0.0,0.0,0.0,0.0,0.0,0.0,0.0,0.0,0.0,0.0,0.0,0.0,0.0,0.0,0.0,0.0,0.0,0.0,0.0,0.0,0.0,0.0,0.0,1.6649072170257568,0.03361254407534072,-0.2723755892997633,0.0482818706640651,-0.00435339380055666,0.013803738169372082,0.0
401,5,-1.9771210645558313e-05,-6.797533569624647e-05,-0.00010601897520245984,0.0011634458787739277,0.0006310534663498402,0.0025938425678759813,0.0,0.0,0.0,0.0,0.0,0.0,0.0,0.0,0.0,0.004473018925637007,0.0010851516854017973,-0.0,0.0,0.0,0.0,0.0,0.0,0.0,0.0,0.0,0.0,0.0,0.0,0.0,0.0,0.0,0.0,0.0,0.0,0.0,0.0,0.0,0.0,0.0,1.6649072170257568,0.03342801881039233,-0.27176083121732764,0.04769559085298712,-0.00435339380055666,0.013803738169372082,0.0
406,5,-1.495439573773183e-05,-8.282301860162988e-05,-0.00011868366709677503,0.0010433961870148778,0.0020341440103948116,0.0025573004968464375,0.0,0.0,0.0,0.0,0.0,0.0,0.0,0.0,0.0,-0.0009026325424201787,0.0010763936443254352,-0.0,0.0,0.0,0.0,0.0,0.0,0.0,0.0,0.0,0.0,0.0,0.0,0.0,0.0,0.0,0.0,0.0,0.0,0.0,0.0,0.0,0.0,0.0,1.6394740343093872,0.03324603722196045,-0.27224229718339443,0.04824191271900469,-0.00425233319401741,-0.0027429882902652025,0.0
411,5,-1.6032592611736618e-05,-5.326256723492406e-05,-8.711292321095243e-05,0.000287975009996444,-0.0027335970662534237,-0.0027655691374093294,0.0,0.0,0.0,0.0,0.0,0.0,0.0,0.0,0.0,-0.0009026325424201787,0.0010763936443254352,-0.0,0.0,0.0,0.0,0.0,0.0,0.0,0.0,0.0,0.0,0.0,0.0,0.0,0.0,0.0,0.0,0.0,0.0,0.0,0.0,0.0,0.0,0.0,1.6394740343093872,0.034286239124243785,-0.2714440845479899,0.048167916098940784,-0.00425233319401741,-0.0027429882902652025,0.0
416,5,-2.5813205866143107e-05,-2.300139567523729e-05,-5.895143476664089e-05,-0.0010584837291389704,-0.004724779631942511,-0.00448560668155551,0.0,0.0,0.0,0.0,0.0,0.0,0.0,0.0,0.0,0.003249441273510456,0.00024852764909155667,-0.0,0.0,0.0,0.0,0.0,0.0,0.0,0.0,0.0,0.0,0.0,0.0,0.0,0.0,0.0,0.0,0.0,0.0,0.0,0.0,0.0,0.0,0.0,1.6528501510620117,0.03381653898136033,-0.27182135014093073,0.04844230766457495,-0.0009898236021399498,0.009955184534192085,0.0
421,5,-2.8519123588921502e-05,-1.941466507560108e-05,-4.410196197568439e-05,-0.0007481036009266973,-0.0023203191813081503,-0.003576179500669241,0.0,0.0,0.0,0.0,0.0,0.0,0.0,0.0,0.0,0.003249441273510456,0.00024852764909155667,-0.0,0.0,0.0,0.0,0.0,0.0,0.0,0.0,0.0,0.0,0.0,0.0,0.0,0.0,0.0,0.0,0.0,0.0,0.0,0.0,0.0,0.0,0.0,1.6528501510620117,0.03477844284057173,-0.2720508011222222,0.04888802636364502,-0.0009898236021399498,0.009955184534192085,0.0
426,5,0.000100439261586871,-0.0002808270219247788,-0.0006194647285155952,0.015316668897867203,0.03143024817109108,0.06958473473787308,0.0,0.0,0.0,0.0,0.0,0.0,0.0,0.0,0.0,0.002808524062857032,-0.0007453865255229175,-0.0,0.0,0.0,0.0,0.0,0.0,0.0,0.0,0.0,0.0,0.0,0.0,0.0,0.0,0.0,0.0,0.0,0.0,0.0,0.0,0.0,0.0,0.0,1.650375247001648,0.02466079891488608,-0.2733522124088104,0.04583570561149666,0.002964247018098831,0.008591488003730774,0.0
431,5,0.00011988034384557977,-0.00021226883109193295,-0.000490633596200496,0.008459596894681454,0.004345116205513477,0.012374157086014748,0.0,0.0,0.0,0.0,0.0,0.0,0.0,0.0,0.0,0.002808524062857032,-0.0007453865255229175,-0.0,0.0,0.0,0.0,0.0,0.0,0.0,0.0,0.0,0.0,0.0,0.0,0.0,0.0,0.0,0.0,0.0,0.0,0.0,0.0,0.0,0.0,0.0,1.650375247001648,0.026738053891984997,-0.2707470078129517,0.04470696736089598,0.002964247018098831,0.008591488003730774,0.0
437,5,0.00011345345410518348,-0.0002374937612330541,-0.0005030453903600574,0.0026126124430447817,0.004765038378536701,0.006439081393182278,0.0,0.0,0.0,0.0,0.0,0.0,0.0,0.0,0.0,-0.0054637170396745205,0.0077923499047756195,-0.0,0.0,0.0,0.0,0.0,0.0,0.0,0.0,0.0,0.0,0.0,0.0,0.0,0.0,0.0,0.0,0.0,0.0,0.0,0.0,0.0,0.0,0.0,1.7245830297470093,0.02668572086970137,-0.2707260834441012,0.0448164635467218,-0.032381247729063034,-0.01746533438563347,0.0
442,5,0.00011617642303463072,-0.00023425929248332977,-0.0005035678623244166,0.0013718014815822244,0.001517878263257444,0.0026383311487734318,0.0,0.0,0.0,0.0,0.0,0.0,0.0,0.0,0.0,-0.0054637170396745205,0.0077923499047756195,-0.0,0.0,0.0,0.0,0.0,0.0,0.0,0.0,0.0,0.0,0.0,0.0,0.0,0.0,0.0,0.0,0.0,0.0,0.0,0.0,0.0,0.0,0.0,1.7245830297470093,0.027037465504575642,-0.27041468811417113,0.04469892353455024,-0.032381247729063034,-0.01746533438563347,0.0
447,5,0.0001072543891496025,-0.0002274202270200476,-0.000497549946885556,-0.0005219235899858177,-0.0002135350223397836,0.0003331784682814032,0.0,0.0,0.0,0.0,0.0,0.0,0.0,0.0,0.0,-0.0022834339179098606,0.0014539968688040972,-0.0,0.0,0.0,0.0,0.0,0.0,0.0,0.0,0.0,0.0,0.0,0.0,0.0,0.0,0.0,0.0,0.0,0.0,0.0,0.0,0.0,0.0,0.0,1.6503180265426636,0.026986642139064244,-0.27043097358059726,0.04474346954441466,-0.005782048683613539,-0.006984960287809372,0.0
452,5,0.0001072543891496025,-0.0002274202270200476,-0.000497549946885556,-0.0005219235899858177,-0.0002135350223397836,0.0003331784682814032,0.0,0.0,0.0,0.0,0.0,0.0,0.0,0.0,0.0,-0.0022834339179098606,0.0014539968688040972,-0.0,0.0,0.0,0.0,0.0,0.0,0.0,0.0,0.0,0.0,0.0,0.0,0.0,0.0,0.0,0.0,0.0,0.0,0.0,0.0,0.0,0.0,0.0,1.6503180265426636,0.026986642139064244,-0.27043097358059726,0.04474346954441466,-0.005782048683613539,-0.006984960287809372,0.0
457,5,0.00010110092989634722,-0.00022543309023603797,-0.0005109154153615236,-0.0009471848607063293,-0.00032387059764005244,0.001737126731313765,0.0,0.0,0.0,0.0,0.0,0.0,0.0,0.0,0.0,-0.00015074110706336796,-0.0003483966866042465,-0.0,0.0,0.0,0.0,0.0,0.0,0.0,0.0,0.0,0.0,0.0,0.0,0.0,0.0,0.0,0.0,0.0,0.0,0.0,0.0,0.0,0.0,0.0,1.6296601295471191,0.026915246367841168,-0.2704450094110451,0.04505906731310751,0.0013681160053238273,-0.00045534156379289925,0.0
462,5,8.382859959965572e-05,-0.00027553385007195175,-0.0005707017844542861,-0.0032638299744576216,0.006640227511525154,0.009220236912369728,0.0,0.0,0.0,0.0,0.0,0.0,0.0,0.0,0.0,-0.00015074110706336796,-0.0003483966866042465,-0.0,0.0,0.0,0.0,0.0,0.0,0.0,0.0,0.0,0.0,0.0,0.0,0.0,0.0,0.0,0.0,0.0,0.0,0.0,0.0,0.0,0.0,0.0,1.6296601295471191,0.025215486720644643,-0.27359820487393366,0.04640786188955151,0.0013681160053238273,-0.00045534156379289925,0.0
467,5,0.00010057533654617146,-0.00020791665883734822,-0.0004370034148450941,0.0007040764321573079,-0.005457973573356867,-0.012355712242424488,0.0,0.0,0.0,0.0,0.0,0.0,0.0,0.0,0.0,-0.008367370814085007,-0.002869321731850505,-0.0,0.0,0.0,0.0,0.0,0.0,0.0,0.0,0.0,0.0,0.0,0.0,0.0,0.0,0.0,0.0,0.0,0.0,0.0,0.0,0.0,0.0,0.0,1.7036728858947754,0.02758845353896554,-0.2707456974436426,0.045286178735904244,0.011778813786804676,-0.026422539725899696,0.0
472,5,9.088432125281543e-05,-0.00019649762543849647,-0.00042558726272545755,-0.0008812913438305259,-0.0035534738563001156,-0.006312220823019743,0.0,0.0,0.0,0.0,0.0,0.0,0.0,0.0,0.0,-0.008367370814085007,-0.002869321731850505,-0.0,0.0,0.0,0.0,0.0,0.0,0.0,0.0,0.0,0.0,0.0,0.0,0.0,0.0,0.0,0.0,0.0,0.0,0.0,0.0,0.0,0.0,0.0,1.7036728858947754,0.028098043073451956,-0.27104237910572826,0.04525608462231631,0.011778813786804676,-0.026422539725899696,0.0
477,5,9.048541687661782e-05,-0.00016785932530183345,-0.0003755107754841447,-0.0004003852081950754,-0.004857985302805901,-0.008534069173038006,0.0,0.0,0.0,0.0,0.0,0.0,0.0,0.0,0.0,-0.008367370814085007,-0.002869321731850505,-0.0,0.0,0.0,0.0,0.0,0.0,0.0,0.0,0.0,0.0,0.0,0.0,0.0,0.0,0.0,0.0,0.0,0.0,0.0,0.0,0.0,0.0,0.0,1.7036728858947754,0.02914806526274259,-0.27041027453125444,0.0454861836999741,0.011778813786804676,-0.026422539725899696,0.0
482,5,7.30818574083969e-05,-0.0001511782465968281,-0.0003179538471158594,-0.002248580800369382,-0.003944923169910908,-0.010320458561182022,0.0,0.0,0.0,0.0,0.0,0.0,0.0,0.0,0.0,0.005576263181865215,-0.0002491107734385878,-0.0,0.0,0.0,0.0,0.0,0.0,0.0,0.0,0.0,0.0,0.0,0.0,0.0,0.0,0.0,0.0,0.0,0.0,0.0,0.0,0.0,0.0,0.0,1.6725590229034424,0.029677103360117297,-0.2711490214618646,0.04641488157934861,0.001003966317512095,0.01728738099336624,0.0
488,5,5.267120650387369e-05,-0.00011710746184689924,-0.00026022185920737684,-0.00334871094673872,-0.005666463635861874,-0.011056022718548775,0.0,0.0,0.0,0.0,0.0,0.0,0.0,0.0,0.0,0.005576263181865215,-0.0002491107734385878,-0.0,0.0,0.0,0.0,0.0,0.0,0.0,0.0,0.0,0.0,0.0,0.0,0.0,0.0,0.0,0.0,0.0,0.0,0.0,0.0,0.0,0.0,0.0,1.6725590229034424,0.03134723424856468,-0.27052948447563774,0.04666988680825692,0.001003966317512095,0.01728738099336624,0.0
493,5,5.45062284800224e-05,-0.00012304354459047318,-0.0002636916469782591,-0.001119281630963087,-0.0015542554901912808,-0.004006034228950739,0.0,0.0,0.0,0.0,0.0,0.0,0.0,0.0,0.0,0.006573924794793129,-0.003011867869645357,-0.0,0.0,0.0,0.0,0.0,0.0,0.0,0.0,0.0,0.0,0.0,0.0,0.0,0.0,0.0,0.0,0.0,0.0,0.0,0.0,0.0,0.0,0.0,1.690422773361206,0.03129771884128274,-0.2711053205792025,0.04698015001911256,0.01226798165589571,0.020597899332642555,0.0
498,5,1.9663175407913513e-05,-9.975659486372024e-05,-0.00019465363584458828,-0.004628879018127918,-0.0034161368384957314,-0.009886974468827248,0.0,0.0,0.0,0.0,0.0,0.0,0.0,0.0,0.0,0.006573924794793129,-0.003011867869645357,-0.0,0.0,0.0,0.0,0.0,0.0,0.0,0.0,0.0,0.0,0.0,0.0,0.0,0.0,0.0,0.0,0.0,0.0,0.0,0.0,0.0,0.0,0.0,1.690422773361206,0.03170141612459962,-0.2717436868591564,0.04703419801340969,0.01725008711218834,0.012254253961145878,0.0
503,5,-9.473960744799115e-06,-8.640454325359315e-05,-0.0001302947202930227,-0.005348007660359144,-0.0029687006026506424,-0.011677858419716358,0.0,0.0,0.0,0.0,0.0,0.0,0.0,0.0,0.0,0.0039285230450332165,-0.004253956023603678,-0.0,0.0,0.0,0.0,0.0,0.0,0.0,0.0,0.0,0.0,0.0,0.0,0.0,0.0,0.0,0.0,0.0,0.0,0.0,0.0,0.0,0.0,0.0,1.68287193775177,0.03248673966834288,-0.2719862607479676,0.0475338068407601,0.01725008711218834,0.012254253961145878,0.0
508,5,-7.499189450754784e-06,-8.922061533667147e-05,-0.0001571632019476965,-0.0019022305496037006,-0.0008495516376569867,-0.0014469262678176165,0.0,0.0,0.0,0.0,0.0,0.0,0.0,0.0,0.0,0.0039285230450332165,-0.004253956023603678,-0.0,0.0,0.0,0.0,0.0,0.0,0.0,0.0,0.0,0.0,0.0,0.0,0.0,0.0,0.0,0.0,0.0,0.0,0.0,0.0,0.0,0.0,0.0,1.68287193775177,0.033194771179925725,-0.2720936118955086,0.04749115073980491,0.01725008711218834,0.012254253961145878,0.0
513,5,-4.472638829611242e-05,-5.567915286519565e-05,-7.823958731023595e-05,-0.005228156223893166,-0.004364795982837677,-0.010049604810774326,0.0,0.0,0.0,0.0,0.0,0.0,0.0,0.0,0.0,0.0008804915705695748,-0.0018083357717841864,-0.0,0.0,0.0,0.0,0.0,0.0,0.0,0.0,0.0,0.0,0.0,0.0,0.0,0.0,0.0,0.0,0.0,0.0,0.0,0.0,0.0,0.0,0.0,1.646514654159546,0.03415458809721973,-0.2724321361574448,0.04829932905459129,0.0071745747700333595,0.0026871953159570694,0.0
518,5,-5.9556100495683495e-06,-8.175850962288678e-05,-0.00016507443797308952,0.0025612309109419584,0.0013836044818162918,0.006400339771062136,0.0,0.0,0.0,0.0,0.0,0.0,0.0,0.0,0.0,-0.001839685719460249,0.0023989849723875523,-0.0,0.0,0.0,0.0,0.0,0.0,0.0,0.0,0.0,0.0,0.0,0.0,0.0,0.0,0.0,0.0,0.0,0.0,0.0,0.0,0.0,0.0,0.0,1.65584135055542,0.0325147940275111,-0.2720278403854908,0.047576323301127994,-0.009571874514222145,-0.005646384786814451,0.0
523,5,-1.3931846297055017e-05,-4.804313721251674e-05,-9.531461546430364e-05,6.734402995789424e-05,-0.0034924030769616365,-0.005811042618006468,0.0,0.0,0.0,0.0,0.0,0.0,0.0,0.0,0.0,-0.001839685719460249,0.0023989849723875523,-0.0,0.0,0.0,0.0,0.0,0.0,0.0,0.0,0.0,0.0,0.0,0.0,0.0,0.0,0.0,0.0,0.0,0.0,0.0,0.0,0.0,0.0,0.0,1.65584135055542,0.033798523258049766,-0.2718003425394318,0.04796405807389675,-0.009571874514222145,-0.005646384786814451,0.0
528,5,-2.087179836962605e-06,-4.21694312535692e-05,-7.018263568170369e-05,0.001448297523893416,-0.0021018055267632008,-0.00534025439992547,0.0,0.0,0.0,0.0,0.0,0.0,0.0,0.0,0.0,-0.001839685719460249,0.0023989849723875523,-0.0,0.0,0.0,0.0,0.0,0.0,0.0,0.0,0.0,0.0,0.0,0.0,0.0,0.0,0.0,0.0,0.0,0.0,0.0,0.0,0.0,0.0,0.0,1.65584135055542,0.03293513999327224,-0.27142447207831083,0.04777513251975663,-0.009571874514222145,-0.005646384786814451,0.0
533,5,-1.5095494745764881e-05,-4.4509022700367495e-05,-7.436088344547898e-05,-0.0009816787205636501,-0.000559971493203193,-0.001634711748920381,0.0,0.0,0.0,0.0,0.0,0.0,0.0,0.0,0.0,0.0024968308862298727,0.0013621936086565256,-0.0,0.0,0.0,0.0,0.0,0.0,0.0,0.0,0.0,0.0,0.0,0.0,0.0,0.0,0.0,0.0,0.0,0.0,0.0,0.0,0.0,0.0,0.0,1.6511307954788208,0.032865121514943405,-0.27256096950777137,0.048196412235985794,-0.005419643595814705,0.007641495205461979,0.0
538,5,-3.3821790566435084e-05,-8.945765875978395e-05,-0.00016197671357076615,-0.0026398273184895515,0.005169847514480352,0.009860015474259853,0.0,0.0,0.0,0.0,0.0,0.0,0.0,0.0,0.0,-0.006364124361425638,-0.002482638694345951,-0.0,0.0,0.0,0.0,0.0,0.0,0.0,0.0,0.0,0.0,0.0,0.0,0.0,0.0,0.0,0.0,0.0,0.0,0.0,0.0,0.0,0.0,0.0,1.6859338283538818,0.03131158971167716,-0.27467657298992665,0.04907836216217218,0.010085483081638813,-0.01988760195672512,0.0
544,5,-1.2032170161546674e-05,-5.639398659695871e-05,-8.805412653600797e-05,0.0015588237438350916,-0.001899701077491045,-0.004926704801619053,0.0,0.0,0.0,0.0,0.0,0.0,0.0,0.0,0.0,-0.006364124361425638,-0.002482638694345951,-0.0,0.0,0.0,0.0,0.0,0.0,0.0,0.0,0.0,0.0,0.0,0.0,0.0,0.0,0.0,0.0,0.0,0.0,0.0,0.0,0.0,0.0,0.0,1.6859338283538818,0.03358097172672249,-0.2723894506358951,0.048171536723935544,0.010085483081638813,-0.01988760195672512,0.0
549,5,-3.5032648156629875e-05,-5.963239891570993e-05,-8.342201181221753e-05,-0.0021365280263125896,-0.00037127130781300366,-0.0025265361182391644,0.0,0.0,0.0,0.0,0.0,0.0,0.0,0.0,0.0,-0.006364124361425638,-0.002482638694345951,-0.0,0.0,0.0,0.0,0.0,0.0,0.0,0.0,0.0,0.0,0.0,0.0,0.0,0.0,0.0,0.0,0.0,0.0,0.0,0.0,0.0,0.0,0.0,1.6859338283538818,0.0339518468164239,-0.2723752921030145,0.0482340594993071,0.010085483081638813,-0.01988760195672512,0.0
554,5,-1.779131343937479e-05,-5.3581119573209435e-05,-0.00010758088319562376,0.001214349060319364,-0.0008746617240831256,0.0018884502351284027,0.0,0.0,0.0,0.0,0.0,0.0,0.0,0.0,0.0,0.00034547538962215185,-0.002065951470285654,-0.0,0.0,0.0,0.0,0.0,0.0,0.0,0.0,0.0,0.0,0.0,0.0,0.0,0.0,0.0,0.0,0.0,0.0,0.0,0.0,0.0,0.0,0.0,1.6481671333312988,0.03382396362361293,-0.27190503855354314,0.048065464779174526,0.008204893209040165,0.0010554238688200712,0.0
559,5,-2.939605292340275e-05,-4.344041008152999e-05,-6.219448550837114e-05,-0.000906829081941396,-0.0015667498810216784,-0.004690987057983875,0.0,0.0,0.0,0.0,0.0,0.0,0.0,0.0,0.0,0.00034547538962215185,-0.002065951470285654,-0.0,0.0,0.0,0.0,0.0,0.0,0.0,0.0,0.0,0.0,0.0,0.0,0.0,0.0,0.0,0.0,0.0,0.0,0.0,0.0,0.0,0.0,0.0,1.6481671333312988,0.03435317645317919,-0.27183589435525585,0.048582632918056465,0.008204893209040165,0.0010554238688200712,0.0
564,5,-2.5782203010749072e-05,-3.715044294949621e-05,-4.5246779336594045e-05,7.093042222550139e-05,-0.0013814963167533278,-0.003910119645297527,0.0,0.0,0.0,0.0,0.0,0.0,0.0,0.0,0.0,0.0018469138303771615,-0.0008994312956929207,-0.0,0.0,0.0,0.0,0.0,0.0,0.0,0.0,0.0,0.0,0.0,0.0,0.0,0.0,0.0,0.0,0.0,0.0,0.0,0.0,0.0,0.0,0.0,1.643807291984558,0.03432743165837648,-0.271839836623262,0.048483835670058324,0.0035626241005957127,0.0056273723021149635,0.0
569,5,-1.4584327800548635e-05,-5.901609983993694e-05,-0.00010068230039905757,0.001372117199935019,0.002071280498057604,0.005088214296847582,0.0,0.0,0.0,0.0,0.0,0.0,0.0,0.0,0.0,0.0018469138303771615,-0.0008994312956929207,-0.0,0.0,0.0,0.0,0.0,0.0,0.0,0.0,0.0,0.0,0.0,0.0,0.0,0.0,0.0,0.0,0.0,0.0,0.0,0.0,0.0,0.0,0.0,1.643807291984558,0.03315754107283922,-0.272061551385062,0.04809571878846123,0.0035626241005957127,0.0056273723021149635,0.0
574,5,-1.6972506273305044e-05,-4.063962114742026e-05,-5.871271059731953e-05,0.0002622655301820487,-0.0013766655465587974,-0.0030010647606104612,0.0,0.0,0.0,0.0,0.0,0.0,0.0,0.0,0.0,-0.0026462054811418056,0.0012726287823170424,-0.0,0.0,0.0,0.0,0.0,0.0,0.0,0.0,0.0,0.0,0.0,0.0,0.0,0.0,0.0,0.0,0.0,0.0,0.0,0.0,0.0,0.0,0.0,1.6516330242156982,0.03440667198284194,-0.27218990745848076,0.048600313958515697,-0.005064838100224733,-0.008101114071905613,0.0
579,5,-3.5233745165896835e-06,-5.613794201053679e-05,-9.100162424147129e-05,0.001718802028335631,0.0013091324362903833,0.0026742438785731792,0.0,0.0,0.0,0.0,0.0,0.0,0.0,0.0,0.0,-0.0026462054811418056,0.0012726287823170424,-0.0,0.0,0.0,0.0,0.0,0.0,0.0,0.0,0.0,0.0,0.0,0.0,0.0,0.0,0.0,0.0,0.0,0.0,0.0,0.0,0.0,0.0,0.0,1.6516330242156982,0.033436375074449264,-0.27215001497921015,0.047951265227031456,-0.005064838100224733,-0.008101114071905613,0.0
584,5,-5.126290488988161e-06,-4.040593557874672e-05,-6.372343341354281e-05,0.0004951708833687007,-0.0013641876867040992,-0.002203685464337468,0.0,0.0,0.0,0.0,0.0,0.0,0.0,0.0,0.0,-0.0017110802000388503,0.0016179385129362345,-0.0,0.0,0.0,0.0,0.0,0.0,0.0,0.0,0.0,0.0,0.0,0.0,0.0,0.0,0.0,0.0,0.0,0.0,0.0,0.0,0.0,0.0,0.0,1.6481977701187134,0.033597009669269276,-0.27192722159133487,0.04794808422945079,-0.0064257290214300156,-0.00522742560133338,0.0
589,5,-1.1299098332528956e-05,-3.6789828300243244e-05,-6.926364585524425e-05,-0.0005426685675047338,-0.0009796079248189926,-0.00021664863743353635,0.0,0.0,0.0,0.0,0.0,0.0,0.0,0.0,0.0,-0.0017110802000388503,0.0016179385129362345,-0.0,0.0,0.0,0.0,0.0,0.0,0.0,0.0,0.0,0.0,0.0,0.0,0.0,0.0,0.0,0.0,0.0,0.0,0.0,0.0,0.0,0.0,0.0,1.6481977701187134,0.03354593863795162,-0.2717840873980236,0.048126324951785794,-0.0064257290214300156,-0.00522742560133338,0.0
594,5,-1.2599924730238854e-06,-3.9236900192918256e-05,-8.665637869853526e-05,0.00098762521520257,-9.819458500714973e-05,0.002000468550249934,0.0,0.0,0.0,0.0,0.0,0.0,0.0,0.0,0.0,0.0011410274310037494,-0.000531853933352977,-0.0,0.0,0.0,0.0,0.0,0.0,0.0,0.0,0.0,0.0,0.0,0.0,0.0,0.0,0.0,0.0,0.0,0.0,0.0,0.0,0.0,0.0,0.0,1.6367298364639282,0.03335358564214391,-0.27108297400104825,0.047581177191116,0.002097591757774353,0.003461636370047927,0.0
600,5,1.4053141057956964e-05,-6.738531374139711e-05,-0.00012090291420463473,0.0022326260805130005,0.0033385315909981728,0.004909771494567394,0.0,0.0,0.0,0.0,0.0,0.0,0.0,0.0,0.0,0.0011410274310037494,-0.000531853933352977,-0.0,0.0,0.0,0.0,0.0,0.0,0.0,0.0,0.0,0.0,0.0,0.0,0.0,0.0,0.0,0.0,0.0,0.0,0.0,0.0,0.0,0.0,0.0,1.6367298364639282,0.03314252955888119,-0.2710867334299864,0.04768142146547205,0.002097591757774353,0.003461636370047927,0.0
605,5,-3.0586645152652636e-05,-2.6350504413130693e-05,-2.2598576379095903e-06,-0.004463723860681057,-0.0035887642297893763,-0.012273258529603481,0.0,0.0,0.0,0.0,0.0,0.0,0.0,0.0,0.0,-0.004173744469881058,0.002102888422086835,-0.0,0.0,0.0,0.0,0.0,0.0,0.0,0.0,0.0,0.0,0.0,0.0,0.0,0.0,0.0,0.0,0.0,0.0,0.0,0.0,0.0,0.0,0.0,1.6674550771713257,0.03422399851065613,-0.2712627876486367,0.04833357574424259,-0.008449249900877476,-0.012899897992610931,0.0
610,5,-1.1298337994958274e-05,-6.401856808224693e-05,-7.975805783644319e-05,0.0005291072884574533,0.003084661904722452,0.004390480928122997,0.0,0.0,0.0,0.0,0.0,0.0,0.0,0.0,0.0,-0.004173744469881058,0.002102888422086835,-0.0,0.0,0.0,0.0,0.0,0.0,0.0,0.0,0.0,0.0,0.0,0.0,0.0,0.0,0.0,0.0,0.0,0.0,0.0,0.0,0.0,0.0,0.0,1.6674550771713257,0.033367488262267736,-0.2710125847581334,0.047853019832691975,-0.008449249900877476,-0.012899897992610931,0.0
615,5,-1.569954474689439e-05,-3.942773400922306e-05,-5.055181463831104e-05,-0.0003165019443258643,-0.0017170353094115853,-0.0017485570861026645,0.0,0.0,0.0,0.0,0.0,0.0,0.0,0.0,0.0,-0.003880728967487812,0.0004808442899957299,-0.0,0.0,0.0,0.0,0.0,0.0,0.0,0.0,0.0,0.0,0.0,0.0,0.0,0.0,0.0,0.0,0.0,0.0,0.0,0.0,0.0,0.0,0.0,1.6584627628326416,0.033713100462838895,-0.2714521795180169,0.047894909819432355,-0.001921581570059061,-0.011929593048989773,0.0
620,5,-2.6673626052797772e-05,-4.5001590478932485e-05,-5.4834221373312175e-05,-0.0014434905024245381,-1.7951302652363665e-05,-0.00018553425616119057,0.0,0.0,0.0,0.0,0.0,0.0,0.0,0.0,0.0,-0.003880728967487812,0.0004808442899957299,-0.0,0.0,0.0,0.0,0.0,0.0,0.0,0.0,0.0,0.0,0.0,0.0,0.0,0.0,0.0,0.0,0.0,0.0,0.0,0.0,0.0,0.0,0.0,1.6584627628326416,0.0336689551379854,-0.27177740411138085,0.048106701692478895,-0.001921581570059061,-0.011929593048989773,0.0
625,5,-7.125246156647336e-06,-3.9769423892721534e-05,-5.1275619625812396e-05,0.0017684093909338117,-0.0006350405747070909,-0.0005012459005229175,0.0,0.0,0.0,0.0,0.0,0.0,0.0,0.0,0.0,-6.258887879084796e-05,-0.001406314317137003,-0.0,0.0,0.0,0.0,0.0,0.0,0.0,0.0,0.0,0.0,0.0,0.0,0.0,0.0,0.0,0.0,0.0,0.0,0.0,0.0,0.0,0.0,0.0,1.6408370733261108,0.033235758056975824,-0.2716727662436713,0.04795644711902327,0.005560317542403936,-0.00019035801233258098,0.0
630,5,-2.9168155379011296e-05,-1.762404826877173e-05,-2.249414137622807e-06,-0.0019377853022888303,-0.002911461517214775,-0.006083643063902855,0.0,0.0,0.0,0.0,0.0,0.0,0.0,0.0,0.0,-6.258887879084796e-05,-0.001406314317137003,-0.0,0.0,0.0,0.0,0.0,0.0,0.0,0.0,0.0,0.0,0.0,0.0,0.0,0.0,0.0,0.0,0.0,0.0,0.0,0.0,0.0,0.0,0.0,1.6408370733261108,0.03365728404044981,-0.271479948527154,0.04816028105069934,0.005560317542403936,-0.00019035801233258098,0.0
635,5,-4.718783020507544e-05,-5.597504059551284e-05,-0.00010639906395226717,-0.0029374752193689346,0.003437534673139453,0.010064500384032726,0.0,0.0,0.0,0.0,0.0,0.0,0.0,0.0,0.0,0.0035108907613903284,-0.0018555540591478348,-0.0,0.0,0.0,0.0,0.0,0.0,0.0,0.0,0.0,0.0,0.0,0.0,0.0,0.0,0.0,0.0,0.0,0.0,0.0,0.0,0.0,0.0,0.0,1.661247730255127,0.031539064231428666,-0.27375149013816114,0.048921201257413484,0.007427745033055544,0.010810820385813713,0.0
640,5,-1.6511216017534025e-05,6.83992311678594e-06,-1.6063959265011363e-05,0.002506203716620803,-0.006162781734019518,-0.0068144118413329124,0.0,0.0,0.0,0.0,0.0,0.0,0.0,0.0,0.0,0.0035108907613903284,-0.0018555540591478348,-0.0,0.0,0.0,0.0,0.0,0.0,0.0,0.0,0.0,0.0,0.0,0.0,0.0,0.0,0.0,0.0,0.0,0.0,0.0,0.0,0.0,0.0,0.0,1.661247730255127,0.03348026576933512,-0.2716957514727725,0.04789903804378903,0.007427745033055544,0.010810820385813713,0.0
645,5,-9.72591897152597e-06,-2.4566463252995163e-05,-5.500057159224525e-05,0.0018167170928791165,0.0013036536984145641,0.0019466287922114134,0.0,0.0,0.0,0.0,0.0,0.0,0.0,0.0,0.0,0.007373307831585407,0.002281392691656947,-0.0,0.0,0.0,0.0,0.0,0.0,0.0,0.0,0.0,0.0,0.0,0.0,0.0,0.0,0.0,0.0,0.0,0.0,0.0,0.0,0.0,0.0,0.0,1.6930086612701416,0.03360074456594425,-0.2715753209366567,0.047726097158940196,-0.009306768886744976,0.02313784696161747,0.0
651,5,-1.5456698747584596e-05,-2.5700936021166854e-05,-5.468969902722165e-05,3.899332295986824e-05,0.0006575980805791914,0.0007413466228172183,0.0,0.0,0.0,0.0,0.0,0.0,0.0,0.0,0.0,0.007373307831585407,0.002281392691656947,-0.0,0.0,0.0,0.0,0.0,0.0,0.0,0.0,0.0,0.0,0.0,0.0,0.0,0.0,0.0,0.0,0.0,0.0,0.0,0.0,0.0,0.0,0.0,1.6930086612701416,0.033112017835666516,-0.2718351572151255,0.04772051461709841,-0.009306768886744976,0.02313784696161747,0.0
656,5,-2.5700324840727262e-05,-3.308722807560116e-05,-4.5270095142768696e-05,-0.0012136378791183233,0.0011493942001834512,-0.0008338137995451689,0.0,0.0,0.0,0.0,0.0,0.0,0.0,0.0,0.0,-0.0008648775401525199,1.537032403575722e-05,-0.0,0.0,0.0,0.0,0.0,0.0,0.0,0.0,0.0,0.0,0.0,0.0,0.0,0.0,0.0,0.0,0.0,0.0,0.0,0.0,0.0,0.0,0.0,1.6328535079956055,0.03232563405226575,-0.271149931971337,0.04735869492137457,-6.047584975021891e-05,-0.0026176422834396362,0.0
661,5,-4.832267950405367e-05,-8.151568908942863e-05,-0.0001339252630714327,-0.0032001377549022436,0.006271172780543566,0.010305095463991165,0.0,0.0,0.0,0.0,0.0,0.0,0.0,0.0,0.0,-0.0008648775401525199,1.537032403575722e-05,-0.0,0.0,0.0,0.0,0.0,0.0,0.0,0.0,0.0,0.0,0.0,0.0,0.0,0.0,0.0,0.0,0.0,0.0,0.0,0.0,0.0,0.0,0.0,1.6328535079956055,0.030319824004661263,-0.2739291124060062,0.04864275134440478,-6.047584975021891e-05,-0.0026176422834396362,0.0
666,5,-2.7369780582375824e-05,-3.6486308090388775e-05,-3.216214827261865e-05,0.0012342928675934672,-0.002895056502893567,-0.008089535869657993,0.0,0.0,0.0,0.0,0.0,0.0,0.0,0.0,0.0,0.0034659800585359335,0.0011213283287361264,-0.0,0.0,0.0,0.0,0.0,0.0,0.0,0.0,0.0,0.0,0.0,0.0,0.0,0.0,0.0,0.0,0.0,0.0,0.0,0.0,0.0,0.0,0.0,1.6570191383361816,0.03291260381342022,-0.27099998951416304,0.04758483812294391,-0.004477231297641993,0.010645365342497826,0.0
671,5,-4.568362783174962e-05,-1.8153497876483016e-05,2.384349500061944e-05,-0.0017039445228874683,-0.0033579596783965826,-0.009956492111086845,0.0,0.0,0.0,0.0,0.0,0.0,0.0,0.0,0.0,0.0034659800585359335,0.0011213283287361264,-0.0,0.0,0.0,0.0,0.0,0.0,0.0,0.0,0.0,0.0,0.0,0.0,0.0,0.0,0.0,0.0,0.0,0.0,0.0,0.0,0.0,0.0,0.0,1.6570191383361816,0.03337626414881791,-0.27121362890782713,0.04780958764322592,-0.004477231297641993,0.010645365342497826,0.0
676,5,-3.445521360845305e-05,-3.8260721339611337e-05,-2.1392255803220905e-05,0.0006658319034613669,0.0010696831159293652,0.0014456933131441474,0.0,0.0,0.0,0.0,0.0,0.0,0.0,0.0,0.0,0.0034659800585359335,0.0011213283287361264,-0.0,0.0,0.0,0.0,0.0,0.0,0.0,0.0,0.0,0.0,0.0,0.0,0.0,0.0,0.0,0.0,0.0,0.0,0.0,0.0,0.0,0.0,0.0,1.6570191383361816,0.03297776799160414,-0.27110370670175754,0.047665643134686006,-0.004477231297641993,0.010645365342497826,0.0
681,5,-3.21399093081709e-05,-3.64254810847342e-05,-3.147050301777199e-05,0.0005441692774184048,0.00020764408691320568,0.0017876672791317105,0.0,0.0,0.0,0.0,0.0,0.0,0.0,0.0,0.0,-0.0013932730071246624,0.0005840544472448528,-0.0,0.0,0.0,0.0,0.0,0.0,0.0,0.0,0.0,0.0,0.0,0.0,0.0,0.0,0.0,0.0,0.0,0.0,0.0,0.0,0.0,0.0,0.0,1.6388232707977295,0.032987283426871156,-0.27076782829065277,0.047369993980446216,-0.0023064122069627047,-0.004232301842421293,0.0
686,5,-2.765536555671133e-05,-2.956501157314051e-05,-1.995163256651722e-05,0.0007558127981610596,-0.0007401984184980392,-0.0006671976298093796,0.0,0.0,0.0,0.0,0.0,0.0,0.0,0.0,0.0,-0.0013932730071246624,0.0005840544472448528,-0.0,0.0,0.0,0.0,0.0,0.0,0.0,0.0,0.0,0.0,0.0,0.0,0.0,0.0,0.0,0.0,0.0,0.0,0.0,0.0,0.0,0.0,0.0,1.6388232707977295,0.033730764698858245,-0.27116507343036583,0.047821754624540316,-0.0023064122069627047,-0.004232301842421293,0.0
691,5,-8.169969078153372e-06,-2.6928481020149775e-05,-1.8032840671367012e-05,0.0026405728422105312,-0.000612463045399636,-0.0004971341695636511,0.0,0.0,0.0,0.0,0.0,0.0,0.0,0.0,0.0,0.0008582727750763297,0.0006801664130762219,-0.0,0.0,0.0,0.0,0.0,0.0,0.0,0.0,0.0,0.0,0.0,0.0,0.0,0.0,0.0,0.0,0.0,0.0,0.0,0.0,0.0,0.0,0.0,1.635886311531067,0.03304746022640976,-0.27095574982671533,0.0475476770250914,-0.0026811431162059307,0.002602477092295885,0.0
696,5,-7.283235390787013e-06,-2.9127233574399725e-05,-5.7886456488631666e-05,0.001162637141533196,1.8865102902054787e-05,0.004583580419421196,0.0,0.0,0.0,0.0,0.0,0.0,0.0,0.0,0.0,0.0008582727750763297,0.0006801664130762219,-0.0,0.0,0.0,0.0,0.0,0.0,0.0,0.0,0.0,0.0,0.0,0.0,0.0,0.0,0.0,0.0,0.0,0.0,0.0,0.0,0.0,0.0,0.0,1.635886311531067,0.03192807940726072,-0.2713131684766933,0.04729809336432348,-0.0026811431162059307,0.002602477092295885,0.0
702,5,-3.32318595610559e-05,-5.942665666225366e-06,-2.171238520531915e-05,-0.0020945307333022356,-0.0010620064567774534,-7.55538058001548e-05,0.0,0.0,0.0,0.0,0.0,0.0,0.0,0.0,0.0,-7.96344320406206e-05,0.0010945360409095883,-0.0,0.0,0.0,0.0,0.0,0.0,0.0,0.0,0.0,0.0,0.0,0.0,0.0,0.0,0.0,0.0,0.0,0.0,0.0,0.0,0.0,0.0,0.0,1.637482762336731,0.03306920261051293,-0.27117171672689355,0.04758839052069452,-0.0043187555857002735,-0.0002417053037788719,0.0
707,5,-3.32318595610559e-05,-5.942665666225366e-06,-2.171238520531915e-05,-0.0020945307333022356,-0.0010620064567774534,-7.55538058001548e-05,0.0,0.0,0.0,0.0,0.0,0.0,0.0,0.0,0.0,-7.96344320406206e-05,0.0010945360409095883,-0.0,0.0,0.0,0.0,0.0,0.0,0.0,0.0,0.0,0.0,0.0,0.0,0.0,0.0,0.0,0.0,0.0,0.0,0.0,0.0,0.0,0.0,0.0,1.637482762336731,0.03306920261051293,-0.27117171672689355,0.04758839052069452,-0.0043187555857002735,-0.0002417053037788719,0.0
712,5,-3.404460585443303e-05,-1.2738349141727667e-05,2.3953225536388345e-05,-0.000889201182872057,0.0010800875024870038,-0.0033490138594061136,0.0,0.0,0.0,0.0,0.0,0.0,0.0,0.0,0.0,0.0012879502028226852,-0.0020217925775796175,-0.0,0.0,0.0,0.0,0.0,0.0,0.0,0.0,0.0,0.0,0.0,0.0,0.0,0.0,0.0,0.0,0.0,0.0,0.0,0.0,0.0,0.0,0.0,1.6500035524368286,0.032866312770509824,-0.2708419321328572,0.047604578203428886,0.008038457483053207,0.003939057234674692,0.0
717,5,-2.9113840355421416e-05,-1.3791604033031035e-05,3.90588138543535e-05,0.00023601154680363834,0.0005584256141446531,-0.0031522761564701796,0.0,0.0,0.0,0.0,0.0,0.0,0.0,0.0,0.0,0.0012879502028226852,-0.0020217925775796175,-0.0,0.0,0.0,0.0,0.0,0.0,0.0,0.0,0.0,0.0,0.0,0.0,0.0,0.0,0.0,0.0,0.0,0.0,0.0,0.0,0.0,0.0,0.0,1.6500035524368286,0.03303930879413645,-0.27080538348462824,0.047722995588019915,0.008038457483053207,0.003939057234674692,0.0
722,5,2.0154587332399387e-07,-4.8752553993836045e-05,-3.5728151033254107e-06,0.0036122510209679604,0.004418684169650078,0.003854884998872876,0.0,0.0,0.0,0.0,0.0,0.0,0.0,0.0,0.0,-0.0007209210307337344,0.0001840114564402029,-0.0,0.0,0.0,0.0,0.0,0.0,0.0,0.0,0.0,0.0,0.0,0.0,0.0,0.0,0.0,0.0,0.0,0.0,0.0,0.0,0.0,0.0,0.0,1.6319833993911743,0.03136030255559105,-0.27076459836083083,0.047340877514098996,-0.0007236230303533375,-0.0021807802841067314,0.0
727,5,-1.2251070984348189e-05,-3.4640717785805464e-05,-2.2072706997278146e-05,-4.9413618398830295e-05,7.405354699585587e-05,0.0037619411014020443,0.0,0.0,0.0,0.0,0.0,0.0,0.0,0.0,0.0,-0.0007209210307337344,0.0001840114564402029,-0.0,0.0,0.0,0.0,0.0,0.0,0.0,0.0,0.0,0.0,0.0,0.0,0.0,0.0,0.0,0.0,0.0,0.0,0.0,0.0,0.0,0.0,0.0,1.6319833993911743,0.03255247906726319,-0.27095232000942426,0.04726661832967783,-0.0007236230303533375,-0.0021807802841067314,0.0
