timestamp,dt,pos_x,pos_y,pos_z,vel_x,vel_y,vel_z,roll,pitch,yaw,agv_x,agv_y,agv_z,x_ref,y_ref,z_ref,roll_ref,pitch_ref,yaw_ref,x_vel_ref,y_vel_ref,z_vel_ref,x_torque,y_torque,z_torque,w0,w1,w2,w3,u0,u1,u2,u3,m0req,m1req,m2req,m3req,thrust0,thrust1,thrust2,thrust3,thrust_ref,roll_vicon,pitch_vicon,yaw_vicon,acc_x,acc_y,acc_z
5,5,0.0,0.0,0.0,-0.00040611225995235145,0.0025360691361129284,-0.004002358298748732,0.1200922504067421,0.2139538824558258,-0.011405735276639462,0.0007830869290046394,0.0003944331838283688,-0.005656026769429445,0.0,0.0,0.0,-0.003094628220424056,-0.00038119833334349096,-0.0,0.0,0.0,0.0,-0.036083247512578964,-0.06427204608917236,-0.0011949505424126983,1495.0,1495.0,1495.0,1495.0,0.0,0.0,0.0,0.0,0.0,0.0,0.0,0.0,1495.0,1495.0,1495.0,1495.0,1.65796959400177,0.08213686913310522,-0.1121739455063702,0.11111530458757574,0.0015229210257530212,-0.00951025914400816,0.0
29,24,0.0,0.0,0.0,0.0036060656420886517,0.004168573766946793,-0.002500873990356922,0.1200922504067421,0.2139538824558258,-0.011405735276639462,0.0007830869290046394,0.0003944331838283688,-0.005656026769429445,0.0,0.0,0.0,-0.003094628220424056,-0.00038119833334349096,-0.0,0.0,0.0,0.0,-0.036083247512578964,-0.06427204608917236,-0.0011949505424126983,1495.0,1495.0,1495.0,1495.0,0.0,0.0,0.0,0.0,0.0,0.0,0.0,0.0,1495.0,1495.0,1495.0,1495.0,1.65796959400177,0.08241587315791703,-0.1124733128865986,0.11100804524306329,0.0015229210257530212,-0.00951025914400816,0.0
34,5,0.0,0.0,0.0,0.0007091379375196993,-0.002229575766250491,0.0008666816866025329,0.1200922504067421,0.2139538824558258,-0.011405735276639462,0.0007830869290046394,0.0003944331838283688,-0.005656026769429445,0.0,0.0,0.0,-0.0050153471529483795,0.0033373881597071886,-0.0,0.0,0.0,0.0,-0.036083247512578964,-0.06427204608917236,-0.0011949505424126983,1495.0,1495.0,1495.0,1495.0,0.0,0.0,0.0,0.0,0.0,0.0,0.0,0.0,1495.0,1495.0,1495.0,1495.0,1.6815606355667114,0.08359971230850342,-0.11328298847581329,0.11032118865980438,-0.013522746041417122,-0.015632152557373047,0.0
39,5,0.0,0.0,0.0,-0.003497597761452198,-0.001022782176733017,-0.006711793132126331,0.1200903132557869,0.213948056101799,-0.011411646381020546,0.0012478056596592069,-0.0027204244397580624,0.002891700016334653,0.0,0.0,0.0,-0.0050153471529483795,0.0033373881597071886,-0.0,0.0,0.0,0.0,-0.03695255517959595,-0.06427089869976044,-0.001052070059813559,1495.0,1495.0,1495.0,1495.0,0.0,0.0,0.0,0.0,0.0,0.0,0.0,0.0,1495.0,1495.0,1495.0,1495.0,1.6815606355667114,0.08293146314628809,-0.1114760763765495,0.10929589851482328,-0.013522746041417122,-0.015632152557373047,0.0
45,6,0.0,0.0,0.0,-0.003497597761452198,-0.001022782176733017,-0.006711793132126331,0.1200903132557869,0.213948056101799,-0.011411646381020546,0.0012478056596592069,-0.0027204244397580624,0.002891700016334653,0.0,0.0,0.0,0.001244475250132382,-0.0032736370339989662,-0.0,0.0,0.0,0.0,-0.03692837804555893,-0.06428321450948715,-0.0010666040470823646,1495.0,1495.0,1495.0,1495.0,0.0,0.0,0.0,0.0,0.0,0.0,0.0,0.0,1495.0,1495.0,1495.0,1495.0,1.6627225875854492,0.08293146314628809,-0.1114760763765495,0.10929589851482328,0.013115991838276386,0.0038354331627488136,0.0
57,12,0.0,0.0,0.0,0.004041219595819712,0.00253945286385715,0.005750126671046019,0.1200903132557869,0.213948056101799,-0.011411646381020546,0.0012478056596592069,-0.0027204244397580624,0.002891700016334653,0.0,0.0,0.0,0.001244475250132382,-0.0032736370339989662,-0.0,0.0,0.0,0.0,-0.03692837804555893,-0.06428321450948715,-0.0010666040470823646,1495.0,1495.0,1495.0,1495.0,0.0,0.0,0.0,0.0,0.0,0.0,0.0,0.0,1495.0,1495.0,1495.0,1495.0,1.6627225875854492,0.08361927993091013,-0.11328647753075453,0.1112255799944171,0.013115991838276386,0.0038354331627488136,0.0
62,5,0.0,0.0,0.0,-0.0015937743009999394,-0.0014647786738350987,0.0038752483669668436,0.12008380144834518,0.21397438645362854,-0.011381407268345356,-0.002193606924265623,-0.0017314121359959245,0.0021221404895186424,0.0,0.0,0.0,-0.0030688720289617777,0.003756726160645485,-0.0,0.0,0.0,0.0,-0.03692837804555893,-0.06428321450948715,-0.0010666040470823646,1495.0,1495.0,1495.0,1495.0,0.0,0.0,0.0,0.0,0.0,0.0,0.0,0.0,1495.0,1495.0,1495.0,1495.0,1.6741151809692383,0.08336630321088408,-0.11321477305740993,0.11007191748901617,-0.015154573135077953,-0.009522948414087296,0.0
69,6,6.150405624794075e-06,-1.551631976326462e-05,3.9921509596752e-05,0.00022021068434696645,0.002316072816029191,-0.00471904082223773,0.12008380144834518,0.21397438645362854,-0.011381407268345356,-0.002193606924265623,-0.0017314121359959245,0.0021221404895186424,0.0,0.0,0.0,-0.0030688720289617777,0.003756726160645485,-0.0,0.0,0.0,0.0,-0.03692837804555893,-0.06428321450948715,-0.0010666040470823646,1495.0,1495.0,1495.0,1495.0,0.0,0.0,0.0,0.0,0.0,0.0,0.0,0.0,1495.0,1495.0,1495.0,1495.0,1.6741151809692383,0.0828780841553097,-0.11207429243109351,0.11036626896534173,-0.015154573135077953,-0.009522948414087296,0.0
74,5,-1.1029981124011101e-06,-1.1130535312986467e-05,3.718878360814415e-05,-0.0007823241758160293,0.0004001349152531475,-0.0015596894081681967,0.1200900673866272,0.21396826207637787,-0.011382466182112694,-0.0014188026543706656,0.002611542819067836,0.003162969835102558,0.0,0.0,0.0,-0.0005082105053588748,-0.0007358388393186033,-0.0,0.0,0.0,0.0,-0.03752125799655914,-0.06312961876392365,-0.0012783653801307082,11057.0,19697.0,15103.0,1863.0,0.2651824951171875,0.8991795778274536,0.5154789090156555,0.0017196089029312134,0.0,0.0,0.0,0.0,11095.0,19681.0,15135.0,1495.0,1.657975196838379,0.08195238125683736,-0.11215662514016832,0.10979383158003103,0.0029397644102573395,-0.0015618171310052276,0.0
83,9,2.995795148308389e-05,-2.548435440985486e-05,1.1615195035119541e-05,0.0034143843222409487,0.0018825122388079762,0.0024449548218399286,0.1200900673866272,0.21396826207637787,-0.011382466182112694,-0.0014188026543706656,0.002611542819067836,0.003162969835102558,0.0,0.0,0.0,-0.0005082105053588748,-0.0007358388393186033,-0.0,0.0,0.0,0.0,-0.03752125799655914,-0.06312961876392365,-0.0012783653801307082,11057.0,19697.0,15103.0,1863.0,0.2651824951171875,0.8991795778274536,0.5154789090156555,0.0017196089029312134,0.0,0.0,0.0,0.0,11095.0,19681.0,15135.0,1495.0,1.657975196838379,0.08227049318324645,-0.11281383468027359,0.11092359926065347,0.0029397644102573395,-0.0015618171310052276,0.0
88,5,2.3108212189981714e-05,-2.3735794457024895e-05,1.0193733032792807e-05,0.001657111686654389,0.0022375895641744137,0.001203981344588101,0.1200900673866272,0.21396826207637787,-0.011382466182112694,-0.0014188026543706656,0.002611542819067836,0.003162969835102558,0.0,0.0,0.0,-0.0005082105053588748,-0.0007358388393186033,-0.0,0.0,0.0,0.0,-0.03752125799655914,-0.06312961876392365,-0.0012783653801307082,11057.0,19697.0,15103.0,1863.0,0.2651824951171875,0.8991795778274536,0.5154789090156555,0.0017196089029312134,0.0,0.0,0.0,0.0,11095.0,19681.0,15135.0,1495.0,1.657975196838379,0.08275995243903055,-0.11295349646376394,0.11091532606069812,0.0029397644102573395,-0.0015618171310052276,0.0
93,5,2.3108212189981714e-05,-2.3735794457024895e-05,1.0193733032792807e-05,0.001657111686654389,0.0022375895641744137,0.001203981344588101,0.12008967250585556,0.21398375928401947,-0.01135872770100832,-0.0013671029591932893,0.005122588947415352,-0.0028347985353320837,0.0,0.0,0.0,-0.0027737680356949568,0.001587759586982429,-0.0,0.0,0.0,0.0,-0.035718366503715515,-0.06520675867795944,-0.0011684366036206484,10636.0,19656.0,15284.0,1495.0,0.24387982487678528,0.8953460454940796,0.5286127328872681,-0.005115965381264687,0.0,0.0,0.0,0.0,10612.0,19664.0,15270.0,1495.0,1.6574779748916626,0.08275995243903055,-0.11295349646376394,0.11091532606069812,-0.006341362372040749,-0.00852168444544077,-0.0
98,5,7.2202492447104305e-06,-3.314992136438377e-05,6.863252201583236e-05,-0.0008051834302023053,0.002959882142022252,-0.005129588767886162,0.12008967250585556,0.21398375928401947,-0.01135872770100832,-0.0013671029591932893,0.005122588947415352,-0.0028347985353320837,0.0,0.0,0.0,-0.0027737680356949568,0.001587759586982429,-0.0,0.0,0.0,0.0,-0.035718366503715515,-0.06520675867795944,-0.0011684366036206484,10636.0,19656.0,15284.0,1495.0,0.24387982487678528,0.8953460454940796,0.5286127328872681,-0.005115965381264687,0.0,0.0,0.0,0.0,10612.0,19664.0,15270.0,1495.0,1.6574779748916626,0.08174475682801942,-0.1127972426597496,0.11143325944305779,-0.006341362372040749,-0.00852168444544077,-0.0
103,5,4.46276790171396e-05,3.742321496247314e-06,-3.8356753066182137e-05,0.004166818223893642,-0.0032431164290755987,0.010786877013742924,0.12007499486207962,0.21395659446716309,-0.011382050812244415,-0.002146448940038681,0.000894822645932436,0.0011928469175472856,0.0,0.0,0.0,-0.003671195125207305,-0.0007458145264536142,-0.0,0.0,0.0,0.0,-0.03702942281961441,-0.06420139223337173,-0.0012133276322856545,10805.0,19664.0,15119.0,1495.0,0.25230443477630615,0.8961151838302612,0.5166388750076294,-0.0070997923612594604,0.0,0.0,0.0,0.0,11034.0,19619.0,15172.0,1495.0,1.6579772233963013,0.08577903390151649,-0.11439202875626091,0.11088971907870392,0.002979602664709091,-0.011282174848020077,0.0
108,5,2.749164923443459e-05,-1.8818369426298887e-05,7.749934411549475e-06,-0.00038959644734859467,0.0014100362313911319,-0.0012180517660453916,0.12007499486207962,0.21395659446716309,-0.011382050812244415,-0.002146448940038681,0.000894822645932436,0.0011928469175472856,0.0,0.0,0.0,-0.003671195125207305,-0.0007458145264536142,-0.0,0.0,0.0,0.0,-0.03702942281961441,-0.06420139223337173,-0.0012133276322856545,10805.0,19664.0,15119.0,1495.0,0.25230443477630615,0.8961151838302612,0.5166388750076294,-0.0070997923612594604,0.0,0.0,0.0,0.0,11034.0,19619.0,15172.0,1495.0,1.6579772233963013,0.08343412219465592,-0.11284316630824245,0.11068793313279653,0.002979602664709091,-0.011282174848020077,0.0
114,5,2.4925040634116158e-05,-1.3623604900203645e-05,-9.395140523338341e-07,-0.00046383150038309395,-5.935718581895344e-05,0.0005555131356231868,0.12006767094135284,0.2139585018157959,-0.011381099000573158,0.00436042994260788,0.002854075049981475,-0.002029881114140153,0.0,0.0,0.0,4.7938192437868565e-05,-0.00040101364720612764,-0.0,0.0,0.0,0.0,-0.03623799607157707,-0.06463783234357834,-0.0011077652452513576,10756.0,19616.0,15240.0,1495.0,0.2498406171798706,0.8915697336196899,0.525394082069397,-0.00882924348115921,0.0,0.0,0.0,0.0,10820.0,19655.0,15146.0,1495.0,1.6579455137252808,0.08313300783594471,-0.1128799029333371,0.11090698258615705,0.0016020693583413959,0.00014731957344338298,0.0
121,7,2.1922985979472287e-05,-6.3963871070882306e-06,2.6327134037273936e-05,-0.0005457793013192713,-0.0008910090546123683,-0.0030497924890369177,0.12006767094135284,0.2139585018157959,-0.011381099000573158,0.00436042994260788,0.002854075049981475,-0.002029881114140153,0.0,0.0,0.0,4.7938192437868565e-05,-0.00040101364720612764,-0.0,0.0,0.0,0.0,-0.03623799607157707,-0.06463783234357834,-0.0011077652452513576,10756.0,19616.0,15240.0,1495.0,0.2498406171798706,0.8915697336196899,0.525394082069397,-0.00882924348115921,0.0,0.0,0.0,0.0,10820.0,19655.0,15146.0,1495.0,1.6579455137252808,0.08289174817603924,-0.11234945136887693,0.11042247572682985,0.0016020693583413959,0.00014731957344338298,0.0
126,5,1.3752005543210544e-05,1.3027271052123979e-05,1.754261029418558e-05,-0.00119882938452065,-0.002687242580577731,-0.0001657741522649303,0.12007251381874084,0.2140139937400818,-0.01138618029654026,-0.002255556173622608,-0.0012331180041655898,0.0038108769804239273,0.0,0.0,0.0,0.0010756268166005611,-0.00048201720346696675,-0.0,0.0,0.0,0.0,-0.03703037276864052,-0.0640164464712143,-0.0011517470702528954,10874.0,19620.0,15151.0,1495.0,0.25580233335494995,0.8919196724891663,0.5189290642738342,-0.009173177182674408,0.0,0.0,0.0,0.0,10747.0,19625.0,15230.0,1495.0,1.6580545902252197,0.0828351374523879,-0.11287671904596862,0.11001826615573461,0.0019258081447333097,0.0033057413529604673,0.0
131,5,2.948731889773626e-05,-2.6997611257684184e-06,2.545645293139387e-05,0.0014087058370932937,0.000812346872407943,-0.001015970716252923,0.12007251381874084,0.2140139937400818,-0.01138618029654026,-0.002255556173622608,-0.0012331180041655898,0.0038108769804239273,0.0,0.0,0.0,0.0010756268166005611,-0.00048201720346696675,-0.0,0.0,0.0,0.0,-0.03703037276864052,-0.0640164464712143,-0.0011517470702528954,10874.0,19620.0,15151.0,1495.0,0.25580233335494995,0.8919196724891663,0.5189290642738342,-0.009173177182674408,0.0,0.0,0.0,0.0,10747.0,19625.0,15230.0,1495.0,1.6580545902252197,0.0837344846071408,-0.11278234257101118,0.11085821748899101,0.0019258081447333097,0.0033057413529604673,0.0
136,5,4.4400417209544685e-06,2.2081792849348858e-05,1.8292743334313855e-05,-0.0024421908892691135,-0.0026488476432859898,0.00045325688552111387,0.12005749344825745,0.21401795744895935,-0.011375971138477325,-0.0024144037161022425,0.0062098149210214615,-0.003969505429267883,0.0,0.0,0.0,-0.000996291870251298,0.0013630803441628814,-0.0,0.0,0.0,0.0,-0.03727433830499649,-0.06464963406324387,-0.0011910151224583387,10784.0,19695.0,15130.0,1495.0,0.2512396574020386,0.8990370035171509,0.5174234509468079,-0.00972285121679306,0.0,0.0,0.0,0.0,10764.0,19706.0,15112.0,1495.0,1.6578387022018433,0.08420904368182155,-0.11258664953831948,0.10913094931453486,-0.005445218179374933,-0.0030615213327109814,0.0
141,5,9.84591679298319e-06,-3.0122813768684864e-05,3.126330193481408e-05,-0.00032817129977047443,0.0052050137892365456,-0.0013751644873991609,0.12005749344825745,0.21401795744895935,-0.011375971138477325,-0.0024144037161022425,0.0062098149210214615,-0.003969505429267883,0.0,0.0,0.0,-0.000996291870251298,0.0013630803441628814,-0.0,0.0,0.0,0.0,-0.03727433830499649,-0.06464963406324387,-0.0011910151224583387,10784.0,19695.0,15130.0,1495.0,0.2512396574020386,0.8990370035171509,0.5174234509468079,-0.00972285121679306,0.0,0.0,0.0,0.0,10764.0,19706.0,15112.0,1495.0,1.6578387022018433,0.08255656233666628,-0.11231388433573965,0.11061050009976146,-0.005445218179374933,-0.0030615213327109814,0.0
146,5,2.4658647816977464e-05,1.2478586540964898e-05,-5.364348453440471e-06,0.0016462591011077166,-0.00303016253747046,0.0038452523294836283,0.12004441022872925,0.21399539709091187,-0.011377353221178055,-0.0024905067402869463,0.0026544847059994936,0.0035960355307906866,0.0,0.0,0.0,-0.0063252211548388,-0.00029069159063510597,-0.0,0.0,0.0,0.0,-0.036206185817718506,-0.06477241218090057,-0.0011146396864205599,10768.0,19603.0,15246.0,1495.0,0.2504366934299469,0.8903053998947144,0.525802493095398,-0.008599096909165382,0.0,0.0,0.0,0.0,10747.0,19618.0,15241.0,1495.0,1.6790181398391724,0.0846469120722159,-0.11325086667864338,0.11014975624482023,0.0011760643683373928,-0.01968495361506939,0.0
151,5,2.2325200916384347e-05,-1.679984234215226e-05,2.7870413759956136e-05,0.0003784900181926787,0.0023013465106487274,-0.0024500705767422915,0.12004441022872925,0.21399539709091187,-0.011377353221178055,-0.0024905067402869463,0.0026544847059994936,0.0035960355307906866,0.0,0.0,0.0,-0.0063252211548388,-0.00029069159063510597,-0.0,0.0,0.0,0.0,-0.036206185817718506,-0.06477241218090057,-0.0011146396864205599,10768.0,19603.0,15246.0,1495.0,0.2504366934299469,0.8903053998947144,0.525802493095398,-0.008599096909165382,0.0,0.0,0.0,0.0,10747.0,19618.0,15241.0,1495.0,1.6790181398391724,0.08295948004867311,-0.11268108457414913,0.110788272092314,0.0011760643683373928,-0.01968495361506939,0.0
156,5,1.408402113156626e-05,3.810779617197113e-06,6.077711532270769e-06,-0.0008375454926863313,-0.0015527360374107957,0.0016350961523130536,0.12004069983959198,0.21405063569545746,-0.011352854780852795,-1.9297274775453843e-05,-0.004116463009268045,0.003411785699427128,0.0,0.0,0.0,-0.0028395073022693396,0.00038627535104751587,-0.0,0.0,0.0,0.0,-0.03595816344022751,-0.06462397426366806,-0.0011836678022518754,10799.0,19625.0,15151.0,1495.0,0.25198617577552795,0.8923580646514893,0.518955409526825,-0.005460942164063454,0.0,0.0,0.0,0.0,10736.0,19603.0,15275.0,1495.0,1.6573513746261597,0.08399517177812288,-0.11342700279183669,0.11060834956573842,-0.0015426297904923558,-0.008722984232008457,0.0
161,5,5.960563157714205e-06,-4.0612103475723416e-06,2.130372558895033e-05,-0.0013098331401124597,0.00032354440190829337,-0.0011730832047760487,0.12004069983959198,0.21405063569545746,-0.011352854780852795,-1.9297274775453843e-05,-0.004116463009268045,0.003411785699427128,0.0,0.0,0.0,-0.0028395073022693396,0.00038627535104751587,-0.0,0.0,0.0,0.0,-0.03595816344022751,-0.06462397426366806,-0.0011836678022518754,10799.0,19625.0,15151.0,1495.0,0.25198617577552795,0.8923580646514893,0.518955409526825,-0.005460942164063454,0.0,0.0,0.0,0.0,10736.0,19603.0,15275.0,1495.0,1.6573513746261597,0.08272698077137129,-0.11274143501788883,0.11055068241673809,-0.0015426297904923558,-0.008722984232008457,0.0
166,5,2.6320649340050295e-05,1.042510393745033e-05,-2.3212358428281732e-05,0.0019192771287634969,-0.001608939957804978,0.004872696474194527,0.12011712044477463,0.2141295224428177,-0.01119936816394329,0.001497258199378848,-0.008981266990303993,0.028430646285414696,0.0,0.0,0.0,-0.0004024013760499656,-0.0012215952156111598,-0.0,0.0,0.0,0.0,-0.03673018887639046,-0.06447991728782654,-0.00030514950049109757,11230.0,19397.0,15502.0,1495.0,0.27420327067375183,0.8708885312080383,0.5446279048919678,-0.03188095986843109,0.0,0.0,0.0,0.0,10744.0,19662.0,15130.0,1495.0,1.6573458909988403,0.08363503461316847,-0.11395257424095477,0.11030566896058613,0.004878566600382328,-0.001236178446561098,0.0
171,5,1.7563070286996663e-05,-1.8491475657356204e-06,1.695953687885776e-05,-0.0002831986639648676,0.0008293341961689293,-0.002871548756957054,0.12011712044477463,0.2141295224428177,-0.01119936816394329,0.001497258199378848,-0.008981266990303993,0.028430646285414696,0.0,0.0,0.0,-0.0004024013760499656,-0.0012215952156111598,-0.0,0.0,0.0,0.0,-0.03673018887639046,-0.06447991728782654,-0.00030514950049109757,11230.0,19397.0,15502.0,1495.0,0.27420327067375183,0.8708885312080383,0.5446279048919678,-0.03188095986843109,0.0,0.0,0.0,0.0,10744.0,19662.0,15130.0,1495.0,1.6573458909988403,0.08339200882019793,-0.1129533879801549,0.11096663219905016,0.004878566600382328,-0.001236178446561098,0.0
176,5,1.4982170796429273e-05,1.1755503237509402e-06,1.3960235264676157e-05,-0.0004229873593430966,-3.1230061722453684e-05,-0.0007887032115831971,0.12016144394874573,0.21415495872497559,-0.011418543756008148,0.004497723653912544,0.005695200525224209,0.018170448020100594,0.0,0.0,0.0,-0.0010178684024140239,-0.00024206662783399224,-0.0,0.0,0.0,0.0,-0.03831689432263374,-0.06476987898349762,-0.0009528772789053619,11212.0,19671.0,15321.0,1495.0,0.2732377350330353,0.8967693448066711,0.5312976837158203,-0.022286679595708847,0.0,0.0,0.0,0.0,10726.0,19919.0,15034.0,1495.0,1.654078722000122,0.08391205546699441,-0.11218042565342815,0.10980619227566486,0.0009648121776990592,-0.003120730398222804,0.0
181,5,-2.2632316358794924e-06,-9.968979611585382e-06,1.4147941328701563e-05,-0.002238643355667591,0.001324851531535387,-0.00033800603705458343,0.12016144394874573,0.21415495872497559,-0.011418543756008148,0.004497723653912544,0.005695200525224209,0.018170448020100594,0.0,0.0,0.0,-0.0010178684024140239,-0.00024206662783399224,-0.0,0.0,0.0,0.0,-0.03831689432263374,-0.06476987898349762,-0.0009528772789053619,11212.0,19671.0,15321.0,1495.0,0.2732377350330353,0.8967693448066711,0.5312976837158203,-0.022286679595708847,0.0,0.0,0.0,0.0,10726.0,19919.0,15034.0,1495.0,1.654078722000122,0.08295126020068722,-0.11273590513194062,0.11030503863089816,0.0009648121776990592,-0.003120730398222804,0.0
187,5,1.6792118913144805e-05,4.5986239456397016e-06,1.1594001989578828e-05,0.001391184632666409,-0.0012181717902421951,0.00017127033788710833,0.12015111744403839,0.2141062468290329,-0.011255409568548203,-0.003758858423680067,0.005266930907964706,0.024809636175632477,0.0,0.0,0.0,-0.001633908599615097,-0.0021032867953181267,-0.0,0.0,0.0,0.0,-0.037285055965185165,-0.06445582211017609,-0.0007047485560178757,11097.0,19521.0,15338.0,1495.0,0.2672719657421112,0.88252854347229,0.5325477719306946,-0.02499692514538765,0.0,0.0,0.0,0.0,11043.0,19756.0,15207.0,1495.0,1.658747673034668,0.08402445944458267,-0.11258495941820466,0.11031626293814549,0.008406782522797585,-0.005023614503443241,0.0
192,5,1.4948343959986232e-05,-2.805038275255356e-05,5.294725724525051e-06,0.0003352210042066872,0.003430612152442336,0.000824421236757189,0.12015111744403839,0.2141062468290329,-0.011255409568548203,-0.003758858423680067,0.005266930907964706,0.024809636175632477,0.0,0.0,0.0,-0.001633908599615097,-0.0021032867953181267,-0.0,0.0,0.0,0.0,-0.037285055965185165,-0.06445582211017609,-0.0007047485560178757,11097.0,19521.0,15338.0,1495.0,0.2672719657421112,0.88252854347229,0.5325477719306946,-0.02499692514538765,0.0,0.0,0.0,0.0,11043.0,19756.0,15207.0,1495.0,1.658747673034668,0.08188068175515088,-0.11277323057455957,0.1106917081868205,0.008406782522797585,-0.005023614503443241,0.0
197,5,2.7276164473732933e-05,-9.496292477706447e-06,5.363691161619499e-05,0.0016134267207235098,-0.000854245969094336,-0.005471293814480305,0.12015111744403839,0.2141062468290329,-0.011255409568548203,-0.003758858423680067,0.005266930907964706,0.024809636175632477,0.0,0.0,0.0,-0.004228455480188131,0.0003347475139889866,-0.0,0.0,0.0,0.0,-0.037285055965185165,-0.06445582211017609,-0.0007047485560178757,11097.0,19521.0,15338.0,1495.0,0.2672719657421112,0.88252854347229,0.5325477719306946,-0.02499692514538765,0.0,0.0,0.0,0.0,11043.0,19756.0,15207.0,1495.0,1.661173939704895,0.08269384069175896,-0.11246180484183024,0.11028380069791491,-0.0013399249874055386,-0.013019762933254242,-0.0
202,5,6.604043301194906e-05,-1.5793610145919956e-05,-2.124072125297971e-05,0.00529708294197917,0.0004139796074014157,0.0067967986688017845,0.12014906108379364,0.2141912579536438,-0.01140971016138792,0.03394201770424843,-0.015896594151854515,-0.041282862424850464,0.0,0.0,0.0,-0.004228455480188131,0.0003347475139889866,-0.0,0.0,0.0,0.0,-0.03693535923957825,-0.06533487141132355,-0.0023961190599948168,10107.0,20003.0,14783.0,3265.0,0.21831998229026794,0.9285426139831543,0.4927177429199219,0.01449831947684288,0.0,0.0,0.0,0.0,10203.0,20029.0,14844.0,2672.0,1.661173939704895,0.08401708916364375,-0.11279294419184864,0.11054252902518542,-0.0013399249874055386,-0.013019762933254242,-0.0
207,5,-2.3379609501716914e-06,1.3448782738123555e-05,5.45947186765261e-05,-0.00608657393604517,-0.003343495074659586,-0.006381533108651638,0.12014906108379364,0.2141912579536438,-0.01140971016138792,0.03394201770424843,-0.015896594151854515,-0.041282862424850464,0.0,0.0,0.0,-0.0005264944047667086,0.0049952310509979725,-0.0,0.0,0.0,0.0,-0.03693535923957825,-0.06533487141132355,-0.0023961190599948168,10107.0,20003.0,14783.0,3265.0,0.21831998229026794,0.9285426139831543,0.4927177429199219,0.01449831947684288,0.0,0.0,0.0,0.0,10203.0,20029.0,14844.0,2672.0,1.6805461645126343,0.08328046778256677,-0.11301257257918647,0.10996729673877939,-0.020228145644068718,-0.0016400335589423776,0.0
212,5,2.8191232559038326e-05,-3.754790895982296e-06,-1.2546498510346282e-05,0.0012288737343624234,0.0007270307396538556,0.005504332482814789,0.12043624371290207,0.2141886204481125,-0.011541810818016529,-0.022343330085277557,0.027333039790391922,0.0735759437084198,0.0,0.0,0.0,-0.0005264944047667086,0.0049952310509979725,-0.0,0.0,0.0,0.0,-0.037005383521318436,-0.06505893915891647,-0.0006284867995418608,11388.0,19323.0,15651.0,1495.0,0.28256046772003174,0.8639718294143677,0.5556889772415161,-0.04347363859415054,0.0,0.0,0.0,0.0,11375.0,19306.0,15680.0,1495.0,1.6805461645126343,0.08405509372068029,-0.11302044775345864,0.10951435674123658,-0.020228145644068718,-0.0016400335589423776,0.0
217,5,-4.7464865929214284e-05,-1.6076081010396592e-05,0.00010075435420731083,-0.008587182499468327,0.0017693671397864819,-0.011394369415938854,0.12043624371290207,0.2141886204481125,-0.011541810818016529,-0.022343330085277557,0.027333039790391922,0.0735759437084198,0.0,0.0,0.0,-0.0008922936394810677,0.0011900946265086532,-0.0,0.0,0.0,0.0,-0.037005383521318436,-0.06505893915891647,-0.0006284867995418608,11388.0,19323.0,15651.0,1495.0,0.28256046772003174,0.8639718294143677,0.5556889772415161,-0.04347363859415054,0.0,0.0,0.0,0.0,11375.0,19306.0,15680.0,1495.0,1.6613643169403076,0.08166924034348473,-0.11347174912158693,0.10944809268449461,-0.0047642881982028484,-0.0027477748226374388,0.0
222,5,-0.00018448768241796643,1.726188202155754e-05,0.00030185410287231207,-0.019877610728144646,-0.003292808774858713,-0.028689716011285782,0.12044066935777664,0.21403448283672333,-0.012024329043924809,0.02980889193713665,0.0004476018366403878,-0.0902768075466156,0.0,0.0,0.0,-0.0008922936394810677,0.0011900946265086532,-0.0,0.0,0.0,0.0,-0.03563416749238968,-0.06330297142267227,-0.0013252402422949672,9141.0,20579.0,13922.0,5969.0,0.17530035972595215,0.9849701523780823,0.43391159176826477,0.06699183583259583,0.0,0.0,0.0,0.0,10889.0,19725.0,15170.0,1495.0,1.6613643169403076,0.07992608129779358,-0.11915614395325974,0.10672184782708465,-0.0047642881982028484,-0.0027477748226374388,0.0
227,5,-2.3045447960612364e-05,5.389163925428875e-05,-2.7002381557394983e-06,0.011422024108469486,-0.005712694488465786,0.025070633739233017,0.12044066935777664,0.21403448283672333,-0.012024329043924809,0.02980889193713665,0.0004476018366403878,-0.0902768075466156,0.0,0.0,0.0,0.003670479403808713,-0.017146190628409386,-0.0,0.0,0.0,0.0,-0.03563416749238968,-0.06330297142267227,-0.0013252402422949672,9141.0,20579.0,13922.0,5969.0,0.17530035972595215,0.9849701523780823,0.43391159176826477,0.06699183583259583,0.0,0.0,0.0,0.0,10889.0,19725.0,15170.0,1495.0,1.8288168907165527,0.08907909290654423,-0.11161585045089811,0.10991967449650818,0.07555540651082993,0.012442274950444698,0.0
232,5,8.252942643593997e-05,7.46519144740887e-05,-1.868213621492032e-05,0.017237793654203415,-0.004776310175657272,0.011946081183850765,0.12011479586362839,0.2141100913286209,-0.012078708037734032,-0.058707114309072495,0.032059796154499054,-0.08456402271986008,0.0,0.0,0.0,0.003670479403808713,-0.017146190628409386,-0.0,0.0,0.0,0.0,-0.03723697364330292,-0.06213413178920746,-0.0012513244291767478,10329.0,19896.0,14808.0,4760.0,0.22887155413627625,0.9182108640670776,0.49447301030158997,0.038990698754787445,0.0,0.0,0.0,0.0,9070.0,20518.0,13847.0,7114.0,1.8288168907165527,0.09267080023847854,-0.11595219980993485,0.11193061652082123,0.07555540651082993,0.012442274950444698,0.0
237,5,0.0001054640524671413,9.781621338333935e-05,-4.2351995944045484e-05,0.009647272527217865,-0.004690240137279034,0.007618815638124943,0.12011479586362839,0.2141100913286209,-0.012078708037734032,-0.058707114309072495,0.032059796154499054,-0.08456402271986008,0.0,0.0,0.0,0.0054742731153965,0.014962399378418922,-0.0,0.0,0.0,0.0,-0.03723697364330292,-0.06213413178920746,-0.0012513244291767478,10329.0,19896.0,14808.0,4760.0,0.22887155413627625,0.9182108640670776,0.49447301030158997,0.038990698754787445,0.0,0.0,0.0,0.0,9070.0,20518.0,13847.0,7114.0,1.8056164979934692,0.09245673471181987,-0.11320560321291744,0.11303611967326942,-0.06509624421596527,0.018321312963962555,0.0
242,5,0.00012427166802808642,7.854064460843801e-05,1.0564241165411659e-05,0.006115822121500969,0.0004369717789813876,-0.0033024221193045378,0.12026651203632355,0.2136082500219345,-0.012758457101881504,0.0025702251587063074,0.14524415135383606,0.0733613595366478,0.0,0.0,0.0,0.0054742731153965,0.014962399378418922,-0.0,0.0,0.0,0.0,-0.03449028357863426,-0.06089447811245918,-0.00721871480345726,11487.0,19307.0,15268.0,1495.0,0.2878682017326355,0.8625504374504089,0.527397096157074,-0.01645142212510109,0.0,0.0,0.0,0.0,12387.0,18654.0,15840.0,1495.0,1.8056164979934692,0.09167825937267962,-0.11136817459683725,0.11175227679888933,-0.06509624421596527,0.018321312963962555,0.0
248,5,0.00013064967060927302,6.761716940673068e-05,0.00010673076030798256,0.003211690578609705,0.0014856064226478338,-0.012860951945185661,0.12026651203632355,0.2136082500219345,-0.012758457101881504,0.0025702251587063074,0.14524415135383606,0.0733613595366478,0.0,0.0,0.0,-0.0003853633243124932,0.005801517050713301,-0.0,0.0,0.0,0.0,-0.03449028357863426,-0.06089447811245918,-0.00721871480345726,11487.0,19307.0,15268.0,1495.0,0.2878682017326355,0.8625504374504089,0.527397096157074,-0.01645142212510109,0.0,0.0,0.0,0.0,12387.0,18654.0,15840.0,1495.0,1.6895383596420288,0.08988648103204869,-0.10693258285169627,0.11033727340631727,-0.02361886575818062,-0.0012068323558196425,0.0
253,5,0.00017661995661910623,-5.1384198741288856e-05,9.039069118443877e-05,0.0068011097609996796,0.014874406158924103,-0.0031835720874369144,0.1196964681148529,0.21043768525123596,-0.012997615151107311,-0.03101140446960926,0.46022939682006836,-0.21064594388008118,0.0,0.0,0.0,-0.0003853633243124932,0.005801517050713301,-0.0,0.0,0.0,0.0,-0.032483868300914764,-0.03378019854426384,-0.0007260754355229437,8626.0,21316.0,13278.0,10194.0,0.15427342057228088,1.0597209930419922,0.3923821747303009,0.22244033217430115,0.0,0.0,0.0,0.0,10877.0,20356.0,14140.0,8805.0,1.6895383596420288,0.081080623758906,-0.10155790996333094,0.10650026327660451,-0.02361886575818062,-0.0012068323558196425,0.0
258,5,-3.581934288376942e-05,-7.750352961011231e-05,0.0003431296208873391,-0.022772271186113358,0.009084082208573818,-0.031602099537849426,0.1196964681148529,0.21043768525123596,-0.012997615151107311,-0.03101140446960926,0.46022939682006836,-0.21064594388008118,0.0,0.0,0.0,-0.016888458281755447,0.006135894451290369,-0.0,0.0,0.0,0.0,-0.032483868300914764,-0.03378019854426384,-0.0007260754355229437,8626.0,21316.0,13278.0,10194.0,0.15427342057228088,1.0597209930419922,0.3923821747303009,0.22244033217430115,0.0,0.0,0.0,0.0,10877.0,20356.0,14140.0,8805.0,1.791048526763916,0.06758803995594607,-0.1003350868262528,0.10426952397512579,-0.026477226987481117,-0.05606197938323021,0.0
263,5,8.683357737027109e-05,-0.0001216607925016433,0.00031411400414071977,0.005609441548585892,0.008932504802942276,-0.009158965200185776,0.11912257969379425,0.204550638794899,-0.012395476922392845,-0.18161043524742126,1.1031849384307861,-0.056655146181583405,0.0,0.0,0.0,-0.016888458281755447,0.006135894451290369,-0.0,0.0,0.0,0.0,-0.03149737790226936,-0.01234167069196701,-0.007617228664457798,13474.0,18344.0,13711.0,9830.0,0.40480753779411316,0.7752041816711426,0.4200805723667145,0.20552417635917664,0.0,0.0,0.0,0.0,12327.0,19026.0,11549.0,12463.0,1.791048526763916,0.06535669738819744,-0.09573389287290095,0.10508589576981807,-0.026477226987481117,-0.05606197938323021,0.0
268,5,6.63909813738428e-05,-0.0001924980606418103,0.00037378331762738526,-0.00020933500491082668,0.012073474004864693,-0.01082390546798706,0.11912257969379425,0.204550638794899,-0.012395476922392845,-0.18161043524742126,1.1031849384307861,-0.056655146181583405,0.0,0.0,0.0,-0.016888458281755447,0.006135894451290369,-0.0,0.0,0.0,0.0,-0.03149737790226936,-0.01234167069196701,-0.007617228664457798,13474.0,18344.0,13711.0,9830.0,0.40480753779411316,0.7752041816711426,0.4200805723667145,0.20552417635917664,0.0,0.0,0.0,0.0,12327.0,19026.0,11549.0,12463.0,1.791048526763916,0.056944924917722205,-0.08207806126780139,0.10244608852384847,-0.026477226987481117,-0.05606197938323021,0.0
273,5,0.00041426069219596684,-0.00020276306895539165,0.0003992566780652851,0.04166063293814659,0.006061190273612738,-0.007386366371065378,0.11594861000776291,0.1864980012178421,-0.012874764390289783,-0.3749977946281433,1.991144061088562,-0.1668122559785843,0.0,0.0,0.0,-0.014286138117313385,-9.913322719512507e-05,-0.0,0.0,0.0,0.0,-0.03165212646126747,0.017325034365057945,-0.00867722649127245,13715.0,18041.0,1495.0,16902.0,0.42033228278160095,0.7487212419509888,-0.03116399049758911,0.653158962726593,0.0,0.0,0.0,0.0,14208.0,16800.0,9799.0,13200.0,1.749908208847046,0.0528679980644864,-0.07795730108905413,0.1019584587108591,0.00041796709410846233,-0.046335283666849136,0.0
278,5,0.0006611587014049292,-2.4977522116387263e-05,0.00036975700641050935,0.0462920181453228,-0.018909789621829987,0.0005854149349033833,0.11594861000776291,0.1864980012178421,-0.012874764390289783,-0.3749977946281433,1.991144061088562,-0.1668122559785843,0.0,0.0,0.0,-0.014286138117313385,-9.913322719512507e-05,-0.0,0.0,0.0,0.0,-0.03165212646126747,0.017325034365057945,-0.00867722649127245,13715.0,18041.0,1495.0,16902.0,0.42033228278160095,0.7487212419509888,-0.03116399049758911,0.653158962726593,0.0,0.0,0.0,0.0,14208.0,16800.0,9799.0,13200.0,1.749908208847046,0.05635436344222791,-0.05553371155503411,0.0993145917328757,0.00041796709410846233,-0.046335283666849136,0.0
283,5,0.0011621437733992934,-1.0187784937443212e-05,8.655028796056286e-05,0.05014481395483017,-0.0024255153257399797,0.032155025750398636,0.11190734058618546,0.16741672158241272,-0.011807653121650219,-0.6394081711769104,2.844982624053955,-0.4067489802837372,0.0,0.0,0.0,0.018071604892611504,0.03482179716229439,-0.0,0.0,0.0,0.0,-0.01995028555393219,0.041493009775877,-0.006636348553001881,16095.0,13810.0,3904.0,17594.0,0.589362382888794,0.42654526233673096,0.02359187602996826,0.7104087471961975,0.0,0.0,0.0,0.0,13129.0,18306.0,1495.0,18375.0,2.113034963607788,0.037539168076016385,-0.02637685193288644,0.10039440100050402,-0.1772356480360031,0.07077322900295258,-0.0
288,5,0.0014501257101073861,9.444570605410263e-05,-2.2402055037673563e-05,0.05461576581001282,-0.013526225462555885,0.025936290621757507,0.11190734058618546,0.16741672158241272,-0.011807653121650219,-0.6394081711769104,2.844982624053955,-0.4067489802837372,0.0,0.0,0.0,0.018071604892611504,0.03482179716229439,-0.0,0.0,0.0,0.0,-0.01995028555393219,0.041493009775877,-0.006636348553001881,16095.0,13810.0,3904.0,17594.0,0.589362382888794,0.42654526233673096,0.02359187602996826,0.7104087471961975,0.0,0.0,0.0,0.0,13129.0,18306.0,1495.0,18375.0,2.113034963607788,0.025375854402264593,-0.006629096068259083,0.09802366983234986,-0.21279409527778625,0.05124202370643616,0.0
293,5,0.0017633539391681552,0.0002442131226416677,-0.0001342250470770523,0.05943368747830391,-0.023382578045129776,0.023793276399374008,0.08612608909606934,0.1000170037150383,-0.011608853004872799,-2.4075000286102295,3.8943068981170654,-0.49996644258499146,0.0,0.0,0.0,0.012686755508184433,0.04053902253508568,-0.0,0.0,0.0,0.0,0.00021416285017039627,0.06736516952514648,-0.013758721761405468,14720.0,14472.0,1495.0,23386.0,0.48828232288360596,0.4710153043270111,-0.13026466965675354,1.2840019464492798,0.0,0.0,0.0,0.0,16173.0,12917.0,5370.0,17851.0,2.1791558265686035,0.012106318883930432,0.014102430093942698,0.09690090190904985,-0.21279409527778625,0.05124202370643616,0.0
299,5,0.0020616534166038036,0.00048077647807076573,-0.0003290290478616953,0.059569407254457474,-0.03774063661694527,0.032893791794776917,0.08612608909606934,0.1000170037150383,-0.011608853004872799,-2.4075000286102295,3.8943068981170654,-0.49996644258499146,0.0,0.0,0.0,0.012686755508184433,0.04053902253508568,-0.0,0.0,0.0,0.0,0.00021416285017039627,0.06736516952514648,-0.013758721761405468,14720.0,14472.0,1495.0,23386.0,0.48828232288360596,0.4710153043270111,-0.13026466965675354,1.2840019464492798,0.0,0.0,0.0,0.0,16173.0,12917.0,5370.0,17851.0,2.1791558265686035,-0.004416590879554042,0.03552260979052301,0.0965764582188857,-0.23474086821079254,0.1441725641489029,0.0
304,5,0.002353465184569359,0.0008554616943001747,-0.0004612075281329453,0.05884517729282379,-0.06005847826600075,0.029018932953476906,0.08612608909606934,0.1000170037150383,-0.011608853004872799,-2.4075000286102295,3.8943068981170654,-0.49996644258499146,0.0,0.0,0.0,0.03369705751538277,0.04222610965371132,-0.0,0.0,0.0,0.0,0.00021416285017039627,0.06736516952514648,-0.013758721761405468,14720.0,14472.0,1495.0,23386.0,0.48828232288360596,0.4710153043270111,-0.13026466965675354,1.2840019464492798,0.0,0.0,0.0,0.0,16173.0,12917.0,5370.0,17851.0,2.309039831161499,-0.021476932149519262,0.06254535074005248,0.09333158721799553,-0.23474086821079254,0.1441725641489029,0.0
309,5,0.002599343890324235,0.0012470324290916324,-0.0007647767779417336,0.05304352939128876,-0.07101187855005264,0.0480358861386776,0.05100597068667412,0.05250001326203346,-0.01091266330331564,-3.7388648986816406,3.965420722961426,-0.09420899301767349,0.0,0.0,0.0,0.03369705751538277,0.04222610965371132,-0.0,0.0,0.0,0.0,0.04029261693358421,0.08868946880102158,-0.0015582662308588624,17870.0,1495.0,10969.0,22804.0,0.7339538335800171,-0.034175753593444824,0.26066046953201294,1.2187172174453735,0.0,0.0,0.0,0.0,15776.0,11958.0,1495.0,23175.0,2.309039831161499,-0.040997992744173296,0.08058248028933568,0.09034888807013344,-0.21323521435260773,0.2731584906578064,0.0
314,5,-0.005883221514523029,0.007320816162973642,0.007762329187244177,0.05304352939128876,-0.07101187855005264,0.0480358861386776,0.017023352906107903,0.02123456634581089,-0.012243914417922497,-4.750431060791016,3.674539089202881,-0.002592103322967887,0.0,0.0,0.0,0.059855762869119644,0.035975560545921326,-0.0,0.0,0.0,0.0,0.07076404243707657,0.1022949293255806,-0.006940984632819891,16046.0,1495.0,11873.0,24452.0,0.5855823159217834,-0.12335161119699478,0.3090377748012543,1.4078874588012695,0.0,0.0,0.0,0.0,16408.0,4571.0,9393.0,23909.0,2.464742660522461,-2.855828738199237,0.24349251602590222,-1.604594823212013,-0.21323521435260773,0.2731584906578064,0.0
319,5,-0.005560555960983038,0.007841306738555431,0.007773896213620901,0.059937261044979095,-0.09086360782384872,0.01782631315290928,0.017023352906107903,0.02123456634581089,-0.012243914417922497,-4.750431060791016,3.674539089202881,-0.002592103322967887,0.0,0.0,0.0,0.07869838178157806,0.030663879588246346,-0.0,0.0,0.0,0.0,0.07076404243707657,0.1022949293255806,-0.006940984632819891,16046.0,1495.0,11873.0,24452.0,0.5855823159217834,-0.12335161119699478,0.3090377748012543,1.4078874588012695,0.0,0.0,0.0,0.0,16408.0,4571.0,9393.0,23909.0,2.636679172515869,-2.877267497524589,0.21149303141092887,-1.598406532102757,-0.19418780505657196,0.38389843702316284,-0.0
324,5,-0.005313345696777105,0.00848378986120224,0.007265955209732056,0.053640153259038925,-0.11344341933727264,0.06808342784643173,-0.04184217378497124,-0.019084423780441284,-0.012122823856770992,-5.069751739501953,3.002084493637085,-0.2975018620491028,0.0,0.0,0.0,0.07869838178157806,0.030663879588246346,-0.0,0.0,0.0,0.0,0.0973542183637619,0.09236602485179901,-0.0023920906241983175,13838.0,1495.0,13974.0,26020.0,0.42840805649757385,-0.15727844834327698,0.43736568093299866,1.6005445718765259,0.0,0.0,0.0,0.0,17810.0,1495.0,16744.0,23460.0,2.636679172515869,-2.896070639903382,0.21198868850728697,-1.5974741419994667,-0.19418780505657196,0.38389843702316284,-0.0
329,5,-0.005077496636658907,0.00914988573640585,0.006937861442565918,0.0497579388320446,-0.12530887126922607,0.0666046217083931,-0.04184217378497124,-0.019084423780441284,-0.012122823856770992,-5.069751739501953,3.002084493637085,-0.2975018620491028,0.0,0.0,0.0,0.07869838178157806,0.030663879588246346,-0.0,0.0,0.0,0.0,0.0973542183637619,0.09236602485179901,-0.0023920906241983175,13838.0,1495.0,13974.0,26020.0,0.42840805649757385,-0.15727844834327698,0.43736568093299866,1.6005445718765259,0.0,0.0,0.0,0.0,17810.0,1495.0,16744.0,23460.0,2.636679172515869,-2.9240989359930905,0.20480064114718852,-1.597260627717907,-0.19418780505657196,0.38389843702316284,-0.0
334,5,-0.004945335444062948,0.009786179289221764,0.006547074299305677,0.035762522369623184,-0.12647885084152222,0.07353632152080536,-0.04184217378497124,-0.019084423780441284,-0.012122823856770992,-5.069751739501953,3.002084493637085,-0.2975018620491028,0.0,0.0,0.0,0.09876030683517456,0.023212138563394547,-0.0,0.0,0.0,0.0,0.0973542183637619,0.09236602485179901,-0.0023920906241983175,13838.0,1495.0,13974.0,26020.0,0.42840805649757385,-0.15727844834327698,0.43736568093299866,1.6005445718765259,0.0,0.0,0.0,0.0,17810.0,1495.0,16744.0,23460.0,2.8506603240966797,-2.9496435173518236,0.20337206162632218,-1.5966183190785153,-0.15865439176559448,0.5202974081039429,-0.0
339,5,-0.004796755500137806,0.010423127561807632,0.0061599514447152615,0.03213458135724068,-0.127025306224823,0.07586926221847534,-0.08191091567277908,-0.03989149257540703,-0.013090294785797596,-5.081234455108643,2.0346264839172363,0.2658345103263855,0.0,0.0,0.0,0.09876030683517456,0.023212138563394547,-0.0,0.0,0.0,0.0,0.12453018873929977,0.07390756905078888,0.006105204578489065,15654.0,1495.0,20604.0,23724.0,0.5559115409851074,-0.401355504989624,0.9875034093856812,1.322683334350586,0.0,0.0,0.0,0.0,12775.0,1495.0,14713.0,26703.0,2.8506603240966797,-2.9713129586205262,0.20451426247893273,-1.596477543407283,-0.15865439176559448,0.5202974081039429,-0.0
344,5,-0.004728624131530523,0.010995344258844852,0.0054729897528886795,0.021029621362686157,-0.11947612464427948,0.11278310418128967,-0.08191091567277908,-0.03989149257540703,-0.013090294785797596,-5.081234455108643,2.0346264839172363,0.2658345103263855,0.0,0.0,0.0,0.10144581645727158,0.013784559443593025,-0.0,0.0,0.0,0.0,0.12453018873929977,0.07390756905078888,0.006105204578489065,15654.0,1495.0,20604.0,23724.0,0.5559115409851074,-0.401355504989624,0.9875034093856812,1.322683334350586,0.0,0.0,0.0,0.0,12775.0,1495.0,14713.0,26703.0,2.8475406169891357,-2.9920456132706095,0.21442413951322462,-1.599466585741503,-0.09409409761428833,0.5337733030319214,-0.0
349,5,-0.004041977692395449,-0.00533269951120019,0.003126678755506873,0.021029621362686157,-0.11947612464427948,0.11278310418128967,-0.1416802853345871,-0.06088419258594513,-0.015196587890386581,-4.705609321594238,1.4395841360092163,-0.09106067568063736,0.0,0.0,0.0,0.10144581645727158,0.013784559443593025,-0.0,0.0,0.0,0.0,0.13780473172664642,0.06524191796779633,-0.003681579837575555,10791.0,1495.0,19577.0,26477.0,0.251623272895813,-0.1617969274520874,0.887865424156189,1.6589874029159546,0.0,0.0,0.0,0.0,10950.0,1495.0,20522.0,26728.0,2.8475406169891357,0.08848482641431109,0.21111445478513646,-1.5321107288301183,-0.09409409761428833,0.5337733030319214,-0.0
354,5,-0.003970940597355366,-0.004917361307889223,0.003195657394826412,0.016936324536800385,-0.09763102233409882,0.03683580458164215,-0.1416802853345871,-0.06088419258594513,-0.015196587890386581,-4.705609321594238,1.4395841360092163,-0.09106067568063736,0.0,0.0,0.0,0.08635355532169342,0.00898895412683487,-0.0,0.0,0.0,0.0,0.13780473172664642,0.06524191796779633,-0.003681579837575555,10791.0,1495.0,19577.0,26477.0,0.251623272895813,-0.1617969274520874,0.887865424156189,1.6589874029159546,0.0,0.0,0.0,0.0,10950.0,1495.0,20522.0,26728.0,2.622331142425537,0.07311371918041631,0.21552872464503045,-1.5308086458924404,-0.05658762529492378,0.41878819465637207,-0.0
359,5,-0.014061976224184036,0.0012533843982964754,-0.00046712177572771907,0.016936324536800385,-0.09763102233409882,0.03683580458164215,-0.17633239924907684,-0.07023920118808746,-0.017367413267493248,-3.813586950302124,1.1074632406234741,-0.025218894705176353,0.0,0.0,0.0,0.08635355532169342,0.00898895412683487,-0.0,0.0,0.0,0.0,0.14677782356739044,0.05559248477220535,-0.002893469762057066,11225.0,1495.0,20977.0,26427.0,0.2739619016647339,-0.10084785521030426,1.025009274482727,1.6525369882583618,0.0,0.0,0.0,0.0,10950.0,1495.0,20522.0,26728.0,2.622331142425537,-0.10305140733292839,-0.19150146438792717,-3.0560534786402935,-0.05658762529492378,0.41878819465637207,-0.0
365,5,-0.0139419324696064,0.0015199363697320223,-0.0005122896982356906,0.02117983065545559,-0.07103864848613739,0.020154472440481186,-0.17633239924907684,-0.07023920118808746,-0.017367413267493248,-3.813586950302124,1.1074632406234741,-0.025218894705176353,0.0,0.0,0.0,0.0799601674079895,-0.0022979555651545525,-0.0,0.0,0.0,0.0,0.14677782356739044,0.05559248477220535,-0.002893469762057066,11225.0,1495.0,20977.0,26427.0,0.2739619016647339,-0.10084785521030426,1.025009274482727,1.6525369882583618,0.0,0.0,0.0,0.0,10950.0,1495.0,20522.0,26728.0,2.5222089290618896,-0.11847719397520116,-0.18241533152145478,-3.0584296153879733,0.013921446166932583,0.37309688329696655,0.0
370,5,-0.013785291463136673,0.0014649032382294536,-0.0008245494100265205,0.027268793433904648,-0.021811485290527344,0.0455329492688179,-0.21596954762935638,-0.0833294540643692,-0.020061839371919632,-2.616746664047241,1.1540539264678955,-0.006370903924107552,0.0,0.0,0.0,0.0799601674079895,-0.0022979555651545525,-0.0,0.0,0.0,0.0,0.13758298754692078,0.05507455766201019,-0.0019964505918323994,12002.0,1495.0,20726.0,26191.0,0.3163142800331116,-0.09062416851520538,0.9996351003646851,1.6222153902053833,0.0,0.0,0.0,0.0,13027.0,1495.0,20658.0,25823.0,2.5222089290618896,-0.14668733446861867,-0.17227156965593238,-3.059344814242219,0.013921446166932583,0.37309688329696655,0.0
375,5,-0.013661159202456474,0.001574947265908122,-0.0008035185746848583,0.025803450495004654,-0.021929878741502762,0.015689479187130928,-0.21596954762935638,-0.0833294540643692,-0.020061839371919632,-2.616746664047241,1.1540539264678955,-0.006370903924107552,0.0,0.0,0.0,0.02591056562960148,0.005828634835779667,-0.0,0.0,0.0,0.0,0.13758298754692078,0.05507455766201019,-0.0019964505918323994,12002.0,1495.0,20726.0,26191.0,0.3163142800331116,-0.09062416851520538,0.9996351003646851,1.6222153902053833,0.0,0.0,0.0,0.0,13027.0,1495.0,20658.0,25823.0,1.8731213808059692,-0.14803701357280016,-0.16847765581386132,-3.0585768193920035,-0.026298830285668373,0.08994211256504059,0.0
380,5,0.00369842816144228,0.0048148371279239655,-0.002274644561111927,0.025803450495004654,-0.021929878741502762,0.015689479187130928,-0.23158463835716248,-0.09318285435438156,-0.021913714706897736,-0.9388383030891418,1.443483591079712,0.07030007243156433,0.0,0.0,0.0,0.02591056562960148,0.005828634835779667,-0.0,0.0,0.0,0.0,0.11641864478588104,0.06327506899833679,-0.0008881508256308734,13983.0,1495.0,18946.0,24878.0,0.43797293305397034,-0.10395762324333191,0.8292649984359741,1.4590507745742798,0.0,0.0,0.0,0.0,13027.0,1495.0,20658.0,25823.0,1.8731213808059692,-0.3464475961060662,0.16359949403227853,0.07830878533934542,-0.11697719991207123,0.10882757604122162,0.0
385,5,0.00398359727114439,0.005093145649880171,-0.0024233509320765734,0.04454168677330017,-0.04216895252466202,0.024120543152093887,-0.23158463835716248,-0.09318285435438156,-0.021913714706897736,-0.9388383030891418,1.443483591079712,0.07030007243156433,0.0,0.0,0.0,0.028812458738684654,0.02382930926978588,-0.0,0.0,0.0,0.0,0.11641864478588104,0.06327506899833679,-0.0008881508256308734,13983.0,1495.0,18946.0,24878.0,0.43797293305397034,-0.10395762324333191,0.8292649984359741,1.4590507745742798,0.0,0.0,0.0,0.0,13027.0,1495.0,20658.0,25823.0,2.0382585525512695,-0.34464547918724137,0.17240285517060888,0.08150627180122348,-0.11697719991207123,0.10882757604122162,0.0
390,5,0.004226995632052422,0.005090334452688694,-0.0025715185329318047,0.04702446237206459,-0.0165302325040102,0.027428338304162025,-0.23436903953552246,-0.11208756268024445,-0.024372121319174767,0.4393807649612427,1.8353021144866943,0.204091414809227,0.0,0.0,0.0,0.028812458738684654,0.02382930926978588,-0.0,0.0,0.0,0.0,0.09029020369052887,0.07366453111171722,0.003554054768756032,17147.0,1495.0,17931.0,23409.0,0.6731261014938354,-0.1766931265592575,0.7391496896743774,1.2866263389587402,0.0,0.0,0.0,0.0,17174.0,1495.0,17504.0,23604.0,2.1793298721313477,-0.3433061040435581,0.17935121567623455,0.08430866401022938,-0.1994779109954834,0.09011195600032806,0.0
395,5,0.004357706755399704,0.005149581469595432,-0.0025111562572419643,0.034495119005441666,-0.013721756637096405,0.0037278737872838974,-0.23436903953552246,-0.11208756268024445,-0.024372121319174767,0.4393807649612427,1.8353021144866943,0.204091414809227,0.0,0.0,0.0,0.022310860455036163,0.03800428658723831,-0.0,0.0,0.0,0.0,0.09029020369052887,0.07366453111171722,0.003554054768756032,17147.0,1495.0,17931.0,23409.0,0.6731261014938354,-0.1766931265592575,0.7391496896743774,1.2866263389587402,0.0,0.0,0.0,0.0,17174.0,1495.0,17504.0,23604.0,2.1793298721313477,-0.35673801019632667,0.1873604978573748,0.08566278034876072,-0.1994779109954834,0.09011195600032806,0.0
400,5,0.004567855037748814,0.005303315818309784,-0.0025920062325894833,0.03901584818959236,-0.02393680438399315,0.011193124577403069,-0.23093481361865997,-0.1275234818458557,-0.02650417387485504,0.3222222626209259,2.052222967147827,0.22342821955680847,0.0,0.0,0.0,0.0296463742852211,0.03283674269914627,-0.0,0.0,0.0,0.0,0.07136758416891098,0.0899350494146347,0.0021802217233926058,16560.0,1495.0,13827.0,21984.0,0.6257169246673584,-0.3099346160888672,0.42767035961151123,1.1296688318252563,0.0,0.0,0.0,0.0,17129.0,1495.0,14460.0,21768.0,2.1521122455596924,-0.3558127838868763,0.19895151725577453,0.08871907300227365,-0.17017976939678192,0.11823048442602158,0.0
405,5,0.0048539899289608,0.005470269359648228,-0.002796485321596265,0.04994252696633339,-0.029609156772494316,0.029014743864536285,-0.23093481361865997,-0.1275234818458557,-0.02650417387485504,0.3222222626209259,2.052222967147827,0.22342821955680847,0.0,0.0,0.0,0.0296463742852211,0.03283674269914627,-0.0,0.0,0.0,0.0,0.07136758416891098,0.0899350494146347,0.0021802217233926058,16560.0,1495.0,13827.0,21984.0,0.6257169246673584,-0.3099346160888672,0.42767035961151123,1.1296688318252563,0.0,0.0,0.0,0.0,17129.0,1495.0,14460.0,21768.0,2.1521122455596924,-0.3419006802216717,0.2083272587298486,0.09300827802298763,-0.17017976939678192,0.11823048442602158,0.0
411,5,0.004985076375305653,0.005594176240265369,-0.0027597700245678425,0.035707369446754456,-0.026712480932474136,0.007200082764029503,-0.2296362817287445,-0.15191572904586792,-0.028889549896121025,-0.041432008147239685,2.0071070194244385,0.22426167130470276,0.0,0.0,0.0,0.033650435507297516,0.039207931607961655,-0.0,0.0,0.0,0.0,0.07542537152767181,0.102362260222435,-0.00039172658580355346,17174.0,1495.0,13319.0,23916.0,0.6753290295600891,-0.23588287830352783,0.3949817717075348,1.3449019193649292,0.0,0.0,0.0,0.0,17250.0,1495.0,14123.0,23086.0,2.2659218311309814,-0.35409542950959616,0.21464969219081056,0.09376404895367288,-0.2139013558626175,0.1412847340106964,0.0
416,5,0.0053191715851426125,0.005912198219448328,-0.0028084327932447195,0.05437435954809189,-0.04884763062000275,0.008719555102288723,-0.2296362817287445,-0.15191572904586792,-0.028889549896121025,-0.041432008147239685,2.0071070194244385,0.22426167130470276,0.0,0.0,0.0,0.033650435507297516,0.039207931607961655,-0.0,0.0,0.0,0.0,0.07542537152767181,0.102362260222435,-0.00039172658580355346,17174.0,1495.0,13319.0,23916.0,0.6753290295600891,-0.23588287830352783,0.3949817717075348,1.3449019193649292,0.0,0.0,0.0,0.0,17250.0,1495.0,14123.0,23086.0,2.2659218311309814,-0.34677754233162733,0.22408172247224473,0.09455339362176449,-0.2139013558626175,0.1412847340106964,0.0
421,5,0.005465921945869923,0.006142254453152418,-0.0029184662271291018,0.03935981169342995,-0.04714581370353699,0.016691837459802628,-0.22981885075569153,-0.16641223430633545,-0.031010521575808525,0.03495015576481819,1.5795222520828247,0.1181139275431633,0.0,0.0,0.0,0.033650435507297516,0.039207931607961655,-0.0,0.0,0.0,0.0,0.07822193950414658,0.09219592809677124,-0.003368987003341317,15235.0,1495.0,12742.0,24298.0,0.5249990224838257,-0.12197553366422653,0.3594599962234497,1.3896286487579346,0.0,0.0,0.0,0.0,17128.0,1495.0,13753.0,23690.0,2.2659218311309814,-0.34336328726460347,0.23217965936147478,0.09420869714422682,-0.2139013558626175,0.1412847340106964,0.0
426,5,0.005638502538204193,0.006280829198658466,-0.0030080426950007677,0.036453619599342346,-0.035487283021211624,0.017425907775759697,-0.22981885075569153,-0.16641223430633545,-0.031010521575808525,0.03495015576481819,1.5795222520828247,0.1181139275431633,0.0,0.0,0.0,0.04926123470067978,0.031951505690813065,-0.0,0.0,0.0,0.0,0.07822193950414658,0.09219592809677124,-0.003368987003341317,15235.0,1495.0,12742.0,24298.0,0.5249990224838257,-0.12197553366422653,0.3594599962234497,1.3896286487579346,0.0,0.0,0.0,0.0,17128.0,1495.0,13753.0,23690.0,2.309952735900879,-0.3398083429225118,0.2396545160544692,0.09531472335013666,-0.1776009351015091,0.21076461672782898,0.0
431,5,0.005816231016069651,0.006425003055483103,-0.003084917552769184,0.035908859223127365,-0.03149580955505371,0.016195347532629967,-0.22981885075569153,-0.16641223430633545,-0.031010521575808525,0.03495015576481819,1.5795222520828247,0.1181139275431633,0.0,0.0,0.0,0.04926123470067978,0.031951505690813065,-0.0,0.0,0.0,0.0,0.07822193950414658,0.09219592809677124,-0.003368987003341317,15235.0,1495.0,12742.0,24298.0,0.5249990224838257,-0.12197553366422653,0.3594599962234497,1.3896286487579346,0.0,0.0,0.0,0.0,17128.0,1495.0,13753.0,23690.0,2.309952735900879,-0.33760298669222405,0.24467700796566708,0.0959042877867246,-0.1776009351015091,0.21076461672782898,0.0
436,5,0.005980252753943205,0.006595784332603216,-0.0030499480199068785,0.034046147018671036,-0.033092059195041656,0.0022817980498075485,-0.22996149957180023,-0.1883857250213623,-0.03580646961927414,0.025191236287355423,0.5066769123077393,-0.05102849006652832,0.0,0.0,0.0,0.03773399442434311,0.031486935913562775,-0.0,0.0,0.0,0.0,0.07821313291788101,0.08266537636518478,-0.005331740248948336,14506.0,1495.0,13337.0,24479.0,0.47339361906051636,-0.014683887362480164,0.3961413502693176,1.411070704460144,0.0,0.0,0.0,0.0,14808.0,1495.0,12710.0,24234.0,2.1978182792663574,-0.3352254329247189,0.24667188008455027,0.09598392621552242,-0.16660691797733307,0.15365469455718994,0.0
441,5,0.006166245322674513,0.0066533214412629604,-0.0030108289793133736,0.035937562584877014,-0.020141268149018288,-0.003781575709581375,-0.22996149957180023,-0.1883857250213623,-0.03580646961927414,0.025191236287355423,0.5066769123077393,-0.05102849006652832,0.0,0.0,0.0,0.03773399442434311,0.031486935913562775,-0.0,0.0,0.0,0.0,0.07821313291788101,0.08266537636518478,-0.005331740248948336,14506.0,1495.0,13337.0,24479.0,0.47339361906051636,-0.014683887362480164,0.3961413502693176,1.411070704460144,0.0,0.0,0.0,0.0,14808.0,1495.0,12710.0,24234.0,2.1978182792663574,-0.3345518602291622,0.24691368765138702,0.0978551258763715,-0.16660691797733307,0.15365469455718994,0.0
446,5,0.006316710729151964,0.006791433785110712,-0.002982043894007802,0.03243084251880646,-0.024629974737763405,-0.0049668257124722,-0.22993731498718262,-0.19122417271137238,-0.03830860182642937,0.05864981189370155,0.07344429194927216,-0.19928966462612152,0.0,0.0,0.0,0.027661792933940887,0.03195231407880783,-0.0,0.0,0.0,0.0,0.08296601474285126,0.069410040974617,-0.009321524761617184,11650.0,8342.0,13200.0,25070.0,0.2967463731765747,0.14326760172843933,0.38754594326019287,1.4823927879333496,0.0,0.0,0.0,0.0,14058.0,3144.0,13539.0,24394.0,2.191800832748413,-0.332994844052429,0.24648805417078817,0.09766744870517985,-0.1686612218618393,0.11235421150922775,0.0
451,5,0.006457183044403791,0.00695904390886426,-0.002912096446380019,0.029829038307070732,-0.029965218156576157,-0.01038044597953558,-0.22993731498718262,-0.19122417271137238,-0.03830860182642937,0.05864981189370155,0.07344429194927216,-0.19928966462612152,0.0,0.0,0.0,0.027661792933940887,0.03195231407880783,-0.0,0.0,0.0,0.0,0.08296601474285126,0.069410040974617,-0.009321524761617184,11650.0,8342.0,13200.0,25070.0,0.2967463731765747,0.14326760172843933,0.38754594326019287,1.4823927879333496,0.0,0.0,0.0,0.0,14058.0,3144.0,13539.0,24394.0,2.191800832748413,-0.3312516994897611,0.24783132831721225,0.09719727871453646,-0.1686612218618393,0.11235421150922775,0.0
456,5,0.006564859300851822,0.007105359807610512,-0.0029432515148073435,0.02485279180109501,-0.029544008895754814,-0.00041357107693329453,-0.22954335808753967,-0.19043020904064178,-0.03876578435301781,0.027883509173989296,-0.1528971940279007,-0.1580064743757248,0.0,0.0,0.0,0.03701125830411911,0.027816645801067352,-0.0,0.0,0.0,0.0,0.07974927127361298,0.062194932252168655,-0.006423684302717447,12237.0,6503.0,14190.0,23827.0,0.3297240734100342,0.08169130980968475,0.4518093764781952,1.3345935344696045,0.0,0.0,0.0,0.0,12559.0,6871.0,14299.0,24466.0,2.200526475906372,-0.3303306121909112,0.24767195862350383,0.09590637052316052,-0.14737701416015625,0.15089985728263855,0.0
461,5,0.006717438343912363,0.007253880146890879,-0.0030202416237443686,0.028250548988580704,-0.029640013352036476,0.009073395282030106,-0.22954335808753967,-0.19043020904064178,-0.03876578435301781,0.027883509173989296,-0.1528971940279007,-0.1580064743757248,0.0,0.0,0.0,0.03701125830411911,0.027816645801067352,-0.0,0.0,0.0,0.0,0.07974927127361298,0.062194932252168655,-0.006423684302717447,12237.0,6503.0,14190.0,23827.0,0.3297240734100342,0.08169130980968475,0.4518093764781952,1.3345935344696045,0.0,0.0,0.0,0.0,12559.0,6871.0,14299.0,24466.0,2.200526475906372,-0.33277632855721784,0.2435101163356839,0.09406100635486406,-0.14737701416015625,0.15089985728263855,0.0
467,5,0.00690617598593235,0.007452239748090506,-0.00303618679754436,0.03394876420497894,-0.035659175366163254,0.005542765837162733,-0.22969479858875275,-0.1874474138021469,-0.041265036910772324,0.04734117537736893,-0.20661625266075134,-0.1656530499458313,0.0,0.0,0.0,0.036371733993291855,0.0264324638992548,-0.0,0.0,0.0,0.0,0.07670989632606506,0.06071038171648979,-0.01070932112634182,10711.0,9412.0,12803.0,24336.0,0.24757073819637299,0.18692034482955933,0.3631201982498169,1.3941895961761475,0.0,0.0,0.0,0.0,10351.0,9240.0,12710.0,24644.0,2.2455296516418457,-0.33121346950355196,0.24326347803633697,0.09251856022075233,-0.1429125815629959,0.15132732689380646,0.0
472,5,0.0070720151998102665,0.007619528099894524,-0.0031070783734321594,0.0334802120923996,-0.03433826565742493,0.010724115185439587,-0.22969479858875275,-0.1874474138021469,-0.041265036910772324,0.04734117537736893,-0.20661625266075134,-0.1656530499458313,0.0,0.0,0.0,0.036371733993291855,0.0264324638992548,-0.0,0.0,0.0,0.0,0.07670989632606506,0.06071038171648979,-0.01070932112634182,10711.0,9412.0,12803.0,24336.0,0.24757073819637299,0.18692034482955933,0.3631201982498169,1.3941895961761475,0.0,0.0,0.0,0.0,10351.0,9240.0,12710.0,24644.0,2.2455296516418457,-0.33282332074285154,0.24135706303881785,0.09140468684004736,-0.1429125815629959,0.15132732689380646,0.0
477,5,0.0072624823078513145,0.007839697413146496,-0.003050250932574272,0.036248136311769485,-0.04015569016337395,-0.002529666293412447,-0.22954967617988586,-0.18597489595413208,-0.04204574227333069,0.05779174715280533,0.018740471452474594,-0.3643884062767029,0.0,0.0,0.0,0.040835119783878326,0.03023485653102398,-0.0,0.0,0.0,0.0,0.07650290429592133,0.06392622739076614,-0.011083846911787987,10455.0,9740.0,11949.0,24738.0,0.23495960235595703,0.2014329731464386,0.3133199214935303,1.4420883655548096,0.0,0.0,0.0,0.0,12440.0,6875.0,14243.0,23545.0,2.260118007659912,-0.3271763053150983,0.24725092301166218,0.0887866003576599,-0.16449874639511108,0.17098349332809448,0.0
482,5,0.007462496403604746,0.008031917735934258,-0.003040306968614459,0.038500938564538956,-0.039128679782152176,-0.002205139258876443,-0.22954967617988586,-0.18597489595413208,-0.04204574227333069,0.05779174715280533,0.018740471452474594,-0.3643884062767029,0.0,0.0,0.0,0.040835119783878326,0.03023485653102398,-0.0,0.0,0.0,0.0,0.07650290429592133,0.06392622739076614,-0.011083846911787987,10455.0,9740.0,11949.0,24738.0,0.23495960235595703,0.2014329731464386,0.3133199214935303,1.4420883655548096,0.0,0.0,0.0,0.0,12440.0,6875.0,14243.0,23545.0,2.260118007659912,-0.32796017112500736,0.24833450191081463,0.08915539253689071,-0.16449874639511108,0.17098349332809448,0.0
487,5,-0.0024843160063028336,0.015873774886131287,0.0017352723516523838,0.038500938564538956,-0.039128679782152176,-0.002205139258876443,-0.22940662503242493,-0.18557119369506836,-0.04466984421014786,0.018789758905768394,0.08154535293579102,-0.060340236872434616,0.0,0.0,0.0,0.04509969428181648,0.03367004171013832,-0.0,0.0,0.0,0.0,0.07953902333974838,0.06492612510919571,-0.006486262194812298,12565.0,5867.0,14070.0,23905.0,0.3488633632659912,0.06433070451021194,0.44378185272216797,1.3435505628585815,0.0,0.0,0.0,0.0,9138.0,10656.0,11041.0,25345.0,2.28914213180542,-0.2917485252588973,0.17022663613387226,1.65351420690404,-0.18550023436546326,0.19124381244182587,0.0
