timestamp,dt,pos_x,pos_y,pos_z,vel_x,vel_y,vel_z,roll,pitch,yaw,agv_x,agv_y,agv_z,x_ref,y_ref,z_ref,roll_ref,pitch_ref,yaw_ref,x_vel_ref,y_vel_ref,z_vel_ref,x_torque,y_torque,z_torque,w0,w1,w2,w3,u0,u1,u2,u3,m0req,m1req,m2req,m3req,thrust0,thrust1,thrust2,thrust3,thrust_ref,roll_vicon,pitch_vicon,yaw_vicon,acc_x,acc_y,acc_z
5,5,0.0,0.0,0.0,0.002430509077385068,-0.001140601933002472,-0.004469954874366522,-0.004286988638341427,0.05794641003012657,0.0052272421307861805,-0.00023962862906046212,0.0010070684365928173,-0.0012382613494992256,0.0,0.0,0.0,0.0013959795469418168,0.002288228366523981,-0.0,0.0,0.0,0.0,0.0,0.0,0.0,1495.0,1495.0,1495.0,1495.0,0.0,0.0,0.0,0.0,0.0,0.0,0.0,0.0,1495.0,1495.0,1495.0,1495.0,1.653019666671753,-3.135694381640174,-0.025510493845066016,3.0795424269667775,-0.009114408865571022,0.00427725724875927,0.0
28,23,0.0,0.0,0.0,-0.0019410561071708798,-0.0016070647398009896,0.0014933081110939384,-0.004286988638341427,0.05794641003012657,0.0052272421307861805,-0.00023962862906046212,0.0010070684365928173,-0.0012382613494992256,0.0,0.0,0.0,0.0013959795469418168,0.002288228366523981,-0.0,0.0,0.0,0.0,0.0,0.0,0.0,1495.0,1495.0,1495.0,1495.0,0.0,0.0,0.0,0.0,0.0,0.0,0.0,0.0,1495.0,1495.0,1495.0,1495.0,1.653019666671753,-3.136745174692316,-0.022899900374722178,3.079058149928213,-0.009114408865571022,0.00427725724875927,0.0
33,5,0.0,0.0,0.0,0.001493622548878193,0.00011049544264096767,0.0036343063693493605,-0.00428877305239439,0.05797790735960007,0.005226279608905315,0.0024247446563094854,-0.00899542961269617,0.0009067655191756785,0.0,0.0,0.0,-0.00013622718688566238,0.0014165017055347562,-0.0,0.0,0.0,0.0,0.0,0.0,0.0,1495.0,1495.0,1495.0,1495.0,0.0,0.0,0.0,0.0,0.0,0.0,0.0,0.0,1495.0,1495.0,1495.0,1495.0,1.6409800052642822,-3.1358009602704837,-0.02256907589165307,3.0790049174549416,-0.005601084791123867,-0.00041435789898969233,0.0
38,5,0.0,0.0,0.0,-0.0015892822993919253,-0.001089421333745122,-0.00852631963789463,-0.00428877305239439,0.05797790735960007,0.005226279608905315,0.0024247446563094854,-0.00899542961269617,0.0009067655191756785,0.0,0.0,0.0,0.0013395659625530243,-0.00150323286652565,-0.0,0.0,0.0,0.0,0.0,0.0,0.0,1495.0,1495.0,1495.0,1495.0,0.0,0.0,0.0,0.0,0.0,0.0,0.0,0.0,1495.0,1495.0,1495.0,1495.0,1.645336389541626,-3.1383092853575634,-0.024896870523239478,3.0798380037726565,0.005959808826446533,0.004085329826921225,0.0
52,14,0.0,0.0,0.0,-0.0025710954796522856,-0.0017694993875920773,-0.0017847131239250302,-0.0042836894281208515,0.05802779644727707,0.005296684335917234,0.0005526296445168555,0.009380495175719261,0.002127815969288349,0.0,0.0,0.0,0.00215991516597569,-0.0024141373578459024,-0.0,0.0,0.0,0.0,0.0,0.0,0.0,1495.0,1495.0,1495.0,1495.0,0.0,0.0,0.0,0.0,0.0,0.0,0.0,0.0,1495.0,1495.0,1495.0,1495.0,1.6574369668960571,-3.137378728529735,-0.024409270440548695,3.0799770221215135,0.009641608223319054,0.006635622587054968,0.0
62,10,0.0,0.0,0.0,-0.0007739259162917733,-0.0009027754422277212,-0.009444348514080048,-0.0042836894281208515,0.05802779644727707,0.005296684335917234,0.0005526296445168555,0.009380495175719261,0.002127815969288349,0.0,0.0,0.0,0.00215991516597569,-0.0024141373578459024,-0.0,0.0,0.0,0.0,0.0,0.0,0.0,1495.0,1495.0,1495.0,1495.0,0.0,0.0,0.0,0.0,0.0,0.0,0.0,0.0,1495.0,1495.0,1495.0,1495.0,1.6574369668960571,-3.137814717461698,-0.027550010501853617,3.0808640380717267,0.009641608223319054,0.006635622587054968,0.0
67,5,0.0,0.0,0.0,0.002445221645757556,0.0016937950858846307,0.010964538902044296,-0.004299364984035492,0.05797898769378662,0.005292057991027832,0.001596185378730297,0.003477953840047121,0.00032593440846540034,0.0,0.0,0.0,0.0011151408543810248,-0.0007353704422712326,-0.0,0.0,0.0,0.0,0.0,0.0,0.0,1495.0,1495.0,1495.0,1495.0,0.0,0.0,0.0,0.0,0.0,0.0,0.0,0.0,1495.0,1495.0,1495.0,1495.0,1.6378452777862549,-3.13647484041436,-0.023442845434500655,3.0792849331693235,0.0029022220987826586,0.0033854078501462936,0.0
72,5,3.226847911719233e-05,-3.51465969288256e-05,-6.675285112578422e-05,0.004850306082516909,0.004895109683275223,0.012396157719194889,-0.004299364984035492,0.05797898769378662,0.005292057991027832,0.001596185378730297,0.003477953840047121,0.00032593440846540034,0.0,0.0,0.0,0.0011151408543810248,-0.0007353704422712326,-0.0,0.0,0.0,0.0,0.0,0.0,0.0,1495.0,1495.0,1495.0,1495.0,0.0,0.0,0.0,0.0,0.0,0.0,0.0,0.0,1495.0,1495.0,1495.0,1495.0,1.6378452777862549,-3.1353140407988795,-0.02171725731854756,3.0781797955986145,0.0029022220987826586,0.0033854078501462936,0.0
78,5,-2.8691591069218703e-05,3.0160274036461487e-05,7.956181798363104e-05,-0.005375085864216089,-0.005878780502825975,-0.012599297799170017,-0.004299364984035492,0.05797898769378662,0.005292057991027832,0.001596185378730297,0.003477953840047121,0.00032593440846540034,0.0,0.0,0.0,-0.005900467745959759,0.004493882413953543,-0.0,0.0,0.0,0.0,0.0,0.0,0.0,1495.0,1495.0,1495.0,1495.0,0.0,0.0,0.0,0.0,0.0,0.0,0.0,0.0,1495.0,1495.0,1495.0,1495.0,1.6961162090301514,-3.1394441582282426,-0.025696838121208487,3.0805318146810086,-0.018366238102316856,-0.018550090491771698,0.0
83,5,2.9338179956539534e-05,-3.2023704989114776e-05,-2.5071420168387704e-05,0.004813537932932377,0.005110565107315779,0.007516269572079182,-0.004293914418667555,0.058049481362104416,0.005334596149623394,-0.002572902711108327,-0.0038696913979947567,-0.0011406871490180492,0.0,0.0,0.0,-0.005900467745959759,0.004493882413953543,-0.0,0.0,0.0,0.0,0.0,0.0,0.0,1495.0,1495.0,1495.0,1495.0,0.0,0.0,0.0,0.0,0.0,0.0,0.0,0.0,1495.0,1495.0,1495.0,1495.0,1.6961162090301514,-3.1367712431057244,-0.023293048869367915,3.0787432079265447,-0.018366238102316856,-0.018550090491771698,0.0
88,5,-5.591667559201596e-06,1.7378964912495576e-05,6.567877426277846e-05,-0.0022661664988845587,-0.0038840940687805414,-0.00788351520895958,-0.004293914418667555,0.058049481362104416,0.005334596149623394,-0.002572902711108327,-0.0038696913979947567,-0.0011406871490180492,0.0,0.0,0.0,-0.005900467745959759,0.004493882413953543,-0.0,0.0,0.0,0.0,0.0,0.0,0.0,1495.0,1495.0,1495.0,1495.0,0.0,0.0,0.0,0.0,0.0,0.0,0.0,0.0,1495.0,1495.0,1495.0,1495.0,1.6961162090301514,-3.1381624391215235,-0.025074688253358957,3.0799916425029754,-0.018366238102316856,-0.018550090491771698,0.0
93,5,3.523615305311978e-05,-2.8106649551773444e-05,-2.6711664759204723e-05,0.003992871847003698,0.0039046357851475477,0.007933446206152439,-0.004293914418667555,0.058049481362104416,0.005334596149623394,-0.002572902711108327,-0.0038696913979947567,-0.0011406871490180492,0.0,0.0,0.0,0.0047317491844296455,-0.0021174242720007896,-0.0,0.0,0.0,0.0,0.0,0.0,0.0,1495.0,1495.0,1495.0,1495.0,0.0,0.0,0.0,0.0,0.0,0.0,0.0,0.0,1495.0,1495.0,1495.0,1495.0,1.6716008186340332,-3.1362780285899072,-0.02425792393850312,3.079068150939533,0.008528784848749638,0.01466087531298399,0.0
98,5,2.1243589799269103e-05,2.8095221296098316e-06,-3.7144593534321757e-06,-8.195878763217479e-05,-0.002148086205124855,0.0004137138894293457,-0.004316781647503376,0.05799871310591698,0.005368906073272228,-0.0011626352788880467,0.0026092526968568563,-0.0048003047704696655,0.0,0.0,0.0,0.0047317491844296455,-0.0021174242720007896,-0.0,0.0,0.0,0.0,0.0,0.0,0.0,1495.0,1495.0,1495.0,1495.0,0.0,0.0,0.0,0.0,0.0,0.0,0.0,0.0,1495.0,1495.0,1495.0,1495.0,1.6716008186340332,-3.136264622405832,-0.02338740144515311,3.0792285152487633,0.008528784848749638,0.01466087531298399,0.0
103,5,3.393875158508308e-05,-8.069800060184207e-06,1.812479240470566e-05,0.001490635797381401,0.0004462842480279505,-0.002455224748700857,-0.0043269554153084755,0.05804096907377243,0.005388201680034399,-0.0005074337241239846,-0.009943617507815361,0.003378951456397772,0.0,0.0,0.0,0.0026426834519952536,-4.794191772816703e-05,-0.0,0.0,0.0,0.0,0.0,0.0,0.0,1495.0,1495.0,1495.0,1495.0,0.0,0.0,0.0,0.0,0.0,0.0,0.0,0.0,1495.0,1495.0,1495.0,1495.0,1.647629976272583,-3.1357905969131994,-0.02443969540017037,3.0790515936854583,0.00019033798889722675,0.00807072315365076,0.0
108,5,5.366914137994172e-06,1.2713841897493694e-05,9.574033174430951e-05,-0.0028323661535978317,-0.002315523335710168,-0.010295954532921314,-0.0043269554153084755,0.05804096907377243,0.005388201680034399,-0.0005074337241239846,-0.009943617507815361,0.003378951456397772,0.0,0.0,0.0,0.0026426834519952536,-4.794191772816703e-05,-0.0,0.0,0.0,0.0,0.0,0.0,0.0,1495.0,1495.0,1495.0,1495.0,0.0,0.0,0.0,0.0,0.0,0.0,0.0,0.0,1495.0,1495.0,1495.0,1495.0,1.647629976272583,-3.1369537038344166,-0.026805880608255412,3.0800455799539157,0.00019033798889722675,0.00807072315365076,0.0
113,5,-2.0071151084266603e-05,-6.0976904023846146e-06,4.993995389668271e-05,-0.004185514058917761,0.0013311745133250952,0.0013776634586974978,-0.0043269554153084755,0.05804096907377243,0.005388201680034399,-0.0005074337241239846,-0.009943617507815361,0.003378951456397772,0.0,0.0,0.0,0.0028397664427757263,-0.0026432694867253304,-0.0,0.0,0.0,0.0,0.0,0.0,0.0,1495.0,1495.0,1495.0,1495.0,0.0,0.0,0.0,0.0,0.0,0.0,0.0,0.0,1495.0,1495.0,1495.0,1495.0,1.662927508354187,-3.1375993909907134,-0.02522463237890512,3.0799433963574154,0.010591669008135796,0.00875313114374876,0.0
118,5,3.873909736284986e-05,-2.701034645724576e-05,-3.953670966438949e-05,0.005383024457842112,0.0030419884715229273,0.011288264766335487,-0.00430495198816061,0.05809241160750389,0.005380438640713692,0.002471945248544216,-0.003768315538764,0.00044762089964933693,0.0,0.0,0.0,0.0028397664427757263,-0.0026432694867253304,-0.0,0.0,0.0,0.0,0.0,0.0,0.0,1495.0,1495.0,1495.0,1495.0,0.0,0.0,0.0,0.0,0.0,0.0,0.0,0.0,1495.0,1495.0,1495.0,1495.0,1.662927508354187,-3.1354901603545997,-0.022146223396387825,3.0785461481905045,0.010591669008135796,0.00875313114374876,0.0
123,5,2.6525638531893492e-05,-1.3991478226671461e-05,-2.497657078492921e-05,0.0006875944673083723,-0.0003454687539488077,0.002768089296296239,-0.00430495198816061,0.05809241160750389,0.005380438640713692,0.002471945248544216,-0.003768315538764,0.00044762089964933693,0.0,0.0,0.0,-0.0036912751384079456,0.00501243257895112,-0.0,0.0,0.0,0.0,0.0,0.0,0.0,1495.0,1495.0,1495.0,1495.0,0.0,0.0,0.0,0.0,0.0,0.0,0.0,0.0,1495.0,1495.0,1495.0,1495.0,1.6889963150024414,-3.1355694014806836,-0.023512655012006403,3.0788505940942845,-0.020399728789925575,-0.011556115932762623,0.0
128,5,4.647359673981555e-05,-3.778434620471671e-05,-7.52756604924798e-05,0.002668792847543955,0.0027169566601514816,0.007143126800656319,-0.004275201819837093,0.05797911062836647,0.005402323789894581,0.0018889822531491518,-0.0018163144122809172,0.0011892515467479825,0.0,0.0,0.0,-0.0036912751384079456,0.00501243257895112,-0.0,0.0,0.0,0.0,0.0,0.0,0.0,1495.0,1495.0,1495.0,1495.0,0.0,0.0,0.0,0.0,0.0,0.0,0.0,0.0,1495.0,1495.0,1495.0,1495.0,1.6889963150024414,-3.1344089006904734,-0.023277058709452847,3.078445468496433,-0.020399728789925575,-0.011556115932762623,0.0
134,5,6.887848940095864e-06,8.51085496833548e-06,1.7972161003854126e-05,-0.0036827726289629936,-0.004468641709536314,-0.008332488127052784,-0.004275201819837093,0.05797911062836647,0.005402323789894581,0.0018889822531491518,-0.0018163144122809172,0.0011892515467479825,0.0,0.0,0.0,-0.0033682261127978563,0.002557912841439247,-0.0,0.0,0.0,0.0,0.0,0.0,0.0,1495.0,1495.0,1495.0,1495.0,0.0,0.0,0.0,0.0,0.0,0.0,0.0,0.0,1495.0,1495.0,1495.0,1495.0,1.6652696132659912,-3.1371452308523042,-0.023052672737425013,3.079463575106192,-0.010264062322676182,-0.010396636091172695,0.0
139,5,3.6428980365599273e-06,-1.3097898772684857e-05,-3.122752968920395e-05,-0.0018625031225383282,0.0008055938524194062,0.0025709676556289196,-0.004275201819837093,0.05797911062836647,0.005402323789894581,0.0018889822531491518,-0.0018163144122809172,0.0011892515467479825,0.0,0.0,0.0,-0.0033682261127978563,0.002557912841439247,-0.0,0.0,0.0,0.0,0.0,0.0,0.0,1495.0,1495.0,1495.0,1495.0,0.0,0.0,0.0,0.0,0.0,0.0,0.0,0.0,1495.0,1495.0,1495.0,1495.0,1.6652696132659912,-3.137328122476889,-0.021360973517802886,3.0788254288047563,-0.010264062322676182,-0.010396636091172695,0.0
144,5,-1.9378476281417534e-05,1.0476711395313032e-05,5.4821761295897886e-05,-0.003507566172629595,-0.0025067157112061977,-0.009297528304159641,-0.004275201819837093,0.05797911062836647,0.005402323789894581,0.0018889822531491518,-0.0018163144122809172,0.0011892515467479825,0.0,0.0,0.0,-0.0010136241326108575,-0.0017553431680426002,-0.0,0.0,0.0,0.0,0.0,0.0,0.0,1495.0,1495.0,1495.0,1495.0,0.0,0.0,0.0,0.0,0.0,0.0,0.0,0.0,1495.0,1495.0,1495.0,1495.0,1.6464028358459473,-3.1380454545004874,-0.024461664830135225,3.0799485518876946,0.006963853258639574,-0.0030932959634810686,0.0
149,5,1.099571272789035e-05,-6.640865649387706e-06,-4.1997627704404294e-06,0.002241876209154725,0.001051423023454845,0.0033635718282312155,-0.004286531824618578,0.05809188261628151,0.005398586392402649,-0.003709940705448389,-0.011031732894480228,0.002228548750281334,0.0,0.0,0.0,-0.0010136241326108575,-0.0017553431680426002,-0.0,0.0,0.0,0.0,0.0,0.0,0.0,1495.0,1495.0,1495.0,1495.0,0.0,0.0,0.0,0.0,0.0,0.0,0.0,0.0,1495.0,1495.0,1495.0,1495.0,1.6464028358459473,-3.1369165216707975,-0.024399180185054804,3.079380763525258,0.006963853258639574,-0.0030932959634810686,0.0
154,5,1.937659180839546e-05,-2.2341841031447984e-05,-3.345010554767214e-05,0.0019024560460820794,0.0023046862334012985,0.004855469800531864,-0.004286531824618578,0.05809188261628151,0.005398586392402649,-0.003709940705448389,-0.011031732894480228,0.002228548750281334,0.0,0.0,0.0,-0.0013003654312342405,0.002128430176526308,-0.0,0.0,0.0,0.0,0.0,0.0,0.0,1495.0,1495.0,1495.0,1495.0,0.0,0.0,0.0,0.0,0.0,0.0,0.0,0.0,1495.0,1495.0,1495.0,1495.0,1.6510976552963257,-3.1363976282852595,-0.023755577640532897,3.079125485973139,-0.00846804864704609,-0.003979664761573076,0.0
159,5,-1.1018813893315382e-05,2.173826942453161e-05,5.5813488870626315e-05,-0.0028864662162959576,-0.004367738962173462,-0.00876944325864315,-0.00429381150752306,0.05804796889424324,0.0054561602883040905,0.0028915933798998594,0.0031306210439652205,0.006206107325851917,0.0,0.0,0.0,-0.0013003654312342405,0.002128430176526308,-0.0,0.0,0.0,0.0,0.0,0.0,0.0,1495.0,1495.0,1495.0,1495.0,0.0,0.0,0.0,0.0,0.0,0.0,0.0,0.0,1495.0,1495.0,1495.0,1495.0,1.6510976552963257,-3.1377651643402693,-0.024776532664952666,3.080105304710595,-0.00846804864704609,-0.003979664761573076,0.0
164,5,1.4814810128882527e-05,8.36442177387653e-06,2.8142227165517397e-05,0.0019454483408480883,-0.00014223370817489922,-0.0001872257998911664,-0.00429381150752306,0.05804796889424324,0.0054561602883040905,0.0028915933798998594,0.0031306210439652205,0.006206107325851917,0.0,0.0,0.0,0.005300905089825392,-0.002690120367333293,-0.0,0.0,0.0,0.0,0.0,0.0,0.0,1495.0,1495.0,1495.0,1495.0,0.0,0.0,0.0,0.0,0.0,0.0,0.0,0.0,1495.0,1495.0,1495.0,1495.0,1.6791354417800903,-3.1373372228035046,-0.024103618794895747,3.079361407895613,0.010884354822337627,0.016498353332281113,0.0
169,5,-1.3769074939773418e-05,3.533639755914919e-05,9.769209282239899e-05,-0.0026518867816776037,-0.00329353054985404,-0.008420874364674091,-0.004276311490684748,0.058068957179784775,0.005456286016851664,0.0004016457824036479,-0.001492573181167245,-0.0010400509927421808,0.0,0.0,0.0,0.005300905089825392,-0.002690120367333293,-0.0,0.0,0.0,0.0,0.0,0.0,0.0,1495.0,1495.0,1495.0,1495.0,0.0,0.0,0.0,0.0,0.0,0.0,0.0,0.0,1495.0,1495.0,1495.0,1495.0,1.6791354417800903,-3.1385043935758192,-0.02544702101589109,3.080409908510444,0.010884354822337627,0.016498353332281113,0.0
174,5,5.982657603453845e-05,-5.505786248249933e-05,-0.00010894156730500981,0.0077707236632704735,0.00952989887446165,0.021427689120173454,-0.004276311490684748,0.058068957179784775,0.005456286016851664,0.0004016457824036479,-0.001492573181167245,-0.0010400509927421808,0.0,0.0,0.0,0.004054760094732046,-0.002491236664354801,-0.0,0.0,0.0,0.0,0.0,0.0,0.0,1495.0,1495.0,1495.0,1495.0,0.0,0.0,0.0,0.0,0.0,0.0,0.0,0.0,1495.0,1495.0,1495.0,1495.0,1.6691625118255615,-3.1347112708247256,-0.021529185577299874,3.077927186333369,0.010019856505095959,0.012544985860586166,0.0
179,5,3.2820403248479124e-06,-7.383865181509464e-07,2.251736805192195e-05,-0.0036770550068467855,-0.0027063775341957808,-0.007203996181488037,-0.004307201597839594,0.058150630444288254,0.005471320822834969,-0.0028320569545030594,-0.005420022644102573,0.002135632326826453,0.0,0.0,0.0,0.004054760094732046,-0.002491236664354801,-0.0,0.0,0.0,0.0,0.0,0.0,0.0,1495.0,1495.0,1495.0,1495.0,0.0,0.0,0.0,0.0,0.0,0.0,0.0,0.0,1495.0,1495.0,1495.0,1495.0,1.6691625118255615,-3.1371290172566733,-0.02432318550619046,3.079682585499122,0.010019856505095959,0.012544985860586166,0.0
184,5,-4.773078217112925e-06,-2.2989997887634672e-06,7.517796620959416e-05,-0.002437436254695058,-0.0008952774805948138,-0.0092008700594306,-0.004307201597839594,0.058150630444288254,0.005471320822834969,-0.0028320569545030594,-0.005420022644102573,0.002135632326826453,0.0,0.0,0.0,0.0032734291162341833,-0.0034179685171693563,-0.0,0.0,0.0,0.0,0.0,0.0,0.0,1495.0,1495.0,1495.0,1495.0,0.0,0.0,0.0,0.0,0.0,0.0,0.0,0.0,1495.0,1495.0,1495.0,1495.0,1.671980381011963,-3.1378457223668077,-0.025548271855266935,3.0799151241835485,0.013770444318652153,0.010144747793674469,0.0
189,5,-8.133854862535372e-06,1.989045813388657e-06,3.094447311013937e-05,-0.0013782677706331015,-0.00087267643539235,0.001627670950256288,-0.004307201597839594,0.058150630444288254,0.005471320822834969,-0.0028320569545030594,-0.005420022644102573,0.002135632326826453,0.0,0.0,0.0,0.0032734291162341833,-0.0034179685171693563,-0.0,0.0,0.0,0.0,0.0,0.0,0.0,1495.0,1495.0,1495.0,1495.0,0.0,0.0,0.0,0.0,0.0,0.0,0.0,0.0,1495.0,1495.0,1495.0,1495.0,1.671980381011963,-3.1386868999697612,-0.022346490122805623,3.079377850435453,0.013770444318652153,0.010144747793674469,0.0
194,5,2.2307153813017067e-06,-1.4415655641641933e-05,4.122505561099388e-05,0.0018053139792755246,0.0016633059130981565,-0.00022910910774953663,-0.0043225414119660854,0.058127496391534805,0.005468567833304405,0.0001339057635050267,0.009772914461791515,0.000926715147215873,0.0,0.0,0.0,0.0010784972691908479,-0.0013171248137950897,-0.0,0.0,0.0,0.0,0.0,0.0,0.0,1495.0,1495.0,1495.0,1495.0,0.0,0.0,0.0,0.0,0.0,0.0,0.0,0.0,1495.0,1495.0,1495.0,1495.0,1.6424541473388672,-3.1378795512024737,-0.025506238736068682,3.079776676072361,0.0052128080278635025,0.003283376805484295,-0.0
200,5,2.011260403378401e-05,-7.416127118631266e-06,1.7739372424330213e-06,0.002867952222004533,-0.00017462098912801594,0.004642490763217211,-0.0043225414119660854,0.058127496391534805,0.005468567833304405,0.0001339057635050267,0.009772914461791515,0.000926715147215873,0.0,0.0,0.0,0.0010784972691908479,-0.0013171248137950897,-0.0,0.0,0.0,0.0,0.0,0.0,0.0,1495.0,1495.0,1495.0,1495.0,0.0,0.0,0.0,0.0,0.0,0.0,0.0,0.0,1495.0,1495.0,1495.0,1495.0,1.6424541473388672,-3.136742197901245,-0.022418033927275118,3.078738984874685,0.0052128080278635025,0.003283376805484295,-0.0
205,5,6.488967756013153e-06,9.438357665203512e-06,-2.9429816095216665e-06,-0.0004876555176451802,-0.002092386595904827,0.0024230265989899635,-0.004313098266720772,0.058058466762304306,0.005504840984940529,0.002380772726610303,0.003527127904817462,0.0034505724906921387,0.0,0.0,0.0,0.00020009840955026448,0.002724334131926298,-0.0,0.0,0.0,0.0,0.0,0.0,0.0,1495.0,1495.0,1495.0,1495.0,0.0,0.0,0.0,0.0,0.0,0.0,0.0,0.0,1495.0,1495.0,1495.0,1495.0,1.6552197933197021,-3.1366404905250485,-0.0237083734287245,3.07925302095399,-0.01086594257503748,0.0006139144534245133,-0.0
210,5,7.831224138499238e-06,9.589830369804986e-06,5.40474093213561e-06,-3.399143315618858e-05,-0.0008551313658244908,-3.2516072678845376e-05,-0.004313098266720772,0.058058466762304306,0.005504840984940529,0.002380772726610303,0.003527127904817462,0.0034505724906921387,0.0,0.0,0.0,0.00020009840955026448,0.002724334131926298,-0.0,0.0,0.0,0.0,0.0,0.0,0.0,1495.0,1495.0,1495.0,1495.0,0.0,0.0,0.0,0.0,0.0,0.0,0.0,0.0,1495.0,1495.0,1495.0,1495.0,1.6552197933197021,-3.1374568916270764,-0.022805816148306842,3.079221310172656,-0.01086594257503748,0.0006139144534245133,-0.0
215,5,-8.208829967770725e-06,3.911488875019131e-06,4.740305303130299e-05,-0.0019384031184017658,0.00033934839302673936,-0.0050528040155768394,-0.004314843099564314,0.05812365561723709,0.005519614554941654,0.0009290030575357378,-0.007409659679979086,0.002436640439555049,0.0,0.0,0.0,0.0010757670970633626,-2.1292391465976834e-05,-0.0,0.0,0.0,0.0,0.0,0.0,0.0,1495.0,1495.0,1495.0,1495.0,0.0,0.0,0.0,0.0,0.0,0.0,0.0,0.0,1495.0,1495.0,1495.0,1495.0,1.634595513343811,-3.1381474010680894,-0.02535956933454574,3.0800553700377984,8.38660926092416e-05,0.003259394783526659,0.0
220,5,-4.335837729740888e-06,-1.3290084098116495e-05,2.086993663397152e-05,-0.0003106021322309971,0.002199928043410182,0.001162852393463254,-0.004314843099564314,0.05812365561723709,0.005519614554941654,0.0009290030575357378,-0.007409659679979086,0.002436640439555049,0.0,0.0,0.0,0.0010757670970633626,-2.1292391465976834e-05,-0.0,0.0,0.0,0.0,0.0,0.0,0.0,1495.0,1495.0,1495.0,1495.0,0.0,0.0,0.0,0.0,0.0,0.0,0.0,0.0,1495.0,1495.0,1495.0,1495.0,1.634595513343811,-3.1375180515993697,-0.023767288818599547,3.079380926992852,8.38660926092416e-05,0.003259394783526659,0.0
225,5,-1.4502830708806869e-05,3.3081596484407783e-06,7.494699821108952e-05,-0.0013442799681797624,-0.0011118180118501186,-0.006024106405675411,-0.004329006187617779,0.05818406492471695,0.005505499895662069,-0.0019140321528539062,-0.004497116431593895,0.0012988349189981818,0.0,0.0,0.0,-0.0027237830217927694,-0.0002990895009133965,-0.0,0.0,0.0,0.0,0.0,0.0,0.0,1495.0,1495.0,1495.0,1495.0,0.0,0.0,0.0,0.0,0.0,0.0,0.0,0.0,1495.0,1495.0,1495.0,1495.0,1.6485341787338257,-3.1387204071917547,-0.0248491304449317,3.0801426042743323,0.001188090187497437,-0.008322964422404766,-0.0
230,5,-2.366730223002378e-05,2.2330652427626774e-05,7.791982352500781e-05,-0.0016374485567212105,-0.002727426355704665,-0.002766381949186325,-0.004329006187617779,0.05818406492471695,0.005505499895662069,-0.0019140321528539062,-0.004497116431593895,0.0012988349189981818,0.0,0.0,0.0,-0.0027237830217927694,-0.0002990895009133965,-0.0,0.0,0.0,0.0,0.0,0.0,0.0,1495.0,1495.0,1495.0,1495.0,0.0,0.0,0.0,0.0,0.0,0.0,0.0,0.0,1495.0,1495.0,1495.0,1495.0,1.6485341787338257,-3.1372787511484357,-0.02524527017342569,3.0802163377849436,0.001188090187497437,-0.008322964422404766,-0.0
235,5,-3.052793545066379e-05,2.498797039152123e-05,0.00010391701653134078,-0.0014782552607357502,-0.0014098485698923469,-0.004226215183734894,-0.004341010004281998,0.05812164768576622,0.00553771061822772,-0.002563036046922207,0.011883671395480633,0.0002901765692513436,0.0,0.0,0.0,0.00336697930470109,-0.0015689595602452755,-0.0,0.0,0.0,0.0,0.0,0.0,0.0,1495.0,1495.0,1495.0,1495.0,0.0,0.0,0.0,0.0,0.0,0.0,0.0,0.0,1495.0,1495.0,1495.0,1495.0,1.6585109233856201,-3.1382033865582932,-0.026041603041815048,3.0806707154709745,0.006270170211791992,0.010350607335567474,0.0
240,5,4.262309118985286e-07,-1.1700454706442542e-05,1.7932217815541662e-05,0.003123197704553604,0.0038386716041713953,0.008627689443528652,-0.004341010004281998,0.05812164768576622,0.00553771061822772,-0.002563036046922207,0.011883671395480633,0.0002901765692513436,0.0,0.0,0.0,0.00336697930470109,-0.0015689595602452755,-0.0,0.0,0.0,0.0,0.0,0.0,0.0,1495.0,1495.0,1495.0,1495.0,0.0,0.0,0.0,0.0,0.0,0.0,0.0,0.0,1495.0,1495.0,1495.0,1495.0,1.6585109233856201,-3.137388540504954,-0.02283999697154438,3.079004198865352,0.006270170211791992,0.010350607335567474,0.0
245,5,3.9921387724461965e-06,1.37920478664455e-05,9.689539001556113e-05,0.0016771879745647311,-0.0015236317412927747,-0.006024504546076059,-0.004354231525212526,0.05805463716387749,0.005560787860304117,7.698127774347086e-06,0.002392080845311284,0.002757064066827297,0.0,0.0,0.0,0.00336697930470109,-0.0015689595602452755,-0.0,0.0,0.0,0.0,0.0,0.0,0.0,1495.0,1495.0,1495.0,1495.0,0.0,0.0,0.0,0.0,0.0,0.0,0.0,0.0,1495.0,1495.0,1495.0,1495.0,1.6585109233856201,-3.1375602599352406,-0.026101829659491798,3.0801692138738064,0.006270170211791992,0.010350607335567474,0.0
250,5,-1.8499185898690484e-05,2.170542757085059e-05,6.95068811182864e-05,-0.002028083661571145,-0.001559058204293251,0.0008768192492425442,-0.004354231525212526,0.05805463716387749,0.005560787860304117,7.698127774347086e-06,0.002392080845311284,0.002757064066827297,0.0,0.0,0.0,0.001894176471978426,0.0015885337488725781,-0.0,0.0,0.0,0.0,0.0,0.0,0.0,1495.0,1495.0,1495.0,1495.0,0.0,0.0,0.0,0.0,0.0,0.0,0.0,0.0,1495.0,1495.0,1495.0,1495.0,1.6489588022232056,-3.1385132641190885,-0.024909983010700156,3.080294928672761,-0.006311857607215643,0.00578946340829134,0.0
255,5,1.1005097348970594e-06,2.1562163965427317e-05,8.209356747101992e-05,0.0015407298924401402,-0.0006064316839911044,-0.001159674720838666,-0.004349214490503073,0.05814184620976448,0.005545519292354584,-0.002427104627713561,-0.005324896425008774,-0.0018569952808320522,0.0,0.0,0.0,0.001894176471978426,0.0015885337488725781,-0.0,0.0,0.0,0.0,0.0,0.0,0.0,1495.0,1495.0,1495.0,1495.0,0.0,0.0,0.0,0.0,0.0,0.0,0.0,0.0,1495.0,1495.0,1495.0,1495.0,1.6489588022232056,-3.138863868130516,-0.02552516338985293,3.080147552208522,-0.006311857607215643,0.00578946340829134,0.0
261,5,9.91188244370278e-06,2.1763569293398177e-06,2.49512759182835e-05,0.0016736567486077547,0.002083724131807685,0.0063932049088180065,-0.004349214490503073,0.05814184620976448,0.005545519292354584,-0.002427104627713561,-0.005324896425008774,-0.0018569952808320522,0.0,0.0,0.0,0.0007858311291784048,0.001461270498111844,-0.0,0.0,0.0,0.0,0.0,0.0,0.0,1495.0,1495.0,1495.0,1495.0,0.0,0.0,0.0,0.0,0.0,0.0,0.0,0.0,1495.0,1495.0,1495.0,1495.0,1.6427218914031982,-3.1365868167609583,-0.024102240065802426,3.0794279523627184,-0.005784239619970322,0.0023927742149680853,0.0
266,5,2.3945021894178353e-05,-3.153189754812047e-05,-5.969851918052882e-05,0.0023534393403679132,0.004878479987382889,0.012715257704257965,-0.004363900516182184,0.05812416598200798,0.005565333180129528,-0.00019470321421977133,0.005339374300092459,0.005789470858871937,0.0,0.0,0.0,0.0007858311291784048,0.001461270498111844,-0.0,0.0,0.0,0.0,0.0,0.0,0.0,1495.0,1495.0,1495.0,1495.0,0.0,0.0,0.0,0.0,0.0,0.0,0.0,0.0,1495.0,1495.0,1495.0,1495.0,1.6427218914031982,-3.1365574709976753,-0.023261534406327812,3.078726822076777,-0.005784239619970322,0.0023927742149680853,0.0
271,5,3.6248497053748e-05,-3.011573789990507e-05,-7.201353582786396e-05,0.0024177925661206245,0.0017814531456679106,0.006563905160874128,-0.004363900516182184,0.05812416598200798,0.005565333180129528,-0.00019470321421977133,0.005339374300092459,0.005789470858871937,0.0,0.0,0.0,-0.005926481448113918,0.0022112380247563124,-0.0,0.0,0.0,0.0,0.0,0.0,0.0,1495.0,1495.0,1495.0,1495.0,0.0,0.0,0.0,0.0,0.0,0.0,0.0,0.0,1495.0,1495.0,1495.0,1495.0,1.6811778545379639,-3.134964140843215,-0.022432479331735547,3.0785520242874744,-0.008957629092037678,-0.018467772752046585,0.0
276,5,-2.6587220418150537e-05,2.4122449758579023e-05,3.0001589038874954e-05,-0.0065731690265238285,-0.0057960012927651405,-0.009616252966225147,-0.004361209459602833,0.05806177482008934,0.0055751618929207325,-0.0003160540363751352,0.011473855935037136,0.0010839172173291445,0.0,0.0,0.0,-0.005926481448113918,0.0022112380247563124,-0.0,0.0,0.0,0.0,0.0,0.0,0.0,1495.0,1495.0,1495.0,1495.0,0.0,0.0,0.0,0.0,0.0,0.0,0.0,0.0,1495.0,1495.0,1495.0,1495.0,1.6811778545379639,-3.1376316475833628,-0.024077161841178186,3.0800013280994976,-0.008957629092037678,-0.018467772752046585,0.0
281,5,2.4402872440987267e-05,-1.604477256478276e-05,-4.23946839873679e-05,0.0034895436838269234,0.0025016663130372763,0.004841051530092955,-0.004361209459602833,0.05806177482008934,0.0055751618929207325,-0.0003160540363751352,0.011473855935037136,0.0010839172173291445,0.0,0.0,0.0,0.006880493834614754,-0.006001317407935858,-0.0,0.0,0.0,0.0,0.0,0.0,0.0,1495.0,1495.0,1495.0,1495.0,0.0,0.0,0.0,0.0,0.0,0.0,0.0,0.0,1495.0,1495.0,1495.0,1495.0,1.7146737575531006,-3.135901393100404,-0.021628790061151183,3.0787573063403837,0.0247951727360487,0.021867716684937477,0.0
286,5,-2.5735333110787906e-05,2.894512545026373e-05,0.00010210434993496165,-0.004620767198503017,-0.004398121498525143,-0.015403463505208492,-0.004367629066109657,0.05809821933507919,0.005583947990089655,-0.0013103008968755603,-0.009571082890033722,0.0012731150491163135,0.0,0.0,0.0,0.006880493834614754,-0.006001317407935858,-0.0,0.0,0.0,0.0,0.0,0.0,0.0,1495.0,1495.0,1495.0,1495.0,0.0,0.0,0.0,0.0,0.0,0.0,0.0,0.0,1495.0,1495.0,1495.0,1495.0,1.7146737575531006,-3.137157147287297,-0.026449850503860728,3.080481461339316,0.0247951727360487,0.021867716684937477,0.0
291,5,-2.087714346998837e-05,2.9645661925314926e-05,7.625394209753722e-05,-0.0012653240701183677,-0.0018433128716424108,-0.00305933621712029,-0.004367629066109657,0.05809821933507919,0.005583947990089655,-0.0013103008968755603,-0.009571082890033722,0.0012731150491163135,0.0,0.0,0.0,0.005313311703503132,-0.004287670832127333,-0.0,0.0,0.0,0.0,0.0,0.0,0.0,1495.0,1495.0,1495.0,1495.0,0.0,0.0,0.0,0.0,0.0,0.0,0.0,0.0,1495.0,1495.0,1495.0,1495.0,1.6908453702926636,-3.1371648638063383,-0.024886625466216446,3.0799432070810484,0.017469070851802826,0.016652293503284454,0.0
296,5,-4.295381950214505e-05,4.0871404053177685e-05,9.393600339535624e-05,-0.0031553306616842747,-0.002084414241835475,-0.0033455821685492992,-0.004369191825389862,0.05815017223358154,0.005575275514274836,0.0009876787662506104,0.0018253306625410914,-0.0008852235623635352,0.0,0.0,0.0,0.005313311703503132,-0.004287670832127333,-0.0,0.0,0.0,0.0,0.0,0.0,0.0,1495.0,1495.0,1495.0,1495.0,0.0,0.0,0.0,0.0,0.0,0.0,0.0,0.0,1495.0,1495.0,1495.0,1495.0,1.6908453702926636,-3.1401402062879065,-0.022046785181161606,3.0797514105430883,0.017469070851802826,0.016652293503284454,0.0
301,5,-4.765983703691745e-06,-2.537554166792688e-07,3.804543666774407e-05,0.0033204080536961555,0.004101253580302,0.0053686355240643024,-0.004369191825389862,0.05815017223358154,0.005575275514274836,0.0009876787662506104,0.0018253306625410914,-0.0008852235623635352,0.0,0.0,0.0,0.0026057185605168343,-0.003008126048371196,-0.0,0.0,0.0,0.0,0.0,0.0,0.0,1495.0,1495.0,1495.0,1495.0,0.0,0.0,0.0,0.0,0.0,0.0,0.0,0.0,1495.0,1495.0,1495.0,1495.0,1.664979100227356,-3.1368594802184946,-0.02422611451163059,3.079525179016631,0.012068536132574081,0.008041627705097198,0.0
307,5,3.408627526368946e-05,-2.0153023797320202e-05,6.109926289354917e-07,0.005990434437990189,0.004028413910418749,0.006639587227255106,-0.004429610446095467,0.058051206171512604,0.005551274865865707,-0.0006648225826211274,0.0050520445220172405,0.0007162453257478774,0.0,0.0,0.0,0.0026057185605168343,-0.003008126048371196,-0.0,0.0,0.0,0.0,0.0,0.0,0.0,1495.0,1495.0,1495.0,1495.0,0.0,0.0,0.0,0.0,0.0,0.0,0.0,0.0,1495.0,1495.0,1495.0,1495.0,1.664979100227356,-3.13531544901355,-0.024155076646324547,3.0790553917134345,0.012068536132574081,0.008041627705097198,0.0
312,5,6.437384399760049e-06,8.756370334594976e-06,6.105428474256769e-05,-0.0009216931648552418,-0.0018577619921416044,-0.004597359802573919,-0.004429610446095467,0.058051206171512604,0.005551274865865707,-0.0006648225826211274,0.0050520445220172405,0.0007162453257478774,0.0,0.0,0.0,-0.004831305239349604,0.005532178096473217,-0.0,0.0,0.0,0.0,0.0,0.0,0.0,1495.0,1495.0,1495.0,1495.0,0.0,0.0,0.0,0.0,0.0,0.0,0.0,0.0,1495.0,1495.0,1495.0,1495.0,1.6992775201797485,-3.1371752474753913,-0.025005435504447546,3.0798032704727336,-0.022651923820376396,-0.015217182226479053,-0.0
317,5,3.962159462389536e-05,-2.0535258954623714e-05,-2.0721874534501694e-05,0.0036134282127022743,0.0027718907222151756,0.00797419436275959,-0.004417759366333485,0.058110561221838,0.005537445656955242,0.0006369402981363237,-0.008951442316174507,-0.0030917697586119175,0.0,0.0,0.0,-0.004831305239349604,0.005532178096473217,-0.0,0.0,0.0,0.0,0.0,0.0,0.0,1495.0,1495.0,1495.0,1495.0,0.0,0.0,0.0,0.0,0.0,0.0,0.0,0.0,1495.0,1495.0,1495.0,1495.0,1.6992775201797485,-3.136054745798371,-0.024621821010390444,3.0790239985702246,-0.022651923820376396,-0.015217182226479053,-0.0
322,5,-3.587149194572703e-06,9.629911801312119e-06,6.0852304159197956e-05,-0.0037396783009171486,-0.002511064289137721,-0.006599223706871271,-0.004417759366333485,0.058110561221838,0.005537445656955242,0.0006369402981363237,-0.008951442316174507,-0.0030917697586119175,0.0,0.0,0.0,-0.0033892672508955,0.0034163568634539843,-0.0,0.0,0.0,0.0,0.0,0.0,0.0,1495.0,1495.0,1495.0,1495.0,0.0,0.0,0.0,0.0,0.0,0.0,0.0,0.0,1495.0,1495.0,1495.0,1495.0,1.672561764717102,-3.136435483869536,-0.026832971456846294,3.080269060960007,-0.01376873254776001,-0.010507394559681416,0.0
327,5,-4.721704499388579e-06,1.1229965821257792e-05,9.101041359826922e-05,-0.0016320178983733058,-0.0011964321602135897,-0.006258662324398756,-0.004417759366333485,0.058110561221838,0.005537445656955242,0.0006369402981363237,-0.008951442316174507,-0.0030917697586119175,0.0,0.0,0.0,-0.0033892672508955,0.0034163568634539843,-0.0,0.0,0.0,0.0,0.0,0.0,0.0,1495.0,1495.0,1495.0,1495.0,0.0,0.0,0.0,0.0,0.0,0.0,0.0,0.0,1495.0,1495.0,1495.0,1495.0,1.672561764717102,-3.137547217126058,-0.026429940224288045,3.0802548438631847,-0.01376873254776001,-0.010507394559681416,0.0
332,5,-2.5222374461009167e-05,3.09008319163695e-05,9.842895087786019e-05,-0.0031128874979913235,-0.0028390767984092236,-0.0033936896361410618,-0.004417759366333485,0.058110561221838,0.005537445656955242,0.0006369402981363237,-0.008951442316174507,-0.0030917697586119175,0.0,0.0,0.0,0.001490429393015802,-0.0015490235527977347,-0.0,0.0,0.0,0.0,0.0,0.0,0.0,1495.0,1495.0,1495.0,1495.0,0.0,0.0,0.0,0.0,0.0,0.0,0.0,0.0,1495.0,1495.0,1495.0,1495.0,1.6464730501174927,-3.13803884629712,-0.02549961720026232,3.080253336347273,0.0061455946415662766,0.004548564087599516,0.0
337,5,1.566817081766203e-05,-2.1166102669667453e-05,-1.1653690307866782e-05,0.0036617103032767773,0.005112401209771633,0.011852441355586052,-0.004419253207743168,0.05807259678840637,0.0055847493931651115,0.00146462582051754,0.012175824493169785,0.00028281882987357676,0.0,0.0,0.0,0.001490429393015802,-0.0015490235527977347,-0.0,0.0,0.0,0.0,0.0,0.0,0.0,1495.0,1495.0,1495.0,1495.0,0.0,0.0,0.0,0.0,0.0,0.0,0.0,0.0,1495.0,1495.0,1495.0,1495.0,1.6464730501174927,-3.1365849976939644,-0.02247228280741445,3.078877752224515,0.0061455946415662766,0.004548564087599516,0.0
342,5,-5.666932793246815e-06,2.8080086849513464e-05,7.428161188727245e-05,-0.0010955282486975193,-0.003864582162350416,-0.005571259651333094,-0.004419253207743168,0.05807259678840637,0.0055847493931651115,0.00146462582051754,0.012175824493169785,0.00028281882987357676,0.0,0.0,0.0,-0.00615821685642004,0.0033937557600438595,-0.0,0.0,0.0,0.0,0.0,0.0,0.0,1495.0,1495.0,1495.0,1495.0,0.0,0.0,0.0,0.0,0.0,0.0,0.0,0.0,1495.0,1495.0,1495.0,1495.0,1.6897577047348022,-3.136624474857707,-0.024001066841801994,3.0799612358904844,-0.013818085193634033,-0.01928781345486641,0.0
347,5,2.706718078115955e-05,-2.7321215384290554e-05,-5.1569008064689115e-05,0.003489882219582796,0.005102323368191719,0.012873570434749126,-0.004421618301421404,0.058048903942108154,0.0055997357703745365,-0.003142616245895624,-0.003753908444195986,0.0029326947405934334,0.0,0.0,0.0,-0.00615821685642004,0.0033937557600438595,-0.0,0.0,0.0,0.0,0.0,0.0,0.0,1495.0,1495.0,1495.0,1495.0,0.0,0.0,0.0,0.0,0.0,0.0,0.0,0.0,1495.0,1495.0,1495.0,1495.0,1.6897577047348022,-3.1362169954793186,-0.0213072191135369,3.078302116920485,-0.013818085193634033,-0.01928781345486641,0.0
352,5,-2.0205436612741323e-06,-1.7559176512804697e-06,1.6190151654882357e-06,-0.0020945740398019552,-0.001026906305924058,-0.001233134651556611,-0.004421618301421404,0.058048903942108154,0.0055997357703745365,-0.003142616245895624,-0.003753908444195986,0.0029326947405934334,0.0,0.0,0.0,-0.006160280667245388,0.0032526585273444653,-0.0,0.0,0.0,0.0,0.0,0.0,0.0,1495.0,1495.0,1495.0,1495.0,0.0,0.0,0.0,0.0,0.0,0.0,0.0,0.0,1495.0,1495.0,1495.0,1495.0,1.6888551712036133,-3.136566397749233,-0.022129176921769387,3.0790409420951566,-0.013236518949270248,-0.019283970817923546,0.0
358,5,-7.820151040505152e-06,-9.380079973198008e-06,5.637083631881978e-06,-0.0015337824588641524,0.0005041369004175067,-0.0009754220955073833,-0.0044172294437885284,0.05811837315559387,0.005572651978582144,-0.0018179983599111438,-0.00566723570227623,0.0009969694074243307,0.0,0.0,0.0,-0.006160280667245388,0.0032526585273444653,-0.0,0.0,0.0,0.0,0.0,0.0,0.0,1495.0,1495.0,1495.0,1495.0,0.0,0.0,0.0,0.0,0.0,0.0,0.0,0.0,1495.0,1495.0,1495.0,1495.0,1.6888551712036133,-3.1369296751023983,-0.02320965924858813,3.0797208471482422,-0.013236518949270248,-0.019283970817923546,0.0
363,5,-3.615519744926132e-05,3.154527075821534e-05,9.593134018359706e-05,-0.004013718571513891,-0.004709387198090553,-0.011225479654967785,-0.0044172294437885284,0.05811837315559387,0.005572651978582144,-0.0018179983599111438,-0.00566723570227623,0.0009969694074243307,0.0,0.0,0.0,-0.000637986755464226,-0.001464128028601408,-0.0,0.0,0.0,0.0,0.0,0.0,0.0,1495.0,1495.0,1495.0,1495.0,0.0,0.0,0.0,0.0,0.0,0.0,0.0,0.0,1495.0,1495.0,1495.0,1495.0,1.6423193216323853,-3.138017433548701,-0.02546518956846404,3.0805210230374582,0.005794131197035313,-0.001942127593792975,0.0
368,5,7.609822205267847e-05,-7.239204569486901e-05,-0.00018911978986579925,0.011864922940731049,0.010588723234832287,0.029715944081544876,-0.0044172294437885284,0.05811837315559387,0.005572651978582144,-0.0018179983599111438,-0.00566723570227623,0.0009969694074243307,0.0,0.0,0.0,-0.000637986755464226,-0.001464128028601408,-0.0,0.0,0.0,0.0,0.0,0.0,0.0,1495.0,1495.0,1495.0,1495.0,0.0,0.0,0.0,0.0,0.0,0.0,0.0,0.0,1495.0,1495.0,1495.0,1495.0,1.6423193216323853,-3.1326123555856755,-0.019082657224188903,3.076725602735516,0.005794131197035313,-0.001942127593792975,0.0
373,5,8.30732096801512e-05,-6.397123070200905e-05,-0.00019385595805943012,0.005582967773079872,0.0032249910291284323,0.012454716488718987,-0.004420625977218151,0.05817484110593796,0.005632556974887848,-0.002563115442171693,0.003243792802095413,0.001765464898198843,0.0,0.0,0.0,-0.01211322657763958,0.010435095988214016,-0.0,0.0,0.0,0.0,0.0,0.0,0.0,1495.0,1495.0,1495.0,1495.0,0.0,0.0,0.0,0.0,0.0,0.0,0.0,0.0,1495.0,1495.0,1495.0,1495.0,1.7863305807113647,-3.133462400711378,-0.018545061021024226,3.076599797691784,-0.044912829995155334,-0.040106143802404404,0.0
378,5,9.424691961612552e-05,-8.804963727016002e-05,-0.00023325163056142628,0.0035740321036428213,0.004179405514150858,0.009709368459880352,-0.004420625977218151,0.05817484110593796,0.005632556974887848,-0.002563115442171693,0.003243792802095413,0.001765464898198843,0.0,0.0,0.0,-0.01211322657763958,0.010435095988214016,-0.0,0.0,0.0,0.0,0.0,0.0,0.0,1495.0,1495.0,1495.0,1495.0,0.0,0.0,0.0,0.0,0.0,0.0,0.0,0.0,1495.0,1495.0,1495.0,1495.0,1.7863305807113647,-3.133537043945779,-0.018887538290811537,3.076372767418878,-0.044912829995155334,-0.040106143802404404,0.0
383,5,8.937269740272313e-05,-5.892313856747933e-05,-0.00017617364937905222,0.0008447063737548888,-0.0018234174931421876,-0.002965611172839999,-0.004412091337144375,0.05814075097441673,0.005628934595733881,0.00021183838543947786,0.004997344687581062,-0.0017499953974038363,0.0,0.0,0.0,-0.005178499035537243,0.0034323534928262234,-0.0,0.0,0.0,0.0,0.0,0.0,0.0,1495.0,1495.0,1495.0,1495.0,0.0,0.0,0.0,0.0,0.0,0.0,0.0,0.0,1495.0,1495.0,1495.0,1495.0,1.6833279132843018,-3.133364695476799,-0.018903304069922248,3.0768180486551917,-0.013922138139605522,-0.01615762896835804,0.0
388,5,8.850766607793048e-05,-8.01623536972329e-05,-0.00020370077982079238,0.00023407857224810869,0.0018193385330960155,0.0021170121617615223,-0.004412091337144375,0.05814075097441673,0.005628934595733881,0.00021183838543947786,0.004997344687581062,-0.0017499953974038363,0.0,0.0,0.0,-0.005178499035537243,0.0034323534928262234,-0.0,0.0,0.0,0.0,0.0,0.0,0.0,1495.0,1495.0,1495.0,1495.0,0.0,0.0,0.0,0.0,0.0,0.0,0.0,0.0,1495.0,1495.0,1495.0,1495.0,1.6833279132843018,-3.1331252051806255,-0.019034486538369914,3.0764251136455734,-0.013922138139605522,-0.01615762896835804,0.0
393,5,7.95908781583421e-05,-7.243244908750057e-05,-0.0001833150745369494,-0.0009763833368197083,-0.0001998532097786665,-0.0015994805144146085,-0.00440787710249424,0.05818682536482811,0.005629369523376226,0.002609200542792678,-0.010748160071671009,-0.0028270515613257885,0.0,0.0,0.0,-0.0023812835570424795,0.00034446449717506766,-0.0,0.0,0.0,0.0,0.0,0.0,0.0,1495.0,1495.0,1495.0,1495.0,0.0,0.0,0.0,0.0,0.0,0.0,0.0,0.0,1495.0,1495.0,1495.0,1495.0,1.6457867622375488,-3.133258665633727,-0.018312065777012627,3.076635881343215,-0.0013660566182807088,-0.0072642783634364605,0.0
398,5,7.444292714353651e-05,-6.934471457498148e-05,-0.00015188305405899882,-0.0010083075612783432,-0.0004504694661591202,-0.004411634523421526,-0.00440787710249424,0.05818682536482811,0.005629369523376226,0.002609200542792678,-0.010748160071671009,-0.0028270515613257885,0.0,0.0,0.0,-0.0023812835570424795,0.00034446449717506766,-0.0,0.0,0.0,0.0,0.0,0.0,0.0,1495.0,1495.0,1495.0,1495.0,0.0,0.0,0.0,0.0,0.0,0.0,0.0,0.0,1495.0,1495.0,1495.0,1495.0,1.6457867622375488,-3.133366917941945,-0.018693992315030602,3.0770327311970576,-0.0013660566182807088,-0.0072642783634364605,0.0
403,5,5.8441932196728885e-05,-5.5216733017005026e-05,-0.00014092971105128527,-0.002323441905900836,-0.0018755452474579215,-0.0030790548771619797,-0.004396421834826469,0.05824477970600128,0.005646650213748217,-0.0026684480253607035,-0.0006990525289438665,-3.859672142425552e-05,0.0,0.0,0.0,-0.0023812835570424795,-0.002103953855112195,-0.0,0.0,0.0,0.0,0.0,0.0,0.0,1495.0,1495.0,1495.0,1495.0,0.0,0.0,0.0,0.0,0.0,0.0,0.0,0.0,1495.0,1495.0,1495.0,1495.0,1.6548742055892944,-3.1330818187401372,-0.018801433318196843,3.077312204105351,0.00838980171829462,0.006728543434292078,0.0
408,5,6.984841456869617e-05,-6.149838009150699e-05,-0.0001658522814977914,0.0004394007846713066,3.5791647405858384e-06,0.0017590854549780488,-0.004396421834826469,0.05824477970600128,0.005646650213748217,-0.0026684480253607035,-0.0006990525289438665,-3.859672142425552e-05,0.0,0.0,0.0,0.002193553140386939,-0.002103953855112195,-0.0,0.0,0.0,0.0,0.0,0.0,0.0,1495.0,1495.0,1495.0,1495.0,0.0,0.0,0.0,0.0,0.0,0.0,0.0,0.0,1495.0,1495.0,1495.0,1495.0,1.6548742055892944,-3.133156742398091,-0.01805918947755333,3.076650089569385,0.00838980171829462,0.006728543434292078,0.0
413,5,5.563663944485597e-05,-6.78029828122817e-05,-0.00017923807899933308,-0.001529652625322342,0.0007579844095744193,0.002309931442141533,-0.004427728243172169,0.05819587782025337,0.005665070842951536,-0.0010396806756034493,0.008105886168777943,0.006024251691997051,0.0,0.0,0.0,-0.00011671913671307266,0.0005173893296159804,-0.0,0.0,0.0,0.0,0.0,0.0,0.0,1495.0,1495.0,1495.0,1495.0,0.0,0.0,0.0,0.0,0.0,0.0,0.0,0.0,1495.0,1495.0,1495.0,1495.0,1.6313495635986328,-3.1343247099686886,-0.017812743004598487,3.0770929723101275,-0.0020338380709290504,-0.0003529373789206147,0.0
418,5,6.123666389612481e-05,-6.754537025699392e-05,-0.00019261277338955551,6.01424508204218e-05,0.000272279663477093,0.002528935903683305,-0.004427728243172169,0.05819587782025337,0.005665070842951536,-0.0010396806756034493,0.008105886168777943,0.006024251691997051,0.0,0.0,0.0,-0.00011671913671307266,0.0005173893296159804,-0.0,0.0,0.0,0.0,0.0,0.0,0.0,1495.0,1495.0,1495.0,1495.0,0.0,0.0,0.0,0.0,0.0,0.0,0.0,0.0,1495.0,1495.0,1495.0,1495.0,1.6313495635986328,-3.1343529591901436,-0.01756171064131068,3.076574477655238,-0.0020338380709290504,-0.0003529373789206147,0.0
423,5,5.664028140017763e-05,-5.207447975408286e-05,-0.0001599459646968171,-0.0005275093135423958,-0.0017475945642217994,-0.0029084428679198027,-0.004427803680300713,0.05816927179694176,0.005679714493453503,-0.000637332268524915,0.0038609413895756006,-0.0014124431181699038,0.0,0.0,0.0,-0.00011671913671307266,0.0005173893296159804,-0.0,0.0,0.0,0.0,0.0,0.0,0.0,1495.0,1495.0,1495.0,1495.0,0.0,0.0,0.0,0.0,0.0,0.0,0.0,0.0,1495.0,1495.0,1495.0,1495.0,1.6313495635986328,-3.134356122804953,-0.01879320174117809,3.077063535076816,-0.0020338380709290504,-0.0003529373789206147,0.0
428,5,9.713378676678985e-05,-9.228585258824751e-05,-0.00022137882479000837,0.004648217000067234,0.004126326646655798,0.0062085650861263275,-0.004427803680300713,0.05816927179694176,0.005679714493453503,-0.000637332268524915,0.0038609413895756006,-0.0014124431181699038,0.0,0.0,0.0,0.0020569865591824055,-0.0004203530843369663,-0.0,0.0,0.0,0.0,0.0,0.0,0.0,1495.0,1495.0,1495.0,1495.0,0.0,0.0,0.0,0.0,0.0,0.0,0.0,0.0,1495.0,1495.0,1495.0,1495.0,1.6433275938034058,-3.1322917889876285,-0.018984220530539084,3.076260009795582,0.0016645212890580297,0.006265613250434399,0.0
434,5,0.00010396161815151572,-9.358182433061302e-05,-0.00022270910267252475,0.002678626449778676,0.0018060475122183561,0.002643059240654111,-0.004450357984751463,0.05820213630795479,0.005697484593838453,-0.0034034543205052614,-0.009944888763129711,0.0039046278689056635,0.0,0.0,0.0,0.0020569865591824055,-0.0004203530843369663,-0.0,0.0,0.0,0.0,0.0,0.0,0.0,1495.0,1495.0,1495.0,1495.0,0.0,0.0,0.0,0.0,0.0,0.0,0.0,0.0,1495.0,1495.0,1495.0,1495.0,1.6433275938034058,-3.1323826459795194,-0.018693633358857854,3.0762332499815703,0.0016645212890580297,0.006265613250434399,0.0
439,5,9.89585678325966e-05,-6.829656922491267e-05,-0.00016654262435622513,0.0004710843204520643,-0.0023118117824196815,-0.005682752933353186,-0.004450357984751463,0.05820213630795479,0.005697484593838453,-0.0034034543205052614,-0.009944888763129711,0.0039046278689056635,0.0,0.0,0.0,-0.002368114423006773,0.0026538183446973562,-0.0,0.0,0.0,0.0,0.0,0.0,0.0,1495.0,1495.0,1495.0,1495.0,0.0,0.0,0.0,0.0,0.0,0.0,0.0,0.0,1495.0,1495.0,1495.0,1495.0,1.6606080532073975,-3.13176054572099,-0.02021888014142255,3.0769103878112136,-0.010619118809700012,-0.0072891623713076115,0.0
444,5,0.00010505916725378484,-7.564478437416255e-05,-0.00016239170508924872,0.0009205061942338943,-4.293852180126123e-05,-0.0027712113223969936,-0.004444583784788847,0.05826373025774956,0.005713990889489651,-0.0024330997839570045,0.009211826138198376,-0.0018662548391148448,0.0,0.0,0.0,-0.002368114423006773,0.0026538183446973562,-0.0,0.0,0.0,0.0,0.0,0.0,0.0,1495.0,1495.0,1495.0,1495.0,0.0,0.0,0.0,0.0,0.0,0.0,0.0,0.0,1495.0,1495.0,1495.0,1495.0,1.6606080532073975,-3.132882222689239,-0.01914889985671675,3.0766976955427277,-0.010619118809700012,-0.0072891623713076115,0.0
449,5,0.0001003335346467793,-7.767988427076489e-05,-0.00017250521341338754,-0.00019887334201484919,0.00022703649301547557,0.00010513613233342767,-0.004444583784788847,0.05826373025774956,0.005713990889489651,-0.0024330997839570045,0.009211826138198376,-0.0018662548391148448,0.0,0.0,0.0,-8.473849447909743e-05,0.0010224883444607258,-0.0,0.0,0.0,0.0,0.0,0.0,0.0,1495.0,1495.0,1495.0,1495.0,0.0,0.0,0.0,0.0,0.0,0.0,0.0,0.0,1495.0,1495.0,1495.0,1495.0,1.6367108821868896,-3.1324250846086197,-0.01867587486359887,3.076422515605272,-0.004032572265714407,-0.00025707585155032575,0.0
454,5,6.981779006309807e-05,-5.908916864427738e-05,-0.0001617655361769721,-0.003741438966244459,-0.002140071475878358,-0.0012467072810977697,-0.004443406593054533,0.05818001180887222,0.005702266003936529,0.0019179974915459752,0.0076430561020970345,-8.341905777342618e-05,0.0,0.0,0.0,-8.473849447909743e-05,0.0010224883444607258,-0.0,0.0,0.0,0.0,0.0,0.0,0.0,1495.0,1495.0,1495.0,1495.0,0.0,0.0,0.0,0.0,0.0,0.0,0.0,0.0,1495.0,1495.0,1495.0,1495.0,1.6367108821868896,-3.1344101291409143,-0.01774976135559201,3.0769510515503464,-0.004032572265714407,-0.00025707585155032575,0.0
459,5,6.330068572424352e-05,-4.961688682669774e-05,-0.00015822502609807998,-0.0022786282934248447,-0.0019927024841308594,-0.0009235433535650373,-0.004443406593054533,0.05818001180887222,0.005702266003936529,0.0019179974915459752,0.0076430561020970345,-8.341905777342618e-05,0.0,0.0,0.0,0.0024896992836147547,-0.0033942617010325193,-0.0,0.0,0.0,0.0,0.0,0.0,0.0,1495.0,1495.0,1495.0,1495.0,0.0,0.0,0.0,0.0,0.0,0.0,0.0,0.0,1495.0,1495.0,1495.0,1495.0,1.66810941696167,-3.1335224085023454,-0.018903849557226255,3.076895152935101,0.013643304817378521,0.007698021829128265,0.0
464,5,7.128169090719894e-05,-6.100489554228261e-05,-0.00015561562031507492,0.003168748691678047,0.003075584303587675,0.002074158750474453,-0.004442330449819565,0.05817198380827904,0.005707902833819389,0.0011242869077250361,-0.004757481161504984,0.003373014973476529,0.0,0.0,0.0,0.0024896992836147547,-0.0033942617010325193,-0.0,0.0,0.0,0.0,0.0,0.0,0.0,1495.0,1495.0,1495.0,1495.0,0.0,0.0,0.0,0.0,0.0,0.0,0.0,0.0,1495.0,1495.0,1495.0,1495.0,1.66810941696167,-3.132414606613252,-0.020615013416692328,3.0771518814455594,0.013643304817378521,0.007698021829128265,0.0
469,5,7.128169090719894e-05,-6.100489554228261e-05,-0.00015561562031507492,0.003168748691678047,0.003075584303587675,0.002074158750474453,-0.004442330449819565,0.05817198380827904,0.005707902833819389,0.0011242869077250361,-0.004757481161504984,0.003373014973476529,0.0,0.0,0.0,-0.003830739762634039,0.0030477026011794806,-0.0,0.0,0.0,0.0,0.0,0.0,0.0,1495.0,1495.0,1495.0,1495.0,0.0,0.0,0.0,0.0,0.0,0.0,0.0,0.0,1495.0,1495.0,1495.0,1495.0,1.6719143390655518,-3.132414606613252,-0.020615013416692328,3.0771518814455594,-0.012278199195861816,-0.011871437542140484,0.0
474,5,3.362746792845428e-05,-3.898728755302727e-05,-9.772917110240087e-05,-0.004592078737914562,-0.003550755325704813,-0.009081940166652203,-0.004442330449819565,0.05817198380827904,0.005707902833819389,0.0011242869077250361,-0.004757481161504984,0.003373014973476529,0.0,0.0,0.0,-0.003830739762634039,0.0030477026011794806,-0.0,0.0,0.0,0.0,0.0,0.0,0.0,1495.0,1495.0,1495.0,1495.0,0.0,0.0,0.0,0.0,0.0,0.0,0.0,0.0,1495.0,1495.0,1495.0,1495.0,1.6719143390655518,-3.1344096474214074,-0.02102585275433401,3.0779035823780747,-0.012278199195861816,-0.011871437542140484,0.0
480,5,4.291859295335598e-05,-3.0901373975211754e-05,-7.984811963979155e-05,-0.0007218964747153223,-0.0023906121496111155,-0.005778502207249403,-0.0044380598701536655,0.05825097858905792,0.005719722248613834,0.0010621176334097981,-0.008004489354789257,0.0032600979320704937,0.0,0.0,0.0,0.004196928348392248,-0.0041979653760790825,-0.0,0.0,0.0,0.0,0.0,0.0,0.0,1495.0,1495.0,1495.0,1495.0,0.0,0.0,0.0,0.0,0.0,0.0,0.0,0.0,1495.0,1495.0,1495.0,1495.0,1.6837477684020996,-3.1350764153845696,-0.021129927204498255,3.0779698915302576,0.01703188382089138,0.013098296709358692,0.0
485,5,6.268705328693613e-05,-4.256738975527696e-05,-8.455377246718854e-05,0.002083456376567483,0.0004436770104803145,-0.0017467228462919593,-0.0044380598701536655,0.05825097858905792,0.005719722248613834,0.0010621176334097981,-0.008004489354789257,0.0032600979320704937,0.0,0.0,0.0,0.004196928348392248,-0.0041979653760790825,-0.0,0.0,0.0,0.0,0.0,0.0,0.0,1495.0,1495.0,1495.0,1495.0,0.0,0.0,0.0,0.0,0.0,0.0,0.0,0.0,1495.0,1495.0,1495.0,1495.0,1.6837477684020996,-3.13517355368906,-0.021280713313396548,3.07799390778426,0.01703188382089138,0.013098296709358692,0.0
490,5,6.721864338032901e-05,-4.457550312508829e-05,-6.182949437061325e-05,0.00137717358302325,0.00041844439692795277,-0.0034256025683134794,-0.0044469330459833145,0.058170970529317856,0.005767290014773607,-0.0021506440825760365,0.006091044284403324,-0.0016202621627599,0.0,0.0,0.0,-0.0006220412324182689,0.0020546435844153166,-0.0,0.0,0.0,0.0,0.0,0.0,0.0,1495.0,1495.0,1495.0,1495.0,0.0,0.0,0.0,0.0,0.0,0.0,0.0,0.0,1495.0,1495.0,1495.0,1495.0,1.648457407951355,-3.1356823955561732,-0.022134319615855918,3.078018442768439,-0.008161420002579689,-0.0019006641814485192,0.0
495,5,4.093247844139114e-05,-1.542717836855445e-05,-2.3962122213561088e-05,-0.002603469882160425,-0.00333042093552649,-0.005914325825870037,-0.0044469330459833145,0.058170970529317856,0.005767290014773607,-0.0021506440825760365,0.006091044284403324,-0.0016202621627599,0.0,0.0,0.0,-0.0006220412324182689,0.0020546435844153166,-0.0,0.0,0.0,0.0,0.0,0.0,0.0,1495.0,1495.0,1495.0,1495.0,0.0,0.0,0.0,0.0,0.0,0.0,0.0,0.0,1495.0,1495.0,1495.0,1495.0,1.648457407951355,-3.1363559878159957,-0.023062894523214573,3.0788897589406434,-0.008161420002579689,-0.0019006641814485192,0.0
500,5,2.7772653993451968e-05,-2.5798006390687078e-05,-2.6366427846369334e-05,-0.002620567101985216,-8.766918472247198e-05,-0.0020772134885191917,-0.004456221126019955,0.05816837027668953,0.005731252487748861,0.0006957731093280017,-0.004355244338512421,-0.0037918139714747667,0.0,0.0,0.0,0.004011025186628103,-0.002372030634433031,-0.0,0.0,0.0,0.0,0.0,0.0,0.0,1495.0,1495.0,1495.0,1495.0,0.0,0.0,0.0,0.0,0.0,0.0,0.0,0.0,1495.0,1495.0,1495.0,1495.0,1.668052077293396,-3.1369663949738817,-0.022355747815843808,3.0786252406611023,0.009534060955047607,0.012401420623064041,0.0
505,5,3.5654454677569447e-06,-8.597377245678217e-07,2.9512237233575433e-05,-0.00395309180021286,-0.0030276598408818245,-0.007536325603723526,-0.004456221126019955,0.05816837027668953,0.005731252487748861,0.0006957731093280017,-0.004355244338512421,-0.0037918139714747667,0.0,0.0,0.0,0.004011025186628103,-0.002372030634433031,-0.0,0.0,0.0,0.0,0.0,0.0,0.0,1495.0,1495.0,1495.0,1495.0,0.0,0.0,0.0,0.0,0.0,0.0,0.0,0.0,1495.0,1495.0,1495.0,1495.0,1.668052077293396,-3.1368848869850896,-0.02415411647673102,3.0797188237877675,0.009534060955047607,0.012401420623064041,0.0
510,5,3.411216312088072e-05,-4.35615329479333e-05,-4.7999597882153466e-05,0.0020843693055212498,0.003913151565939188,0.006286890245974064,-0.004459341987967491,0.058238573372364044,0.005711333826184273,0.0033528662752360106,-0.0020028133876621723,-0.0014177063712850213,0.0,0.0,0.0,0.003652029437944293,-0.003664578078314662,-0.0,0.0,0.0,0.0,0.0,0.0,0.0,1495.0,1495.0,1495.0,1495.0,0.0,0.0,0.0,0.0,0.0,0.0,0.0,0.0,1495.0,1495.0,1495.0,1495.0,1.6761341094970703,-3.134799815215963,-0.024495859795543255,3.078836667806759,0.014800649136304855,0.011346183717250824,0.0
515,5,-4.087360593985068e-06,-6.93914080329705e-06,-1.3047582797298674e-05,-0.0037501950282603502,-0.002829426433891058,-0.0016794856637716293,-0.004459341987967491,0.058238573372364044,0.005711333826184273,0.0033528662752360106,-0.0020028133876621723,-0.0014177063712850213,0.0,0.0,0.0,0.003652029437944293,-0.003664578078314662,-0.0,0.0,0.0,0.0,0.0,0.0,0.0,1495.0,1495.0,1495.0,1495.0,0.0,0.0,0.0,0.0,0.0,0.0,0.0,0.0,1495.0,1495.0,1495.0,1495.0,1.6761341094970703,-3.1366054749853207,-0.02313828266102143,3.0793008377634545,0.014800649136304855,0.011346183717250824,0.0
520,5,-5.187699798625545e-07,1.1430920494603924e-06,3.977689993917011e-05,-0.001071847160346806,-0.002101638587191701,-0.007010732311755419,-0.004433394409716129,0.05820928514003754,0.0057175541296601295,0.0015953618567436934,0.009468202479183674,-0.00036512859514914453,0.0,0.0,0.0,0.0034076787997037172,-0.0034924480132758617,-0.0,0.0,0.0,0.0,0.0,0.0,0.0,1495.0,1495.0,1495.0,1495.0,0.0,0.0,0.0,0.0,0.0,0.0,0.0,0.0,1495.0,1495.0,1495.0,1495.0,1.6733335256576538,-3.136392957058553,-0.024738891634722968,3.0800246523780035,0.014081890694797039,0.010569347999989986,0.0
525,5,-2.4056347683654167e-05,2.696886076591909e-05,0.00012238799536135048,-0.0032532482873648405,-0.0039397478103637695,-0.012717624194920063,-0.004433394409716129,0.05820928514003754,0.0057175541296601295,0.0015953618567436934,0.009468202479183674,-0.00036512859514914453,0.0,0.0,0.0,0.0034076787997037172,-0.0034924480132758617,-0.0,0.0,0.0,0.0,0.0,0.0,0.0,1495.0,1495.0,1495.0,1495.0,0.0,0.0,0.0,0.0,0.0,0.0,0.0,0.0,1495.0,1495.0,1495.0,1495.0,1.6733335256576538,-3.137860964199428,-0.028006690277973034,3.0810373019025348,0.014081890694797039,0.010569347999989986,0.0
530,5,5.978574336040765e-06,4.6884821358617046e-07,2.0761108316946775e-05,0.002302891341969371,0.0016041024355217814,0.007108177058398724,-0.004435066599398851,0.05814214050769806,0.0057128905318677425,-0.000536962179467082,0.0039006660226732492,0.0018570015672594309,0.0,0.0,0.0,0.0047968169674277306,-0.0030489873606711626,-0.0,0.0,0.0,0.0,0.0,0.0,0.0,1495.0,1495.0,1495.0,1495.0,0.0,0.0,0.0,0.0,0.0,0.0,0.0,0.0,1495.0,1495.0,1495.0,1495.0,1.678030014038086,-3.1373137855997992,-0.023904406259196768,3.07972765328985,0.0123282540589571,0.014919641427695751,0.0
535,5,3.9792899769963697e-05,-1.3164340089133475e-05,-8.075390724116005e-06,0.004978875629603863,0.0022776236291974783,0.006303650327026844,-0.004435066599398851,0.05814214050769806,0.0057128905318677425,-0.000536962179467082,0.0039006660226732492,0.0018570015672594309,0.0,0.0,0.0,0.0047968169674277306,-0.0030489873606711626,-0.0,0.0,0.0,0.0,0.0,0.0,0.0,1495.0,1495.0,1495.0,1495.0,0.0,0.0,0.0,0.0,0.0,0.0,0.0,0.0,1495.0,1495.0,1495.0,1495.0,1.678030014038086,-3.1364548689173306,-0.023537576281291817,3.0789659498552644,0.0123282540589571,0.014919641427695751,0.0
540,5,6.809642400185112e-06,2.3526192308054306e-05,7.807670044712722e-05,-0.001966440584510565,-0.0034918144810944796,-0.007816790603101254,-0.004424455109983683,0.05818361043930054,0.005694562569260597,0.0026955087669193745,-0.009438135661184788,-0.0002499965485185385,0.0,0.0,0.0,-0.002763979369774461,0.004662155639380217,-0.0,0.0,0.0,0.0,0.0,0.0,0.0,1495.0,1495.0,1495.0,1495.0,0.0,0.0,0.0,0.0,0.0,0.0,0.0,0.0,1495.0,1495.0,1495.0,1495.0,1.681812047958374,-3.13787868630375,-0.024563292875784525,3.079864324887789,-0.018893521279096603,-0.008616279810667038,0.0
545,5,3.696469866554253e-05,-9.252616109733935e-06,-1.516964675829513e-05,0.0028320306446403265,0.0025367310736328363,0.008062845095992088,-0.004424455109983683,0.05818361043930054,0.005694562569260597,0.0026955087669193745,-0.009438135661184788,-0.0002499965485185385,0.0,0.0,0.0,-0.002763979369774461,0.004662155639380217,-0.0,0.0,0.0,0.0,0.0,0.0,0.0,1495.0,1495.0,1495.0,1495.0,0.0,0.0,0.0,0.0,0.0,0.0,0.0,0.0,1495.0,1495.0,1495.0,1495.0,1.681812047958374,-3.135173414010386,-0.023532939987162268,3.0789436923124462,-0.018893521279096603,-0.008616279810667038,0.0
551,5,-1.4072656995267607e-05,2.2135784092824906e-05,8.896533836377785e-05,-0.0049916706047952175,-0.002751915482804179,-0.00927106011658907,-0.004418637603521347,0.05825018882751465,0.005728671792894602,0.0002905426372308284,0.0030987735372036695,0.006263631395995617,0.0,0.0,0.0,-0.002763979369774461,0.004662155639380217,-0.0,0.0,0.0,0.0,0.0,0.0,0.0,1495.0,1495.0,1495.0,1495.0,0.0,0.0,0.0,0.0,0.0,0.0,0.0,0.0,1495.0,1495.0,1495.0,1495.0,1.681812047958374,-3.1381548053274577,-0.0255911955680157,3.0804349429680724,-0.018893521279096603,-0.008616279810667038,0.0
556,5,-2.726745697145816e-05,1.558173244120553e-05,8.013562182895839e-05,-0.0035800442565232515,-0.0003142798668704927,-0.002648857655003667,-0.004418637603521347,0.05825018882751465,0.005728671792894602,0.0002905426372308284,0.0030987735372036695,0.006263631395995617,0.0,0.0,0.0,0.003344692289829254,-0.004631789866834879,-0.0,0.0,0.0,0.0,0.0,0.0,0.0,1495.0,1495.0,1495.0,1495.0,0.0,0.0,0.0,0.0,0.0,0.0,0.0,0.0,1495.0,1495.0,1495.0,1495.0,1.683774709701538,-3.1385765582690808,-0.024722121727965708,3.080214707929198,0.01879233680665493,0.010438719764351845,0.0
561,5,-2.4066821424639784e-05,2.6410098143969662e-05,8.429294393863529e-05,-0.001047941274009645,-0.001425115973688662,-0.0015584224602207541,-0.004434424452483654,0.05816870927810669,0.005725411232560873,0.0015277658822014928,0.010783233679831028,-0.002792131621390581,0.0,0.0,0.0,0.003344692289829254,-0.004631789866834879,-0.0,0.0,0.0,0.0,0.0,0.0,0.0,1495.0,1495.0,1495.0,1495.0,0.0,0.0,0.0,0.0,0.0,0.0,0.0,0.0,1495.0,1495.0,1495.0,1495.0,1.683774709701538,-3.1384015609178713,-0.02507383113722455,3.0805466122712803,0.01879233680665493,0.010438719764351845,0.0
566,5,4.934729531669291e-06,4.073076524946373e-06,4.6878340071998537e-05,0.00306100957095623,0.0021103962790220976,0.003866383573040366,-0.004434424452483654,0.05816870927810669,0.005725411232560873,0.0015277658822014928,0.010783233679831028,-0.002792131621390581,0.0,0.0,0.0,0.0018002981087192893,-0.001024320488795638,-0.0,0.0,0.0,0.0,0.0,0.0,0.0,1495.0,1495.0,1495.0,1495.0,0.0,0.0,0.0,0.0,0.0,0.0,0.0,0.0,1495.0,1495.0,1495.0,1495.0,1.644252061843872,-3.1365721170876095,-0.025601771857907466,3.0796863937424375,0.004058404825627804,0.005486822687089443,0.0
