timestamp,dt,pos_x,pos_y,pos_z,vel_x,vel_y,vel_z,roll,pitch,yaw,agv_x,agv_y,agv_z,x_ref,y_ref,z_ref,roll_ref,pitch_ref,yaw_ref,x_vel_ref,y_vel_ref,z_vel_ref,x_torque,y_torque,z_torque,w0,w1,w2,w3,u0,u1,u2,u3,m0req,m1req,m2req,m3req,thrust0,thrust1,thrust2,thrust3,thrust_ref,roll_vicon,pitch_vicon,yaw_vicon,acc_x,acc_y,acc_z
5,5,0.0,0.0,0.0,0.0009921877644956112,-0.0002857720828615129,0.0066403490491211414,0.0,0.0,0.0,0.0,0.0,0.0,0.0,0.0,0.0,0.00035333933192305267,0.0009436756954528391,-0.0,0.0,0.0,0.0,0.0,0.0,0.0,0.0,0.0,0.0,0.0,0.0,0.0,0.0,0.0,0.0,0.0,0.0,0.0,0.0,0.0,0.0,0.0,1.6362533569335938,-0.022547357838883432,-0.06614501382130517,0.026324065595044452,-0.00372070400044322,0.0010716452961787581,0.0
50,45,0.0,0.0,0.0,0.006849681027233601,-0.0016177779762074351,0.007116799708455801,0.0,0.0,0.0,0.0,0.0,0.0,0.0,0.0,0.0,0.00035333933192305267,0.0009436756954528391,-0.0,0.0,0.0,0.0,0.0,0.0,0.0,0.0,0.0,0.0,0.0,0.0,0.0,0.0,0.0,0.0,0.0,0.0,0.0,0.0,0.0,0.0,0.0,1.6362533569335938,-0.01813758454893988,-0.06366676287562917,0.02916169598512123,-0.00372070400044322,0.0010716452961787581,0.0
55,5,0.0,0.0,0.0,-0.0426657572388649,0.007569084409624338,-0.07529124617576599,0.0,0.0,0.0,0.0,0.0,0.0,0.0,0.0,0.0,0.001928819576278329,0.006282071117311716,-0.0,0.0,0.0,0.0,0.0,0.0,0.0,0.0,0.0,0.0,0.0,0.0,0.0,0.0,0.0,0.0,0.0,0.0,0.0,0.0,0.0,0.0,0.0,1.6968775987625122,-0.014441571372696761,-0.06753091116101288,0.02928599577961269,-0.02568630315363407,0.006066667381674051,0.0
61,5,0.0,0.0,0.0,-0.0176375862210989,0.0007107894634827971,-0.027930274605751038,0.0,0.0,0.0,0.0,0.0,0.0,0.0,0.0,0.0,0.001928819576278329,0.006282071117311716,-0.0,0.0,0.0,0.0,0.0,0.0,0.0,0.0,0.0,0.0,0.0,0.0,0.0,0.0,0.0,0.0,0.0,0.0,0.0,0.0,0.0,0.0,0.0,1.6968775987625122,-0.014189658176864725,-0.0678415480237244,0.028909960279080115,-0.02568630315363407,0.006066667381674051,0.0
66,5,0.0,0.0,0.0,-0.005772304255515337,0.0024181909393519163,-0.012756867334246635,0.0,0.0,0.0,0.0,0.0,0.0,0.0,0.0,0.0,-0.00079806346911937,-0.015233829617500305,-0.0,0.0,0.0,0.0,0.0,0.0,0.0,0.0,0.0,0.0,0.0,0.0,0.0,0.0,0.0,0.0,0.0,0.0,0.0,0.0,0.0,0.0,0.0,1.801882028579712,-0.014626232880961208,-0.06796652763132265,0.0292684797460016,0.06614094972610474,-0.0026654605753719807,0.0
71,5,0.0,0.0,0.0,-0.0027710332069545984,0.00023294618586078286,-0.0017237215070053935,0.0,0.0,0.0,0.0,0.0,0.0,0.0,0.0,0.0,-0.00079806346911937,-0.015233829617500305,-0.0,0.0,0.0,0.0,0.0,0.0,0.0,0.0,0.0,0.0,0.0,0.0,0.0,0.0,0.0,0.0,0.0,0.0,0.0,0.0,0.0,0.0,0.0,1.801882028579712,-0.014531675636212599,-0.06790757799908717,0.028925594698395896,0.06614094972610474,-0.0026654605753719807,0.0
76,5,-8.672721378388815e-06,3.917093181371456e-06,2.325422792637255e-05,-0.002149139763787389,-0.00037687268923036754,-0.003479995997622609,0.0,0.0,0.0,0.0,0.0,0.0,0.0,0.0,0.0,-0.00079806346911937,-0.015233829617500305,-0.0,0.0,0.0,0.0,0.0,0.0,0.0,0.0,0.0,0.0,0.0,0.0,0.0,0.0,0.0,0.0,0.0,0.0,0.0,0.0,0.0,0.0,0.0,1.801882028579712,-0.014888843050119241,-0.06835140895118821,0.02913049284055273,0.008106973953545094,0.0014348166296258569,0.0
81,5,-8.654462362756021e-06,6.2951849031378515e-06,1.712036282697227e-05,-0.0008574649109505117,-0.00043612008448690176,-0.0006559344474226236,0.0,0.0,0.0,0.0,0.0,0.0,0.0,0.0,0.0,0.00046969373943284154,-0.0020414283499121666,-0.0,0.0,0.0,0.0,0.0,0.0,0.0,0.0,0.0,0.0,0.0,0.0,0.0,0.0,0.0,0.0,0.0,0.0,0.0,0.0,0.0,0.0,0.0,1.6480603218078613,-0.015044834927419811,-0.06828154085546556,0.029385535259316024,0.008106973953545094,0.0014348166296258569,0.0
86,5,1.6432575193903176e-06,-5.47523086424917e-06,3.235945769120008e-05,0.0008927404996939003,0.0012380018597468734,-0.0020910652820020914,0.0,0.0,0.0,0.0,0.0,0.0,0.0,0.0,0.0,0.00046969373943284154,-0.0020414283499121666,-0.0,0.0,0.0,0.0,0.0,0.0,0.0,0.0,0.0,0.0,0.0,0.0,0.0,0.0,0.0,0.0,0.0,0.0,0.0,0.0,0.0,0.0,0.0,1.6480603218078613,-0.01477169982875979,-0.06770920775967729,0.02919161081769214,0.008106973953545094,0.0014348166296258569,0.0
91,5,4.379903202789137e-06,-3.2096154427563306e-06,1.2127035006415099e-05,0.0006854936946183443,0.0002233268751297146,0.001591464621014893,0.0,0.0,0.0,0.0,0.0,0.0,0.0,0.0,0.0,-0.001535862684249878,0.0008487407467328012,-0.0,0.0,0.0,0.0,0.0,0.0,0.0,0.0,0.0,0.0,0.0,0.0,0.0,0.0,0.0,0.0,0.0,0.0,0.0,0.0,0.0,0.0,0.0,1.6413519382476807,-0.015512141692998214,-0.06753393197326094,0.028679402936012375,-0.0033568204380571842,-0.00467264000326395,0.0
96,5,6.953561296541011e-06,-6.605262115044752e-06,-1.6175490600289777e-05,0.0005830364534631371,0.0004968083230778575,0.004032888915389776,0.0,0.0,0.0,0.0,0.0,0.0,0.0,0.0,0.0,-0.001535862684249878,0.0008487407467328012,-0.0,0.0,0.0,0.0,0.0,0.0,0.0,0.0,0.0,0.0,0.0,0.0,0.0,0.0,0.0,0.0,0.0,0.0,0.0,0.0,0.0,0.0,0.0,1.6413519382476807,-0.016254464387231757,-0.06742906089045826,0.028625540542789034,-0.0033568204380571842,-0.00467264000326395,0.0
101,5,1.3653446330863517e-05,3.464510655248887e-06,-4.066054680151865e-05,0.001037200796417892,-0.0010096493642777205,0.004551362246274948,0.0,0.0,0.0,0.0,0.0,0.0,0.0,0.0,0.0,-0.000627248955424875,0.0005651237443089485,-0.0,0.0,0.0,0.0,0.0,0.0,0.0,0.0,0.0,0.0,0.0,0.0,0.0,0.0,0.0,0.0,0.0,0.0,0.0,0.0,0.0,0.0,0.0,1.6336859464645386,-0.01726887404369227,-0.06741430850670622,0.028294059347625376,-0.002224661409854889,-0.001899402472190559,0.0
106,5,3.365367228980176e-05,1.0200838914897759e-05,-7.120572990970686e-05,0.0028149073477834463,-0.0012122191255912185,0.005485966335982084,0.0,0.0,0.0,0.0,0.0,0.0,0.0,0.0,0.0,0.0014979845145717263,0.002689529210329056,-0.0,0.0,0.0,0.0,0.0,0.0,0.0,0.0,0.0,0.0,0.0,0.0,0.0,0.0,0.0,0.0,0.0,0.0,0.0,0.0,0.0,0.0,0.0,1.6573851108551025,-0.018182209843436003,-0.06749101267459884,0.027821305519262606,-0.010741145350039005,0.004601919557899237,0.0
111,5,7.510034629376605e-05,2.3047161448630504e-05,-0.00012445036554709077,0.0060995640233159065,-0.0020264461636543274,0.008583743125200272,0.0,0.0,0.0,0.0,0.0,0.0,0.0,0.0,0.0,0.0024635992012917995,0.005711955949664116,-0.0,0.0,0.0,0.0,0.0,0.0,0.0,0.0,0.0,0.0,0.0,0.0,0.0,0.0,0.0,0.0,0.0,0.0,0.0,0.0,0.0,0.0,0.0,1.6919100284576416,-0.0195124661080665,-0.0670275403004671,0.02817371908836754,-0.02328682690858841,0.007726006675511599,0.0
120,9,9.408134792465717e-05,5.29139060745365e-06,-0.00021109096996951848,0.0008929663454182446,0.0018904187018051744,0.008983842097222805,0.0,0.0,0.0,0.0,0.0,0.0,0.0,0.0,0.0,0.0024635992012917995,0.005711955949664116,-0.0,0.0,0.0,0.0,0.0,0.0,0.0,0.0,0.0,0.0,0.0,0.0,0.0,0.0,0.0,0.0,0.0,0.0,0.0,0.0,0.0,0.0,0.0,1.6919100284576416,-0.021279037517867742,-0.06609184976750494,0.026940123502587118,-0.02328682690858841,0.007726006675511599,0.0
125,5,0.00011662529868772253,1.9168470316799358e-05,-0.00025119667407125235,0.003062460571527481,-0.0009090820094570518,0.008406221866607666,0.0,0.0,0.0,0.0,0.0,0.0,0.0,0.0,0.0,0.0011423085816204548,0.003031773492693901,-0.0,0.0,0.0,0.0,0.0,0.0,0.0,0.0,0.0,0.0,0.0,0.0,0.0,0.0,0.0,0.0,0.0,0.0,0.0,0.0,0.0,0.0,0.0,1.6599202156066895,-0.022824285576967925,-0.06555334915436724,0.026428514321783735,-0.012126484885811806,0.0035146253649145365,0.0
131,6,0.0001347939105471596,1.9003875422640704e-05,-0.0002698104945011437,0.0034052173141390085,-0.0003438815474510193,0.005596145521849394,0.0,0.0,0.0,0.0,0.0,0.0,0.0,0.0,0.0,0.0011423085816204548,0.003031773492693901,-0.0,0.0,0.0,0.0,0.0,0.0,0.0,0.0,0.0,0.0,0.0,0.0,0.0,0.0,0.0,0.0,0.0,0.0,0.0,0.0,0.0,0.0,0.0,1.6599202156066895,-0.022987848936842286,-0.0661450999478131,0.02654250367514379,-0.012126484885811806,0.0035146253649145365,0.0
136,5,0.00021426410239655524,2.1330220988602377e-05,-0.00034818649874068797,0.010898509994149208,-0.0004167139413766563,0.011643580161035061,0.0,0.0,0.0,0.0,0.0,0.0,0.0,0.0,0.0,0.0011423085816204548,0.003031773492693901,-0.0,0.0,0.0,0.0,0.0,0.0,0.0,0.0,0.0,0.0,0.0,0.0,0.0,0.0,0.0,0.0,0.0,0.0,0.0,0.0,0.0,0.0,0.0,1.6599202156066895,-0.023997994518316773,-0.06610413516235075,0.027585714131061957,-0.012126484885811806,0.0035146253649145365,0.0
141,5,0.0001847055391408503,2.0682133254013024e-05,-0.00036524239112623036,0.0008123762090690434,-8.891519973985851e-05,0.0067041367292404175,0.0,0.0,0.0,0.0,0.0,0.0,0.0,0.0,0.0,0.0005213820259086788,0.010037297382950783,-0.0,0.0,0.0,0.0,0.0,0.0,0.0,0.0,0.0,0.0,0.0,0.0,0.0,0.0,0.0,0.0,0.0,0.0,0.0,0.0,0.0,0.0,0.0,1.7385965585708618,-0.023479405421056174,-0.06543751183419019,0.026537672976479233,-0.042049434036016464,0.0016802093014121056,0.0
146,5,0.00024617952294647694,4.0499984606867656e-05,-0.0004079448990523815,0.007701828144490719,-0.0024137080181390047,0.007805957924574614,0.0,0.0,0.0,0.0,0.0,0.0,0.0,0.0,0.0,0.0005213820259086788,0.010037297382950783,-0.0,0.0,0.0,0.0,0.0,0.0,0.0,0.0,0.0,0.0,0.0,0.0,0.0,0.0,0.0,0.0,0.0,0.0,0.0,0.0,0.0,0.0,0.0,1.7385965585708618,-0.021751379908101904,-0.06519842076835809,0.027802134249219145,-0.042049434036016464,0.0016802093014121056,0.0
151,5,0.0002757209003902972,4.8328060074709356e-05,-0.00044972088653594255,0.006625697016716003,-0.0019048524554818869,0.008135500364005566,0.0,0.0,0.0,0.0,0.0,0.0,0.0,0.0,0.0,0.002924638567492366,0.007334987632930279,-0.0,0.0,0.0,0.0,0.0,0.0,0.0,0.0,0.0,0.0,0.0,0.0,0.0,0.0,0.0,0.0,0.0,0.0,0.0,0.0,0.0,0.0,0.0,1.710848093032837,-0.021499237012909875,-0.06488375737986642,0.028306453996375595,-0.03023827262222767,0.009274512529373169,0.0
157,5,0.0002990557986777276,4.6037235733820125e-05,-0.0005080382688902318,0.005450465716421604,-0.00048704229993745685,0.010252287611365318,0.0,0.0,0.0,0.0,0.0,0.0,0.0,0.0,0.0,0.000665769272018224,0.00543799577280879,-0.0,0.0,0.0,0.0,0.0,0.0,0.0,0.0,0.0,0.0,0.0,0.0,0.0,0.0,0.0,0.0,0.0,0.0,0.0,0.0,0.0,0.0,0.0,1.6856160163879395,-0.020487939822666584,-0.06447599105175586,0.028447821183366667,-0.02208753116428852,0.002080132020637393,0.0
162,5,0.00033280611387453973,5.962844443274662e-05,-0.0005336052272468805,0.00623022485524416,-0.0018257618648931384,0.007168949581682682,0.0,0.0,0.0,0.0,0.0,0.0,0.0,0.0,0.0,0.000665769272018224,0.00543799577280879,-0.0,0.0,0.0,0.0,0.0,0.0,0.0,0.0,0.0,0.0,0.0,0.0,0.0,0.0,0.0,0.0,0.0,0.0,0.0,0.0,0.0,0.0,0.0,1.6856160163879395,-0.01955174420099935,-0.06417031210766586,0.02875323439732667,-0.02208753116428852,0.002080132020637393,0.0
167,5,0.00019566800619941205,5.090397098683752e-05,-0.00030024212901480496,-0.01396448165178299,0.00031663235859014094,-0.02513599395751953,0.0,0.0,0.0,0.0,0.0,0.0,0.0,0.0,0.0,0.000665769272018224,0.00543799577280879,-0.0,0.0,0.0,0.0,0.0,0.0,0.0,0.0,0.0,0.0,0.0,0.0,0.0,0.0,0.0,0.0,0.0,0.0,0.0,0.0,0.0,0.0,0.0,1.6856160163879395,-0.025390492627920803,-0.06569978398510576,0.027022020971399906,-0.02208753116428852,0.002080132020637393,0.0
172,5,0.00020161026623100042,4.0623148379381746e-05,-0.000324419466778636,-0.004872722085565329,0.0013603513361886144,-0.007153117097914219,0.0,0.0,0.0,0.0,0.0,0.0,0.0,0.0,0.0,-0.00027747926651500165,-0.012073568999767303,-0.0,0.0,0.0,0.0,0.0,0.0,0.0,0.0,0.0,0.0,0.0,0.0,0.0,0.0,0.0,0.0,0.0,0.0,0.0,0.0,0.0,0.0,0.0,1.7628923654556274,-0.025184179658367997,-0.06557700458547851,0.026890521592530827,0.051286470144987106,-0.000906702654901892,0.0
177,5,0.00020093441708013415,3.73915427189786e-05,-0.00030011392664164305,-0.0020301912445575,0.0009319335222244263,-0.005777910351753235,0.0,0.0,0.0,0.0,0.0,0.0,0.0,0.0,0.0,-0.00027747926651500165,-0.012073568999767303,-0.0,0.0,0.0,0.0,0.0,0.0,0.0,0.0,0.0,0.0,0.0,0.0,0.0,0.0,0.0,0.0,0.0,0.0,0.0,0.0,0.0,0.0,0.0,1.7628923654556274,-0.024560547992259475,-0.06554519992517423,0.026846702976273288,0.051286470144987106,-0.000906702654901892,0.0
182,5,0.0001801286853151396,4.3781510612461716e-05,-0.0003118325548712164,-0.0033087630290538073,-0.0003940229944419116,-0.0009049276704899967,0.0,0.0,0.0,0.0,0.0,0.0,0.0,0.0,0.0,-0.0010781032033264637,-0.0016401282045990229,-0.0,0.0,0.0,0.0,0.0,0.0,0.0,0.0,0.0,0.0,0.0,0.0,0.0,0.0,0.0,0.0,0.0,0.0,0.0,0.0,0.0,0.0,0.0,1.645503044128418,-0.025298482991440545,-0.06586068296488762,0.026864027108176435,0.006503212731331587,-0.0032882695086300373,0.0
187,5,0.0001898781629279256,4.8876681830734015e-05,-0.00030276773031800985,-0.00015356889343820512,-0.0007690296042710543,-0.0014497520169243217,0.0,0.0,0.0,0.0,0.0,0.0,0.0,0.0,0.0,-0.0010781032033264637,-0.0016401282045990229,-0.0,0.0,0.0,0.0,0.0,0.0,0.0,0.0,0.0,0.0,0.0,0.0,0.0,0.0,0.0,0.0,0.0,0.0,0.0,0.0,0.0,0.0,0.0,1.645503044128418,-0.02602238351025466,-0.06613259020439284,0.02722038714641692,0.006503212731331587,-0.0032882695086300373,0.0
192,5,0.0003013807872775942,-2.8231383112142794e-05,-0.000560605083592236,0.013318887911736965,0.008945356123149395,0.03036057949066162,0.0,0.0,0.0,0.0,0.0,0.0,0.0,0.0,0.0,0.0010409995447844267,0.00012035002146149054,-0.0,0.0,0.0,0.0,0.0,0.0,0.0,0.0,0.0,0.0,0.0,0.0,0.0,0.0,0.0,0.0,0.0,0.0,0.0,0.0,0.0,0.0,0.0,1.6344019174575806,-0.028752007790713068,-0.06376702227365968,0.025776745747030157,-0.00047397639718838036,0.0031536815222352743,0.0
197,5,0.0003103238414041698,-2.876936923712492e-05,-0.0005709883407689631,0.006400720681995153,0.0036427006125450134,0.013390228152275085,0.0,0.0,0.0,0.0,0.0,0.0,0.0,0.0,0.0,0.0010409995447844267,0.00012035002146149054,-0.0,0.0,0.0,0.0,0.0,0.0,0.0,0.0,0.0,0.0,0.0,0.0,0.0,0.0,0.0,0.0,0.0,0.0,0.0,0.0,0.0,0.0,0.0,1.6344019174575806,-0.028556389295418476,-0.06374212066643134,0.025727776425907338,-0.00047397639718838036,0.0031536815222352743,0.0
202,5,0.0002912535856012255,-2.317462167411577e-05,-0.0005751191056333482,0.00027185786166228354,0.0007857104646973312,0.005851782392710447,0.0,0.0,0.0,0.0,0.0,0.0,0.0,0.0,0.0,-0.004373820032924414,0.006261796224862337,-0.0,0.0,0.0,0.0,0.0,0.0,0.0,0.0,0.0,0.0,0.0,0.0,0.0,0.0,0.0,0.0,0.0,0.0,0.0,0.0,0.0,0.0,0.0,1.704359769821167,-0.02810222070363122,-0.06362000621555965,0.02550028823385701,-0.02571609988808632,-0.013817460276186466,0.0
207,5,0.0003244219988118857,-1.4936656043573748e-05,-0.0006029272335581481,0.0040889522060751915,-0.0006742716650478542,0.005677683278918266,0.0,0.0,0.0,0.0,0.0,0.0,0.0,0.0,0.0,-0.004373820032924414,0.006261796224862337,-0.0,0.0,0.0,0.0,0.0,0.0,0.0,0.0,0.0,0.0,0.0,0.0,0.0,0.0,0.0,0.0,0.0,0.0,0.0,0.0,0.0,0.0,0.0,1.704359769821167,-0.02816781348653275,-0.06409617259281468,0.026161341270348266,-0.02571609988808632,-0.013817460276186466,0.0
213,5,0.00033167097717523575,-1.6050909835030325e-05,-0.0006411262438632548,0.0025054600555449724,-0.00013599812518805265,0.006854956969618797,0.0,0.0,0.0,0.0,0.0,0.0,0.0,0.0,0.0,0.0007893985603004694,0.004249418154358864,-0.0,0.0,0.0,0.0,0.0,0.0,0.0,0.0,0.0,0.0,0.0,0.0,0.0,0.0,0.0,0.0,0.0,0.0,0.0,0.0,0.0,0.0,0.0,1.6725032329559326,-0.027416904290323202,-0.06371636562117229,0.025825743118968996,-0.01712564378976822,0.0024472130462527275,0.0
218,5,0.0003353506908752024,-2.0921588657074608e-05,-0.0006744533311575651,-0.0015201253117993474,0.0007628313614986837,0.0024901593569666147,0.0,0.0,0.0,0.0,0.0,0.0,0.0,0.0,0.0,0.0007893985603004694,0.004249418154358864,-0.0,0.0,0.0,0.0,0.0,0.0,0.0,0.0,0.0,0.0,0.0,0.0,0.0,0.0,0.0,0.0,0.0,0.0,0.0,0.0,0.0,0.0,0.0,1.6725032329559326,-0.025374531583936415,-0.06304186056055054,0.025929079040587593,-0.01712564378976822,0.0024472130462527275,0.0
223,5,0.00040769242332316935,-7.425475359923439e-06,-0.0007351613021455705,0.008072958327829838,-0.001314400928094983,0.008281019516289234,0.0,0.0,0.0,0.0,0.0,0.0,0.0,0.0,0.0,-0.0009792709024623036,-0.000974138209130615,-0.0,0.0,0.0,0.0,0.0,0.0,0.0,0.0,0.0,0.0,0.0,0.0,0.0,0.0,0.0,0.0,0.0,0.0,0.0,0.0,0.0,0.0,0.0,1.6389400959014893,-0.02509307612033282,-0.0631569013166969,0.027370493899332396,0.003847115905955434,-0.002974913688376546,0.0
228,5,0.0004266517353244126,5.383616553444881e-06,-0.0007451808778569102,0.005504302214831114,-0.0020628515630960464,0.004514758009463549,0.0,0.0,0.0,0.0,0.0,0.0,0.0,0.0,0.0,-0.0009792709024623036,-0.000974138209130615,-0.0,0.0,0.0,0.0,0.0,0.0,0.0,0.0,0.0,0.0,0.0,0.0,0.0,0.0,0.0,0.0,0.0,0.0,0.0,0.0,0.0,0.0,0.0,1.6389400959014893,-0.023386089611183724,-0.06222706280839387,0.027227194724641444,0.003847115905955434,-0.002974913688376546,0.0
233,5,0.0003670628648251295,-9.364268407807685e-06,-0.0007031909190118313,-0.004948945250362158,0.0009446056210435927,-0.0032328939996659756,0.0,0.0,0.0,0.0,0.0,0.0,0.0,0.0,0.0,0.0024774048943072557,0.005643473006784916,-0.0,0.0,0.0,0.0,0.0,0.0,0.0,0.0,0.0,0.0,0.0,0.0,0.0,0.0,0.0,0.0,0.0,0.0,0.0,0.0,0.0,0.0,0.0,1.691211462020874,-0.02180711657097465,-0.06192832201860948,0.02626860631050616,-0.022998135536909103,0.007766094524413347,0.0
238,5,0.00021710210421588272,-2.2533284209202975e-05,-0.0004607392766047269,-0.01997486874461174,0.001958124339580536,-0.030387351289391518,0.0,0.0,0.0,0.0,0.0,0.0,0.0,0.0,0.0,-0.0022103332448750734,-0.016784442588686943,-0.0,0.0,0.0,0.0,0.0,0.0,0.0,0.0,0.0,0.0,0.0,0.0,0.0,0.0,0.0,0.0,0.0,0.0,0.0,0.0,0.0,0.0,0.0,1.82235586643219,-0.028239487459316804,-0.0643329871329283,0.024903175160203173,0.07370051741600037,-0.00746618676930666,0.0
244,6,0.00025826491764746606,4.852751089856611e-07,-0.0004602638946380466,-0.0030504094902426004,-0.001978977583348751,-0.012211985886096954,0.0,0.0,0.0,0.0,0.0,0.0,0.0,0.0,0.0,-0.0022103332448750734,-0.016784442588686943,-0.0,0.0,0.0,0.0,0.0,0.0,0.0,0.0,0.0,0.0,0.0,0.0,0.0,0.0,0.0,0.0,0.0,0.0,0.0,0.0,0.0,0.0,0.0,1.82235586643219,-0.027621200885745625,-0.06485111634721484,0.0263231591455144,0.07370051741600037,-0.00746618676930666,0.0
249,5,0.0002563364105299115,9.388144235344953e-07,-0.0004454944864846766,-0.0014515849761664867,-0.0008460156968794763,-0.006657123565673828,0.0,0.0,0.0,0.0,0.0,0.0,0.0,0.0,0.0,-0.0022103332448750734,-0.016784442588686943,-0.0,0.0,0.0,0.0,0.0,0.0,0.0,0.0,0.0,0.0,0.0,0.0,0.0,0.0,0.0,0.0,0.0,0.0,0.0,0.0,0.0,0.0,0.0,1.82235586643219,-0.02691918777302902,-0.06506504899639987,0.026476280642535786,0.07370051741600037,-0.00746618676930666,0.0
255,6,0.00024019074044190347,1.6491754649905488e-05,-0.0004041031061206013,-0.0025181137025356293,-0.002204759046435356,-0.0076298159547150135,0.0,0.0,0.0,0.0,0.0,0.0,0.0,0.0,0.0,0.0010458121541887522,-0.0010178569937124848,-0.0,0.0,0.0,0.0,0.0,0.0,0.0,0.0,0.0,0.0,0.0,0.0,0.0,0.0,0.0,0.0,0.0,0.0,0.0,0.0,0.0,0.0,0.0,1.6396520137786865,-0.026601522908929528,-0.0651835252881361,0.026724508507152737,0.0040215179324150085,0.0031784381717443466,0.0
260,5,0.0001601748663233593,7.880207704147324e-06,-0.0003871111257467419,-0.010609150864183903,0.00015148195961955935,-0.0050909630954265594,0.0,0.0,0.0,0.0,0.0,0.0,0.0,0.0,0.0,0.0010458121541887522,-0.0010178569937124848,-0.0,0.0,0.0,0.0,0.0,0.0,0.0,0.0,0.0,0.0,0.0,0.0,0.0,0.0,0.0,0.0,0.0,0.0,0.0,0.0,0.0,0.0,0.0,1.6396520137786865,-0.026278710822406133,-0.06501417720050187,0.02550077862652825,0.0040215179324150085,0.0031784381717443466,0.0
265,5,0.0002254095597891137,2.9580398404505104e-05,-0.00040005645132623613,0.003584503196179867,-0.0025434300769120455,-0.0004829471872653812,0.0,0.0,0.0,0.0,0.0,0.0,0.0,0.0,0.0,0.0031278287060558796,0.0036443753633648157,-0.0,0.0,0.0,0.0,0.0,0.0,0.0,0.0,0.0,0.0,0.0,0.0,0.0,0.0,0.0,0.0,0.0,0.0,0.0,0.0,0.0,0.0,0.0,1.6733355522155762,-0.02634083588617902,-0.06536223487926457,0.02707870534552546,-0.01469450443983078,0.009701373986899853,0.0
270,5,0.0001507555425632745,2.2829468434792943e-05,-0.0003309642488602549,-0.007524680346250534,-0.00020726051297970116,-0.008484243415296078,0.0,0.0,0.0,0.0,0.0,0.0,0.0,0.0,0.0,0.0031278287060558796,0.0036443753633648157,-0.0,0.0,0.0,0.0,0.0,0.0,0.0,0.0,0.0,0.0,0.0,0.0,0.0,0.0,0.0,0.0,0.0,0.0,0.0,0.0,0.0,0.0,0.0,1.6733355522155762,-0.025784762505108517,-0.06568057341874459,0.026045914016695176,-0.01469450443983078,0.009701373986899853,0.0
275,5,0.00014714161807205528,1.6547088307561353e-05,-0.000320739287417382,-0.0034435437992215157,0.0006709815934300423,-0.004620691761374474,0.0,0.0,0.0,0.0,0.0,0.0,0.0,0.0,0.0,0.0031278287060558796,0.0036443753633648157,-0.0,0.0,0.0,0.0,0.0,0.0,0.0,0.0,0.0,0.0,0.0,0.0,0.0,0.0,0.0,0.0,0.0,0.0,0.0,0.0,0.0,0.0,0.0,1.6733355522155762,-0.025899974377552166,-0.06559507049827289,0.025585200051754162,-0.01469450443983078,0.009701373986899853,0.0
280,5,0.00022130913566797972,2.8728209144901484e-05,-0.0003419591812416911,0.007522684521973133,-0.0011933417990803719,0.00069810840068385,0.0,0.0,0.0,0.0,0.0,0.0,0.0,0.0,0.0,-0.0007883106591179967,-0.003024254459887743,-0.0,0.0,0.0,0.0,0.0,0.0,0.0,0.0,0.0,0.0,0.0,0.0,0.0,0.0,0.0,0.0,0.0,0.0,0.0,0.0,0.0,0.0,0.0,1.6591265201568604,-0.02577092158488902,-0.06568986112359167,0.026842050943746865,0.012090630829334259,-0.0024242945946753025,0.0
285,5,0.00021086067135911435,3.612478758441284e-05,-0.0003353663778398186,0.0017552588833495975,-0.001364926458336413,-0.0005118913832120597,0.0,0.0,0.0,0.0,0.0,0.0,0.0,0.0,0.0,-0.0007883106591179967,-0.003024254459887743,-0.0,0.0,0.0,0.0,0.0,0.0,0.0,0.0,0.0,0.0,0.0,0.0,0.0,0.0,0.0,0.0,0.0,0.0,0.0,0.0,0.0,0.0,0.0,1.6591265201568604,-0.025564215716829226,-0.06597435170152914,0.02688632855291964,0.012090630829334259,-0.0024242945946753025,0.0
290,5,0.00021824415307492018,3.6794892366742715e-05,-0.00034099636832252145,0.0015881211729720235,-0.0006263829418458045,0.0004708435444626957,0.0,0.0,0.0,0.0,0.0,0.0,0.0,0.0,0.0,0.0017375883180648088,0.0019493245054036379,-0.0,0.0,0.0,0.0,0.0,0.0,0.0,0.0,0.0,0.0,0.0,0.0,0.0,0.0,0.0,0.0,0.0,0.0,0.0,0.0,0.0,0.0,0.0,1.6512267589569092,-0.025747187322189127,-0.0655423035638405,0.026932066104930263,-0.007756072096526623,0.005318164359778166,0.0
296,5,0.00020561818382702768,3.344580181874335e-05,-0.0003459816798567772,-0.0008798677008599043,0.00015133754641283303,0.0007865741499699652,0.0,0.0,0.0,0.0,0.0,0.0,0.0,0.0,0.0,-0.00012645097740460187,-0.0005477857775986195,-0.0,0.0,0.0,0.0,0.0,0.0,0.0,0.0,0.0,0.0,0.0,0.0,0.0,0.0,0.0,0.0,0.0,0.0,0.0,0.0,0.0,0.0,0.0,1.6316840648651123,-0.025533902528410337,-0.06586124862293305,0.02704158168960685,0.002153766807168722,-0.000382443075068295,0.0
301,5,0.00020545140432659537,5.3035539167467505e-05,-0.0003426378534641117,-0.0003719615051522851,-0.0022902335040271282,-8.663139306008816e-05,0.0,0.0,0.0,0.0,0.0,0.0,0.0,0.0,0.0,-0.00012645097740460187,-0.0005477857775986195,-0.0,0.0,0.0,0.0,0.0,0.0,0.0,0.0,0.0,0.0,0.0,0.0,0.0,0.0,0.0,0.0,0.0,0.0,0.0,0.0,0.0,0.0,0.0,1.6316840648651123,-0.025803050637445854,-0.06542469755190541,0.02719704124816738,0.002153766807168722,-0.000382443075068295,0.0
306,5,0.00021744791592936963,3.174745506839827e-05,-0.00035759431193582714,0.0012907974887639284,0.001638476736843586,0.0017601242288947105,0.0,0.0,0.0,0.0,0.0,0.0,0.0,0.0,0.0,-0.00012645097740460187,-0.0005477857775986195,-0.0,0.0,0.0,0.0,0.0,0.0,0.0,0.0,0.0,0.0,0.0,0.0,0.0,0.0,0.0,0.0,0.0,0.0,0.0,0.0,0.0,0.0,0.0,1.6316840648651123,-0.025075309801852352,-0.06562846698360349,0.02723681704492126,0.002153766807168722,-0.000382443075068295,0.0
311,5,0.00021241867216303945,3.528018351062201e-05,-0.0003667972341645509,-8.719076140550897e-05,0.00023146352032199502,0.0018083996837958694,0.0,0.0,0.0,0.0,0.0,0.0,0.0,0.0,0.0,-0.0019529429264366627,0.0015233095036819577,-0.0,0.0,0.0,0.0,0.0,0.0,0.0,0.0,0.0,0.0,0.0,0.0,0.0,0.0,0.0,0.0,0.0,0.0,0.0,0.0,0.0,0.0,0.0,1.6487833261489868,-0.02488212792120849,-0.06573620498490376,0.027070696302321104,-0.006052052136510611,-0.0059684449806809425,0.0
316,5,0.00022011100372765213,3.6455210647545755e-05,-0.00037062237970530987,0.0008882042020559311,-4.841813279199414e-05,0.001182377920486033,0.0,0.0,0.0,0.0,0.0,0.0,0.0,0.0,0.0,0.000126276834635064,0.0011546305613592267,-0.0,0.0,0.0,0.0,0.0,0.0,0.0,0.0,0.0,0.0,0.0,0.0,0.0,0.0,0.0,0.0,0.0,0.0,0.0,0.0,0.0,0.0,0.0,1.6381558179855347,-0.02450360786519366,-0.0655806922038556,0.02738234409925182,-0.004557745065540075,0.00038343117921613157,0.0
321,5,0.00023596342361997813,4.1618877730797976e-05,-0.0004010027623735368,0.0022575710900127888,-0.0006390069029293954,0.004118595737963915,0.0,0.0,0.0,0.0,0.0,0.0,0.0,0.0,0.0,0.000126276834635064,0.0011546305613592267,-0.0,0.0,0.0,0.0,0.0,0.0,0.0,0.0,0.0,0.0,0.0,0.0,0.0,0.0,0.0,0.0,0.0,0.0,0.0,0.0,0.0,0.0,0.0,1.6381558179855347,-0.02407650741850555,-0.06550968990573351,0.0273583953241038,-0.004557745065540075,0.00038343117921613157,0.0
326,5,0.00027348188450559974,3.4363005397608504e-05,-0.00044019456254318357,0.005405245814472437,0.0006151016568765044,0.006350453943014145,0.0,0.0,0.0,0.0,0.0,0.0,0.0,0.0,0.0,0.000126276834635064,0.0011546305613592267,-0.0,0.0,0.0,0.0,0.0,0.0,0.0,0.0,0.0,0.0,0.0,0.0,0.0,0.0,0.0,0.0,0.0,0.0,0.0,0.0,0.0,0.0,0.0,1.6381558179855347,-0.022986646327382235,-0.0651863563086503,0.027633616043985617,-0.004557745065540075,0.00038343117921613157,0.0
331,5,0.0002923792926594615,4.797421206603758e-05,-0.0004551033489406109,0.004429786000400782,-0.00138730404432863,0.0043292357586324215,0.0,0.0,0.0,0.0,0.0,0.0,0.0,0.0,0.0,-0.00067761295940727,0.005367513280361891,-0.0,0.0,0.0,0.0,0.0,0.0,0.0,0.0,0.0,0.0,0.0,0.0,0.0,0.0,0.0,0.0,0.0,0.0,0.0,0.0,0.0,0.0,0.0,1.6848344802856445,-0.022026449801780885,-0.06482283667664765,0.028304437962667947,-0.02179114706814289,-0.0021161548793315887,0.0
336,5,0.0003137472958769649,6.185069651110098e-05,-0.00049616489559412,0.004336073994636536,-0.0022200995590537786,0.006659080274403095,0.0,0.0,0.0,0.0,0.0,0.0,0.0,0.0,0.0,0.0027838090900331736,0.004448293708264828,-0.0,0.0,0.0,0.0,0.0,0.0,0.0,0.0,0.0,0.0,0.0,0.0,0.0,0.0,0.0,0.0,0.0,0.0,0.0,0.0,0.0,0.0,0.0,1.6797099113464355,-0.020387253921704897,-0.0644416041248438,0.02869436715599255,-0.018004311248660088,0.00866724830120802,0.0
342,6,0.0003460427687969059,5.840562516823411e-05,-0.0005889690364710987,0.0031168400309979916,-0.0001983714901143685,0.007769681978970766,0.0,0.0,0.0,0.0,0.0,0.0,0.0,0.0,0.0,0.0027838090900331736,0.004448293708264828,-0.0,0.0,0.0,0.0,0.0,0.0,0.0,0.0,0.0,0.0,0.0,0.0,0.0,0.0,0.0,0.0,0.0,0.0,0.0,0.0,0.0,0.0,0.0,1.6797099113464355,-0.019328651308836122,-0.0639545414797765,0.028936557373198706,-0.018004311248660088,0.00866724830120802,0.0
347,5,0.0003443787572905421,6.817867688369006e-05,-0.0006016569095663726,0.0010470572160556912,-0.0012521144235506654,0.004630422685295343,0.0,0.0,0.0,0.0,0.0,0.0,0.0,0.0,0.0,0.0027838090900331736,0.004448293708264828,-0.0,0.0,0.0,0.0,0.0,0.0,0.0,0.0,0.0,0.0,0.0,0.0,0.0,0.0,0.0,0.0,0.0,0.0,0.0,0.0,0.0,0.0,0.0,1.6797099113464355,-0.018459302980057768,-0.06372138591199111,0.028836573197029935,-0.018004311248660088,0.00866724830120802,0.0
353,5,0.0001768366782926023,3.676120832096785e-05,-0.00033185919164679945,-0.019686227664351463,0.0032692502718418837,-0.03052356094121933,0.0,0.0,0.0,0.0,0.0,0.0,0.0,0.0,0.0,0.001661812886595726,0.0014718251768499613,-0.0,0.0,0.0,0.0,0.0,0.0,0.0,0.0,0.0,0.0,0.0,0.0,0.0,0.0,0.0,0.0,0.0,0.0,0.0,0.0,0.0,0.0,0.0,1.6467156410217285,-0.025477813832529658,-0.06549228717387001,0.026457492836680623,-0.0058401767164468765,0.005072346888482571,0.0
358,5,0.00017573489458300173,2.1470315914484672e-05,-0.00034866711939685047,-0.008006704971194267,0.0031426071655005217,-0.01019246969372034,0.0,0.0,0.0,0.0,0.0,0.0,0.0,0.0,0.0,0.001661812886595726,0.0014718251768499613,-0.0,0.0,0.0,0.0,0.0,0.0,0.0,0.0,0.0,0.0,0.0,0.0,0.0,0.0,0.0,0.0,0.0,0.0,0.0,0.0,0.0,0.0,0.0,1.6467156410217285,-0.02608240705810832,-0.0658677303185546,0.02648015524055347,-0.0058401767164468765,0.005072346888482571,0.0
363,5,0.0002034692297456786,3.325645229779184e-05,-0.000339349324349314,0.00012543894990812987,-0.00015729331062175333,-0.005195125006139278,0.0,0.0,0.0,0.0,0.0,0.0,0.0,0.0,0.0,-0.0036802792456001043,-0.007047601975500584,-0.0,0.0,0.0,0.0,0.0,0.0,0.0,0.0,0.0,0.0,0.0,0.0,0.0,0.0,0.0,0.0,0.0,0.0,0.0,0.0,0.0,0.0,0.0,1.709957480430603,-0.02612089073692481,-0.0660076323598575,0.027148779453033622,0.029038356617093086,-0.01166468020528555,0.0
368,5,0.00019977762713097036,3.8526453863596544e-05,-0.000314206670736894,-0.00039281704812310636,-0.0006953176925890148,-0.005095167085528374,0.0,0.0,0.0,0.0,0.0,0.0,0.0,0.0,0.0,-0.0036802792456001043,-0.007047601975500584,-0.0,0.0,0.0,0.0,0.0,0.0,0.0,0.0,0.0,0.0,0.0,0.0,0.0,0.0,0.0,0.0,0.0,0.0,0.0,0.0,0.0,0.0,0.0,1.709957480430603,-0.02462336204963778,-0.06552333620814141,0.027043339331659057,0.029038356617093086,-0.01166468020528555,0.0
373,5,0.00019412022083997726,5.2349994803080335e-05,-0.00029976703808642924,-0.0008360160863958299,-0.001936952117830515,-0.003770822426304221,0.0,0.0,0.0,0.0,0.0,0.0,0.0,0.0,0.0,0.0009318781085312366,-8.977092511486262e-05,-0.0,0.0,0.0,0.0,0.0,0.0,0.0,0.0,0.0,0.0,0.0,0.0,0.0,0.0,0.0,0.0,0.0,0.0,0.0,0.0,0.0,0.0,0.0,1.6334644556045532,-0.02545973968853289,-0.06621314644232815,0.027101059055938563,0.000353343493770808,0.0028214817866683006,0.0
378,5,0.00020528698223643005,3.591730273910798e-05,-0.00031125720124691725,0.0010056050959974527,0.0011971425265073776,-0.0001295125111937523,0.0,0.0,0.0,0.0,0.0,0.0,0.0,0.0,0.0,0.0009318781085312366,-8.977092511486262e-05,-0.0,0.0,0.0,0.0,0.0,0.0,0.0,0.0,0.0,0.0,0.0,0.0,0.0,0.0,0.0,0.0,0.0,0.0,0.0,0.0,0.0,0.0,0.0,1.6334644556045532,-0.025194015718940536,-0.06572315125349251,0.027097325168832315,0.000353343493770808,0.0028214817866683006,0.0
383,5,0.0002061353443423286,4.3580064811976627e-05,-0.00031829799991101027,0.0005040452815592289,-0.000440674542915076,0.0007930923602543771,0.0,0.0,0.0,0.0,0.0,0.0,0.0,0.0,0.0,0.0006249493453651667,0.000772810191847384,-0.0,0.0,0.0,0.0,0.0,0.0,0.0,0.0,0.0,0.0,0.0,0.0,0.0,0.0,0.0,0.0,0.0,0.0,0.0,0.0,0.0,0.0,0.0,1.6354801654815674,-0.025490293223348004,-0.06606658673315717,0.02710676740508544,-0.0030455791857093573,0.0018945173360407352,0.0
388,5,0.0002041351981461048,4.30834770668298e-05,-0.00032646182808093727,-3.839887722278945e-05,-0.000116679300845135,0.0012968950904905796,0.0,0.0,0.0,0.0,0.0,0.0,0.0,0.0,0.0,0.0006249493453651667,0.000772810191847384,-0.0,0.0,0.0,0.0,0.0,0.0,0.0,0.0,0.0,0.0,0.0,0.0,0.0,0.0,0.0,0.0,0.0,0.0,0.0,0.0,0.0,0.0,0.0,1.6354801654815674,-0.025365446564140626,-0.06592992835789639,0.026919869761990095,-0.0030455791857093573,0.0018945173360407352,0.0
393,5,0.00020087622397113591,4.2102001316379756e-05,-0.00032495640334673226,-0.0004064367967657745,7.11053580744192e-05,0.0003381090937182307,0.0,0.0,0.0,0.0,0.0,0.0,0.0,0.0,0.0,-1.0813224434969015e-05,-0.00010115971235791221,-0.0,0.0,0.0,0.0,0.0,0.0,0.0,0.0,0.0,0.0,0.0,0.0,0.0,0.0,0.0,0.0,0.0,0.0,0.0,0.0,0.0,0.0,0.0,1.6284600496292114,-0.0252289085576862,-0.0659369833231233,0.026995185154035487,0.00039695072337053716,-3.263930193497799e-05,0.0
398,5,0.00019192656327504665,4.318992796470411e-05,-0.0003250185982324183,-0.0012365328148007393,-0.00010210926120635122,0.00014270526298787445,0.0,0.0,0.0,0.0,0.0,0.0,0.0,0.0,0.0,-1.0813224434969015e-05,-0.00010115971235791221,-0.0,0.0,0.0,0.0,0.0,0.0,0.0,0.0,0.0,0.0,0.0,0.0,0.0,0.0,0.0,0.0,0.0,0.0,0.0,0.0,0.0,0.0,0.0,1.6284600496292114,-0.02491198942297844,-0.0656164508640492,0.026886757848815324,0.00039695072337053716,-3.263930193497799e-05,0.0
403,5,0.00021230094716884196,4.0352180803893134e-05,-0.00034558161860331893,0.0019503128714859486,0.0002996859257109463,0.002524647396057844,0.0,0.0,0.0,0.0,0.0,0.0,0.0,0.0,0.0,-0.00029423576779663563,0.002140394877642393,-0.0,0.0,0.0,0.0,0.0,0.0,0.0,0.0,0.0,0.0,0.0,0.0,0.0,0.0,0.0,0.0,0.0,0.0,0.0,0.0,0.0,0.0,0.0,1.648922324180603,-0.025303315237322425,-0.06522188963148323,0.027122196523423524,-0.008504439145326614,-0.000899299222510308,0.0
408,5,0.00021711883891839534,3.480539089650847e-05,-0.00034089406835846603,0.001358271692879498,0.0007854891009628773,0.00044735107803717256,0.0,0.0,0.0,0.0,0.0,0.0,0.0,0.0,0.0,-0.00029423576779663563,0.002140394877642393,-0.0,0.0,0.0,0.0,0.0,0.0,0.0,0.0,0.0,0.0,0.0,0.0,0.0,0.0,0.0,0.0,0.0,0.0,0.0,0.0,0.0,0.0,0.0,1.648922324180603,-0.0255008580097312,-0.06534427042882512,0.02722137966384584,-0.008504439145326614,-0.000899299222510308,0.0
414,5,0.00020368244440760463,3.2482887036167085e-05,-0.0003455442492850125,-0.0010690593626350164,0.0005928962491452694,0.0007369622471742332,0.0,0.0,0.0,0.0,0.0,0.0,0.0,0.0,0.0,-0.0006736781797371805,-0.0007270446512848139,-0.0,0.0,0.0,0.0,0.0,0.0,0.0,0.0,0.0,0.0,0.0,0.0,0.0,0.0,0.0,0.0,0.0,0.0,0.0,0.0,0.0,0.0,0.0,1.6352941989898682,-0.024859966809854885,-0.06588773769592235,0.027266432468002647,0.0028648951556533575,-0.002042005304247141,0.0
419,5,0.00020216299162711948,3.9745380490785465e-05,-0.0003179585619363934,-0.0006099572638049722,-0.0006343407439999282,-0.0030154960695654154,0.0,0.0,0.0,0.0,0.0,0.0,0.0,0.0,0.0,-0.0006736781797371805,-0.0007270446512848139,-0.0,0.0,0.0,0.0,0.0,0.0,0.0,0.0,0.0,0.0,0.0,0.0,0.0,0.0,0.0,0.0,0.0,0.0,0.0,0.0,0.0,0.0,0.0,1.6352941989898682,-0.02470839461315141,-0.06595390746427236,0.02731047054998953,0.0028648951556533575,-0.002042005304247141,0.0
424,5,0.0002400736848358065,4.628052920452319e-05,-0.0003564854268915951,0.004305299837142229,-0.001037954119965434,0.0034170225262641907,0.0,0.0,0.0,0.0,0.0,0.0,0.0,0.0,0.0,-0.0006736781797371805,-0.0007270446512848139,-0.0,0.0,0.0,0.0,0.0,0.0,0.0,0.0,0.0,0.0,0.0,0.0,0.0,0.0,0.0,0.0,0.0,0.0,0.0,0.0,0.0,0.0,0.0,1.6352941989898682,-0.02414950210634542,-0.06565626247338009,0.02737575280673021,0.0028648951556533575,-0.002042005304247141,0.0
429,5,0.00019718836119864136,4.008521500509232e-05,-0.0003534453280735761,-0.0034241185057908297,0.00032825610833242536,0.001001999364234507,0.0,0.0,0.0,0.0,0.0,0.0,0.0,0.0,0.0,0.001337129040621221,0.00433510635048151,-0.0,0.0,0.0,0.0,0.0,0.0,0.0,0.0,0.0,0.0,0.0,0.0,0.0,0.0,0.0,0.0,0.0,0.0,0.0,0.0,0.0,0.0,0.0,1.674320101737976,-0.024001532325838206,-0.06579576671530632,0.02678489184147617,-0.017489943653345108,0.004149732645601034,0.0
434,5,0.00027769606094807386,4.3978114263154566e-05,-0.0004621831467375159,0.008291274309158325,-0.0003358451940584928,0.013449336402118206,0.0,0.0,0.0,0.0,0.0,0.0,0.0,0.0,0.0,0.001337129040621221,0.00433510635048151,-0.0,0.0,0.0,0.0,0.0,0.0,0.0,0.0,0.0,0.0,0.0,0.0,0.0,0.0,0.0,0.0,0.0,0.0,0.0,0.0,0.0,0.0,0.0,1.674320101737976,-0.023108498022591954,-0.0649987694896671,0.02777993688500342,-0.017489943653345108,0.004149732645601034,0.0
439,5,0.00024791070609353483,3.881848169839941e-05,-0.00045189159573055804,-0.0002577305131126195,0.00048481745761819184,0.004144750069826841,0.0,0.0,0.0,0.0,0.0,0.0,0.0,0.0,0.0,0.00047359761083498597,0.007905910722911358,-0.0,0.0,0.0,0.0,0.0,0.0,0.0,0.0,0.0,0.0,0.0,0.0,0.0,0.0,0.0,0.0,0.0,0.0,0.0,0.0,0.0,0.0,0.0,1.71364426612854,-0.022556170586346746,-0.06525779790337327,0.027174836383141675,-0.032645244151353836,0.0015043147141113877,0.0
444,5,0.00013551302254199982,3.402254878892563e-05,-0.00028630331507883966,-0.013590814545750618,0.0007694393279962242,-0.0182126946747303,0.0,0.0,0.0,0.0,0.0,0.0,0.0,0.0,0.0,0.00047359761083498597,0.007905910722911358,-0.0,0.0,0.0,0.0,0.0,0.0,0.0,0.0,0.0,0.0,0.0,0.0,0.0,0.0,0.0,0.0,0.0,0.0,0.0,0.0,0.0,0.0,0.0,1.71364426612854,-0.025203579092436926,-0.06582881958493277,0.026074497197545853,-0.032645244151353836,0.0015043147141113877,0.0
449,5,-5.790768773294985e-05,-1.4903536794008687e-05,1.91641320270719e-05,-0.028646811842918396,0.006178905721753836,-0.04394116997718811,0.0,0.0,0.0,0.0,0.0,0.0,0.0,0.0,0.0,-0.0008260637405328453,-0.011834559962153435,-0.0,0.0,0.0,0.0,0.0,0.0,0.0,0.0,0.0,0.0,0.0,0.0,0.0,0.0,0.0,0.0,0.0,0.0,0.0,0.0,0.0,0.0,0.0,1.7601882219314575,-0.014414283182451719,-0.06745103983357295,0.028289531568544093,0.05019412189722061,-0.0026951387990266085,0.0
454,5,-4.092388735443819e-06,-1.0998184734489769e-05,3.50403570337221e-05,-0.0050008888356387615,0.002002920024096966,-0.019481616094708443,0.0,0.0,0.0,0.0,0.0,0.0,0.0,0.0,0.0,-0.0008260637405328453,-0.011834559962153435,-0.0,0.0,0.0,0.0,0.0,0.0,0.0,0.0,0.0,0.0,0.0,0.0,0.0,0.0,0.0,0.0,0.0,0.0,0.0,0.0,0.0,0.0,0.0,1.7601882219314575,-0.01423948013323327,-0.06751938501824822,0.029277948972442333,0.05019412189722061,-0.0026951387990266085,0.0
459,5,-2.606823954920401e-06,-6.0156176004966255e-06,3.357226887601428e-05,-0.0018220876809209585,0.00020326000230852515,-0.007616475690156221,0.0,0.0,0.0,0.0,0.0,0.0,0.0,0.0,0.0,-0.00025991207803599536,-0.0017214809777215123,-0.0,0.0,0.0,0.0,0.0,0.0,0.0,0.0,0.0,0.0,0.0,0.0,0.0,0.0,0.0,0.0,0.0,0.0,0.0,0.0,0.0,0.0,0.0,1.6443653106689453,-0.014694275134191435,-0.06752668021406252,0.02908346412979312,0.006821065209805965,-0.0007921972428448498,0.0
464,5,-8.634781806904357e-06,-2.816856522258604e-06,3.827592809102498e-05,-0.0014521901030093431,-0.000302547327009961,-0.0036110293585807085,0.0,0.0,0.0,0.0,0.0,0.0,0.0,0.0,0.0,-0.00025991207803599536,-0.0017214809777215123,-0.0,0.0,0.0,0.0,0.0,0.0,0.0,0.0,0.0,0.0,0.0,0.0,0.0,0.0,0.0,0.0,0.0,0.0,0.0,0.0,0.0,0.0,0.0,1.6443653106689453,-0.014650034080937189,-0.06771782415999239,0.029094772488823754,0.006821065209805965,-0.0007921972428448498,0.0
469,5,-1.3219736501923762e-05,7.548225767095573e-06,6.363703141687438e-05,-0.0011310705449432135,-0.0013648287858814,-0.004487744066864252,0.0,0.0,0.0,0.0,0.0,0.0,0.0,0.0,0.0,0.0016942857764661312,-0.0010825132485479116,-0.0,0.0,0.0,0.0,0.0,0.0,0.0,0.0,0.0,0.0,0.0,0.0,0.0,0.0,0.0,0.0,0.0,0.0,0.0,0.0,0.0,0.0,0.0,1.643945336341858,-0.015059914069421714,-0.06837998096062091,0.029534696381868886,0.004288168158382177,0.00516276340931654,0.0
474,5,-1.931088263518177e-05,8.191396773327142e-06,9.208228584611788e-05,-0.0011833657044917345,-0.000623112078756094,-0.005208528134971857,0.0,0.0,0.0,0.0,0.0,0.0,0.0,0.0,0.0,0.0016942857764661312,-0.0010825132485479116,-0.0,0.0,0.0,0.0,0.0,0.0,0.0,0.0,0.0,0.0,0.0,0.0,0.0,0.0,0.0,0.0,0.0,0.0,0.0,0.0,0.0,0.0,0.0,1.643945336341858,-0.015093249992006287,-0.0683233627171251,0.029560288441246977,0.004288168158382177,0.00516276340931654,0.0
479,5,-2.6853527742787264e-05,1.6083095033536665e-05,0.00010838331218110397,-0.0013784636976197362,-0.0011962485732510686,-0.004039534367620945,0.0,0.0,0.0,0.0,0.0,0.0,0.0,0.0,0.0,0.001501541119068861,-0.0013350367080420256,-0.0,0.0,0.0,0.0,0.0,0.0,0.0,0.0,0.0,0.0,0.0,0.0,0.0,0.0,0.0,0.0,0.0,0.0,0.0,0.0,0.0,0.0,0.0,1.6447162628173828,-0.014999786652739643,-0.06797812022405934,0.029436851963956113,0.00529097206890583,0.004577585496008396,0.0
484,5,-6.217551708687097e-05,2.1584586647804826e-05,0.00012639818305615336,-0.004790024366229773,-0.0011386784026399255,-0.0037775980308651924,0.0,0.0,0.0,0.0,0.0,0.0,0.0,0.0,0.0,0.001501541119068861,-0.0013350367080420256,-0.0,0.0,0.0,0.0,0.0,0.0,0.0,0.0,0.0,0.0,0.0,0.0,0.0,0.0,0.0,0.0,0.0,0.0,0.0,0.0,0.0,0.0,0.0,1.6447162628173828,-0.014618789860680981,-0.06801834681406865,0.029448560386210628,0.00529097206890583,0.004577585496008396,0.0
490,5,-6.944475171621889e-05,4.276308391126804e-05,0.00016785225307103246,-0.002788317622616887,-0.0029968912713229656,-0.006485528312623501,0.0,0.0,0.0,0.0,0.0,0.0,0.0,0.0,0.0,0.003711249679327011,-0.0026895359624177217,-0.0,0.0,0.0,0.0,0.0,0.0,0.0,0.0,0.0,0.0,0.0,0.0,0.0,0.0,0.0,0.0,0.0,0.0,0.0,0.0,0.0,0.0,0.0,1.6683882474899292,-0.014128311914906403,-0.06856610685098405,0.030028456664132234,0.010812419466674328,0.01147688552737236,0.0
495,5,-8.059718675212935e-05,4.4011976569890976e-05,0.0001418886095052585,-0.0024536196142435074,-0.0013486234238371253,0.0005214264965616167,0.0,0.0,0.0,0.0,0.0,0.0,0.0,0.0,0.0,0.003711249679327011,-0.0026895359624177217,-0.0,0.0,0.0,0.0,0.0,0.0,0.0,0.0,0.0,0.0,0.0,0.0,0.0,0.0,0.0,0.0,0.0,0.0,0.0,0.0,0.0,0.0,0.0,1.6683882474899292,-0.017261948078801746,-0.0692624362441667,0.028669506489675527,0.010812419466674328,0.01147688552737236,0.0
500,5,-1.9067647372139618e-05,5.854192750121001e-06,3.9287886465899646e-05,0.006402097176760435,0.004039484541863203,0.012520656920969486,0.0,0.0,0.0,0.0,0.0,0.0,0.0,0.0,0.0,0.003711249679327011,-0.0026895359624177217,-0.0,0.0,0.0,0.0,0.0,0.0,0.0,0.0,0.0,0.0,0.0,0.0,0.0,0.0,0.0,0.0,0.0,0.0,0.0,0.0,0.0,0.0,0.0,1.6683882474899292,-0.014781864569469625,-0.06857011799415409,0.029511510510696788,0.010812419466674328,0.01147688552737236,0.0
505,5,-2.716380731726531e-05,-4.2889320184258395e-07,2.5336443286505528e-05,0.0015892995288595557,0.0023697642609477043,0.006682435981929302,0.0,0.0,0.0,0.0,0.0,0.0,0.0,0.0,0.0,-0.004790447186678648,0.005834704264998436,-0.0,0.0,0.0,0.0,0.0,0.0,0.0,0.0,0.0,0.0,0.0,0.0,0.0,0.0,0.0,0.0,0.0,0.0,0.0,0.0,0.0,0.0,0.0,1.7019813060760498,-0.014655435431505543,-0.0683301947852149,0.029200303265203422,-0.023928644135594368,-0.015112502500414848,0.0
510,5,-9.461879926675465e-06,-1.1653379260678776e-05,1.3683566976396833e-05,0.002759951166808605,0.002294844016432762,0.004071319475769997,0.0,0.0,0.0,0.0,0.0,0.0,0.0,0.0,0.0,-0.004790447186678648,0.005834704264998436,-0.0,0.0,0.0,0.0,0.0,0.0,0.0,0.0,0.0,0.0,0.0,0.0,0.0,0.0,0.0,0.0,0.0,0.0,0.0,0.0,0.0,0.0,0.0,1.7019813060760498,-0.014725979750084392,-0.0679261876935751,0.029160585040955082,-0.023928644135594368,-0.015112502500414848,0.0
515,5,3.1287327146856114e-06,-6.804420991102234e-07,6.912728167662863e-06,0.002614854136481881,-0.00039881488191895187,0.0024410285986959934,0.0,0.0,0.0,0.0,0.0,0.0,0.0,0.0,0.0,-0.002812831662595272,0.002577411010861397,-0.0,0.0,0.0,0.0,0.0,0.0,0.0,0.0,0.0,0.0,0.0,0.0,0.0,0.0,0.0,0.0,0.0,0.0,0.0,0.0,0.0,0.0,0.0,1.6622225046157837,-0.014928993074034443,-0.0675732061282355,0.02904530593762431,-0.010323395021259785,-0.00866643339395523,0.0
520,5,4.2709484660008457e-07,-7.1367444434145e-06,1.6587096979492344e-05,0.0007217450765892863,0.0006152303540147841,-0.00018451287178322673,0.0,0.0,0.0,0.0,0.0,0.0,0.0,0.0,0.0,-0.002812831662595272,0.002577411010861397,-0.0,0.0,0.0,0.0,0.0,0.0,0.0,0.0,0.0,0.0,0.0,0.0,0.0,0.0,0.0,0.0,0.0,0.0,0.0,0.0,0.0,0.0,0.0,1.6622225046157837,-0.014400085286970243,-0.0674116996792883,0.029151968660194986,-0.010323395021259785,-0.00866643339395523,0.0
525,5,1.961877387657296e-05,-6.090570423111785e-06,2.597742059151642e-05,0.002591699594631791,0.00012055123806931078,-0.0012006440665572882,0.0,0.0,0.0,0.0,0.0,0.0,0.0,0.0,0.0,-0.0007728946511633694,0.0006938612787052989,-0.0,0.0,0.0,0.0,0.0,0.0,0.0,0.0,0.0,0.0,0.0,0.0,0.0,0.0,0.0,0.0,0.0,0.0,0.0,0.0,0.0,0.0,0.0,1.6355189085006714,-0.015133996142154283,-0.06762610109219623,0.02906862514930359,-0.0027345127891749144,-0.0023430651053786278,0.0
530,5,2.502173447282985e-05,2.7615897124633193e-06,-6.4882051447057165e-06,0.0016850350657477975,-0.0010140386875718832,0.0034156176261603832,0.0,0.0,0.0,0.0,0.0,0.0,0.0,0.0,0.0,-0.0007728946511633694,0.0006938612787052989,-0.0,0.0,0.0,0.0,0.0,0.0,0.0,0.0,0.0,0.0,0.0,0.0,0.0,0.0,0.0,0.0,0.0,0.0,0.0,0.0,0.0,0.0,0.0,1.6355189085006714,-0.015748833575359802,-0.06719901819101427,0.028858575936380824,-0.0027345127891749144,-0.0023430651053786278,0.0
536,5,6.498495349660516e-05,-3.2772629765531747e-06,-5.943755604675971e-05,0.0054696002043783665,0.000319046841468662,0.007720169145613909,0.0,0.0,0.0,0.0,0.0,0.0,0.0,0.0,0.0,-0.0003884214675053954,0.005154503975063562,-0.0,0.0,0.0,0.0,0.0,0.0,0.0,0.0,0.0,0.0,0.0,0.0,0.0,0.0,0.0,0.0,0.0,0.0,0.0,0.0,0.0,0.0,0.0,1.6822489500045776,-0.016831628162964005,-0.06732471894082781,0.028881772412545987,-0.020894264802336693,-0.001211161375977099,0.0
541,5,7.751771772745997e-05,1.3674909496330656e-05,-0.0001097017084248364,0.0036917722318321466,-0.0019066419918090105,0.00911976583302021,0.0,0.0,0.0,0.0,0.0,0.0,0.0,0.0,0.0,-0.0003884214675053954,0.005154503975063562,-0.0,0.0,0.0,0.0,0.0,0.0,0.0,0.0,0.0,0.0,0.0,0.0,0.0,0.0,0.0,0.0,0.0,0.0,0.0,0.0,0.0,0.0,0.0,1.6822489500045776,-0.017456064138634028,-0.06721050768007927,0.028568782706551686,-0.020894264802336693,-0.001211161375977099,0.0
546,5,8.826885459711775e-05,2.2848336811875924e-05,-0.00015422551950905472,0.002766844816505909,-0.0018634679727256298,0.008990764617919922,0.0,0.0,0.0,0.0,0.0,0.0,0.0,0.0,0.0,0.0023117184173315763,0.0027202789206057787,-0.0,0.0,0.0,0.0,0.0,0.0,0.0,0.0,0.0,0.0,0.0,0.0,0.0,0.0,0.0,0.0,0.0,0.0,0.0,0.0,0.0,0.0,0.0,1.6609503030776978,-0.018367728962336214,-0.06691517930668525,0.028466395214472712,-0.010887302458286285,0.007117039989680052,0.0
551,5,0.0001669994235271588,2.5556970285833813e-05,-0.00027528416831046343,0.01055440679192543,-0.0010704232845455408,0.018123341724276543,0.0,0.0,0.0,0.0,0.0,0.0,0.0,0.0,0.0,0.0023117184173315763,0.0027202789206057787,-0.0,0.0,0.0,0.0,0.0,0.0,0.0,0.0,0.0,0.0,0.0,0.0,0.0,0.0,0.0,0.0,0.0,0.0,0.0,0.0,0.0,0.0,0.0,1.6609503030776978,-0.018845014272413523,-0.06589616094731604,0.028283662158648828,-0.010887302458286285,0.007117039989680052,0.0
556,5,0.00019513932056725025,2.86487556877546e-05,-0.00031702403794042766,0.007598549127578735,-0.0007991836173459888,0.012258120812475681,0.0,0.0,0.0,0.0,0.0,0.0,0.0,0.0,0.0,0.0009987433440983295,0.00719977542757988,-0.0,0.0,0.0,0.0,0.0,0.0,0.0,0.0,0.0,0.0,0.0,0.0,0.0,0.0,0.0,0.0,0.0,0.0,0.0,0.0,0.0,0.0,0.0,1.7058725357055664,-0.019142937557758227,-0.06578604175418847,0.028712375978631542,-0.0295946653932333,0.0031579763162881136,0.0
561,5,0.000255536288022995,2.9186372557887807e-05,-0.0003967373340856284,0.010287058539688587,-0.0003841873840428889,0.014468845911324024,0.0,0.0,0.0,0.0,0.0,0.0,0.0,0.0,0.0,0.0009987433440983295,0.00719977542757988,-0.0,0.0,0.0,0.0,0.0,0.0,0.0,0.0,0.0,0.0,0.0,0.0,0.0,0.0,0.0,0.0,0.0,0.0,0.0,0.0,0.0,0.0,0.0,1.7058725357055664,-0.019259771300139443,-0.06489491793922698,0.028653593669082503,-0.0295946653932333,0.0031579763162881136,0.0
566,5,0.0002381693193456158,1.593614615558181e-05,-0.0004152830224484205,0.002030785195529461,0.001436352264136076,0.00801301933825016,0.0,0.0,0.0,0.0,0.0,0.0,0.0,0.0,0.0,0.0009987433440983295,0.00719977542757988,-0.0,0.0,0.0,0.0,0.0,0.0,0.0,0.0,0.0,0.0,0.0,0.0,0.0,0.0,0.0,0.0,0.0,0.0,0.0,0.0,0.0,0.0,0.0,1.7058725357055664,-0.01875434088863242,-0.06503405324356533,0.028356871390610588,-0.0295946653932333,0.0031579763162881136,0.0
571,5,0.0001333906693616882,2.0395720639498904e-05,-0.0002550340141169727,-0.01176112424582243,3.9392012695316225e-05,-0.016024671494960785,0.0,0.0,0.0,0.0,0.0,0.0,0.0,0.0,0.0,-0.0017272497061640024,0.002246494172140956,-0.0,0.0,0.0,0.0,0.0,0.0,0.0,0.0,0.0,0.0,0.0,0.0,0.0,0.0,0.0,0.0,0.0,0.0,0.0,0.0,0.0,0.0,0.0,1.6539207696914673,-0.02383430606587987,-0.06574695037310817,0.02634806644299811,-0.008953047916293144,-0.005295146722346544,0.0
576,5,0.00019522944057825953,4.658718899008818e-05,-0.0002725195081438869,0.002716202987357974,-0.003127219621092081,-0.004311608150601387,0.0,0.0,0.0,0.0,0.0,0.0,0.0,0.0,0.0,-0.0017272497061640024,0.002246494172140956,-0.0,0.0,0.0,0.0,0.0,0.0,0.0,0.0,0.0,0.0,0.0,0.0,0.0,0.0,0.0,0.0,0.0,0.0,0.0,0.0,0.0,0.0,0.0,1.6539207696914673,-0.024873308250094064,-0.06598170783793926,0.02712778554193354,-0.008953047916293144,-0.005295146722346544,0.0
581,5,0.00018541044846642762,3.4961332858074456e-05,-0.00030365094426088035,-9.17974321055226e-05,0.00014421489322558045,0.0020111282356083393,0.0,0.0,0.0,0.0,0.0,0.0,0.0,0.0,0.0,0.003871848341077566,0.002804652089253068,-0.0,0.0,0.0,0.0,0.0,0.0,0.0,0.0,0.0,0.0,0.0,0.0,0.0,0.0,0.0,0.0,0.0,0.0,0.0,0.0,0.0,0.0,0.0,1.6702646017074585,-0.024984414730741006,-0.0662617195072843,0.02708880630408889,-0.011287879198789597,0.0119869913905859,0.0
586,5,0.0001715726248221472,5.091066486784257e-05,-0.00028733364888466895,-0.0016972580924630165,-0.0018562338082119823,-0.0011536239180713892,0.0,0.0,0.0,0.0,0.0,0.0,0.0,0.0,0.0,0.003871848341077566,0.002804652089253068,-0.0,0.0,0.0,0.0,0.0,0.0,0.0,0.0,0.0,0.0,0.0,0.0,0.0,0.0,0.0,0.0,0.0,0.0,0.0,0.0,0.0,0.0,0.0,1.6702646017074585,-0.023808779655155595,-0.0659946715289945,0.026945938523472702,-0.011287879198789597,0.0119869913905859,0.0
591,5,0.0001985344715649262,3.8633705116808414e-05,-0.0003617005713749677,0.0025565193500369787,0.0007307417108677328,0.008462578989565372,0.0,0.0,0.0,0.0,0.0,0.0,0.0,0.0,0.0,0.002368503250181675,-0.001356021617539227,-0.0,0.0,0.0,0.0,0.0,0.0,0.0,0.0,0.0,0.0,0.0,0.0,0.0,0.0,0.0,0.0,0.0,0.0,0.0,0.0,0.0,0.0,0.0,1.6502195596694946,-0.025125169931282665,-0.06562310423234836,0.026859143857821774,0.005392111837863922,0.007244751788675785,0.0
596,5,0.000204641924938187,4.7362238547066227e-05,-0.0003347644815221429,0.001755501376464963,-0.0007551272865384817,0.00015270401490852237,0.0,0.0,0.0,0.0,0.0,0.0,0.0,0.0,0.0,0.002368503250181675,-0.001356021617539227,-0.0,0.0,0.0,0.0,0.0,0.0,0.0,0.0,0.0,0.0,0.0,0.0,0.0,0.0,0.0,0.0,0.0,0.0,0.0,0.0,0.0,0.0,0.0,1.6502195596694946,-0.02505619964563725,-0.06580076655869008,0.027061387665366924,0.005392111837863922,0.007244751788675785,0.0
601,5,0.00021038309205323458,3.225315231247805e-05,-0.0003715424973051995,0.0013911400455981493,0.001511039212346077,0.004474441986531019,0.0,0.0,0.0,0.0,0.0,0.0,0.0,0.0,0.0,0.0010134029434993863,0.0019482753705233335,-0.0,0.0,0.0,0.0,0.0,0.0,0.0,0.0,0.0,0.0,0.0,0.0,0.0,0.0,0.0,0.0,0.0,0.0,0.0,0.0,0.0,0.0,0.0,1.6483358144760132,-0.02464399824679488,-0.06510949246127849,0.02678478304069188,-0.007738333661109209,0.003096251981332898,0.0
606,5,0.00021689524874091148,5.0113983888877556e-05,-0.00034578991471789777,0.0013379150768741965,-0.0015388838946819305,-0.0013005331857129931,0.0,0.0,0.0,0.0,0.0,0.0,0.0,0.0,0.0,0.0010134029434993863,0.0019482753705233335,-0.0,0.0,0.0,0.0,0.0,0.0,0.0,0.0,0.0,0.0,0.0,0.0,0.0,0.0,0.0,0.0,0.0,0.0,0.0,0.0,0.0,0.0,0.0,1.6483358144760132,-0.025225590918587285,-0.06575874904933669,0.027156807606952906,-0.007738333661109209,0.003096251981332898,0.0
611,5,0.00023692323884461075,3.9394853956764564e-05,-0.00037013256223872304,0.0029385245870798826,0.0006707418942824006,0.002400903031229973,0.0,0.0,0.0,0.0,0.0,0.0,0.0,0.0,0.0,0.001979217166081071,0.0015702566597610712,-0.0,0.0,0.0,0.0,0.0,0.0,0.0,0.0,0.0,0.0,0.0,0.0,0.0,0.0,0.0,0.0,0.0,0.0,0.0,0.0,0.0,0.0,0.0,1.6493030786514282,-0.023982588260036287,-0.06547163860210255,0.02729291723112677,-0.006240537390112877,0.006050649099051952,0.0
617,5,0.0002463158161845058,3.363203359185718e-05,-0.000378756521968171,0.0023025195114314556,0.0009598354226909578,0.00199523800984025,0.0,0.0,0.0,0.0,0.0,0.0,0.0,0.0,0.0,0.001979217166081071,0.0015702566597610712,-0.0,0.0,0.0,0.0,0.0,0.0,0.0,0.0,0.0,0.0,0.0,0.0,0.0,0.0,0.0,0.0,0.0,0.0,0.0,0.0,0.0,0.0,0.0,1.6493030786514282,-0.022960513428613365,-0.06516110992349512,0.027694365542104516,-0.006240537390112877,0.006050649099051952,0.0
622,5,0.0002794430183712393,3.039582043129485e-05,-0.00045514453086070716,0.004896271973848343,0.0007722795708104968,0.0099646570160985,0.0,0.0,0.0,0.0,0.0,0.0,0.0,0.0,0.0,-0.0011120183626189828,0.002513581421226263,-0.0,0.0,0.0,0.0,0.0,0.0,0.0,0.0,0.0,0.0,0.0,0.0,0.0,0.0,0.0,0.0,0.0,0.0,0.0,0.0,0.0,0.0,0.0,1.6544145345687866,-0.02333711272079811,-0.0649418406516089,0.027633440610125556,-0.010020478628575802,-0.003410081146284938,0.0
627,5,0.00019521586364135146,3.7173551390878856e-05,-0.0003019674913957715,-0.008148749358952045,-0.000504415831528604,-0.014395383186638355,0.0,0.0,0.0,0.0,0.0,0.0,0.0,0.0,0.0,-0.0011120183626189828,0.002513581421226263,-0.0,0.0,0.0,0.0,0.0,0.0,0.0,0.0,0.0,0.0,0.0,0.0,0.0,0.0,0.0,0.0,0.0,0.0,0.0,0.0,0.0,0.0,0.0,1.6544145345687866,-0.024751099194154153,-0.06558208309631401,0.027044572347279996,-0.010020478628575802,-0.003410081146284938,0.0
632,5,0.00020322667842265218,3.706891220645048e-05,-0.00032359178294427693,-0.002298202598467469,-0.00018920956063084304,-0.003163236193358898,0.0,0.0,0.0,0.0,0.0,0.0,0.0,0.0,0.0,0.0006645404500886798,-0.00716774258762598,-0.0,0.0,0.0,0.0,0.0,0.0,0.0,0.0,0.0,0.0,0.0,0.0,0.0,0.0,0.0,0.0,0.0,0.0,0.0,0.0,0.0,0.0,0.0,1.7052435874938965,-0.02572353407937937,-0.06593269734737603,0.027140935763190058,0.029452145099639893,0.002100469311699271,0.0
637,5,0.00019115862960461527,4.9537895392859355e-05,-0.0003098567540291697,-0.002367447130382061,-0.0015719617949798703,-0.0029135013464838266,0.0,0.0,0.0,0.0,0.0,0.0,0.0,0.0,0.0,0.0006645404500886798,-0.00716774258762598,-0.0,0.0,0.0,0.0,0.0,0.0,0.0,0.0,0.0,0.0,0.0,0.0,0.0,0.0,0.0,0.0,0.0,0.0,0.0,0.0,0.0,0.0,0.0,1.7052435874938965,-0.024761814298687033,-0.06600747922163591,0.02730278499873018,0.029452145099639893,0.002100469311699271,0.0
642,5,0.00016413076082244515,3.540730904205702e-05,-0.00032221904257312417,-0.004190323408693075,0.0010668853064998984,0.0003180756466463208,0.0,0.0,0.0,0.0,0.0,0.0,0.0,0.0,0.0,0.0020147699397057295,-0.0019571136217564344,-0.0,0.0,0.0,0.0,0.0,0.0,0.0,0.0,0.0,0.0,0.0,0.0,0.0,0.0,0.0,0.0,0.0,0.0,0.0,0.0,0.0,0.0,0.0,1.6526789665222168,-0.02566245568852209,-0.06573938212694568,0.026255667690591004,0.007793908007442951,0.006171944085508585,0.0
647,5,0.00017477935762144625,2.3513004634878598e-05,-0.0003290743625257164,-0.00039829639717936516,0.0018540709279477596,0.0009498682920821011,0.0,0.0,0.0,0.0,0.0,0.0,0.0,0.0,0.0,0.0020147699397057295,-0.0019571136217564344,-0.0,0.0,0.0,0.0,0.0,0.0,0.0,0.0,0.0,0.0,0.0,0.0,0.0,0.0,0.0,0.0,0.0,0.0,0.0,0.0,0.0,0.0,0.0,1.6526789665222168,-0.025003162443577955,-0.06564581956566383,0.026217139674404366,0.007793908007442951,0.006171944085508585,0.0
652,5,0.00015700087533332407,3.259268487454392e-05,-0.0003134102444164455,-0.0007785329944454134,0.0005250695976428688,-0.00011733492283383384,0.0,0.0,0.0,0.0,0.0,0.0,0.0,0.0,0.0,-0.0022372703533619642,-0.0001259594428120181,-0.0,0.0,0.0,0.0,0.0,0.0,0.0,0.0,0.0,0.0,0.0,0.0,0.0,0.0,0.0,0.0,0.0,0.0,0.0,0.0,0.0,0.0,0.0,1.6442859172821045,-0.025225734515489946,-0.06600886173850125,0.026122173883168658,0.0004990670713596046,-0.006818733178079128,0.0
657,5,0.0002184120094170794,4.364456981420517e-05,-0.0003282437683083117,0.007057923823595047,-0.0011161983711645007,0.0017330904956907034,0.0,0.0,0.0,0.0,0.0,0.0,0.0,0.0,0.0,-0.0022372703533619642,-0.0001259594428120181,-0.0,0.0,0.0,0.0,0.0,0.0,0.0,0.0,0.0,0.0,0.0,0.0,0.0,0.0,0.0,0.0,0.0,0.0,0.0,0.0,0.0,0.0,0.0,1.6442859172821045,-0.025077666715309678,-0.06547852106153586,0.026870855313119522,0.0004990670713596046,-0.006818733178079128,0.0
663,5,0.00020407118427101523,3.710350574692711e-05,-0.00032348354579880834,0.0011022695107385516,0.0003384482697583735,0.0001220071644638665,0.0,0.0,0.0,0.0,0.0,0.0,0.0,0.0,0.0,0.0014049946330487728,0.006757499650120735,-0.0,0.0,0.0,0.0,0.0,0.0,0.0,0.0,0.0,0.0,0.0,0.0,0.0,0.0,0.0,0.0,0.0,0.0,0.0,0.0,0.0,0.0,0.0,1.7013152837753296,-0.024902546249902825,-0.06619583832442587,0.027284164513830745,-0.02770250290632248,0.004430653061717749,0.0
668,5,0.00021623783686663955,4.2504991142777726e-05,-0.0003317218506708741,0.0019009073730558157,-0.0005127987824380398,0.001037401962094009,0.0,0.0,0.0,0.0,0.0,0.0,0.0,0.0,0.0,0.0014049946330487728,0.006757499650120735,-0.0,0.0,0.0,0.0,0.0,0.0,0.0,0.0,0.0,0.0,0.0,0.0,0.0,0.0,0.0,0.0,0.0,0.0,0.0,0.0,0.0,0.0,0.0,1.7013152837753296,-0.024890214241613553,-0.0655954860743716,0.026821024173720842,-0.02770250290632248,0.004430653061717749,0.0
673,5,0.00021623783686663955,4.2504991142777726e-05,-0.0003317218506708741,0.0019009073730558157,-0.0005127987824380398,0.001037401962094009,0.0,0.0,0.0,0.0,0.0,0.0,0.0,0.0,0.0,0.0007072124280966818,0.0021018912084400654,-0.0,0.0,0.0,0.0,0.0,0.0,0.0,0.0,0.0,0.0,0.0,0.0,0.0,0.0,0.0,0.0,0.0,0.0,0.0,0.0,0.0,0.0,0.0,1.64912748336792,-0.024890214241613553,-0.0655954860743716,0.026821024173720842,-0.0083524901419878,0.0021617854945361614,0.0
678,5,0.0002039390237769112,4.33284294558689e-05,-0.0003101922629866749,-0.00028699557879008353,-0.0005428965669125319,-0.001222772989422083,0.0,0.0,0.0,0.0,0.0,0.0,0.0,0.0,0.0,0.0007535216864198446,2.0578954718075693e-05,-0.0,0.0,0.0,0.0,0.0,0.0,0.0,0.0,0.0,0.0,0.0,0.0,0.0,0.0,0.0,0.0,0.0,0.0,0.0,0.0,0.0,0.0,0.0,1.6319373846054077,-0.025271871387795273,-0.06559928019518212,0.02697762178464596,-8.092423377092928e-05,0.0022793328389525414,0.0
683,5,0.0001860424963524565,2.933984433184378e-05,-0.000326888490235433,-0.002262381836771965,0.001461471663787961,0.0015144369099289179,0.0,0.0,0.0,0.0,0.0,0.0,0.0,0.0,0.0,0.0007535216864198446,2.0578954718075693e-05,-0.0,0.0,0.0,0.0,0.0,0.0,0.0,0.0,0.0,0.0,0.0,0.0,0.0,0.0,0.0,0.0,0.0,0.0,0.0,0.0,0.0,0.0,0.0,1.6319373846054077,-0.024233610542385754,-0.06553114599757545,0.02710078843355351,-8.092423377092928e-05,0.0022793328389525414,0.0
688,5,0.00020051475439686328,4.0891816752264276e-05,-0.0003320570685900748,0.0008317181491293013,-0.0008016478386707604,0.0012260060757398605,0.0,0.0,0.0,0.0,0.0,0.0,0.0,0.0,0.0,0.0007535216864198446,2.0578954718075693e-05,-0.0,0.0,0.0,0.0,0.0,0.0,0.0,0.0,0.0,0.0,0.0,0.0,0.0,0.0,0.0,0.0,0.0,0.0,0.0,0.0,0.0,0.0,0.0,1.6319373846054077,-0.024015876183683484,-0.06572019332813944,0.027414735581653263,-8.092423377092928e-05,0.0022793328389525414,0.0
693,5,0.0002293963189003989,4.7823687054915354e-05,-0.0003556231677066535,0.003798475954681635,-0.0011524839792400599,0.0033183309715241194,0.0,0.0,0.0,0.0,0.0,0.0,0.0,0.0,0.0,0.0010644897120073438,0.0010773076210170984,-0.0,0.0,0.0,0.0,0.0,0.0,0.0,0.0,0.0,0.0,0.0,0.0,0.0,0.0,0.0,0.0,0.0,0.0,0.0,0.0,0.0,0.0,0.0,1.6402543783187866,-0.023830223801069035,-0.06545860922532196,0.027531390249812035,-0.004257969092577696,0.0032363918144255877,0.0
698,5,0.00024933312670327723,4.5761411456624046e-05,-0.00038909786962904036,0.003911806270480156,-0.0002135204995283857,0.005344296805560589,0.0,0.0,0.0,0.0,0.0,0.0,0.0,0.0,0.0,0.0010644897120073438,0.0010773076210170984,-0.0,0.0,0.0,0.0,0.0,0.0,0.0,0.0,0.0,0.0,0.0,0.0,0.0,0.0,0.0,0.0,0.0,0.0,0.0,0.0,0.0,0.0,0.0,1.6402543783187866,-0.02366612497725136,-0.06529912054789945,0.027616339988537887,-0.004257969092577696,0.0032363918144255877,0.0
703,5,0.00020174571545794606,3.5590986954048276e-05,-0.0003369099576957524,-0.0041457656770944595,0.0011350431013852358,-0.0041248309426009655,0.0,0.0,0.0,0.0,0.0,0.0,0.0,0.0,0.0,-0.0013130378210917115,-0.0035866224206984043,-0.0,0.0,0.0,0.0,0.0,0.0,0.0,0.0,0.0,0.0,0.0,0.0,0.0,0.0,0.0,0.0,0.0,0.0,0.0,0.0,0.0,0.0,0.0,1.6662102937698364,-0.025687070393659167,-0.06596956328858045,0.026812836668206178,0.014400118961930275,-0.004055229015648365,0.0
708,5,0.0002115605166181922,3.970781108364463e-05,-0.0003035272820852697,-0.0004805296193808317,-4.000204353360459e-05,-0.005655852146446705,0.0,0.0,0.0,0.0,0.0,0.0,0.0,0.0,0.0,-0.0013130378210917115,-0.0035866224206984043,-0.0,0.0,0.0,0.0,0.0,0.0,0.0,0.0,0.0,0.0,0.0,0.0,0.0,0.0,0.0,0.0,0.0,0.0,0.0,0.0,0.0,0.0,0.0,1.6662102937698364,-0.024675570638749464,-0.0654984993870485,0.027229611885929633,0.014400118961930275,-0.004055229015648365,0.0
713,5,0.00020523578859865665,4.016527600469999e-05,-0.0003208956914022565,-0.0009511804091744125,-7.089638529578224e-05,-0.00017813286103773862,0.0,0.0,0.0,0.0,0.0,0.0,0.0,0.0,0.0,0.0001627171441214159,-0.0006102751940488815,-0.0,0.0,0.0,0.0,0.0,0.0,0.0,0.0,0.0,0.0,0.0,0.0,0.0,0.0,0.0,0.0,0.0,0.0,0.0,0.0,0.0,0.0,0.0,1.6323977708816528,-0.025314670368214214,-0.0659813613969086,0.02707070215002022,0.0024005104787647724,0.0004923430969938636,0.0
719,5,0.00021585602371487767,3.3464806620031595e-05,-0.00034046731889247894,0.0008939558756537735,0.0007756978739053011,0.0022773421369493008,0.0,0.0,0.0,0.0,0.0,0.0,0.0,0.0,0.0,0.0001627171441214159,-0.0006102751940488815,-0.0,0.0,0.0,0.0,0.0,0.0,0.0,0.0,0.0,0.0,0.0,0.0,0.0,0.0,0.0,0.0,0.0,0.0,0.0,0.0,0.0,0.0,0.0,1.6323977708816528,-0.0253308550363585,-0.06576187299295362,0.027157643010077944,0.0024005104787647724,0.0004923430969938636,0.0
724,5,0.00021383909916039556,3.7847537896595895e-05,-0.00033256635651923716,0.00011555220407899469,-0.00021564887720160186,-3.7176054320298135e-05,0.0,0.0,0.0,0.0,0.0,0.0,0.0,0.0,0.0,0.0003382354916539043,0.0004192728956695646,-0.0,0.0,0.0,0.0,0.0,0.0,0.0,0.0,0.0,0.0,0.0,0.0,0.0,0.0,0.0,0.0,0.0,0.0,0.0,0.0,0.0,0.0,0.0,1.6310105323791504,-0.02509807499044188,-0.06556683646215916,0.02711332708194072,-0.0016478034667670727,0.0010225498117506504,0.0
729,5,0.00021153110719751567,3.3270018320763484e-05,-0.00035383724025450647,-0.0002307376853423193,0.0004630429612006992,0.0025376337580382824,0.0,0.0,0.0,0.0,0.0,0.0,0.0,0.0,0.0,0.0003382354916539043,0.0004192728956695646,-0.0,0.0,0.0,0.0,0.0,0.0,0.0,0.0,0.0,0.0,0.0,0.0,0.0,0.0,0.0,0.0,0.0,0.0,0.0,0.0,0.0,0.0,0.0,1.6310105323791504,-0.025292999741920782,-0.06528652093188124,0.026857786703649866,-0.0016478034667670727,0.0010225498117506504,0.0
734,5,0.00019956842879764736,3.3437961974414065e-05,-0.00034028408117592335,-0.0015278174541890621,0.00016506387328263372,-0.0006113231647759676,0.0,0.0,0.0,0.0,0.0,0.0,0.0,0.0,0.0,-0.00014136027311906219,-0.0011633916292339563,-0.0,0.0,0.0,0.0,0.0,0.0,0.0,0.0,0.0,0.0,0.0,0.0,0.0,0.0,0.0,0.0,0.0,0.0,0.0,0.0,0.0,0.0,0.0,1.6382609605789185,-0.024949530358386072,-0.06609965428807725,0.027358682777500587,0.004592623095959425,-0.0004292585945222527,0.0
