timestamp,dt,pos_x,pos_y,pos_z,vel_x,vel_y,vel_z,roll,pitch,yaw,agv_x,agv_y,agv_z,x_ref,y_ref,z_ref,roll_ref,pitch_ref,yaw_ref,x_vel_ref,y_vel_ref,z_vel_ref,x_torque,y_torque,z_torque,w0,w1,w2,w3,u0,u1,u2,u3,m0req,m1req,m2req,m3req,thrust0,thrust1,thrust2,thrust3,thrust_ref,roll_vicon,pitch_vicon,yaw_vicon,acc_x,acc_y,acc_z
5,5,0.0,0.0,0.0,0.0011797946644946933,-0.0009970251703634858,0.0059896535240113735,0.007499323692172766,0.10218565911054611,0.002849553944543004,0.0002900861145462841,-0.011313041672110558,0.0016858974704518914,0.0,0.0,0.0,0.0012288514990359545,0.0011185531038790941,-0.0,0.0,0.0,0.0,-0.0018696822226047516,-0.030509617179632187,0.0003625884710345417,1495.0,1495.0,1495.0,1495.0,0.0,0.0,0.0,0.0,0.0,0.0,0.0,0.0,1495.0,1495.0,1495.0,1495.0,1.641457438468933,3.076556489212958,0.267286761531409,1.7095102585069433,-0.004424230195581913,0.0037388443015515804,0.0
33,28,0.0,0.0,0.0,-0.0009360886760987341,0.0014988596085458994,0.003887791186571121,0.007499323692172766,0.10218565911054611,0.002849553944543004,0.0002900861145462841,-0.011313041672110558,0.0016858974704518914,0.0,0.0,0.0,0.0012288514990359545,0.0011185531038790941,-0.0,0.0,0.0,0.0,-0.0018696822226047516,-0.030509617179632187,0.0003625884710345417,1495.0,1495.0,1495.0,1495.0,0.0,0.0,0.0,0.0,0.0,0.0,0.0,0.0,1495.0,1495.0,1495.0,1495.0,1.641457438468933,3.0768582420692225,0.2674513917116838,1.7094551008203986,-0.004424230195581913,0.0037388443015515804,0.0
38,5,0.0,0.0,0.0,0.0028663051780313253,0.0032274359837174416,0.008003488183021545,0.007508817128837109,0.10232429206371307,0.0028257258236408234,0.000505819683894515,-0.01113085076212883,-0.0007147575379349291,0.0,0.0,0.0,-0.0018448333721607924,-0.000886278401594609,-0.0,0.0,0.0,0.0,-0.001897715381346643,-0.030731089413166046,0.0002507723984308541,1495.0,1495.0,1495.0,1495.0,0.0,0.0,0.0,0.0,0.0,0.0,0.0,0.0,1495.0,1495.0,1495.0,1495.0,1.6437166929244995,3.0778337651767727,0.26902031835468887,1.708559330031731,0.0035103324335068464,-0.005620723590254784,0.0
43,5,0.0,0.0,0.0,-0.0012423477601259947,0.0003321008989587426,0.0006902480963617563,0.007508817128837109,0.10232429206371307,0.0028257258236408234,0.000505819683894515,-0.01113085076212883,-0.0007147575379349291,0.0,0.0,0.0,-0.0018448333721607924,-0.000886278401594609,-0.0,0.0,0.0,0.0,-0.001897715381346643,-0.030731089413166046,0.0002507723984308541,1495.0,1495.0,1495.0,1495.0,0.0,0.0,0.0,0.0,0.0,0.0,0.0,0.0,1495.0,1495.0,1495.0,1495.0,1.6437166929244995,3.077267815884715,0.26891276279618426,1.7091549224736116,0.0035103324335068464,-0.005620723590254784,0.0
48,5,0.0,0.0,0.0,-0.003837212920188904,-0.0005055302171967924,-0.008415048941969872,0.007508817128837109,0.10232429206371307,0.0028257258236408234,0.000505819683894515,-0.01113085076212883,-0.0007147575379349291,0.0,0.0,0.0,-0.00040997660835273564,-0.0011797472834587097,-0.0,0.0,0.0,0.0,-0.001897715381346643,-0.030731089413166046,0.0002507723984308541,1495.0,1495.0,1495.0,1495.0,0.0,0.0,0.0,0.0,0.0,0.0,0.0,0.0,1495.0,1495.0,1495.0,1495.0,1.6388293504714966,3.0749967028712324,0.2688230082087831,1.7097411528126945,0.004658804275095463,-0.0012453784001991153,0.0
53,5,0.0,0.0,0.0,-0.003837212920188904,-0.0005055302171967924,-0.008415048941969872,0.007520660758018494,0.1023121103644371,0.0028218028601258993,-0.0002171819214709103,0.007112443447113037,0.0007374688284471631,0.0,0.0,0.0,-0.00040997660835273564,-0.0011797472834587097,-0.0,0.0,0.0,0.0,-0.0019035093719139695,-0.03019115701317787,0.0002578190469648689,11536.0,15649.0,15524.0,10788.0,0.2905285656452179,0.5555221438407898,0.54619961977005,0.25146642327308655,0.0,0.0,0.0,0.0,1495.0,1495.0,1495.0,1495.0,1.6388293504714966,3.0749967028712324,0.2688230082087831,1.7097411528126945,0.004658804275095463,-0.0012453784001991153,0.0
58,5,0.0,0.0,0.0,-0.003837212920188904,-0.0005055302171967924,-0.008415048941969872,0.007520660758018494,0.1023121103644371,0.0028218028601258993,-0.0002171819214709103,0.007112443447113037,0.0007374688284471631,0.0,0.0,0.0,0.0006142618367448449,-0.0035865751560777426,-0.0,0.0,0.0,0.0,-0.0019035093719139695,-0.03019115701317787,0.0002578190469648689,11536.0,15649.0,15524.0,10788.0,0.2905285656452179,0.5555221438407898,0.54619961977005,0.25146642327308655,0.0,0.0,0.0,0.0,1495.0,1495.0,1495.0,1495.0,1.6650080680847168,3.0749967028712324,0.2688230082087831,1.7097411528126945,0.01438954845070839,0.0018957382999360561,0.0
63,5,6.625001697102562e-05,3.93947193515487e-05,-4.997907308279537e-05,0.0032484016846865416,-0.0022926160600036383,0.0009040600270964205,0.0075023118406534195,0.10221341997385025,0.002834723563864827,-0.0035160700790584087,0.003415758488699794,-0.00035016945912502706,0.0,0.0,0.0,0.0006142618367448449,-0.0035865751560777426,-0.0,0.0,0.0,0.0,-0.0028022045735269785,-0.03078165464103222,0.000258014042628929,11448.0,15623.0,15537.0,10803.0,0.28579282760620117,0.553612470626831,0.5472188591957092,0.2522051930427551,0.0,0.0,0.0,0.0,11567.0,15625.0,15543.0,10761.0,1.6650080680847168,3.0771880835135423,0.2675064610175904,1.7087610272918294,0.01438954845070839,0.0018957382999360561,0.0
68,5,5.6296299590030685e-05,2.8029369786963798e-05,-2.2271349735092372e-05,0.0001049148995662108,0.0004467955732252449,-0.002963302657008171,0.007495830301195383,0.10226825624704361,0.0028345459140837193,0.00038900182698853314,-0.01409040205180645,0.0010187006555497646,0.0,0.0,0.0,0.0028521984349936247,0.0031229720916599035,-0.0,0.0,0.0,0.0,-0.0023966811131685972,-0.03141089156270027,0.00031778827542439103,11429.0,15644.0,15574.0,10738.0,0.284790962934494,0.5551553964614868,0.5499653816223145,0.24891768395900726,0.0,0.0,0.0,0.0,11428.0,15635.0,15545.0,10796.0,1.667215347290039,3.076723521723167,0.2667904030124282,1.7090036503171357,-0.012546113692224026,0.008814118802547455,0.0
75,7,3.796745659201406e-05,2.100355050060898e-05,-1.4277274203777779e-05,-0.0021574953570961952,0.0010218163952231407,-0.0021446100436151028,0.007495830301195383,0.10226825624704361,0.0028345459140837193,0.00038900182698853314,-0.01409040205180645,0.0010187006555497646,0.0,0.0,0.0,-0.0012155099539086223,-0.0019830530509352684,-0.0,0.0,0.0,0.0,-0.0023966811131685972,-0.03141089156270027,0.00031778827542439103,11429.0,15644.0,15574.0,10738.0,0.284790962934494,0.5551553964614868,0.5499653816223145,0.24891768395900726,0.0,0.0,0.0,0.0,11428.0,15635.0,15545.0,10796.0,1.6493597030639648,3.0765712357658663,0.2675469708785069,1.7092248624387611,0.007881357334554195,-0.003716056002303958,0.0
81,5,2.455245703458786e-05,2.225852949777618e-05,-2.5288138658652315e-06,-0.0024727981071919203,0.0002581291482783854,-0.0022676594089716673,0.007498834282159805,0.10234689712524414,0.002827360760420561,-0.0004041843640152365,-0.0009890643414109945,0.001793675939552486,0.0,0.0,0.0,-0.00027626845985651016,-0.0022973567247390747,-0.0,0.0,0.0,0.0,-0.0020433422178030014,-0.03192910552024841,0.00021883628505747765,11497.0,15733.0,15713.0,10845.0,0.28844156861305237,0.561854362487793,0.5603688955307007,0.2543432414531708,0.0,0.0,0.0,0.0,11463.0,15759.0,15721.0,10831.0,1.650610327720642,3.076113968061486,0.26669098243699846,1.7097913487323393,0.009137439541518688,-0.0008452485199086368,0.0
91,11,2.785067590593826e-05,-2.1972841750539374e-06,-3.421921792323701e-05,0.001993066631257534,0.0027861411217600107,0.007233523763716221,0.007498834282159805,0.10234689712524414,0.002827360760420561,-0.0004041843640152365,-0.0009890643414109945,0.001793675939552486,0.0,0.0,0.0,-0.00027626845985651016,-0.0022973567247390747,-0.0,0.0,0.0,0.0,-0.0020433422178030014,-0.03192910552024841,0.00021883628505747765,11497.0,15733.0,15713.0,10845.0,0.28844156861305237,0.561854362487793,0.5603688955307007,0.2543432414531708,0.0,0.0,0.0,0.0,11463.0,15759.0,15721.0,10831.0,1.650610327720642,3.0773374680761063,0.2678324164432675,1.7090749027312773,0.009137439541518688,-0.0008452485199086368,0.0
96,5,4.21064360125456e-05,-5.394699655880686e-06,-8.571366925025359e-05,0.0025079180486500263,0.001498146215453744,0.009072743356227875,0.007482924032956362,0.1023084819316864,0.0028242934495210648,0.00043981746421195567,0.013617703691124916,0.00032933696638792753,0.0,0.0,0.0,-0.00027626845985651016,-0.0022973567247390747,-0.0,0.0,0.0,0.0,-0.0013654273934662342,-0.029595881700515747,0.00020357330504339188,11636.0,15571.0,15603.0,11139.0,0.29598960280418396,0.5497064590454102,0.5521000027656555,0.26941928267478943,0.0,0.0,0.0,0.0,11559.0,15644.0,15614.0,10749.0,1.650610327720642,3.077273093929866,0.2681877250540909,1.70866216895659,0.009137439541518688,-0.0008452485199086368,0.0
101,5,-4.658108082367107e-06,6.029381984262727e-05,6.996915999479825e-06,-0.00460857804864645,-0.0072833639569580555,-0.007496172562241554,0.007482924032956362,0.1023084819316864,0.0028242934495210648,0.00043981746421195567,0.013617703691124916,0.00032933696638792753,0.0,0.0,0.0,-0.0018398546380922198,0.002415069378912449,-0.0,0.0,0.0,0.0,-0.0013654273934662342,-0.029595881700515747,0.00020357330504339188,11636.0,15571.0,15603.0,11139.0,0.29598960280418396,0.5497064590454102,0.5521000027656555,0.26941928267478943,0.0,0.0,0.0,0.0,11559.0,15644.0,15614.0,10749.0,1.655994176864624,3.0752599897925865,0.2665927564595201,1.7098888628468372,-0.009636940434575081,-0.005647424142807722,0.0
106,5,1.4571853171219118e-05,2.9077013095957227e-05,-6.9431058363989e-05,0.00046416401164606214,0.0008326712413690984,0.006172887980937958,0.00748068792745471,0.102251797914505,0.0028409583028405905,0.0034334526862949133,-0.002348715905100107,-0.0008126094471663237,0.0,0.0,0.0,-0.0018398546380922198,0.002415069378912449,-0.0,0.0,0.0,0.0,-0.0026201638393104076,-0.031410228461027145,0.0002535220992285758,11481.0,15711.0,15579.0,10786.0,0.2875553369522095,0.560158371925354,0.5502841472625732,0.2513619065284729,0.0,0.0,0.0,0.0,11559.0,15644.0,15614.0,10749.0,1.655994176864624,3.0764202023934906,0.2682890539145595,1.7092801674994729,-0.009636940434575081,-0.005647424142807722,0.0
111,5,2.190083614550531e-05,3.687843491206877e-05,-4.3729738536057994e-05,0.0010651435004547238,-0.0006031020311638713,-0.0006150031695142388,0.00748068792745471,0.102251797914505,0.0028409583028405905,0.0034334526862949133,-0.002348715905100107,-0.0008126094471663237,0.0,0.0,0.0,-0.0009773247875273228,0.00046227945131249726,-0.0,0.0,0.0,0.0,-0.0026201638393104076,-0.031410228461027145,0.0002535220992285758,11481.0,15711.0,15579.0,10786.0,0.2875553369522095,0.560158371925354,0.5502841472625732,0.2513619065284729,0.0,0.0,0.0,0.0,11559.0,15644.0,15614.0,10749.0,1.6351838111877441,3.076118154725438,0.2671495658571298,1.7097263341427305,-0.0018214734736829996,-0.002962196711450815,0.0
116,5,1.6647569282213226e-05,3.4006232453975827e-05,-4.040740168420598e-05,-0.00020433463214430958,0.00010342351743020117,-0.000644681800622493,0.00747859850525856,0.10233250260353088,0.002824608003720641,0.0023126774467527866,-0.01317460648715496,0.0001350390666630119,0.0,0.0,0.0,-0.0009773247875273228,0.00046227945131249726,-0.0,0.0,0.0,0.0,-0.0023465973790735006,-0.031853172928094864,0.0002900772378779948,11439.0,15715.0,15633.0,10770.0,0.28529202938079834,0.5604699850082397,0.5543089509010315,0.2505393624305725,0.0,0.0,0.0,0.0,11611.0,15678.0,15535.0,10890.0,1.6351838111877441,3.0767719197524688,0.26813378027303914,1.7095946093552021,-0.0018214734736829996,-0.002962196711450815,0.0
122,5,2.991567089338787e-05,2.5133518647635356e-05,-6.294219201663509e-05,0.00151043850928545,0.0011060950346291065,0.0024463022127747536,0.00747859850525856,0.10233250260353088,0.002824608003720641,0.0023126774467527866,-0.01317460648715496,0.0001350390666630119,0.0,0.0,0.0,-6.635436875512823e-05,-0.00017174356617033482,-0.0,0.0,0.0,0.0,-0.0023465973790735006,-0.031853172928094864,0.0002900772378779948,11439.0,15715.0,15633.0,10770.0,0.28529202938079834,0.5604699850082397,0.5543089509010315,0.2505393624305725,0.0,0.0,0.0,0.0,11611.0,15678.0,15535.0,10890.0,1.6284600496292114,3.077407867217876,0.269118579331914,1.7095139222577984,0.0006739217787981033,-0.00020028810831718147,0.0
127,5,3.892986205755733e-05,1.3111472071614116e-05,-8.35590162751032e-06,0.0016858780290931463,0.0018850836204364896,-0.005571834277361631,0.007489567156881094,0.10237040370702744,0.002804079558700323,0.002699277363717556,0.004122247453778982,-0.00414197938516736,0.0,0.0,0.0,-6.635436875512823e-05,-0.00017174356617033482,-0.0,0.0,0.0,0.0,-0.002836490049958229,-0.030078228563070297,0.00022191663447301835,11604.0,15687.0,15475.0,10971.0,0.29422369599342346,0.5583721399307251,0.5426292419433594,0.26076915860176086,0.0,0.0,0.0,0.0,11611.0,15678.0,15535.0,10890.0,1.6284600496292114,3.076787496356937,0.26755314325144475,1.7091557158165003,0.0006739217787981033,-0.00020028810831718147,0.0
132,5,3.143877984257415e-05,1.0031531019194517e-05,-2.4979497538879514e-05,-0.00022457848535850644,0.0011236263671889901,-0.0002339021157240495,0.00748280668631196,0.10229186713695526,0.0028223772533237934,0.0005367394187487662,0.007152047473937273,0.0008369004935957491,0.0,0.0,0.0,-0.0013701356947422028,-0.0001693889789748937,-0.0,0.0,0.0,0.0,-0.0025578010827302933,-0.03046773001551628,0.0003449287614785135,11501.0,15588.0,15496.0,10786.0,0.28863048553466797,0.5510252714157104,0.5441824197769165,0.2513456344604492,0.0,0.0,0.0,0.0,11479.0,15605.0,15512.0,10761.0,1.6371735334396362,3.076386194483136,0.267960229354021,1.7094471581162014,0.0006682382663711905,-0.0041578286327421665,0.0
140,8,1.222245646204101e-05,8.727405656827614e-06,2.747181133599952e-05,-0.0019975844770669937,0.0011828495189547539,-0.0009747710428200662,0.00748280668631196,0.10229186713695526,0.0028223772533237934,0.0005367394187487662,0.007152047473937273,0.0008369004935957491,0.0,0.0,0.0,-0.0013701356947422028,-0.0001693889789748937,-0.0,0.0,0.0,0.0,-0.0025578010827302933,-0.03046773001551628,0.0003449287614785135,11501.0,15588.0,15496.0,10786.0,0.28863048553466797,0.5510252714157104,0.5441824197769165,0.2513456344604492,0.0,0.0,0.0,0.0,11479.0,15605.0,15512.0,10761.0,1.6371735334396362,3.0755277945781394,0.2671604056625185,1.709590006122102,0.0006682382663711905,-0.0041578286327421665,0.0
145,5,2.7230589694227092e-05,4.052069925819524e-06,5.616068847302813e-06,0.00100194220431149,0.0010341800516471267,0.0022327806800603867,0.00748280668631196,0.10229186713695526,0.0028223772533237934,0.0005367394187487662,0.007152047473937273,0.0008369004935957491,0.0,0.0,0.0,-0.0013701356947422028,-0.0001693889789748937,-0.0,0.0,0.0,0.0,-0.0025578010827302933,-0.03046773001551628,0.0003449287614785135,11501.0,15588.0,15496.0,10786.0,0.28863048553466797,0.5510252714157104,0.5441824197769165,0.2513456344604492,0.0,0.0,0.0,0.0,11479.0,15605.0,15512.0,10761.0,1.6371735334396362,3.075886513773388,0.26773231847318707,1.7091930244680644,0.0006682382663711905,-0.0041578286327421665,0.0
150,5,2.97504011541605e-05,-4.1544226405676454e-06,-6.584305810974911e-05,0.0007031542481854558,0.0013984511606395245,0.009468208067119122,0.007505585439503193,0.10232889652252197,0.002830879297107458,0.00029208548949100077,-0.009453396312892437,-0.0005466039292514324,0.0,0.0,0.0,-0.0012677531922236085,0.000988572952337563,-0.0,0.0,0.0,0.0,-0.0023476595524698496,-0.03097788617014885,0.0003669336438179016,11391.0,15590.0,15505.0,10755.0,0.2827290892601013,0.5511254072189331,0.5448044538497925,0.24980108439922333,0.0,0.0,0.0,0.0,11350.0,15612.0,15477.0,10805.0,1.6406375169754028,3.076595625978327,0.2685217589918127,1.7089364221817311,-0.003908164799213409,-0.0038552777841687202,0.0
155,5,1.1479500244604424e-05,1.8730765077634715e-05,-2.7245241653872654e-05,-0.0019112464506179094,-0.00218684202991426,-0.0008444551494903862,0.007505585439503193,0.10232889652252197,0.002830879297107458,0.00029208548949100077,-0.009453396312892437,-0.0005466039292514324,0.0,0.0,0.0,-0.0012677531922236085,0.000988572952337563,-0.0,0.0,0.0,0.0,-0.0023476595524698496,-0.03097788617014885,0.0003669336438179016,11391.0,15590.0,15505.0,10755.0,0.2827290892601013,0.5511254072189331,0.5448044538497925,0.24980108439922333,0.0,0.0,0.0,0.0,11350.0,15612.0,15477.0,10805.0,1.6406375169754028,3.0763489710318184,0.2672651221573942,1.7096004577100312,-0.003908164799213409,-0.0038552777841687202,0.0
160,5,3.9853539419709705e-06,1.4847635611658916e-05,-6.794289220124483e-05,-0.0016637961380183697,-0.00040876134880818427,0.004545936360955238,0.007501539308577776,0.1023879423737526,0.0028190230950713158,0.0014635879779234529,-0.0069753131829202175,-0.004796121269464493,0.0,0.0,0.0,0.0027065156027674675,-0.0017807252006605268,-0.0,0.0,0.0,0.0,-0.00297370832413435,-0.03048807941377163,0.00028034596471115947,11553.0,15708.0,15471.0,10917.0,0.2914322316646576,0.5599346160888672,0.542336642742157,0.2579856812953949,0.0,0.0,0.0,0.0,11576.0,15689.0,15469.0,10923.0,1.6553419828414917,3.076575558584947,0.26812769151608024,1.7095770698641117,0.0071028838865458965,0.008304353803396225,0.0
165,5,1.8814520217347308e-06,3.9915190427564085e-05,-1.5698669812991284e-05,-0.0009179866756312549,-0.003171611111611128,-0.004450932610780001,0.007501539308577776,0.1023879423737526,0.0028190230950713158,0.0014635879779234529,-0.0069753131829202175,-0.004796121269464493,0.0,0.0,0.0,0.0027065156027674675,-0.0017807252006605268,-0.0,0.0,0.0,0.0,-0.00297370832413435,-0.03048807941377163,0.00028034596471115947,11553.0,15708.0,15471.0,10917.0,0.2914322316646576,0.5599346160888672,0.542336642742157,0.2579856812953949,0.0,0.0,0.0,0.0,11576.0,15689.0,15469.0,10923.0,1.6553419828414917,3.0752889786951534,0.2679385236638635,1.7102333692998797,0.0071028838865458965,0.008304353803396225,0.0
171,5,6.654664321104065e-05,-4.433852609508904e-06,-0.00015017655096016824,0.007392628584057093,0.004053240641951561,0.014356972649693489,0.007466250564903021,0.10230692476034164,0.0028444204945117235,-0.004932780750095844,0.010261807590723038,0.010031340643763542,0.0,0.0,0.0,0.003937435802072287,-0.0008578300476074219,-0.0,0.0,0.0,0.0,-0.002619873033836484,-0.030517030507326126,0.0003822814906015992,11618.0,15518.0,15578.0,10682.0,0.2950074374675751,0.5457674860954285,0.5502607822418213,0.2461378425359726,0.0,0.0,0.0,0.0,11750.0,15418.0,15672.0,10543.0,1.6598302125930786,3.078178363072819,0.2681558454422834,1.708827759413239,0.0034309423062950373,0.012113891541957855,0.0
176,5,2.11088772630319e-05,3.6852172343060374e-05,-3.660591028165072e-05,-0.002495480701327324,-0.0033330265432596207,-0.007885687984526157,0.007466250564903021,0.10230692476034164,0.0028444204945117235,-0.004932780750095844,0.010261807590723038,0.010031340643763542,0.0,0.0,0.0,0.003937435802072287,-0.0008578300476074219,-0.0,0.0,0.0,0.0,-0.002619873033836484,-0.030517030507326126,0.0003822814906015992,11618.0,15518.0,15578.0,10682.0,0.2950074374675751,0.5457674860954285,0.5502607822418213,0.2461378425359726,0.0,0.0,0.0,0.0,11750.0,15418.0,15672.0,10543.0,1.6598302125930786,3.075552189795944,0.26710023269107264,1.7095924750788707,0.0034309423062950373,0.012113891541957855,0.0
181,5,3.913573164027184e-05,1.6194246200029738e-05,-6.776224472559988e-05,0.0011650300584733486,0.0011457405053079128,0.0005844848928973079,0.00741846626624465,0.10222284495830536,0.002783326432108879,-0.004653010983020067,-0.004977438133209944,-0.05259275063872337,0.0,0.0,0.0,0.0041079651564359665,-0.002298806793987751,-0.0,0.0,0.0,0.0,-0.0013712882064282894,-0.031582459807395935,0.002055552089586854,10881.0,16051.0,15054.0,11461.0,0.2561649978160858,0.5860043168067932,0.5119874477386475,0.28648075461387634,0.0,0.0,0.0,0.0,11692.0,15486.0,15657.0,10598.0,1.6682283878326416,3.076160064071386,0.2681442529202816,1.7091886268121774,0.009240720421075821,0.01270248182117939,0.0
186,5,2.8866977572761243e-06,4.6006487536942586e-05,3.872566594509408e-05,-0.0038838719483464956,-0.0031191727612167597,-0.012544754892587662,0.00741846626624465,0.10222284495830536,0.002783326432108879,-0.004653010983020067,-0.004977438133209944,-0.05259275063872337,0.0,0.0,0.0,0.0041079651564359665,-0.002298806793987751,-0.0,0.0,0.0,0.0,-0.0013712882064282894,-0.031582459807395935,0.002055552089586854,10881.0,16051.0,15054.0,11461.0,0.2561649978160858,0.5860043168067932,0.5119874477386475,0.28648075461387634,0.0,0.0,0.0,0.0,11692.0,15486.0,15657.0,10598.0,1.6682283878326416,3.0748848725883184,0.2654906408883959,1.710779236030853,0.009240720421075821,0.01270248182117939,0.0
191,5,1.1762148460547905e-05,-3.9734982237860095e-06,-1.0769595974124968e-05,-0.0004884946974925697,0.004749929066747427,0.0009215294849127531,0.007343036122620106,0.10229667276144028,0.0031027644872665405,-0.008314782753586769,0.004515991546213627,0.014894160442054272,0.0,0.0,0.0,0.003845621831715107,-0.0036008504685014486,-0.0,0.0,0.0,0.0,-0.0016667490126565099,-0.031778015196323395,0.00062009651446715,12435.0,14921.0,16543.0,9712.0,0.3412133455276489,0.50246262550354,0.6244045495986938,0.2001478672027588,0.0,0.0,0.0,0.0,10271.0,16403.0,14814.0,12086.0,1.6766117811203003,3.074675212077373,0.26758056232020216,1.709445376518804,0.014547399245202541,0.011951039545238018,0.0
196,5,8.46730199555168e-06,6.202561507961946e-06,-2.4763421606621705e-05,-0.0005907793529331684,0.0006788445170968771,0.002047870773822069,0.007343036122620106,0.10229667276144028,0.0031027644872665405,-0.008314782753586769,0.004515991546213627,0.014894160442054272,0.0,0.0,0.0,0.003845621831715107,-0.0036008504685014486,-0.0,0.0,0.0,0.0,-0.0016667490126565099,-0.031778015196323395,0.00062009651446715,12435.0,14921.0,16543.0,9712.0,0.3412133455276489,0.50246262550354,0.6244045495986938,0.2001478672027588,0.0,0.0,0.0,0.0,10271.0,16403.0,14814.0,12086.0,1.6766117811203003,3.076069539304809,0.2667022741977387,1.7101193034037188,0.014547399245202541,0.011951039545238018,0.0
201,5,2.131166729668621e-05,-1.5667681509512477e-05,-4.651622657547705e-05,0.001305011915974319,0.0028959668707102537,0.0034294850192964077,0.0073118372820317745,0.10218130797147751,0.002559120999649167,-0.01016473863273859,0.034834422171115875,-0.06356038898229599,0.0,0.0,0.0,-0.0008284913492389023,-0.0005502656567841768,-0.0,0.0,0.0,0.0,-0.0006790741463191807,-0.03064754232764244,-0.0029666842892766,10733.0,16197.0,15203.0,11854.0,0.2486853003501892,0.5972809791564941,0.5226714015007019,0.3079741597175598,0.0,0.0,0.0,0.0,12322.0,14964.0,16486.0,9890.0,1.6347479820251465,3.076048904463632,0.2674991252487008,1.709916599151642,0.0021675790194422007,-0.0025104249361902475,0.0
206,5,-5.559053988690721e-06,1.2170669833722059e-05,1.9931962015107274e-05,-0.0027024815790355206,-0.002182215452194214,-0.0066019888035953045,0.0073118372820317745,0.10218130797147751,0.002559120999649167,-0.01016473863273859,0.034834422171115875,-0.06356038898229599,0.0,0.0,0.0,-0.0008284913492389023,-0.0005502656567841768,-0.0,0.0,0.0,0.0,-0.0006790741463191807,-0.03064754232764244,-0.0029666842892766,10733.0,16197.0,15203.0,11854.0,0.2486853003501892,0.5972809791564941,0.5226714015007019,0.3079741597175598,0.0,0.0,0.0,0.0,12322.0,14964.0,16486.0,9890.0,1.6347479820251465,3.0741248151720595,0.26668178577205676,1.7103327075137476,0.0021675790194422007,-0.0025104249361902475,0.0
211,5,4.1845269151963294e-05,-2.275985389132984e-05,-6.283832044573501e-05,0.004607526119798422,0.003318776609376073,0.007291638292372227,0.007188758812844753,0.10209640860557556,0.0029040661174803972,-0.00896244402974844,-0.007905633188784122,-0.05656673014163971,0.0,0.0,0.0,0.0026798145845532417,-0.0025391164235770702,-0.0,0.0,0.0,0.0,-0.0007521336665377021,-0.031817737966775894,0.0006005483446642756,10735.0,16079.0,15057.0,11446.0,0.2487705796957016,0.5881518125534058,0.5121601819992065,0.2856654226779938,0.0,0.0,0.0,0.0,12117.0,15220.0,16215.0,10377.0,1.6611781120300293,3.0757282233363257,0.2665656901082989,1.7098351536531509,0.0101636266335845,0.008251417428255081,0.0
216,5,4.2895011574728414e-05,9.866223081189673e-06,-6.907094939379022e-05,0.001968979835510254,-0.002587618539109826,0.003664571326225996,0.007188758812844753,0.10209640860557556,0.0029040661174803972,-0.00896244402974844,-0.007905633188784122,-0.05656673014163971,0.0,0.0,0.0,0.0026798145845532417,-0.0025391164235770702,-0.0,0.0,0.0,0.0,-0.0007521336665377021,-0.031817737966775894,0.0006005483446642756,10735.0,16079.0,15057.0,11446.0,0.2487705796957016,0.5881518125534058,0.5121601819992065,0.2856654226779938,0.0,0.0,0.0,0.0,12117.0,15220.0,16215.0,10377.0,1.6611781120300293,3.076664611084185,0.2674196021811092,1.7099759956843608,0.0101636266335845,0.008251417428255081,0.0
222,5,3.4247546864207834e-05,8.436701136815827e-06,-1.2483114005590323e-05,-0.0002501039707567543,-0.0008635048288851976,-0.005324712023139,0.007188758812844753,0.10209640860557556,0.0029040661174803972,-0.00896244402974844,-0.007905633188784122,-0.05656673014163971,0.0,0.0,0.0,0.0031730984337627888,0.0019061026396229863,-0.0,0.0,0.0,0.0,-0.0026972247287631035,-0.031162064522504807,0.0015302369138225913,11701.0,15507.0,15861.0,10662.0,0.29953286051750183,0.5449603796005249,0.571514904499054,0.2451699674129486,0.0,0.0,0.0,0.0,10710.0,16118.0,15013.0,11471.0,1.6592669486999512,3.076315294163666,0.2672366181007992,1.7097456741608306,-0.007621000986546278,0.00975903868675232,0.0
227,5,4.566794086713344e-05,2.2501775674754754e-05,1.3804936315864325e-05,0.0012704054825007915,-0.002033210825175047,-0.005284450948238373,0.007308046333491802,0.10214147716760635,0.0027942205779254436,0.013295517303049564,0.004459684249013662,0.021076176315546036,0.0,0.0,0.0,0.0031730984337627888,0.0019061026396229863,-0.0,0.0,0.0,0.0,-0.0026972247287631035,-0.031162064522504807,0.0015302369138225913,11701.0,15507.0,15861.0,10662.0,0.29953286051750183,0.5449603796005249,0.571514904499054,0.2451699674129486,0.0,0.0,0.0,0.0,10710.0,16118.0,15013.0,11471.0,1.6592669486999512,3.0758116272270266,0.26652590400636245,1.7102059582647593,-0.007621000986546278,0.00975903868675232,0.0
232,5,6.612161814700812e-05,-2.103363613059628e-06,4.176631409791298e-05,0.002962603699415922,0.0021393324714154005,-0.005469145718961954,0.007308046333491802,0.10214147716760635,0.0027942205779254436,0.013295517303049564,0.004459684249013662,0.021076176315546036,0.0,0.0,0.0,0.002532714745029807,0.0012612128630280495,-0.0,0.0,0.0,0.0,-0.001021567382849753,-0.029644988477230072,0.0010927774710580707,12664.0,14726.0,16284.0,10008.0,0.35477781295776367,0.48866206407546997,0.6040256023406982,0.2137126326560974,0.0,0.0,0.0,0.0,10839.0,16094.0,15155.0,11683.0,1.6507617235183716,3.0757619381632155,0.2655318026445111,1.7094281702682772,-0.005016758106648922,0.007749584037810564,0.0
237,5,2.2384561816579662e-05,6.242645031306893e-05,0.0001707645715214312,-0.004063405562192202,-0.006887844298034906,-0.01766745001077652,0.007308046333491802,0.10214147716760635,0.0027942205779254436,0.013295517303049564,0.004459684249013662,0.021076176315546036,0.0,0.0,0.0,0.002532714745029807,0.0012612128630280495,-0.0,0.0,0.0,0.0,-0.001021567382849753,-0.029644988477230072,0.0010927774710580707,12664.0,14726.0,16284.0,10008.0,0.35477781295776367,0.48866206407546997,0.6040256023406982,0.2137126326560974,0.0,0.0,0.0,0.0,10839.0,16094.0,15155.0,11683.0,1.6507617235183716,3.0741754150415206,0.2630938108323963,1.7111918966791255,-0.005016758106648922,0.007749584037810564,0.0
242,5,6.028099232935347e-05,4.3940599425695837e-05,0.00020354834850877523,0.002922209445387125,-0.0005368359270505607,-0.011001032777130604,0.007308046333491802,0.10214147716760635,0.0027942205779254436,0.013295517303049564,0.004459684249013662,0.021076176315546036,0.0,0.0,0.0,0.008271976374089718,-0.0036740864161401987,-0.0,0.0,0.0,0.0,-0.001021567382849753,-0.029644988477230072,0.0010927774710580707,12664.0,14726.0,16284.0,10008.0,0.35477781295776367,0.48866206407546997,0.6040256023406982,0.2137126326560974,0.0,0.0,0.0,0.0,10839.0,16094.0,15155.0,11683.0,1.707126259803772,3.074092879370447,0.2627625005533025,1.7107870618548875,0.015113013796508312,0.026174264028668404,0.0
247,5,4.979099321644753e-05,3.7930596590740606e-05,0.0003145974478684366,-8.991602953756228e-05,0.0005064660217612982,-0.01772630587220192,0.007252155803143978,0.09913846850395203,0.002644273452460766,0.0005500073893927038,0.2897484600543976,-0.025304945185780525,0.0,0.0,0.0,0.008271976374089718,-0.0036740864161401987,-0.0,0.0,0.0,0.0,-0.0009478056454099715,-0.023284729570150375,-0.0005042395205236971,11856.0,15301.0,14870.0,11961.0,0.3080935478210449,0.529823362827301,0.49886468052864075,0.3139801621437073,0.0,0.0,0.0,0.0,12165.0,15122.0,15569.0,11097.0,1.707126259803772,3.0729762405803505,0.25915881534450796,1.710879054796293,0.015113013796508312,0.026174264028668404,0.0
252,5,0.00010664053115760908,3.798923717113212e-05,0.00036806007847189903,0.006785978097468615,0.00019554949540179223,-0.013506036251783371,0.007252155803143978,0.09913846850395203,0.002644273452460766,0.0005500073893927038,0.2897484600543976,-0.025304945185780525,0.0,0.0,0.0,-0.0005589114734902978,-1.5659365089959465e-05,-0.0,0.0,0.0,0.0,-0.0009478056454099715,-0.023284729570150375,-0.0005042395205236971,11856.0,15301.0,14870.0,11961.0,0.3080935478210449,0.529823362827301,0.49886468052864075,0.3139801621437073,0.0,0.0,0.0,0.0,12165.0,15122.0,15569.0,11097.0,1.6303341388702393,3.073828186924805,0.2562366491825025,1.7100452343408643,6.151805428089574e-05,-0.0016889942344278097,0.0
257,5,0.00014983833534643054,-3.4567810871521942e-06,0.00046325993025675416,0.007898127660155296,0.0050517418421804905,-0.01682639680802822,0.007013408001512289,0.09630685299634933,0.0031614420004189014,-0.034225523471832275,0.43655112385749817,0.012543181888759136,0.0,0.0,0.0,-0.0005589114734902978,-1.5659365089959465e-05,-0.0,0.0,0.0,0.0,-0.0009824481094256043,-0.018930908292531967,0.001025998149998486,12594.0,14624.0,14977.0,11928.0,0.3506195843219757,0.4815744459629059,0.5064367055892944,0.31213095784187317,0.0,0.0,0.0,0.0,12825.0,14441.0,15617.0,11040.0,1.6303341388702393,3.073614555306769,0.250869823517599,1.7098097013172837,6.151805428089574e-05,-0.0016889942344278097,0.0
262,5,0.0002055240620393306,-1.5972236724337563e-05,0.0005441195098683238,0.009841538965702057,0.0035225513856858015,-0.0164337120950222,0.007013408001512289,0.09630685299634933,0.0031614420004189014,-0.034225523471832275,0.43655112385749817,0.012543181888759136,0.0,0.0,0.0,-0.005940201226621866,0.007336715701967478,-0.0,0.0,0.0,0.0,-0.0009824481094256043,-0.018930908292531967,0.001025998149998486,12594.0,14624.0,14977.0,11928.0,0.3506195843219757,0.4815744459629059,0.5064367055892944,0.31213095784187317,0.0,0.0,0.0,0.0,12825.0,14441.0,15617.0,11040.0,1.722129464149475,3.0732358350930897,0.24789996736272418,1.7090811801435477,-0.03044443018734455,-0.01896142028272152,0.0
267,5,0.0002464694553054869,-6.1473765526898205e-06,0.0006347745656967163,0.008850062265992165,0.00023003737442195415,-0.017452087253332138,0.006525828968733549,0.09027476608753204,0.003356141271069646,-0.02986379712820053,0.5694090127944946,0.0798407644033432,0.0,0.0,0.0,-0.005940201226621866,0.007336715701967478,-0.0,0.0,0.0,0.0,0.0013384453486651182,-0.01603032276034355,0.0031893053092062473,13642.0,13838.0,15642.0,11855.0,0.41564011573791504,0.4283980131149292,0.5550318956375122,0.3080562353134155,0.0,0.0,0.0,0.0,13200.0,14068.0,14620.0,12030.0,1.722129464149475,3.070535162858143,0.24565591161397227,1.7090016352716375,-0.03044443018734455,-0.01896142028272152,0.0
272,5,0.0003454561228863895,-1.5305697331768897e-07,0.0006625617970712483,0.015418426133692265,-0.0006273033795878291,-0.010315301828086376,0.006525828968733549,0.09027476608753204,0.003356141271069646,-0.02986379712820053,0.5694090127944946,0.0798407644033432,0.0,0.0,0.0,-0.00028090295381844044,0.008342042565345764,-0.0,0.0,0.0,0.0,0.0013384453486651182,-0.01603032276034355,0.0031893053092062473,13642.0,13838.0,15642.0,11855.0,0.41564011573791504,0.4283980131149292,0.5550318956375122,0.3080562353134155,0.0,0.0,0.0,0.0,13200.0,14068.0,14620.0,12030.0,1.7186404466629028,3.0731625720695255,0.24206739208157801,1.7080162728504293,-0.03454652056097984,-0.0008948492468334734,0.0
277,5,0.00041597906965762377,-1.8944047042168677e-05,0.0006581522175110877,0.014630122110247612,0.002003997564315796,-0.0035969726741313934,0.006552704609930515,0.08512575179338455,0.00299325049854815,0.01296489592641592,0.721902072429657,-0.029893087223172188,0.0,0.0,0.0,-0.00028090295381844044,0.008342042565345764,-0.0,0.0,0.0,0.0,-0.003629082813858986,-0.004127721302211285,0.0023211140651255846,12933.0,14383.0,13737.0,12959.0,0.3710096478462219,0.4649270176887512,0.4217783212661743,0.3726191520690918,0.0,0.0,0.0,0.0,14817.0,13363.0,14939.0,12165.0,1.7186404466629028,3.073648750120295,0.24052790809462474,1.7076506462766838,-0.03454652056097984,-0.0008948492468334734,0.0
282,5,0.0004274252278264612,7.905241545813624e-06,0.0007444266811944544,0.007225587964057922,-0.0024203157518059015,-0.01179172657430172,0.006552704609930515,0.08512575179338455,0.00299325049854815,0.01296489592641592,0.721902072429657,-0.029893087223172188,0.0,0.0,0.0,-0.002309354254975915,0.013329003006219864,-0.0,0.0,0.0,0.0,-0.003629082813858986,-0.004127721302211285,0.0023211140651255846,12933.0,14383.0,13737.0,12959.0,0.3710096478462219,0.4649270176887512,0.4217783212661743,0.3726191520690918,0.0,0.0,0.0,0.0,14817.0,13363.0,14939.0,12165.0,1.7796003818511963,3.07242224885162,0.23660175731948305,1.708479987805228,-0.05715550109744072,-0.007617647759616375,0.0
288,5,0.0005236761062406003,-5.827819768455811e-05,0.0006316295475699008,0.014440340921282768,0.006973886396735907,0.008818963542580605,0.00671486696228385,0.0762534961104393,0.0036943149752914906,0.011207940056920052,0.6919432282447815,-0.019303997978568077,0.0,0.0,0.0,-0.002309354254975915,0.013329003006219864,-0.0,0.0,0.0,0.0,-0.003629082813858986,-0.004127721302211285,0.0023211140651255846,13832.0,14425.0,13824.0,13381.0,0.42799845337867737,0.46777448058128357,0.4274745285511017,0.3988820016384125,0.0,0.0,0.0,0.0,13127.0,15138.0,13090.0,14020.0,1.7796003818511963,3.0737258595848926,0.23580237398594278,1.7060812974024282,-0.05715550109744072,-0.007617647759616375,0.0
293,5,0.0005255377618595958,-5.958992915111594e-05,0.0006958926096558571,0.005999537650495768,0.002946962369605899,-0.004183979704976082,0.00671486696228385,0.0762534961104393,0.0036943149752914906,0.011207940056920052,0.6919432282447815,-0.019303997978568077,0.0,0.0,0.0,-0.007963964715600014,0.013200593180954456,-0.0,0.0,0.0,0.0,-0.003629082813858986,-0.004127721302211285,0.0023211140651255846,13832.0,14425.0,13824.0,13381.0,0.42799845337867737,0.46777448058128357,0.4274745285511017,0.3988820016384125,0.0,0.0,0.0,0.0,13127.0,15138.0,13090.0,14020.0,1.7932682037353516,3.073362026818522,0.23229439331036114,1.7053201238848634,-0.05703799054026604,-0.026471272110939026,-0.0
298,5,0.0004953383468091488,-1.4874665794195607e-05,0.0007216762751340866,-0.001224116305820644,-0.004187046550214291,-0.004767630249261856,0.006983303930610418,0.07099747657775879,0.003902243450284004,-0.013234918937087059,0.5309131145477295,0.10391124337911606,0.0,0.0,0.0,-0.007963964715600014,0.013200593180954456,-0.0,0.0,0.0,0.0,-0.0032578695099800825,-0.006900797598063946,-0.0022290691267699003,14686.0,13230.0,15215.0,12065.0,0.48587316274642944,0.3893824815750122,0.5235415697097778,0.31984323263168335,0.0,0.0,0.0,0.0,14351.0,13646.0,14990.0,12288.0,1.7932682037353516,3.074189300976982,0.22976172583890106,1.7072738033207808,-0.05703799054026604,-0.026471272110939026,-0.0
303,5,0.0005319540505297482,-7.384263153653592e-05,0.0006151645793579519,0.003904238808900118,0.005401337053626776,0.010874353349208832,0.006983303930610418,0.07099747657775879,0.003902243450284004,-0.013234918937087059,0.5309131145477295,0.10391124337911606,0.0,0.0,0.0,0.005051592830568552,-0.00046215939801186323,-0.0,0.0,0.0,0.0,-0.0032578695099800825,-0.006900797598063946,-0.0022290691267699003,14686.0,13230.0,15215.0,12065.0,0.48587316274642944,0.3893824815750122,0.5235415697097778,0.31984323263168335,0.0,0.0,0.0,0.0,14351.0,13646.0,14990.0,12288.0,1.6682928800582886,3.075821971923442,0.23072458487888572,1.7058975437201056,0.001857849070802331,0.015620892867445946,0.0
308,5,0.0004271370708011091,-4.681059635913698e-06,0.0007777293212711811,-0.011016343720257282,-0.00613885372877121,-0.0151580311357975,0.007177872583270073,0.06611930578947067,0.003608561120927334,0.02632393315434456,0.3246985375881195,-0.06992097198963165,0.0,0.0,0.0,0.005051592830568552,-0.00046215939801186323,-0.0,0.0,0.0,0.0,-0.004510199651122093,-0.013808283023536205,0.002133019035682082,13206.0,15313.0,13899.0,13840.0,0.38791748881340027,0.5307302474975586,0.4324333965778351,0.42851921916007996,0.0,0.0,0.0,0.0,14641.0,13949.0,15494.0,12017.0,1.6682928800582886,3.0720920106631415,0.22842470237734283,1.7068354601294242,0.001857849070802331,0.015620892867445946,0.0
313,5,0.00038478142232634127,1.726552909531165e-05,0.0007987492135725915,-0.009489214047789574,-0.005089132115244865,-0.008585598319768906,0.007177872583270073,0.06611930578947067,0.003608561120927334,0.02632393315434456,0.3246985375881195,-0.06992097198963165,0.0,0.0,0.0,0.005051592830568552,-0.00046215939801186323,-0.0,0.0,0.0,0.0,-0.004510199651122093,-0.013808283023536205,0.002133019035682082,13206.0,15313.0,13899.0,13840.0,0.38791748881340027,0.5307302474975586,0.4324333965778351,0.42851921916007996,0.0,0.0,0.0,0.0,14641.0,13949.0,15494.0,12017.0,1.7292956113815308,3.0742466515396702,0.22723185834529097,1.7070731387094276,0.033458683639764786,0.019180545583367348,0.0
318,5,0.0003320609393995255,2.1473784727277234e-05,0.0008142600418068469,-0.0101221464574337,-0.002540643559768796,-0.005295540206134319,0.007217037491500378,0.06480289250612259,0.0043852077797055244,0.009808111004531384,-0.0029912430327385664,-0.05942920967936516,0.0,0.0,0.0,0.005983949173241854,-0.008029715158045292,-0.0,0.0,0.0,0.0,-0.0011156731052324176,-0.021367445588111877,0.004117246717214584,14245.0,13206.0,16804.0,9243.0,0.455543577671051,0.3879251480102539,0.6451950073242188,0.1796291470527649,0.0,0.0,0.0,0.0,12385.0,16287.0,13987.0,13593.0,1.7292956113815308,3.0737864873950187,0.22804076190785383,1.706952230801888,0.033458683639764786,0.019180545583367348,0.0
323,5,0.0002736868627835065,9.554878488415852e-05,0.0008417186909355223,-0.011053748428821564,-0.009905257262289524,-0.005413254257291555,0.007217037491500378,0.06480289250612259,0.0043852077797055244,0.009808111004531384,-0.0029912430327385664,-0.05942920967936516,0.0,0.0,0.0,0.005983949173241854,-0.008029715158045292,-0.0,0.0,0.0,0.0,-0.0011156731052324176,-0.021367445588111877,0.004117246717214584,14245.0,13206.0,16804.0,9243.0,0.455543577671051,0.3879251480102539,0.6451950073242188,0.1796291470527649,0.0,0.0,0.0,0.0,12385.0,16287.0,13987.0,13593.0,1.7292956113815308,3.0744048905400545,0.22810654791297158,1.7065512387347168,0.033458683639764786,0.019180545583367348,0.0
328,5,0.0002481843694113195,8.460499520879239e-05,0.0007483767112717032,-0.007481795735657215,-0.002648848108947277,0.009035737253725529,0.007217037491500378,0.06480289250612259,0.0043852077797055244,0.009808111004531384,-0.0029912430327385664,-0.05942920967936516,0.0,0.0,0.0,0.011467323638498783,-0.009351483546197414,-0.0,0.0,0.0,0.0,-0.0011156731052324176,-0.021367445588111877,0.004117246717214584,14245.0,13206.0,16804.0,9243.0,0.455543577671051,0.3879251480102539,0.6451950073242188,0.1796291470527649,0.0,0.0,0.0,0.0,12385.0,16287.0,13987.0,13593.0,1.7724103927612305,3.076507741402519,0.2294743720396162,1.7063908409958657,0.039935749024152756,0.03767190873622894,0.0
333,5,0.00018783660198096186,0.00015349315071944147,0.0008235044660978019,-0.010234451852738857,-0.009326117113232613,-0.005401039030402899,0.007443724665790796,0.06540989875793457,0.00473021948710084,0.014302138239145279,-0.1061023697257042,0.20891542732715607,0.0,0.0,0.0,0.011467323638498783,-0.009351483546197414,-0.0,0.0,0.0,0.0,-0.0008097487152554095,-0.02566981315612793,-0.0037496457807719707,11201.0,16229.0,14820.0,12778.0,0.27270007133483887,0.5997251868247986,0.49526965618133545,0.36160075664520264,0.0,0.0,0.0,0.0,13100.0,14343.0,15974.0,10653.0,1.7724103927612305,3.077058319763537,0.22748383693356436,1.7081004262233976,0.039935749024152756,0.03767190873622894,0.0
338,5,0.00014253659173846245,0.00016177922952920198,0.0007713595405220985,-0.00952978152781725,-0.004724777769297361,0.004096975550055504,0.007443724665790796,0.06540989875793457,0.00473021948710084,0.014302138239145279,-0.1061023697257042,0.20891542732715607,0.0,0.0,0.0,0.01095470879226923,-0.008783559314906597,-0.0,0.0,0.0,0.0,-0.0008097487152554095,-0.02566981315612793,-0.0037496457807719707,11201.0,16229.0,14820.0,12778.0,0.27270007133483887,0.5997251868247986,0.49526965618133545,0.36160075664520264,0.0,0.0,0.0,0.0,13100.0,14343.0,15974.0,10653.0,1.7641042470932007,3.0776848388805256,0.22972635873832162,1.7068461798893346,0.037334904074668884,0.035819362848997116,0.0
343,5,7.033518340904266e-05,0.00023582721769344062,0.0009507794748060405,-0.01247608195990324,-0.010775669477880001,-0.01989160291850567,0.007618736941367388,0.06643237173557281,0.00413226243108511,0.02550485171377659,-0.10740002989768982,-0.09379976987838745,0.0,0.0,0.0,0.01095470879226923,-0.008783559314906597,-0.0,0.0,0.0,0.0,0.0013328910572454333,-0.02455335110425949,0.002804721938446164,11201.0,16229.0,14820.0,12778.0,0.27270007133483887,0.5997251868247986,0.49526965618133545,0.36160075664520264,0.0,0.0,0.0,0.0,13577.0,14294.0,16640.0,10289.0,1.7641042470932007,3.077112578176295,0.22514501896113318,1.7086485680173331,0.037334904074668884,0.035819362848997116,0.0
348,5,6.19891143287532e-05,0.00021264796669129282,0.0008289868710562587,-0.005991960875689983,-0.0015287569258362055,0.006658473517745733,0.007618736941367388,0.06643237173557281,0.00413226243108511,0.02550485171377659,-0.10740002989768982,-0.09379976987838745,0.0,0.0,0.0,0.012557498179376125,-0.010743604972958565,-0.0,0.0,0.0,0.0,0.0013328910572454333,-0.02455335110425949,0.002804721938446164,11201.0,16229.0,14820.0,12778.0,0.27270007133483887,0.5997251868247986,0.49526965618133545,0.36160075664520264,0.0,0.0,0.0,0.0,13577.0,14294.0,16640.0,10289.0,1.7919968366622925,3.0798210579821705,0.22650001384074794,1.7082730192475741,0.04638702794909477,0.041708845645189285,0.0
353,5,-3.3101882763730828e-06,0.0002966523461509496,0.000986985513009131,-0.01023270096629858,-0.010692029260098934,-0.016296442598104477,0.007657270412892103,0.06665697693824768,0.0044756424613296986,-0.0038749563973397017,0.0980815663933754,0.20360702276229858,0.0,0.0,0.0,0.012557498179376125,-0.010743604972958565,-0.0,0.0,0.0,0.0,0.0011081970296800137,-0.02111576497554779,0.002964758314192295,14631.0,13251.0,17209.0,9995.0,0.48207801580429077,0.39068883657455444,0.6782331466674805,0.2131042629480362,0.0,0.0,0.0,0.0,10039.0,17024.0,13801.0,14431.0,1.7919968366622925,3.078378904017455,0.2229342000280925,1.7086012919779447,0.04638702794909477,0.041708845645189285,0.0
358,5,-4.1705305193318054e-05,0.0002978359698317945,0.0009607248939573765,-0.0063575864769518375,-0.005760778207331896,-0.008916455321013927,0.007657270412892103,0.06665697693824768,0.0044756424613296986,-0.0038749563973397017,0.0980815663933754,0.20360702276229858,0.0,0.0,0.0,0.012669223360717297,-0.008963302709162235,-0.0,0.0,0.0,0.0,0.0011081970296800137,-0.02111576497554779,0.002964758314192295,14631.0,13251.0,17209.0,9995.0,0.48207801580429077,0.39068883657455444,0.6782331466674805,0.2131042629480362,0.0,0.0,0.0,0.0,10039.0,17024.0,13801.0,14431.0,1.7771291732788086,3.0799014360327326,0.2209627867331142,1.7093696967256313,0.03837941214442253,0.04173077270388603,0.0
363,5,-4.1705305193318054e-05,0.0002978359698317945,0.0009607248939573765,-0.0063575864769518375,-0.005760778207331896,-0.008916455321013927,0.007875085808336735,0.06549446284770966,0.0046313004568219185,0.01599619723856449,0.21082071959972382,-0.20857535302639008,0.0,0.0,0.0,0.012669223360717297,-0.008963302709162235,-0.0,0.0,0.0,0.0,0.0005212136311456561,-0.01751725748181343,-0.00487169623374939,10612.0,16796.0,13636.0,14738.0,0.24268311262130737,0.644555926322937,0.4152177572250366,0.4895400404930115,0.0,0.0,0.0,0.0,13779.0,14174.0,16346.0,11339.0,1.7771291732788086,3.0799014360327326,0.2209627867331142,1.7093696967256313,0.03837941214442253,0.04173077270388603,0.0
369,5,-2.0296249203966e-05,0.00029386422829702497,0.0008678192389197648,2.605223926366307e-05,-0.0018277008784934878,0.007582096382975578,0.007875085808336735,0.06549446284770966,0.0046313004568219185,0.01599619723856449,0.21082071959972382,-0.20857535302639008,0.0,0.0,0.0,0.007309733424335718,-0.005819598212838173,-0.0,0.0,0.0,0.0,0.0005212136311456561,-0.01751725748181343,-0.00487169623374939,10612.0,16796.0,13636.0,14738.0,0.24268311262130737,0.644555926322937,0.4152177572250366,0.4895400404930115,0.0,0.0,0.0,0.0,13779.0,14174.0,16346.0,11339.0,1.7157249450683594,3.0836086774878413,0.22009601318477673,1.7071411723071896,0.024059051647782326,0.02324613370001316,0.0
374,5,-8.458609954686835e-05,0.0003677856584545225,0.0010969340801239014,-0.007704361341893673,-0.0096016526222229,-0.024460947141051292,0.008037450723350048,0.06283677369356155,0.005237699020653963,0.022804701700806618,0.2702505886554718,-0.012907012365758419,0.0,0.0,0.0,0.007309733424335718,-0.005819598212838173,-0.0,0.0,0.0,0.0,0.0013178751105442643,-0.016030490398406982,0.004149295389652252,13015.0,14942.0,15206.0,12984.0,0.3760676085948944,0.50395667552948,0.5229440927505493,0.3741607367992401,0.0,0.0,0.0,0.0,13998.0,14175.0,16298.0,11657.0,1.7157249450683594,3.0814148548909155,0.21441841144837537,1.7091581365740505,0.024059051647782326,0.02324613370001316,0.0
379,5,-0.00010228850442217663,0.00033652735874056816,0.0009785182774066925,-0.005206032656133175,-8.966740278992802e-05,0.004425519611686468,0.008037450723350048,0.06283677369356155,0.005237699020653963,0.022804701700806618,0.2702505886554718,-0.012907012365758419,0.0,0.0,0.0,0.011697023175656796,-0.00694227684289217,-0.0,0.0,0.0,0.0,0.0013178751105442643,-0.016030490398406982,0.004149295389652252,13015.0,14942.0,15206.0,12984.0,0.3760676085948944,0.50395667552948,0.5229440927505493,0.3741607367992401,0.0,0.0,0.0,0.0,13998.0,14175.0,16298.0,11657.0,1.754374623298645,3.081978282748051,0.21584613893284052,1.7083184018474629,0.029345598071813583,0.038035422563552856,0.0
384,5,-0.00013068976113572717,0.0003897228743880987,0.0011652056127786636,-0.006746457889676094,-0.006230178289115429,-0.02037808857858181,0.008228867314755917,0.06025872007012367,0.004286045208573341,0.018233396112918854,0.36679041385650635,0.1691531091928482,0.0,0.0,0.0,0.011697023175656796,-0.00694227684289217,-0.0,0.0,0.0,0.0,0.0012122774496674538,-0.011976542882621288,0.0024463816080242395,14909.0,13029.0,16503.0,11291.0,0.5015801787376404,0.37691691517829895,0.6211987733840942,0.27743324637413025,0.0,0.0,0.0,0.0,11301.0,16306.0,13445.0,14752.0,1.754374623298645,3.0815261268054077,0.20945659636487224,1.707771826706034,0.029345598071813583,0.038035422563552856,0.0
389,5,-0.00013068976113572717,0.0003897228743880987,0.0011652056127786636,-0.006746457889676094,-0.006230178289115429,-0.02037808857858181,0.008228867314755917,0.06025872007012367,0.004286045208573341,0.018233396112918854,0.36679041385650635,0.1691531091928482,0.0,0.0,0.0,0.007986153475940228,-0.006262034177780151,-0.0,0.0,0.0,0.0,0.0012122774496674538,-0.011976542882621288,0.0024463816080242395,14909.0,13029.0,16503.0,11291.0,0.5015801787376404,0.37691691517829895,0.6211987733840942,0.27743324637413025,0.0,0.0,0.0,0.0,11301.0,16306.0,13445.0,14752.0,1.7236446142196655,3.0815261268054077,0.20945659636487224,1.707771826706034,0.026007486507296562,0.02551441267132759,0.0
394,5,-0.0001349717640550807,0.0004425274964887649,0.0012349954340606928,-0.00321242306381464,-0.008828625082969666,-0.016526009887456894,0.008428772911429405,0.05603959038853645,0.004996706731617451,0.06060240790247917,0.38352102041244507,-0.16494035720825195,0.0,0.0,0.0,0.007986153475940228,-0.006262034177780151,-0.0,0.0,0.0,0.0,-0.0009169965633191168,-0.00979167502373457,-0.0040303063578903675,11783.0,15902.0,13267.0,14659.0,0.30404141545295715,0.5746483206748962,0.39171603322029114,0.4839688241481781,0.0,0.0,0.0,0.0,14876.0,12751.0,16190.0,10952.0,1.7236446142196655,3.0828509958515435,0.20448440127567583,1.7092376538772793,0.026007486507296562,0.02551441267132759,0.0
399,5,-0.00010142422252101824,0.0004345675406511873,0.0012053000973537564,0.0018072036327794194,-0.0028834135737270117,-0.007323581725358963,0.008428772911429405,0.05603959038853645,0.004996706731617451,0.06060240790247917,0.38352102041244507,-0.16494035720825195,0.0,0.0,0.0,0.007986153475940228,-0.006262034177780151,-0.0,0.0,0.0,0.0,-0.0009169965633191168,-0.00979167502373457,-0.0040303063578903675,11783.0,15902.0,13267.0,14659.0,0.30404141545295715,0.5746483206748962,0.39171603322029114,0.4839688241481781,0.0,0.0,0.0,0.0,14876.0,12751.0,16190.0,10952.0,1.7236446142196655,3.084672486960487,0.20151541529594486,1.7070039964814308,0.026007486507296562,0.02551441267132759,0.0
404,5,-0.00014023782568983734,0.00043952700798399746,0.0012391092022880912,-0.00393475079908967,-0.0017484991112723947,-0.006986512802541256,0.008860699832439423,0.05306854099035263,0.00568819884210825,0.01160978153347969,0.33767563104629517,0.16554714739322662,0.0,0.0,0.0,0.004280416294932365,0.0015524281188845634,-0.0,0.0,0.0,0.0,0.0007211570045910776,-0.009679878130555153,0.006133432500064373,14998.0,12793.0,16309.0,11301.0,0.507971465587616,0.3624998927116394,0.6059423685073853,0.2779608964920044,0.0,0.0,0.0,0.0,13709.0,14281.0,14929.0,12971.0,1.6652652025222778,3.084872957916667,0.19875909007747197,1.7078333603406457,-0.006229348946362734,0.013212212361395359,0.0
409,5,-0.00011758722394006327,0.0004478597838897258,0.0012096050195395947,0.0011441715760156512,-0.0016993348253890872,0.0007458897307515144,0.008860699832439423,0.05306854099035263,0.00568819884210825,0.01160978153347969,0.33767563104629517,0.16554714739322662,0.0,0.0,0.0,0.004280416294932365,0.0015524281188845634,-0.0,0.0,0.0,0.0,0.0007211570045910776,-0.009679878130555153,0.006133432500064373,14998.0,12793.0,16309.0,11301.0,0.507971465587616,0.3624998927116394,0.6059423685073853,0.2779608964920044,0.0,0.0,0.0,0.0,13709.0,14281.0,14929.0,12971.0,1.6652652025222778,3.0866121686989296,0.1975282101975491,1.7064159467076,-0.006229348946362734,0.013212212361395359,0.0
415,5,-0.00013096517068333924,0.00046451942762359977,0.0011937676463276148,-0.0011476859217509627,-0.002678891643881798,0.0021988351363688707,0.00910460390150547,0.04884607717394829,0.005060174968093634,0.02266698330640793,0.3082878589630127,0.10813167691230774,0.0,0.0,0.0,0.0028896320145577192,0.0009180226479656994,-0.0,0.0,0.0,0.0,-0.0008630324737168849,-0.008056305348873138,-0.0008682584739290178,14489.0,13322.0,15592.0,11800.0,0.47218507528305054,0.39516520500183105,0.5512766242027283,0.30501770973205566,0.0,0.0,0.0,0.0,15745.0,11425.0,16403.0,9811.0,1.6516801118850708,3.087010610396176,0.19674325304158416,1.7059688744503763,-0.0036536704283207655,0.008846591226756573,-0.0
420,5,-0.00014031058526597917,0.000484548625536263,0.0012084965128451586,-0.001580523792654276,-0.0034750590566545725,-0.0008879238157533109,0.00910460390150547,0.04884607717394829,0.005060174968093634,0.02266698330640793,0.3082878589630127,0.10813167691230774,0.0,0.0,0.0,0.0028896320145577192,0.0009180226479656994,-0.0,0.0,0.0,0.0,-0.0008630324737168849,-0.008056305348873138,-0.0008682584739290178,14489.0,13322.0,15592.0,11800.0,0.47218507528305054,0.39516520500183105,0.5512766242027283,0.30501770973205566,0.0,0.0,0.0,0.0,15745.0,11425.0,16403.0,9811.0,1.6516801118850708,3.0859365535390753,0.19710550212467837,1.7067614030062934,-0.0036536704283207655,0.008846591226756573,-0.0
425,5,-0.0001231704227393493,0.0004931383300572634,0.0011313790455460548,0.0014246104983612895,-0.002420790260657668,0.008898927830159664,0.009164422750473022,0.046556949615478516,0.006258823908865452,-0.03481599688529968,0.22728252410888672,-0.15783827006816864,0.0,0.0,0.0,0.0050691235810518265,-0.0016604652628302574,-0.0,0.0,0.0,0.0,-0.0012150765396654606,-0.007781616877764463,-0.0013299231650307775,11709.0,15458.0,12860.0,14271.0,0.29996344447135925,0.5413917303085327,0.3665989339351654,0.45731112360954285,0.0,0.0,0.0,0.0,12340.0,15011.0,13192.0,13711.0,1.671905279159546,3.089212961933918,0.19646059852358433,1.7053830741819784,0.006689406465739012,0.0157090425491333,0.0
430,5,-0.00017816135368775576,0.0005131649668328464,0.001051086001098156,-0.006029067561030388,-0.0033715120516717434,0.013194738887250423,0.009164422750473022,0.046556949615478516,0.006258823908865452,-0.03481599688529968,0.22728252410888672,-0.15783827006816864,0.0,0.0,0.0,0.0050691235810518265,-0.0016604652628302574,-0.0,0.0,0.0,0.0,-0.0012150765396654606,-0.007781616877764463,-0.0013299231650307775,11709.0,15458.0,12860.0,14271.0,0.29996344447135925,0.5413917303085327,0.3665989339351654,0.45731112360954285,0.0,0.0,0.0,0.0,12340.0,15011.0,13192.0,13711.0,1.671905279159546,3.0874841684659473,0.19992128599796188,1.7049532310837927,0.006689406465739012,0.0157090425491333,0.0
435,5,-0.00014995525998529047,0.000564439338631928,0.0011533170472830534,0.0009731047321110964,-0.0075015295296907425,-0.006989837624132633,0.00917973741889,0.04421589523553848,0.006286262534558773,-0.04601626843214035,0.12232606112957001,0.21257200837135315,0.0,0.0,0.0,0.004907639231532812,-0.005750601179897785,-0.0,0.0,0.0,0.0,-0.0018072075909003615,-0.009340386837720871,0.0070947627536952496,15620.0,11426.0,16650.0,9270.0,0.5534036159515381,0.2846306264400482,0.6328562498092651,0.21131499111652374,0.0,0.0,0.0,0.0,13914.0,14245.0,14609.0,12539.0,1.7017308473587036,3.088980032090342,0.19478314754378276,1.7057708665319042,0.023580249398946762,0.015479926951229572,-0.0
440,5,-0.00017256582214031368,0.0005824186955578625,0.0010520973009988666,-0.00232402584515512,-0.005158130079507828,0.009350433014333248,0.00917973741889,0.04421589523553848,0.006286262534558773,-0.04601626843214035,0.12232606112957001,0.21257200837135315,0.0,0.0,0.0,0.004907639231532812,-0.005750601179897785,-0.0,0.0,0.0,0.0,-0.0018072075909003615,-0.009340386837720871,0.0070947627536952496,15620.0,11426.0,16650.0,9270.0,0.5534036159515381,0.2846306264400482,0.6328562498092651,0.21131499111652374,0.0,0.0,0.0,0.0,13914.0,14245.0,14609.0,12539.0,1.7017308473587036,3.087560587255154,0.19922632905253965,1.704959212686486,0.023580249398946762,0.015479926951229572,-0.0
445,5,-0.00012835868983529508,0.0005986047326587141,0.0011071347398683429,0.004375244490802288,-0.004005580209195614,-0.0028643107507377863,0.008985711261630058,0.043297406286001205,0.005688790697604418,0.028417358174920082,0.058203089982271194,-0.12383157759904861,0.0,0.0,0.0,0.0071945348754525185,-0.0023685276973992586,-0.0,0.0,0.0,0.0,-0.0008299128385260701,-0.01435934193432331,0.0037615043111145496,11805.0,15509.0,13470.0,13662.0,0.30525708198547363,0.5451391339302063,0.4045758843421936,0.41693317890167236,0.0,0.0,0.0,0.0,14289.0,13228.0,15664.0,11100.0,1.6919447183609009,3.0905298508046206,0.19485641153899624,1.7037666301492431,0.009656170383095741,0.022562678903341293,-0.0
450,5,-0.0001406628725817427,0.0006110088434070349,0.0011211129603907466,0.0002735963207669556,-0.003090726677328348,-0.0028231132309883833,0.008985711261630058,0.043297406286001205,0.005688790697604418,0.028417358174920082,0.058203089982271194,-0.12383157759904861,0.0,0.0,0.0,0.0071945348754525185,-0.0023685276973992586,-0.0,0.0,0.0,0.0,-0.0008299128385260701,-0.01435934193432331,0.0037615043111145496,11805.0,15509.0,13470.0,13662.0,0.30525708198547363,0.5451391339302063,0.4045758843421936,0.41693317890167236,0.0,0.0,0.0,0.0,14289.0,13228.0,15664.0,11100.0,1.6919447183609009,3.090907276628393,0.19408857642188712,1.7038685979184947,0.009656170383095741,0.022562678903341293,-0.0
455,5,-0.00018909710342995822,0.0006344829453155398,0.0011903452686965466,-0.00570266880095005,-0.004053177777677774,-0.009437119588255882,0.008985711261630058,0.043297406286001205,0.005688790697604418,0.028417358174920082,0.058203089982271194,-0.12383157759904861,0.0,0.0,0.0,0.00592174893245101,-0.005458611994981766,-0.0,0.0,0.0,0.0,-0.0008299128385260701,-0.01435934193432331,0.0037615043111145496,11805.0,15509.0,13470.0,13662.0,0.30525708198547363,0.5451391339302063,0.4045758843421936,0.41693317890167236,0.0,0.0,0.0,0.0,14289.0,13228.0,15664.0,11100.0,1.7043784856796265,3.0893959298010674,0.19190190115492875,1.7046334326294197,0.022417666390538216,0.018707681447267532,0.0
460,5,-0.00018996329163201153,0.0006545790820382535,0.0012655876344069839,-0.0023850109428167343,-0.004032811615616083,-0.01280392985790968,0.008930807933211327,0.04290999844670296,0.006638165097683668,0.017484169453382492,0.004107645247131586,-0.13755114376544952,0.0,0.0,0.0,0.00592174893245101,-0.005458611994981766,-0.0,0.0,0.0,0.0,-0.0008299128385260701,-0.01435934193432331,0.0037615043111145496,12606.0,15035.0,14536.0,12824.0,0.35133305191993713,0.5105557441711426,0.47543463110923767,0.3644074499607086,0.0,0.0,0.0,0.0,10209.0,16787.0,12279.0,14924.0,1.7043784856796265,3.0890665855134185,0.1903742974378572,1.7027361036706665,0.022417666390538216,0.018707681447267532,0.0
465,5,-0.00017989501066040248,0.0006807013996876776,0.0012621120549738407,0.00025418924633413553,-0.004747801925987005,-0.004704505670815706,0.008930807933211327,0.04290999844670296,0.006638165097683668,0.017484169453382492,0.004107645247131586,-0.13755114376544952,0.0,0.0,0.0,0.00592174893245101,-0.005458611994981766,-0.0,0.0,0.0,0.0,-0.0008299128385260701,-0.01435934193432331,0.0037615043111145496,12606.0,15035.0,14536.0,12824.0,0.35133305191993713,0.5105557441711426,0.47543463110923767,0.3644074499607086,0.0,0.0,0.0,0.0,10209.0,16787.0,12279.0,14924.0,1.7043784856796265,3.0911777216393967,0.189091047802754,1.7023834809576635,0.022417666390538216,0.018707681447267532,0.0
470,5,-0.0002454371133353561,0.0007138640503399074,0.0012190251145511866,-0.007763375528156757,-0.0058786398731172085,0.003288631560280919,0.009235081262886524,0.0424068458378315,0.0054339938797056675,-0.008429000154137611,0.05671234801411629,0.2086663544178009,0.0,0.0,0.0,0.0069102332927286625,-7.261809514602646e-06,-0.0,0.0,0.0,0.0,-0.0013757058186456561,-0.012055483646690845,-0.004950231406837702,15070.0,12362.0,16523.0,10124.0,0.5131187438964844,0.33692431449890137,0.6227788329124451,0.21912281215190887,0.0,0.0,0.0,0.0,15027.0,12397.0,16490.0,10202.0,1.6839808225631714,3.0884066941483783,0.19263880741780498,1.7040636519281382,2.946615859400481e-05,0.021569104865193367,0.0
475,5,-0.0002277960884384811,0.00070055021205917,0.0010619554668664932,-0.000988427666015923,-0.0007537931087426841,0.02016381174325943,0.009235081262886524,0.0424068458378315,0.0054339938797056675,-0.008429000154137611,0.05671234801411629,0.2086663544178009,0.0,0.0,0.0,0.0069102332927286625,-7.261809514602646e-06,-0.0,0.0,0.0,0.0,-0.0013757058186456561,-0.012055483646690845,-0.004950231406837702,15070.0,12362.0,16523.0,10124.0,0.5131187438964844,0.33692431449890137,0.6227788329124451,0.21912281215190887,0.0,0.0,0.0,0.0,15027.0,12397.0,16490.0,10202.0,1.6839808225631714,3.0894099470345937,0.19645250920283286,1.7015548320302458,2.946615859400481e-05,0.021569104865193367,0.0
480,5,-0.000234362727496773,0.0007525712135247886,0.0010753844399005175,-0.0011833675671368837,-0.0065440405160188675,0.006454036571085453,0.009238890372216702,0.041615940630435944,0.0054054269567132,0.03244679793715477,0.11060897260904312,-0.2685484290122986,0.0,0.0,0.0,0.002193954773247242,-0.0012471486115828156,-0.0,0.0,0.0,0.0,-0.0004938577767461538,-0.01015031710267067,0.007383811287581921,10239.0,16759.0,12045.0,15159.0,0.22456951439380646,0.641563892364502,0.31870001554489136,0.5195450782775879,0.0,0.0,0.0,0.0,13249.0,14506.0,14533.0,12838.0,1.6483373641967773,3.090916850493367,0.19461642170325627,1.7014470558445551,0.004953532945364714,0.006703192833811045,-0.0
