timestamp,dt,pos_x,pos_y,pos_z,vel_x,vel_y,vel_z,roll,pitch,yaw,agv_x,agv_y,agv_z,x_ref,y_ref,z_ref,roll_ref,pitch_ref,yaw_ref,x_vel_ref,y_vel_ref,z_vel_ref,x_torque,y_torque,z_torque,w0,w1,w2,w3,u0,u1,u2,u3,m0req,m1req,m2req,m3req,thrust0,thrust1,thrust2,thrust3,thrust_ref,roll_vicon,pitch_vicon,yaw_vicon,acc_x,acc_y,acc_z
5,5,0.0,0.0,0.0,-0.0029357834719121456,-0.0009465700713917613,-0.0003183414228260517,-0.0031056050211191177,-0.027388351038098335,-0.003219661070033908,-0.00013748492347076535,-0.005857853218913078,-0.004930992145091295,0.0,0.0,0.0,0.0011556752724573016,-0.0027571755927056074,-0.0,0.0,0.0,0.0,0.0012582290219143033,0.007302766665816307,-0.00039477148675359786,1495.0,1495.0,1495.0,1495.0,0.0,0.0,0.0,0.0,0.0,0.0,0.0,0.0,1495.0,1495.0,1495.0,1495.0,1.6570661067962646,-0.000672864770538527,0.030464004580261158,-0.07920871034308674,0.011009188368916512,0.0035496377386152744,0.0
43,38,0.0,0.0,0.0,0.002543231239542365,-0.0009225562680512667,0.0027796286158263683,-0.0031056050211191177,-0.027388351038098335,-0.003219661070033908,-0.00013748492347076535,-0.005857853218913078,-0.004930992145091295,0.0,0.0,0.0,0.0011556752724573016,-0.0027571755927056074,-0.0,0.0,0.0,0.0,0.0012582290219143033,0.007302766665816307,-0.00039477148675359786,1495.0,1495.0,1495.0,1495.0,0.0,0.0,0.0,0.0,0.0,0.0,0.0,0.0,1495.0,1495.0,1495.0,1495.0,1.6570661067962646,7.652317730025836e-06,0.03051120286445462,-0.07973899301450675,0.011009188368916512,0.0035496377386152744,0.0
48,5,0.0,0.0,0.0,0.0014578828122466803,0.001600798568688333,0.0031155517790466547,-0.0031056050211191177,-0.027388351038098335,-0.003219661070033908,-0.00013748492347076535,-0.005857853218913078,-0.004930992145091295,0.0,0.0,0.0,0.0011289718095213175,0.002394050359725952,-0.0,0.0,0.0,0.0,0.0012582290219143033,0.007302766665816307,-0.00039477148675359786,1495.0,1495.0,1495.0,1495.0,0.0,0.0,0.0,0.0,0.0,0.0,0.0,0.0,1495.0,1495.0,1495.0,1495.0,1.6532275676727295,0.00048670470600947215,0.030451745924148777,-0.0792672656172193,-0.009537117555737495,0.003459586063399911,0.0
53,5,0.0,0.0,0.0,-0.00027091725496575236,0.0028374423272907734,0.002082104329019785,-0.003116422798484564,-0.02738257497549057,-0.0032593179494142532,-0.0013109036954119802,0.004523699637502432,-0.003137543797492981,0.0,0.0,0.0,0.0011289718095213175,0.002394050359725952,-0.0,0.0,0.0,0.0,0.0013252083444967866,0.0074882498010993,-0.00045473038335330784,1495.0,1495.0,1495.0,1495.0,0.0,0.0,0.0,0.0,0.0,0.0,0.0,0.0,1495.0,1495.0,1495.0,1495.0,1.6532275676727295,0.0010459378634007734,0.03131746801214301,-0.07941169821907626,-0.009537117555737495,0.003459586063399911,0.0
66,13,9.675872206571512e-06,2.234016210422851e-05,-4.861245997744845e-06,0.0002926684101112187,-0.0006032050005160272,0.0003057587309740484,-0.003116422798484564,-0.02738257497549057,-0.0032593179494142532,-0.0013109036954119802,0.004523699637502432,-0.003137543797492981,0.0,0.0,0.0,-0.0034692243207246065,-0.00025480016483925283,-0.0,0.0,0.0,0.0,0.0013252083444967866,0.0074882498010993,-0.00045473038335330784,1495.0,1495.0,1495.0,1495.0,0.0,0.0,0.0,0.0,0.0,0.0,0.0,0.0,1495.0,1495.0,1495.0,1495.0,1.6546988487243652,-0.001731630647103886,0.03031843886370681,-0.07904205384811598,0.001015939749777317,-0.010640408843755722,0.0
72,6,4.2192523324047215e-06,2.5176859708153643e-05,1.719214196782559e-05,-0.000537727028131485,-0.0005816857446916401,-0.0025241030380129814,-0.003112546168267727,-0.027457889169454575,-0.0032698311842978,-0.003674430539831519,0.0035124579444527626,-0.0004327806818764657,0.0,0.0,0.0,-0.0034692243207246065,-0.00025480016483925283,-0.0,0.0,0.0,0.0,0.0013194020139053464,0.009136253036558628,-0.00036108450149185956,14016.0,12998.0,12900.0,14443.0,0.44017547369003296,0.37499189376831055,0.3689911961555481,0.4690690040588379,0.0,0.0,0.0,0.0,1495.0,1495.0,1495.0,1495.0,1.6546988487243652,-0.0008704397919393809,0.031229713122860076,-0.07934422610712308,0.001015939749777317,-0.010640408843755722,0.0
77,5,2.644760752446018e-05,2.0345574739621952e-05,-2.2429101591114886e-05,0.0015289699658751488,-8.011383033590391e-05,0.00411889236420393,-0.003112546168267727,-0.027457889169454575,-0.0032698311842978,-0.003674430539831519,0.0035124579444527626,-0.0004327806818764657,0.0,0.0,0.0,0.0007659364491701126,-0.0005062284180894494,-0.0,0.0,0.0,0.0,0.0013194020139053464,0.009136253036558628,-0.00036108450149185956,14016.0,12998.0,12900.0,14443.0,0.44017547369003296,0.37499189376831055,0.3689911961555481,0.4690690040588379,0.0,0.0,0.0,0.0,1495.0,1495.0,1495.0,1495.0,1.6340477466583252,0.0009491612337037298,0.030824110610288835,-0.07943289189674893,0.001993255689740181,0.0023198823910206556,0.0
82,5,4.062560401507653e-05,3.0039544071769342e-05,-6.3235743255063426e-06,0.0023129472974687815,-0.0011953217908740044,-0.00028510636184364557,-0.0031249180901795626,-0.027443813160061836,-0.003304107580333948,0.0006373358191922307,-0.007965697906911373,-0.003977742977440357,0.0,0.0,0.0,0.001517011201940477,0.002233794191852212,-0.0,0.0,0.0,0.0,0.0012728928122669458,0.008817989379167557,-0.0004830375546589494,13956.0,13070.0,12873.0,14460.0,0.4361926019191742,0.3794621527194977,0.3673618733882904,0.4702109396457672,0.0,0.0,0.0,0.0,14047.0,13180.0,12879.0,14288.0,1.6529384851455688,-0.0004825281596666429,0.029177959989119245,-0.07893017329771465,-0.008897149935364723,0.004647867288440466,0.0
87,5,4.062560401507653e-05,3.0039544071769342e-05,-6.3235743255063426e-06,0.0023129472974687815,-0.0011953217908740044,-0.00028510636184364557,-0.0031249180901795626,-0.027443813160061836,-0.003304107580333948,0.0006373358191922307,-0.007965697906911373,-0.003977742977440357,0.0,0.0,0.0,0.001517011201940477,0.002233794191852212,-0.0,0.0,0.0,0.0,0.0012728928122669458,0.008817989379167557,-0.0004830375546589494,13956.0,13070.0,12873.0,14460.0,0.4361926019191742,0.3794621527194977,0.3673618733882904,0.4702109396457672,0.0,0.0,0.0,0.0,14047.0,13180.0,12879.0,14288.0,1.6529384851455688,-0.0004825281596666429,0.029177959989119245,-0.07893017329771465,-0.008897149935364723,0.004647867288440466,0.0
92,5,3.364505755598657e-05,2.6687685021897778e-05,-2.8224703783052973e-05,0.0004980093217454851,0.0013544925022870302,0.0037458741571754217,-0.0031434872653335333,-0.02742336504161358,-0.0033066037576645613,0.001255025970749557,-0.0005053371423855424,-0.0034287392627447844,0.0,0.0,0.0,-0.0016223038546741009,0.0005193981342017651,-0.0,0.0,0.0,0.0,0.0013906678650528193,0.009036985225975513,-0.00040252887993119657,13863.0,13029.0,12863.0,14316.0,0.43003422021865845,0.376906156539917,0.3667644262313843,0.4603429436683655,0.0,0.0,0.0,0.0,13916.0,12975.0,12902.0,14278.0,1.6402390003204346,-0.001699161473026967,0.028956738892153798,-0.07846936389518584,-0.0020528575405478477,-0.004932277835905552,0.0
102,10,3.7589175917673856e-05,2.72710694844136e-05,-3.571917477529496e-05,-1.3989781109557953e-05,-9.363244316773489e-05,0.0016372384270653129,-0.0031434872653335333,-0.02742336504161358,-0.0033066037576645613,0.001255025970749557,-0.0005053371423855424,-0.0034287392627447844,0.0,0.0,0.0,-0.0016223038546741009,0.0005193981342017651,-0.0,0.0,0.0,0.0,0.0013906678650528193,0.009036985225975513,-0.00040252887993119657,13863.0,13029.0,12863.0,14316.0,0.43003422021865845,0.376906156539917,0.3667644262313843,0.4603429436683655,0.0,0.0,0.0,0.0,13916.0,12975.0,12902.0,14278.0,1.6402390003204346,-0.00045656373433537853,0.02911834413972255,-0.07856734798510087,-0.0020528575405478477,-0.004932277835905552,0.0
107,5,3.7589175917673856e-05,2.72710694844136e-05,-3.571917477529496e-05,-1.3989781109557953e-05,-9.363244316773489e-05,0.0016372384270653129,-0.0031434872653335333,-0.02742336504161358,-0.0033066037576645613,0.001255025970749557,-0.0005053371423855424,-0.0034287392627447844,0.0,0.0,0.0,0.0001661424757912755,3.942025068681687e-05,-0.0,0.0,0.0,0.0,0.0013906678650528193,0.009036985225975513,-0.00040252887993119657,13863.0,13029.0,12863.0,14316.0,0.43003422021865845,0.376906156539917,0.3667644262313843,0.4603429436683655,0.0,0.0,0.0,0.0,13916.0,12975.0,12902.0,14278.0,1.6284600496292114,-0.00045656373433537853,0.02911834413972255,-0.07856734798510087,-0.00015468506899196655,0.0005014946800656617,0.0
112,5,5.249856258160435e-06,3.3479867852292955e-05,-9.779891115613282e-06,-0.0038863145746290684,-0.0007825088687241077,-0.0024578184820711613,-0.0031434872653335333,-0.02742336504161358,-0.0033066037576645613,0.001255025970749557,-0.0005053371423855424,-0.0034287392627447844,0.0,0.0,0.0,0.0001661424757912755,3.942025068681687e-05,-0.0,0.0,0.0,0.0,0.0013906678650528193,0.009036985225975513,-0.00040252887993119657,13863.0,13029.0,12863.0,14316.0,0.43003422021865845,0.376906156539917,0.3667644262313843,0.4603429436683655,0.0,0.0,0.0,0.0,13916.0,12975.0,12902.0,14278.0,1.6284600496292114,-0.00127972844155465,0.02957755163040362,-0.07911554270039615,-0.00015468506899196655,0.0005014946800656617,0.0
117,5,2.3850150682847016e-05,9.82731580734253e-06,-1.6852245607879013e-05,0.0006775095243938267,0.00252530281431973,-0.00013444489741232246,-0.0031443359330296516,-0.02747645415365696,-0.003318308386951685,0.0003000746655743569,0.005415423307567835,-0.003654983825981617,0.0,0.0,0.0,0.0010100514627993107,-0.003623051568865776,-0.0,0.0,0.0,0.0,0.00043231050949543715,0.008281775750219822,-0.0004538611974567175,13980.0,13026.0,12875.0,14471.0,0.43778225779533386,0.3767140209674835,0.3674689829349518,0.4709732234477997,0.0,0.0,0.0,0.0,14001.0,12992.0,12904.0,14455.0,1.6659808158874512,-0.00010918970091277609,0.029756515554332015,-0.07920274484667433,0.014544380828738213,0.003119046799838543,0.0
122,5,-8.855567102727946e-06,4.2341762309661135e-05,3.285314960521646e-05,-0.003653682302683592,-0.0028916122391819954,-0.006018425337970257,-0.0031443359330296516,-0.02747645415365696,-0.003318308386951685,0.0003000746655743569,0.005415423307567835,-0.003654983825981617,0.0,0.0,0.0,0.0010100514627993107,-0.003623051568865776,-0.0,0.0,0.0,0.0,0.00043231050949543715,0.008281775750219822,-0.0004538611974567175,13980.0,13026.0,12875.0,14471.0,0.43778225779533386,0.3767140209674835,0.3674689829349518,0.4709732234477997,0.0,0.0,0.0,0.0,14001.0,12992.0,12904.0,14455.0,1.6659808158874512,-0.0011906782663258129,0.02921412642764058,-0.07900290561387019,0.014544380828738213,0.003119046799838543,0.0
127,5,4.3829459173139185e-05,2.940345075330697e-05,-9.42387288205282e-08,0.003152998862788081,0.00025300614652223885,0.000607809517532587,-0.003159866901114583,-0.02747206762433052,-0.003344523487612605,0.0026573888026177883,-0.0052397423423826694,-0.002517640357837081,0.0,0.0,0.0,-0.0002558313717599958,0.003019118681550026,-0.0,0.0,0.0,0.0,0.0010247870814055204,0.008335692808032036,-0.00033966972841881216,13941.0,13100.0,12811.0,14312.0,0.4352191686630249,0.3812849521636963,0.363625705242157,0.4601091742515564,0.0,0.0,0.0,0.0,14027.0,13000.0,12896.0,14242.0,1.6584782600402832,-3.828777063647155e-05,0.02978259207949057,-0.07909352949044184,-0.012065385468304157,-0.000786451855674386,0.0
132,5,3.921608367818408e-05,4.633769276551902e-05,-2.883739625758608e-06,0.0007075942703522742,-0.0019309066701680422,0.0005778639460913837,-0.003159866901114583,-0.02747206762433052,-0.003344523487612605,0.0026573888026177883,-0.0052397423423826694,-0.002517640357837081,0.0,0.0,0.0,-0.0002558313717599958,0.003019118681550026,-0.0,0.0,0.0,0.0,0.0010247870814055204,0.008335692808032036,-0.00033966972841881216,13941.0,13100.0,12811.0,14312.0,0.4352191686630249,0.3812849521636963,0.363625705242157,0.4601091742515564,0.0,0.0,0.0,0.0,14027.0,13000.0,12896.0,14242.0,1.6584782600402832,-0.0006231662153647591,0.029225905744347348,-0.07892944504316692,-0.012065385468304157,-0.000786451855674386,0.0
137,5,-4.657864337787032e-06,6.153499271022156e-05,4.605900539900176e-05,-0.004981835838407278,-0.0025960381608456373,-0.005641983821988106,-0.003159655723720789,-0.02746981382369995,-0.0033254632726311684,1.1663181567200809e-06,0.0018362613627687097,-0.0011553503572940826,0.0,0.0,0.0,0.0032292448449879885,-0.0046125752851367,-0.0,0.0,0.0,0.0,0.0012531346874311566,0.007085050456225872,-0.0003743660054169595,13887.0,12980.0,12828.0,14286.0,0.4315911829471588,0.37392255663871765,0.36464598774909973,0.45830032229423523,0.0,0.0,0.0,0.0,13895.0,12975.0,12843.0,14269.0,1.6831048727035522,-0.0014283135303005037,0.029566033787635556,-0.07884344164786061,0.01870694011449814,0.010074403136968613,0.0
142,5,3.204797167200013e-06,4.343717955634929e-05,1.2997325029573403e-05,-0.0010492149740457535,0.0011333219008520246,0.001710608135908842,-0.003157536732032895,-0.027459070086479187,-0.0033371977042406797,0.0014835561159998178,-0.004860383458435535,0.0013798868749290705,0.0,0.0,0.0,-0.0013184072449803352,-0.0009904563194140792,-0.0,0.0,0.0,0.0,0.0008865644340403378,0.009060332551598549,-0.00035360822221264243,13937.0,13197.0,13106.0,14341.0,0.4349338114261627,0.38733866810798645,0.38165292143821716,0.46205541491508484,0.0,0.0,0.0,0.0,13949.0,13189.0,13103.0,14340.0,1.6409504413604736,-0.00037017202039847576,0.030386362000034965,-0.07951276602196786,0.003916356712579727,-0.00401008315384388,0.0
150,8,1.3376004062592983e-05,4.065428220201284e-05,-1.931053338921629e-05,0.0008008588338270783,0.0007872766000218689,0.0045611863024532795,-0.003157536732032895,-0.027459070086479187,-0.0033371977042406797,0.0014835561159998178,-0.004860383458435535,0.0013798868749290705,0.0,0.0,0.0,-0.0013184072449803352,-0.0009904563194140792,-0.0,0.0,0.0,0.0,0.0008865644340403378,0.009060332551598549,-0.00035360822221264243,13937.0,13197.0,13106.0,14341.0,0.4349338114261627,0.38733866810798645,0.38165292143821716,0.46205541491508484,0.0,0.0,0.0,0.0,13949.0,13189.0,13103.0,14340.0,1.6409504413604736,-0.00040124204099792316,0.030601736871397948,-0.07893114267004872,0.003916356712579727,-0.00401008315384388,0.0
155,5,-5.154725840839092e-06,3.0284791137091815e-05,1.6516534742549993e-05,-0.0019033440621569753,0.0015592494746670127,-0.002474773908033967,-0.003144270507618785,-0.027429360896348953,-0.0033433667849749327,0.003036501118913293,-0.0013589953305199742,-0.0017273700796067715,0.0,0.0,0.0,-0.0013184072449803352,-0.0009904563194140792,-0.0,0.0,0.0,0.0,0.0008865644340403378,0.009060332551598549,-0.00035360822221264243,14061.0,13057.0,12884.0,14436.0,0.4431893825531006,0.37867116928100586,0.3680216670036316,0.46859604120254517,0.0,0.0,0.0,0.0,14052.0,13077.0,12841.0,14466.0,1.6409504413604736,-0.0006189975628864441,0.03076193495018091,-0.0792554422855772,0.003916356712579727,-0.00401008315384388,0.0
160,5,-1.136020728154108e-05,2.0396917534526438e-05,-1.1804459973063786e-05,-0.0015059954021126032,0.0018102446338161826,0.0024086099583655596,-0.003144270507618785,-0.027429360896348953,-0.0033433667849749327,0.003036501118913293,-0.0013589953305199742,-0.0017273700796067715,0.0,0.0,0.0,-0.0013184072449803352,-0.0009904563194140792,-0.0,0.0,0.0,0.0,0.0008865644340403378,0.009060332551598549,-0.00035360822221264243,14061.0,13057.0,12884.0,14436.0,0.4431893825531006,0.37867116928100586,0.3680216670036316,0.46859604120254517,0.0,0.0,0.0,0.0,14052.0,13077.0,12841.0,14466.0,1.6409504413604736,6.092501244626826e-05,0.0314467364980873,-0.07937213887855125,0.005709430668503046,-0.006675193551927805,0.0
165,5,-3.430041397223249e-05,2.8803115128539503e-05,5.8493904361967e-05,-0.0033552232198417187,-0.0002846457646228373,-0.007472360040992498,-0.003147754119709134,-0.027451254427433014,-0.003377622924745083,-0.000486820557853207,-0.002631870098412037,-0.0019012161064893007,0.0,0.0,0.0,-0.002183183329179883,-0.0014364031376317143,-0.0,0.0,0.0,0.0,0.0019751579966396093,0.006884350441396236,-0.0004306230111978948,13912.0,13263.0,13207.0,14463.0,0.4332672953605652,0.39144283533096313,0.387945294380188,0.47044944763183594,0.0,0.0,0.0,0.0,13981.0,13205.0,13279.0,14382.0,1.6495509147644043,1.983675335075987e-05,0.031508744205204435,-0.0796094514131076,0.005709430668503046,-0.006675193551927805,0.0
170,5,-1.383768358209636e-05,4.944141619489528e-05,5.5920605518622324e-05,0.0011134385131299496,-0.0025904544163495302,-0.002680147998034954,-0.003147754119709134,-0.027451254427433014,-0.003377622924745083,-0.000486820557853207,-0.002631870098412037,-0.0019012161064893007,0.0,0.0,0.0,-0.002183183329179883,-0.0014364031376317143,-0.0,0.0,0.0,0.0,0.0019751579966396093,0.006884350441396236,-0.0004306230111978948,13912.0,13263.0,13207.0,14463.0,0.4332672953605652,0.39144283533096313,0.387945294380188,0.47044944763183594,0.0,0.0,0.0,0.0,13981.0,13205.0,13279.0,14382.0,1.6495509147644043,-0.0001776415272468977,0.03162021419773515,-0.0792296718469636,0.005709430668503046,-0.006675193551927805,0.0
176,5,-1.2989656170248054e-05,4.473806620808318e-05,9.432762453798205e-05,0.0005471387412399054,-0.00047177975648082793,-0.005680901929736137,-0.00312045868486166,-0.02742539532482624,-0.0033576656132936478,-0.002468554535880685,-0.0008327378309331834,-0.003324778052046895,0.0,0.0,0.0,0.0032557279337197542,0.001028052531182766,-0.0,0.0,0.0,0.0,0.0005345354438759387,0.007963152602314949,-0.00034427858190611005,13922.0,13106.0,12857.0,14295.0,0.43391019105911255,0.38169145584106445,0.36640381813049316,0.45894497632980347,0.0,0.0,0.0,0.0,13950.0,13084.0,12905.0,14245.0,1.6549879312515259,0.0005279284629982507,0.03175491458264056,-0.0793413370246193,-0.004099771846085787,0.009987345896661282,0.0
181,5,-4.897060716757551e-05,1.5215799066936597e-05,0.00015257191262207925,-0.004098858684301376,0.0033539601135998964,-0.009261676110327244,-0.00312045868486166,-0.02742539532482624,-0.0033576656132936478,-0.002468554535880685,-0.0008327378309331834,-0.003324778052046895,0.0,0.0,0.0,0.0032557279337197542,0.001028052531182766,-0.0,0.0,0.0,0.0,0.0005345354438759387,0.007963152602314949,-0.00034427858190611005,13922.0,13106.0,12857.0,14295.0,0.43391019105911255,0.38169145584106445,0.36640381813049316,0.45894497632980347,0.0,0.0,0.0,0.0,13950.0,13084.0,12905.0,14245.0,1.6549879312515259,-0.0006834940932870275,0.031810217750986906,-0.08046674789274615,-0.004099771846085787,0.009987345896661282,0.0
186,5,-3.445738911977969e-05,5.452521872939542e-05,7.747350173303857e-05,0.00010204258433077484,-0.0033755465410649776,0.005307139828801155,-0.0030779466032981873,-0.027372898533940315,-0.003248342080041766,0.0018674317980185151,-0.010273586958646774,0.02463282085955143,0.0,0.0,0.0,-0.0040121786296367645,-0.0038638769183307886,-0.0,0.0,0.0,0.0,0.0002430240565445274,0.007587613072246313,0.00027347722789272666,14228.0,12887.0,13203.0,14002.0,0.45438385009765625,0.3682066798210144,0.3877366781234741,0.4392237067222595,0.0,0.0,0.0,0.0,13771.0,13378.0,12713.0,14444.0,1.6798056364059448,0.0004881846672764216,0.0323428549101886,-0.08010745801862496,0.015639744699001312,-0.01249239593744278,0.0
191,5,-3.004201607836876e-05,4.523266034084372e-05,9.291284368373454e-05,0.0005706618539988995,-0.00023511161271017045,0.0002701347111724317,-0.0030779466032981873,-0.027372898533940315,-0.003248342080041766,0.0018674317980185151,-0.010273586958646774,0.02463282085955143,0.0,0.0,0.0,-0.0040121786296367645,-0.0038638769183307886,-0.0,0.0,0.0,0.0,0.0002430240565445274,0.007587613072246313,0.00027347722789272666,14228.0,12887.0,13203.0,14002.0,0.45438385009765625,0.3682066798210144,0.3877366781234741,0.4392237067222595,0.0,0.0,0.0,0.0,13771.0,13378.0,12713.0,14444.0,1.6798056364059448,0.00026995682116555186,0.031395957295447384,-0.07918475337128783,0.015639744699001312,-0.01249239593744278,0.0
196,5,-3.540455873007886e-05,5.125670213601552e-05,7.06022183294408e-05,-0.00041524041444063187,-0.0008169294451363385,0.0027853294741362333,-0.0030790099408477545,-0.027365166693925858,-0.0036578886210918427,-0.012897555716335773,0.007233879528939724,-0.030375242233276367,0.0,0.0,0.0,0.00037418745341710746,0.0005022339173592627,-0.0,0.0,0.0,0.0,0.0019274996593594551,0.008662098087370396,-0.0022805859334766865,13361.0,13591.0,12346.0,15012.0,0.3976624011993408,0.4123496413230896,0.33600032329559326,0.5089755654335022,0.0,0.0,0.0,0.0,15053.0,11685.0,14162.0,13312.0,1.6319252252578735,-0.0008450354217348721,0.03228345718879244,-0.0792183006024961,-0.001974959159269929,0.0011318738106638193,-0.0
201,5,-1.9374931071070023e-05,3.835407187580131e-05,4.8527326725889e-05,0.0017574592493474483,0.0012215435272082686,0.003763118525967002,-0.0030790099408477545,-0.027365166693925858,-0.0036578886210918427,-0.012897555716335773,0.007233879528939724,-0.030375242233276367,0.0,0.0,0.0,0.00037418745341710746,0.0005022339173592627,-0.0,0.0,0.0,0.0,0.0019274996593594551,0.008662098087370396,-0.0022805859334766865,13361.0,13591.0,12346.0,15012.0,0.3976624011993408,0.4123496413230896,0.33600032329559326,0.5089755654335022,0.0,0.0,0.0,0.0,15053.0,11685.0,14162.0,13312.0,1.6319252252578735,2.5979627920185872e-05,0.03262364137525761,-0.08017894951654252,-0.001974959159269929,0.0011318738106638193,-0.0
206,5,-3.00826900456741e-06,4.616583828465082e-05,2.4490229407092556e-05,0.0026669830549508333,-0.00044879442430101335,0.004389699082821608,-0.002990767592564225,-0.02752440795302391,-0.0027089975774288177,0.009418515488505363,0.06316405534744263,-0.09884854406118393,0.0,0.0,0.0,-0.0014309505932033062,0.0016338698333129287,-0.0,0.0,0.0,0.0,-0.0005252033588476479,0.007966122590005398,0.001577393850311637,14103.0,13372.0,12848.0,14452.0,0.4459657073020935,0.39836418628692627,0.36583876609802246,0.4696369767189026,0.0,0.0,0.0,0.0,11837.0,15367.0,10108.0,16485.0,1.6469395160675049,-0.0008834514173573073,0.030845050394210136,-0.07837772154437977,-0.006484050303697586,-0.004368280991911888,-0.0
211,5,-0.00013760337606072426,-9.379827679367736e-05,0.00027492965455166996,-0.015084619633853436,0.016616176813840866,-0.028296852484345436,-0.002990767592564225,-0.02752440795302391,-0.0027089975774288177,0.009418515488505363,0.06316405534744263,-0.09884854406118393,0.0,0.0,0.0,-0.0014309505932033062,0.0016338698333129287,-0.0,0.0,0.0,0.0,-0.0005252033588476479,0.007966122590005398,0.001577393850311637,14103.0,13372.0,12848.0,14452.0,0.4459657073020935,0.39836418628692627,0.36583876609802246,0.4696369767189026,0.0,0.0,0.0,0.0,11837.0,15367.0,10108.0,16485.0,1.6469395160675049,-0.011791724600271173,0.028155548445548004,-0.08148054217142607,-0.006484050303697586,-0.004368280991911888,-0.0
216,5,-2.9811235435772687e-05,2.646568464115262e-05,8.047002484090626e-05,0.0069012087769806385,-0.007785205263644457,0.012016416527330875,-0.0031840696465224028,-0.02810608595609665,-0.0030651467386633158,-0.024521775543689728,-0.021603992208838463,0.21846598386764526,0.0,0.0,0.0,-0.018315261229872704,-0.012856296263635159,-0.0,0.0,0.0,0.0,0.0015370004111900926,0.009149364195764065,0.0018405606970191002,15344.0,11148.0,14429.0,12767.0,0.5329949855804443,0.26991769671440125,0.4680496156215668,0.3609628975391388,0.0,0.0,0.0,0.0,11837.0,15367.0,10108.0,16485.0,1.8507901430130005,0.0001025424582419447,0.033063747010529144,-0.07991573401889203,0.05732448399066925,-0.06282532215118408,0.0
221,5,-0.0001699784043012187,-0.00012176000018371269,0.00040332821663469076,-0.014059576205909252,0.014673000201582909,-0.03393641859292984,-0.0031840696465224028,-0.02810608595609665,-0.0030651467386633158,-0.024521775543689728,-0.021603992208838463,0.21846598386764526,0.0,0.0,0.0,-0.018315261229872704,-0.012856296263635159,-0.0,0.0,0.0,0.0,0.0015370004111900926,0.009149364195764065,0.0018405606970191002,15344.0,11148.0,14429.0,12767.0,0.5329949855804443,0.26991769671440125,0.4680496156215668,0.3609628975391388,0.0,0.0,0.0,0.0,11837.0,15367.0,10108.0,16485.0,1.8507901430130005,-0.013373877480519847,0.025912538404851235,-0.08202017140082053,0.05732448399066925,-0.06282532215118408,0.0
226,5,9.799124200071674e-06,4.829550380236469e-05,6.972207484068349e-05,0.015949472784996033,-0.014537460170686245,0.026458170264959335,-0.0031475427094846964,-0.028324319049715996,-0.003022377612069249,0.006538469810038805,0.11457150429487228,-0.2161487191915512,0.0,0.0,0.0,-0.016412056982517242,-0.012164665386080742,-0.0,0.0,0.0,0.0,0.0004498054913710803,0.011267703957855701,-0.004370208363980055,12169.0,14804.0,10198.0,16289.0,0.3258010745048523,0.4941539168357849,0.22260569036006927,0.6043788194656372,0.0,0.0,0.0,0.0,15842.0,10489.0,15032.0,11976.0,1.830886960029602,-0.0005810217562692262,0.030873919442458937,-0.07901410142791149,0.05365922674536705,-0.05569262430071831,0.0
231,5,-1.1206811905140057e-05,3.556738738552667e-05,9.99938347376883e-05,0.0038590766489505768,-0.004287609830498695,0.00695065688341856,-0.0031475427094846964,-0.028324319049715996,-0.003022377612069249,0.006538469810038805,0.11457150429487228,-0.2161487191915512,0.0,0.0,0.0,-0.016412056982517242,-0.012164665386080742,-0.0,0.0,0.0,0.0,0.0004498054913710803,0.011267703957855701,-0.004370208363980055,12169.0,14804.0,10198.0,16289.0,0.3258010745048523,0.4941539168357849,0.22260569036006927,0.6043788194656372,0.0,0.0,0.0,0.0,15842.0,10489.0,15032.0,11976.0,1.830886960029602,-0.0007064793792800849,0.03198163336437895,-0.07902612975227694,0.05365922674536705,-0.05569262430071831,0.0
237,5,-1.8298436771146953e-05,6.477635906776413e-05,0.00011270212417002767,-0.005959465634077787,-0.014060426503419876,-0.014430103823542595,-0.0030185356736183167,-0.028422951698303223,-0.0027469599153846502,0.0022488953545689583,-0.05828108265995979,0.03467099368572235,0.0,0.0,0.0,0.005212751217186451,0.0035500554367899895,-0.0,0.0,0.0,0.0,0.00040607337723486125,0.007827910594642162,0.0033766617998480797,14864.0,12092.0,13896.0,13318.0,0.4984332323074341,0.3213677406311035,0.4322194457054138,0.39491909742355347,0.0,0.0,0.0,0.0,13781.0,13341.0,12249.0,14823.0,1.6844236850738525,0.00020472043417798366,0.03207739696849461,-0.07903381798999398,-0.014408924616873264,0.016275087371468544,-0.0
242,5,6.955126445973292e-05,-9.10854032554198e-06,0.00018729956354945898,0.008158178068697453,0.003242017235606909,-0.014723733998835087,-0.0030185356736183167,-0.028422951698303223,-0.0027469599153846502,0.0022488953545689583,-0.05828108265995979,0.03467099368572235,0.0,0.0,0.0,0.005212751217186451,0.0035500554367899895,-0.0,0.0,0.0,0.0,0.00040607337723486125,0.007827910594642162,0.0033766617998480797,14864.0,12092.0,13896.0,13318.0,0.4984332323074341,0.3213677406311035,0.4322194457054138,0.39491909742355347,0.0,0.0,0.0,0.0,13781.0,13341.0,12249.0,14823.0,1.6844236850738525,-0.00655630109166937,0.025557178884319277,-0.07909158006209102,-0.014408924616873264,0.016275087371468544,-0.0
247,5,-0.0001537983916932717,-0.00010741778532974422,0.0004635825171135366,-0.023538688197731972,0.013093916699290276,-0.039043448865413666,-0.0028943668585270643,-0.0281755980104208,-0.002995298709720373,0.05448592081665993,-0.05894974246621132,0.0987493246793747,0.0,0.0,0.0,-0.0038393556606024504,0.007494292687624693,-0.0,0.0,0.0,0.0,-0.00012330742902122438,0.008104576729238033,0.0009713805047795177,15534.0,13784.0,14444.0,13552.0,0.5469895601272583,0.4248417913913727,0.46910908818244934,0.4098496735095978,0.0,0.0,0.0,0.0,12916.0,14144.0,11709.0,15280.0,1.7152822017669678,-0.014781636277926717,0.025082579238492733,-0.08196271200864864,-0.030974967405200005,-0.012206763960421085,0.0
252,5,7.31822353827738e-07,3.581508963179658e-06,0.0002932489151135087,0.009128150530159473,-0.008082348853349686,0.004822655580937862,-0.0028943668585270643,-0.0281755980104208,-0.002995298709720373,0.05448592081665993,-0.05894974246621132,0.0987493246793747,0.0,0.0,0.0,-0.0038393556606024504,0.007494292687624693,-0.0,0.0,0.0,0.0,-0.00012330742902122438,0.008104576729238033,0.0009713805047795177,15534.0,13784.0,14444.0,13552.0,0.5469895601272583,0.4248417913913727,0.46910908818244934,0.4098496735095978,0.0,0.0,0.0,0.0,12916.0,14144.0,11709.0,15280.0,1.7152822017669678,-0.004467012920377181,0.026177762675917315,-0.07942809669397687,-0.030974967405200005,-0.012206763960421085,0.0
257,5,-2.4271817892440595e-05,2.0352123101474717e-05,0.0002883146808017045,0.0006508233491331339,-0.005245413165539503,0.0025211672764271498,-0.0021466517355293036,-0.027632195502519608,-0.0031583812087774277,0.09666416794061661,-0.042126815766096115,-0.01891215145587921,0.0,0.0,0.0,0.009359564632177353,0.008126740343868732,-0.0,0.0,0.0,0.0,-0.006021467503160238,0.0033807496074587107,-0.0025674139615148306,14208.0,15039.0,12951.0,14814.0,0.4530293941497803,0.5109012722969055,0.37209951877593994,0.4948567748069763,0.0,0.0,0.0,0.0,15033.0,14329.0,13928.0,14085.0,1.748281717300415,0.0008546145851295523,0.03057634552996835,-0.07887007951554705,-0.03423386067152023,0.030329417437314987,-0.0
262,5,-2.2868343876325525e-05,-2.3250917365658097e-05,0.00038454154855571687,0.0004287461924832314,0.0031341994181275368,-0.010538755916059017,-0.0021466517355293036,-0.027632195502519608,-0.0031583812087774277,0.09666416794061661,-0.042126815766096115,-0.01891215145587921,0.0,0.0,0.0,0.009359564632177353,0.008126740343868732,-0.0,0.0,0.0,0.0,-0.006021467503160238,0.0033807496074587107,-0.0025674139615148306,14208.0,15039.0,12951.0,14814.0,0.4530293941497803,0.5109012722969055,0.37209951877593994,0.4948567748069763,0.0,0.0,0.0,0.0,15033.0,14329.0,13928.0,14085.0,1.748281717300415,0.0021808481688412,0.030065331547013005,-0.0793165825633658,-0.03423386067152023,0.030329417437314987,-0.0
267,5,-2.2819414880359545e-05,-0.00013129555736668408,0.0005718550528399646,0.00017737006419338286,0.01421903632581234,-0.026693124324083328,-0.0013240380212664604,-0.027506191283464432,-0.0030853531789034605,0.12923716008663177,0.01645338349044323,-0.05403481423854828,0.0,0.0,0.0,-0.0038653917144984007,0.0003707162104547024,-0.0,0.0,0.0,0.0,-0.002706006169319153,0.009217235259711742,0.0005141369765624404,13736.0,13700.0,12394.0,14950.0,0.4217279851436615,0.4193708598613739,0.3388272821903229,0.5044975280761719,0.0,0.0,0.0,0.0,14056.0,13563.0,12397.0,14775.0,1.6581631898880005,-0.002032708320298888,0.024676421234703375,-0.07992768602737436,-0.0014812129084020853,-0.01188029907643795,0.0
272,5,-9.280297672376037e-05,-9.042700548889115e-05,0.000584918656386435,-0.008327079005539417,0.0007833884446881711,-0.012244878336787224,-0.0013240380212664604,-0.027506191283464432,-0.0030853531789034605,0.12923716008663177,0.01645338349044323,-0.05403481423854828,0.0,0.0,0.0,-0.0038653917144984007,0.0003707162104547024,-0.0,0.0,0.0,0.0,-0.002706006169319153,0.009217235259711742,0.0005141369765624404,13736.0,13700.0,12394.0,14950.0,0.4217279851436615,0.4193708598613739,0.3388272821903229,0.5044975280761719,0.0,0.0,0.0,0.0,14056.0,13563.0,12397.0,14775.0,1.6581631898880005,0.006251850085954069,0.030599446922123477,-0.08008730127643197,-0.0014812129084020853,-0.01188029907643795,0.0
277,5,-9.411205974174663e-05,-0.0001295438123634085,0.0006002780864946544,-0.003487922018393874,0.0050073713064193726,-0.006741085089743137,0.00138076429720968,-0.027568185701966286,-0.0031159776262938976,0.3162497878074646,-0.041664060205221176,0.027894577011466026,0.0,0.0,0.0,-0.0010825562058016658,-0.007695262786000967,-0.0,0.0,0.0,0.0,-0.008906805887818336,0.008446164429187775,-0.0011073831701651216,14725.0,13100.0,13083.0,13926.0,0.48862478137016296,0.38132789731025696,0.38027986884117126,0.43419113755226135,0.0,0.0,0.0,0.0,14707.0,13867.0,12462.0,14234.0,1.7116305828094482,0.007342417894333194,0.029319968197549243,-0.07953488873789011,0.03173809498548508,-0.003434542566537857,0.0
282,5,-7.908629777375609e-05,-0.00025063325301744044,0.0006019992870278656,0.0004079227801412344,0.016533682122826576,-0.002902979962527752,0.00138076429720968,-0.027568185701966286,-0.0031159776262938976,0.3162497878074646,-0.041664060205221176,0.027894577011466026,0.0,0.0,0.0,-0.0010825562058016658,-0.007695262786000967,-0.0,0.0,0.0,0.0,-0.008906805887818336,0.008446164429187775,-0.0011073831701651216,14725.0,13100.0,13083.0,13926.0,0.48862478137016296,0.38132789731025696,0.38027986884117126,0.43419113755226135,0.0,0.0,0.0,0.0,14707.0,13867.0,12462.0,14234.0,1.7116305828094482,0.0004515591341441611,0.026065201028649773,-0.08057490798996107,0.03173809498548508,-0.003434542566537857,0.0
288,5,-0.0001110541052184999,-0.00017922051483765244,0.0006958580343052745,-0.003672968130558729,-0.0019560563378036022,-0.01242423988878727,0.008295893669128418,-0.02590339444577694,-0.0032186375465244055,0.2714221179485321,-0.11271000653505325,-0.03871837258338928,0.0,0.0,0.0,-0.019054589793086052,0.0002528618206270039,-0.0,0.0,0.0,0.0,-0.008562564849853516,0.005400313530117273,-0.000488514662720263,14181.0,14143.0,12277.0,13805.0,0.451243132352829,0.4486861526966095,0.33198198676109314,0.42625191807746887,0.0,0.0,0.0,0.0,14913.0,13478.0,12997.0,13019.0,1.7947041988372803,0.009710873033984744,0.027240711099817835,-0.07963340910247985,-0.001093324739485979,-0.0633801519870758,0.0
293,5,-9.254440374206752e-05,-0.00022727837495040148,0.0007467819377779961,0.0007519769133068621,0.004984520375728607,-0.011080564931035042,0.008295893669128418,-0.02590339444577694,-0.0032186375465244055,0.2714221179485321,-0.11271000653505325,-0.03871837258338928,0.0,0.0,0.0,-0.019054589793086052,0.0002528618206270039,-0.0,0.0,0.0,0.0,-0.008562564849853516,0.005400313530117273,-0.000488514662720263,14181.0,14143.0,12277.0,13805.0,0.451243132352829,0.4486861526966095,0.33198198676109314,0.42625191807746887,0.0,0.0,0.0,0.0,14913.0,13478.0,12997.0,13019.0,1.7947041988372803,0.006119296367978012,0.022277023705787026,-0.07918469993825411,-0.001093324739485979,-0.0633801519870758,0.0
298,5,-0.00018205266678705812,-0.00019118483760394156,0.0007859985926188529,-0.010440199635922909,-0.0023374154698103666,-0.009138223715126514,0.009658812545239925,-0.025142785161733627,-0.0030544057954102755,0.08046484738588333,-0.112630195915699,0.051244791597127914,0.0,0.0,0.0,-0.006404535844922066,0.0005704438081011176,-0.0,0.0,0.0,0.0,-0.005952983163297176,0.005024509970098734,0.0007354520494118333,14694.0,13264.0,13272.0,13210.0,0.48643678426742554,0.39155644178390503,0.3920411467552185,0.3881288170814514,0.0,0.0,0.0,0.0,14159.0,14002.0,12444.0,13824.0,1.6799747943878174,0.009109677736965187,0.02418880291490282,-0.07910219907955442,-0.0023091842886060476,-0.01994314230978489,0.0
303,5,-0.00015657706535421312,-0.00018691219156607985,0.0007118834182620049,-0.0011190082877874374,-0.0014476844808086753,0.0052385288290679455,0.009658812545239925,-0.025142785161733627,-0.0030544057954102755,0.08046484738588333,-0.112630195915699,0.051244791597127914,0.0,0.0,0.0,-0.006404535844922066,0.0005704438081011176,-0.0,0.0,0.0,0.0,-0.005952983163297176,0.005024509970098734,0.0007354520494118333,14694.0,13264.0,13272.0,13210.0,0.48643678426742554,0.39155644178390503,0.3920411467552185,0.3881288170814514,0.0,0.0,0.0,0.0,14159.0,14002.0,12444.0,13824.0,1.6799747943878174,0.011025207700243457,0.024613327748972635,-0.07860628862306102,-0.0023091842886060476,-0.01994314230978489,0.0
308,5,-0.00011443524999776855,-0.00023251125821843743,0.0006795026129111648,0.004609414376318455,0.004892814438790083,0.005981107242405415,0.009781594388186932,-0.024397896602749825,-0.0029664472676813602,-0.04324762523174286,-0.05322684720158577,0.023222994059324265,0.0,0.0,0.0,0.001443649409338832,-0.0012773037888109684,-0.0,0.0,0.0,0.0,-0.008119713515043259,0.006233930587768555,-0.0008175099501386285,14914.0,14380.0,12997.0,14209.0,0.5019663572311401,0.46472424268722534,0.37492454051971436,0.45308899879455566,0.0,0.0,0.0,0.0,14956.0,14482.0,13000.0,14057.0,1.6439268589019775,0.006077071568173241,0.020353382257680495,-0.07824456126840146,0.005059737712144852,0.0043989853002130985,-0.0
313,5,-0.00012991442054044455,-0.00024692187434993684,0.000545289134606719,-1.3735197171627078e-05,0.0036863989662379026,0.01849805936217308,0.009781594388186932,-0.024397896602749825,-0.0029664472676813602,-0.04324762523174286,-0.05322684720158577,0.023222994059324265,0.0,0.0,0.0,0.001443649409338832,-0.0012773037888109684,-0.0,0.0,0.0,0.0,-0.008119713515043259,0.006233930587768555,-0.0008175099501386285,14914.0,14380.0,12997.0,14209.0,0.5019663572311401,0.46472424268722534,0.37492454051971436,0.45308899879455566,0.0,0.0,0.0,0.0,14956.0,14482.0,13000.0,14057.0,1.6439268589019775,0.007423600205259432,0.022920572644957934,-0.07833826572208138,0.005059737712144852,0.0043989853002130985,-0.0
318,5,-0.00020480010425671935,-0.00020100139954593033,0.0005483468994498253,-0.00899177510291338,-0.004035895690321922,0.00703229196369648,0.009370663203299046,-0.024151865392923355,-0.0026730115059763193,-0.06076567620038986,-0.016210684552788734,-0.023331541568040848,0.0,0.0,0.0,-0.004914724268019199,-0.0001914031308842823,-0.0,0.0,0.0,0.0,-0.003782030660659075,0.006499840412288904,0.00015397205424960703,14258.0,13655.0,12761.0,14111.0,0.4564119577407837,0.4164394736289978,0.36058270931243896,0.4465406537055969,0.0,0.0,0.0,0.0,13832.0,13382.0,12923.0,14112.0,1.666874647140503,0.011052405987391175,0.024011898906894927,-0.07720609025023929,0.0007687739562243223,-0.015184745192527771,-0.0
323,5,-0.00026326460647396743,-0.00020240060985088348,0.000511749240104109,-0.010612450540065765,-0.0014464532723650336,0.007204640191048384,0.009370663203299046,-0.024151865392923355,-0.0026730115059763193,-0.06076567620038986,-0.016210684552788734,-0.023331541568040848,0.0,0.0,0.0,-0.004914724268019199,-0.0001914031308842823,-0.0,0.0,0.0,0.0,-0.003782030660659075,0.006499840412288904,0.00015397205424960703,14258.0,13655.0,12761.0,14111.0,0.4564119577407837,0.4164394736289978,0.36058270931243896,0.4465406537055969,0.0,0.0,0.0,0.0,13832.0,13382.0,12923.0,14112.0,1.666874647140503,0.009329074982486286,0.022964813574745932,-0.07683861224182742,0.0007687739562243223,-0.015184745192527771,-0.0
328,5,-0.0003447649360168725,-0.0003208134730812162,0.0004985348205082119,-0.014025021344423294,0.013630961067974567,0.004467588849365711,0.008063451386988163,-0.023648329079151154,-0.0023694622796028852,-0.1363142430782318,-0.08237522840499878,0.06066703796386719,0.0,0.0,0.0,0.0013379278825595975,-0.009855219163000584,-0.0,0.0,0.0,0.0,-0.0001319471630267799,0.004573495127260685,0.0013869251124560833,14429.0,12650.0,13809.0,13326.0,0.46805262565612793,0.35393601655960083,0.42650794982910156,0.3954302668571472,0.0,0.0,0.0,0.0,13766.0,13350.0,13216.0,13934.0,1.736981987953186,-0.0014913711242515696,0.020811858795995435,-0.07912384082217641,0.04124830290675163,0.0043076095171272755,-0.0
333,5,-0.00031242132536135614,-0.00019272632198408246,0.0004673253861255944,-0.0017287745140492916,-0.009918073192238808,0.0055321636609733105,0.008063451386988163,-0.023648329079151154,-0.0023694622796028852,-0.1363142430782318,-0.08237522840499878,0.06066703796386719,0.0,0.0,0.0,0.0013379278825595975,-0.009855219163000584,-0.0,0.0,0.0,0.0,-0.0001319471630267799,0.004573495127260685,0.0013869251124560833,14429.0,12650.0,13809.0,13326.0,0.46805262565612793,0.35393601655960083,0.42650794982910156,0.3954302668571472,0.0,0.0,0.0,0.0,13766.0,13350.0,13216.0,13934.0,1.736981987953186,0.00878224858393054,0.02167016123847031,-0.07657155975329137,0.04124830290675163,0.0043076095171272755,-0.0
339,5,-0.0004105416592210531,-0.0001914669992402196,0.0005457695806398988,-0.012465951032936573,-0.00411834754049778,-0.007200435269623995,0.0072293272241950035,-0.022813979536294937,-0.0025866874493658543,-0.06982891261577606,-0.11229705810546875,-0.002158631570637226,0.0,0.0,0.0,0.004404200706630945,-0.011541511863470078,-0.0,0.0,0.0,0.0,-0.0024107119534164667,0.004376700613647699,-0.0011953740613535047,13777.0,13865.0,12860.0,14099.0,0.42441749572753906,0.4301486015319824,0.3665887713432312,0.44571977853775024,0.0,0.0,0.0,0.0,13766.0,13350.0,13216.0,13934.0,1.7623308897018433,0.00856573072470808,0.021712483115868833,-0.07734828587032558,0.049010392278432846,0.014386678114533424,0.0
344,5,-0.0004296948609407991,-0.0002510101185180247,0.0005880881799384952,-0.007284762337803841,0.005497834179550409,-0.007958408445119858,0.0072293272241950035,-0.022813979536294937,-0.0025866874493658543,-0.06982891261577606,-0.11229705810546875,-0.002158631570637226,0.0,0.0,0.0,0.004404200706630945,-0.011541511863470078,-0.0,0.0,0.0,0.0,-0.0024107119534164667,0.004376700613647699,-0.0011953740613535047,13777.0,13865.0,12860.0,14099.0,0.42441749572753906,0.4301486015319824,0.3665887713432312,0.44571977853775024,0.0,0.0,0.0,0.0,13766.0,13350.0,13216.0,13934.0,1.7623308897018433,0.002975586184269929,0.016921267418500606,-0.0773019390348165,0.049010392278432846,0.014386678114533424,0.0
349,5,-0.00041085758130066097,-0.0003019551222678274,0.000428416213253513,-0.0006534314597956836,0.008312536403536797,0.015977274626493454,0.007007780019193888,-0.02162649855017662,-0.002598917344585061,0.005803489591926336,-0.09675568342208862,-0.060236599296331406,0.0,0.0,0.0,-0.010330390185117722,-0.001141401007771492,-0.0,0.0,0.0,0.0,-0.0017523713177070022,0.0013365013292059302,-0.0007442982168868184,13614.0,14457.0,13193.0,14399.0,0.41384226083755493,0.4700317978858948,0.3870759606361389,0.4660319685935974,0.0,0.0,0.0,0.0,13699.0,14382.0,13185.0,14402.0,1.7149989604949951,0.0027710229472193734,0.01909327750803518,-0.07789370266541783,0.004716618452221155,-0.0328378789126873,-0.0
354,5,-0.000505439646076411,-0.00020965066505596042,0.0006456727278418839,-0.011611219495534897,-0.0077515216544270515,-0.019679870456457138,0.007007780019193888,-0.02162649855017662,-0.002598917344585061,0.005803489591926336,-0.09675568342208862,-0.060236599296331406,0.0,0.0,0.0,-0.010330390185117722,-0.001141401007771492,-0.0,0.0,0.0,0.0,-0.0017523713177070022,0.0013365013292059302,-0.0007442982168868184,13614.0,14457.0,13193.0,14399.0,0.41384226083755493,0.4700317978858948,0.3870759606361389,0.4660319685935974,0.0,0.0,0.0,0.0,13699.0,14382.0,13185.0,14402.0,1.7149989604949951,0.010397724308575293,0.020615847129921556,-0.0769582884326513,0.004716618452221155,-0.0328378789126873,-0.0
359,5,-0.0005687192897312343,-0.00021289181313477457,0.0006523072370328009,-0.012238046154379845,-0.002711670706048608,-0.008668092079460621,0.007181537337601185,-0.021103518083691597,-0.002602342749014497,0.04312226176261902,-0.051081955432891846,0.005907970946282148,0.0,0.0,0.0,0.0027577923610806465,-0.011567155830562115,-0.0,0.0,0.0,0.0,-0.0013610399328172207,0.001516631804406643,0.0004673953226301819,14354.0,13868.0,13957.0,13905.0,0.4629286825656891,0.4303426444530487,0.4362241327762604,0.4328354299068451,0.0,0.0,0.0,0.0,13771.0,14514.0,13160.0,14593.0,1.7590867280960083,0.008398115273725748,0.019878017984274046,-0.07692671000110882,0.0490291528403759,0.008992001414299011,0.0
364,5,-0.0005651248502545059,-0.00026290505775250494,0.0007296722615137696,-0.004463886376470327,0.004916921257972717,-0.012751039117574692,0.007181537337601185,-0.021103518083691597,-0.002602342749014497,0.04312226176261902,-0.051081955432891846,0.005907970946282148,0.0,0.0,0.0,0.0027577923610806465,-0.011567155830562115,-0.0,0.0,0.0,0.0,-0.0013610399328172207,0.001516631804406643,0.0004673953226301819,14354.0,13868.0,13957.0,13905.0,0.4629286825656891,0.4303426444530487,0.4362241327762604,0.4328354299068451,0.0,0.0,0.0,0.0,13771.0,14514.0,13160.0,14593.0,1.7590867280960083,0.007742350521236301,0.017372897314426962,-0.07756567612103019,0.0490291528403759,0.008992001414299011,0.0
369,5,-0.000608373899012804,-0.0003792089701164514,0.0006052693934179842,-0.006975439377129078,0.015923239290714264,0.009827929548919201,0.00811049621552229,-0.020922372117638588,-0.0031257993541657925,0.09249885380268097,-0.005551663227379322,-0.010299885645508766,0.0,0.0,0.0,-0.018444452434778214,-0.006775922141969204,-0.0,0.0,0.0,0.0,-0.006971084978431463,0.006158508826047182,-0.0018223552033305168,14294.0,14280.0,12488.0,14221.0,0.4588843584060669,0.4578913450241089,0.34429603815078735,0.453927218914032,0.0,0.0,0.0,0.0,14670.0,13991.0,12870.0,13778.0,1.8079811334609985,0.0030317528531425674,0.01876735813432224,-0.07887907914429045,0.029514607042074203,-0.061804983764886856,-0.0
374,5,-0.0006971786497160792,-0.0002741016214713454,0.0007429781253449619,-0.013446744531393051,-0.006243587005883455,-0.01259387657046318,0.00811049621552229,-0.020922372117638588,-0.0031257993541657925,0.09249885380268097,-0.005551663227379322,-0.010299885645508766,0.0,0.0,0.0,-0.018444452434778214,-0.006775922141969204,-0.0,0.0,0.0,0.0,-0.006971084978431463,0.006158508826047182,-0.0018223552033305168,14294.0,14280.0,12488.0,14221.0,0.4588843584060669,0.4578913450241089,0.34429603815078735,0.453927218914032,0.0,0.0,0.0,0.0,14670.0,13991.0,12870.0,13778.0,1.8079811334609985,0.011470998290527747,0.01946664860315194,-0.0771169619401304,0.029514607042074203,-0.061804983764886856,-0.0
379,5,-0.0007408842211589217,-0.00027429297915659845,0.0007437544409185648,-0.010623367503285408,-0.0024744716938585043,-0.005130706820636988,0.00811049621552229,-0.020922372117638588,-0.0031257993541657925,0.09249885380268097,-0.005551663227379322,-0.010299885645508766,0.0,0.0,0.0,-0.018444452434778214,-0.006775922141969204,-0.0,0.0,0.0,0.0,-0.006971084978431463,0.006158508826047182,-0.0018223552033305168,14294.0,14280.0,12488.0,14221.0,0.4588843584060669,0.4578913450241089,0.34429603815078735,0.453927218914032,0.0,0.0,0.0,0.0,14670.0,13991.0,12870.0,13778.0,1.8079811334609985,0.010897609663282409,0.020030707913409128,-0.07781277124357822,0.029514607042074203,-0.061804983764886856,-0.0
384,5,-0.0008174495887942612,-0.0002679323952179402,0.0007273667142726481,-0.013437192887067795,-0.0017530593322589993,-8.575469109928235e-05,0.009048305451869965,-0.020792042836546898,-0.003282896475866437,0.08253253251314163,-0.03510785102844238,-0.07145030796527863,0.0,0.0,0.0,0.002399563090875745,-0.010445134714245796,-0.0,0.0,0.0,0.0,-0.008687227964401245,0.0023900074884295464,7.481201464543119e-05,13615.0,14834.0,12800.0,14687.0,0.413866251707077,0.4963018596172333,0.3629360496997833,0.4859825670719147,0.0,0.0,0.0,0.0,13536.0,14852.0,12818.0,14726.0,1.7452685832977295,0.009744723967699875,0.02017190599248984,-0.07815242960659251,0.04392573982477188,0.007762511260807514,0.0
389,5,-0.0008316629682667553,-0.0003398430999368429,0.000796463165897876,-0.00708048464730382,0.007928062230348587,-0.008325881324708462,0.009048305451869965,-0.020792042836546898,-0.003282896475866437,0.08253253251314163,-0.03510785102844238,-0.07145030796527863,0.0,0.0,0.0,0.002399563090875745,-0.010445134714245796,-0.0,0.0,0.0,0.0,-0.008687227964401245,0.0023900074884295464,7.481201464543119e-05,13615.0,14834.0,12800.0,14687.0,0.413866251707077,0.4963018596172333,0.3629360496997833,0.4859825670719147,0.0,0.0,0.0,0.0,13536.0,14852.0,12818.0,14726.0,1.7452685832977295,0.0073563744493253605,0.016712254248874278,-0.07895902780647832,0.04392573982477188,0.007762511260807514,0.0
395,5,-0.0008512669592164457,-0.00037054758286103606,0.0005970259080640972,-0.005184669978916645,0.006855761166661978,0.02060212381184101,0.009412011131644249,-0.02007462829351425,-0.003540940349921584,-0.01386544480919838,-0.08058536052703857,0.009548431262373924,0.0,0.0,0.0,-0.009774488396942616,-0.00740805733948946,-0.0,0.0,0.0,0.0,-0.0009744351846165955,0.000958119286224246,-0.0018639671616256237,14879.0,14574.0,13463.0,13805.0,0.4994979202747345,0.4780901372432709,0.40415140986442566,0.4262416660785675,0.0,0.0,0.0,0.0,14315.0,15053.0,12941.0,14374.0,1.7446836233139038,0.003545747209868073,0.018649477451401816,-0.08019106914584677,0.03114212118089199,-0.0316087044775486,0.0
400,5,-0.0009796578669920564,-0.00024248093541245908,0.0007371368119493127,-0.017480771988630295,-0.01262569334357977,-0.008572464808821678,0.009412011131644249,-0.02007462829351425,-0.003540940349921584,-0.01386544480919838,-0.08058536052703857,0.009548431262373924,0.0,0.0,0.0,-0.009774488396942616,-0.00740805733948946,-0.0,0.0,0.0,0.0,-0.0009744351846165955,0.000958119286224246,-0.0018639671616256237,14879.0,14574.0,13463.0,13805.0,0.4994979202747345,0.4780901372432709,0.40415140986442566,0.4262416660785675,0.0,0.0,0.0,0.0,14315.0,15053.0,12941.0,14374.0,1.7446836233139038,0.009204659627521308,0.01905231621501221,-0.0781405405065354,0.03114212118089199,-0.0316087044775486,0.0
405,5,-0.0010317704873159528,-0.00022613418695982546,0.0007419631001539528,-0.01324582938104868,-0.007011887151747942,-0.004008139483630657,0.009184782393276691,-0.019589606672525406,-0.004022482316941023,-0.09038084745407104,-0.06128784641623497,-0.028701772913336754,0.0,0.0,0.0,0.013419716618955135,-0.01592463254928589,-0.0,0.0,0.0,0.0,-0.0037453179247677326,0.0013374700210988522,-0.0013238235842436552,13499.0,14507.0,13201.0,14571.0,0.40639686584472656,0.47343021631240845,0.38759559392929077,0.4778459072113037,0.0,0.0,0.0,0.0,14086.0,13871.0,14002.0,13872.0,1.8494961261749268,0.010214200979892694,0.01940139126465412,-0.07924576792731329,0.07096059620380402,0.046002522110939026,0.0
410,5,-0.0010460350895300508,-0.000214740342926234,0.0007464810041710734,-0.007010080385953188,-0.004172015469521284,-0.0021453998051583767,0.009184782393276691,-0.019589606672525406,-0.004022482316941023,-0.09038084745407104,-0.06128784641623497,-0.028701772913336754,0.0,0.0,0.0,0.013419716618955135,-0.01592463254928589,-0.0,0.0,0.0,0.0,-0.0037453179247677326,0.0013374700210988522,-0.0013238235842436552,13499.0,14507.0,13201.0,14571.0,0.40639686584472656,0.47343021631240845,0.38759559392929077,0.4778459072113037,0.0,0.0,0.0,0.0,14086.0,13871.0,14002.0,13872.0,1.8494961261749268,0.008423263647945253,0.018873441487378607,-0.07897064201106972,0.07096059620380402,0.046002522110939026,0.0
415,5,-0.0010772972600534558,-0.0002718553296290338,0.0007382255280390382,-0.006555493921041489,0.005184991285204887,0.0001324948389083147,0.008065947331488132,-0.01868010126054287,-0.0042250799015164375,-0.0810844674706459,-0.0570988692343235,-0.06372915953397751,0.0,0.0,0.0,0.004532682243734598,-0.007735340856015682,-0.0,0.0,0.0,0.0,0.0022233196068555117,-0.0009036178234964609,-0.00023082525876816362,14025.0,14404.0,14430.0,14518.0,0.4407624304294586,0.46640095114707947,0.4681243598461151,0.47420838475227356,0.0,0.0,0.0,0.0,13604.0,14852.0,12736.0,14528.0,1.720276951789856,0.006437034640619282,0.017203500839496087,-0.07939974875908294,0.03206424042582512,0.014453049749135971,0.0
420,5,-0.0011579554993659258,-0.0003972238046117127,0.0007795084966346622,-0.012301184237003326,0.017118213698267937,-0.004900959320366383,0.008065947331488132,-0.01868010126054287,-0.0042250799015164375,-0.0810844674706459,-0.0570988692343235,-0.06372915953397751,0.0,0.0,0.0,0.004532682243734598,-0.007735340856015682,-0.0,0.0,0.0,0.0,0.0022233196068555117,-0.0009036178234964609,-0.00023082525876816362,14025.0,14404.0,14430.0,14518.0,0.4407624304294586,0.46640095114707947,0.4681243598461151,0.47420838475227356,0.0,0.0,0.0,0.0,13604.0,14852.0,12736.0,14528.0,1.720276951789856,-0.0011450114741503698,0.015844742857926097,-0.08141592682354122,0.03206424042582512,0.014453049749135971,0.0
425,5,-0.001123275374993682,-0.0003061074239667505,0.0006781145930290222,-0.0007588674197904766,-0.004086678382009268,0.010206881910562515,0.007728817872703075,-0.01811683550477028,-0.00438302056863904,-0.008745415136218071,-0.06364298611879349,0.0037833009846508503,0.0,0.0,0.0,-0.019365185871720314,-0.011786521412432194,-0.0,0.0,0.0,0.0,0.0011696468573063612,-0.0002598798891995102,-0.0012068840442225337,14025.0,14404.0,14430.0,14518.0,0.4407624304294586,0.46640095114707947,0.4681243598461151,0.47420838475227356,0.0,0.0,0.0,0.0,13725.0,14746.0,14022.0,14856.0,1.849797248840332,0.0033868437650838856,0.01687017869314231,-0.07931163166058396,0.05252549797296524,-0.06639035791158676,0.0
430,5,-0.0011932016350328922,-0.0002527019823901355,0.0007733099046163261,-0.008694690652191639,-0.008043324574828148,-0.007340678945183754,0.007728817872703075,-0.01811683550477028,-0.00438302056863904,-0.008745415136218071,-0.06364298611879349,0.0037833009846508503,0.0,0.0,0.0,-0.019365185871720314,-0.011786521412432194,-0.0,0.0,0.0,0.0,0.0011696468573063612,-0.0002598798891995102,-0.0012068840442225337,14025.0,14404.0,14430.0,14518.0,0.4407624304294586,0.46640095114707947,0.4681243598461151,0.47420838475227356,0.0,0.0,0.0,0.0,13725.0,14746.0,14022.0,14856.0,1.849797248840332,0.010169699749689403,0.018902916065738108,-0.07898088629403396,0.05252549797296524,-0.06639035791158676,0.0
435,5,-0.0012412207433953881,-0.00025140776415355504,0.0008132598013617098,-0.009240169078111649,-0.0033726361580193043,-0.007730263751000166,0.008011607453227043,-0.017592966556549072,-0.004748103674501181,0.0423121303319931,-0.04839075729250908,-0.01872032880783081,0.0,0.0,0.0,0.008836654014885426,-0.009265195578336716,-0.0,0.0,0.0,0.0,-0.002426555147394538,0.0030673814471811056,-0.0009245632099919021,14576.0,15290.0,13081.0,14347.0,0.4782079756259918,0.5290006995201111,0.38009756803512573,0.4624910354614258,0.0,0.0,0.0,0.0,14489.0,13463.0,13922.0,13555.0,1.7558752298355103,0.009827854681537953,0.018497478390708207,-0.07955544744947453,0.03919917717576027,0.028759395703673363,0.0
440,5,-0.0013016343582421541,-0.00026243162574246526,0.0008256341679953039,-0.010945710353553295,-2.6191411961917765e-05,-0.004577026702463627,0.008011607453227043,-0.017592966556549072,-0.004748103674501181,0.0423121303319931,-0.04839075729250908,-0.01872032880783081,0.0,0.0,0.0,0.008836654014885426,-0.009265195578336716,-0.0,0.0,0.0,0.0,-0.002426555147394538,0.0030673814471811056,-0.0009245632099919021,14576.0,15290.0,13081.0,14347.0,0.4782079756259918,0.5290006995201111,0.38009756803512573,0.4624910354614258,0.0,0.0,0.0,0.0,14489.0,13463.0,13922.0,13555.0,1.7558752298355103,0.010446358670600278,0.01881777676795926,-0.0801384265102005,0.03919917717576027,0.028759395703673363,0.0
445,5,-0.0013336241245269775,-0.0002775042084977031,0.000859344785567373,-0.008217046968638897,0.0017982323188334703,-0.005876083858311176,0.008011607453227043,-0.017592966556549072,-0.004748103674501181,0.0423121303319931,-0.04839075729250908,-0.01872032880783081,0.0,0.0,0.0,-0.00041787666850723326,-0.011408375576138496,-0.0,0.0,0.0,0.0,-0.002426555147394538,0.0030673814471811056,-0.0009245632099919021,14576.0,15290.0,13081.0,14347.0,0.4782079756259918,0.5290006995201111,0.38009756803512573,0.4624910354614258,0.0,0.0,0.0,0.0,14489.0,13463.0,13922.0,13555.0,1.754906415939331,0.006719566909372733,0.017032957537261775,-0.08021168368986482,0.04824143648147583,-0.0013592853210866451,0.0
451,5,-0.0013582343235611916,-0.0003887484490405768,0.0008941976702772081,-0.0062400479800999165,0.014068602584302425,-0.006532782688736916,0.009341440163552761,-0.0172836035490036,-0.004842036869376898,0.05631525069475174,-0.026529837399721146,0.03543359786272049,0.0,0.0,0.0,-0.00041787666850723326,-0.011408375576138496,-0.0,0.0,0.0,0.0,-0.009597557596862316,0.0015696282498538494,0.00016121445514727384,15095.0,14616.0,13885.0,13576.0,0.5259276628494263,0.4810103178024292,0.4314805865287781,0.4113786816596985,0.0,0.0,0.0,0.0,14551.0,15296.0,13017.0,14423.0,1.754906415939331,-0.0024232142706908373,0.013676815379490902,-0.08156318742330648,0.04824143648147583,-0.0013592853210866451,0.0
456,5,-0.0013033495051786304,-0.0002786062832456082,0.0007419525063596666,0.004090157803148031,-0.0075896186754107475,0.015656305477023125,0.009341440163552761,-0.0172836035490036,-0.004842036869376898,0.05631525069475174,-0.026529837399721146,0.03543359786272049,0.0,0.0,0.0,-0.016517268493771553,-0.007152869366109371,-0.0,0.0,0.0,0.0,-0.009597557596862316,0.0015696282498538494,0.00016121445514727384,15095.0,14616.0,13885.0,13576.0,0.5259276628494263,0.4810103178024292,0.4314805865287781,0.4113786816596985,0.0,0.0,0.0,0.0,14551.0,15296.0,13017.0,14423.0,1.7936899662017822,0.004553035145602049,0.01691030900193237,-0.08033440139536747,0.03091125562787056,-0.05491086468100548,0.0
461,5,-0.001357249915599823,-0.00019394303672015667,0.0008165532490238547,-0.004831985104829073,-0.013195437379181385,-0.002689565299078822,0.009406882338225842,-0.01721769943833351,-0.00518197612836957,-0.028789496049284935,-0.020474759861826897,-0.02679939568042755,0.0,0.0,0.0,-0.016517268493771553,-0.007152869366109371,-0.0,0.0,0.0,0.0,-2.5791327061597258e-05,0.0022076580207794905,-0.00218230951577425,13402.0,14554.0,13084.0,14867.0,0.40024814009666443,0.476674348115921,0.3803330361843109,0.4986197054386139,0.0,0.0,0.0,0.0,13749.0,14369.0,13304.0,14533.0,1.7936899662017822,0.006884943649681502,0.017268904803935326,-0.07950569179200558,0.03091125562787056,-0.05491086468100548,0.0
466,5,-0.0013444143114611506,-0.00020759660401381552,0.0008056694641709328,-0.0003925259516108781,-0.0036397469229996204,0.00023022929963190109,0.009406882338225842,-0.01721769943833351,-0.00518197612836957,-0.028789496049284935,-0.020474759861826897,-0.02679939568042755,0.0,0.0,0.0,0.014735983684659004,-0.006002966780215502,-0.0,0.0,0.0,0.0,-2.5791327061597258e-05,0.0022076580207794905,-0.00218230951577425,13402.0,14554.0,13084.0,14867.0,0.40024814009666443,0.476674348115921,0.3803330361843109,0.4986197054386139,0.0,0.0,0.0,0.0,13749.0,14369.0,13304.0,14533.0,1.7720930576324463,0.01080336493967351,0.01813861904726628,-0.08003961813048456,0.02563035488128662,0.04840003326535225,0.0
471,5,-0.0014026883291080594,-0.00018973798432853073,0.0008250923710875213,-0.007149888668209314,-0.0035989328753203154,-0.0022386587224900723,0.009143329225480556,-0.01677677035331726,-0.005053162574768066,-0.028613461181521416,-0.03645562008023262,-0.03279509022831917,0.0,0.0,0.0,0.014735983684659004,-0.006002966780215502,-0.0,0.0,0.0,0.0,-0.0022189319133758545,0.0003583828511182219,-0.0006260448135435581,13779.0,14504.0,13352.0,14311.0,0.42453697323799133,0.47324684262275696,0.39710792899131775,0.460014671087265,0.0,0.0,0.0,0.0,14146.0,14163.0,13713.0,13950.0,1.7720930576324463,0.006417966532800008,0.01708486342506947,-0.08068790222107686,0.02563035488128662,0.04840003326535225,0.0
476,5,-0.0013565986882895231,-0.00027520692674443126,0.0008261558250524104,0.0026708091609179974,0.008816701360046864,-0.0010230803163722157,0.009143329225480556,-0.01677677035331726,-0.005053162574768066,-0.028613461181521416,-0.03645562008023262,-0.03279509022831917,0.0,0.0,0.0,0.003890523687005043,-0.008321378380060196,-0.0,0.0,0.0,0.0,-0.0022189319133758545,0.0003583828511182219,-0.0006260448135435581,13779.0,14504.0,13352.0,14311.0,0.42453697323799133,0.47324684262275696,0.39710792899131775,0.460014671087265,0.0,0.0,0.0,0.0,14146.0,14163.0,13713.0,13950.0,1.7244569063186646,0.005552046075801706,0.014122365326242524,-0.08111504658420819,0.03457731381058693,0.012435606680810452,0.0
481,5,-0.0013311108341440558,-0.00033690419513732195,0.0006475123227573931,0.004126865416765213,0.010930352844297886,0.02102799341082573,0.00895835179835558,-0.016348617151379585,-0.005152808967977762,0.0052196611650288105,-0.01964874379336834,0.02910328097641468,0.0,0.0,0.0,0.003890523687005043,-0.008321378380060196,-0.0,0.0,0.0,0.0,-0.0074856821447610855,0.0018724531400948763,9.672514715930447e-05,14842.0,14395.0,13570.0,13712.0,0.49682682752609253,0.46572303771972656,0.41099220514297485,0.4201478958129883,0.0,0.0,0.0,0.0,14218.0,14977.0,12960.0,14323.0,1.7244569063186646,0.003007994009628852,0.017455786668793435,-0.08284360146812583,0.03457731381058693,0.012435606680810452,0.0
486,5,-0.0014028564328327775,-0.00020623940508812666,0.0007644579163752496,-0.006958736106753349,-0.011307635344564915,-0.005622273311018944,0.00895835179835558,-0.016348617151379585,-0.005152808967977762,0.0052196611650288105,-0.01964874379336834,0.02910328097641468,0.0,0.0,0.0,0.003890523687005043,-0.008321378380060196,-0.0,0.0,0.0,0.0,-0.0074856821447610855,0.0018724531400948763,9.672514715930447e-05,14842.0,14395.0,13570.0,13712.0,0.49682682752609253,0.46572303771972656,0.41099220514297485,0.4201478958129883,0.0,0.0,0.0,0.0,14218.0,14977.0,12960.0,14323.0,1.7244569063186646,0.008695999766565307,0.017069975134054817,-0.08022636482196203,0.03457731381058693,0.012435606680810452,0.0
