timestamp,dt,pos_x,pos_y,pos_z,vel_x,vel_y,vel_z,roll,pitch,yaw,agv_x,agv_y,agv_z,x_ref,y_ref,z_ref,roll_ref,pitch_ref,yaw_ref,x_vel_ref,y_vel_ref,z_vel_ref,x_torque,y_torque,z_torque,w0,w1,w2,w3,u0,u1,u2,u3,m0req,m1req,m2req,m3req,thrust0,thrust1,thrust2,thrust3,thrust_ref,roll_vicon,pitch_vicon,yaw_vicon,acc_x,acc_y,acc_z
5,5,0.0,0.0,0.0,0.0007172753685154021,-0.00038836427847854793,-0.00012770587636623532,0.01866840198636055,0.12182296067476273,0.0009250016883015633,-0.001716366852633655,0.00410722941160202,0.003434243379160762,0.0,0.0,0.0,0.0004808362282346934,0.0006831255159340799,-0.0,0.0,0.0,0.0,-0.025370679795742035,-0.16433683037757874,0.0003335083893034607,1495.0,1495.0,1495.0,1495.0,0.0,0.0,0.0,0.0,0.0,0.0,0.0,0.0,1495.0,1495.0,1495.0,1495.0,1.6340481042861938,-0.052552080199499106,-0.03539492432977099,-0.04020040829292601,-0.002689782530069351,0.0014563660370185971,0.0
33,28,0.0,0.0,0.0,0.0003320109681226313,-0.0012112321564927697,0.0014696841826662421,0.01866840198636055,0.12182296067476273,0.0009250016883015633,-0.001716366852633655,0.00410722941160202,0.003434243379160762,0.0,0.0,0.0,0.0004808362282346934,0.0006831255159340799,-0.0,0.0,0.0,0.0,-0.025370679795742035,-0.16433683037757874,0.0003335083893034607,1495.0,1495.0,1495.0,1495.0,0.0,0.0,0.0,0.0,0.0,0.0,0.0,0.0,1495.0,1495.0,1495.0,1495.0,1.6340481042861938,-0.05198733106067315,-0.03566524611175938,-0.04020554963413532,-0.002689782530069351,0.0014563660370185971,0.0
38,5,0.0,0.0,0.0,0.001344737596809864,0.0006495540146715939,0.0013691780623048544,0.018662098795175552,0.1218205913901329,0.0009473611717112362,6.915201811352745e-05,0.0008045039139688015,-0.0034354908857494593,0.0,0.0,0.0,0.0014955380465835333,0.0003153402067255229,-0.0,0.0,0.0,0.0,-0.025298375636339188,-0.1646154522895813,0.000382016267394647,1495.0,1495.0,1495.0,1495.0,0.0,0.0,0.0,0.0,0.0,0.0,0.0,0.0,1495.0,1495.0,1495.0,1495.0,1.6385245323181152,-0.051868889491523115,-0.0355291871554525,-0.04015065530099751,-0.0012450411450117826,0.004542120732367039,0.0
54,16,0.0,0.0,0.0,0.0005471485201269388,3.5135173675371334e-05,-0.00038904626853764057,0.018654024228453636,0.12178065627813339,0.000963751517701894,0.0024445969611406326,0.0023124748840928078,0.00797660555690527,0.0,0.0,0.0,-4.3573625589488074e-05,0.0005219675949774683,-0.0,0.0,0.0,0.0,-0.025357821956276894,-0.16413763165473938,0.0011366484686732292,1495.0,1495.0,1495.0,1495.0,0.0,0.0,0.0,0.0,0.0,0.0,0.0,0.0,1495.0,1495.0,1495.0,1495.0,1.6313272714614868,-0.05162393435045416,-0.035019293854548876,-0.04000589268746009,-0.0020518070086836815,-0.000131756896735169,0.0
61,7,0.0,0.0,0.0,-0.0010644468711689115,0.00019484886433929205,-0.0017593617085367441,0.018654024228453636,0.12178065627813339,0.000963751517701894,0.0024445969611406326,0.0023124748840928078,0.00797660555690527,0.0,0.0,0.0,-0.00024084420874714851,-0.0010120897786691785,-0.0,0.0,0.0,0.0,-0.025357821956276894,-0.16413763165473938,0.0011366484686732292,1495.0,1495.0,1495.0,1495.0,0.0,0.0,0.0,0.0,0.0,0.0,0.0,0.0,1495.0,1495.0,1495.0,1495.0,1.6367576122283936,-0.05207986335602729,-0.03511800667056758,-0.040012420405437885,0.003991675563156605,-0.0007306832121685147,0.0
69,8,0.0,0.0,0.0,0.00019680720288306475,0.00026691166567616165,0.0012745962012559175,0.018654024228453636,0.12178065627813339,0.000963751517701894,0.0024445969611406326,0.0023124748840928078,0.00797660555690527,0.0,0.0,0.0,-0.00024084420874714851,-0.0010120897786691785,-0.0,0.0,0.0,0.0,-0.025357821956276894,-0.16413763165473938,0.0011366484686732292,1495.0,1495.0,1495.0,1495.0,0.0,0.0,0.0,0.0,0.0,0.0,0.0,0.0,1495.0,1495.0,1495.0,1495.0,1.6367576122283936,-0.05200960091833767,-0.035121570704221595,-0.04015348716602136,0.003991675563156605,-0.0007306832121685147,0.0
74,5,-1.808091951716051e-06,1.264145703316899e-05,4.1151710661324614e-07,-0.00013824815687257797,-0.0014102101558819413,0.0004604564164765179,0.01866031624376774,0.12180127203464508,0.0009765662252902985,-0.0017430392326787114,-0.004605185706168413,0.00043519301107153296,0.0,0.0,0.0,0.001762164174579084,-0.00013367785140872002,-0.0,0.0,0.0,0.0,-0.0252513624727726,-0.16527225077152252,0.0005916844238527119,1495.0,1495.0,1495.0,1495.0,0.0,0.0,0.0,0.0,0.0,0.0,0.0,0.0,1495.0,1495.0,1495.0,1495.0,1.6403512954711914,-0.051679977079054196,-0.035466835927426686,-0.04014596275910784,0.0005283814389258623,0.005357860121876001,-0.0
79,5,-2.1772403879793956e-09,1.1341431672917679e-05,2.2242054456000915e-06,0.0001614104985492304,-0.00040808107587508857,-3.334002030896954e-05,0.01866031624376774,0.12180127203464508,0.0009765662252902985,-0.0017430392326787114,-0.004605185706168413,0.00043519301107153296,0.0,0.0,0.0,0.001762164174579084,-0.00013367785140872002,-0.0,0.0,0.0,0.0,-0.0252513624727726,-0.16527225077152252,0.0005916844238527119,1495.0,1495.0,1495.0,1495.0,0.0,0.0,0.0,0.0,0.0,0.0,0.0,0.0,1495.0,1495.0,1495.0,1495.0,1.6403512954711914,-0.051903187707020466,-0.035381691545702317,-0.040213604242709144,0.0005283814389258623,0.005357860121876001,-0.0
86,7,-4.926754627376795e-06,1.598034032213036e-05,8.707472716196207e-07,-0.0005263850907795131,-0.0007199012907221913,0.00014907895820215344,0.018648885190486908,0.12182996422052383,0.0010048899566754699,0.001047715311869979,-0.0033838641829788685,0.004769039805978537,0.0,0.0,0.0,0.0009197968756780028,-0.0005078973481431603,-0.0,0.0,0.0,0.0,-0.02544630691409111,-0.16418340802192688,0.00037600169889628887,1495.0,1495.0,1495.0,1495.0,0.0,0.0,0.0,0.0,0.0,0.0,0.0,0.0,1495.0,1495.0,1495.0,1495.0,1.6350592374801636,-0.05183837888927288,-0.035379610371636144,-0.03995444798493084,0.0020010648295283318,0.0027876219246536493,-0.0
91,5,-2.3539319045084994e-06,2.3310059987124987e-05,-1.2379307918308768e-05,9.818470425670967e-05,-0.0011675269342958927,0.0016496381722390652,0.018648885190486908,0.12182996422052383,0.0010048899566754699,0.001047715311869979,-0.0033838641829788685,0.004769039805978537,0.0,0.0,0.0,0.0009197968756780028,-0.0005078973481431603,-0.0,0.0,0.0,0.0,-0.02544630691409111,-0.16418340802192688,0.00037600169889628887,1495.0,1495.0,1495.0,1495.0,0.0,0.0,0.0,0.0,0.0,0.0,0.0,0.0,1495.0,1495.0,1495.0,1495.0,1.6350592374801636,-0.05242100650959386,-0.03554650610183928,-0.04003470211081831,0.0020010648295283318,0.0027876219246536493,-0.0
96,5,7.940882824186701e-06,2.1278361600707285e-05,4.336679467087379e-06,0.0012746516149491072,-0.00022320711286738515,-0.0013460632180795074,0.018648870289325714,0.12180888652801514,0.0010139525402337313,0.0016635997453704476,-0.002427744446322322,1.1179367902514059e-05,0.0,0.0,0.0,0.0009197968756780028,-0.0005078973481431603,-0.0,0.0,0.0,0.0,-0.025316158309578896,-0.16462819278240204,0.0006244307733140886,1495.0,1495.0,1495.0,1495.0,0.0,0.0,0.0,0.0,0.0,0.0,0.0,0.0,1495.0,1495.0,1495.0,1495.0,1.6350592374801636,-0.05176631710509204,-0.03541636878901621,-0.03988062605056578,0.0020010648295283318,0.0027876219246536493,-0.0
101,5,1.221682941832114e-05,1.9919538317481056e-05,1.2358647836663295e-05,0.0010229742620140314,7.377600559266284e-05,-0.001501061487942934,0.018648870289325714,0.12180888652801514,0.0010139525402337313,0.0016635997453704476,-0.002427744446322322,1.1179367902514059e-05,0.0,0.0,0.0,0.0003140825720038265,0.0012212928850203753,-0.0,0.0,0.0,0.0,-0.025316158309578896,-0.16462819278240204,0.0006244307733140886,1495.0,1495.0,1495.0,1495.0,0.0,0.0,0.0,0.0,0.0,0.0,0.0,0.0,1495.0,1495.0,1495.0,1495.0,1.6390858888626099,-0.05175248299014566,-0.03548020977701227,-0.039988205853444134,-0.004823622759431601,0.0009542322950437665,0.0
106,5,1.2879696441814303e-05,1.6432588381576352e-05,2.217813380411826e-05,0.0002996587718371302,8.110529961413704e-06,-0.0008608640637248755,0.01863042265176773,0.1217723861336708,0.001010214677080512,-0.0023964003194123507,0.007418534252792597,0.002262784168124199,0.0,0.0,0.0,1.9936391254304908e-05,0.0003043367469217628,-0.0,0.0,0.0,0.0,-0.025088978931307793,-0.16376377642154694,0.0007876402232795954,1495.0,1495.0,1495.0,1495.0,0.0,0.0,0.0,0.0,0.0,0.0,0.0,0.0,1495.0,1495.0,1495.0,1495.0,1.6289926767349243,-0.052123882027516784,-0.03583056825562233,-0.04008021234455877,-0.0011946080485358834,6.019691500114277e-05,0.0
114,8,6.756231414328795e-06,9.111688996199518e-06,2.644439518917352e-05,-0.0006149523542262614,0.0008817521156743169,-0.0008562970324419439,0.01863042265176773,0.1217723861336708,0.001010214677080512,-0.0023964003194123507,0.007418534252792597,0.002262784168124199,0.0,0.0,0.0,1.9936391254304908e-05,0.0003043367469217628,-0.0,0.0,0.0,0.0,-0.025088978931307793,-0.16376377642154694,0.0007876402232795954,1495.0,1495.0,1495.0,1495.0,0.0,0.0,0.0,0.0,0.0,0.0,0.0,0.0,1495.0,1495.0,1495.0,1495.0,1.6289926767349243,-0.052063546790375476,-0.0356523056307096,-0.04005257423761784,-0.0011946080485358834,6.019691500114277e-05,0.0
119,5,2.7900914574274793e-06,-2.8318011118244613e-06,1.2150816473877057e-05,-0.0007219177205115557,0.0017859197687357664,0.001372710568830371,0.018618673086166382,0.12178227305412292,0.000981918885372579,0.0010747361229732633,-0.0027527024503797293,0.0006063443724997342,0.0,0.0,0.0,-0.002201000228524208,-0.0006789381732232869,-0.0,0.0,0.0,0.0,-0.025092197582125664,-0.16470035910606384,0.00028917117742821574,1495.0,1495.0,1495.0,1495.0,0.0,0.0,0.0,0.0,0.0,0.0,0.0,0.0,1495.0,1495.0,1495.0,1495.0,1.6453551054000854,-0.05224671285091891,-0.035480956163703,-0.04004500012061668,0.0026917869690805674,-0.006712551694363356,-0.0
125,6,-3.29975523527537e-06,8.384024113183841e-06,1.5020692444522865e-05,-0.0010195487411692739,-0.0006315311184152961,0.00020469905575737357,0.018618673086166382,0.12178227305412292,0.000981918885372579,0.0010747361229732633,-0.0027527024503797293,0.0006063443724997342,0.0,0.0,0.0,-0.002201000228524208,-0.0006789381732232869,-0.0,0.0,0.0,0.0,-0.025092197582125664,-0.16470035910606384,0.00028917117742821574,1495.0,1495.0,1495.0,1495.0,0.0,0.0,0.0,0.0,0.0,0.0,0.0,0.0,1495.0,1495.0,1495.0,1495.0,1.6453551054000854,-0.05181758345950696,-0.03535731490507938,-0.03997847293542969,0.0026917869690805674,-0.006712551694363356,-0.0
130,5,-1.0979945727740414e-05,4.062160314788343e-06,1.647879798838403e-05,-0.0013294422533363104,0.0002660111931618303,-9.309308370575309e-05,0.018618673086166382,0.12178227305412292,0.000981918885372579,0.0010747361229732633,-0.0027527024503797293,0.0006063443724997342,0.0,0.0,0.0,-0.00032078358344733715,-0.0012770650209859014,-0.0,0.0,0.0,0.0,-0.025092197582125664,-0.16470035910606384,0.00028917117742821574,1495.0,1495.0,1495.0,1495.0,0.0,0.0,0.0,0.0,0.0,0.0,0.0,0.0,1495.0,1495.0,1495.0,1495.0,1.6396872997283936,-0.05158195684744444,-0.03519971456655645,-0.0400390901702161,0.005045750644057989,-0.0009749485179781914,0.0
135,5,-9.233557648258284e-06,1.5239376807585359e-05,-8.576488141898153e-08,-0.000322210427839309,-0.0012348615564405918,0.0019505104282870889,0.018645914271473885,0.12182512134313583,0.0009818865219131112,-0.0005871362518519163,-0.0021470929495990276,0.0003044455370400101,0.0,0.0,0.0,-0.00032078358344733715,-0.0012770650209859014,-0.0,0.0,0.0,0.0,-0.025110401213169098,-0.16464193165302277,0.0004772547399625182,1495.0,1495.0,1495.0,1495.0,0.0,0.0,0.0,0.0,0.0,0.0,0.0,0.0,1495.0,1495.0,1495.0,1495.0,1.6396872997283936,-0.05178684264980416,-0.03541043340284641,-0.039853015792551905,0.005045750644057989,-0.0009749485179781914,0.0
140,5,-6.485387530119624e-06,1.6272064385702834e-05,-2.8082965854991926e-06,0.0002008962765103206,-0.0006178670446388423,0.001106907962821424,0.018645914271473885,0.12182512134313583,0.0009818865219131112,-0.0005871362518519163,-0.0021470929495990276,0.0003044455370400101,0.0,0.0,0.0,-0.00032078358344733715,-0.0012770650209859014,-0.0,0.0,0.0,0.0,-0.025110401213169098,-0.16464193165302277,0.0004772547399625182,1495.0,1495.0,1495.0,1495.0,0.0,0.0,0.0,0.0,0.0,0.0,0.0,0.0,1495.0,1495.0,1495.0,1495.0,1.6396872997283936,-0.051438733677501916,-0.035444485745136936,-0.04011738918998141,0.005045750644057989,-0.0009749485179781914,0.0
145,5,-2.30314617510885e-06,2.03599120141007e-05,-5.698559107258916e-06,0.0005822274833917618,-0.0007376885041594505,0.0007895946619100869,0.01865317113697529,0.12187201529741287,0.001005583442747593,0.0005312231951393187,-0.003568394808098674,0.0007909424602985382,0.0,0.0,0.0,0.0007953577442094684,0.0001824445353122428,-0.0,0.0,0.0,0.0,-0.025227084755897522,-0.16407127678394318,-9.97867900878191e-05,1495.0,1495.0,1495.0,1495.0,0.0,0.0,0.0,0.0,0.0,0.0,0.0,0.0,1495.0,1495.0,1495.0,1495.0,1.6325637102127075,-0.05209734956089765,-0.0354228578947334,-0.03995510839843661,-0.0007177162333391607,0.002406806219369173,0.0
150,5,7.748510142846499e-06,2.0150959244347177e-05,-5.000030341761885e-06,0.0014390897704288363,-0.00027000103727914393,0.00023201444128062576,0.01865317113697529,0.12187201529741287,0.001005583442747593,0.0005312231951393187,-0.003568394808098674,0.0007909424602985382,0.0,0.0,0.0,0.0007953577442094684,0.0001824445353122428,-0.0,0.0,0.0,0.0,-0.025227084755897522,-0.16407127678394318,-9.97867900878191e-05,1495.0,1495.0,1495.0,1495.0,0.0,0.0,0.0,0.0,0.0,0.0,0.0,0.0,1495.0,1495.0,1495.0,1495.0,1.6325637102127075,-0.05201264514247701,-0.03540631056151866,-0.040137020024745874,-0.0007177162333391607,0.002406806219369173,0.0
155,5,1.213747509609675e-05,2.2713624275638722e-05,-2.0975521692889743e-06,0.001102311653085053,-0.00041552039328962564,-0.0002554916136432439,0.018664512783288956,0.1218595802783966,0.0009700193768367171,0.0014609486097469926,0.0024733631871640682,-0.002906664041802287,0.0,0.0,0.0,0.00036947772605344653,0.0013757167616859078,-0.0,0.0,0.0,0.0,-0.025034643709659576,-0.16476750373840332,0.0005566445761360228,1495.0,1495.0,1495.0,1495.0,0.0,0.0,0.0,0.0,0.0,0.0,0.0,0.0,1495.0,1495.0,1495.0,1495.0,1.6408114433288574,-0.051925909411912566,-0.03546801405367512,-0.04005100325373477,-0.005439255386590958,0.001123713213019073,0.0
160,5,1.940865331562236e-06,1.4677631952508818e-05,9.914251677400898e-06,-0.0007826684741303325,0.0007981109665706754,-0.0015436130343005061,0.018664512783288956,0.1218595802783966,0.0009700193768367171,0.0014609486097469926,0.0024733631871640682,-0.002906664041802287,0.0,0.0,0.0,0.00036947772605344653,0.0013757167616859078,-0.0,0.0,0.0,0.0,-0.025034643709659576,-0.16476750373840332,0.0005566445761360228,1495.0,1495.0,1495.0,1495.0,0.0,0.0,0.0,0.0,0.0,0.0,0.0,0.0,1495.0,1495.0,1495.0,1495.0,1.6408114433288574,-0.051859187994476474,-0.035240058113945254,-0.03986459172784874,-0.005439255386590958,0.001123713213019073,0.0
166,5,7.338000159506919e-06,5.8875639297184534e-06,1.4162447769194841e-05,0.0003345887816976756,0.0013740526046603918,-0.0011272288393229246,0.01866227760910988,0.12186359614133835,0.0009741634712554514,-0.0013304658932611346,-0.0018406696617603302,0.0020890391897410154,0.0,0.0,0.0,-0.0009596504387445748,-0.0007413655403070152,-0.0,0.0,0.0,0.0,-0.025034643709659576,-0.16476750373840332,0.0005566445761360228,1495.0,1495.0,1495.0,1495.0,0.0,0.0,0.0,0.0,0.0,0.0,0.0,0.0,1495.0,1495.0,1495.0,1495.0,1.6369441747665405,-0.05174033996822257,-0.0354718753933793,-0.04000325184817257,0.002924273256212473,-0.0029117586091160774,0.0
171,5,-3.0503601919917855e-06,9.127750672632828e-06,1.6529851563973352e-05,-0.0011127677280455828,0.0001607986050657928,-0.0007349799852818251,0.01866227760910988,0.12186359614133835,0.0009741634712554514,-0.0013304658932611346,-0.0018406696617603302,0.0020890391897410154,0.0,0.0,0.0,-0.0009596504387445748,-0.0007413655403070152,-0.0,0.0,0.0,0.0,-0.025034643709659576,-0.16476750373840332,0.0005566445761360228,1495.0,1495.0,1495.0,1495.0,0.0,0.0,0.0,0.0,0.0,0.0,0.0,0.0,1495.0,1495.0,1495.0,1495.0,1.6369441747665405,-0.052247475882360624,-0.03567138502273697,-0.040201305525535906,0.002924273256212473,-0.0029117586091160774,0.0
176,5,6.636864924303154e-08,4.771363819600083e-06,2.1803987692692317e-05,-7.109963189577684e-05,0.0005870859022252262,-0.0009268882567994297,0.01866231858730316,0.12186648696660995,0.0009698134963400662,0.001911891857162118,-0.004453756846487522,-0.00048194752889685333,0.0,0.0,0.0,-0.0001820056204451248,-0.0010619802633300424,-0.0,0.0,0.0,0.0,-0.02524642087519169,-0.16473105549812317,0.0005362817319110036,1495.0,1495.0,1495.0,1495.0,0.0,0.0,0.0,0.0,0.0,0.0,0.0,0.0,1495.0,1495.0,1495.0,1495.0,1.6372126340866089,-0.05165788157564109,-0.03544940992179467,-0.040142822261871845,0.004189607687294483,-0.0005523297586478293,0.0
181,5,-3.989310698671034e-06,1.0292474144080188e-06,8.77408547239611e-06,-0.000515121384523809,0.0006838883273303509,0.0011928328312933445,0.01866231858730316,0.12186648696660995,0.0009698134963400662,0.001911891857162118,-0.004453756846487522,-0.00048194752889685333,0.0,0.0,0.0,-0.0001820056204451248,-0.0010619802633300424,-0.0,0.0,0.0,0.0,-0.02524642087519169,-0.16473105549812317,0.0005362817319110036,1495.0,1495.0,1495.0,1495.0,0.0,0.0,0.0,0.0,0.0,0.0,0.0,0.0,1495.0,1495.0,1495.0,1495.0,1.6372126340866089,-0.05181748258797657,-0.03514112514030361,-0.04020167947650282,0.004189607687294483,-0.0005523297586478293,0.0
186,5,1.194829678752285e-06,1.118135878641624e-05,9.71009831118863e-06,0.0004928868729621172,-0.0004559529188554734,-0.00011491475743241608,0.01866231858730316,0.12186648696660995,0.0009698134963400662,0.001911891857162118,-0.004453756846487522,-0.00048194752889685333,0.0,0.0,0.0,-0.0008444788982160389,-0.0004960280493833125,-0.0,0.0,0.0,0.0,-0.02524642087519169,-0.16473105549812317,0.0005362817319110036,1495.0,1495.0,1495.0,1495.0,0.0,0.0,0.0,0.0,0.0,0.0,0.0,0.0,1495.0,1495.0,1495.0,1495.0,1.6344830989837646,-0.05170170780190248,-0.03544561286320081,-0.04003314072408201,0.0019536123145371675,-0.002558454405516386,-0.0
191,5,1.194829678752285e-06,1.118135878641624e-05,9.71009831118863e-06,0.0004928868729621172,-0.0004559529188554734,-0.00011491475743241608,0.01864984817802906,0.1218734085559845,0.000970797031186521,-0.0011915502836927772,0.003937454894185066,-0.0008565385360270739,0.0,0.0,0.0,-0.0008444788982160389,-0.0004960280493833125,-0.0,0.0,0.0,0.0,-0.025189723819494247,-0.16466262936592102,8.152525697369128e-05,1495.0,1495.0,1495.0,1495.0,0.0,0.0,0.0,0.0,0.0,0.0,0.0,0.0,1495.0,1495.0,1495.0,1495.0,1.6344830989837646,-0.05170170780190248,-0.03544561286320081,-0.04003314072408201,0.0019536123145371675,-0.002558454405516386,-0.0
196,5,9.365503501612693e-06,2.150518230337184e-05,6.271182883210713e-06,0.001177635625936091,-0.001421240158379078,0.0003667039854917675,0.01864984817802906,0.1218734085559845,0.000970797031186521,-0.0011915502836927772,0.003937454894185066,-0.0008565385360270739,0.0,0.0,0.0,0.0005854687769897282,0.00047148537123575807,-0.0,0.0,0.0,0.0,-0.025189723819494247,-0.16466262936592102,8.152525697369128e-05,1495.0,1495.0,1495.0,1495.0,0.0,0.0,0.0,0.0,0.0,0.0,0.0,0.0,1495.0,1495.0,1495.0,1495.0,1.6327091455459595,-0.05170458882247455,-0.035370614537688284,-0.04008872287054286,-0.00185493566095829,0.0017718260642141104,0.0
201,5,9.175446393783204e-06,2.0327348465798423e-05,1.3534142453863751e-05,0.0002775447501335293,0.0006864196620881557,-0.00022167475253809243,0.018648214638233185,0.12184742838144302,0.0009865541942417622,-0.0008705113432370126,-0.0005046987207606435,-0.001645863289013505,0.0,0.0,0.0,0.0005854687769897282,0.00047148537123575807,-0.0,0.0,0.0,0.0,-0.02528865821659565,-0.16491593420505524,0.000896124925930053,1495.0,1495.0,1495.0,1495.0,0.0,0.0,0.0,0.0,0.0,0.0,0.0,0.0,1495.0,1495.0,1495.0,1495.0,1.6327091455459595,-0.052399636709814144,-0.03565036735157288,-0.03989540528011717,-0.00185493566095829,0.0017718260642141104,0.0
206,5,6.895095793879591e-06,2.120057979482226e-05,5.139163476997055e-06,-0.00016262414283119142,0.0001697799889370799,0.0009187276009470224,0.018648214638233185,0.12184742838144302,0.0009865541942417622,-0.0008705113432370126,-0.0005046987207606435,-0.001645863289013505,0.0,0.0,0.0,-0.0008132521179504693,0.00027733371825888753,-0.0,0.0,0.0,0.0,-0.02528865821659565,-0.16491593420505524,0.000896124925930053,1495.0,1495.0,1495.0,1495.0,0.0,0.0,0.0,0.0,0.0,0.0,0.0,0.0,1495.0,1495.0,1495.0,1495.0,1.633055329322815,-0.05219689152198915,-0.03552602884724197,-0.04004379992740859,-0.0010913281003013253,-0.0024616969749331474,0.0
211,5,6.895095793879591e-06,2.120057979482226e-05,5.139163476997055e-06,-0.00016262414283119142,0.0001697799889370799,0.0009187276009470224,0.018652701750397682,0.12185557186603546,0.0010045153321698308,0.001599263632670045,-0.006559171713888645,0.004640155006200075,0.0,0.0,0.0,-0.0008132521179504693,0.00027733371825888753,-0.0,0.0,0.0,0.0,-0.02528354711830616,-0.1647087037563324,-0.00031554733868688345,1495.0,1495.0,1495.0,1495.0,0.0,0.0,0.0,0.0,0.0,0.0,0.0,0.0,1495.0,1495.0,1495.0,1495.0,1.633055329322815,-0.05219689152198915,-0.03552602884724197,-0.04004379992740859,-0.0010913281003013253,-0.0024616969749331474,0.0
216,5,-2.592857299532625e-06,1.6299954950227402e-05,-1.2419118320394773e-06,-0.0010193330235779285,0.0006038211286067963,0.0004142155812587589,0.018652701750397682,0.12185557186603546,0.0010045153321698308,0.001599263632670045,-0.006559171713888645,0.004640155006200075,0.0,0.0,0.0,-0.0001720814616419375,-0.00014572450891137123,-0.0,0.0,0.0,0.0,-0.02528354711830616,-0.1647087037563324,-0.00031554733868688345,1495.0,1495.0,1495.0,1495.0,0.0,0.0,0.0,0.0,0.0,0.0,0.0,0.0,1495.0,1495.0,1495.0,1495.0,1.6284600496292114,-0.0518926700502382,-0.035260899346593315,-0.04021367911169443,0.0005718229804188013,-0.0005194213008508086,-0.0
222,5,-2.592857299532625e-06,1.6299954950227402e-05,-1.2419118320394773e-06,-0.0010193330235779285,0.0006038211286067963,0.0004142155812587589,0.018664825707674026,0.12191660702228546,0.0009845488239079714,-0.0005909244064241648,-0.0023567681200802326,-0.002033717930316925,0.0,0.0,0.0,-0.0001720814616419375,-0.00014572450891137123,-0.0,0.0,0.0,0.0,-0.024876680225133896,-0.16392189264297485,0.0003524360654409975,1495.0,1495.0,1495.0,1495.0,0.0,0.0,0.0,0.0,0.0,0.0,0.0,0.0,1495.0,1495.0,1495.0,1495.0,1.6284600496292114,-0.0518926700502382,-0.035260899346593315,-0.04021367911169443,0.0005718229804188013,-0.0005194213008508086,-0.0
227,5,-7.427903710777173e-06,5.264236733637517e-06,1.0976278645102866e-05,-0.0007899224874563515,0.0007690852507948875,-0.0019365334883332253,0.018664825707674026,0.12191660702228546,0.0009845488239079714,-0.0005909244064241648,-0.0023567681200802326,-0.002033717930316925,0.0,0.0,0.0,-0.0007161567336879671,-0.0009722228860482574,-0.0,0.0,0.0,0.0,-0.024876680225133896,-0.16392189264297485,0.0003524360654409975,1495.0,1495.0,1495.0,1495.0,0.0,0.0,0.0,0.0,0.0,0.0,0.0,0.0,1495.0,1495.0,1495.0,1495.0,1.6377112865447998,-0.051646073222526435,-0.03526147461446897,-0.03989655780913751,0.0038366741500794888,-0.002173971850425005,0.0
232,5,3.1262297284229135e-07,8.845318006933667e-06,8.777023140282836e-06,0.0006128941895440221,-0.00012209561828058213,-0.0005107027827762067,0.018650246784090996,0.12185914069414139,0.00099057552870363,-0.0005345986573956907,0.004707943648099899,-0.0031590284779667854,0.0,0.0,0.0,-0.0007161567336879671,-0.0009722228860482574,-0.0,0.0,0.0,0.0,-0.025105558335781097,-0.1641513854265213,2.6997600798495114e-05,1495.0,1495.0,1495.0,1495.0,0.0,0.0,0.0,0.0,0.0,0.0,0.0,0.0,1495.0,1495.0,1495.0,1495.0,1.6377112865447998,-0.05237943554925533,-0.03529162013584544,-0.040195073281429905,0.0038366741500794888,-0.002173971850425005,0.0
237,5,3.6183735119266203e-06,1.1242138498346321e-05,1.0927142284344882e-05,0.0006418477278202772,-0.00033645666553638875,-0.00046229540021158755,0.018650246784090996,0.12185914069414139,0.00099057552870363,-0.0005345986573956907,0.004707943648099899,-0.0031590284779667854,0.0,0.0,0.0,0.00016766907356213778,0.0005848555592820048,-0.0,0.0,0.0,0.0,-0.025105558335781097,-0.1641513854265213,2.6997600798495114e-05,1495.0,1495.0,1495.0,1495.0,0.0,0.0,0.0,0.0,0.0,0.0,0.0,0.0,1495.0,1495.0,1495.0,1495.0,1.632139801979065,-0.05196234708290168,-0.03551464277350286,-0.039958615039386164,-0.0023001590743660927,0.0005072462954558432,0.0
242,5,3.6183735119266203e-06,1.1242138498346321e-05,1.0927142284344882e-05,0.0006418477278202772,-0.00033645666553638875,-0.00046229540021158755,0.018642021343111992,0.12185858935117722,0.00099130067974329,-0.002115452429279685,0.0017264398047700524,-9.177433639706578e-06,0.0,0.0,0.0,0.00016766907356213778,0.0005848555592820048,-0.0,0.0,0.0,0.0,-0.025114193558692932,-0.16439500451087952,0.00025966772227548063,1495.0,1495.0,1495.0,1495.0,0.0,0.0,0.0,0.0,0.0,0.0,0.0,0.0,1495.0,1495.0,1495.0,1495.0,1.632139801979065,-0.05196234708290168,-0.03551464277350286,-0.039958615039386164,-0.0023001590743660927,0.0005072462954558432,0.0
247,5,9.653215784055647e-06,1.6729525668779388e-05,2.876414146157913e-05,0.0007213284261524677,-0.000994286616332829,-0.0012544759083539248,0.018642021343111992,0.12185858935117722,0.00099130067974329,-0.002115452429279685,0.0017264398047700524,-9.177433639706578e-06,0.0,0.0,0.0,0.0004374538839329034,0.0006166695384308696,-0.0,0.0,0.0,0.0,-0.025114193558692932,-0.16439500451087952,0.00025966772227548063,1495.0,1495.0,1495.0,1495.0,0.0,0.0,0.0,0.0,0.0,0.0,0.0,0.0,1495.0,1495.0,1495.0,1495.0,1.6332505941390991,-0.05180627253285794,-0.03603536106779266,-0.040071431968748364,-0.0024269293062388897,0.0013243220746517181,0.0
252,5,1.1941592674702406e-05,2.129273889295291e-05,2.7394926291890442e-05,0.0005631365929730237,-0.0009453001548536122,-0.0003374843508936465,0.018644418567419052,0.12182890623807907,0.0009988584788516164,-0.0001266132458113134,0.004676244221627712,-0.0014792261645197868,0.0,0.0,0.0,0.0004374538839329034,0.0006166695384308696,-0.0,0.0,0.0,0.0,-0.025027543306350708,-0.16383592784404755,0.0003795890079345554,1495.0,1495.0,1495.0,1495.0,0.0,0.0,0.0,0.0,0.0,0.0,0.0,0.0,1495.0,1495.0,1495.0,1495.0,1.6332505941390991,-0.051747748550745196,-0.035220728040701026,-0.04023923030750879,-0.0024269293062388897,0.0013243220746517181,0.0
257,5,1.092577167582931e-05,2.5756073227967136e-05,5.107801371195819e-06,0.00010335609840694815,-0.0009137202287092805,0.0025394612457603216,0.018644418567419052,0.12182890623807907,0.0009988584788516164,-0.0001266132458113134,0.004676244221627712,-0.0014792261645197868,0.0,0.0,0.0,0.0012069204822182655,0.0005519405240193009,-0.0,0.0,0.0,0.0,-0.025027543306350708,-0.16383592784404755,0.0003795890079345554,1495.0,1495.0,1495.0,1495.0,0.0,0.0,0.0,0.0,0.0,0.0,0.0,0.0,1495.0,1495.0,1495.0,1495.0,1.6373090744018555,-0.052035560250880464,-0.03561765711270391,-0.04002397128544697,-0.002177581889554858,0.003662837902083993,0.0
262,5,6.074360499042086e-06,2.4505963665433228e-05,2.5896002853187383e-07,-0.0005408268771134317,-0.00021547495271079242,0.0015976454596966505,0.018680840730667114,0.12182985991239548,0.0009998372988775373,0.0027586829382926226,0.0012057711137458682,-0.0024478796403855085,0.0,0.0,0.0,0.0012069204822182655,0.0005519405240193009,-0.0,0.0,0.0,0.0,-0.02546660043299198,-0.16453590989112854,0.00033445266308262944,1495.0,1495.0,1495.0,1495.0,0.0,0.0,0.0,0.0,0.0,0.0,0.0,0.0,1495.0,1495.0,1495.0,1495.0,1.6373090744018555,-0.052072281191579084,-0.03535280173890161,-0.04010155783814888,-0.002177581889554858,0.003662837902083993,0.0
267,5,4.944159627484623e-06,9.443475391890388e-06,-9.39031542657176e-06,-0.0003519548336043954,0.0017213086830452085,0.001796971308067441,0.018680840730667114,0.12182985991239548,0.0009998372988775373,0.0027586829382926226,0.0012057711137458682,-0.0024478796403855085,0.0,0.0,0.0,0.0003120322653558105,-0.0005072695203125477,-0.0,0.0,0.0,0.0,-0.02546660043299198,-0.16453590989112854,0.00033445266308262944,1495.0,1495.0,1495.0,1495.0,0.0,0.0,0.0,0.0,0.0,0.0,0.0,0.0,1495.0,1495.0,1495.0,1495.0,1.6317358016967773,-0.05145468115067168,-0.03508325712296057,-0.039910928736368485,0.0019945295061916113,0.0009437520056962967,-0.0
272,5,-2.185381163144484e-06,1.3976189620734658e-05,7.13240979166585e-06,-0.000996326794847846,0.00014459773956332356,-0.0012639384949579835,0.018680840730667114,0.12182985991239548,0.0009998372988775373,0.0027586829382926226,0.0012057711137458682,-0.0024478796403855085,0.0,0.0,0.0,0.0003120322653558105,-0.0005072695203125477,-0.0,0.0,0.0,0.0,-0.025148410350084305,-0.16518688201904297,0.0005300921038724482,1495.0,1495.0,1495.0,1495.0,0.0,0.0,0.0,0.0,0.0,0.0,0.0,0.0,1495.0,1495.0,1495.0,1495.0,1.6317358016967773,-0.05195878176579714,-0.0353484701625271,-0.040021512879925614,0.0019945295061916113,0.0009437520056962967,-0.0
277,5,4.9147397476190235e-06,8.558710760553367e-06,6.899051641084952e-06,0.000453483808087185,0.0007079365313984454,-0.0004775724664796144,0.018680840730667114,0.12182985991239548,0.0009998372988775373,0.0027586829382926226,0.0012057711137458682,-0.0024478796403855085,0.0,0.0,0.0,-0.00015313978656195104,-0.0009507716167718172,-0.0,0.0,0.0,0.0,-0.025148410350084305,-0.16518688201904297,0.0005300921038724482,1495.0,1495.0,1495.0,1495.0,0.0,0.0,0.0,0.0,0.0,0.0,0.0,0.0,1495.0,1495.0,1495.0,1495.0,1.6359951496124268,-0.0517608043648188,-0.03534060283139814,-0.04017516162208899,0.003748090472072363,-0.00046438543358817697,0.0
282,5,4.500554496189579e-06,1.66686404554639e-05,2.4159328404493863e-07,0.0001316912821494043,-0.0006900170119479299,0.000607866037171334,0.01871422491967678,0.12184146046638489,0.0010044373339042068,0.004153621383011341,0.0011157958069816232,-2.559062158979941e-05,0.0,0.0,0.0,-0.00015313978656195104,-0.0009507716167718172,-0.0,0.0,0.0,0.0,-0.02562815137207508,-0.1642351895570755,0.0007383728516288102,1495.0,1495.0,1495.0,1495.0,0.0,0.0,0.0,0.0,0.0,0.0,0.0,0.0,1495.0,1495.0,1495.0,1495.0,1.6359951496124268,-0.0524125225077881,-0.03560190416651133,-0.040088266096400614,0.003748090472072363,-0.00046438543358817697,0.0
288,5,7.361882126133423e-06,9.60139004746452e-06,1.0061558896268252e-05,0.0003960358153562993,0.0005720633780583739,-0.0009352494962513447,0.01871422491967678,0.12184146046638489,0.0010044373339042068,0.004153621383011341,0.0011157958069816232,-2.559062158979941e-05,0.0,0.0,0.0,0.0008854111656546593,0.00013182315160520375,-0.0,0.0,0.0,0.0,-0.02562815137207508,-0.1642351895570755,0.0007383728516288102,1495.0,1495.0,1495.0,1495.0,0.0,0.0,0.0,0.0,0.0,0.0,0.0,0.0,1495.0,1495.0,1495.0,1495.0,1.6331565380096436,-0.05200917024229731,-0.035379345429033086,-0.04003844334770737,-0.0005187657079659402,0.0026802867650985718,-0.0
293,5,-3.112891420187225e-07,1.4104618458077312e-05,6.7948362811875995e-06,-0.0007623662240803242,-0.00031156212207861245,1.7906964785652235e-05,0.01871422491967678,0.12184146046638489,0.0010044373339042068,0.004153621383011341,0.0011157958069816232,-2.559062158979941e-05,0.0,0.0,0.0,0.0008854111656546593,0.00013182315160520375,-0.0,0.0,0.0,0.0,-0.02562815137207508,-0.1642351895570755,0.0007383728516288102,1495.0,1495.0,1495.0,1495.0,0.0,0.0,0.0,0.0,0.0,0.0,0.0,0.0,1495.0,1495.0,1495.0,1495.0,1.6331565380096436,-0.05185176358418742,-0.03537688486533685,-0.04002371376883593,-0.0005187657079659402,0.0026802867650985718,-0.0
298,5,4.164710844634101e-06,1.000769862002926e-05,1.9097420590696856e-05,0.00023217350826598704,0.0003670055593829602,-0.0014691473916172981,0.01873665489256382,0.12181294709444046,0.0010236573871225119,-0.0006159211043268442,0.006168194115161896,0.004877740051597357,0.0,0.0,0.0,0.00041167871677316725,-0.0007263870793394744,-0.0,0.0,0.0,0.0,-0.025270547717809677,-0.16408370435237885,0.0009262309176847339,1495.0,1495.0,1495.0,1495.0,0.0,0.0,0.0,0.0,0.0,0.0,0.0,0.0,1495.0,1495.0,1495.0,1495.0,1.6342153549194336,-0.05138408540656519,-0.0353176183139382,-0.039951302108568135,0.002860416192561388,0.0012470281217247248,-0.0
303,5,1.101517591450829e-05,7.062787062750431e-06,2.067782224912662e-05,0.0009149251854978502,0.0005001915851607919,-0.0007773071993142366,0.01873665489256382,0.12181294709444046,0.0010236573871225119,-0.0006159211043268442,0.006168194115161896,0.004877740051597357,0.0,0.0,0.0,0.00041167871677316725,-0.0007263870793394744,-0.0,0.0,0.0,0.0,-0.025270547717809677,-0.16408370435237885,0.0009262309176847339,1495.0,1495.0,1495.0,1495.0,0.0,0.0,0.0,0.0,0.0,0.0,0.0,0.0,1495.0,1495.0,1495.0,1495.0,1.6342153549194336,-0.051594520829190686,-0.035145793230900814,-0.04006695076616303,0.002860416192561388,0.0012470281217247248,-0.0
308,5,2.1767143607576145e-06,1.94885978999082e-05,1.6879785107448697e-05,-0.0006946452776901424,-0.0012910206569358706,0.00014484160055872053,0.01873798854649067,0.12179972976446152,0.0009972754633054137,-0.0032120253890752792,-0.0009999905014410615,-0.0041101230308413506,0.0,0.0,0.0,-0.0006052054814063013,0.0008855022024363279,-0.0,0.0,0.0,0.0,-0.025143414735794067,-0.16450174152851105,-4.023213841719553e-05,1495.0,1495.0,1495.0,1495.0,0.0,0.0,0.0,0.0,0.0,0.0,0.0,0.0,1495.0,1495.0,1495.0,1495.0,1.636451244354248,-0.052044929021556975,-0.03547401120195616,-0.040153968500108494,-0.0034917606972157955,-0.0018357536755502224,0.0
313,5,1.0617110092425719e-05,1.8656981410458684e-05,9.700118425826076e-06,0.0007349893567152321,-0.0004166143189650029,0.0009194966987706721,0.01873798854649067,0.12179972976446152,0.0009972754633054137,-0.0032120253890752792,-0.0009999905014410615,-0.0041101230308413506,0.0,0.0,0.0,-0.0006052054814063013,0.0008855022024363279,-0.0,0.0,0.0,0.0,-0.025143414735794067,-0.16450174152851105,-4.023213841719553e-05,1495.0,1495.0,1495.0,1495.0,0.0,0.0,0.0,0.0,0.0,0.0,0.0,0.0,1495.0,1495.0,1495.0,1495.0,1.636451244354248,-0.05182158716744234,-0.035262760651165244,-0.04008948854583763,-0.0034917606972157955,-0.0018357536755502224,0.0
318,5,1.2437437362677883e-05,1.7808320990297943e-05,4.484819783101557e-06,0.0005124350427649915,-6.480640877271071e-05,0.0009936344576999545,0.018732814118266106,0.12183210253715515,0.0010011546546593308,0.0005719822947867215,-0.005695698317140341,0.0018921300070360303,0.0,0.0,0.0,0.0005498892278410494,0.0007146370480768383,-0.0,0.0,0.0,0.0,-0.025480428710579872,-0.1649080216884613,0.00017262758046854287,1495.0,1495.0,1495.0,1495.0,0.0,0.0,0.0,0.0,0.0,0.0,0.0,0.0,1495.0,1495.0,1495.0,1495.0,1.6346237659454346,-0.05144852332140357,-0.03515241431130207,-0.04016347861574325,-0.002814849140122533,0.001666101859882474,-0.0
323,5,6.365156082210888e-07,1.3487027899827808e-05,-9.557943485560827e-06,-0.0012111365795135498,0.0004926325636915863,0.002082585357129574,0.018732814118266106,0.12183210253715515,0.0010011546546593308,0.0005719822947867215,-0.005695698317140341,0.0018921300070360303,0.0,0.0,0.0,0.0005498892278410494,0.0007146370480768383,-0.0,0.0,0.0,0.0,-0.025480428710579872,-0.1649080216884613,0.00017262758046854287,1495.0,1495.0,1495.0,1495.0,0.0,0.0,0.0,0.0,0.0,0.0,0.0,0.0,1495.0,1495.0,1495.0,1495.0,1.6346237659454346,-0.05188026068230323,-0.03557474202934191,-0.040269198234880677,-0.002814849140122533,0.001666101859882474,-0.0
328,5,6.312285677267937e-06,9.9091230367776e-06,2.6759238380691386e-07,0.00019663774583023041,0.0006264015682972968,-0.0003460301668383181,0.01875218003988266,0.12185511738061905,0.0009698017383925617,-0.0007732249214313924,-0.0024369931779801846,-0.0002914685173891485,0.0,0.0,0.0,-0.000583279354032129,-0.001149066025391221,-0.0,0.0,0.0,0.0,-0.025228699669241905,-0.16396962106227875,0.0007098630885593593,1495.0,1495.0,1495.0,1495.0,0.0,0.0,0.0,0.0,0.0,0.0,0.0,0.0,1495.0,1495.0,1495.0,1495.0,1.638962984085083,-0.05188296909034676,-0.03549097086737798,-0.040304904815461166,0.004538014065474272,-0.001771961455233395,0.0
333,5,6.307358489721082e-06,1.1319956684019417e-05,2.36687629495691e-08,7.806385110598058e-05,8.126060129143298e-05,-0.00010914123413385823,0.01875218003988266,0.12185511738061905,0.0009698017383925617,-0.0007732249214313924,-0.0024369931779801846,-0.0002914685173891485,0.0,0.0,0.0,-0.000583279354032129,-0.001149066025391221,-0.0,0.0,0.0,0.0,-0.025228699669241905,-0.16396962106227875,0.0007098630885593593,1495.0,1495.0,1495.0,1495.0,0.0,0.0,0.0,0.0,0.0,0.0,0.0,0.0,1495.0,1495.0,1495.0,1495.0,1.638962984085083,-0.052153203964670714,-0.03545048257069813,-0.040101123735882115,0.004538014065474272,-0.001771961455233395,0.0
338,5,7.96793756308034e-06,1.2541951036837418e-05,1.7096259398385882e-05,0.0002304950903635472,-0.00011413504398660734,-0.0020923675037920475,0.018764134496450424,0.12183371186256409,0.0009906318737193942,0.0006038632709532976,0.004906184040009975,-1.0777103852888104e-05,0.0,0.0,0.0,-7.990689482539892e-05,8.351152064278722e-05,-0.0,0.0,0.0,0.0,-0.025611579418182373,-0.1648169755935669,-9.828009206103161e-05,1495.0,1495.0,1495.0,1495.0,0.0,0.0,0.0,0.0,0.0,0.0,0.0,0.0,1495.0,1495.0,1495.0,1495.0,1.6284600496292114,-0.05220784707470555,-0.035584199942992466,-0.040120647139157056,-0.00032769920653663576,-0.00024119589943438768,0.0
343,5,1.2840064300689846e-05,9.675709407019895e-06,2.7412395411374746e-06,0.0006768532330170274,0.00029829502454958856,0.0008856554632075131,0.018764134496450424,0.12183371186256409,0.0009906318737193942,0.0006038632709532976,0.004906184040009975,-1.0777103852888104e-05,0.0,0.0,0.0,-7.990689482539892e-05,8.351152064278722e-05,-0.0,0.0,0.0,0.0,-0.025611579418182373,-0.1648169755935669,-9.828009206103161e-05,1495.0,1495.0,1495.0,1495.0,0.0,0.0,0.0,0.0,0.0,0.0,0.0,0.0,1495.0,1495.0,1495.0,1495.0,1.6284600496292114,-0.05168577752398666,-0.03530889794264561,-0.039868533954586685,-0.00032769920653663576,-0.00024119589943438768,0.0
348,5,8.053572855715174e-06,7.898180228949059e-06,7.318634743569419e-06,-0.0003036376729141921,0.00033262150827795267,-0.00019502524810377508,0.01879441924393177,0.1218252032995224,0.0009718533256091177,0.002586668124422431,-0.0046131848357617855,-0.0036900595296174288,0.0,0.0,0.0,-0.00039799674414098263,-0.0002785190590657294,-0.0,0.0,0.0,0.0,-0.02528015896677971,-0.16424071788787842,0.0009546552319079638,1495.0,1495.0,1495.0,1495.0,0.0,0.0,0.0,0.0,0.0,0.0,0.0,0.0,1495.0,1495.0,1495.0,1495.0,1.6301593780517578,-0.05189965270366909,-0.035373047052253116,-0.03992901972999903,0.001094049192033708,-0.0012025914620608091,0.0
354,5,7.22191634849878e-06,5.521503680938622e-06,1.8150338291889057e-05,-0.00022125385294202715,0.0004182497796136886,-0.0013778144493699074,0.01879441924393177,0.1218252032995224,0.0009718533256091177,0.002586668124422431,-0.0046131848357617855,-0.0036900595296174288,0.0,0.0,0.0,-0.00039799674414098263,-0.0002785190590657294,-0.0,0.0,0.0,0.0,-0.02528015896677971,-0.16424071788787842,0.0009546552319079638,1495.0,1495.0,1495.0,1495.0,0.0,0.0,0.0,0.0,0.0,0.0,0.0,0.0,1495.0,1495.0,1495.0,1495.0,1.6301593780517578,-0.05198690679738745,-0.035320882329771035,-0.03992179617317782,0.001094049192033708,-0.0012025914620608091,0.0
359,5,9.940899872162845e-06,1.1655542948574293e-05,1.6974025129457004e-05,0.00023777650494594127,-0.0005687848315574229,-0.0004099683428648859,0.018791699782013893,0.12183110415935516,0.0010066748363897204,0.0009828358888626099,0.0030241799540817738,0.0028785616159439087,0.0,0.0,0.0,0.000726626138202846,0.00024069190840236843,-0.0,0.0,0.0,0.0,-0.025243522599339485,-0.16499754786491394,0.0003074008855037391,1495.0,1495.0,1495.0,1495.0,0.0,0.0,0.0,0.0,0.0,0.0,0.0,0.0,1495.0,1495.0,1495.0,1495.0,1.6322435140609741,-0.05147942868120534,-0.035488614350598045,-0.03994454442609649,-0.000946669140830636,0.0021983885671943426,0.0
364,5,-1.565297793604259e-06,1.704946407699026e-05,3.571152774384245e-05,-0.0012856331886723638,-0.0008747844258323312,-0.0024124877527356148,0.018791699782013893,0.12183110415935516,0.0010066748363897204,0.0009828358888626099,0.0030241799540817738,0.0028785616159439087,0.0,0.0,0.0,0.000726626138202846,0.00024069190840236843,-0.0,0.0,0.0,0.0,-0.025243522599339485,-0.16499754786491394,0.0003074008855037391,1495.0,1495.0,1495.0,1495.0,0.0,0.0,0.0,0.0,0.0,0.0,0.0,0.0,1495.0,1495.0,1495.0,1495.0,1.6322435140609741,-0.05147823824610864,-0.03568491929779462,-0.03994391509860852,-0.000946669140830636,0.0021983885671943426,0.0
369,5,-7.33825061161042e-07,1.440984669898171e-05,1.1808377166744322e-05,-0.000414476526202634,-3.315975845907815e-05,0.0019033831777051091,0.01879088580608368,0.12184648215770721,0.0009913111571222544,-0.0001864590885816142,-0.002423314144834876,-0.0022689918987452984,0.0,0.0,0.0,0.000726626138202846,0.00024069190840236843,-0.0,0.0,0.0,0.0,-0.025370905175805092,-0.1642395257949829,0.0002939647529274225,1495.0,1495.0,1495.0,1495.0,0.0,0.0,0.0,0.0,0.0,0.0,0.0,0.0,1495.0,1495.0,1495.0,1495.0,1.630011796951294,-0.0515442965052888,-0.035532406728977686,-0.040124662035940624,0.0015579933533445,0.00020499371748883277,-0.0
374,5,-1.2735753216475132e-06,1.3026768101553898e-05,9.367666280013509e-06,-0.00023056063218973577,0.0001527056156191975,0.0010542385280132294,0.01879088580608368,0.12184648215770721,0.0009913111571222544,-0.0001864590885816142,-0.002423314144834876,-0.0022689918987452984,0.0,0.0,0.0,6.784866127418354e-05,-0.00039666416705586016,-0.0,0.0,0.0,0.0,-0.025370905175805092,-0.1642395257949829,0.0002939647529274225,1495.0,1495.0,1495.0,1495.0,0.0,0.0,0.0,0.0,0.0,0.0,0.0,0.0,1495.0,1495.0,1495.0,1495.0,1.630011796951294,-0.05155071852276773,-0.03550763696986091,-0.04000524882538336,0.0015579933533445,0.00020499371748883277,-0.0
379,5,1.1735311318261665e-06,1.8789938621921465e-05,-6.662432951998198e-06,0.00020142851280979812,-0.0006304981652647257,0.0023453072644770145,0.01880596950650215,0.12180906534194946,0.0009924807818606496,0.0017021616222336888,0.004228002857416868,0.005422929767519236,0.0,0.0,0.0,0.0008158678538165987,0.0001937150809681043,-0.0,0.0,0.0,0.0,-0.025594819337129593,-0.1641484797000885,0.0009675634792074561,1495.0,1495.0,1495.0,1495.0,0.0,0.0,0.0,0.0,0.0,0.0,0.0,0.0,1495.0,1495.0,1495.0,1495.0,1.6327606439590454,-0.05186623632037171,-0.03526877550421772,-0.04014606265383774,-0.0007621451513841748,0.0024691689759492874,0.0
384,5,-1.1079479236286716e-06,1.464970591769088e-05,1.0026627023762558e-05,-0.0001932060840772465,0.0002446285798214376,-0.0010645643342286348,0.01880596950650215,0.12180906534194946,0.0009924807818606496,0.0017021616222336888,0.004228002857416868,0.005422929767519236,0.0,0.0,0.0,0.0008158678538165987,0.0001937150809681043,-0.0,0.0,0.0,0.0,-0.025594819337129593,-0.1641484797000885,0.0009675634792074561,1495.0,1495.0,1495.0,1495.0,0.0,0.0,0.0,0.0,0.0,0.0,0.0,0.0,1495.0,1495.0,1495.0,1495.0,1.6327606439590454,-0.051921871042579774,-0.03533857784762432,-0.040006944114589736,-0.0007621451513841748,0.0024691689759492874,0.0
389,5,6.176373062771745e-06,8.212040484067984e-06,3.593019755498972e-06,0.0007968360441736877,0.0008703712373971939,0.0003462071472313255,0.018795624375343323,0.12178582698106766,0.001016972935758531,-0.00212067156098783,0.0012844339944422245,0.0019671793561428785,0.0,0.0,0.0,0.0008158678538165987,0.0001937150809681043,-0.0,0.0,0.0,0.0,-0.025249088183045387,-0.16425827145576477,0.0005991289508529007,1495.0,1495.0,1495.0,1495.0,0.0,0.0,0.0,0.0,0.0,0.0,0.0,0.0,1495.0,1495.0,1495.0,1495.0,1.6327606439590454,-0.05226925493952189,-0.03530789142307222,-0.040070122387385235,-0.0030224607326090336,-0.0032172410283237696,-0.0
394,5,3.8056580251577543e-06,8.353770681424066e-06,1.763927116371633e-06,3.424862734391354e-05,0.00033114090911112726,0.0003579740005079657,0.018795624375343323,0.12178582698106766,0.001016972935758531,-0.00212067156098783,0.0012844339944422245,0.0019671793561428785,0.0,0.0,0.0,-0.001059825997799635,0.0007658935501240194,-0.0,0.0,0.0,0.0,-0.025249088183045387,-0.16425827145576477,0.0005991289508529007,1495.0,1495.0,1495.0,1495.0,0.0,0.0,0.0,0.0,0.0,0.0,0.0,0.0,1495.0,1495.0,1495.0,1495.0,1.637723684310913,-0.051647649221237414,-0.0353408345164241,-0.04011414199035995,-0.0030224607326090336,-0.0032172410283237696,-0.0
399,5,1.15162183647044e-05,1.6915304513531737e-05,8.394151336688083e-06,0.0009389666956849396,-0.0008949277107603848,-0.0006524373311549425,0.018795624375343323,0.12178582698106766,0.001016972935758531,-0.00212067156098783,0.0012844339944422245,0.0019671793561428785,0.0,0.0,0.0,-0.001059825997799635,0.0007658935501240194,-0.0,0.0,0.0,0.0,-0.025249088183045387,-0.16425827145576477,0.0005991289508529007,1495.0,1495.0,1495.0,1495.0,0.0,0.0,0.0,0.0,0.0,0.0,0.0,0.0,1495.0,1495.0,1495.0,1495.0,1.637723684310913,-0.05190967636319348,-0.035477796433456076,-0.04002157949178574,-0.003584860125556588,0.003450557356700301,0.0
404,5,1.411384164384799e-05,1.1257877304160502e-05,1.0430854672449641e-05,0.0006873015081509948,0.00032092025503516197,-0.0005053793429397047,0.01881229132413864,0.12178017944097519,0.0009807513561099768,0.00018724969413597137,0.0017075866926461458,-0.0015742206014692783,0.0,0.0,0.0,0.0011356303002685308,0.000907562964130193,-0.0,0.0,0.0,0.0,-0.02552718110382557,-0.16420729458332062,-4.621651896741241e-06,1495.0,1495.0,1495.0,1495.0,0.0,0.0,0.0,0.0,0.0,0.0,0.0,0.0,1495.0,1495.0,1495.0,1495.0,1.6392450332641602,-0.05217989891035483,-0.03541999030351882,-0.03984698790533438,-0.003584860125556588,0.003450557356700301,0.0
409,5,1.199936286866432e-05,1.1390331565053202e-05,2.083892650261987e-05,2.1183177523198538e-05,0.00011247357178945094,-0.0014511202462017536,0.01881229132413864,0.12178017944097519,0.0009807513561099768,0.00018724969413597137,0.0017075866926461458,-0.0015742206014692783,0.0,0.0,0.0,-0.00011845272820210084,3.717409344972111e-05,-0.0,0.0,0.0,0.0,-0.02552718110382557,-0.16420729458332062,-4.621651896741241e-06,1495.0,1495.0,1495.0,1495.0,0.0,0.0,0.0,0.0,0.0,0.0,0.0,0.0,1495.0,1495.0,1495.0,1495.0,1.6284600496292114,-0.051891379212624114,-0.0354296796440995,-0.04005975241080358,-0.00014587114856112748,-0.00035754501004703343,0.0
414,5,5.416754902398679e-06,9.312300790043082e-06,3.555337025318295e-05,-0.0007814397686161101,0.00029435305623337626,-0.002346181543543935,0.018813852220773697,0.12176252901554108,0.000987125327810645,0.004951580427587032,-0.0016710214549675584,0.0019652422051876783,0.0,0.0,0.0,-0.00011845272820210084,3.717409344972111e-05,-0.0,0.0,0.0,0.0,-0.025543421506881714,-0.16411617398262024,0.0006286388379521668,1495.0,1495.0,1495.0,1495.0,0.0,0.0,0.0,0.0,0.0,0.0,0.0,0.0,1495.0,1495.0,1495.0,1495.0,1.6284600496292114,-0.05164060821564855,-0.035359199832405395,-0.03994743497343136,-0.00014587114856112748,-0.00035754501004703343,0.0
420,5,7.17245995929261e-07,1.535399496788159e-05,2.028058770520147e-05,-0.0008765169768594205,-0.0006072621326893568,0.0008942614076659083,0.018813852220773697,0.12176252901554108,0.000987125327810645,0.004951580427587032,-0.0016710214549675584,0.0019652422051876783,0.0,0.0,0.0,-0.00011845272820210084,3.717409344972111e-05,-0.0,0.0,0.0,0.0,-0.025543421506881714,-0.16411617398262024,0.0006286388379521668,1495.0,1495.0,1495.0,1495.0,0.0,0.0,0.0,0.0,0.0,0.0,0.0,0.0,1495.0,1495.0,1495.0,1495.0,1.6284600496292114,-0.05166131001608321,-0.03547740656078188,-0.04018163052944731,-0.00014587114856112748,-0.00035754501004703343,0.0
425,5,-4.249406174494652e-06,9.870641406450886e-07,1.3895950360165443e-05,-0.0009466050541959703,0.001481126993894577,0.0011238609440624714,0.018792850896716118,0.12176337093114853,0.0009670474682934582,0.0013311082730069757,0.004197679925709963,0.002739574061706662,0.0,0.0,0.0,0.0007790022064000368,-0.0008323100628331304,-0.0,0.0,0.0,0.0,-0.025157548487186432,-0.1639048457145691,0.0003093739796895534,1495.0,1495.0,1495.0,1495.0,0.0,0.0,0.0,0.0,0.0,0.0,0.0,0.0,1495.0,1495.0,1495.0,1495.0,1.6367220878601074,-0.05154753418097957,-0.03558543669437506,-0.04005329212527634,0.003282553516328335,0.002363317646086216,-0.0
430,5,-2.8694541924778605e-06,4.375796834210632e-06,1.0310400284652133e-05,-0.00021304776601027697,0.0001858028263086453,0.0008798104245215654,0.018792850896716118,0.12176337093114853,0.0009670474682934582,0.0013311082730069757,0.004197679925709963,0.002739574061706662,0.0,0.0,0.0,0.0007790022064000368,-0.0008323100628331304,-0.0,0.0,0.0,0.0,-0.025157548487186432,-0.1639048457145691,0.0003093739796895534,1495.0,1495.0,1495.0,1495.0,0.0,0.0,0.0,0.0,0.0,0.0,0.0,0.0,1495.0,1495.0,1495.0,1495.0,1.6367220878601074,-0.051426580911066846,-0.03561731122620157,-0.03993461938190054,0.003282553516328335,0.002363317646086216,-0.0
435,5,-4.062414063810138e-06,1.4576836292690132e-05,2.9142229323042557e-06,-0.00022837426513433456,-0.0011498035164549947,0.0012394654331728816,0.018800238147377968,0.12175349146127701,0.0009980688337236643,-0.0003450345539022237,-0.0010983537649735808,0.0007393356645479798,0.0,0.0,0.0,-0.00022229168098419905,-0.0002074938965961337,-0.0,0.0,0.0,0.0,-0.02540314942598343,-0.164530411362648,0.00033530412474647164,1495.0,1495.0,1495.0,1495.0,0.0,0.0,0.0,0.0,0.0,0.0,0.0,0.0,1495.0,1495.0,1495.0,1495.0,1.6286098957061768,-0.052281250917125856,-0.03556196094741308,-0.04009441509479575,0.0008142809383571148,-0.0006710406159982085,-0.0
440,5,7.484245998057304e-06,1.3849014067091048e-05,-2.951882834167918e-06,0.0012942494358867407,-0.00037258281372487545,0.0011997189139947295,0.018800238147377968,0.12175349146127701,0.0009980688337236643,-0.0003450345539022237,-0.0010983537649735808,0.0007393356645479798,0.0,0.0,0.0,-0.00022229168098419905,-0.0002074938965961337,-0.0,0.0,0.0,0.0,-0.02540314942598343,-0.164530411362648,0.00033530412474647164,1495.0,1495.0,1495.0,1495.0,0.0,0.0,0.0,0.0,0.0,0.0,0.0,0.0,1495.0,1495.0,1495.0,1495.0,1.6286098957061768,-0.05186631373007556,-0.035447831930730145,-0.040077070490556144,0.0008142809383571148,-0.0006710406159982085,-0.0
445,5,1.3185537682147697e-05,8.794610039331019e-06,1.4519669093715493e-06,0.0012018547859042883,0.00045749536366201937,-4.857442399952561e-05,0.018791578710079193,0.12174974381923676,0.001010715845040977,-0.0031813615933060646,0.0009296158677898347,0.00200938549824059,0.0,0.0,0.0,0.0004853536083828658,0.0012389789335429668,-0.0,0.0,0.0,0.0,-0.025294698774814606,-0.16422148048877716,0.0004549016884993762,1495.0,1495.0,1495.0,1495.0,0.0,0.0,0.0,0.0,0.0,0.0,0.0,0.0,1495.0,1495.0,1495.0,1495.0,1.6396151781082153,-0.05175159931556273,-0.03523797983102364,-0.04008783370715913,-0.004895055200904608,0.0014750567497685552,0.0
450,5,2.601428832349484e-06,5.693845196219627e-06,7.728756827418692e-06,-0.0007893511210568249,0.0005550899659283459,-0.0007726445328444242,0.018791578710079193,0.12174974381923676,0.001010715845040977,-0.0031813615933060646,0.0009296158677898347,0.00200938549824059,0.0,0.0,0.0,0.0004853536083828658,0.0012389789335429668,-0.0,0.0,0.0,0.0,-0.025294698774814606,-0.16422148048877716,0.0004549016884993762,1495.0,1495.0,1495.0,1495.0,0.0,0.0,0.0,0.0,0.0,0.0,0.0,0.0,1495.0,1495.0,1495.0,1495.0,1.6396151781082153,-0.051976535088368706,-0.03538976625130681,-0.04008427536786443,-0.004895055200904608,0.0014750567497685552,0.0
455,5,2.551652414695127e-06,1.1549458577064797e-05,1.6078349290182814e-05,-0.00032171362545341253,-0.00048063762369565666,-0.0013110088184475899,0.01879061572253704,0.12177724391222,0.0010296928230673075,-0.0025906506925821304,0.0030282102525234222,0.005092962179332972,0.0,0.0,0.0,-0.0006757593946531415,-0.0007473617442883551,-0.0,0.0,0.0,0.0,-0.025482747703790665,-0.16486944258213043,0.0006302146357484162,1495.0,1495.0,1495.0,1495.0,0.0,0.0,0.0,0.0,0.0,0.0,0.0,0.0,1495.0,1495.0,1495.0,1495.0,1.635482668876648,-0.05190803931295031,-0.03551550557219945,-0.040003441294090475,0.002945293439552188,-0.002048549707978964,0.0
460,5,1.7210782061738428e-06,6.33014951745281e-06,2.9558698315668153e-06,-0.00022835435811430216,0.00043406206532381475,0.0010502939112484455,0.01879061572253704,0.12177724391222,0.0010296928230673075,-0.0025906506925821304,0.0030282102525234222,0.005092962179332972,0.0,0.0,0.0,-0.0006757593946531415,-0.0007473617442883551,-0.0,0.0,0.0,0.0,-0.025482747703790665,-0.16486944258213043,0.0006302146357484162,1495.0,1495.0,1495.0,1495.0,0.0,0.0,0.0,0.0,0.0,0.0,0.0,0.0,1495.0,1495.0,1495.0,1495.0,1.635482668876648,-0.05207412403882236,-0.035298851846851546,-0.040070513777530056,0.002945293439552188,-0.002048549707978964,0.0
465,5,-6.055339326849207e-06,1.5574127246509306e-05,5.501862688106485e-06,-0.0010245118755847216,-0.0009356524678878486,0.00011459841334726661,0.01880604401230812,0.12178000807762146,0.0010456620948389173,0.0022742145229130983,0.0013350211083889008,0.0023330228868871927,0.0,0.0,0.0,-0.0005264428327791393,-0.00021540792658925056,-0.0,0.0,0.0,0.0,-0.025437910109758377,-0.16365469992160797,0.00025603704852983356,1495.0,1495.0,1495.0,1495.0,0.0,0.0,0.0,0.0,0.0,0.0,0.0,0.0,1495.0,1495.0,1495.0,1495.0,1.630638599395752,-0.052126194602950315,-0.035514722263957695,-0.04012137012728234,0.0008463913691230118,-0.0015911732334643602,-0.0
470,5,-3.598578132368857e-06,9.966719517251477e-06,-6.401249947884935e-07,-0.00011499338870635256,0.0002986279141623527,0.0007828779052942991,0.01880604401230812,0.12178000807762146,0.0010456620948389173,0.0022742145229130983,0.0013350211083889008,0.0023330228868871927,0.0,0.0,0.0,-0.0005264428327791393,-0.00021540792658925056,-0.0,0.0,0.0,0.0,-0.025437910109758377,-0.16365469992160797,0.00025603704852983356,1495.0,1495.0,1495.0,1495.0,0.0,0.0,0.0,0.0,0.0,0.0,0.0,0.0,1495.0,1495.0,1495.0,1495.0,1.630638599395752,-0.05192979924940877,-0.035407955418673684,-0.03996647675128531,0.0008463913691230118,-0.0015911732334643602,-0.0
475,5,-2.351681132495287e-06,6.995880994509207e-06,-9.52695415890048e-07,0.00010363027831772342,0.00047595176147297025,0.0003506595967337489,0.018807461485266685,0.12171424925327301,0.0010577029315754771,-0.00021616806043311954,0.007009495981037617,-0.0005165237234905362,0.0,0.0,0.0,-0.0003521611215546727,-0.00011479159002192318,-0.0,0.0,0.0,0.0,-0.025437910109758377,-0.16365469992160797,0.00025603704852983356,1495.0,1495.0,1495.0,1495.0,0.0,0.0,0.0,0.0,0.0,0.0,0.0,0.0,1495.0,1495.0,1495.0,1495.0,1.628880500793457,-0.05171396428500169,-0.0354717290254142,-0.04017750104246979,0.0004505584656726569,-0.001063259202055633,0.0
480,5,8.803448992011909e-08,-2.1856669718545163e-06,1.6582476746407337e-05,0.0003342179988976568,0.0012921664165332913,-0.0019639567472040653,0.018807461485266685,0.12171424925327301,0.0010577029315754771,-0.00021616806043311954,0.007009495981037617,-0.0005165237234905362,0.0,0.0,0.0,-0.0003521611215546727,-0.00011479159002192318,-0.0,0.0,0.0,0.0,-0.025437910109758377,-0.16365469992160797,0.00025603704852983356,1495.0,1495.0,1495.0,1495.0,0.0,0.0,0.0,0.0,0.0,0.0,0.0,0.0,1495.0,1495.0,1495.0,1495.0,1.628880500793457,-0.051361407315156225,-0.035370203434573776,-0.039935752520201546,0.0004505584656726569,-0.001063259202055633,0.0
485,5,7.73703504819423e-06,1.6237183444900438e-05,1.1982290743617341e-05,0.0010515672620385885,-0.001693875528872013,-0.00023356033489108086,0.01879814639687538,0.12171808630228043,0.001082033384591341,-0.002437167102470994,-0.001786405686289072,0.0003628579434007406,0.0,0.0,0.0,-0.0015980370808392763,0.0003175149322487414,-0.0,0.0,0.0,0.0,-0.02537863329052925,-0.16454605758190155,0.00015319928934331983,1495.0,1495.0,1495.0,1495.0,0.0,0.0,0.0,0.0,0.0,0.0,0.0,0.0,1495.0,1495.0,1495.0,1495.0,1.639352560043335,-0.05221214758457794,-0.035564196113836,-0.040059531289936515,-0.0012542608892545104,-0.004855874460190535,0.0
490,5,8.47718729346525e-06,1.0385033419879619e-05,1.483617779740598e-05,0.0005094452062621713,2.470786785124801e-05,-0.0004358906007837504,0.01879814639687538,0.12171808630228043,0.001082033384591341,-0.002437167102470994,-0.001786405686289072,0.0003628579434007406,0.0,0.0,0.0,-0.0015980370808392763,0.0003175149322487414,-0.0,0.0,0.0,0.0,-0.02537863329052925,-0.16454605758190155,0.00015319928934331983,1495.0,1495.0,1495.0,1495.0,0.0,0.0,0.0,0.0,0.0,0.0,0.0,0.0,1495.0,1495.0,1495.0,1495.0,1.639352560043335,-0.0522329113167394,-0.03543815225264825,-0.04009221055748577,-0.0012542608892545104,-0.004855874460190535,0.0
495,5,6.203920293046394e-06,7.55332848711987e-06,8.625373084214516e-06,-6.901400774950162e-05,0.0003496877325233072,0.0005709403194487095,0.01878647692501545,0.12175913900136948,0.0010848292149603367,-0.002066620858386159,-0.00020505125576164573,-0.0003846202453132719,0.0,0.0,0.0,-1.1156610526086297e-05,0.0004980661906301975,-0.0,0.0,0.0,0.0,-0.025548629462718964,-0.16367894411087036,0.0008485798607580364,1495.0,1495.0,1495.0,1495.0,0.0,0.0,0.0,0.0,0.0,0.0,0.0,0.0,1495.0,1495.0,1495.0,1495.0,1.6310607194900513,-0.05175265836625223,-0.03539561200381766,-0.040113360239608174,-0.001957532949745655,-3.372958235559054e-05,0.0
500,5,8.699555110069923e-06,1.0309428034815937e-05,-4.875634658674244e-06,0.0002718706091400236,-0.0001908569101942703,0.0018484970787540078,0.01878647692501545,0.12175913900136948,0.0010848292149603367,-0.002066620858386159,-0.00020505125576164573,-0.0003846202453132719,0.0,0.0,0.0,-1.1156610526086297e-05,0.0004980661906301975,-0.0,0.0,0.0,0.0,-0.025548629462718964,-0.16367894411087036,0.0008485798607580364,1495.0,1495.0,1495.0,1495.0,0.0,0.0,0.0,0.0,0.0,0.0,0.0,0.0,1495.0,1495.0,1495.0,1495.0,1.6310607194900513,-0.051957445258934115,-0.035388491423324744,-0.040059534068456464,-0.001957532949745655,-3.372958235559054e-05,0.0
505,5,2.9846758025087183e-06,7.087623998813797e-06,1.1160142094013281e-05,-0.0005770372808910906,0.00031027375371195376,-0.001184894354082644,0.018783504143357277,0.12173216044902802,0.001100961584597826,0.002171480329707265,0.0052618528716266155,0.00229087402112782,0.0,0.0,0.0,0.0002563712769187987,0.0002719963958952576,-0.0,0.0,0.0,0.0,-0.025447426363825798,-0.16379360854625702,0.0003185782697983086,1495.0,1495.0,1495.0,1495.0,0.0,0.0,0.0,0.0,0.0,0.0,0.0,0.0,1495.0,1495.0,1495.0,1495.0,1.6293264627456665,-0.05182700572968498,-0.03526650113849573,-0.0400335718746824,-0.0010678817052394152,0.0007742585730738938,0.0
510,5,-3.2389246484854084e-07,1.3519607819034718e-05,4.336903884905041e-07,-0.0006278430810198188,-0.0006477285642176867,0.0008132164366543293,0.018783504143357277,0.12173216044902802,0.001100961584597826,0.002171480329707265,0.0052618528716266155,0.00229087402112782,0.0,0.0,0.0,0.0002563712769187987,0.0002719963958952576,-0.0,0.0,0.0,0.0,-0.025447426363825798,-0.16379360854625702,0.0003185782697983086,1495.0,1495.0,1495.0,1495.0,0.0,0.0,0.0,0.0,0.0,0.0,0.0,0.0,1495.0,1495.0,1495.0,1495.0,1.6293264627456665,-0.05172069073246933,-0.03549689720012104,-0.039960485594867104,-0.0010678817052394152,0.0007742585730738938,0.0
515,5,2.477239149811794e-06,1.4108982213656418e-05,9.941620191966649e-06,8.499855903210118e-05,-0.00032981630647554994,-0.0008156650001183152,0.018783504143357277,0.12173216044902802,0.001100961584597826,0.002171480329707265,0.0052618528716266155,0.00229087402112782,0.0,0.0,0.0,0.0008266096701845527,-0.0005978948902338743,-0.0,0.0,0.0,0.0,-0.025447426363825798,-0.16379360854625702,0.0003185782697983086,1495.0,1495.0,1495.0,1495.0,0.0,0.0,0.0,0.0,0.0,0.0,0.0,0.0,1495.0,1495.0,1495.0,1495.0,1.635079026222229,-0.05195037584860844,-0.035513413332534105,-0.040013812338117925,0.002355674747377634,0.0025052304845303297,-0.0
521,5,5.0156500037701335e-06,5.220673756411998e-06,7.188243216660339e-06,0.000338608690071851,0.0009346704464405775,4.139221800869564e-06,0.0187955591827631,0.12169329077005386,0.0010997554054483771,0.0012335949577391148,0.0037642221432179213,-0.0010100960498675704,0.0,0.0,0.0,0.0008266096701845527,-0.0005978948902338743,-0.0,0.0,0.0,0.0,-0.025238603353500366,-0.16419535875320435,0.0003439296269789338,1495.0,1495.0,1495.0,1495.0,0.0,0.0,0.0,0.0,0.0,0.0,0.0,0.0,1495.0,1495.0,1495.0,1495.0,1.635079026222229,-0.051656878385074656,-0.035100147443747905,-0.04014474874235564,0.002355674747377634,0.0025052304845303297,-0.0
526,5,-1.3548421406994748e-07,1.0399517123005353e-05,1.1116712812508922e-05,-0.00048269261606037617,-0.00024759297957643867,-0.000469760678242892,0.0187955591827631,0.12169329077005386,0.0010997554054483771,0.0012335949577391148,0.0037642221432179213,-0.0010100960498675704,0.0,0.0,0.0,-0.0011458746157586575,0.00032927427673712373,-0.0,0.0,0.0,0.0,-0.025238603353500366,-0.16419535875320435,0.0003439296269789338,1495.0,1495.0,1495.0,1495.0,0.0,0.0,0.0,0.0,0.0,0.0,0.0,0.0,1495.0,1495.0,1495.0,1495.0,1.635811686515808,-0.05203951940314382,-0.035626255364245116,-0.040082090181721125,-0.0012979044113308191,-0.003474391531199217,-0.0
