timestamp,dt,pos_x,pos_y,pos_z,vel_x,vel_y,vel_z,roll,pitch,yaw,agv_x,agv_y,agv_z,x_ref,y_ref,z_ref,roll_ref,pitch_ref,yaw_ref,x_vel_ref,y_vel_ref,z_vel_ref,x_torque,y_torque,z_torque,w0,w1,w2,w3,u0,u1,u2,u3,m0req,m1req,m2req,m3req,thrust0,thrust1,thrust2,thrust3,thrust_ref,roll_vicon,pitch_vicon,yaw_vicon,acc_x,acc_y,acc_z
5,5,0.0,0.0,0.0,-0.0007079230854287744,-0.0003343747230246663,-0.0020162102300673723,0.0,0.0,0.0,0.0,0.0,0.0,0.0,0.0,0.0,0.0004140758537687361,-0.0006743559497408569,-0.0,0.0,0.0,0.0,0.0,0.0,0.0,0.0,0.0,0.0,0.0,0.0,0.0,0.0,0.0,0.0,0.0,0.0,0.0,0.0,0.0,0.0,0.0,1.6337149143218994,-0.07047929264117109,0.052801421671514095,0.018129738685878284,0.0026547114830464125,0.0012539052404463291,0.0
30,25,0.0,0.0,0.0,0.00018111125973518938,-0.0011836306657642126,-0.002502212068066001,0.0,0.0,0.0,0.0,0.0,0.0,0.0,0.0,0.0,0.0004140758537687361,-0.0006743559497408569,-0.0,0.0,0.0,0.0,0.0,0.0,0.0,0.0,0.0,0.0,0.0,0.0,0.0,0.0,0.0,0.0,0.0,0.0,0.0,0.0,0.0,0.0,0.0,1.6337149143218994,-0.07018090923023254,0.05223246791715517,0.018108587351251693,0.0026547114830464125,0.0012539052404463291,0.0
36,5,0.0,0.0,0.0,-0.0007787010399624705,0.0009986014338210225,0.0010115624172613025,0.0,0.0,0.0,0.0,0.0,0.0,0.0,0.0,0.0,0.0014619881985709071,0.0001720798172755167,-0.0,0.0,0.0,0.0,0.0,0.0,0.0,0.0,0.0,0.0,0.0,0.0,0.0,0.0,0.0,0.0,0.0,0.0,0.0,0.0,0.0,0.0,0.0,1.6379300355911255,-0.0698404649136224,0.0519648489254252,0.01787851746890121,-0.0006791672203689814,0.004438614938408136,0.0
41,6,0.0,0.0,0.0,0.0015247483970597386,0.0003580134070944041,0.0029303370974957943,0.0,0.0,0.0,0.0,0.0,0.0,0.0,0.0,0.0,-0.0004411991103552282,0.001445407629944384,-0.0,0.0,0.0,0.0,0.0,0.0,0.0,0.0,0.0,0.0,0.0,0.0,0.0,0.0,0.0,0.0,0.0,0.0,0.0,0.0,0.0,0.0,0.0,1.6416758298873901,-0.0698426260467877,0.05225215868275808,0.018010322948918262,-0.00571780651807785,-0.0013425502693280578,0.0
51,10,0.0,0.0,0.0,0.0015247483970597386,0.0003580134070944041,0.0029303370974957943,0.0,0.0,0.0,0.0,0.0,0.0,0.0,0.0,0.0,-0.0004411991103552282,0.001445407629944384,-0.0,0.0,0.0,0.0,0.0,0.0,0.0,0.0,0.0,0.0,0.0,0.0,0.0,0.0,0.0,0.0,0.0,0.0,0.0,0.0,0.0,0.0,0.0,1.6416758298873901,-0.0698426260467877,0.05225215868275808,0.018010322948918262,-0.00571780651807785,-0.0013425502693280578,0.0
56,5,0.0,0.0,0.0,0.000172071871929802,-0.0007593963528051972,-0.0028944050427526236,0.0,0.0,0.0,0.0,0.0,0.0,0.0,0.0,0.0,0.0009404300944879651,0.00016391724057029933,-0.0,0.0,0.0,0.0,0.0,0.0,0.0,0.0,0.0,0.0,0.0,0.0,0.0,0.0,0.0,0.0,0.0,0.0,0.0,0.0,0.0,0.0,0.0,1.633671760559082,-0.07014292743135331,0.05344885994411531,0.017994344183490447,-0.0006452695233747363,0.0028477362357079983,0.0
63,7,0.0,0.0,0.0,-7.858631579438224e-05,0.00022400912712328136,-0.0012247869744896889,0.0,0.0,0.0,0.0,0.0,0.0,0.0,0.0,0.0,0.0009404300944879651,0.00016391724057029933,-0.0,0.0,0.0,0.0,0.0,0.0,0.0,0.0,0.0,0.0,0.0,0.0,0.0,0.0,0.0,0.0,0.0,0.0,0.0,0.0,0.0,0.0,0.0,1.633671760559082,-0.07028651325249116,0.05285935092531965,0.018071956348527155,-0.0006452695233747363,0.0028477362357079983,0.0
68,5,0.0,0.0,0.0,-0.00127707130741328,-0.00021344787091948092,-0.0009018332348205149,0.0,0.0,0.0,0.0,0.0,0.0,0.0,0.0,0.0,0.0009404300944879651,0.00016391724057029933,-0.0,0.0,0.0,0.0,0.0,0.0,0.0,0.0,0.0,0.0,0.0,0.0,0.0,0.0,0.0,0.0,0.0,0.0,0.0,0.0,0.0,0.0,0.0,1.633671760559082,-0.0700953205833793,0.052626795841144734,0.01803178526932264,-0.0006452695233747363,0.0028477362357079983,0.0
73,5,-2.411927880530129e-06,-1.0880014997383114e-05,1.8024941255134763e-06,-0.0008002598769962788,0.0012202226789668202,-0.0005770325660705566,0.0,0.0,0.0,0.0,0.0,0.0,0.0,0.0,0.0,0.0002634857373777777,-0.0012126548681408167,-0.0,0.0,0.0,0.0,0.0,0.0,0.0,0.0,0.0,0.0,0.0,0.0,0.0,0.0,0.0,0.0,0.0,0.0,0.0,0.0,0.0,0.0,0.0,1.6389188766479492,-0.06972338352406303,0.052151150354550715,0.018143070456638974,0.004789017606526613,0.0008004294941201806,0.0
78,5,1.6220408269873587e-06,-2.3980710466275923e-05,-9.816376405069605e-06,0.00016397230501752347,0.002060172613710165,0.0011634514667093754,0.0,0.0,0.0,0.0,0.0,0.0,0.0,0.0,0.0,-0.0025737115647643805,0.00015717634232714772,-0.0,0.0,0.0,0.0,0.0,0.0,0.0,0.0,0.0,0.0,0.0,0.0,0.0,0.0,0.0,0.0,0.0,0.0,0.0,0.0,0.0,0.0,0.0,1.6471143960952759,-0.06951537335668227,0.05228019171346909,0.018086738607028693,-0.0006238230271264911,-0.007857625372707844,0.0
83,5,3.0010260161361657e-06,-7.541925242549041e-06,5.322900960891275e-06,0.00023106714070308954,-0.0011485852301120758,-0.0013513327576220036,0.0,0.0,0.0,0.0,0.0,0.0,0.0,0.0,0.0,-0.0025737115647643805,0.00015717634232714772,-0.0,0.0,0.0,0.0,0.0,0.0,0.0,0.0,0.0,0.0,0.0,0.0,0.0,0.0,0.0,0.0,0.0,0.0,0.0,0.0,0.0,0.0,0.0,1.6471143960952759,-0.06992112562040172,0.052247139874554434,0.017953365457980323,-0.0006238230271264911,-0.007857625372707844,0.0
88,5,4.832337708648993e-06,-1.3091962500766385e-05,-1.9450748368399218e-05,0.00031218427466228604,0.00020657033019233495,0.0024323049001395702,0.0,0.0,0.0,0.0,0.0,0.0,0.0,0.0,0.0,-0.0025737115647643805,0.00015717634232714772,-0.0,0.0,0.0,0.0,0.0,0.0,0.0,0.0,0.0,0.0,0.0,0.0,0.0,0.0,0.0,0.0,0.0,0.0,0.0,0.0,0.0,0.0,0.0,1.6471143960952759,-0.06981781876534462,0.05198396738041003,0.017787958974317057,-0.0006238230271264911,-0.007857625372707844,0.0
93,5,1.735673868097365e-05,3.2314924283127766e-06,6.603657766390825e-06,0.0016278019174933434,-0.0018761864630505443,-0.002153606852516532,0.0,0.0,0.0,0.0,0.0,0.0,0.0,0.0,0.0,-0.00028031368856318295,0.0003048829676117748,-0.0,0.0,0.0,0.0,0.0,0.0,0.0,0.0,0.0,0.0,0.0,0.0,0.0,0.0,0.0,0.0,0.0,0.0,0.0,0.0,0.0,0.0,0.0,1.6297268867492676,-0.07017031202837362,0.05279304328545776,0.017970671800001503,-0.0011972914217039943,-0.0008467742591165006,0.0
98,5,2.020167994487565e-05,-2.8435902095225174e-06,8.109662303468212e-06,0.0009925136109814048,-2.146464612451382e-05,-0.0010421632323414087,0.0,0.0,0.0,0.0,0.0,0.0,0.0,0.0,0.0,-0.00028031368856318295,0.0003048829676117748,-0.0,0.0,0.0,0.0,0.0,0.0,0.0,0.0,0.0,0.0,0.0,0.0,0.0,0.0,0.0,0.0,0.0,0.0,0.0,0.0,0.0,0.0,0.0,1.6297268867492676,-0.06997706610462504,0.05314127743369441,0.018091096650094694,-0.0011972914217039943,-0.0008467742591165006,0.0
104,5,2.2579484721063636e-05,9.112089173868299e-06,1.4105148693488445e-05,0.0006823420990258455,-0.001443267334252596,-0.001136323669925332,0.0,0.0,0.0,0.0,0.0,0.0,0.0,0.0,0.0,2.1338299120543525e-05,0.000972251407802105,-0.0,0.0,0.0,0.0,0.0,0.0,0.0,0.0,0.0,0.0,0.0,0.0,0.0,0.0,0.0,0.0,0.0,0.0,0.0,0.0,0.0,0.0,0.0,1.636149525642395,-0.07088633862251038,0.052851005888936015,0.018142160281601812,-0.0038331286050379276,6.471297092502937e-05,0.0
109,5,2.5092760552070104e-05,-3.0529492960340576e-06,-1.272377176064765e-05,0.0005745298112742603,0.0008824976393952966,0.0027649409603327513,0.0,0.0,0.0,0.0,0.0,0.0,0.0,0.0,0.0,2.1338299120543525e-05,0.000972251407802105,-0.0,0.0,0.0,0.0,0.0,0.0,0.0,0.0,0.0,0.0,0.0,0.0,0.0,0.0,0.0,0.0,0.0,0.0,0.0,0.0,0.0,0.0,0.0,1.636149525642395,-0.0699352858310677,0.052697462591350504,0.017955710549147064,-0.0038331286050379276,6.471297092502937e-05,0.0
114,5,1.3710547136724927e-05,1.1741162779799197e-06,1.0979866829075036e-06,-0.0011360535863786936,-0.00015424881712533534,-0.000552634650375694,0.0,0.0,0.0,0.0,0.0,0.0,0.0,0.0,0.0,-0.0010964341927319765,0.0005813263123854995,-0.0,0.0,0.0,0.0,0.0,0.0,0.0,0.0,0.0,0.0,0.0,0.0,0.0,0.0,0.0,0.0,0.0,0.0,0.0,0.0,0.0,0.0,0.0,1.6367089748382568,-0.07059821556761647,0.05332268612541044,0.017995437472175576,-0.00229267799295485,-0.003326307749375701,0.0
119,5,1.2954260455444455e-05,-8.058503226493485e-06,-3.023446879524272e-06,-0.0005451758624985814,0.0010462148347869515,0.0002735181769821793,0.0,0.0,0.0,0.0,0.0,0.0,0.0,0.0,0.0,-0.0010964341927319765,0.0005813263123854995,-0.0,0.0,0.0,0.0,0.0,0.0,0.0,0.0,0.0,0.0,0.0,0.0,0.0,0.0,0.0,0.0,0.0,0.0,0.0,0.0,0.0,0.0,0.0,1.6367089748382568,-0.07081455581861515,0.05313538126708226,0.017691205308743605,-0.00229267799295485,-0.003326307749375701,0.0
124,5,1.4054071471036877e-05,-8.049070856941398e-06,1.5957298273860943e-06,-8.609295036876574e-05,0.00041735402191989124,-0.00044489395804703236,0.0,0.0,0.0,0.0,0.0,0.0,0.0,0.0,0.0,-0.0013070409186184406,-0.0004999289521947503,-0.0,0.0,0.0,0.0,0.0,0.0,0.0,0.0,0.0,0.0,0.0,0.0,0.0,0.0,0.0,0.0,0.0,0.0,0.0,0.0,0.0,0.0,0.0,1.6377699375152588,-0.06999889577481783,0.052530118697258835,0.01794263444038911,0.0019729346968233585,-0.00396780576556921,0.0
129,5,6.2179260567063466e-06,1.676800593486405e-06,8.448699190921616e-06,-0.0009747746516950428,-0.001000163028948009,-0.0010003139032050967,0.0,0.0,0.0,0.0,0.0,0.0,0.0,0.0,0.0,-0.0013070409186184406,-0.0004999289521947503,-0.0,0.0,0.0,0.0,0.0,0.0,0.0,0.0,0.0,0.0,0.0,0.0,0.0,0.0,0.0,0.0,0.0,0.0,0.0,0.0,0.0,0.0,0.0,1.6377699375152588,-0.07043514822620311,0.052434494025339416,0.017889978753676365,0.0019729346968233585,-0.00396780576556921,0.0
134,5,8.070356670941692e-06,4.067642578320374e-07,2.9975431971251965e-05,-0.0001676182000664994,-0.0002476608206052333,-0.002983333542943001,0.0,0.0,0.0,0.0,0.0,0.0,0.0,0.0,0.0,0.0012368620373308659,-0.0009163321810774505,-0.0,0.0,0.0,0.0,0.0,0.0,0.0,0.0,0.0,0.0,0.0,0.0,0.0,0.0,0.0,0.0,0.0,0.0,0.0,0.0,0.0,0.0,0.0,1.639906406402588,-0.0700852590116805,0.05283285657451668,0.017918828194703487,0.003620958188548684,0.003759660990908742,0.0
139,5,3.6800540783588076e-06,-6.329506959446007e-06,7.867814019846264e-06,-0.0005938836256973445,0.000709288171492517,0.001459580729715526,0.0,0.0,0.0,0.0,0.0,0.0,0.0,0.0,0.0,0.0012368620373308659,-0.0009163321810774505,-0.0,0.0,0.0,0.0,0.0,0.0,0.0,0.0,0.0,0.0,0.0,0.0,0.0,0.0,0.0,0.0,0.0,0.0,0.0,0.0,0.0,0.0,0.0,1.639906406402588,-0.07034300756514511,0.0525233605246687,0.0180129206823338,0.003620958188548684,0.003759660990908742,0.0
145,5,1.6563264580327086e-05,2.8783797461073846e-06,3.639116584963631e-06,0.001308431732468307,-0.0008212311076931655,0.0010912759462371469,0.0,0.0,0.0,0.0,0.0,0.0,0.0,0.0,0.0,-0.0008891061297617853,-0.0005600075237452984,-0.0,0.0,0.0,0.0,0.0,0.0,0.0,0.0,0.0,0.0,0.0,0.0,0.0,0.0,0.0,0.0,0.0,0.0,0.0,0.0,0.0,0.0,0.0,1.6351988315582275,-0.07053164900943489,0.052643108922919755,0.01798360714150163,0.0022065620869398117,-0.002694837749004364,0.0
150,5,1.6381600289605558e-05,2.5032079520315165e-06,-1.158697523351293e-05,0.0005015730857849121,-0.0002834718325175345,0.0022636414505541325,0.0,0.0,0.0,0.0,0.0,0.0,0.0,0.0,0.0,-0.0008891061297617853,-0.0005600075237452984,-0.0,0.0,0.0,0.0,0.0,0.0,0.0,0.0,0.0,0.0,0.0,0.0,0.0,0.0,0.0,0.0,0.0,0.0,0.0,0.0,0.0,0.0,0.0,1.6351988315582275,-0.06993164706492627,0.052292864067005444,0.018074458349568147,0.0022065620869398117,-0.002694837749004364,0.0
155,5,2.1674550225725397e-05,2.279256705151056e-06,-1.4235266462492291e-05,0.0008357831393368542,-8.651457756059244e-05,0.0012232514563947916,0.0,0.0,0.0,0.0,0.0,0.0,0.0,0.0,0.0,-0.0008891061297617853,-0.0005600075237452984,-0.0,0.0,0.0,0.0,0.0,0.0,0.0,0.0,0.0,0.0,0.0,0.0,0.0,0.0,0.0,0.0,0.0,0.0,0.0,0.0,0.0,0.0,0.0,1.6351988315582275,-0.07023097296920244,0.05248015318576344,0.018029568090293914,-0.00325371534563601,0.0003367794561199844,0.0
160,5,2.3478514776797965e-05,-4.181669623903872e-07,-1.2358287676761393e-05,0.0005507891764864326,0.00028908500098623335,0.00026406318647786975,0.0,0.0,0.0,0.0,0.0,0.0,0.0,0.0,0.0,0.00011115248344140127,0.0008260566391982138,-0.0,0.0,0.0,0.0,0.0,0.0,0.0,0.0,0.0,0.0,0.0,0.0,0.0,0.0,0.0,0.0,0.0,0.0,0.0,0.0,0.0,0.0,0.0,1.6346240043640137,-0.07010082077110037,0.05297608224965103,0.018145226464728853,-0.00325371534563601,0.0003367794561199844,0.0
165,5,2.276354825880844e-05,5.026906364946626e-06,4.7995872591855004e-06,0.00013451962149702013,-0.0005377748166210949,-0.0019533196464180946,0.0,0.0,0.0,0.0,0.0,0.0,0.0,0.0,0.0,0.00011115248344140127,0.0008260566391982138,-0.0,0.0,0.0,0.0,0.0,0.0,0.0,0.0,0.0,0.0,0.0,0.0,0.0,0.0,0.0,0.0,0.0,0.0,0.0,0.0,0.0,0.0,0.0,1.6346240043640137,-0.07025461745793314,0.05310004496482972,0.01768343342781048,-0.00325371534563601,0.0003367794561199844,0.0
170,5,1.6166086425073445e-05,-3.2016851037042215e-06,1.4497945812763646e-06,-0.0007378875743597746,0.0007723210728727281,-0.00037935274303890765,0.0,0.0,0.0,0.0,0.0,0.0,0.0,0.0,0.0,0.0006759272655472159,0.0001602579141035676,-0.0,0.0,0.0,0.0,0.0,0.0,0.0,0.0,0.0,0.0,0.0,0.0,0.0,0.0,0.0,0.0,0.0,0.0,0.0,0.0,0.0,0.0,0.0,1.6315526962280273,-0.07043087460361977,0.052844737881637176,0.017970457309113327,-0.0006300461827777326,0.002044135006144643,0.0
175,5,1.978238287847489e-05,-7.877016287238803e-06,1.2274050277483184e-05,0.00013880048936698586,0.0008699680911377072,-0.001450651790946722,0.0,0.0,0.0,0.0,0.0,0.0,0.0,0.0,0.0,0.0006759272655472159,0.0001602579141035676,-0.0,0.0,0.0,0.0,0.0,0.0,0.0,0.0,0.0,0.0,0.0,0.0,0.0,0.0,0.0,0.0,0.0,0.0,0.0,0.0,0.0,0.0,0.0,1.6315526962280273,-0.07050140336755222,0.05266338299440424,0.01788385726757798,-0.0006300461827777326,0.002044135006144643,0.0
180,5,1.7188907804666087e-05,-3.733859330168343e-06,-7.374743290711194e-06,-0.0002556967083364725,-0.00014919154637027532,0.0017775945598259568,0.0,0.0,0.0,0.0,0.0,0.0,0.0,0.0,0.0,-0.0010909263510257006,0.000159862291184254,-0.0,0.0,0.0,0.0,0.0,0.0,0.0,0.0,0.0,0.0,0.0,0.0,0.0,0.0,0.0,0.0,0.0,0.0,0.0,0.0,0.0,0.0,0.0,1.6348800659179688,-0.0700625427627719,0.052325371973295245,0.018145961130923368,-0.0006297723157331347,-0.0033058999106287956,0.0
185,5,2.2509688278660178e-05,-1.017023691929353e-06,-1.0979364560625982e-05,0.0005362150259315968,-0.00038569688331335783,0.0011435924097895622,0.0,0.0,0.0,0.0,0.0,0.0,0.0,0.0,0.0,-0.0010909263510257006,0.000159862291184254,-0.0,0.0,0.0,0.0,0.0,0.0,0.0,0.0,0.0,0.0,0.0,0.0,0.0,0.0,0.0,0.0,0.0,0.0,0.0,0.0,0.0,0.0,0.0,1.6348800659179688,-0.06989098195484086,0.052387214242744236,0.01827014646402265,-0.0006297723157331347,-0.0033058999106287956,0.0
190,5,2.1357212972361594e-05,3.461298774709576e-06,-1.0857099368877243e-05,7.618895324412733e-05,-0.0006916774436831474,0.00044276515836827457,0.0,0.0,0.0,0.0,0.0,0.0,0.0,0.0,0.0,0.00047600275138393044,0.0005427018622867763,-0.0,0.0,0.0,0.0,0.0,0.0,0.0,0.0,0.0,0.0,0.0,0.0,0.0,0.0,0.0,0.0,0.0,0.0,0.0,0.0,0.0,0.0,0.0,1.632737636566162,-0.07018236437785867,0.05237929799108387,0.01821325812578442,-0.0021351557224988937,0.0014405699912458658,0.0
195,5,1.3329367902770173e-05,-6.1676478253502864e-06,-3.004821337526664e-05,-0.0009328659507445991,0.0008788026170805097,0.002480039605870843,0.0,0.0,0.0,0.0,0.0,0.0,0.0,0.0,0.0,0.00047600275138393044,0.0005427018622867763,-0.0,0.0,0.0,0.0,0.0,0.0,0.0,0.0,0.0,0.0,0.0,0.0,0.0,0.0,0.0,0.0,0.0,0.0,0.0,0.0,0.0,0.0,0.0,1.632737636566162,-0.0696807218394243,0.05184133716739841,0.01807405986488785,-0.0021351557224988937,0.0014405699912458658,0.0
200,5,1.2654257261601742e-05,-8.465833161608316e-06,-1.2682325177593157e-05,-0.00045415962813422084,0.0006273033213801682,-0.001091890619136393,0.0,0.0,0.0,0.0,0.0,0.0,0.0,0.0,0.0,-0.0010962001979351044,-0.0008672113763168454,-0.0,0.0,0.0,0.0,0.0,0.0,0.0,0.0,0.0,0.0,0.0,0.0,0.0,0.0,0.0,0.0,0.0,0.0,0.0,0.0,0.0,0.0,0.0,1.6387046575546265,-0.0697046218262019,0.05227180193496242,0.018154901156054847,0.003424342954531312,-0.0033296530600637197,0.0
205,5,1.59746668941807e-05,-8.992857942757837e-07,1.1972216498179478e-06,0.00021678539633285254,-0.0006570643745362759,-0.002102301921695471,0.0,0.0,0.0,0.0,0.0,0.0,0.0,0.0,0.0,-0.0010962001979351044,-0.0008672113763168454,-0.0,0.0,0.0,0.0,0.0,0.0,0.0,0.0,0.0,0.0,0.0,0.0,0.0,0.0,0.0,0.0,0.0,0.0,0.0,0.0,0.0,0.0,0.0,1.6387046575546265,-0.07006803410201647,0.05268799424720162,0.01794111976784322,0.003424342954531312,-0.0033296530600637197,0.0
210,5,-6.377013050951064e-07,-7.038771855150117e-06,-2.9280596208991483e-05,-0.0019067700486630201,0.00047391257248818874,0.0028164172545075417,0.0,0.0,0.0,0.0,0.0,0.0,0.0,0.0,0.0,0.0008124017622321844,0.00022911024279892445,-0.0,0.0,0.0,0.0,0.0,0.0,0.0,0.0,0.0,0.0,0.0,0.0,0.0,0.0,0.0,0.0,0.0,0.0,0.0,0.0,0.0,0.0,0.0,1.63285493850708,-0.06993985273644336,0.05212585318453459,0.017796858810272688,-0.0009014545939862728,0.002458821050822735,0.0
215,5,1.858695577539038e-05,6.891923931107158e-06,3.7764632452308433e-06,0.0015442508738487959,-0.001482118503190577,-0.0028402800671756268,0.0,0.0,0.0,0.0,0.0,0.0,0.0,0.0,0.0,0.0008124017622321844,0.00022911024279892445,-0.0,0.0,0.0,0.0,0.0,0.0,0.0,0.0,0.0,0.0,0.0,0.0,0.0,0.0,0.0,0.0,0.0,0.0,0.0,0.0,0.0,0.0,0.0,1.63285493850708,-0.07066355638538356,0.053065370267727924,0.017873686982807693,-0.0009014545939862728,0.002458821050822735,0.0
220,5,1.8998376617673784e-05,-1.614562097529415e-05,-5.455717655422632e-06,0.0006670707371085882,0.002171657979488373,-2.8250380637473427e-05,0.0,0.0,0.0,0.0,0.0,0.0,0.0,0.0,0.0,0.0018320801900699735,0.0014844054821878672,-0.0,0.0,0.0,0.0,0.0,0.0,0.0,0.0,0.0,0.0,0.0,0.0,0.0,0.0,0.0,0.0,0.0,0.0,0.0,0.0,0.0,0.0,0.0,1.6477750539779663,-0.07016542034083773,0.052917079471980134,0.017890019594679295,-0.00589388282969594,0.005595649592578411,0.0
225,5,1.6456691810162738e-05,-1.1660195013973862e-05,-3.703162519741454e-06,-3.817384276771918e-05,0.00033041209098882973,-0.00022160673688631505,0.0,0.0,0.0,0.0,0.0,0.0,0.0,0.0,0.0,0.0018320801900699735,0.0014844054821878672,-0.0,0.0,0.0,0.0,0.0,0.0,0.0,0.0,0.0,0.0,0.0,0.0,0.0,0.0,0.0,0.0,0.0,0.0,0.0,0.0,0.0,0.0,0.0,1.6477750539779663,-0.06980475937005187,0.05311317653744017,0.017977486765503887,-0.00589388282969594,0.005595649592578411,0.0
230,5,1.989956399484072e-05,-1.939916910487227e-05,-1.3163505172997247e-05,0.0003978752065449953,0.0010608418378978968,0.0010465984232723713,0.0,0.0,0.0,0.0,0.0,0.0,0.0,0.0,0.0,-0.0004315960395615548,-1.321163017564686e-05,-0.0,0.0,0.0,0.0,0.0,0.0,0.0,0.0,0.0,0.0,0.0,0.0,0.0,0.0,0.0,0.0,0.0,0.0,0.0,0.0,0.0,0.0,0.0,1.6292868852615356,-0.0697825846327863,0.05292406180664724,0.017904059802399747,5.186875569052063e-05,-0.0013034174917265773,0.0
235,5,2.186900019296445e-05,-9.039043106895406e-06,8.617735147709027e-06,0.00039548228960484266,-0.0008188785286620259,-0.0021951093804091215,0.0,0.0,0.0,0.0,0.0,0.0,0.0,0.0,0.0,-0.0004315960395615548,-1.321163017564686e-05,-0.0,0.0,0.0,0.0,0.0,0.0,0.0,0.0,0.0,0.0,0.0,0.0,0.0,0.0,0.0,0.0,0.0,0.0,0.0,0.0,0.0,0.0,0.0,1.6292868852615356,-0.06996365614732444,0.05277183032223634,0.017939345675843456,5.186875569052063e-05,-0.0013034174917265773,0.0
240,5,1.4982554603193421e-05,-1.4728938367625233e-05,-6.8220324465073645e-06,-0.0006681805243715644,0.00035523599945008755,0.0009747283183969557,0.0,0.0,0.0,0.0,0.0,0.0,0.0,0.0,0.0,0.0009967564838007092,0.00040717169758863747,-0.0,0.0,0.0,0.0,0.0,0.0,0.0,0.0,0.0,0.0,0.0,0.0,0.0,0.0,0.0,0.0,0.0,0.0,0.0,0.0,0.0,0.0,0.0,1.6350290775299072,-0.07009814755965707,0.0526924866742772,0.018109116103902253,-0.0016041860217228532,0.00302080693654716,0.0
245,5,1.4179592653817963e-05,-7.971085324243177e-06,-1.2333106496953405e-05,-0.0003636276233009994,-0.0006688478752039373,0.0010512202279642224,0.0,0.0,0.0,0.0,0.0,0.0,0.0,0.0,0.0,0.0009967564838007092,0.00040717169758863747,-0.0,0.0,0.0,0.0,0.0,0.0,0.0,0.0,0.0,0.0,0.0,0.0,0.0,0.0,0.0,0.0,0.0,0.0,0.0,0.0,0.0,0.0,0.0,1.6350290775299072,-0.07032632446250747,0.0520612075882224,0.017944453978578797,-0.0016041860217228532,0.00302080693654716,0.0
250,5,1.7870912415673956e-05,1.940613401529845e-06,1.4111996051724418e-06,0.000297507387585938,-0.0014569429913535714,-0.0012288286816328764,0.0,0.0,0.0,0.0,0.0,0.0,0.0,0.0,0.0,0.0008139090496115386,-0.00032643231679685414,-0.0,0.0,0.0,0.0,0.0,0.0,0.0,0.0,0.0,0.0,0.0,0.0,0.0,0.0,0.0,0.0,0.0,0.0,0.0,0.0,0.0,0.0,0.0,1.6332889795303345,-0.07027673700422382,0.05232895414096597,0.018084367798254605,0.0012847182806581259,0.0024640378542244434,0.0
256,5,1.4007920071890112e-05,2.4268756533274427e-06,-1.0508980267331935e-05,-0.00034455611603334546,-0.0006411286885850132,0.0009388900944031775,0.0,0.0,0.0,0.0,0.0,0.0,0.0,0.0,0.0,0.0008139090496115386,-0.00032643231679685414,-0.0,0.0,0.0,0.0,0.0,0.0,0.0,0.0,0.0,0.0,0.0,0.0,0.0,0.0,0.0,0.0,0.0,0.0,0.0,0.0,0.0,0.0,0.0,1.6332889795303345,-0.07016202177803833,0.05264669690671176,0.017970024257201046,0.0012847182806581259,0.0024640378542244434,0.0
261,5,1.5242075278365519e-05,-1.8341927443543682e-06,-1.9330809664097615e-05,1.0276181455992628e-05,0.0002548767370171845,0.0014341756468638778,0.0,0.0,0.0,0.0,0.0,0.0,0.0,0.0,0.0,0.0007985648699104786,-0.0003085256030317396,-0.0,0.0,0.0,0.0,0.0,0.0,0.0,0.0,0.0,0.0,0.0,0.0,0.0,0.0,0.0,0.0,0.0,0.0,0.0,0.0,0.0,0.0,0.0,1.6330887079238892,-0.06984443242197692,0.052489688097780755,0.017905243042684066,0.0012140952749177814,0.0024172882549464703,0.0
266,5,6.409567959053675e-06,-8.058668754529208e-06,-1.2333942322584335e-05,-0.0010557904606685042,0.0008488877792842686,-0.0002659538295120001,0.0,0.0,0.0,0.0,0.0,0.0,0.0,0.0,0.0,0.0007985648699104786,-0.0003085256030317396,-0.0,0.0,0.0,0.0,0.0,0.0,0.0,0.0,0.0,0.0,0.0,0.0,0.0,0.0,0.0,0.0,0.0,0.0,0.0,0.0,0.0,0.0,0.0,1.6330887079238892,-0.06974656244537107,0.05256433743632918,0.01807373208778659,0.0012140952749177814,0.0024172882549464703,0.0
271,5,8.646637070341967e-06,-4.496946985454997e-06,-1.5300483937608078e-05,-0.00015386787708848715,-8.785146928858012e-05,0.0002496035012882203,0.0,0.0,0.0,0.0,0.0,0.0,0.0,0.0,0.0,-0.0010621905094012618,-0.0009929947555065155,-0.0,0.0,0.0,0.0,0.0,0.0,0.0,0.0,0.0,0.0,0.0,0.0,0.0,0.0,0.0,0.0,0.0,0.0,0.0,0.0,0.0,0.0,0.0,1.6395283937454224,-0.07057659397104807,0.052321550692740394,0.018012082875823534,0.00392299285158515,-0.0032279721926897764,0.0
276,5,1.2196746865811292e-05,-3.636764176917495e-06,9.041463272296824e-06,0.0003644659591373056,-0.0001383625203743577,-0.002821192378178239,0.0,0.0,0.0,0.0,0.0,0.0,0.0,0.0,0.0,-0.0010621905094012618,-0.0009929947555065155,-0.0,0.0,0.0,0.0,0.0,0.0,0.0,0.0,0.0,0.0,0.0,0.0,0.0,0.0,0.0,0.0,0.0,0.0,0.0,0.0,0.0,0.0,0.0,1.6395283937454224,-0.07015512852707323,0.052913663446514526,0.018024919246116544,0.00392299285158515,-0.0032279721926897764,0.0
281,5,5.374605734687066e-06,1.1161412203364307e-06,2.2073301806813106e-05,-0.0006728704902343452,-0.0006256936467252672,-0.0026922975666821003,0.0,0.0,0.0,0.0,0.0,0.0,0.0,0.0,0.0,0.00016501554637216032,0.0003653415769804269,-0.0,0.0,0.0,0.0,0.0,0.0,0.0,0.0,0.0,0.0,0.0,0.0,0.0,0.0,0.0,0.0,0.0,0.0,0.0,0.0,0.0,0.0,0.0,1.6298693418502808,-0.07105906534315477,0.05294005579497981,0.018104246475781835,-0.0014348410768434405,0.0004985241685062647,0.0
286,5,1.0752928574220277e-05,-1.742928179737646e-05,-9.349985816697881e-07,0.00037625047843903303,0.0019751733634620905,0.0016840769676491618,0.0,0.0,0.0,0.0,0.0,0.0,0.0,0.0,0.0,0.00016501554637216032,0.0003653415769804269,-0.0,0.0,0.0,0.0,0.0,0.0,0.0,0.0,0.0,0.0,0.0,0.0,0.0,0.0,0.0,0.0,0.0,0.0,0.0,0.0,0.0,0.0,0.0,1.6298693418502808,-0.0706523847381091,0.05256582470630189,0.017950597995558832,-0.0014348410768434405,0.0004985241685062647,0.0
291,5,1.2193499060231261e-05,-1.0267247489537112e-05,-9.060499905899633e-06,0.0003233686729799956,-6.937480065971613e-05,0.0016486909007653594,0.0,0.0,0.0,0.0,0.0,0.0,0.0,0.0,0.0,-0.002458561211824417,0.00037080468609929085,-0.0,0.0,0.0,0.0,0.0,0.0,0.0,0.0,0.0,0.0,0.0,0.0,0.0,0.0,0.0,0.0,0.0,0.0,0.0,0.0,0.0,0.0,0.0,1.646475076675415,-0.07055200722303506,0.052603602945360914,0.017977813605164986,-0.0014711297117173672,-0.007503155153244734,0.0
296,5,1.3244096408016048e-05,5.5512373364763334e-06,-3.281839155988564e-07,0.00025541914510540664,-0.0019259680993855,-0.0003884015022777021,0.0,0.0,0.0,0.0,0.0,0.0,0.0,0.0,0.0,-0.002458561211824417,0.00037080468609929085,-0.0,0.0,0.0,0.0,0.0,0.0,0.0,0.0,0.0,0.0,0.0,0.0,0.0,0.0,0.0,0.0,0.0,0.0,0.0,0.0,0.0,0.0,0.0,1.646475076675415,-0.07037418734930091,0.05292595531818268,0.017904022587540386,-0.0014711297117173672,-0.007503155153244734,0.0
302,5,1.0557734640315175e-05,-9.418877198186237e-06,-4.0358576370636e-05,-0.00022019575408194214,0.0010260265553370118,0.004648286383599043,0.0,0.0,0.0,0.0,0.0,0.0,0.0,0.0,0.0,0.0023776928428560495,0.0002601965970825404,-0.0,0.0,0.0,0.0,0.0,0.0,0.0,0.0,0.0,0.0,0.0,0.0,0.0,0.0,0.0,0.0,0.0,0.0,0.0,0.0,0.0,0.0,0.0,1.6456080675125122,-0.06944374190507847,0.052032260103265705,0.01801817576665445,-0.0010317600099369884,0.0072525376453995705,0.0
307,5,1.298142615269171e-05,5.844845873070881e-06,-1.1095526133431122e-05,0.000202764684217982,-0.0014212362002581358,-0.0016522513469681144,0.0,0.0,0.0,0.0,0.0,0.0,0.0,0.0,0.0,0.0023776928428560495,0.0002601965970825404,-0.0,0.0,0.0,0.0,0.0,0.0,0.0,0.0,0.0,0.0,0.0,0.0,0.0,0.0,0.0,0.0,0.0,0.0,0.0,0.0,0.0,0.0,0.0,1.6456080675125122,-0.06997050571343422,0.05228454392590791,0.01803590658697369,-0.0010317600099369884,0.0072525376453995705,0.0
312,5,5.561435955314664e-06,4.961664217262296e-06,-1.1499777428980451e-05,-0.0008092928910627961,-0.000462512718513608,-0.0006123903440311551,0.0,0.0,0.0,0.0,0.0,0.0,0.0,0.0,0.0,0.0017632156377658248,0.0002107065956806764,-0.0,0.0,0.0,0.0,0.0,0.0,0.0,0.0,0.0,0.0,0.0,0.0,0.0,0.0,0.0,0.0,0.0,0.0,0.0,0.0,0.0,0.0,0.0,1.6404647827148438,-0.06955993105911365,0.052026339485900484,0.018065755261453036,-0.0008329065167345107,0.005361428018659353,0.0
317,5,9.093794687942136e-06,3.278993972344324e-06,-1.1181117542946595e-06,0.0008406874840147793,0.001109445933252573,-0.00043649220606312156,0.0,0.0,0.0,0.0,0.0,0.0,0.0,0.0,0.0,0.0017632156377658248,0.0002107065956806764,-0.0,0.0,0.0,0.0,0.0,0.0,0.0,0.0,0.0,0.0,0.0,0.0,0.0,0.0,0.0,0.0,0.0,0.0,0.0,0.0,0.0,0.0,0.0,1.6404647827148438,-0.07017018858514378,0.05248755386087134,0.01799514441439676,-0.0008329065167345107,0.005361428018659353,0.0
322,5,9.093794687942136e-06,3.278993972344324e-06,-1.1181117542946595e-06,0.0008406874840147793,0.001109445933252573,-0.00043649220606312156,0.0,0.0,0.0,0.0,0.0,0.0,0.0,0.0,0.0,-0.001362846465781331,0.0008107332978397608,-0.0,0.0,0.0,0.0,0.0,0.0,0.0,0.0,0.0,0.0,0.0,0.0,0.0,0.0,0.0,0.0,0.0,0.0,0.0,0.0,0.0,0.0,0.0,1.6399531364440918,-0.07017018858514378,0.05248755386087134,0.01799514441439676,-0.0032037668861448765,-0.004142730496823788,0.0
327,5,1.5404910300276242e-05,-9.387383215653244e-06,7.415255367959617e-06,0.000765350938308984,0.001407986506819725,-0.0005765684181824327,0.0,0.0,0.0,0.0,0.0,0.0,0.0,0.0,0.0,-0.001362846465781331,0.0008107332978397608,-0.0,0.0,0.0,0.0,0.0,0.0,0.0,0.0,0.0,0.0,0.0,0.0,0.0,0.0,0.0,0.0,0.0,0.0,0.0,0.0,0.0,0.0,0.0,1.6399531364440918,-0.07027508999320206,0.05246275718810789,0.01814829436686512,-0.0032037668861448765,-0.004142730496823788,0.0
332,5,2.2005349819664843e-05,-4.452761004358763e-06,3.01294744531333e-06,0.0010981929954141378,-2.8960008421563543e-05,0.00029764961800538003,0.0,0.0,0.0,0.0,0.0,0.0,0.0,0.0,0.0,-0.0017515834188088775,0.0007469794363714755,-0.0,0.0,0.0,0.0,0.0,0.0,0.0,0.0,0.0,0.0,0.0,0.0,0.0,0.0,0.0,0.0,0.0,0.0,0.0,0.0,0.0,0.0,0.0,1.642281174659729,-0.07084865255329204,0.052853833987711825,0.018021102884545934,-0.0029560199473053217,-0.005331955384463072,0.0
337,5,1.3192032383813057e-05,-1.5127166989259422e-05,-7.508829639846226e-06,-0.0006183208315633237,0.0012693447060883045,0.0013816730352118611,0.0,0.0,0.0,0.0,0.0,0.0,0.0,0.0,0.0,-0.0017515834188088775,0.0007469794363714755,-0.0,0.0,0.0,0.0,0.0,0.0,0.0,0.0,0.0,0.0,0.0,0.0,0.0,0.0,0.0,0.0,0.0,0.0,0.0,0.0,0.0,0.0,0.0,1.642281174659729,-0.07015056858672082,0.05280767098889772,0.01798135914566912,-0.0029560199473053217,-0.005331955384463072,0.0
342,5,1.42077751661418e-05,-1.1918979907932226e-05,-8.5278452388593e-07,-0.0001254392263945192,0.0001227554166689515,-0.0002460561809130013,0.0,0.0,0.0,0.0,0.0,0.0,0.0,0.0,0.0,-0.0015931695234030485,-0.0005679841851815581,-0.0,0.0,0.0,0.0,0.0,0.0,0.0,0.0,0.0,0.0,0.0,0.0,0.0,0.0,0.0,0.0,0.0,0.0,0.0,0.0,0.0,0.0,0.0,1.640228509902954,-0.07027914716179638,0.05268013650975422,0.01792898869647022,0.0022448739036917686,-0.004843670409172773,0.0
347,5,1.1968525541306008e-05,-4.585664612477558e-07,1.2905126823170576e-05,-0.0003188856062479317,-0.0013261473504826427,-0.0017493718769401312,0.0,0.0,0.0,0.0,0.0,0.0,0.0,0.0,0.0,-0.0015931695234030485,-0.0005679841851815581,-0.0,0.0,0.0,0.0,0.0,0.0,0.0,0.0,0.0,0.0,0.0,0.0,0.0,0.0,0.0,0.0,0.0,0.0,0.0,0.0,0.0,0.0,0.0,1.640228509902954,-0.07027006978365598,0.052944706282818554,0.01790756694822267,0.0022448739036917686,-0.004843670409172773,0.0
352,5,5.1886713663407136e-06,6.185016445670044e-06,-2.977599933728925e-06,-0.0009411367354914546,-0.001327688922174275,0.0012061785673722625,0.0,0.0,0.0,0.0,0.0,0.0,0.0,0.0,0.0,0.0016354081453755498,-0.0002856856444850564,-0.0,0.0,0.0,0.0,0.0,0.0,0.0,0.0,0.0,0.0,0.0,0.0,0.0,0.0,0.0,0.0,0.0,0.0,0.0,0.0,0.0,0.0,0.0,1.6395732164382935,-0.07064651221462866,0.05267692136449009,0.01798698813450872,0.0011286792578175664,0.004970100242644548,0.0
357,5,1.5373112546512857e-05,-4.097299097338691e-06,-2.5552211809554137e-05,0.0008456782088615,0.0007028022664599121,0.003191424999386072,0.0,0.0,0.0,0.0,0.0,0.0,0.0,0.0,0.0,0.0016354081453755498,-0.0002856856444850564,-0.0,0.0,0.0,0.0,0.0,0.0,0.0,0.0,0.0,0.0,0.0,0.0,0.0,0.0,0.0,0.0,0.0,0.0,0.0,0.0,0.0,0.0,0.0,1.6395732164382935,-0.06993742984604205,0.05232665443539079,0.017858118661419706,0.0011286792578175664,0.004970100242644548,0.0
363,5,1.2661148502957076e-05,6.106583896325901e-06,-2.9510738386306912e-05,1.2835672350774985e-05,-0.0009433450177311897,0.001751593081280589,0.0,0.0,0.0,0.0,0.0,0.0,0.0,0.0,0.0,-0.0008760654018260539,0.0008256669389083982,-0.0,0.0,0.0,0.0,0.0,0.0,0.0,0.0,0.0,0.0,0.0,0.0,0.0,0.0,0.0,0.0,0.0,0.0,0.0,0.0,0.0,0.0,0.0,1.6371546983718872,-0.07035342779985158,0.05246379386616661,0.01803625623161139,-0.003257214091718197,-0.0026584879960864782,0.0
368,5,6.664199645456392e-06,8.197415013455611e-07,-2.8252385163796134e-05,-0.0007144996197894216,0.000257083069300279,0.0005496348603628576,0.0,0.0,0.0,0.0,0.0,0.0,0.0,0.0,0.0,-0.0008760654018260539,0.0008256669389083982,-0.0,0.0,0.0,0.0,0.0,0.0,0.0,0.0,0.0,0.0,0.0,0.0,0.0,0.0,0.0,0.0,0.0,0.0,0.0,0.0,0.0,0.0,0.0,1.6371546983718872,-0.07016535845463917,0.052480272616984736,0.017968055362102796,-0.003257214091718197,-0.0026584879960864782,0.0
373,5,1.0925322385446634e-05,-9.18998739507515e-06,-2.3599612177349627e-05,0.00022553482267539948,0.0013040007324889302,-0.0003384789451956749,0.0,0.0,0.0,0.0,0.0,0.0,0.0,0.0,0.0,-0.00031708410824649036,-0.0006710962625220418,-0.0,0.0,0.0,0.0,0.0,0.0,0.0,0.0,0.0,0.0,0.0,0.0,0.0,0.0,0.0,0.0,0.0,0.0,0.0,0.0,0.0,0.0,0.0,1.6333743333816528,-0.06966783538815619,0.052350185080545446,0.01789765558959515,0.002641328377649188,-0.0009599945042282343,0.0
378,5,1.813964445318561e-05,-1.3532999219023623e-05,-2.1674533854820766e-05,0.0009559325990267098,0.0010427616070955992,-0.00036640086909756064,0.0,0.0,0.0,0.0,0.0,0.0,0.0,0.0,0.0,-0.00031708410824649036,-0.0006710962625220418,-0.0,0.0,0.0,0.0,0.0,0.0,0.0,0.0,0.0,0.0,0.0,0.0,0.0,0.0,0.0,0.0,0.0,0.0,0.0,0.0,0.0,0.0,0.0,1.6333743333816528,-0.06983166834892701,0.05237851287319797,0.018151022595566488,0.002641328377649188,-0.0009599945042282343,0.0
383,5,2.0896664864267223e-05,-8.102865649561863e-06,4.9742670853447635e-06,0.0007132155005820096,-0.0002345112879993394,-0.003344416618347168,0.0,0.0,0.0,0.0,0.0,0.0,0.0,0.0,0.0,-0.0013106337282806635,0.000932463095523417,-0.0,0.0,0.0,0.0,0.0,0.0,0.0,0.0,0.0,0.0,0.0,0.0,0.0,0.0,0.0,0.0,0.0,0.0,0.0,0.0,0.0,0.0,0.0,1.6404718160629272,-0.07065313993108376,0.05283553913462978,0.017843443029879197,-0.003685970790684223,-0.003985276445746422,0.0
388,5,2.4737029889365658e-05,-1.4409525647351984e-05,-8.878695552994031e-06,0.0007461300701834261,0.0006629946292378008,0.00032458893838338554,0.0,0.0,0.0,0.0,0.0,0.0,0.0,0.0,0.0,-0.0013106337282806635,0.000932463095523417,-0.0,0.0,0.0,0.0,0.0,0.0,0.0,0.0,0.0,0.0,0.0,0.0,0.0,0.0,0.0,0.0,0.0,0.0,0.0,0.0,0.0,0.0,0.0,1.6404718160629272,-0.06947588317827515,0.053030686750027436,0.018114530466956425,-0.003685970790684223,-0.003985276445746422,0.0
393,5,1.4152108633425087e-05,-1.1133000725749298e-06,7.5965731411997695e-06,-0.0009717385983094573,-0.001330349245108664,-0.001847196719609201,0.0,0.0,0.0,0.0,0.0,0.0,0.0,0.0,0.0,-0.0008460222743451595,0.0007445136434398592,-0.0,0.0,0.0,0.0,0.0,0.0,0.0,0.0,0.0,0.0,0.0,0.0,0.0,0.0,0.0,0.0,0.0,0.0,0.0,0.0,0.0,0.0,0.0,1.636326789855957,-0.07038479564671832,0.05281616699496457,0.018055348129971862,-0.002935583470389247,-0.0025660216342657804,0.0
398,5,1.431669807061553e-05,-6.759447387594264e-06,1.1381847571101389e-06,-0.0003689447185024619,0.00014539800758939236,3.612793079810217e-05,0.0,0.0,0.0,0.0,0.0,0.0,0.0,0.0,0.0,-0.0008460222743451595,0.0007445136434398592,-0.0,0.0,0.0,0.0,0.0,0.0,0.0,0.0,0.0,0.0,0.0,0.0,0.0,0.0,0.0,0.0,0.0,0.0,0.0,0.0,0.0,0.0,0.0,1.636326789855957,-0.07051259637443806,0.05267877813803385,0.01812700981042736,-0.002935583470389247,-0.0025660216342657804,0.0
403,5,1.523061018815497e-05,-5.633580258290749e-06,-1.0609182936605066e-05,-3.790837217820808e-05,-7.694484520470724e-05,0.001424135291017592,0.0,0.0,0.0,0.0,0.0,0.0,0.0,0.0,0.0,-0.00019300129497423768,-0.00033187560620717704,-0.0,0.0,0.0,0.0,0.0,0.0,0.0,0.0,0.0,0.0,0.0,0.0,0.0,0.0,0.0,0.0,0.0,0.0,0.0,0.0,0.0,0.0,0.0,1.6296215057373047,-0.07038344456140662,0.052582201441905736,0.018046907060402836,0.0013032086426392198,-0.0005829824949614704,0.0
408,5,1.5291510862880386e-05,-5.050128038419643e-06,-4.116777199669741e-05,-7.85529482527636e-06,-0.00010079221829073504,0.004236685112118721,0.0,0.0,0.0,0.0,0.0,0.0,0.0,0.0,0.0,-0.00019300129497423768,-0.00033187560620717704,-0.0,0.0,0.0,0.0,0.0,0.0,0.0,0.0,0.0,0.0,0.0,0.0,0.0,0.0,0.0,0.0,0.0,0.0,0.0,0.0,0.0,0.0,0.0,1.6296215057373047,-0.07002818690165113,0.052118532792764224,0.018132926529812885,0.0013032086426392198,-0.0005829824949614704,0.0
413,5,1.791538488760125e-05,6.310154276434332e-06,-2.208184014307335e-05,0.0003117227752227336,-0.0014035507338121533,-0.0005956379463896155,0.0,0.0,0.0,0.0,0.0,0.0,0.0,0.0,0.0,0.00011582536535570398,1.4345485396916047e-05,-0.0,0.0,0.0,0.0,0.0,0.0,0.0,0.0,0.0,0.0,0.0,0.0,0.0,0.0,0.0,0.0,0.0,0.0,0.0,0.0,0.0,0.0,0.0,1.6284600496292114,-0.06983321070405188,0.05246576165165036,0.01807984923577611,-5.6291682994924486e-05,0.0003496144199743867,0.0
418,5,1.5567289665341377e-05,-7.281454941221455e-07,-1.8121421817340888e-05,-0.00015708232240285724,0.0002831756428349763,-0.0007135053747333586,0.0,0.0,0.0,0.0,0.0,0.0,0.0,0.0,0.0,0.00011582536535570398,1.4345485396916047e-05,-0.0,0.0,0.0,0.0,0.0,0.0,0.0,0.0,0.0,0.0,0.0,0.0,0.0,0.0,0.0,0.0,0.0,0.0,0.0,0.0,0.0,0.0,0.0,1.6284600496292114,-0.0698868478435015,0.052360213912141934,0.018043795154282137,-5.6291682994924486e-05,0.0003496144199743867,0.0
423,5,1.937138949870132e-05,-6.058630219740735e-07,-1.998986590479035e-06,0.00039365902193821967,9.859636338660493e-05,-0.0022200944367796183,0.0,0.0,0.0,0.0,0.0,0.0,0.0,0.0,0.0,-0.00035321936593391,-0.00012782592966686934,-0.0,0.0,0.0,0.0,0.0,0.0,0.0,0.0,0.0,0.0,0.0,0.0,0.0,0.0,0.0,0.0,0.0,0.0,0.0,0.0,0.0,0.0,0.0,1.628945231437683,-0.06998636736346411,0.05231781035769626,0.018065972131625155,0.0005017383955419064,-0.0010664967121556401,0.0
428,5,1.9732226064661518e-05,1.42722064992995e-05,1.7833570382208563e-05,0.0002007640287047252,-0.0017459298251196742,-0.0032679445575922728,0.0,0.0,0.0,0.0,0.0,0.0,0.0,0.0,0.0,-0.00035321936593391,-0.00012782592966686934,-0.0,0.0,0.0,0.0,0.0,0.0,0.0,0.0,0.0,0.0,0.0,0.0,0.0,0.0,0.0,0.0,0.0,0.0,0.0,0.0,0.0,0.0,0.0,1.628945231437683,-0.07063185033155295,0.05225813465163669,0.018073586185849193,0.0005017383955419064,-0.0010664967121556401,0.0
433,5,2.332672374905087e-05,8.329679985763505e-06,3.391143764019944e-05,0.0005116452812217176,1.4731246665178332e-05,-0.003236522199586034,0.0,0.0,0.0,0.0,0.0,0.0,0.0,0.0,0.0,0.002174328314140439,0.00021790906612295657,-0.0,0.0,0.0,0.0,0.0,0.0,0.0,0.0,0.0,0.0,0.0,0.0,0.0,0.0,0.0,0.0,0.0,0.0,0.0,0.0,0.0,0.0,0.0,1.6438642740249634,-0.07002543552480932,0.053051271056084315,0.018003250698604333,-0.0008631616365164518,0.006625200621783733,0.0
438,5,1.6894982763915323e-05,-8.171514309651684e-06,-4.430169610714074e-06,-0.00056715082610026,0.001986035844311118,0.0033063841983675957,0.0,0.0,0.0,0.0,0.0,0.0,0.0,0.0,0.0,0.002174328314140439,0.00021790906612295657,-0.0,0.0,0.0,0.0,0.0,0.0,0.0,0.0,0.0,0.0,0.0,0.0,0.0,0.0,0.0,0.0,0.0,0.0,0.0,0.0,0.0,0.0,0.0,1.6438642740249634,-0.07034752388549717,0.052595631574697856,0.018146195706914812,-0.0008631616365164518,0.006625200621783733,0.0
444,5,6.576847681571962e-06,1.2819706398659036e-06,3.9181727515824605e-06,-0.0014650365337729454,-0.0003400038694962859,0.00032075258786790073,0.0,0.0,0.0,0.0,0.0,0.0,0.0,0.0,0.0,-0.002454804489389062,-0.0005120917921885848,-0.0,0.0,0.0,0.0,0.0,0.0,0.0,0.0,0.0,0.0,0.0,0.0,0.0,0.0,0.0,0.0,0.0,0.0,0.0,0.0,0.0,0.0,0.0,1.6467936038970947,-0.0702562045323272,0.05309761514327663,0.017902350222505345,0.0020320648327469826,-0.007493139710277319,0.0
449,5,1.4368565643962938e-05,-1.7320512597507332e-06,4.631441754554544e-07,0.00034899162710644305,0.0002256810839753598,0.0005429044249467552,0.0,0.0,0.0,0.0,0.0,0.0,0.0,0.0,0.0,-0.002454804489389062,-0.0005120917921885848,-0.0,0.0,0.0,0.0,0.0,0.0,0.0,0.0,0.0,0.0,0.0,0.0,0.0,0.0,0.0,0.0,0.0,0.0,0.0,0.0,0.0,0.0,0.0,1.6467936038970947,-0.0702807493809712,0.05264237672092028,0.018094700380015247,0.0020320648327469826,-0.007493139710277319,0.0
454,5,1.8453880329616368e-05,7.5970825719196e-07,4.852332153859606e-07,0.0006298343650996685,-0.0002087387110805139,0.00021451109205372632,0.0,0.0,0.0,0.0,0.0,0.0,0.0,0.0,0.0,-0.00028342127916403115,0.00035376165760681033,-0.0,0.0,0.0,0.0,0.0,0.0,0.0,0.0,0.0,0.0,0.0,0.0,0.0,0.0,0.0,0.0,0.0,0.0,0.0,0.0,0.0,0.0,0.0,1.6301771402359009,-0.0697903927384743,0.053047236394130344,0.018264683540836817,-0.0013896244345232844,-0.0008563983137719333,0.0
459,5,7.1160707193484996e-06,-3.764130724448478e-06,-7.973594620125368e-06,-0.0011086034355685115,0.00045936519745737314,0.0011008637957274914,0.0,0.0,0.0,0.0,0.0,0.0,0.0,0.0,0.0,-0.00028342127916403115,0.00035376165760681033,-0.0,0.0,0.0,0.0,0.0,0.0,0.0,0.0,0.0,0.0,0.0,0.0,0.0,0.0,0.0,0.0,0.0,0.0,0.0,0.0,0.0,0.0,0.0,1.6301771402359009,-0.06965315766836537,0.05260438382469174,0.018090155873308263,-0.0013896244345232844,-0.0008563983137719333,0.0
464,5,1.0514212590351235e-05,-9.83846348390216e-06,-3.4403014979034197e-06,-3.566437590052374e-05,0.0009126659715548158,-0.00010364963964093477,0.0,0.0,0.0,0.0,0.0,0.0,0.0,0.0,0.0,-0.0005744245718233287,-0.0010429560206830502,-0.0,0.0,0.0,0.0,0.0,0.0,0.0,0.0,0.0,0.0,0.0,0.0,0.0,0.0,0.0,0.0,0.0,0.0,0.0,0.0,0.0,0.0,0.0,1.6378755569458008,-0.07001765086343613,0.05273985819693937,0.01803105722647104,0.004116220865398645,-0.0017439033836126328,0.0
469,5,1.4702007320011035e-05,-6.437841875595041e-06,-2.391953421465587e-05,0.00048826963757164776,-4.300815999158658e-05,0.002416047966107726,0.0,0.0,0.0,0.0,0.0,0.0,0.0,0.0,0.0,-0.0005744245718233287,-0.0010429560206830502,-0.0,0.0,0.0,0.0,0.0,0.0,0.0,0.0,0.0,0.0,0.0,0.0,0.0,0.0,0.0,0.0,0.0,0.0,0.0,0.0,0.0,0.0,0.0,1.6378755569458008,-0.06991845059151496,0.05212037456235528,0.018089059095795976,0.004116220865398645,-0.0017439033836126328,0.0
474,5,2.4136881620506756e-05,-2.2429255750466837e-06,-3.310368992970325e-05,0.0013274927623569965,-0.0005205932538956404,0.002068517729640007,0.0,0.0,0.0,0.0,0.0,0.0,0.0,0.0,0.0,4.143745172768831e-05,0.0004869782424066216,-0.0,0.0,0.0,0.0,0.0,0.0,0.0,0.0,0.0,0.0,0.0,0.0,0.0,0.0,0.0,0.0,0.0,0.0,0.0,0.0,0.0,0.0,0.0,1.6309524774551392,-0.0700818533109976,0.05231443445886884,0.018041224147561655,-0.0019138272618874907,0.00012526879436336458,0.0
479,5,1.963036265806295e-05,7.029209882603027e-06,-9.53825656324625e-06,-9.785227121028583e-06,-0.001320893527008593,-0.0020004448015242815,0.0,0.0,0.0,0.0,0.0,0.0,0.0,0.0,0.0,4.143745172768831e-05,0.0004869782424066216,-0.0,0.0,0.0,0.0,0.0,0.0,0.0,0.0,0.0,0.0,0.0,0.0,0.0,0.0,0.0,0.0,0.0,0.0,0.0,0.0,0.0,0.0,0.0,1.6309524774551392,-0.07050162279912583,0.051991249463353685,0.018224487795752583,-0.0019138272618874907,0.00012526879436336458,0.0
484,5,2.095142008329276e-05,-1.8822540823748568e-06,-7.157015716074966e-06,0.00015461274597328156,0.0005410182639025152,-0.001085926778614521,0.0,0.0,0.0,0.0,0.0,0.0,0.0,0.0,0.0,0.0016427114605903625,1.8555567294242792e-05,-0.0,0.0,0.0,0.0,0.0,0.0,0.0,0.0,0.0,0.0,0.0,0.0,0.0,0.0,0.0,0.0,0.0,0.0,0.0,0.0,0.0,0.0,0.0,1.6392896175384521,-0.0699896696607701,0.05258045236997676,0.0180868501652813,-7.329616346396506e-05,0.004991432186216116,0.0
489,5,1.2925405826536007e-05,3.1649830134483636e-07,8.247520781878848e-06,-0.0009012765367515385,-4.744297984871082e-05,-0.0022829151712358,0.0,0.0,0.0,0.0,0.0,0.0,0.0,0.0,0.0,0.0016427114605903625,1.8555567294242792e-05,-0.0,0.0,0.0,0.0,0.0,0.0,0.0,0.0,0.0,0.0,0.0,0.0,0.0,0.0,0.0,0.0,0.0,0.0,0.0,0.0,0.0,0.0,0.0,1.6392896175384521,-0.07041784908006174,0.05255902105904663,0.018096838732335516,-7.329616346396506e-05,0.004991432186216116,0.0
495,5,1.7410105783710605e-06,-6.6124580371251795e-06,2.8809330387957743e-07,-0.0017026379937306046,0.000812497572042048,4.1965278796851635e-05,0.0,0.0,0.0,0.0,0.0,0.0,0.0,0.0,0.0,5.90985655435361e-05,-0.0008394339820370078,-0.0,0.0,0.0,0.0,0.0,0.0,0.0,0.0,0.0,0.0,0.0,0.0,0.0,0.0,0.0,0.0,0.0,0.0,0.0,0.0,0.0,0.0,0.0,1.6347334384918213,-0.06982582856045035,0.05310503598755441,0.01799953212512187,0.003306628204882145,0.00017907396249938756,0.0
500,5,3.2606476452201605e-06,-4.28920293416013e-06,1.1953944522247184e-05,-0.0004986987332813442,4.620841355063021e-05,-0.001383116003125906,0.0,0.0,0.0,0.0,0.0,0.0,0.0,0.0,0.0,5.90985655435361e-05,-0.0008394339820370078,-0.0,0.0,0.0,0.0,0.0,0.0,0.0,0.0,0.0,0.0,0.0,0.0,0.0,0.0,0.0,0.0,0.0,0.0,0.0,0.0,0.0,0.0,0.0,1.6347334384918213,-0.07008361814343322,0.05272290132067751,0.017993237161025036,0.003306628204882145,0.00017907396249938756,0.0
505,5,1.3995385415910278e-05,-1.0215851034445222e-05,1.736428566800896e-05,0.0010886890813708305,0.0007296812254935503,-0.0012024873867630959,0.0,0.0,0.0,0.0,0.0,0.0,0.0,0.0,0.0,-6.532538827741519e-05,-0.0004708091728389263,-0.0,0.0,0.0,0.0,0.0,0.0,0.0,0.0,0.0,0.0,0.0,0.0,0.0,0.0,0.0,0.0,0.0,0.0,0.0,0.0,0.0,0.0,0.0,1.6307969093322754,-0.0700894397222986,0.05285536305843297,0.017924062763078254,0.0018501062877476215,-0.0001974651386262849,0.0
510,5,1.329625320067862e-05,-1.3274501725391019e-05,-7.795047167746816e-06,0.00035157965612597764,0.0006589104887098074,0.002538125030696392,0.0,0.0,0.0,0.0,0.0,0.0,0.0,0.0,0.0,-6.532538827741519e-05,-0.0004708091728389263,-0.0,0.0,0.0,0.0,0.0,0.0,0.0,0.0,0.0,0.0,0.0,0.0,0.0,0.0,0.0,0.0,0.0,0.0,0.0,0.0,0.0,0.0,0.0,1.6307969093322754,-0.07027735329893273,0.05252285532849158,0.018163057832564264,0.0018501062877476215,-0.0001974651386262849,0.0
515,5,2.2299585907603614e-05,-9.528775990474969e-06,-6.714330993418116e-06,0.001221031998284161,-0.0001859228650573641,0.000885564077179879,0.0,0.0,0.0,0.0,0.0,0.0,0.0,0.0,0.0,-0.0008403370738960803,0.0003540462930686772,-0.0,0.0,0.0,0.0,0.0,0.0,0.0,0.0,0.0,0.0,0.0,0.0,0.0,0.0,0.0,0.0,0.0,0.0,0.0,0.0,0.0,0.0,0.0,1.6336209774017334,-0.07064512581755732,0.052659374231915614,0.018020980672824895,-0.0013936801115050912,-0.0025445634964853525,0.0
520,5,1.9400475139264017e-05,2.701517018977029e-07,-3.674503659567563e-06,0.0001405192888341844,-0.0012502404861152172,-1.055363827617839e-05,0.0,0.0,0.0,0.0,0.0,0.0,0.0,0.0,0.0,-0.0008403370738960803,0.0003540462930686772,-0.0,0.0,0.0,0.0,0.0,0.0,0.0,0.0,0.0,0.0,0.0,0.0,0.0,0.0,0.0,0.0,0.0,0.0,0.0,0.0,0.0,0.0,0.0,1.6336209774017334,-0.07040630676166151,0.053014619360497894,0.01797544079481363,-0.0013936801115050912,-0.0025445634964853525,0.0
525,5,1.2547435289889108e-05,-8.857962711772416e-06,-5.0955118240381125e-06,-0.0007661569397896528,0.0005952775245532393,0.00016629953461233526,0.0,0.0,0.0,0.0,0.0,0.0,0.0,0.0,0.0,0.0015439240960404277,0.0001610388426342979,-0.0,0.0,0.0,0.0,0.0,0.0,0.0,0.0,0.0,0.0,0.0,0.0,0.0,0.0,0.0,0.0,0.0,0.0,0.0,0.0,0.0,0.0,0.0,1.6385855674743652,-0.07019561625663823,0.05210374578872895,0.01817045977942932,-0.0006358448299579322,0.004689249210059643,0.0
530,5,1.1980393537669443e-05,-7.99399731477024e-06,6.964231943129562e-06,-0.0003745077701751143,0.0001344352203886956,-0.001380649395287037,0.0,0.0,0.0,0.0,0.0,0.0,0.0,0.0,0.0,0.0015439240960404277,0.0001610388426342979,-0.0,0.0,0.0,0.0,0.0,0.0,0.0,0.0,0.0,0.0,0.0,0.0,0.0,0.0,0.0,0.0,0.0,0.0,0.0,0.0,0.0,0.0,0.0,1.6385855674743652,-0.07021138256320872,0.05238045886583665,0.018090746017669093,-0.0006358448299579322,0.004689249210059643,0.0
535,5,1.3879298421670683e-05,4.978577635483816e-06,1.4696406651637517e-05,7.806541543686762e-05,-0.001502934959717095,-0.001480120699852705,0.0,0.0,0.0,0.0,0.0,0.0,0.0,0.0,0.0,-0.00018166836525779217,-0.00034028675872832537,-0.0,0.0,0.0,0.0,0.0,0.0,0.0,0.0,0.0,0.0,0.0,0.0,0.0,0.0,0.0,0.0,0.0,0.0,0.0,0.0,0.0,0.0,0.0,1.6296674013137817,-0.07028686771035117,0.05275791702962145,0.017814171088766224,0.0013362751342356205,-0.0005487655289471149,0.0
541,5,2.9705842052862863e-07,1.3384772046265425e-06,-2.96289763355162e-05,-0.0015986425569280982,-0.00016436191799584776,0.004726997576653957,0.0,0.0,0.0,0.0,0.0,0.0,0.0,0.0,0.0,-0.00018166836525779217,-0.00034028675872832537,-0.0,0.0,0.0,0.0,0.0,0.0,0.0,0.0,0.0,0.0,0.0,0.0,0.0,0.0,0.0,0.0,0.0,0.0,0.0,0.0,0.0,0.0,0.0,1.6296674013137817,-0.0702444420817593,0.052495922393855074,0.018068242972447038,0.0013362751342356205,-0.0005487655289471149,0.0
546,5,1.0194793503615074e-05,1.947571718119434e-06,-2.3853132006479427e-05,0.0005482711712829769,-0.00013883609790354967,0.001197697827592492,0.0,0.0,0.0,0.0,0.0,0.0,0.0,0.0,0.0,0.00020470308663789183,-0.0015141032636165619,-0.0,0.0,0.0,0.0,0.0,0.0,0.0,0.0,0.0,0.0,0.0,0.0,0.0,0.0,0.0,0.0,0.0,0.0,0.0,0.0,0.0,0.0,0.0,1.6420819759368896,-0.07037488435987473,0.0525789761963387,0.01791014023871037,0.005991037935018539,0.0006230570143088698,0.0
551,5,4.1691337173688225e-06,-1.187515226774849e-05,-7.213306616904447e-06,-0.0005037707160227001,0.0016031924169510603,-0.0015177000313997269,0.0,0.0,0.0,0.0,0.0,0.0,0.0,0.0,0.0,0.00020470308663789183,-0.0015141032636165619,-0.0,0.0,0.0,0.0,0.0,0.0,0.0,0.0,0.0,0.0,0.0,0.0,0.0,0.0,0.0,0.0,0.0,0.0,0.0,0.0,0.0,0.0,0.0,1.6420819759368896,-0.07038237213324879,0.05238195341198029,0.017998288897392654,0.005991037935018539,0.0006230570143088698,0.0
556,5,1.1777905456256121e-05,-2.3591101125930436e-06,1.1475074643385597e-05,0.0007115443586371839,-0.0005006481078453362,-0.002849685726687312,0.0,0.0,0.0,0.0,0.0,0.0,0.0,0.0,0.0,-0.001995802391320467,-0.0004708154301624745,-0.0,0.0,0.0,0.0,0.0,0.0,0.0,0.0,0.0,0.0,0.0,0.0,0.0,0.0,0.0,0.0,0.0,0.0,0.0,0.0,0.0,0.0,0.0,1.642987608909607,-0.07027374823991382,0.0528976427397275,0.0179873578423766,0.001863957499153912,-0.00607798807322979,0.0
561,5,8.319650987687055e-06,-1.2786146726284642e-05,-2.5901695153152104e-06,-0.00013037287862971425,0.0010509851854294538,0.0005479549872688949,0.0,0.0,0.0,0.0,0.0,0.0,0.0,0.0,0.0,-0.001995802391320467,-0.0004708154301624745,-0.0,0.0,0.0,0.0,0.0,0.0,0.0,0.0,0.0,0.0,0.0,0.0,0.0,0.0,0.0,0.0,0.0,0.0,0.0,0.0,0.0,0.0,0.0,1.642987608909607,-0.07043030697439076,0.05227684903440682,0.018060799895857668,0.001863957499153912,-0.00607798807322979,0.0
566,5,1.1669068044284359e-05,-1.4958317478885874e-05,2.4125990876200376e-06,0.00034978092298842967,0.0006810545455664396,-0.000381150224711746,0.0,0.0,0.0,0.0,0.0,0.0,0.0,0.0,0.0,-0.0013225509319454432,-0.00011178379645571113,-0.0,0.0,0.0,0.0,0.0,0.0,0.0,0.0,0.0,0.0,0.0,0.0,0.0,0.0,0.0,0.0,0.0,0.0,0.0,0.0,0.0,0.0,0.0,1.6366996765136719,-0.07055907677092808,0.05243057104932928,0.018038525353692988,0.00044085868285037577,-0.004012266173958778,0.0
571,5,5.779338607680984e-06,-2.8216666123626055e-06,4.3690572056220844e-05,-0.0005668551893904805,-0.0011839763028547168,-0.005105816759169102,0.0,0.0,0.0,0.0,0.0,0.0,0.0,0.0,0.0,-0.0013225509319454432,-0.00011178379645571113,-0.0,0.0,0.0,0.0,0.0,0.0,0.0,0.0,0.0,0.0,0.0,0.0,0.0,0.0,0.0,0.0,0.0,0.0,0.0,0.0,0.0,0.0,0.0,1.6366996765136719,-0.07055342029718435,0.05268485804240716,0.017883549037333014,0.00044085868285037577,-0.004012266173958778,0.0
576,5,1.0091170224768575e-05,9.846529792412184e-06,5.5595221056137234e-05,0.0002906777081079781,-0.001993774203583598,-0.0034708844032138586,0.0,0.0,0.0,0.0,0.0,0.0,0.0,0.0,0.0,0.0014560832642018795,-0.0005295980372466147,-0.0,0.0,0.0,0.0,0.0,0.0,0.0,0.0,0.0,0.0,0.0,0.0,0.0,0.0,0.0,0.0,0.0,0.0,0.0,0.0,0.0,0.0,0.0,1.639021873474121,-0.07029624199567917,0.0528625711735511,0.017928571178319277,0.0020916187204420567,0.004423634149134159,0.0
581,5,7.702376933593769e-06,1.2052158126607537e-05,2.4311226297868416e-05,-0.00017038403893820941,-0.001062185037881136,0.0023657253477722406,0.0,0.0,0.0,0.0,0.0,0.0,0.0,0.0,0.0,0.0014560832642018795,-0.0005295980372466147,-0.0,0.0,0.0,0.0,0.0,0.0,0.0,0.0,0.0,0.0,0.0,0.0,0.0,0.0,0.0,0.0,0.0,0.0,0.0,0.0,0.0,0.0,0.0,1.639021873474121,-0.07075496395689848,0.0521886782140324,0.018206045500522468,0.0020916187204420567,0.004423634149134159,0.0
586,5,4.626332611223916e-06,1.2021736438327935e-05,-4.781280040333513e-06,-0.0006119475583545864,-0.0007926924154162407,0.0006435432005673647,0.0,0.0,0.0,0.0,0.0,0.0,0.0,0.0,0.0,0.0013344588223844767,-0.00015066326886881143,-0.0,0.0,0.0,0.0,0.0,0.0,0.0,0.0,0.0,0.0,0.0,0.0,0.0,0.0,0.0,0.0,0.0,0.0,0.0,0.0,0.0,0.0,0.0,1.6368508338928223,-0.07017145167885086,0.05329086363522888,0.01786149635909951,0.0005942483549006283,0.004048765171319246,0.0
591,5,4.626332611223916e-06,1.2021736438327935e-05,-4.781280040333513e-06,-0.0006119475583545864,-0.0007926924154162407,0.0006435432005673647,0.0,0.0,0.0,0.0,0.0,0.0,0.0,0.0,0.0,0.0013344588223844767,-0.00015066326886881143,-0.0,0.0,0.0,0.0,0.0,0.0,0.0,0.0,0.0,0.0,0.0,0.0,0.0,0.0,0.0,0.0,0.0,0.0,0.0,0.0,0.0,0.0,0.0,1.6368508338928223,-0.07017145167885086,0.05329086363522888,0.01786149635909951,0.0005942483549006283,0.004048765171319246,0.0
597,5,6.131986083346419e-06,-4.88151135868975e-06,-1.0206255865341518e-05,0.0001618172973394394,0.0015976587310433388,6.525323988171294e-05,0.0,0.0,0.0,0.0,0.0,0.0,0.0,0.0,0.0,0.0010018283501267433,-0.0005750562413595617,-0.0,0.0,0.0,0.0,0.0,0.0,0.0,0.0,0.0,0.0,0.0,0.0,0.0,0.0,0.0,0.0,0.0,0.0,0.0,0.0,0.0,0.0,0.0,1.6360331773757935,-0.0702460766353627,0.0533973477619614,0.017892545087591402,0.0022670135367661715,0.0030380424577742815,0.0
602,5,6.131986083346419e-06,-4.88151135868975e-06,-1.0206255865341518e-05,0.0001618172973394394,0.0015976587310433388,6.525323988171294e-05,0.0,0.0,0.0,0.0,0.0,0.0,0.0,0.0,0.0,0.0010018283501267433,-0.0005750562413595617,-0.0,0.0,0.0,0.0,0.0,0.0,0.0,0.0,0.0,0.0,0.0,0.0,0.0,0.0,0.0,0.0,0.0,0.0,0.0,0.0,0.0,0.0,0.0,1.6360331773757935,-0.0702460766353627,0.0533973477619614,0.017892545087591402,0.0022670135367661715,0.0030380424577742815,0.0
607,5,1.9112374047836056e-06,-2.143834080925444e-06,1.8198365069110878e-05,-0.00044176290975883603,0.00031054220744408667,-0.003382453229278326,0.0,0.0,0.0,0.0,0.0,0.0,0.0,0.0,0.0,-0.001977345207706094,0.0001624728465685621,-0.0,0.0,0.0,0.0,0.0,0.0,0.0,0.0,0.0,0.0,0.0,0.0,0.0,0.0,0.0,0.0,0.0,0.0,0.0,0.0,0.0,0.0,0.0,1.642163634300232,-0.07055220696927166,0.052684108410175026,0.01782578986564079,-0.0006429071654565632,-0.0060187592171132565,0.0
612,5,3.630658056863467e-06,-2.4523706088075414e-06,4.121427264180966e-05,-0.0001918150665005669,1.1061511941079516e-05,-0.001843075267970562,0.0,0.0,0.0,0.0,0.0,0.0,0.0,0.0,0.0,-0.001977345207706094,0.0001624728465685621,-0.0,0.0,0.0,0.0,0.0,0.0,0.0,0.0,0.0,0.0,0.0,0.0,0.0,0.0,0.0,0.0,0.0,0.0,0.0,0.0,0.0,0.0,0.0,1.642163634300232,-0.07089638827809007,0.052655540020402965,0.01780945407507161,-0.0006429071654565632,-0.0060187592171132565,0.0
617,5,4.074206117365975e-06,-1.0418068995932117e-05,2.4011545974644832e-05,-2.3500244424212724e-05,0.0009603084763512015,0.0013270971830934286,0.0,0.0,0.0,0.0,0.0,0.0,0.0,0.0,0.0,-0.0012069183867424726,-1.606974365131464e-05,-0.0,0.0,0.0,0.0,0.0,0.0,0.0,0.0,0.0,0.0,0.0,0.0,0.0,0.0,0.0,0.0,0.0,0.0,0.0,0.0,0.0,0.0,0.0,1.6356784105300903,-0.07010923282154383,0.0522247393657896,0.018080800794814153,6.333713827189058e-05,-0.003659183392301202,0.0
622,5,4.074206117365975e-06,-1.0418068995932117e-05,2.4011545974644832e-05,-2.3500244424212724e-05,0.0009603084763512015,0.0013270971830934286,0.0,0.0,0.0,0.0,0.0,0.0,0.0,0.0,0.0,-0.0012069183867424726,-1.606974365131464e-05,-0.0,0.0,0.0,0.0,0.0,0.0,0.0,0.0,0.0,0.0,0.0,0.0,0.0,0.0,0.0,0.0,0.0,0.0,0.0,0.0,0.0,0.0,0.0,1.6356784105300903,-0.07010923282154383,0.0522247393657896,0.018080800794814153,6.333713827189058e-05,-0.003659183392301202,0.0
627,5,9.361814591102302e-06,-1.9840711047436344e-06,8.404233085457236e-06,0.0006251129088923335,-0.0006279564113356173,0.0024037163238972425,0.0,0.0,0.0,0.0,0.0,0.0,0.0,0.0,0.0,0.0007732540834695101,0.0006087437504902482,-0.0,0.0,0.0,0.0,0.0,0.0,0.0,0.0,0.0,0.0,0.0,0.0,0.0,0.0,0.0,0.0,0.0,0.0,0.0,0.0,0.0,0.0,0.0,1.6348457336425781,-0.07022467103306415,0.05274117402832632,0.0180025181403805,-0.0023980767000466585,0.0023431899026036263,0.0
632,5,1.2665812391787767e-05,-3.2534699130337685e-06,-3.0424682790908264e-06,0.0006541625480167568,3.133888094453141e-05,0.0010110423900187016,0.0,0.0,0.0,0.0,0.0,0.0,0.0,0.0,0.0,0.0007732540834695101,0.0006087437504902482,-0.0,0.0,0.0,0.0,0.0,0.0,0.0,0.0,0.0,0.0,0.0,0.0,0.0,0.0,0.0,0.0,0.0,0.0,0.0,0.0,0.0,0.0,0.0,1.6348457336425781,-0.07062821887351964,0.05311085803127467,0.01777725040998071,-0.0023980767000466585,0.0023431899026036263,0.0
637,5,1.2665812391787767e-05,-3.2534699130337685e-06,-3.0424682790908264e-06,0.0006541625480167568,3.133888094453141e-05,0.0010110423900187016,0.0,0.0,0.0,0.0,0.0,0.0,0.0,0.0,0.0,-4.499455098994076e-05,0.0006418984849005938,-0.0,0.0,0.0,0.0,0.0,0.0,0.0,0.0,0.0,0.0,0.0,0.0,0.0,0.0,0.0,0.0,0.0,0.0,0.0,0.0,0.0,0.0,0.0,1.632610559463501,-0.07062821887351964,0.05311085803127467,0.01777725040998071,-0.002525229239836335,-0.00013616048090625554,0.0
642,5,1.0998341167578474e-05,-2.590177928141202e-06,-2.1068759451736696e-05,6.156846939120442e-05,-6.705948908347636e-05,0.002567571820691228,0.0,0.0,0.0,0.0,0.0,0.0,0.0,0.0,0.0,-4.499455098994076e-05,0.0006418984849005938,-0.0,0.0,0.0,0.0,0.0,0.0,0.0,0.0,0.0,0.0,0.0,0.0,0.0,0.0,0.0,0.0,0.0,0.0,0.0,0.0,0.0,0.0,0.0,1.632610559463501,-0.07007771220339055,0.05241279704270646,0.018040537256443362,-0.002525229239836335,-0.00013616048090625554,0.0
647,5,1.8713430108618923e-05,-4.141329554840922e-06,3.3971000448218547e-06,0.0007780901505611837,0.00017840731015894562,-0.0013567785499617457,0.0,0.0,0.0,0.0,0.0,0.0,0.0,0.0,0.0,-0.00022864030324853957,0.0007677639368921518,-0.0,0.0,0.0,0.0,0.0,0.0,0.0,0.0,0.0,0.0,0.0,0.0,0.0,0.0,0.0,0.0,0.0,0.0,0.0,0.0,0.0,0.0,0.0,1.6341642141342163,-0.06992969474815998,0.05247112068523017,0.01803722362446728,-0.003023258177563548,-0.0006925594061613083,0.0
652,5,9.760608918440994e-06,1.341977622359991e-06,2.100298115692567e-05,-0.0007631024345755577,-0.0005866339197382331,-0.0026554171927273273,0.0,0.0,0.0,0.0,0.0,0.0,0.0,0.0,0.0,-0.00022864030324853957,0.0007677639368921518,-0.0,0.0,0.0,0.0,0.0,0.0,0.0,0.0,0.0,0.0,0.0,0.0,0.0,0.0,0.0,0.0,0.0,0.0,0.0,0.0,0.0,0.0,0.0,1.6341642141342163,-0.07055406224388935,0.052499821650032426,0.01790513123234776,-0.003023258177563548,-0.0006925594061613083,0.0
658,5,1.4156536053633317e-05,-1.3424098142422736e-05,4.0192908272729255e-06,0.00022227027511689812,0.0015372755005955696,0.0009758759988471866,0.0,0.0,0.0,0.0,0.0,0.0,0.0,0.0,0.0,-0.0019188598962500691,0.0002310125419171527,-0.0,0.0,0.0,0.0,0.0,0.0,0.0,0.0,0.0,0.0,0.0,0.0,0.0,0.0,0.0,0.0,0.0,0.0,0.0,0.0,0.0,0.0,0.0,1.641777515411377,-0.07003853848142667,0.052496950982269794,0.018036013308720525,-0.000913904863409698,-0.0058393655344843864,0.0
663,5,4.565479684970342e-06,-1.9656949007185176e-05,1.8998847735929303e-05,-0.0010620186803862453,0.0013628521701321006,-0.0014071962796151638,0.0,0.0,0.0,0.0,0.0,0.0,0.0,0.0,0.0,-0.0019188598962500691,0.0002310125419171527,-0.0,0.0,0.0,0.0,0.0,0.0,0.0,0.0,0.0,0.0,0.0,0.0,0.0,0.0,0.0,0.0,0.0,0.0,0.0,0.0,0.0,0.0,0.0,1.641777515411377,-0.07014620098102466,0.05289805850585064,0.018010779195609273,-0.000913904863409698,-0.0058393655344843864,0.0
668,5,1.4460051716014277e-05,-1.529192377347499e-05,1.2068921932950616e-05,0.0007625411381013691,2.1337888028938323e-05,0.0002687124942895025,0.0,0.0,0.0,0.0,0.0,0.0,0.0,0.0,0.0,-5.4467505833599716e-05,0.0007472207653336227,-0.0,0.0,0.0,0.0,0.0,0.0,0.0,0.0,0.0,0.0,0.0,0.0,0.0,0.0,0.0,0.0,0.0,0.0,0.0,0.0,0.0,0.0,0.0,1.6337428092956543,-0.06993721484325942,0.05290923253827918,0.018132298273422887,-0.002941605867817998,-0.00016494141891598701,0.0
673,5,6.249329544516513e-06,-7.0124210651556496e-06,2.322276122868061e-05,-0.0006802701391279697,-0.0009850050555542111,-0.0012309756129980087,0.0,0.0,0.0,0.0,0.0,0.0,0.0,0.0,0.0,-5.4467505833599716e-05,0.0007472207653336227,-0.0,0.0,0.0,0.0,0.0,0.0,0.0,0.0,0.0,0.0,0.0,0.0,0.0,0.0,0.0,0.0,0.0,0.0,0.0,0.0,0.0,0.0,0.0,1.6337428092956543,-0.06995628025773412,0.05311341093233148,0.018007386163629867,-0.002941605867817998,-0.00016494141891598701,0.0
678,5,1.4358186490426306e-05,-5.147888259671163e-06,1.3386907994572539e-05,0.0007009548135101795,-0.0006177460309118032,0.0006879120483063161,0.0,0.0,0.0,0.0,0.0,0.0,0.0,0.0,0.0,0.0012037786655128002,-0.0006370453629642725,-0.0,0.0,0.0,0.0,0.0,0.0,0.0,0.0,0.0,0.0,0.0,0.0,0.0,0.0,0.0,0.0,0.0,0.0,0.0,0.0,0.0,0.0,0.0,1.6377817392349243,-0.06937062895207417,0.05260106909623333,0.01803371005577022,0.0025140733923763037,0.0036543572787195444,0.0
683,5,1.4061548426980153e-05,5.382431140787958e-07,-5.2821878853137605e-06,0.000244785362156108,-0.0009294341434724629,0.0025154564063996077,0.0,0.0,0.0,0.0,0.0,0.0,0.0,0.0,0.0,0.0012037786655128002,-0.0006370453629642725,-0.0,0.0,0.0,0.0,0.0,0.0,0.0,0.0,0.0,0.0,0.0,0.0,0.0,0.0,0.0,0.0,0.0,0.0,0.0,0.0,0.0,0.0,0.0,1.6377817392349243,-0.07013936795204805,0.05274589865840951,0.01785694209994391,0.0025140733923763037,0.0036543572787195444,0.0
688,5,1.33822713905829e-05,-7.73197189118946e-06,-3.439669308136217e-05,1.6400801541749388e-05,0.0006206521647982299,0.004499922972172499,0.0,0.0,0.0,0.0,0.0,0.0,0.0,0.0,0.0,0.0011503520654514432,0.0002531985519453883,-0.0,0.0,0.0,0.0,0.0,0.0,0.0,0.0,0.0,0.0,0.0,0.0,0.0,0.0,0.0,0.0,0.0,0.0,0.0,0.0,0.0,0.0,0.0,1.6355907917022705,-0.06993121321006877,0.052543605253674935,0.017961402437253273,-0.0009979010792449117,0.003487496869638562,0.0
693,5,1.8878055925597437e-05,9.190732271235902e-06,-3.6794015613850206e-05,0.0006660545477643609,-0.0017824636306613684,0.0020876482594758272,0.0,0.0,0.0,0.0,0.0,0.0,0.0,0.0,0.0,0.0011503520654514432,0.0002531985519453883,-0.0,0.0,0.0,0.0,0.0,0.0,0.0,0.0,0.0,0.0,0.0,0.0,0.0,0.0,0.0,0.0,0.0,0.0,0.0,0.0,0.0,0.0,0.0,1.6355907917022705,-0.07014502342925419,0.052677998069766946,0.017924674315995752,-0.0009979010792449117,0.003487496869638562,0.0
698,5,2.5408002329641022e-05,3.7364122817962198e-06,-2.2672858904115856e-05,0.0010500154457986355,-5.84670779062435e-05,-0.0008594796527177095,0.0,0.0,0.0,0.0,0.0,0.0,0.0,0.0,0.0,0.002208069898188114,0.0006568640237674117,-0.0,0.0,0.0,0.0,0.0,0.0,0.0,0.0,0.0,0.0,0.0,0.0,0.0,0.0,0.0,0.0,0.0,0.0,0.0,0.0,0.0,0.0,0.0,1.645322322845459,-0.07001572974996133,0.05284822194110133,0.017959767076619206,-0.0026042175013571978,0.006733978167176247,0.0
703,5,2.4943978132796474e-05,-8.764386620896403e-07,-2.5222670956281945e-06,0.00036432326305657625,0.0005301552591845393,-0.002761862939223647,0.0,0.0,0.0,0.0,0.0,0.0,0.0,0.0,0.0,0.002208069898188114,0.0006568640237674117,-0.0,0.0,0.0,0.0,0.0,0.0,0.0,0.0,0.0,0.0,0.0,0.0,0.0,0.0,0.0,0.0,0.0,0.0,0.0,0.0,0.0,0.0,0.0,1.645322322845459,-0.06960871881996276,0.05274959027245481,0.01821684650212869,-0.0026042175013571978,0.006733978167176247,0.0
708,5,1.1398305105103645e-05,-6.2136887208907865e-06,2.2824160623713396e-06,-0.0014797515468671918,0.0008525321027263999,-0.0016813070978969336,0.0,0.0,0.0,0.0,0.0,0.0,0.0,0.0,0.0,-0.0010517562041059136,-0.0013664410216733813,-0.0,0.0,0.0,0.0,0.0,0.0,0.0,0.0,0.0,0.0,0.0,0.0,0.0,0.0,0.0,0.0,0.0,0.0,0.0,0.0,0.0,0.0,0.0,1.6427937746047974,-0.0701739434863318,0.05218320931688156,0.01819106082681202,0.005409105680882931,-0.0032026281114667654,0.0
714,5,1.677421823842451e-05,-1.3636583389597945e-05,1.1408103091525845e-05,5.320892159943469e-05,0.0012317602522671223,-0.001767605310305953,0.0,0.0,0.0,0.0,0.0,0.0,0.0,0.0,0.0,-0.0010517562041059136,-0.0013664410216733813,-0.0,0.0,0.0,0.0,0.0,0.0,0.0,0.0,0.0,0.0,0.0,0.0,0.0,0.0,0.0,0.0,0.0,0.0,0.0,0.0,0.0,0.0,0.0,1.6427937746047974,-0.07033534813469951,0.05229711820413313,0.018082550547714293,0.005409105680882931,-0.0032026281114667654,0.0
