timestamp,dt,pos_x,pos_y,pos_z,vel_x,vel_y,vel_z,roll,pitch,yaw,agv_x,agv_y,agv_z,x_ref,y_ref,z_ref,roll_ref,pitch_ref,yaw_ref,x_vel_ref,y_vel_ref,z_vel_ref,x_torque,y_torque,z_torque,w0,w1,w2,w3,u0,u1,u2,u3,m0req,m1req,m2req,m3req,thrust0,thrust1,thrust2,thrust3,thrust_ref,roll_vicon,pitch_vicon,yaw_vicon,acc_x,acc_y,acc_z
5,5,0.0,0.0,0.0,-0.00010411871335236356,-0.0010089008137583733,0.0012937067076563835,-0.03069382533431053,0.19370366632938385,-0.001929215737618506,0.0004964809049852192,0.00717257522046566,0.0005017754738219082,0.0,0.0,0.0,0.0012475845869630575,-9.903919271891937e-05,-0.0,0.0,0.0,0.0,0.20000000298023224,-0.20000000298023224,-0.0009364619036205113,1495.0,1495.0,1495.0,1495.0,0.0,0.0,0.0,0.0,0.0,0.0,0.0,0.0,1495.0,1495.0,1495.0,1495.0,1.6360681056976318,2.881965579239335,0.4412358207974396,0.24639574043647203,0.00039044517325237393,0.0037833780515938997,0.0
22,17,0.0,0.0,0.0,-0.001296802656725049,0.000190931954421103,-0.0018087292555719614,-0.03069382533431053,0.19370366632938385,-0.001929215737618506,0.0004964809049852192,0.00717257522046566,0.0005017754738219082,0.0,0.0,0.0,0.0012475845869630575,-9.903919271891937e-05,-0.0,0.0,0.0,0.0,0.20000000298023224,-0.20000000298023224,-0.0009364619036205113,1495.0,1495.0,1495.0,1495.0,0.0,0.0,0.0,0.0,0.0,0.0,0.0,0.0,1495.0,1495.0,1495.0,1495.0,1.6360681056976318,2.881543649146979,0.4424031500419814,0.24724442191706295,0.00039044517325237393,0.0037833780515938997,0.0
31,9,0.0,0.0,0.0,-0.001296802656725049,0.000190931954421103,-0.0018087292555719614,-0.03070593997836113,0.19372326135635376,-0.001932503073476255,-0.0020561974961310625,0.00672518415376544,5.2101528126513585e-05,0.0,0.0,0.0,-0.00023566812160424888,-0.001231268746778369,-0.0,0.0,0.0,0.0,0.20000000298023224,-0.20000000298023224,-0.002561884466558695,1495.0,1495.0,1495.0,1495.0,0.0,0.0,0.0,0.0,0.0,0.0,0.0,0.0,1495.0,1495.0,1495.0,1495.0,1.639081358909607,2.881543649146979,0.4424031500419814,0.24724442191706295,0.004863009788095951,-0.0007159948581829667,0.0
36,5,0.0,0.0,0.0,0.0013988972641527653,0.00048261048505082726,0.0028178400825709105,-0.03070593997836113,0.19372326135635376,-0.001932503073476255,-0.0020561974961310625,0.00672518415376544,5.2101528126513585e-05,0.0,0.0,0.0,-0.00023566812160424888,-0.001231268746778369,-0.0,0.0,0.0,0.0,0.20000000298023224,-0.20000000298023224,-0.002561884466558695,1495.0,1495.0,1495.0,1495.0,0.0,0.0,0.0,0.0,0.0,0.0,0.0,0.0,1495.0,1495.0,1495.0,1495.0,1.639081358909607,2.881899401193637,0.4429916429519338,0.24722151451910937,0.004863009788095951,-0.0007159948581829667,0.0
41,5,0.0,0.0,0.0,-0.0007425131043419242,-0.00013726411270909011,-0.0040151700377464294,-0.03070593997836113,0.19372326135635376,-0.001932503073476255,-0.0020561974961310625,0.00672518415376544,5.2101528126513585e-05,0.0,0.0,0.0,-0.00023566812160424888,-0.001231268746778369,-0.0,0.0,0.0,0.0,0.20000000298023224,-0.20000000298023224,-0.002561884466558695,1495.0,1495.0,1495.0,1495.0,0.0,0.0,0.0,0.0,0.0,0.0,0.0,0.0,1495.0,1495.0,1495.0,1495.0,1.639081358909607,2.8795383184696837,0.442619188227472,0.2474503771712749,0.004863009788095951,-0.0007159948581829667,0.0
46,5,3.726387149072252e-05,-1.3383764780883212e-05,-3.883415774907917e-05,0.00417465902864933,0.0015511461533606052,0.0030540309380739927,-0.03071591630578041,0.19375742971897125,-0.0019134602043777704,-0.00041836051968857646,0.0036053720396012068,-0.00011099082621512935,0.0,0.0,0.0,0.0001700116554275155,-0.0007074284367263317,-0.0,0.0,0.0,0.0,0.20000000298023224,-0.20000000298023224,-0.0018764454871416092,1495.0,1495.0,1495.0,1495.0,0.0,0.0,0.0,0.0,0.0,0.0,0.0,0.0,1495.0,1495.0,1495.0,1495.0,1.6334319114685059,2.884028200653306,0.4407364507911154,0.24634418871461503,0.002784424228593707,0.0005147404153831303,0.0
51,5,2.5015966457431205e-05,1.7754051441443153e-05,1.699565655144397e-05,0.00020011533342767507,-0.0031160793732851744,-0.005477965343743563,-0.030697166919708252,0.19376099109649658,-0.001924139098264277,0.0038212973158806562,0.008688182570040226,-0.0004744823381770402,0.0,0.0,0.0,0.00383470905944705,0.00022233092749956995,-0.0,0.0,0.0,0.0,0.20000000298023224,-0.20000000298023224,-0.00204834109172225,1495.0,1495.0,1495.0,1495.0,0.0,0.0,0.0,0.0,0.0,0.0,0.0,0.0,1495.0,1495.0,1495.0,1495.0,1.6577427387237549,2.8811496431480657,0.441100324971976,0.2469729934122322,-0.0008881078683771193,0.01178300753235817,0.0
57,5,2.1441994249471463e-05,1.5529240044998005e-05,-1.035663785842189e-06,-0.00034883065382018685,-0.0009794544894248247,-2.742771539487876e-05,-0.030697166919708252,0.19376099109649658,-0.001924139098264277,0.0038212973158806562,0.008688182570040226,-0.0004744823381770402,0.0,0.0,0.0,0.00383470905944705,0.00022233092749956995,-0.0,0.0,0.0,0.0,0.20000000298023224,-0.20000000298023224,-0.00204834109172225,1495.0,1495.0,1495.0,1495.0,0.0,0.0,0.0,0.0,0.0,0.0,0.0,0.0,1495.0,1495.0,1495.0,1495.0,1.6577427387237549,2.8831374988578173,0.43951935481512217,0.24612924970775124,-0.0008881078683771193,0.01178300753235817,0.0
62,5,1.3179348570702132e-05,8.22115907794796e-06,-2.1401252524810843e-05,-0.0011310497066006064,0.0004851879784837365,0.0024328995496034622,-0.030697166919708252,0.19376099109649658,-0.001924139098264277,0.0038212973158806562,0.008688182570040226,-0.0004744823381770402,0.0,0.0,0.0,0.00383470905944705,0.00022233092749956995,-0.0,0.0,0.0,0.0,0.20000000298023224,-0.20000000298023224,-0.00204834109172225,1495.0,1495.0,1495.0,1495.0,0.0,0.0,0.0,0.0,0.0,0.0,0.0,0.0,1495.0,1495.0,1495.0,1495.0,1.6577427387237549,2.881425647160932,0.4422633295848171,0.2466972217791383,-0.0008881078683771193,0.01178300753235817,0.0
67,5,2.9036449632258154e-05,8.355069439858198e-06,-5.448866795632057e-05,0.0014504322316497564,0.00017800596833694726,0.004943649750202894,-0.030698377639055252,0.1937287449836731,-0.001939747016876936,-0.001660709036514163,0.004676541779190302,-0.0018384382128715515,0.0,0.0,0.0,-0.0005843284889124334,-0.0010561773087829351,-0.0,0.0,0.0,0.0,0.20000000298023224,-0.20000000298023224,-0.0014917881926521659,1495.0,1495.0,1495.0,1495.0,0.0,0.0,0.0,0.0,0.0,0.0,0.0,0.0,1495.0,1495.0,1495.0,1495.0,1.6380387544631958,2.881496060147297,0.44118502788420744,0.2469010598518534,0.00416881637647748,-0.0017741476185619831,0.0
72,5,7.721844667685218e-06,9.853353731159586e-06,-5.339187919162214e-05,-0.0019775796681642532,-0.00010859176836675033,0.0018458454869687557,-0.030698377639055252,0.1937287449836731,-0.001939747016876936,-0.001660709036514163,0.004676541779190302,-0.0018384382128715515,0.0,0.0,0.0,-0.0005843284889124334,-0.0010561773087829351,-0.0,0.0,0.0,0.0,0.20000000298023224,-0.20000000298023224,-0.0014917881926521659,1495.0,1495.0,1495.0,1495.0,0.0,0.0,0.0,0.0,0.0,0.0,0.0,0.0,1495.0,1495.0,1495.0,1495.0,1.6380387544631958,2.8829672011306395,0.4407165741981079,0.2465857466952733,0.00416881637647748,-0.0017741476185619831,0.0
77,5,1.8357102817390114e-05,-3.879137295825785e-07,-5.105653326609172e-05,0.0004851990379393101,0.0011855154298245907,0.0004580963577609509,-0.03069455921649933,0.1937837451696396,-0.0019573839381337166,0.000822267378680408,0.003140508895739913,-0.0006979108438827097,0.0,0.0,0.0,0.0001512963935965672,-0.0018592574633657932,-0.0,0.0,0.0,0.0,0.20000000298023224,-0.20000000298023224,-0.0021853316575288773,1495.0,1495.0,1495.0,1495.0,0.0,0.0,0.0,0.0,0.0,0.0,0.0,0.0,1495.0,1495.0,1495.0,1495.0,1.6457743644714355,2.883012535646214,0.4413220036606666,0.24643424193467492,0.007373292930424213,0.00046153797302395105,0.0
82,5,-1.6939222859946312e-06,5.666054221364902e-06,-1.1561596693354659e-05,-0.002212043385952711,-0.0002522700233384967,-0.004556153900921345,-0.030703604221343994,0.19381500780582428,-0.0019457716261968017,-3.9038506656652316e-05,0.00831600558012724,-0.002890377538278699,0.0,0.0,0.0,0.00031986297108232975,-0.002090682275593281,-0.0,0.0,0.0,0.0,0.20000000298023224,-0.20000000298023224,-0.00135486526414752,1495.0,1495.0,1495.0,1495.0,0.0,0.0,0.0,0.0,0.0,0.0,0.0,0.0,1495.0,1495.0,1495.0,1495.0,1.6484081745147705,2.8821754637291654,0.4412790581428289,0.24661577178389416,0.008304324932396412,0.0009773210622370243,0.0
89,7,1.584216079209e-05,-2.7005769879906438e-05,-5.160865839570761e-05,0.0012195126619189978,0.0038197108078747988,0.0029831859283149242,-0.030703604221343994,0.19381500780582428,-0.0019457716261968017,-3.9038506656652316e-05,0.00831600558012724,-0.002890377538278699,0.0,0.0,0.0,0.00031986297108232975,-0.002090682275593281,-0.0,0.0,0.0,0.0,0.20000000298023224,-0.20000000298023224,-0.00135486526414752,1495.0,1495.0,1495.0,1495.0,0.0,0.0,0.0,0.0,0.0,0.0,0.0,0.0,1495.0,1495.0,1495.0,1495.0,1.6484081745147705,2.8818967331933636,0.44262163700081014,0.24639883921934094,0.008304324932396412,0.0009773210622370243,0.0
94,5,1.7537360690766945e-05,-6.098039648350095e-06,-2.6198897103313357e-05,0.0006912289536558092,-0.000981043209321797,-0.001855897018685937,-0.030703604221343994,0.19381500780582428,-0.0019457716261968017,-3.9038506656652316e-05,0.00831600558012724,-0.002890377538278699,0.0,0.0,0.0,0.00031986297108232975,-0.002090682275593281,-0.0,0.0,0.0,0.0,0.20000000298023224,-0.20000000298023224,-0.00135486526414752,1495.0,1495.0,1495.0,1495.0,0.0,0.0,0.0,0.0,0.0,0.0,0.0,0.0,1495.0,1495.0,1495.0,1495.0,1.6484081745147705,2.8820454761100414,0.442295570307609,0.24652381401536982,0.008304324932396412,0.0009773210622370243,0.0
99,5,2.1909207134740427e-05,-2.116632640536409e-05,-5.502301792148501e-05,0.000801113317720592,0.0014157771365717053,0.0027165357023477554,-0.03071766160428524,0.19381459057331085,-0.001963379792869091,-0.0010795578127726912,0.005270250141620636,-0.0012928106589242816,0.0,0.0,0.0,0.0012006727047264576,0.0006812085048295557,-0.0,0.0,0.0,0.0,0.20000000298023224,-0.20000000298023224,-0.0016917572356760502,1495.0,1495.0,1495.0,1495.0,0.0,0.0,0.0,0.0,0.0,0.0,0.0,0.0,1495.0,1495.0,1495.0,1495.0,1.6380369663238525,2.882126258048703,0.44288915822242864,0.24624401975425023,-0.0026887801941484213,0.0036454966757446527,0.0
104,5,1.855667869676836e-05,-2.5899929823935963e-05,-7.098527566995472e-05,-8.185820479411632e-05,0.0011343430960550904,0.0030020850244909525,-0.03071766160428524,0.19381459057331085,-0.001963379792869091,-0.0010795578127726912,0.005270250141620636,-0.0012928106589242816,0.0,0.0,0.0,0.0012006727047264576,0.0006812085048295557,-0.0,0.0,0.0,0.0,0.20000000298023224,-0.20000000298023224,-0.0016917572356760502,1495.0,1495.0,1495.0,1495.0,0.0,0.0,0.0,0.0,0.0,0.0,0.0,0.0,1495.0,1495.0,1495.0,1495.0,1.6380369663238525,2.8833602501761098,0.4420031285358646,0.24595925116022405,-0.0026887801941484213,0.0036454966757446527,0.0
109,5,1.5189003534032963e-05,-7.4998765740019735e-06,-5.6284017773577943e-05,-0.0004368642985355109,-0.001754269003868103,-0.0005633167456835508,-0.0307083148509264,0.19378164410591125,-0.0019912593998014927,0.0023005830589681864,0.0038214651867747307,-0.00034476412110961974,0.0,0.0,0.0,-0.0014482325641438365,-5.185337067814544e-05,-0.0,0.0,0.0,0.0,0.20000000298023224,-0.20000000298023224,-0.0023583078291267157,1495.0,1495.0,1495.0,1495.0,0.0,0.0,0.0,0.0,0.0,0.0,0.0,0.0,1495.0,1495.0,1495.0,1495.0,1.6376879215240479,2.881430845231241,0.4424844083579584,0.2466402667997822,0.00020462542306631804,-0.004396202974021435,0.0
114,5,-1.1234682460781187e-05,-2.434108864690643e-06,-3.650387952802703e-05,-0.0033455879893153906,-0.0013095997273921967,-0.0025989431887865067,-0.0307083148509264,0.19378164410591125,-0.0019912593998014927,0.0023005830589681864,0.0038214651867747307,-0.00034476412110961974,0.0,0.0,0.0,-0.0014482325641438365,-5.185337067814544e-05,-0.0,0.0,0.0,0.0,0.20000000298023224,-0.20000000298023224,-0.0023583078291267157,1495.0,1495.0,1495.0,1495.0,0.0,0.0,0.0,0.0,0.0,0.0,0.0,0.0,1495.0,1495.0,1495.0,1495.0,1.6376879215240479,2.8793793533913634,0.4428078301575501,0.24733502211796904,0.00020462542306631804,-0.004396202974021435,0.0
120,5,1.4324436051538214e-05,2.3789739600488247e-07,-6.167248648125678e-05,0.0017288589151576161,-0.0008444806444458663,0.001980655826628208,-0.03070393018424511,0.19380702078342438,-0.0020038818474859,-0.0011659485753625631,0.009306495077908039,0.0004105019033886492,0.0,0.0,0.0,0.0015894864918664098,-0.0031474370043724775,-0.0,0.0,0.0,0.0,0.20000000298023224,-0.20000000298023224,-0.0021429662592709064,1495.0,1495.0,1495.0,1495.0,0.0,0.0,0.0,0.0,0.0,0.0,0.0,0.0,1495.0,1495.0,1495.0,1495.0,1.6623460054397583,2.8805640805451427,0.44384098418027496,0.24676267606974442,0.012607503682374954,0.004897635895758867,0.0
125,5,2.3647606212762184e-05,-3.257128628320061e-05,-9.307213622378185e-05,0.0018103240290656686,0.0035993095953017473,0.004560220055282116,-0.03070393018424511,0.19380702078342438,-0.0020038818474859,-0.0011659485753625631,0.009306495077908039,0.0004105019033886492,0.0,0.0,0.0,0.0015894864918664098,-0.0031474370043724775,-0.0,0.0,0.0,0.0,0.20000000298023224,-0.20000000298023224,-0.0021429662592709064,1495.0,1495.0,1495.0,1495.0,0.0,0.0,0.0,0.0,0.0,0.0,0.0,0.0,1495.0,1495.0,1495.0,1495.0,1.6623460054397583,2.884479329613654,0.4414775700237239,0.2456929132087537,0.012607503682374954,0.004897635895758867,0.0
130,5,2.7301681257085875e-05,-1.2259794857527595e-05,-8.312798308907077e-05,0.0011626186314970255,-0.0009976550936698914,0.0006307894946075976,-0.030710283666849136,0.19380520284175873,-0.001998885767534375,0.0016112898010760546,0.007254691328853369,0.0027678676415234804,0.0,0.0,0.0,-0.004425727762281895,0.0017223183531314135,-0.0,0.0,0.0,0.0,0.20000000298023224,-0.20000000298023224,-0.0019480836344882846,1495.0,1495.0,1495.0,1495.0,0.0,0.0,0.0,0.0,0.0,0.0,0.0,0.0,1495.0,1495.0,1495.0,1495.0,1.6672043800354004,2.8816601995649798,0.4434298709000768,0.24620433370809736,-0.006919101346284151,-0.013676642440259457,0.0
135,5,1.4767900211154483e-05,-5.516215878742514e-06,-6.670902803307399e-05,-0.001039006281644106,-0.0012082915054634213,-0.001717958366498351,-0.030710283666849136,0.19380520284175873,-0.001998885767534375,0.0016112898010760546,0.007254691328853369,0.0027678676415234804,0.0,0.0,0.0,-0.004425727762281895,0.0017223183531314135,-0.0,0.0,0.0,0.0,0.20000000298023224,-0.20000000298023224,-0.0019480836344882846,1495.0,1495.0,1495.0,1495.0,0.0,0.0,0.0,0.0,0.0,0.0,0.0,0.0,1495.0,1495.0,1495.0,1495.0,1.6672043800354004,2.8823964646005313,0.44278579546005153,0.24637498311324776,-0.006919101346284151,-0.013676642440259457,0.0
140,5,1.6400188542320393e-05,3.182242380717071e-07,-3.752017437363975e-05,-0.00021972779359202832,-0.001183449407108128,-0.004189846105873585,-0.030690263956785202,0.1937984675168991,-0.0019976277835667133,0.0017347602406516671,0.005207390058785677,0.00032742341863922775,0.0,0.0,0.0,0.0014789720298722386,-0.0009642718359827995,-0.0,0.0,0.0,0.0,0.20000000298023224,-0.20000000298023224,-0.004051846917718649,1495.0,1495.0,1495.0,1495.0,0.0,0.0,0.0,0.0,0.0,0.0,0.0,0.0,1495.0,1495.0,1495.0,1495.0,1.6417481899261475,2.88168353915616,0.44252994643284926,0.2462922663123847,0.003814673749729991,0.004500645212829113,0.0
145,5,1.4674609701614827e-05,-3.4030003007501364e-05,-4.872787030762993e-05,-0.0002949606569018215,0.0036484075244516134,-0.00033101486042141914,-0.030690263956785202,0.1937984675168991,-0.0019976277835667133,0.0017347602406516671,0.005207390058785677,0.00032742341863922775,0.0,0.0,0.0,0.0014789720298722386,-0.0009642718359827995,-0.0,0.0,0.0,0.0,0.20000000298023224,-0.20000000298023224,-0.004051846917718649,1495.0,1495.0,1495.0,1495.0,0.0,0.0,0.0,0.0,0.0,0.0,0.0,0.0,1495.0,1495.0,1495.0,1495.0,1.6417481899261475,2.881931430795776,0.4421820202588899,0.24564683793077965,0.003814673749729991,0.004500645212829113,0.0
150,5,2.283686444570776e-05,-4.0330887713935226e-05,-5.700914334738627e-05,0.0008614863036200404,0.002215469256043434,0.0008613467216491699,-0.030682260170578957,0.19380590319633484,-0.0020310506224632263,0.0013535295147448778,0.004939228296279907,-0.004675222095102072,0.0,0.0,0.0,-0.004498268943279982,-0.00025572310551069677,-0.0,0.0,0.0,0.0,0.20000000298023224,-0.20000000298023224,-0.0015663666417822242,1495.0,1495.0,1495.0,1495.0,0.0,0.0,0.0,0.0,0.0,0.0,0.0,0.0,1495.0,1495.0,1495.0,1495.0,1.6633795499801636,2.8825778109588813,0.4427153529370336,0.24576466059475235,0.0010249644983559847,-0.013868920505046844,0.0
155,5,1.6986025002552196e-05,-4.6996428864076734e-05,-8.864879055181518e-05,-0.000357506301952526,0.001686052419245243,0.004141296725720167,-0.030682260170578957,0.19380590319633484,-0.0020310506224632263,0.0013535295147448778,0.004939228296279907,-0.004675222095102072,0.0,0.0,0.0,-0.004498268943279982,-0.00025572310551069677,-0.0,0.0,0.0,0.0,0.20000000298023224,-0.20000000298023224,-0.0015663666417822242,1495.0,1495.0,1495.0,1495.0,0.0,0.0,0.0,0.0,0.0,0.0,0.0,0.0,1495.0,1495.0,1495.0,1495.0,1.6633795499801636,2.882936451445457,0.44379111062825427,0.24614477053351566,0.0010249644983559847,-0.013868920505046844,0.0
160,5,2.8320173441898078e-05,-5.733573198085651e-05,-0.00010139861842617393,0.0012170952977612615,0.0019151377491652966,0.0031864980701357126,-0.03067202866077423,0.19379636645317078,-0.0020348692778497934,-0.0008039893582463264,0.013090014457702637,0.004462854936718941,0.0,0.0,0.0,-0.0021599470637738705,-0.000314735749270767,-0.0,0.0,0.0,0.0,0.20000000298023224,-0.20000000298023224,-0.0019660990219563246,1495.0,1495.0,1495.0,1495.0,0.0,0.0,0.0,0.0,0.0,0.0,0.0,0.0,1495.0,1495.0,1495.0,1495.0,1.643911361694336,2.8840499593441544,0.4436178345826374,0.24548662276306657,0.0012467384804040194,-0.006581569090485573,0.0
165,5,2.6577055905363522e-05,-5.577924457611516e-05,-0.00011113646905869246,0.00027766413404606283,0.000579276354983449,0.002443141071125865,-0.03067202866077423,0.19379636645317078,-0.0020348692778497934,-0.0008039893582463264,0.013090014457702637,0.004462854936718941,0.0,0.0,0.0,-0.0021599470637738705,-0.000314735749270767,-0.0,0.0,0.0,0.0,0.20000000298023224,-0.20000000298023224,-0.0019660990219563246,1495.0,1495.0,1495.0,1495.0,0.0,0.0,0.0,0.0,0.0,0.0,0.0,0.0,1495.0,1495.0,1495.0,1495.0,1.643911361694336,2.883647338172101,0.4434104324000143,0.24567838899873967,0.0012467384804040194,-0.006581569090485573,0.0
170,5,2.853573823813349e-05,-1.8832368368748575e-05,-0.00010719956480897963,0.0003461075248196721,-0.004201914649456739,0.0005048280581831932,-0.030684160068631172,0.1937636286020279,-0.0020244598854333162,-0.00218033604323864,0.010744047351181507,0.0011519658146426082,0.0,0.0,0.0,-0.0008191090309992433,0.0003018705465365201,-0.0,0.0,0.0,0.0,0.20000000298023224,-0.20000000298023224,-0.0013816531281918287,1495.0,1495.0,1495.0,1495.0,0.0,0.0,0.0,0.0,0.0,0.0,0.0,0.0,1495.0,1495.0,1495.0,1495.0,1.633209466934204,2.881676389431384,0.4447778010355651,0.24619038136724264,-0.0011879943776875734,-0.0024796596262604,0.0
176,5,3.1194922485155985e-05,-4.603096022037789e-05,-0.00011572866060305387,0.0004575448692776263,0.001583065022714436,0.0012254220200702548,-0.030684160068631172,0.1937636286020279,-0.0020244598854333162,-0.00218033604323864,0.010744047351181507,0.0011519658146426082,0.0,0.0,0.0,-0.0008191090309992433,0.0003018705465365201,-0.0,0.0,0.0,0.0,0.20000000298023224,-0.20000000298023224,-0.0013816531281918287,1495.0,1495.0,1495.0,1495.0,0.0,0.0,0.0,0.0,0.0,0.0,0.0,0.0,1495.0,1495.0,1495.0,1495.0,1.633209466934204,2.882765693867025,0.44451472371739176,0.24546269673218976,-0.0011879943776875734,-0.0024796596262604,0.0
181,5,4.171909313299693e-05,-5.4595388064626604e-05,-0.0001419425243511796,0.00017720882897265255,0.0007015358423814178,0.0030004135333001614,-0.03069286234676838,0.19379228353500366,-0.0020063419360667467,0.00022849306697025895,-0.003987913951277733,0.0026693542022258043,0.0,0.0,0.0,-0.0020323351491242647,0.0004768121289089322,-0.0,0.0,0.0,0.0,0.20000000298023224,-0.20000000298023224,-0.00154460733756423,1495.0,1495.0,1495.0,1495.0,0.0,0.0,0.0,0.0,0.0,0.0,0.0,0.0,1495.0,1495.0,1495.0,1495.0,1.643297791481018,2.8834102161533712,0.445517474799702,0.24541314195488662,-0.001888054539449513,-0.006190412677824497,0.0
186,5,4.171909313299693e-05,-5.4595388064626604e-05,-0.0001419425243511796,0.00017720882897265255,0.0007015358423814178,0.0030004135333001614,-0.03069286234676838,0.19379228353500366,-0.0020063419360667467,0.00022849306697025895,-0.003987913951277733,0.0026693542022258043,0.0,0.0,0.0,-0.0020323351491242647,0.0004768121289089322,-0.0,0.0,0.0,0.0,0.20000000298023224,-0.20000000298023224,-0.00154460733756423,1495.0,1495.0,1495.0,1495.0,0.0,0.0,0.0,0.0,0.0,0.0,0.0,0.0,1495.0,1495.0,1495.0,1495.0,1.643297791481018,2.8834102161533712,0.445517474799702,0.24541314195488662,-0.001888054539449513,-0.006190412677824497,0.0
191,5,4.153674308327027e-05,-5.5246167903533205e-05,-0.0001083926617866382,4.9001697334460914e-05,0.0003587082901503891,-0.0028258180245757103,-0.030694017186760902,0.19384580850601196,-0.0019956501200795174,0.0023909995798021555,0.004085652995854616,0.0006938360747881234,0.0,0.0,0.0,-0.0009680145303718746,0.0002272562705911696,-0.0,0.0,0.0,0.0,0.20000000298023224,-0.20000000298023224,-0.001797246397472918,1495.0,1495.0,1495.0,1495.0,0.0,0.0,0.0,0.0,0.0,0.0,0.0,0.0,1495.0,1495.0,1495.0,1495.0,1.6340665817260742,2.882930731671104,0.4442816301216975,0.24538761022469197,-0.0008948234026320279,-0.0029319736640900373,0.0
196,5,4.305349648348056e-05,-5.514999429578893e-05,-0.00010655236837919801,-0.00038140162359923124,-0.0006752980989404023,-0.001535289571620524,-0.030694017186760902,0.19384580850601196,-0.0019956501200795174,0.0023909995798021555,0.004085652995854616,0.0006938360747881234,0.0,0.0,0.0,-0.0009680145303718746,0.0002272562705911696,-0.0,0.0,0.0,0.0,0.20000000298023224,-0.20000000298023224,-0.001797246397472918,1495.0,1495.0,1495.0,1495.0,0.0,0.0,0.0,0.0,0.0,0.0,0.0,0.0,1495.0,1495.0,1495.0,1495.0,1.6340665817260742,2.8829290237647642,0.4445787575426045,0.24583270273723082,-0.0008948234026320279,-0.0029319736640900373,0.0
201,5,4.305349648348056e-05,-5.514999429578893e-05,-0.00010655236837919801,-0.00038140162359923124,-0.0006752980989404023,-0.001535289571620524,-0.030694017186760902,0.19384580850601196,-0.0019956501200795174,0.0023909995798021555,0.004085652995854616,0.0006938360747881234,0.0,0.0,0.0,0.0007362206233665347,-0.0003031213709618896,-0.0,0.0,0.0,0.0,0.20000000298023224,-0.20000000298023224,-0.0025042861234396696,1495.0,1495.0,1495.0,1495.0,0.0,0.0,0.0,0.0,0.0,0.0,0.0,0.0,1495.0,1495.0,1495.0,1495.0,1.6326055526733398,2.8829290237647642,0.4445787575426045,0.24583270273723082,0.0011924759019166231,0.002227910328656435,0.0
206,5,3.290953827672638e-05,-5.834295734530315e-05,-8.020015229703858e-05,-0.0013250048505142331,0.00031923738424666226,-0.0013541777152568102,-0.03071887418627739,0.19385793805122375,-0.001997305080294609,-0.0010753722162917256,0.007769793272018433,-0.0013757925480604172,0.0,0.0,0.0,0.0007362206233665347,-0.0003031213709618896,-0.0,0.0,0.0,0.0,0.20000000298023224,-0.20000000298023224,-0.0025042861234396696,1495.0,1495.0,1495.0,1495.0,0.0,0.0,0.0,0.0,0.0,0.0,0.0,0.0,1495.0,1495.0,1495.0,1495.0,1.6326055526733398,2.8822365791447027,0.4445968145798541,0.2455980536018609,0.0011924759019166231,0.002227910328656435,0.0
211,5,4.3983120121993124e-05,-4.7296467528212816e-05,-4.00421631638892e-05,0.0007988278521224856,-0.0011978837428614497,-0.0053606294095516205,-0.03071887418627739,0.19385793805122375,-0.001997305080294609,-0.0010753722162917256,0.007769793272018433,-0.0013757925480604172,0.0,0.0,0.0,-0.0005000070086680353,-0.0012117254082113504,-0.0,0.0,0.0,0.0,0.20000000298023224,-0.20000000298023224,-0.0025042861234396696,1495.0,1495.0,1495.0,1495.0,0.0,0.0,0.0,0.0,0.0,0.0,0.0,0.0,1495.0,1495.0,1495.0,1495.0,1.6393702030181885,2.8840715382673308,0.4423612527734838,0.24518643296983278,0.004786664620041847,-0.0015193632571026683,0.0
216,5,3.78273289243225e-05,-4.898666520603001e-05,-6.984685023780912e-05,-0.00041916369809769094,-0.00027632975252345204,0.0014323103241622448,-0.030702732503414154,0.19392549991607666,-0.0019959835335612297,0.0015006294706836343,-0.0018130034441128373,-0.0030850095208734274,0.0,0.0,0.0,-0.0005000070086680353,-0.0012117254082113504,-0.0,0.0,0.0,0.0,0.20000000298023224,-0.20000000298023224,-0.002111314097419381,1495.0,1495.0,1495.0,1495.0,0.0,0.0,0.0,0.0,0.0,0.0,0.0,0.0,1495.0,1495.0,1495.0,1495.0,1.6393702030181885,2.881536627010953,0.44430554008446993,0.2456737254378674,0.004786664620041847,-0.0015193632571026683,0.0
221,5,3.519021993270144e-05,-4.7223715228028595e-05,-8.784696547081694e-05,-0.00048411887837573886,-0.0003220859507564455,0.0027329386211931705,-0.030702732503414154,0.19392549991607666,-0.0019959835335612297,0.0015006294706836343,-0.0018130034441128373,-0.0030850095208734274,0.0,0.0,0.0,0.0002533025690354407,-0.00034691704786382616,-0.0,0.0,0.0,0.0,0.20000000298023224,-0.20000000298023224,-0.002111314097419381,1495.0,1495.0,1495.0,1495.0,0.0,0.0,0.0,0.0,0.0,0.0,0.0,0.0,1495.0,1495.0,1495.0,1495.0,1.6299883127212524,2.8831322911901336,0.44405667915581876,0.24526187912098227,0.0013625799911096692,0.0007653016364201903,0.0
226,5,3.979590110247955e-05,-6.660204235231504e-05,-0.00014669202209915966,0.00035903454408980906,0.0021965650375932455,0.008154582232236862,-0.03071284480392933,0.19397535920143127,-0.001974206417798996,0.00463850237429142,0.009370691142976284,3.442023808020167e-05,0.0,0.0,0.0,0.0002533025690354407,-0.00034691704786382616,-0.0,0.0,0.0,0.0,0.20000000298023224,-0.20000000298023224,-0.0012097310973331332,1495.0,1495.0,1495.0,1495.0,0.0,0.0,0.0,0.0,0.0,0.0,0.0,0.0,1495.0,1495.0,1495.0,1495.0,1.6299883127212524,2.883778598944936,0.4443791045913555,0.24536035870960582,0.0013625799911096692,0.0007653016364201903,0.0
231,5,3.417061816435307e-05,-3.830598507192917e-05,-0.00010215077782049775,-0.0005314205191098154,-0.00251690112054348,-0.0020831171423196793,-0.03071284480392933,0.19397535920143127,-0.001974206417798996,0.00463850237429142,0.009370691142976284,3.442023808020167e-05,0.0,0.0,0.0,-0.0028145730029791594,0.0003941637696698308,-0.0,0.0,0.0,0.0,0.20000000298023224,-0.20000000298023224,-0.0012097310973331332,1495.0,1495.0,1495.0,1495.0,0.0,0.0,0.0,0.0,0.0,0.0,0.0,0.0,1495.0,1495.0,1495.0,1495.0,1.6494513750076294,2.8800110800391785,0.445955216223382,0.24643133725739252,-0.0015666298568248749,-0.0086051719263196,0.0
236,5,3.989523247582838e-05,-4.282266309019178e-05,-0.000118709409434814,0.0004743855679407716,-0.0004647591267712414,0.001153788878582418,-0.03067643940448761,0.19395840167999268,-0.0019678818061947823,0.002181578893214464,0.008993304334580898,-0.002015401143580675,0.0,0.0,0.0,-0.0028145730029791594,0.0003941637696698308,-0.0,0.0,0.0,0.0,0.20000000298023224,-0.20000000298023224,-0.002115396549925208,1495.0,1495.0,1495.0,1495.0,0.0,0.0,0.0,0.0,0.0,0.0,0.0,0.0,1495.0,1495.0,1495.0,1495.0,1.6494513750076294,2.882462622146094,0.44463737177509965,0.24565934168075293,-0.0015666298568248749,-0.0086051719263196,0.0
241,5,2.7511248845257796e-05,-3.869288775604218e-05,-7.94178995420225e-05,-0.001296323724091053,-0.0006814763764850795,-0.004253465216606855,-0.03067643940448761,0.19395840167999268,-0.0019678818061947823,0.002181578893214464,0.008993304334580898,-0.002015401143580675,0.0,0.0,0.0,0.0004974944167770445,0.0005083800642751157,-0.0,0.0,0.0,0.0,0.20000000298023224,-0.20000000298023224,-0.002115396549925208,1495.0,1495.0,1495.0,1495.0,0.0,0.0,0.0,0.0,0.0,0.0,0.0,0.0,1495.0,1495.0,1495.0,1495.0,1.6325408220291138,2.8803723097770053,0.445891051766541,0.245985703226071,-0.00199988204985857,0.0015054307878017426,0.0
246,5,2.9544024073402397e-05,-4.637549500330351e-05,-0.00010650240437826142,-0.00027459647390060127,0.0006493221153505147,0.0015487546334043145,-0.030658425763249397,0.193950816988945,-0.0020011295564472675,-0.0012423202861100435,0.006134090479463339,-0.0010520198848098516,0.0,0.0,0.0,0.0004974944167770445,0.0005083800642751157,-0.0,0.0,0.0,0.0,0.20000000298023224,-0.20000000298023224,-0.003055533627048135,1495.0,1495.0,1495.0,1495.0,0.0,0.0,0.0,0.0,0.0,0.0,0.0,0.0,1495.0,1495.0,1495.0,1495.0,1.6325408220291138,2.8830408899079227,0.44376523053425626,0.2452190907911713,-0.00199988204985857,0.0015054307878017426,0.0
252,5,4.379771780804731e-05,-5.947257886873558e-05,-9.807446622289717e-05,0.001600604853592813,0.0018313790205866098,-0.00039185062632896006,-0.030658425763249397,0.193950816988945,-0.0020011295564472675,-0.0012423202861100435,0.006134090479463339,-0.0010520198848098516,0.0,0.0,0.0,-0.000889161485247314,-0.00021992853726260364,-0.0,0.0,0.0,0.0,0.20000000298023224,-0.20000000298023224,-0.003055533627048135,1495.0,1495.0,1495.0,1495.0,0.0,0.0,0.0,0.0,0.0,0.0,0.0,0.0,1495.0,1495.0,1495.0,1495.0,1.6334218978881836,2.8814992025714496,0.44511923090594296,0.24581690452751975,0.0008656287682242692,-0.0026920768432319164,0.0
257,5,3.824417944997549e-05,-6.664576358161867e-05,-9.9403434433043e-05,-2.61829136434244e-05,0.001593333319760859,2.7355749807611573e-06,-0.030666939914226532,0.19399882853031158,-0.001981146167963743,0.002219303511083126,-0.0001721089647617191,0.002418238203972578,0.0,0.0,0.0,-0.000889161485247314,-0.00021992853726260364,-0.0,0.0,0.0,0.0,0.20000000298023224,-0.20000000298023224,-0.0016912572318688035,1495.0,1495.0,1495.0,1495.0,0.0,0.0,0.0,0.0,0.0,0.0,0.0,0.0,1495.0,1495.0,1495.0,1495.0,1.6334218978881836,2.8818674057634697,0.44493514128866446,0.24529555647585577,0.0008656287682242692,-0.0026920768432319164,0.0
262,5,3.97308795072604e-05,-8.369568240595981e-05,-9.394248627359048e-05,0.0001679311244515702,0.0026833240408450365,-0.0006542199407704175,-0.030666939914226532,0.19399882853031158,-0.001981146167963743,0.002219303511083126,-0.0001721089647617191,0.002418238203972578,0.0,0.0,0.0,-0.0020831413567066193,2.8772212317562662e-05,-0.0,0.0,0.0,0.0,0.20000000298023224,-0.20000000298023224,-0.0016912572318688035,1495.0,1495.0,1495.0,1495.0,0.0,0.0,0.0,0.0,0.0,0.0,0.0,0.0,1495.0,1495.0,1495.0,1495.0,1.642953872680664,2.882991080820723,0.4442950436188803,0.24550586001127475,-0.00011390678264433518,-0.006343838293105364,0.0
267,5,1.4452075447479729e-05,-6.150355329737067e-05,-6.694062176393345e-05,-0.002966284053400159,-0.001589725841768086,-0.0035019111819565296,-0.030656281858682632,0.1940079927444458,-0.001995942322537303,-0.0009966910583898425,0.008273543789982796,0.0024697722401469946,0.0,0.0,0.0,-0.0020831413567066193,2.8772212317562662e-05,-0.0,0.0,0.0,0.0,0.20000000298023224,-0.20000000298023224,-0.002442697063088417,1495.0,1495.0,1495.0,1495.0,0.0,0.0,0.0,0.0,0.0,0.0,0.0,0.0,1495.0,1495.0,1495.0,1495.0,1.642953872680664,2.8814039303909977,0.4456381068714069,0.2459470915607791,-0.00011390678264433518,-0.006343838293105364,0.0
272,5,2.1032299628132023e-05,-6.175771704874933e-05,-8.127291221171618e-05,-0.00039688684046268463,-0.0006053909310139716,0.00031911040423437953,-0.030656281858682632,0.1940079927444458,-0.001995942322537303,-0.0009966910583898425,0.008273543789982796,0.0024697722401469946,0.0,0.0,0.0,0.0018275142647325993,-0.0027617637533694506,-0.0,0.0,0.0,0.0,0.20000000298023224,-0.20000000298023224,-0.002442697063088417,1495.0,1495.0,1495.0,1495.0,0.0,0.0,0.0,0.0,0.0,0.0,0.0,0.0,1495.0,1495.0,1495.0,1495.0,1.6592870950698853,2.8810292530254564,0.4453137934463727,0.24603998855126502,0.0110422782599926,0.005620700307190418,0.0
277,5,3.497279976727441e-05,-6.330561154754832e-05,-0.0001216034434037283,0.001514105242677033,-5.640898598358035e-05,0.004967308137565851,-0.030668869614601135,0.19395551085472107,-0.0019561361987143755,-0.0003274386690463871,0.0067821224220097065,0.006357097066938877,0.0,0.0,0.0,0.0018275142647325993,-0.0027617637533694506,-0.0,0.0,0.0,0.0,0.20000000298023224,-0.20000000298023224,-0.0010621052933856845,1495.0,1495.0,1495.0,1495.0,0.0,0.0,0.0,0.0,0.0,0.0,0.0,0.0,1495.0,1495.0,1495.0,1495.0,1.6592870950698853,2.882179160115327,0.44486215351497366,0.24591112731532228,0.0110422782599926,0.005620700307190418,0.0
282,5,4.909454582957551e-05,-6.049824514775537e-05,-0.00011863332474604249,0.002300251740962267,-0.00035944729461334646,0.0016305086901411414,-0.030668869614601135,0.19395551085472107,-0.0019561361987143755,-0.0003274386690463871,0.0067821224220097065,0.006357097066938877,0.0,0.0,0.0,-4.580106906360015e-05,0.0014844273682683706,-0.0,0.0,0.0,0.0,0.20000000298023224,-0.20000000298023224,-0.0010621052933856845,1495.0,1495.0,1495.0,1495.0,0.0,0.0,0.0,0.0,0.0,0.0,0.0,0.0,1495.0,1495.0,1495.0,1495.0,1.6416771411895752,2.8821416435152454,0.4450210163266288,0.24558225332541286,-0.005872167646884918,-0.00013937083713244647,0.0
287,5,3.375483720446937e-05,-4.4414540752768517e-05,-0.00010437952005304396,-0.000920664519071579,-0.0020738234743475914,-0.001058252528309822,-0.03067963570356369,0.1939512938261032,-0.0019600731320679188,-0.005014380905777216,0.0073885228484869,-0.007751174736768007,0.0,0.0,0.0,-4.580106906360015e-05,0.0014844273682683706,-0.0,0.0,0.0,0.0,0.20000000298023224,-0.20000000298023224,-0.0035105186980217695,1495.0,1495.0,1495.0,1495.0,0.0,0.0,0.0,0.0,0.0,0.0,0.0,0.0,1495.0,1495.0,1495.0,1495.0,1.6416771411895752,2.8813958163835576,0.4443103847120166,0.2459896250677418,-0.005872167646884918,-0.00013937083713244647,0.0
292,5,3.364175063325092e-05,-3.222710802219808e-05,-0.00011068797903135419,-0.00038183617289178073,-0.0022920214105397463,0.0003337138332426548,-0.03067963570356369,0.1939512938261032,-0.0019600731320679188,-0.005014380905777216,0.0073885228484869,-0.007751174736768007,0.0,0.0,0.0,0.0024649810511618853,-0.0008221496245823801,-0.0,0.0,0.0,0.0,0.20000000298023224,-0.20000000298023224,-0.0035105186980217695,1495.0,1495.0,1495.0,1495.0,0.0,0.0,0.0,0.0,0.0,0.0,0.0,0.0,1495.0,1495.0,1495.0,1495.0,1.6479921340942383,2.8834416994764758,0.4426708974973861,0.2452912890388616,0.0032647994812577963,0.007529678754508495,0.0
297,5,4.9182301154360175e-05,-3.4105905797332525e-05,-0.0001088350109057501,0.0017121315468102694,-0.0006913528777658939,-8.887048898031935e-05,-0.030679738149046898,0.19400128722190857,-0.0019592808093875647,0.00025410388479940593,0.00241746730171144,-0.000594629964325577,0.0,0.0,0.0,0.0024649810511618853,-0.0008221496245823801,-0.0,0.0,0.0,0.0,0.20000000298023224,-0.20000000298023224,-0.0019358234712854028,1495.0,1495.0,1495.0,1495.0,0.0,0.0,0.0,0.0,0.0,0.0,0.0,0.0,1495.0,1495.0,1495.0,1495.0,1.6479921340942383,2.884288457483732,0.44302327843571765,0.2453975825387188,0.0032647994812577963,0.007529678754508495,0.0
302,5,4.6839926653774455e-05,-4.0710012399358675e-05,-0.00010734904935816303,0.00040376788820140064,0.0005159518332220614,-0.00021386427397374064,-0.030679738149046898,0.19400128722190857,-0.0019592808093875647,0.00025410388479940593,0.00241746730171144,-0.000594629964325577,0.0,0.0,0.0,0.0007877533207647502,0.001688534626737237,-0.0,0.0,0.0,0.0,0.20000000298023224,-0.20000000298023224,-0.0019358234712854028,1495.0,1495.0,1495.0,1495.0,0.0,0.0,0.0,0.0,0.0,0.0,0.0,0.0,1495.0,1495.0,1495.0,1495.0,1.645026445388794,2.883123442606401,0.44338868184443536,0.24557009798447646,-0.006693209055811167,0.0024019922129809856,0.0
307,5,2.622014108055737e-05,-4.1233139199903235e-05,-5.621305899694562e-05,-0.002312866970896721,0.0002691558329388499,-0.0062218643724918365,-0.030689500272274017,0.1940259486436844,-0.0019596992060542107,0.002738632494583726,0.01040478516370058,-7.579093653475866e-05,0.0,0.0,0.0,0.0007877533207647502,0.001688534626737237,-0.0,0.0,0.0,0.0,0.20000000298023224,-0.20000000298023224,-0.0028275693766772747,1495.0,1495.0,1495.0,1495.0,0.0,0.0,0.0,0.0,0.0,0.0,0.0,0.0,1495.0,1495.0,1495.0,1495.0,1.645026445388794,2.8802090210198448,0.44457223783837235,0.2464542095126664,-0.006693209055811167,0.0024019922129809856,0.0
312,5,3.638805355876684e-05,-5.17404405400157e-05,-7.497964543290436e-05,0.00029500245000235736,0.0013685383601114154,-0.00023675481497775763,-0.030689500272274017,0.1940259486436844,-0.0019596992060542107,0.002738632494583726,0.01040478516370058,-7.579093653475866e-05,0.0,0.0,0.0,-0.00040542229544371367,-0.0021457800175994635,-0.0,0.0,0.0,0.0,0.20000000298023224,-0.20000000298023224,-0.0028275693766772747,1495.0,1495.0,1495.0,1495.0,0.0,0.0,0.0,0.0,0.0,0.0,0.0,0.0,1495.0,1495.0,1495.0,1495.0,1.6490966081619263,2.8824614868987832,0.4430601078791919,0.24558018733422185,0.008526735939085484,-0.0012392594944685698,0.0
318,5,3.874679532600567e-05,-5.7747496612137184e-05,-7.203060522442684e-05,0.00040104996878653765,0.001268262043595314,-0.0004485868557821959,-0.030688369646668434,0.19399775564670563,-0.001967743970453739,-0.0006718456279486418,0.009969720616936684,-0.0010812848340719938,0.0,0.0,0.0,-0.00040542229544371367,-0.0021457800175994635,-0.0,0.0,0.0,0.0,0.20000000298023224,-0.20000000298023224,-0.0028173013124614954,1495.0,1495.0,1495.0,1495.0,0.0,0.0,0.0,0.0,0.0,0.0,0.0,0.0,1495.0,1495.0,1495.0,1495.0,1.6490966081619263,2.882768865499576,0.44227780786529336,0.2453587019527208,0.008526735939085484,-0.0012392594944685698,0.0
323,5,3.853033558698371e-05,-7.518089114455506e-05,-0.0001068673882400617,0.00013444504293147475,0.002599312225356698,0.004000979010015726,-0.030688369646668434,0.19399775564670563,-0.001967743970453739,-0.0006718456279486418,0.009969720616936684,-0.0010812848340719938,0.0,0.0,0.0,-0.0016698361141607165,0.0004350380622781813,-0.0,0.0,0.0,0.0,0.20000000298023224,-0.20000000298023224,-0.0028173013124614954,1495.0,1495.0,1495.0,1495.0,0.0,0.0,0.0,0.0,0.0,0.0,0.0,0.0,1495.0,1495.0,1495.0,1495.0,1.640287160873413,2.880599571205635,0.44472522482180094,0.24619293193301045,-0.0017194851534441113,-0.005076938774436712,0.0
328,5,3.5845721868099645e-05,-6.384264270309359e-05,-9.473864338360727e-05,-0.00026837564655579627,-0.0003208651323802769,0.00014494232891593128,-0.030686957761645317,0.1940191239118576,-0.001988338539376855,-0.0024070998188108206,0.0032949449960142374,-0.0014298042515292764,0.0,0.0,0.0,-0.0016698361141607165,0.0004350380622781813,-0.0,0.0,0.0,0.0,0.20000000298023224,-0.20000000298023224,-0.0018322961404919624,1495.0,1495.0,1495.0,1495.0,0.0,0.0,0.0,0.0,0.0,0.0,0.0,0.0,1495.0,1495.0,1495.0,1495.0,1.640287160873413,2.882573357720427,0.4424128789533992,0.24578699444950677,-0.0017194851534441113,-0.005076938774436712,0.0
333,5,2.692790985747706e-05,-4.906546018901281e-05,-0.00010202395060332492,-0.001177487662062049,-0.0019016077276319265,0.000932213559281081,-0.030686957761645317,0.1940191239118576,-0.001988338539376855,-0.0024070998188108206,0.0032949449960142374,-0.0014298042515292764,0.0,0.0,0.0,0.0002810370933730155,-0.00020552029309328645,-0.0,0.0,0.0,0.0,0.20000000298023224,-0.20000000298023224,-0.0018322961404919624,1495.0,1495.0,1495.0,1495.0,0.0,0.0,0.0,0.0,0.0,0.0,0.0,0.0,1495.0,1495.0,1495.0,1495.0,1.6289238929748535,2.8821381523197793,0.4438316251973311,0.24616833517723707,0.0008066913578659296,0.0008485413272865117,0.0
338,5,2.8946211386937648e-05,-4.527321652858518e-05,-0.0001382754126098007,-0.00022879887546878308,-0.0012157121673226357,0.004723061807453632,-0.030693084001541138,0.1940242499113083,-0.00197215867228806,-0.0017085109138861299,0.011874785646796227,-0.002537488704547286,0.0,0.0,0.0,0.0002810370933730155,-0.00020552029309328645,-0.0,0.0,0.0,0.0,0.20000000298023224,-0.20000000298023224,-0.0022267319727689028,1495.0,1495.0,1495.0,1495.0,0.0,0.0,0.0,0.0,0.0,0.0,0.0,0.0,1495.0,1495.0,1495.0,1495.0,1.6289238929748535,2.8835400648259895,0.4438782884423965,0.2457351414307549,0.0008066913578659296,0.0008485413272865117,0.0
343,5,3.5843346267938614e-05,-2.3021264496492222e-05,-9.660899377195165e-05,0.000736136338673532,-0.0031565194949507713,-0.003110746154561639,-0.030693084001541138,0.1940242499113083,-0.00197215867228806,-0.0017085109138861299,0.011874785646796227,-0.002537488704547286,0.0,0.0,0.0,0.0014186713378876448,-0.0001764136686688289,-0.0,0.0,0.0,0.0,0.20000000298023224,-0.20000000298023224,-0.0022267319727689028,1495.0,1495.0,1495.0,1495.0,0.0,0.0,0.0,0.0,0.0,0.0,0.0,0.0,1495.0,1495.0,1495.0,1495.0,1.637582540512085,2.8825744708868264,0.443830440824506,0.24590216004678936,0.0006961244507692754,0.004306191112846136,0.0
348,5,2.8189600925543346e-05,-1.5529127267654985e-05,-0.00010799578740261495,-0.0006239947979338467,-0.0021616641897708178,0.00012211629655212164,-0.030697237700223923,0.19399809837341309,-0.0019885580986738205,-0.00037644809344783425,0.015840740874409676,-0.0015527417417615652,0.0,0.0,0.0,0.0014186713378876448,-0.0001764136686688289,-0.0,0.0,0.0,0.0,0.20000000298023224,-0.20000000298023224,-0.002752973698079586,1495.0,1495.0,1495.0,1495.0,0.0,0.0,0.0,0.0,0.0,0.0,0.0,0.0,1495.0,1495.0,1495.0,1495.0,1.637582540512085,2.8821070965613758,0.44239925235719424,0.2464664716147336,0.0006961244507692754,0.004306191112846136,0.0
353,5,3.386127718840726e-05,-1.989509655686561e-05,-9.39254168770276e-05,0.00043100336915813386,-0.0003407492768019438,-0.001639597350731492,-0.030697237700223923,0.19399809837341309,-0.0019885580986738205,-0.00037644809344783425,0.015840740874409676,-0.0015527417417615652,0.0,0.0,0.0,0.0026240930892527103,-0.0005494281649589539,-0.0,0.0,0.0,0.0,0.20000000298023224,-0.20000000298023224,-0.002752973698079586,1495.0,1495.0,1495.0,1495.0,0.0,0.0,0.0,0.0,0.0,0.0,0.0,0.0,1495.0,1495.0,1495.0,1495.0,1.648267388343811,2.882198450393454,0.4418790041306209,0.24609257158404524,0.0021821719128638506,0.008017049171030521,0.0
358,5,3.878009374602698e-05,-1.6267038517980836e-05,-6.233945168787614e-05,0.0007626591250300407,-0.0005716666346415877,-0.004446154925972223,-0.030702896416187286,0.19397953152656555,-0.00199622823856771,2.757160473265685e-05,0.007663594093173742,-0.002855174243450165,0.0,0.0,0.0,0.0026240930892527103,-0.0005494281649589539,-0.0,0.0,0.0,0.0,0.20000000298023224,-0.20000000298023224,-0.0029424612876027822,1495.0,1495.0,1495.0,1495.0,0.0,0.0,0.0,0.0,0.0,0.0,0.0,0.0,1495.0,1495.0,1495.0,1495.0,1.648267388343811,2.8830128449153034,0.4405571484703266,0.2460087401539721,0.0021821719128638506,0.008017049171030521,0.0
363,5,3.8238580600591376e-05,-2.147736267943401e-05,-4.884529334958643e-05,0.0002400823141215369,0.00039657222805544734,-0.0033977613784372807,-0.030702896416187286,0.19397953152656555,-0.00199622823856771,2.757160473265685e-05,0.007663594093173742,-0.002855174243450165,0.0,0.0,0.0,0.0006762614939361811,0.0007804284687153995,-0.0,0.0,0.0,0.0,0.20000000298023224,-0.20000000298023224,-0.0029424612876027822,1495.0,1495.0,1495.0,1495.0,0.0,0.0,0.0,0.0,0.0,0.0,0.0,0.0,1495.0,1495.0,1495.0,1495.0,1.635778784751892,2.882689939336075,0.44045703996284336,0.24599263743107413,-0.0030761638190597296,0.002050443086773157,0.0
368,5,4.298075509723276e-05,-4.541176531347446e-05,-5.605500700767152e-05,0.0006650937139056623,0.003030757186934352,-0.0004939388600178063,-0.03071017749607563,0.194030299782753,-0.0020202763844281435,0.0022088447585701942,0.002199889160692692,-0.0040518236346542835,0.0,0.0,0.0,0.0006762614939361811,0.0007804284687153995,-0.0,0.0,0.0,0.0,0.20000000298023224,-0.20000000298023224,-0.0026474774349480867,1495.0,1495.0,1495.0,1495.0,0.0,0.0,0.0,0.0,0.0,0.0,0.0,0.0,1495.0,1495.0,1495.0,1495.0,1.635778784751892,2.882327717931534,0.4410492869949425,0.2461037090118787,-0.0030761638190597296,0.002050443086773157,0.0
373,5,7.189913958427496e-06,-2.9946175345685333e-05,-3.728158844751306e-05,-0.004028863273561001,-0.0006435681134462357,-0.002450385829433799,-0.03071017749607563,0.194030299782753,-0.0020202763844281435,0.0022088447585701942,0.002199889160692692,-0.0040518236346542835,0.0,0.0,0.0,-0.0037806290201842785,0.0006841889698989689,-0.0,0.0,0.0,0.0,0.20000000298023224,-0.20000000298023224,-0.0026474774349480867,1495.0,1495.0,1495.0,1495.0,0.0,0.0,0.0,0.0,0.0,0.0,0.0,0.0,1495.0,1495.0,1495.0,1495.0,1.658065915107727,2.8790476999798,0.44336337660393105,0.24748336432772683,-0.0027335474733263254,-0.011619101278483868,0.0
378,5,1.7240525266970508e-05,-4.7519304644083604e-05,-6.321612454485148e-05,-0.00040547200478613377,0.0018513482064008713,0.0021319901570677757,-0.030705368146300316,0.19401563704013824,-0.0020581420976668596,-0.0006065675988793373,0.0063542891293764114,-0.002706709550693631,0.0,0.0,0.0,-0.0037806290201842785,0.0006841889698989689,-0.0,0.0,0.0,0.0,0.20000000298023224,-0.20000000298023224,-0.0009325830033048987,1495.0,1495.0,1495.0,1495.0,0.0,0.0,0.0,0.0,0.0,0.0,0.0,0.0,1495.0,1495.0,1495.0,1495.0,1.658065915107727,2.8832329617919914,0.4407665326478204,0.2458889431591578,-0.0027335474733263254,-0.011619101278483868,0.0
384,5,2.30693203775445e-05,-3.501676837913692e-05,-4.8322330258088186e-05,0.0005372665473259985,-0.0007597646908834577,-0.0009344591526314616,-0.030705368146300316,0.19401563704013824,-0.0020581420976668596,-0.0006065675988793373,0.0063542891293764114,-0.002706709550693631,0.0,0.0,0.0,-0.00236303242854774,-0.0003587448736652732,-0.0,0.0,0.0,0.0,0.20000000298023224,-0.20000000298023224,-0.0009325830033048987,1495.0,1495.0,1495.0,1495.0,0.0,0.0,0.0,0.0,0.0,0.0,0.0,0.0,1495.0,1495.0,1495.0,1495.0,1.6456663608551025,2.880902726352734,0.44238692022927867,0.24696179032607923,0.0014225848717615008,-0.007208075374364853,0.0
389,5,2.3002130546956323e-06,-1.982707362913061e-05,-2.4698978450032882e-05,-0.0022773861419409513,-0.0021266695111989975,-0.0032085857819765806,-0.03068225458264351,0.19399797916412354,-0.002049059607088566,-0.0009930881205946207,0.008556321263313293,0.0026488301809877157,0.0,0.0,0.0,-0.00236303242854774,-0.0003587448736652732,-0.0,0.0,0.0,0.0,0.20000000298023224,-0.20000000298023224,-0.002509573008865118,1495.0,1495.0,1495.0,1495.0,0.0,0.0,0.0,0.0,0.0,0.0,0.0,0.0,1495.0,1495.0,1495.0,1495.0,1.6456663608551025,2.8792358779574236,0.44280269692687513,0.2471057769710837,0.0014225848717615008,-0.007208075374364853,0.0
394,5,1.2538645023596473e-05,1.0187530278926715e-05,-1.599264760443475e-05,0.00031765736639499664,-0.004452420398592949,-0.002328194212168455,-0.03068225458264351,0.19399797916412354,-0.002049059607088566,-0.0009930881205946207,0.008556321263313293,0.0026488301809877157,0.0,0.0,0.0,0.002559467451646924,-0.002134785521775484,-0.0,0.0,0.0,0.0,0.20000000298023224,-0.20000000298023224,-0.002509573008865118,1495.0,1495.0,1495.0,1495.0,0.0,0.0,0.0,0.0,0.0,0.0,0.0,0.0,1495.0,1495.0,1495.0,1495.0,1.6571458578109741,2.8817342174677005,0.44065520910372313,0.24666080886945066,0.008524426259100437,0.0078617287799716,0.0
399,5,2.965301064250525e-05,-6.539536116179079e-06,-4.194085340714082e-05,0.0021807868033647537,0.00022627983707934618,0.0021825069561600685,-0.030684679746627808,0.1940246969461441,-0.0020821033976972103,0.00022398146393243223,0.0015351378824561834,-0.0013662304263561964,0.0,0.0,0.0,0.002559467451646924,-0.002134785521775484,-0.0,0.0,0.0,0.0,0.20000000298023224,-0.20000000298023224,-0.001963277580216527,1495.0,1495.0,1495.0,1495.0,0.0,0.0,0.0,0.0,0.0,0.0,0.0,0.0,1495.0,1495.0,1495.0,1495.0,1.6571458578109741,2.8821712953460614,0.44078481903257666,0.24686046722691712,0.008524426259100437,0.0078617287799716,0.0
404,5,2.5429661036469042e-05,-4.30774753112928e-06,-8.427238208241761e-05,0.00036551288212649524,-0.00017730270337779075,0.005952786188572645,-0.030684679746627808,0.1940246969461441,-0.0020821033976972103,0.00022398146393243223,0.0015351378824561834,-0.0013662304263561964,0.0,0.0,0.0,0.00021079056023154408,0.00038535328349098563,-0.0,0.0,0.0,0.0,0.20000000298023224,-0.20000000298023224,-0.001963277580216527,1495.0,1495.0,1495.0,1495.0,0.0,0.0,0.0,0.0,0.0,0.0,0.0,0.0,1495.0,1495.0,1495.0,1495.0,1.630204200744629,2.882628545301633,0.44056594166150675,0.2466510045649847,-0.0015137457521632314,0.0006369446637108922,0.0
409,5,3.801890125032514e-05,-3.2307141850651533e-07,-9.067788778338581e-05,0.0016569136641919613,-0.0005490822368301451,0.0031497750896960497,-0.03070732392370701,0.19405849277973175,-0.002075363416224718,-0.0008159908466041088,0.004777379333972931,-0.0007099036010913551,0.0,0.0,0.0,0.00021079056023154408,0.00038535328349098563,-0.0,0.0,0.0,0.0,0.20000000298023224,-0.20000000298023224,-0.002005523070693016,1495.0,1495.0,1495.0,1495.0,0.0,0.0,0.0,0.0,0.0,0.0,0.0,0.0,1495.0,1495.0,1495.0,1495.0,1.630204200744629,2.8841535395455664,0.44032629927108524,0.2461420051926238,-0.0015137457521632314,0.0006369446637108922,0.0
414,5,3.786828165175393e-05,-7.608366558997659e-06,-9.782604320207611e-05,0.0006446914630942047,0.0006546025397256017,0.002117688534781337,-0.03070732392370701,0.19405849277973175,-0.002075363416224718,-0.0008159908466041088,0.004777379333972931,-0.0007099036010913551,0.0,0.0,0.0,0.00021079056023154408,0.00038535328349098563,-0.0,0.0,0.0,0.0,0.20000000298023224,-0.20000000298023224,-0.002005523070693016,1495.0,1495.0,1495.0,1495.0,0.0,0.0,0.0,0.0,0.0,0.0,0.0,0.0,1495.0,1495.0,1495.0,1495.0,1.6355938911437988,2.8830684955373655,0.4417227624786794,0.2463593898345319,-0.0026292104739695787,-0.002500880043953657,0.0
419,5,1.4926472431397997e-05,3.193050133631914e-06,-4.611439726431854e-05,-0.0024951407685875893,-0.0010343289468437433,-0.005358322057873011,-0.030673198401927948,0.19403882324695587,-0.0020821811631321907,0.0036568031646311283,0.01044846698641777,0.0038917341735213995,0.0,0.0,0.0,-0.0008249144884757698,0.0006671110750176013,-0.0,0.0,0.0,0.0,0.20000000298023224,-0.20000000298023224,-0.003037040587514639,1495.0,1495.0,1495.0,1495.0,0.0,0.0,0.0,0.0,0.0,0.0,0.0,0.0,1495.0,1495.0,1495.0,1495.0,1.6355938911437988,2.8839148991010344,0.439448982414886,0.24611317749375702,-0.0026292104739695787,-0.002500880043953657,0.0
424,5,1.3418130038189702e-05,7.1607942118134815e-06,-2.2665097276330926e-05,-0.0011790572898462415,-0.0008898608502931893,-0.004957244731485844,-0.030673198401927948,0.19403882324695587,-0.0020821811631321907,0.0036568031646311283,0.01044846698641777,0.0038917341735213995,0.0,0.0,0.0,0.0011088534956797957,-0.0010988699505105615,-0.0,0.0,0.0,0.0,0.20000000298023224,-0.20000000298023224,-0.003037040587514639,1495.0,1495.0,1495.0,1495.0,0.0,0.0,0.0,0.0,0.0,0.0,0.0,0.0,1495.0,1495.0,1495.0,1495.0,1.640663743019104,2.88113258488031,0.4417164141157816,0.24691761389708844,0.004344276152551174,0.0033721132203936577,0.0
429,5,1.2682736269198358e-05,5.635624347632984e-06,-2.2929409624339314e-06,-0.0005598702118732035,-0.00017292398842982948,-0.0044275568798184395,-0.030673198401927948,0.19403882324695587,-0.0020821811631321907,0.0036568031646311283,0.01044846698641777,0.0038917341735213995,0.0,0.0,0.0,0.0011088534956797957,-0.0010988699505105615,-0.0,0.0,0.0,0.0,0.20000000298023224,-0.20000000298023224,-0.003037040587514639,1495.0,1495.0,1495.0,1495.0,0.0,0.0,0.0,0.0,0.0,0.0,0.0,0.0,1495.0,1495.0,1495.0,1495.0,1.640663743019104,2.8815871063071063,0.44035963847087123,0.246714947015725,0.004344276152551174,0.0033721132203936577,0.0
434,5,3.781795612667338e-06,1.1194252635959856e-07,2.4885621314751916e-06,-0.0012920609442517161,0.0005936722154729068,-0.0023448029533028603,-0.03065554052591324,0.1940011978149414,-0.0021184824872761965,0.001702138571999967,0.002013187622651458,-0.002144042868167162,0.0,0.0,0.0,0.0011088534956797957,-0.0010988699505105615,-0.0,0.0,0.0,0.0,0.20000000298023224,-0.20000000298023224,-0.002592793432995677,1495.0,1495.0,1495.0,1495.0,0.0,0.0,0.0,0.0,0.0,0.0,0.0,0.0,1495.0,1495.0,1495.0,1495.0,1.640663743019104,2.8824098313872497,0.440641203333992,0.24658298228625258,0.00482102669775486,-0.002229904057458043,0.0
439,5,-1.0898355867539067e-05,1.0854371794266626e-05,1.8177002857555635e-05,-0.002278442494571209,-0.0010516226757317781,-0.0028205341659486294,-0.03065554052591324,0.1940011978149414,-0.0021184824872761965,0.001702138571999967,0.002013187622651458,-0.002144042868167162,0.0,0.0,0.0,-0.0007334875990636647,-0.001219840138219297,-0.0,0.0,0.0,0.0,0.20000000298023224,-0.20000000298023224,-0.002592793432995677,1495.0,1495.0,1495.0,1495.0,0.0,0.0,0.0,0.0,0.0,0.0,0.0,0.0,1495.0,1495.0,1495.0,1495.0,1.6401551961898804,2.8825154230354992,0.44114918108464474,0.24688861780125862,0.00482102669775486,-0.002229904057458043,0.0
445,5,6.275396572164027e-06,7.161491453189228e-07,3.426671582928975e-06,0.0011494732461869717,0.0007959376671351492,0.0006418261327780783,-0.030644632875919342,0.19402597844600677,-0.0021376849617809057,0.001516523421742022,0.010526291094720364,-0.0012444838648661971,0.0,0.0,0.0,-0.000981947872787714,0.0011003377148881555,-0.0,0.0,0.0,0.0,0.20000000298023224,-0.20000000298023224,-0.0024300033692270517,1495.0,1495.0,1495.0,1495.0,0.0,0.0,0.0,0.0,0.0,0.0,0.0,0.0,1495.0,1495.0,1495.0,1495.0,1.6400542259216309,2.8834730531181343,0.44121055145056126,0.24642788180984682,-0.004348463378846645,-0.0029850739520043135,0.0
450,5,8.718748176761437e-06,1.1115319466625806e-05,2.1455057321873028e-06,0.0007529915310442448,-0.0009295253548771143,0.0004104703548364341,-0.030644632875919342,0.19402597844600677,-0.0021376849617809057,0.001516523421742022,0.010526291094720364,-0.0012444838648661971,0.0,0.0,0.0,-0.000981947872787714,0.0011003377148881555,-0.0,0.0,0.0,0.0,0.20000000298023224,-0.20000000298023224,-0.0024300033692270517,1495.0,1495.0,1495.0,1495.0,0.0,0.0,0.0,0.0,0.0,0.0,0.0,0.0,1495.0,1495.0,1495.0,1495.0,1.6400542259216309,2.882516559060939,0.44256426006545924,0.24712291251671925,-0.004348463378846645,-0.0029850739520043135,0.0
455,5,0.00010820199531735852,-0.0001245252205990255,-7.034491136437282e-05,0.012239186093211174,0.015905054286122322,0.008863038383424282,-0.03062303736805916,0.19400042295455933,-0.0021507570054382086,-0.00023643011809326708,0.00806885864585638,0.00040049906237982213,0.0,0.0,0.0,-0.000981947872787714,0.0011003377148881555,-0.0,0.0,0.0,0.0,0.20000000298023224,-0.20000000298023224,-0.0017064893618226051,1495.0,1495.0,1495.0,1495.0,0.0,0.0,0.0,0.0,0.0,0.0,0.0,0.0,1495.0,1495.0,1495.0,1495.0,1.6400542259216309,2.8982506456089387,0.4342992530867613,0.24247191341469443,-0.04649586230516434,-0.06033352389931679,0.0
460,5,0.00011233907571295276,-0.0001234753435710445,-0.00010482787911314517,0.005392123479396105,0.006236036773771048,0.007683170959353447,-0.03062303736805916,0.19400042295455933,-0.0021507570054382086,-0.00023643011809326708,0.00806885864585638,0.00040049906237982213,0.0,0.0,0.0,-0.01780909113585949,0.010558185167610645,-0.0,0.0,0.0,0.0,0.20000000298023224,-0.20000000298023224,-0.0017064893618226051,1495.0,1495.0,1495.0,1495.0,0.0,0.0,0.0,0.0,0.0,0.0,0.0,0.0,1495.0,1495.0,1495.0,1495.0,1.8278900384902954,2.8980034347803314,0.4331794898434865,0.24268020918244676,-0.04649586230516434,-0.06033352389931679,0.0
465,5,0.00015272754535544664,-0.00017420404765289277,-0.00010513167217141017,0.007003465201705694,0.00858185812830925,0.0031097237952053547,-0.030643992125988007,0.19396156072616577,-0.0021465658210217953,-0.0005207717185840011,7.351962995016947e-05,0.0019111220026388764,0.0,0.0,0.0,-0.01780909113585949,0.010558185167610645,-0.0,0.0,0.0,0.0,0.20000000298023224,-0.20000000298023224,-0.0015619532205164433,1495.0,1495.0,1495.0,1495.0,0.0,0.0,0.0,0.0,0.0,0.0,0.0,0.0,1495.0,1495.0,1495.0,1495.0,1.8278900384902954,2.8979362800299793,0.43287443762943756,0.24201550392685398,-0.04649586230516434,-0.06033352389931679,0.0
470,5,0.003068959340453148,0.0021701969671994448,-0.009537463076412678,0.007003465201705694,0.00858185812830925,0.0031097237952053547,-0.030643992125988007,0.19396156072616577,-0.0021465658210217953,-0.0005207717185840011,7.351962995016947e-05,0.0019111220026388764,0.0,0.0,0.0,-0.010273881256580353,0.0064634894952178,-0.0,0.0,0.0,0.0,0.20000000298023224,-0.20000000298023224,-0.0015619532205164433,1495.0,1495.0,1495.0,1495.0,0.0,0.0,0.0,0.0,0.0,0.0,0.0,0.0,1495.0,1495.0,1495.0,1495.0,1.7405792474746704,-0.13449226859868044,-0.09370333114049852,-0.09353516442028299,-0.02710733376443386,-0.03314538300037384,0.0
475,5,0.0030792125035077333,0.0021407478488981724,-0.009585675783455372,0.00403178296983242,0.00696664908900857,0.007029356434941292,-0.030644048005342484,0.19402000308036804,-0.002149136969819665,0.0035159315448254347,-0.0007345612975768745,0.0017047181027010083,0.0,0.0,0.0,-0.010273881256580353,0.0064634894952178,-0.0,0.0,0.0,0.0,0.20000000298023224,-0.20000000298023224,-0.0023592854849994183,1495.0,1495.0,1495.0,1495.0,0.0,0.0,0.0,0.0,0.0,0.0,0.0,0.0,1495.0,1495.0,1495.0,1495.0,1.7405792474746704,-0.1330157602972163,-0.09330574126658048,-0.09350985217940538,-0.02710733376443386,-0.03314538300037384,0.0
480,5,0.00308276922442019,0.0021636742167174816,-0.009576821699738503,0.002039507031440735,3.5485576518112794e-05,0.0017492679180577397,-0.030644048005342484,0.19402000308036804,-0.002149136969819665,0.0035159315448254347,-0.0007345612975768745,0.0017047181027010083,0.0,0.0,0.0,-0.00450019259005785,0.007737171370536089,-0.0,0.0,0.0,0.0,0.20000000298023224,-0.20000000298023224,-0.0023592854849994183,1495.0,1495.0,1495.0,1495.0,0.0,0.0,0.0,0.0,0.0,0.0,0.0,0.0,1495.0,1495.0,1495.0,1495.0,1.7201770544052124,-0.1322671999678538,-0.09375937235781387,-0.09335976953473975,-0.03206996992230415,-0.014348620548844337,0.0
485,5,0.0030929765198379755,0.0021481523290276527,-0.009516104124486446,0.0020406737457960844,0.001876824302598834,-0.0065864077769219875,-0.030646275728940964,0.19397586584091187,-0.002162927994504571,-0.000790872611105442,0.012720624916255474,-0.0012725244741886854,0.0,0.0,0.0,-0.00450019259005785,0.007737171370536089,-0.0,0.0,0.0,0.0,0.20000000298023224,-0.20000000298023224,-0.003000975586473942,1495.0,1495.0,1495.0,1495.0,0.0,0.0,0.0,0.0,0.0,0.0,0.0,0.0,1495.0,1495.0,1495.0,1495.0,1.7201770544052124,-0.1352860758840044,-0.09641874964816695,-0.0941577618136544,-0.03206996992230415,-0.014348620548844337,0.0
490,5,0.003133076475933194,0.002079713623970747,-0.009756064042448997,0.005628271494060755,0.008963394910097122,0.02616063691675663,-0.030646275728940964,0.19397586584091187,-0.002162927994504571,-0.000790872611105442,0.012720624916255474,-0.0012725244741886854,0.0,0.0,0.0,0.0015247829724103212,0.0060502151027321815,-0.0,0.0,0.0,0.0,0.20000000298023224,-0.20000000298023224,-0.003000975586473942,1495.0,1495.0,1495.0,1495.0,0.0,0.0,0.0,0.0,0.0,0.0,0.0,0.0,1495.0,1495.0,1495.0,1495.0,1.6935526132583618,-0.12231069732758643,-0.08791090559683382,-0.09161702123231834,-0.02468983829021454,0.004786465782672167,0.0
495,5,0.0031230843160301447,0.0021081618033349514,-0.009677689522504807,0.0010522403754293919,0.00017155974637717009,0.0010593875776976347,-0.030626744031906128,0.19396987557411194,-0.002165508922189474,0.003731339704245329,0.0047904010862112045,0.0012433871161192656,0.0,0.0,0.0,0.0015247829724103212,0.0060502151027321815,-0.0,0.0,0.0,0.0,0.20000000298023224,-0.20000000298023224,-0.0019456482259556651,1495.0,1495.0,1495.0,1495.0,0.0,0.0,0.0,0.0,0.0,0.0,0.0,0.0,1495.0,1495.0,1495.0,1495.0,1.6935526132583618,-0.12227578218262243,-0.08905419449241696,-0.09158966764438993,-0.02468983829021454,0.004786465782672167,0.0
501,5,0.003151628188788891,0.002140133175998926,-0.009636009112000465,0.0019940512720495462,-0.002520813839510083,-0.003099614754319191,-0.030626744031906128,0.19396987557411194,-0.002165508922189474,0.003731339704245329,0.0047904010862112045,0.0012433871161192656,0.0,0.0,0.0,0.0035014671739190817,0.005195977166295052,-0.0,0.0,0.0,0.0,0.20000000298023224,-0.20000000298023224,-0.0019456482259556651,1495.0,1495.0,1495.0,1495.0,0.0,0.0,0.0,0.0,0.0,0.0,0.0,0.0,1495.0,1495.0,1495.0,1495.0,1.690035104751587,-0.12344840389242252,-0.09060495132509834,-0.09140836783263825,-0.021159736439585686,0.010968638584017754,0.0
506,5,0.0031882338225841522,0.002160291187465191,-0.00963399838656187,0.005190300289541483,-0.0034272957127541304,-0.0014811164001002908,-0.030626744031906128,0.19396987557411194,-0.002165508922189474,0.003731339704245329,0.0047904010862112045,0.0012433871161192656,0.0,0.0,0.0,0.0035014671739190817,0.005195977166295052,-0.0,0.0,0.0,0.0,0.20000000298023224,-0.20000000298023224,-0.0019456482259556651,1495.0,1495.0,1495.0,1495.0,0.0,0.0,0.0,0.0,0.0,0.0,0.0,0.0,1495.0,1495.0,1495.0,1495.0,1.690035104751587,-0.12276040891137587,-0.09223880626152874,-0.09140138597617346,-0.021159736439585686,0.010968638584017754,0.0
