timestamp,dt,pos_x,pos_y,pos_z,vel_x,vel_y,vel_z,roll,pitch,yaw,agv_x,agv_y,agv_z,x_ref,y_ref,z_ref,roll_ref,pitch_ref,yaw_ref,x_vel_ref,y_vel_ref,z_vel_ref,x_torque,y_torque,z_torque,w0,w1,w2,w3,u0,u1,u2,u3,m0req,m1req,m2req,m3req,thrust0,thrust1,thrust2,thrust3,thrust_ref,roll_vicon,pitch_vicon,yaw_vicon,acc_x,acc_y,acc_z
5,5,0.0,0.0,0.0,-0.0008164570317603648,-0.0012609873665496707,-0.0005961113492958248,0.07074016332626343,0.1033230721950531,-0.0004043379158247262,-0.0008875577477738261,-0.0002010985481319949,0.0010158971417695284,0.0,0.0,0.0,0.0015545979840680957,-0.0007742791785858572,-0.0,0.0,0.0,0.0,-0.021223165094852448,-0.03098869137465954,3.934563937946223e-05,1495.0,1495.0,1495.0,1495.0,0.0,0.0,0.0,0.0,0.0,0.0,0.0,0.0,1495.0,1495.0,1495.0,1495.0,1.6410268545150757,0.014601719131255131,-0.014183748237182658,0.05587728990000456,0.003061713883653283,0.004728702828288078,0.0
30,25,0.0,0.0,0.0,-0.00020515384676400572,0.0001537123607704416,-0.003361494280397892,0.07074016332626343,0.1033230721950531,-0.0004043379158247262,-0.0008875577477738261,-0.0002010985481319949,0.0010158971417695284,0.0,0.0,0.0,0.0015545979840680957,-0.0007742791785858572,-0.0,0.0,0.0,0.0,-0.021223165094852448,-0.03098869137465954,3.934563937946223e-05,1495.0,1495.0,1495.0,1495.0,0.0,0.0,0.0,0.0,0.0,0.0,0.0,0.0,1495.0,1495.0,1495.0,1495.0,1.6410268545150757,0.014508736183699411,-0.013544373145202184,0.055935766255568606,0.003061713883653283,0.004728702828288078,0.0
35,5,0.0,0.0,0.0,0.0009598433971405029,0.0011547148460522294,-9.54558199737221e-05,0.07072336226701736,0.10332120954990387,-0.00038778677117079496,-0.0019346897024661303,0.0015373117057606578,0.0016695470549166203,0.0,0.0,0.0,-0.00019096526375506073,-0.00019605680427048355,-0.0,0.0,0.0,0.0,-0.020763613283634186,-0.031224651262164116,5.7465480495011434e-05,1495.0,1495.0,1495.0,1495.0,0.0,0.0,0.0,0.0,0.0,0.0,0.0,0.0,1495.0,1495.0,1495.0,1495.0,1.6284600496292114,0.014636446390932254,-0.01378545459834492,0.05619521935633667,0.0007693269290030003,-0.0005764213274233043,0.0
41,5,0.0,0.0,0.0,-0.0008497056551277637,0.0016376925632357597,-0.0006614492158405483,0.07072336226701736,0.10332120954990387,-0.00038778677117079496,-0.0019346897024661303,0.0015373117057606578,0.0016695470549166203,0.0,0.0,0.0,-0.00019096526375506073,-0.00019605680427048355,-0.0,0.0,0.0,0.0,-0.020763613283634186,-0.031224651262164116,5.7465480495011434e-05,1495.0,1495.0,1495.0,1495.0,0.0,0.0,0.0,0.0,0.0,0.0,0.0,0.0,1495.0,1495.0,1495.0,1495.0,1.6284600496292114,0.015454491368566777,-0.014928342351462665,0.05655530456953302,0.0007693269290030003,-0.0005764213274233043,0.0
53,12,0.0,0.0,0.0,-0.0008497056551277637,0.0016376925632357597,-0.0006614492158405483,0.07071294635534286,0.103293277323246,-0.00037321774289011955,-0.0003025386540684849,0.004155170172452927,-0.0018981721950694919,0.0,0.0,0.0,-0.00019096526375506073,-0.00019605680427048355,-0.0,0.0,0.0,0.0,-0.020763613283634186,-0.031224651262164116,5.7465480495011434e-05,1495.0,1495.0,1495.0,1495.0,0.0,0.0,0.0,0.0,0.0,0.0,0.0,0.0,1495.0,1495.0,1495.0,1495.0,1.6284600496292114,0.015454491368566777,-0.014928342351462665,0.05655530456953302,0.0007693269290030003,-0.0005764213274233043,0.0
58,5,0.0,0.0,0.0,-0.0008497056551277637,0.0016376925632357597,-0.0006614492158405483,0.07071294635534286,0.103293277323246,-0.00037321774289011955,-0.0003025386540684849,0.004155170172452927,-0.0018981721950694919,0.0,0.0,0.0,-0.00019096526375506073,-0.00019605680427048355,-0.0,0.0,0.0,0.0,-0.020763613283634186,-0.031224651262164116,5.7465480495011434e-05,1495.0,1495.0,1495.0,1495.0,0.0,0.0,0.0,0.0,0.0,0.0,0.0,0.0,1495.0,1495.0,1495.0,1495.0,1.6284600496292114,0.015454491368566777,-0.014928342351462665,0.05655530456953302,0.0007693269290030003,-0.0005764213274233043,0.0
63,5,-2.737809336395003e-05,1.4672565157525241e-05,-9.03810177987907e-06,-0.0017303047934547067,0.0002338727645110339,0.0027418064419180155,0.07071003317832947,0.10325036942958832,-0.0003857826814055443,0.0019392763497307897,0.0023770038969814777,-0.00041378120658919215,0.0,0.0,0.0,-0.002014744095504284,-0.0008041055989451706,-0.0,0.0,0.0,0.0,-0.02125873789191246,-0.03095959685742855,-8.199884905479848e-05,12696.0,16752.0,14232.0,9160.0,0.35666054487228394,0.6410646438598633,0.4546395540237427,0.17609529197216034,0.0,0.0,0.0,0.0,1495.0,1495.0,1495.0,1495.0,1.6445069313049316,0.014572542111299243,-0.014068820898969943,0.05608453375351324,0.003186396323144436,-0.006141346879303455,0.0
70,7,-1.6570493244216777e-05,6.076313184166793e-06,-3.8183254218893126e-05,0.0006047901697456837,0.0011250992538407445,0.004594140686094761,0.07071003317832947,0.10325036942958832,-0.0003857826814055443,0.0019392763497307897,0.0023770038969814777,-0.00041378120658919215,0.0,0.0,0.0,-0.0002613265241961926,-0.0016761086881160736,-0.0,0.0,0.0,0.0,-0.02125873789191246,-0.03095959685742855,-8.199884905479848e-05,12696.0,16752.0,14232.0,9160.0,0.35666054487228394,0.6410646438598633,0.4546395540237427,0.17609529197216034,0.0,0.0,0.0,0.0,1495.0,1495.0,1495.0,1495.0,1.6438782215118408,0.015171047125066905,-0.014631971640025901,0.05620334336549364,0.006639318540692329,-0.0007962724193930626,0.0
75,5,-8.865143172442913e-06,2.1648140318575315e-05,-1.345046257483773e-05,0.0011665580095723271,-0.0014185796026140451,-0.0011302785715088248,0.07071265578269958,0.10331157594919205,-0.0003907984646502882,0.0008538042893633246,-0.007023129146546125,0.0026371884159743786,0.0,0.0,0.0,-0.0002613265241961926,-0.0016761086881160736,-0.0,0.0,0.0,0.0,-0.02124876342713833,-0.0311896950006485,-9.650225365476217e-06,12707.0,16742.0,14278.0,9090.0,0.3573470115661621,0.6401970982551575,0.4577590227127075,0.17315690219402313,0.0,0.0,0.0,0.0,12699.0,16754.0,14260.0,9105.0,1.6438782215118408,0.01419914293369292,-0.014125908928551301,0.056188717580626255,0.006639318540692329,-0.0007962724193930626,0.0
80,5,-1.2377805660435115e-06,1.8727565475273877e-05,-2.4814475182211027e-05,0.0013819066807627678,-0.00021696274052374065,0.0009115700959227979,0.07072313129901886,0.10332394391298294,-0.0003959093301091343,0.0008497893577441573,0.001871769200079143,0.0024835362564772367,0.0,0.0,0.0,0.001784196705557406,0.0010915623279288411,-0.0,0.0,0.0,0.0,-0.021821435540914536,-0.031076662242412567,-4.2138854041695595e-05,12793.0,16836.0,14272.0,9177.0,0.36254072189331055,0.6477904319763184,0.45736828446388245,0.17680755257606506,0.0,0.0,0.0,0.0,12689.0,16755.0,14231.0,9166.0,1.6445893049240112,0.014820271568221407,-0.014604805378851633,0.056223673630026554,-0.004325707443058491,0.005438865628093481,0.0
87,7,4.861152319790563e-06,3.207749978173524e-05,1.0446509804751258e-05,0.0001359756861347705,-0.0014484028797596693,-0.002902626059949398,0.07072313129901886,0.10332394391298294,-0.0003959093301091343,0.0008497893577441573,0.001871769200079143,0.0024835362564772367,0.0,0.0,0.0,0.001784196705557406,0.0010915623279288411,-0.0,0.0,0.0,0.0,-0.021821435540914536,-0.031076662242412567,-4.2138854041695595e-05,12793.0,16836.0,14272.0,9177.0,0.36254072189331055,0.6477904319763184,0.45736828446388245,0.17680755257606506,0.0,0.0,0.0,0.0,12689.0,16755.0,14231.0,9166.0,1.6445893049240112,0.014538018424562342,-0.014665618728593788,0.0558387276007815,-0.004325707443058491,0.005438865628093481,0.0
92,5,1.3618356206279714e-05,4.0784459997667e-05,2.925930493802298e-05,0.0011052547488361597,-0.0016241965349763632,-0.0034185859840363264,0.07072313129901886,0.10332394391298294,-0.0003959093301091343,0.0008497893577441573,0.001871769200079143,0.0024835362564772367,0.0,0.0,0.0,0.0018437306862324476,0.000135684764245525,-0.0,0.0,0.0,0.0,-0.021821435540914536,-0.031076662242412567,-4.2138854041695595e-05,12793.0,16836.0,14272.0,9177.0,0.36254072189331055,0.6477904319763184,0.45736828446388245,0.17680755257606506,0.0,0.0,0.0,0.0,12689.0,16755.0,14231.0,9166.0,1.6410282850265503,0.014081510311540313,-0.014288993653451302,0.055817669454177106,-0.0005365353426896036,0.005608176346868277,0.0
97,5,1.2884080206276849e-05,4.1953971958719194e-05,4.360304228612222e-05,0.0003539887547958642,-0.0007900197524577379,-0.0030886828899383545,0.07070466130971909,0.10328745096921921,-0.0003994041762780398,-0.0013387996004894376,0.0028286604210734367,-0.0006851897924207151,0.0,0.0,0.0,0.0018437306862324476,0.000135684764245525,-0.0,0.0,0.0,0.0,-0.02124716341495514,-0.03140188753604889,3.1552692234981805e-05,12749.0,16803.0,14348.0,9166.0,0.35984763503074646,0.6451469659805298,0.4625074565410614,0.1763761192560196,0.0,0.0,0.0,0.0,12765.0,16852.0,14268.0,9192.0,1.6410282850265503,0.01351353315013952,-0.01372194127140337,0.05559930679104404,-0.0005365353426896036,0.005608176346868277,0.0
102,5,-1.4790712157264352e-06,3.694632323458791e-05,3.055353226955049e-05,-0.0015819825930520892,0.000284909998299554,0.0003304680285509676,0.07070466130971909,0.10328745096921921,-0.0003994041762780398,-0.0013387996004894376,0.0028286604210734367,-0.0006851897924207151,0.0,0.0,0.0,0.00105369184166193,0.00035486393608152866,-0.0,0.0,0.0,0.0,-0.02124716341495514,-0.03140188753604889,3.1552692234981805e-05,12749.0,16803.0,14348.0,9166.0,0.35984763503074646,0.6451469659805298,0.4625074565410614,0.1763761192560196,0.0,0.0,0.0,0.0,12765.0,16852.0,14268.0,9192.0,1.635208249092102,0.013522773300571117,-0.012676386050236053,0.05541527541120187,-0.0013982555828988552,0.0031937072053551674,0.0
107,5,-6.413524261006387e-06,4.783003532793373e-06,-1.6445759683847427e-05,-0.001224927487783134,0.003973562270402908,0.005772102624177933,0.0707191675901413,0.10333797335624695,-0.00039567716885358095,0.0009761337423697114,-0.002135668182745576,0.0022353259846568108,0.0,0.0,0.0,0.00105369184166193,0.00035486393608152866,-0.0,0.0,0.0,0.0,-0.021411007270216942,-0.0317206010222435,-5.8613066357793286e-05,12729.0,16832.0,14345.0,9142.0,0.3586863875389099,0.6475054621696472,0.46234169602394104,0.17534463107585907,0.0,0.0,0.0,0.0,12720.0,16834.0,14328.0,9178.0,1.635208249092102,0.014363033211350764,-0.01379944878137289,0.056141100591151565,-0.0013982555828988552,0.0031937072053551674,0.0
113,6,-2.7340771339368075e-05,-5.893620254937559e-06,-2.3125539883039892e-05,-0.00300124054774642,0.002870619762688875,0.0031104146037250757,0.0707191675901413,0.10333797335624695,-0.00039567716885358095,0.0009761337423697114,-0.002135668182745576,0.0022353259846568108,0.0,0.0,0.0,-0.004811293911188841,-0.0011517562670633197,-0.0,0.0,0.0,0.0,-0.021411007270216942,-0.0317206010222435,-5.8613066357793286e-05,12729.0,16832.0,14345.0,9142.0,0.3586863875389099,0.6475054621696472,0.46234169602394104,0.17534463107585907,0.0,0.0,0.0,0.0,12720.0,16834.0,14328.0,9178.0,1.6678798198699951,0.01516605043010585,-0.01459787890329405,0.05621217378189432,0.004628839436918497,-0.014874149113893509,0.0
118,5,-1.952999082277529e-05,5.252969458524603e-06,-9.435026186110917e-06,-0.0002632025571074337,-0.0001893428707262501,-0.00039869581814855337,0.0707206279039383,0.10334203392267227,-0.0003815829986706376,0.000757345580495894,-0.004376833792775869,-0.0016639053355902433,0.0,0.0,0.0,0.0002448111481498927,-0.000278795778285712,-0.0,0.0,0.0,0.0,-0.020713988691568375,-0.031087428331375122,-8.911679287848528e-06,12700.0,16766.0,14328.0,9269.0,0.3569278120994568,0.6421799063682556,0.4611976146697998,0.1807229369878769,0.0,0.0,0.0,0.0,12696.0,16772.0,14330.0,9262.0,1.6293314695358276,0.014753973153074484,-0.014636982146001698,0.05609715067975312,0.001094580045901239,0.0007393484702333808,0.0
124,6,-1.2178168617538176e-05,-3.2200537134485785e-06,-2.4786695576040074e-05,0.0007769375224597752,0.0009410256170667708,0.0016827218933030963,0.0707206279039383,0.10334203392267227,-0.0003815829986706376,0.000757345580495894,-0.004376833792775869,-0.0016639053355902433,0.0,0.0,0.0,0.0002448111481498927,-0.000278795778285712,-0.0,0.0,0.0,0.0,-0.020713988691568375,-0.031087428331375122,-8.911679287848528e-06,12700.0,16766.0,14328.0,9269.0,0.3569278120994568,0.6421799063682556,0.4611976146697998,0.1807229369878769,0.0,0.0,0.0,0.0,12696.0,16772.0,14330.0,9262.0,1.6293314695358276,0.015165068306469187,-0.014998096834603382,0.05635639235268509,0.001094580045901239,0.0007393484702333808,0.0
129,5,6.49846651867847e-06,6.110965841799043e-06,-1.5841153071960434e-05,0.002551971236243844,-0.0007433121209032834,-0.0004003761277999729,0.07071235775947571,0.10334821045398712,-0.0003789834154304117,0.0002154306130250916,0.004796842113137245,-5.10689897055272e-05,0.0,0.0,0.0,0.0002448111481498927,-0.000278795778285712,-0.0,0.0,0.0,0.0,-0.020971126854419708,-0.031180409714579582,1.8433147488394752e-05,12717.0,16751.0,14322.0,9285.0,0.35794728994369507,0.64091956615448,0.4607360363006592,0.18142540752887726,0.0,0.0,0.0,0.0,12712.0,16751.0,14277.0,9226.0,1.6293314695358276,0.015501447742522576,-0.014836441448602156,0.05599535561258369,0.001094580045901239,0.0007393484702333808,0.0
134,5,1.5540499589405954e-05,3.089902747888118e-05,1.761405474098865e-05,0.0021058323327451944,-0.0032718924339860678,-0.004174775443971157,0.07071235775947571,0.10334821045398712,-0.0003789834154304117,0.0002154306130250916,0.004796842113137245,-5.10689897055272e-05,0.0,0.0,0.0,0.0009209369891323149,0.0024117433931678534,-0.0,0.0,0.0,0.0,-0.020971126854419708,-0.031180409714579582,1.8433147488394752e-05,12717.0,16751.0,14322.0,9285.0,0.35794728994369507,0.64091956615448,0.4607360363006592,0.18142540752887726,0.0,0.0,0.0,0.0,12712.0,16751.0,14277.0,9226.0,1.6528658866882324,0.014204706586908094,-0.013525824214454661,0.055753659681823206,-0.009605500847101212,0.002821473404765129,0.0
139,5,2.3320293621509336e-05,2.1807894881931134e-05,-8.22282515855477e-07,0.0017759082838892937,-0.00021782085241284221,0.0005424503469839692,0.07072655856609344,0.1033770740032196,-0.0003662616654764861,0.0027802351396530867,0.002697460586205125,0.0008843018440529704,0.0,0.0,0.0,0.0009209369891323149,0.0024117433931678534,-0.0,0.0,0.0,0.0,-0.022755268961191177,-0.03138333931565285,3.5423058761807624e-06,12958.0,16959.0,14334.0,9158.0,0.37254005670547485,0.6577432155609131,0.4615741968154907,0.17602241039276123,0.0,0.0,0.0,0.0,12917.0,16985.0,14324.0,9183.0,1.6528658866882324,0.013847614369785554,-0.013720380157237732,0.05571320007468169,-0.009605500847101212,0.002821473404765129,0.0
144,5,1.3497658983396832e-05,2.5976900360547006e-05,1.3325620784598868e-05,-0.00046835289685986936,-0.0005874089547432959,-0.0014807683182880282,0.07072655856609344,0.1033770740032196,-0.0003662616654764861,0.0027802351396530867,0.002697460586205125,0.0008843018440529704,0.0,0.0,0.0,0.0009209369891323149,0.0024117433931678534,-0.0,0.0,0.0,0.0,-0.022755268961191177,-0.03138333931565285,3.5423058761807624e-06,12958.0,16959.0,14334.0,9158.0,0.37254005670547485,0.6577432155609131,0.4615741968154907,0.17602241039276123,0.0,0.0,0.0,0.0,12917.0,16985.0,14324.0,9183.0,1.6528658866882324,0.014464119355804076,-0.013672871651279278,0.05591895567734196,-0.009605500847101212,0.002821473404765129,0.0
149,5,1.5595594959449954e-05,4.9104870413430035e-05,3.7753095966763794e-05,6.441123696276918e-05,-0.00301032024435699,-0.0035236042458564043,0.07072655856609344,0.1033770740032196,-0.0003662616654764861,0.0027802351396530867,0.002697460586205125,0.0008843018440529704,0.0,0.0,0.0,0.0007748430944047868,-0.0004273440281394869,-0.0,0.0,0.0,0.0,-0.022755268961191177,-0.03138333931565285,3.5423058761807624e-06,12958.0,16959.0,14334.0,9158.0,0.37254005670547485,0.6577432155609131,0.4615741968154907,0.17602241039276123,0.0,0.0,0.0,0.0,12917.0,16985.0,14324.0,9183.0,1.6335821151733398,0.013469541838970625,-0.013338646291847346,0.05569010733179509,0.001682171830907464,0.00234619015827775,0.0
154,5,-1.2363086625555297e-06,2.9140413971617818e-05,7.381018349406077e-06,-0.001994064077734947,0.0011916069779545069,0.002235207473859191,0.0707339271903038,0.10336348414421082,-0.00036270407144911587,-0.0026942258700728416,0.004404456354677677,-0.0028860927559435368,0.0,0.0,0.0,0.0007748430944047868,-0.0004273440281394869,-0.0,0.0,0.0,0.0,-0.021192550659179688,-0.031095130369067192,-7.08107982063666e-05,12662.0,16774.0,14232.0,9187.0,0.3546159267425537,0.6427919268608093,0.45467907190322876,0.17724454402923584,0.0,0.0,0.0,0.0,12842.0,16764.0,14318.0,9367.0,1.6335821151733398,0.013943121003477213,-0.013935049556658025,0.05579845400196881,0.00748462975025177,-0.004307618364691734,-0.0
159,5,-1.1138781701447442e-05,1.1229538358747959e-05,-2.8648424631683156e-05,-0.0019859224557876587,0.002625947818160057,0.005217615980654955,0.07075142115354538,0.10337112843990326,-0.0003459416329860687,0.006365836597979069,-0.0061286212876439095,-0.004000515677034855,0.0,0.0,0.0,-0.0014091877965256572,-0.0018834715010598302,-0.0,0.0,0.0,0.0,-0.021120868623256683,-0.030527520924806595,5.291623165248893e-05,12828.0,16790.0,14315.0,9340.0,0.3646407723426819,0.6441265344619751,0.46030378341674805,0.18379485607147217,0.0,0.0,0.0,0.0,12842.0,16764.0,14318.0,9367.0,1.6491496562957764,0.014801869809893871,-0.01403036818598703,0.056034844352311194,0.00748462975025177,-0.004307618364691734,-0.0
164,5,-2.0582342585839797e-06,7.456057119270554e-06,3.3869171602418646e-05,0.00029529674793593585,0.0015031967777758837,-0.005415065214037895,0.07075142115354538,0.10337112843990326,-0.0003459416329860687,0.006365836597979069,-0.0061286212876439095,-0.004000515677034855,0.0,0.0,0.0,-0.0014091877965256572,-0.0018834715010598302,-0.0,0.0,0.0,0.0,-0.021120868623256683,-0.030527520924806595,5.291623165248893e-05,12828.0,16790.0,14315.0,9340.0,0.3646407723426819,0.6441265344619751,0.46030378341674805,0.18379485607147217,0.0,0.0,0.0,0.0,12842.0,16764.0,14318.0,9367.0,1.6491496562957764,0.014177587003217047,-0.016337246481542392,0.05552361267116204,0.00748462975025177,-0.004307618364691734,-0.0
170,5,-0.00010361315798945725,-5.2409261115826666e-05,5.265842628432438e-05,-0.01212819293141365,0.007420929614454508,-0.006904690060764551,0.07075142115354538,0.10337112843990326,-0.0003459416329860687,0.006365836597979069,-0.0061286212876439095,-0.004000515677034855,0.0,0.0,0.0,-0.0018392974743619561,0.0002771233266685158,-0.0,0.0,0.0,0.0,-0.021120868623256683,-0.030527520924806595,5.291623165248893e-05,12828.0,16790.0,14315.0,9340.0,0.3646407723426819,0.6441265344619751,0.46030378341674805,0.18379485607147217,0.0,0.0,0.0,0.0,12842.0,16764.0,14318.0,9367.0,1.641211986541748,0.012398345096700592,-0.013999102839607803,0.05441844017419817,-0.001095945481210947,-0.005595318041741848,0.0
175,5,-0.00010361315798945725,-5.2409261115826666e-05,5.265842628432438e-05,-0.01212819293141365,0.007420929614454508,-0.006904690060764551,0.07075145095586777,0.10335049778223038,-0.0003473981923889369,-0.010351834818720818,-0.007048279047012329,0.014310679398477077,0.0,0.0,0.0,-0.0018392974743619561,0.0002771233266685158,-0.0,0.0,0.0,0.0,-0.02103387378156185,-0.03139262646436691,0.0003521778271533549,12846.0,16638.0,14470.0,8892.0,0.36574655771255493,0.6319120526313782,0.47093260288238525,0.16499090194702148,0.0,0.0,0.0,0.0,12712.0,16736.0,14355.0,9091.0,1.641211986541748,0.012398345096700592,-0.013999102839607803,0.05441844017419817,-0.001095945481210947,-0.005595318041741848,0.0
180,5,-7.997615466592833e-05,-1.7479782400187105e-05,-1.174668432213366e-05,-0.002014836296439171,-0.0012231656583026052,0.004966737236827612,0.07075145095586777,0.10335049778223038,-0.0003473981923889369,-0.010351834818720818,-0.007048279047012329,0.014310679398477077,0.0,0.0,0.0,-0.008570521138608456,-0.010798431932926178,-0.0,0.0,0.0,0.0,-0.02103387378156185,-0.03139262646436691,0.0003521778271533549,12846.0,16638.0,14470.0,8892.0,0.36574655771255493,0.6319120526313782,0.47093260288238525,0.16499090194702148,0.0,0.0,0.0,0.0,12712.0,16736.0,14355.0,9091.0,1.7699108123779297,0.01315746561827896,-0.011320802948702732,0.055216588402644366,0.04605105519294739,-0.0281162578612566,0.0
185,5,-5.62628611078253e-06,3.0251605494413525e-05,4.722899029729888e-05,0.0034014650154858828,-0.004315685480833054,-0.005739500746130943,0.07078423351049423,0.10334634780883789,-0.0003053713298868388,0.011150521226227283,0.004539054352790117,0.00016383589536417276,0.0,0.0,0.0,-0.008570521138608456,-0.010798431932926178,-0.0,0.0,0.0,0.0,-0.021977713331580162,-0.03158782795071602,9.662248339736834e-05,12829.0,16856.0,14350.0,9070.0,0.36470112204551697,0.6494415998458862,0.4626907706260681,0.1723160594701767,0.0,0.0,0.0,0.0,12612.0,17011.0,14172.0,9365.0,1.7699108123779297,0.015023880235938156,-0.014215974806916264,0.056410120952573466,-0.012724069878458977,0.01635078899562359,0.0
190,5,-5.62628611078253e-06,3.0251605494413525e-05,4.722899029729888e-05,0.0034014650154858828,-0.004315685480833054,-0.005739500746130943,0.07078423351049423,0.10334634780883789,-0.0003053713298868388,0.011150521226227283,0.004539054352790117,0.00016383589536417276,0.0,0.0,0.0,0.005245503503829241,0.003140033222734928,-0.0,0.0,0.0,0.0,-0.021977713331580162,-0.03158782795071602,9.662248339736834e-05,12829.0,16856.0,14350.0,9070.0,0.36470112204551697,0.6494415998458862,0.4626907706260681,0.1723160594701767,0.0,0.0,0.0,0.0,12612.0,17011.0,14172.0,9365.0,1.6816924810409546,0.015023880235938156,-0.014215974806916264,0.056410120952573466,-0.012724069878458977,0.01635078899562359,0.0
195,5,4.783563326782314e-06,2.7292171580484137e-05,-5.409006007539574e-06,0.0012161219492554665,-0.002384976716712117,0.0054292622953653336,0.07080919295549393,0.1033443957567215,-0.0003620603238232434,-0.009586477652192116,-0.0008326838724315166,0.06690835952758789,0.0,0.0,0.0,0.005245537031441927,0.0031400281004607677,-0.0,0.0,0.0,0.0,-0.02390732802450657,-0.033997103571891785,-0.002139271004125476,13270.0,16448.0,14715.0,8377.0,0.3918835520744324,0.6168321967124939,0.4878980219364166,0.14459817111492157,0.0,0.0,0.0,0.0,13378.0,16364.0,14773.0,8263.0,1.6816927194595337,0.014685654057233207,-0.013993737786795907,0.05609509402556082,-0.01272405032068491,0.016350895166397095,0.0
200,5,-2.303307337570004e-05,2.4756368475209456e-06,8.143696322804317e-05,-0.002851547673344612,0.0020239935256540775,-0.008249811828136444,0.07080919295549393,0.1033443957567215,-0.0003620603238232434,-0.009586477652192116,-0.0008326838724315166,0.06690835952758789,0.0,0.0,0.0,0.005245537031441927,0.0031400281004607677,-0.0,0.0,0.0,0.0,-0.02390732802450657,-0.033997103571891785,-0.002139271004125476,13270.0,16448.0,14715.0,8377.0,0.3918835520744324,0.6168321967124939,0.4878980219364166,0.14459817111492157,0.0,0.0,0.0,0.0,13378.0,16364.0,14773.0,8263.0,1.6816927194595337,0.01270391797492092,-0.016152454172829275,0.05505236192977767,-0.01272405032068491,0.016350895166397095,0.0
205,5,9.871719157672487e-06,1.549678017909173e-05,1.7519523680675775e-05,0.0028079559560865164,-0.0007529398426413536,0.004370168317109346,0.07075762748718262,0.10321502387523651,-0.000450854713562876,-0.01122114434838295,0.010942935012280941,0.01884782314300537,0.0,0.0,0.0,0.0009481602464802563,0.0026531305629760027,-0.0,0.0,0.0,0.0,-0.019289856776595116,-0.03018226847052574,-0.001243507256731391,12856.0,17757.0,14466.0,9901.0,0.3663075864315033,0.7242463827133179,0.4705914258956909,0.20876544713974,0.0,0.0,0.0,0.0,14209.0,16695.0,15737.0,7653.0,1.655470848083496,0.014693977082408724,-0.014968257097897354,0.05568429670544203,-0.010583549737930298,0.0029094554483890533,-0.0
211,5,4.9984377255896106e-05,-4.572993020701688e-06,-3.0274819437181577e-05,0.005936701316386461,0.0021071969531476498,0.007483388297259808,0.07075762748718262,0.10321502387523651,-0.000450854713562876,-0.01122114434838295,0.010942935012280941,0.01884782314300537,0.0,0.0,0.0,0.0009481602464802563,0.0026531305629760027,-0.0,0.0,0.0,0.0,-0.019289856776595116,-0.03018226847052574,-0.001243507256731391,12856.0,17757.0,14466.0,9901.0,0.3663075864315033,0.7242463827133179,0.4705914258956909,0.20876544713974,0.0,0.0,0.0,0.0,14209.0,16695.0,15737.0,7653.0,1.655470848083496,0.013031691534296919,-0.011412922832872267,0.05520649031808163,-0.010583549737930298,0.0029094554483890533,-0.0
216,5,5.004272316000424e-05,-0.00012851903738919646,1.1496020846379906e-07,0.0023816819302737713,0.01571640372276306,-0.0006534180720336735,0.07049153745174408,0.1032801941037178,-0.0001709039934212342,-0.006717843934893608,0.028037287294864655,-0.0915290042757988,0.0,0.0,0.0,0.0009481602464802563,0.0026531305629760027,-0.0,0.0,0.0,0.0,-0.01966317929327488,-0.029480060562491417,0.0014066947624087334,12016.0,17370.0,13729.0,10794.0,0.3170779347419739,0.6916012167930603,0.42125290632247925,0.25176042318344116,0.0,0.0,0.0,0.0,12461.0,17107.0,13938.0,10437.0,1.655470848083496,0.009821925708977212,-0.01565185468195261,0.05240011992821395,-0.010583549737930298,0.0029094554483890533,-0.0
221,5,7.683748845010996e-05,-0.00015877735859248787,-3.097893568337895e-05,0.004168044775724411,0.00991756096482277,0.0034699004609137774,0.07049153745174408,0.1032801941037178,-0.0001709039934212342,-0.006717843934893608,0.028037287294864655,-0.0915290042757988,0.0,0.0,0.0,-0.01801069639623165,0.002138613723218441,-0.0,0.0,0.0,0.0,-0.01966317929327488,-0.029480060562491417,0.0014066947624087334,12016.0,17370.0,13729.0,10794.0,0.3170779347419739,0.6916012167930603,0.42125290632247925,0.25176042318344116,0.0,0.0,0.0,0.0,12461.0,17107.0,13938.0,10437.0,1.7867506742477417,0.01029280334825453,-0.014586924245603356,0.05173391603709092,-0.009206137619912624,-0.05964311957359314,0.0
226,5,8.613177487859502e-05,-7.122835813788697e-05,-4.370072565507144e-05,0.002782532712444663,-0.006538856774568558,0.002914574695751071,0.07043622434139252,0.10280944406986237,-1.913731284730602e-05,-0.02150101214647293,0.03258807957172394,0.007128769066184759,0.0,0.0,0.0,-0.01801069639623165,0.002138613723218441,-0.0,0.0,0.0,0.0,-0.021552124992012978,-0.02834744192659855,-0.00033322779927402735,13088.0,16660.0,14161.0,9515.0,0.3805788457393646,0.6336508393287659,0.4498443901538849,0.1913968026638031,0.0,0.0,0.0,0.0,12568.0,16957.0,14134.0,10290.0,1.7867506742477417,0.011943449117633256,-0.01199449317448613,0.053882987892547474,-0.009206137619912624,-0.05964311957359314,0.0
231,5,-7.222424756037071e-05,-7.7404263720382e-05,0.00010814009874593467,-0.017889710143208504,-0.001874433713965118,-0.017055068165063858,0.07043622434139252,0.10280944406986237,-1.913731284730602e-05,-0.02150101214647293,0.03258807957172394,0.007128769066184759,0.0,0.0,0.0,0.007670484017580748,0.002667450113222003,-0.0,0.0,0.0,0.0,-0.021552124992012978,-0.02834744192659855,-0.00033322779927402735,13088.0,16660.0,14161.0,9515.0,0.3805788457393646,0.6336508393287659,0.4498443901538849,0.1913968026638031,0.0,0.0,0.0,0.0,12568.0,16957.0,14134.0,10290.0,1.6971293687820435,0.011274865814829935,-0.012039925042836179,0.05408093514014395,-0.01090811938047409,0.024128956720232964,0.0
236,5,-4.825036012334749e-05,-8.142703154589981e-05,0.0001361338363494724,-0.004279017448425293,-0.00026704149786382914,-0.010181275196373463,0.07049141824245453,0.1023128405213356,-0.0002306262613274157,0.032440729439258575,0.09155333787202835,0.017213989049196243,0.0,0.0,0.0,0.007670484017580748,0.002667450113222003,-0.0,0.0,0.0,0.0,-0.02640300802886486,-0.024679116904735565,-0.0012597040040418506,13570.0,17621.0,13395.0,11021.0,0.41095027327537537,0.7126719951629639,0.39982932806015015,0.2632990777492523,0.0,0.0,0.0,0.0,13449.0,16325.0,14476.0,9104.0,1.6971293687820435,0.011025128758179386,-0.010202158343574502,0.05381961854173886,-0.01090811938047409,0.024128956720232964,0.0
241,5,-4.699405508290511e-06,-8.655494457343593e-05,0.00015184676158241928,0.0035145075526088476,0.0005085326847620308,-0.0059580616652965546,0.07049141824245453,0.1023128405213356,-0.0002306262613274157,0.032440729439258575,0.09155333787202835,0.017213989049196243,0.0,0.0,0.0,0.0001787501823855564,-0.004053892567753792,-0.0,0.0,0.0,0.0,-0.02640300802886486,-0.024679116904735565,-0.0012597040040418506,13570.0,17621.0,13395.0,11021.0,0.41095027327537537,0.7126719951629639,0.39982932806015015,0.2632990777492523,0.0,0.0,0.0,0.0,13449.0,16325.0,14476.0,9104.0,1.669872522354126,0.011627381979970198,-0.009710198679370865,0.05456965936404971,0.01631196402013302,0.0005532715586014092,0.0
246,5,1.9785758922807872e-05,-9.818497346714139e-05,0.00018675699539016932,0.004344022832810879,0.00159901671577245,-0.006572452839463949,0.07039874792098999,0.10035036504268646,-0.00019651428738143295,0.012891286984086037,0.25777485966682434,-0.06761474907398224,0.0,0.0,0.0,0.0001787501823855564,-0.004053892567753792,-0.0,0.0,0.0,0.0,-0.018665367737412453,-0.019877778366208076,0.0011658864095807076,13831.0,15968.0,14125.0,10599.0,0.42796018719673157,0.5796698927879333,0.44746577739715576,0.24203342199325562,0.0,0.0,0.0,0.0,14047.0,17309.0,13614.0,10643.0,1.669872522354126,0.010184651703269317,-0.007201916542627302,0.05375184981007267,0.01631196402013302,0.0005532715586014092,0.0
251,5,0.0001039699709508568,-0.00011459206871222705,0.00013747885532211512,0.011839713901281357,0.002608458511531353,0.0032843949738889933,0.07039874792098999,0.10035036504268646,-0.00019651428738143295,0.012891286984086037,0.25777485966682434,-0.06761474907398224,0.0,0.0,0.0,-0.002107431646436453,0.0040667313151061535,-0.0,0.0,0.0,0.0,-0.018665367737412453,-0.019877778366208076,0.0011658864095807076,13831.0,15968.0,14125.0,10599.0,0.42796018719673157,0.5796698927879333,0.44746577739715576,0.24203342199325562,0.0,0.0,0.0,0.0,14047.0,17309.0,13614.0,10643.0,1.6734559535980225,0.01092487689725618,-0.0036356482897629302,0.05403706461342901,-0.016398703679442406,-0.006536959204822779,0.0
256,5,0.00018453483062330633,-0.00012715930643025786,0.00012301122478675097,0.014403670094907284,0.002551451325416565,0.0030498746782541275,0.07038116455078125,0.09776551276445389,0.0002877002989407629,-0.04433627426624298,0.39417070150375366,-0.012300119735300541,0.0,0.0,0.0,-0.002107431646436453,0.0040667313151061535,-0.0,0.0,0.0,0.0,-0.021196424961090088,-0.016569124534726143,-0.0003466495545580983,13886.0,16064.0,13328.0,10873.0,0.43158474564552307,0.5869728922843933,0.3955794870853424,0.2557353675365448,0.0,0.0,0.0,0.0,13132.0,16556.0,13052.0,11891.0,1.6734559535980225,0.0099842285753965,0.0019886724277977576,0.05383329202907669,-0.016398703679442406,-0.006536959204822779,0.0
262,5,0.000296067853923887,-0.00015003963198978454,8.241795876529068e-05,0.019145429134368896,0.0037662191316485405,0.006091141141951084,0.07038116455078125,0.09776551276445389,0.0002877002989407629,-0.04433627426624298,0.39417070150375366,-0.012300119735300541,0.0,0.0,0.0,-0.0031206789426505566,0.012864971533417702,-0.0,0.0,0.0,0.0,-0.021196424961090088,-0.016569124534726143,-0.0003466495545580983,13886.0,16064.0,13328.0,10873.0,0.43158474564552307,0.5869728922843933,0.3955794870853424,0.2557353675365448,0.0,0.0,0.0,0.0,13132.0,16556.0,13052.0,11891.0,1.7751952409744263,0.009987982230935813,0.005390910168715617,0.05367951173476131,-0.05502914637327194,-0.010268392972648144,-0.0
267,5,0.0004548198194243014,-0.0001847840176196769,6.82248646626249e-05,0.026708409190177917,0.005675815045833588,0.0041396282613277435,0.0702323168516159,0.09201138466596603,0.0003016204573214054,0.008769804611802101,0.5572790503501892,0.0051455325447022915,0.0,0.0,0.0,-0.0031206789426505566,0.012864971533417702,-0.0,0.0,0.0,0.0,-0.021534040570259094,-0.008103218860924244,-0.001824122853577137,13868.0,16108.0,12037.0,12318.0,0.4303935766220093,0.5904165506362915,0.3182829022407532,0.3343629837036133,0.0,0.0,0.0,0.0,14454.0,15574.0,13689.0,10383.0,1.7751952409744263,0.00836594702057316,0.010598697224591141,0.05283453052298032,-0.05502914637327194,-0.010268392972648144,-0.0
272,5,0.000550866243429482,-0.0001741011074045673,5.0442860811017454e-05,0.022208936512470245,0.0009883756283670664,0.003789691487327218,0.0702323168516159,0.09201138466596603,0.0003016204573214054,0.008769804611802101,0.5572790503501892,0.0051455325447022915,0.0,0.0,0.0,-0.006326873321086168,0.02240457572042942,-0.0,0.0,0.0,0.0,-0.021534040570259094,-0.008103218860924244,-0.001824122853577137,13868.0,16108.0,12037.0,12318.0,0.4303935766220093,0.5904165506362915,0.3182829022407532,0.3343629837036133,0.0,0.0,0.0,0.0,14454.0,15574.0,13689.0,10383.0,1.901769995689392,0.006922873020825886,0.015379274084828467,0.05259050432425021,-0.10266007483005524,-0.02230233885347843,-0.0
277,5,0.0005841685924679041,-0.00015154448919929564,6.946179928490892e-05,0.012879852205514908,-0.00231144274584949,-0.0007663959986530244,0.0688161849975586,0.07938920706510544,0.0006879456341266632,-0.1912943422794342,0.5339202284812927,-0.017127517610788345,0.0,0.0,0.0,0.002393981907516718,0.012113030068576336,-0.0,0.0,0.0,0.0,-0.019412312656641006,-0.009628183208405972,-0.0003503106127027422,14653.0,15846.0,13151.0,12360.0,0.4835731089115143,0.5703656673431396,0.3844565749168396,0.3367999792098999,0.0,0.0,0.0,0.0,13995.0,15960.0,12202.0,12207.0,1.7650341987609863,0.004847237984717565,0.01891785959535016,0.0523030283109802,-0.05151645094156265,0.007832163944840431,0.0
282,5,0.0006372462376020849,-0.00015853843069635332,5.17722473887261e-05,0.01152125746011734,-8.530505147064105e-05,0.0018161876359954476,0.0688161849975586,0.07938920706510544,0.0006879456341266632,-0.1912943422794342,0.5339202284812927,-0.017127517610788345,0.0,0.0,0.0,0.002393981907516718,0.012113030068576336,-0.0,0.0,0.0,0.0,-0.019412312656641006,-0.009628183208405972,-0.0003503106127027422,14653.0,15846.0,13151.0,12360.0,0.4835731089115143,0.5703656673431396,0.3844565749168396,0.3367999792098999,0.0,0.0,0.0,0.0,13995.0,15960.0,12202.0,12207.0,1.7650341987609863,0.0026787135896161832,0.020224918661685846,0.05189312503894387,-0.05151645094156265,0.007832163944840431,0.0
287,5,0.0006997743039391935,-0.0001393859856761992,7.733930033282377e-06,0.012111874297261238,-0.002332414733245969,0.006011073477566242,0.06666163355112076,0.07585473358631134,0.0005927509628236294,-0.31076720356941223,0.31470343470573425,-0.015911489725112915,0.0,0.0,0.0,0.0024463022127747536,0.011623903177678585,-0.0,0.0,0.0,0.0,-0.016408348456025124,-0.009828753769397736,-0.00032090922468341887,14272.0,15847.0,13609.0,12310.0,0.457372784614563,0.5704183578491211,0.41349276900291443,0.333911269903183,0.0,0.0,0.0,0.0,14395.0,15981.0,13067.0,12577.0,1.759268879890442,0.0013114746233764043,0.022045958718127256,0.05220132974592205,-0.04927481710910797,0.007977193221449852,-0.0
292,5,0.0006925791967660189,-0.00012106358917662874,0.00015068432549014688,0.003981333691626787,-0.003131653880700469,-0.0147496173158288,0.06666163355112076,0.07585473358631134,0.0005927509628236294,-0.31076720356941223,0.31470343470573425,-0.015911489725112915,0.0,0.0,0.0,0.0024463022127747536,0.011623903177678585,-0.0,0.0,0.0,0.0,-0.016408348456025124,-0.009828753769397736,-0.00032090922468341887,14272.0,15847.0,13609.0,12310.0,0.457372784614563,0.5704183578491211,0.41349276900291443,0.333911269903183,0.0,0.0,0.0,0.0,14395.0,15981.0,13067.0,12577.0,1.759268879890442,-0.0017848216461433673,0.021097383850410815,0.05114555524046583,-0.04927481710910797,0.007977193221449852,-0.0
297,5,0.0007173671619966626,-9.769009193405509e-05,5.956670065643266e-05,0.004567091818898916,-0.004057480953633785,0.00503426743671298,0.0629996657371521,0.07416871935129166,0.0003360276750754565,-0.33823636174201965,0.00834581721574068,-0.04028812050819397,0.0,0.0,0.0,0.0024463022127747536,0.011623903177678585,-0.0,0.0,0.0,0.0,-0.016584837809205055,-0.014188401401042938,-0.0012860640417784452,14179.0,16748.0,14092.0,12829.0,0.45110011100769043,0.6407334804534912,0.44524043798446655,0.36469602584838867,0.0,0.0,0.0,0.0,14970.0,16124.0,14125.0,12697.0,1.759268879890442,-0.000969101859646672,0.023853131341499002,0.051949879887864245,-0.04927481710910797,0.007977193221449852,-0.0
302,5,0.0007279120036400855,-7.557604840258136e-05,6.758004747098312e-05,0.0030922184232622385,-0.004276677500456572,0.0010521049844101071,0.0629996657371521,0.07416871935129166,0.0003360276750754565,-0.33823636174201965,0.00834581721574068,-0.04028812050819397,0.0,0.0,0.0,0.004670995287597179,0.005161559209227562,-0.0,0.0,0.0,0.0,-0.016584837809205055,-0.014188401401042938,-0.0012860640417784452,14179.0,16748.0,14092.0,12829.0,0.45110011100769043,0.6407334804534912,0.44524043798446655,0.36469602584838867,0.0,0.0,0.0,0.0,14970.0,16124.0,14125.0,12697.0,1.6949942111968994,-0.00313131068208146,0.023547056323388212,0.051602632782437916,-0.02108115330338478,0.014675176702439785,-0.0
307,5,0.0007243992877192795,-0.0001486846012994647,8.35074606584385e-05,0.0008153627277351916,0.007062356453388929,-0.0014904467388987541,0.05967804417014122,0.07477939128875732,0.0003457356651779264,-0.5075123906135559,-0.11007678508758545,-0.004700315650552511,0.0,0.0,0.0,0.004670995287597179,0.005161559209227562,-0.0,0.0,0.0,0.0,-0.009947801008820534,-0.021798869594931602,0.0003772952186409384,13214.0,15931.0,14939.0,11638.0,0.38837730884552,0.5768241882324219,0.5037605166435242,0.2960721254348755,0.0,0.0,0.0,0.0,13180.0,16285.0,14328.0,11951.0,1.6949942111968994,-0.010464728087614693,0.020736967303879254,0.04835912200524645,-0.02108115330338478,0.014675176702439785,-0.0
312,5,0.0006271432503126562,-3.438104977249168e-05,0.000103779646451585,-0.01134458091109991,-0.010891484096646309,-0.0030288412235677242,0.05967804417014122,0.07477939128875732,0.0003457356651779264,-0.5075123906135559,-0.11007678508758545,-0.004700315650552511,0.0,0.0,0.0,-0.008656758815050125,0.0017201668815687299,-0.0,0.0,0.0,0.0,-0.009947801008820534,-0.021798869594931602,0.0003772952186409384,13214.0,15931.0,14939.0,11638.0,0.38837730884552,0.5768241882324219,0.5037605166435242,0.2960721254348755,0.0,0.0,0.0,0.0,13180.0,16285.0,14328.0,11951.0,1.7017327547073364,-0.01153385497180391,0.02239531062807064,0.04945458871047547,-0.00705338129773736,-0.027305202558636665,0.0
317,5,0.0006901157321408391,8.425410487689078e-05,4.9726757424650714e-05,0.0030188660603016615,-0.01859281212091446,0.005274809896945953,0.05234206095337868,0.07597251236438751,-0.00022865789651405066,-0.7286222577095032,-0.05406183749437332,-0.013843642547726631,0.0,0.0,0.0,-0.008656758815050125,0.0017201668815687299,-0.0,0.0,0.0,0.0,-0.005073759704828262,-0.02141593210399151,-0.001516390941105783,12392.0,15991.0,14754.0,12559.0,0.33871451020240784,0.5813857913017273,0.49064862728118896,0.348519891500473,0.0,0.0,0.0,0.0,12449.0,15240.0,15254.0,11732.0,1.7017327547073364,-0.011825246358527684,0.021479588173957863,0.050756184545692945,-0.00705338129773736,-0.027305202558636665,0.0
322,5,0.0007353227119892836,0.00011166618787683547,-5.190530646359548e-05,0.006632386706769466,-0.010726574808359146,0.014305771328508854,0.05234206095337868,0.07597251236438751,-0.00022865789651405066,-0.7286222577095032,-0.05406183749437332,-0.013843642547726631,0.0,0.0,0.0,0.020845972001552582,0.003457274055108428,-0.0,0.0,0.0,0.0,-0.005073759704828262,-0.02141593210399151,-0.001516390941105783,12392.0,15991.0,14754.0,12559.0,0.33871451020240784,0.5813857913017273,0.49064862728118896,0.348519891500473,0.0,0.0,0.0,0.0,12449.0,15240.0,15254.0,11732.0,1.8165994882583618,-0.017299470330091892,0.022755097289789025,0.049892037934694024,-0.01513037458062172,0.07018313556909561,-0.0
328,5,0.0007305028266273439,0.00024197260790970176,-1.7052205294021405e-05,0.0020745659712702036,-0.01992739923298359,0.001539936289191246,0.05234206095337868,0.07597251236438751,-0.00022865789651405066,-0.7286222577095032,-0.05406183749437332,-0.013843642547726631,0.0,0.0,0.0,0.020845972001552582,0.003457274055108428,-0.0,0.0,0.0,0.0,-0.005073759704828262,-0.02141593210399151,-0.001516390941105783,12392.0,15991.0,14754.0,12559.0,0.33871451020240784,0.5813857913017273,0.49064862728118896,0.348519891500473,0.0,0.0,0.0,0.0,12449.0,15240.0,15254.0,11732.0,1.8165994882583618,-0.02048424904317804,0.023406562279372038,0.04965583018325011,-0.01513037458062172,0.07018313556909561,-0.0
333,5,0.0007879603654146194,0.00022861377510707825,-4.009651456726715e-05,0.007724732626229525,-0.006367900874465704,0.003381291637197137,0.04598667845129967,0.07585594803094864,-0.00033419611281715333,-0.8501494526863098,0.089322529733181,-0.09423378854990005,0.0,0.0,0.0,0.02242516726255417,0.002679761964827776,-0.0,0.0,0.0,0.0,0.000902429863344878,-0.02006085216999054,-0.0010852537816390395,11373.0,15673.0,14455.0,13176.0,0.28174903988838196,0.5573266744613647,0.46990126371383667,0.38601717352867126,0.0,0.0,0.0,0.0,11446.0,16014.0,14021.0,13277.0,1.8300213813781738,-0.029073614980381315,0.02133717454406744,0.046028019431976014,-0.011813934892416,0.07605613768100739,0.0
338,5,0.0007534569012932479,0.0003563331556506455,-0.00010671495692804456,-0.0010505252284929156,-0.017873484641313553,0.009346730075776577,0.04598667845129967,0.07585594803094864,-0.00033419611281715333,-0.8501494526863098,0.089322529733181,-0.09423378854990005,0.0,0.0,0.0,0.02242516726255417,0.002679761964827776,-0.0,0.0,0.0,0.0,0.000902429863344878,-0.02006085216999054,-0.0010852537816390395,11373.0,15673.0,14455.0,13176.0,0.28174903988838196,0.5573266744613647,0.46990126371383667,0.38601717352867126,0.0,0.0,0.0,0.0,11446.0,16014.0,14021.0,13277.0,1.8300213813781738,-0.027835314625884563,0.023075604794452163,0.0484402358477917,-0.011813934892416,0.07605613768100739,0.0
343,5,0.0007383365882560611,0.0004334809200372547,-0.00013222287816461176,-0.0022346454206854105,-0.016407128423452377,0.006799641996622086,0.03647281974554062,0.07384194433689117,-0.0006906273774802685,-0.7473328113555908,0.2020663619041443,0.03491169959306717,0.0,0.0,0.0,0.020572500303387642,5.1327482651686296e-05,-0.0,0.0,0.0,0.0,-0.002215377055108547,-0.017443135380744934,0.0003637303598225117,12979.0,14857.0,15054.0,12033.0,0.3738163113594055,0.49788206815719604,0.511960506439209,0.3180738687515259,0.0,0.0,0.0,0.0,11446.0,16014.0,14021.0,13277.0,1.8092957735061646,-0.029755351996999028,0.022206994027175006,0.04814892826488246,-0.00022372759121935815,0.06898418813943863,0.0
348,5,0.0007228887407109141,0.0004554974439088255,-0.00018961724708788097,-0.002747598569840193,-0.009204832836985588,0.009607180953025818,0.03647281974554062,0.07384194433689117,-0.0006906273774802685,-0.7473328113555908,0.2020663619041443,0.03491169959306717,0.0,0.0,0.0,0.020572500303387642,5.1327482651686296e-05,-0.0,0.0,0.0,0.0,-0.002215377055108547,-0.017443135380744934,0.0003637303598225117,12979.0,14857.0,15054.0,12033.0,0.3738163113594055,0.49788206815719604,0.511960506439209,0.3180738687515259,0.0,0.0,0.0,0.0,11446.0,16014.0,14021.0,13277.0,1.8092957735061646,-0.03262638837574477,0.024410125678154617,0.04714618114801343,-0.00022372759121935815,0.06898418813943863,0.0
353,5,0.0007324686739593744,0.0004745097830891609,-0.0002425011043669656,5.054862776887603e-05,-0.0059634121134877205,0.010188935324549675,0.032032471150159836,0.07230348885059357,-0.0012899934081360698,-0.46093064546585083,0.15731480717658997,-0.10619921237230301,0.0,0.0,0.0,0.011568698100745678,-0.0015157200396060944,-0.0,0.0,0.0,0.0,0.004442977719008923,-0.016557762399315834,-0.003442060435190797,11302.0,16179.0,14383.0,14570.0,0.2780276834964752,0.5958573818206787,0.4649188220500946,0.4777955710887909,0.0,0.0,0.0,0.0,12883.0,14727.0,15804.0,13283.0,1.7266521453857422,-0.03532681509215709,0.022628063551705914,0.047110794252357396,0.0063058920204639435,0.037023741751909256,0.0
358,5,0.0007875208975747228,0.0004863655776716769,-0.00039506424218416214,0.00662648631259799,-0.00380806066095829,0.022383149713277817,0.032032471150159836,0.07230348885059357,-0.0012899934081360698,-0.46093064546585083,0.15731480717658997,-0.10619921237230301,0.0,0.0,0.0,0.011568698100745678,-0.0015157200396060944,-0.0,0.0,0.0,0.0,0.004442977719008923,-0.016557762399315834,-0.003442060435190797,11302.0,16179.0,14383.0,14570.0,0.2780276834964752,0.5958573818206787,0.4649188220500946,0.4777955710887909,0.0,0.0,0.0,0.0,12883.0,14727.0,15804.0,13283.0,1.7266521453857422,-0.03655712794335438,0.02217156906892311,0.04840146469812442,0.0063058920204639435,0.037023741751909256,0.0
363,5,0.0009127139346674085,0.00036930295755155385,-0.0006157377501949668,0.017673756927251816,0.012524290010333061,0.03543408215045929,0.028568483889102936,0.07157310843467712,-0.0012081930181011558,-0.13651466369628906,-0.0253136083483696,-0.028199508786201477,0.0,0.0,0.0,0.005329592619091272,0.0070608826354146,-0.0,0.0,0.0,0.0,0.0010822168551385403,-0.021403027698397636,0.0013406031066551805,12822.0,15536.0,15773.0,12646.0,0.3642626106739044,0.5471629500389099,0.5648841261863708,0.35371169447898865,0.0,0.0,0.0,0.0,12339.0,15532.0,15343.0,13627.0,1.7165578603744507,-0.042666045064012635,0.01578250665067008,0.04705534864089016,-0.029205158352851868,0.016957322135567665,0.0
368,5,0.0008416533237323165,0.00043493681005202234,-0.0005258060991764069,-0.0014577660476788878,-0.0028663487173616886,0.003381832968443632,0.028568483889102936,0.07157310843467712,-0.0012081930181011558,-0.13651466369628906,-0.0253136083483696,-0.028199508786201477,0.0,0.0,0.0,0.005329592619091272,0.0070608826354146,-0.0,0.0,0.0,0.0,0.0010822168551385403,-0.021403027698397636,0.0013406031066551805,12822.0,15536.0,15773.0,12646.0,0.3642626106739044,0.5471629500389099,0.5648841261863708,0.35371169447898865,0.0,0.0,0.0,0.0,12339.0,15532.0,15343.0,13627.0,1.7165578603744507,-0.04159528173019876,0.014863764422595866,0.04841853976605863,-0.029205158352851868,0.016957322135567665,0.0
373,5,0.0007738698041066527,0.00042040596599690616,-0.0004947896231897175,-0.00871712900698185,0.0005971643840894103,-0.0023692441172897816,0.02847050502896309,0.07189877331256866,-0.0016329772770404816,0.02274971455335617,-0.06066529080271721,0.05626484751701355,0.0,0.0,0.0,0.004268427845090628,-0.0002023603447014466,-0.0,0.0,0.0,0.0,-0.003126748837530613,-0.023573847487568855,-0.00011249202361796051,13037.0,15634.0,15784.0,11923.0,0.3773811161518097,0.5543869733810425,0.5656996965408325,0.31182804703712463,0.0,0.0,0.0,0.0,13556.0,15169.0,16159.0,11427.0,1.661392331123352,-0.0439735842167744,0.01575507124666083,0.04712413782845995,0.000810112920589745,0.013144566677510738,0.0
378,5,0.00080500403419137,0.0004724463215097785,-0.0005251190159469843,0.0002492527710273862,-0.006005979608744383,0.0026918307412415743,0.02847050502896309,0.07189877331256866,-0.0016329772770404816,0.02274971455335617,-0.06066529080271721,0.05626484751701355,0.0,0.0,0.0,0.004268427845090628,-0.0002023603447014466,-0.0,0.0,0.0,0.0,-0.003126748837530613,-0.023573847487568855,-0.00011249202361796051,13037.0,15634.0,15784.0,11923.0,0.3773811161518097,0.5543869733810425,0.5656996965408325,0.31182804703712463,0.0,0.0,0.0,0.0,13556.0,15169.0,16159.0,11427.0,1.661392331123352,-0.04261736521094891,0.015092192461717804,0.04754709723602347,0.000810112920589745,0.013144566677510738,0.0
383,5,0.0007499516359530389,0.0004427247622516006,-0.0004669989866670221,-0.006506587844341993,0.0011641974560916424,-0.005897668190300465,0.028368117287755013,0.07209038734436035,-0.001926894299685955,-0.029320355504751205,0.04507719352841377,-0.12191762030124664,0.0,0.0,0.0,0.007997334934771061,0.001320286770351231,-0.0,0.0,0.0,0.0,-0.005248437635600567,-0.022239523008465767,-0.0027973661199212074,11287.0,16622.0,13877.0,13205.0,0.2771858274936676,0.6306676268577576,0.4309737980365753,0.3878248631954193,0.0,0.0,0.0,0.0,11686.0,16323.0,14142.0,12953.0,1.6950414180755615,-0.04603703124335287,0.014509453177940536,0.045856355016338717,-0.005392454098910093,0.02512613870203495,0.0
388,5,0.0007846098742447793,0.0004946474800817668,-0.0005363213713280857,0.0015563589986413717,-0.005765047390013933,0.00595961743965745,0.028368117287755013,0.07209038734436035,-0.001926894299685955,-0.029320355504751205,0.04507719352841377,-0.12191762030124664,0.0,0.0,0.0,0.007997334934771061,0.001320286770351231,-0.0,0.0,0.0,0.0,-0.005248437635600567,-0.022239523008465767,-0.0027973661199212074,11287.0,16622.0,13877.0,13205.0,0.2771858274936676,0.6306676268577576,0.4309737980365753,0.3878248631954193,0.0,0.0,0.0,0.0,11686.0,16323.0,14142.0,12953.0,1.6950414180755615,-0.042638274064721315,0.015936915159270208,0.04822763772311416,-0.005392454098910093,0.02512613870203495,0.0
394,5,0.0007389028323814273,0.0004397997399792075,-0.0005024134879931808,-0.004862303379923105,0.004275710787624121,-0.0016851003747433424,0.028241999447345734,0.07153768837451935,-0.0014998612459748983,-0.022839227691292763,0.12264741212129593,0.04414941743016243,0.0,0.0,0.0,0.007740721572190523,0.0024908920750021935,-0.0,0.0,0.0,0.0,-0.0072945100255310535,-0.01819716952741146,-0.0012346816947683692,13805.0,14769.0,15203.0,11263.0,0.426201730966568,0.4916874170303345,0.5227262377738953,0.27594247460365295,0.0,0.0,0.0,0.0,12756.0,15658.0,14240.0,12498.0,1.6968914270401,-0.04498085826732962,0.014978824597642212,0.04554289663114172,-0.010184681043028831,0.024346480146050453,0.0
399,5,0.0007987088756635785,0.0005189787480048835,-0.0005633432883769274,0.005231803748756647,-0.007791198790073395,0.006637538783252239,0.028241999447345734,0.07153768837451935,-0.0014998612459748983,-0.022839227691292763,0.12264741212129593,0.04414941743016243,0.0,0.0,0.0,0.007740721572190523,0.0024908920750021935,-0.0,0.0,0.0,0.0,-0.0072945100255310535,-0.01819716952741146,-0.0012346816947683692,13805.0,14769.0,15203.0,11263.0,0.426201730966568,0.4916874170303345,0.5227262377738953,0.27594247460365295,0.0,0.0,0.0,0.0,12756.0,15658.0,14240.0,12498.0,1.6968914270401,-0.041781001078806536,0.016822654882161767,0.04783068753086027,-0.010184681043028831,0.024346480146050453,0.0
404,5,0.0007520457147620618,0.00047387872473336756,-0.0005325068486854434,-0.00350686046294868,0.002295522717759013,-0.0010453617433086038,0.028049025684595108,0.06997667998075485,-0.0019295477541163564,-0.027819126844406128,0.1409890204668045,0.029367860406637192,0.0,0.0,0.0,0.009985084645450115,0.005757850129157305,-0.0,0.0,0.0,0.0,-0.005255609750747681,-0.019106600433588028,-0.0009059319854713976,12728.0,15352.0,14344.0,11836.0,0.3585783839225769,0.5335592031478882,0.46228528022766113,0.30696946382522583,0.0,0.0,0.0,0.0,13638.0,14551.0,15202.0,10698.0,1.7333635091781616,-0.045333882867487775,0.01656825728249125,0.046323332001783755,-0.024047939106822014,0.032080184668302536,0.0
409,5,0.0008228176739066839,0.0005695328582078218,-0.0005356562323868275,0.007089894264936447,-0.010560286231338978,-4.021678978460841e-05,0.028049025684595108,0.06997667998075485,-0.0019295477541163564,-0.027819126844406128,0.1409890204668045,0.029367860406637192,0.0,0.0,0.0,0.009985084645450115,0.005757850129157305,-0.0,0.0,0.0,0.0,-0.005255609750747681,-0.019106600433588028,-0.0009059319854713976,12728.0,15352.0,14344.0,11836.0,0.3585783839225769,0.5335592031478882,0.46228528022766113,0.30696946382522583,0.0,0.0,0.0,0.0,13638.0,14551.0,15202.0,10698.0,1.7333635091781616,-0.042616572513716804,0.01810809951544797,0.04774172955500764,-0.024047939106822014,0.032080184668302536,0.0
414,5,0.0008219513110816479,0.0005593282985500991,-0.0005806804401800036,0.0027319893706589937,-0.002999566262587905,0.005386819131672382,0.027610216289758682,0.0692191869020462,-0.0015193648869171739,-0.06760650128126144,0.058363959193229675,-0.09367125481367111,0.0,0.0,0.0,0.013050244189798832,0.007316292263567448,-0.0,0.0,0.0,0.0,-0.005802278406918049,-0.020693255588412285,0.002973351161926985,13947.0,14372.0,15851.0,10278.0,0.4355720281600952,0.4641682505607605,0.5707427859306335,0.22640834748744965,0.0,0.0,0.0,0.0,11382.0,16376.0,13663.0,13153.0,1.7671502828598022,-0.0429743538395934,0.018020821541337734,0.04795001303647937,-0.03115125559270382,0.04274430498480797,0.0
419,5,0.0008044281858019531,0.0005734980804845691,-0.0005491701886057854,-0.0010099750943481922,-0.002900203224271536,-0.0016265043523162603,0.027610216289758682,0.0692191869020462,-0.0015193648869171739,-0.06760650128126144,0.058363959193229675,-0.09367125481367111,0.0,0.0,0.0,0.013050244189798832,0.007316292263567448,-0.0,0.0,0.0,0.0,-0.005802278406918049,-0.020693255588412285,0.002973351161926985,13947.0,14372.0,15851.0,10278.0,0.4355720281600952,0.4641682505607605,0.5707427859306335,0.22640834748744965,0.0,0.0,0.0,0.0,11382.0,16376.0,13663.0,13153.0,1.7671502828598022,-0.04257865713553305,0.01591434802430842,0.049017582156588406,-0.03115125559270382,0.04274430498480797,0.0
424,5,0.0008680978789925575,0.0004105791449546814,-0.000684705562889576,0.007236368954181671,0.018390193581581116,0.01561364158987999,0.027118295431137085,0.06893326342105865,-0.0012029603822156787,-0.0128979766741395,-0.0029367448296397924,0.1214819923043251,0.0,0.0,0.0,0.004553544335067272,0.0001692202058620751,-0.0,0.0,0.0,0.0,-0.004168074578046799,-0.019761674106121063,-0.0018887344049289823,12538.0,15883.0,14685.0,12766.0,0.34724661707878113,0.5731710195541382,0.48583272099494934,0.3608998954296112,0.0,0.0,0.0,0.0,13180.0,15032.0,15333.0,11113.0,1.6637903451919556,-0.04819071083896398,0.015579430184798203,0.04477382492203453,-0.0006784193683415651,0.01404280960559845,0.0
429,5,0.0007747180061414838,0.0005126487230882049,-0.0005522918072529137,-0.008311034180223942,-0.004892269615083933,-0.009644189849495888,0.027118295431137085,0.06893326342105865,-0.0012029603822156787,-0.0128979766741395,-0.0029367448296397924,0.1214819923043251,0.0,0.0,0.0,0.004553544335067272,0.0001692202058620751,-0.0,0.0,0.0,0.0,-0.004168074578046799,-0.019761674106121063,-0.0018887344049289823,12538.0,15883.0,14685.0,12766.0,0.34724661707878113,0.5731710195541382,0.48583272099494934,0.3608998954296112,0.0,0.0,0.0,0.0,13180.0,15032.0,15333.0,11113.0,1.6637903451919556,-0.043987032059158784,0.01522709058345254,0.047820904483793544,-0.0006784193683415651,0.01404280960559845,0.0
434,5,0.0007586410501971841,0.0005202048923820257,-0.000612308387644589,-0.005253649316728115,-0.002863651141524315,0.0033443141728639603,0.02682596631348133,0.06914717704057693,-0.001563524012453854,-0.001943283248692751,0.007684531155973673,-0.00043057108996436,0.0,0.0,0.0,0.006652330979704857,-0.006489838007837534,-0.0,0.0,0.0,0.0,-0.006554449442774057,-0.02054966613650322,0.000875712838023901,12597.0,15394.0,14624.0,11615.0,0.35076582431793213,0.5366299152374268,0.4815790057182312,0.2948155999183655,0.0,0.0,0.0,0.0,13713.0,14920.0,15611.0,11559.0,1.717722773551941,-0.0428481017216106,0.01756200093644201,0.04926525155869194,0.026861246675252914,0.021180180832743645,0.0
439,5,0.000750750070437789,0.0004968451685272157,-0.0006251732702367008,-0.0030483724549412727,0.0016577061032876372,0.0028815101832151413,0.02682596631348133,0.06914717704057693,-0.001563524012453854,-0.001943283248692751,0.007684531155973673,-0.00043057108996436,0.0,0.0,0.0,0.006652330979704857,-0.006489838007837534,-0.0,0.0,0.0,0.0,-0.006554449442774057,-0.02054966613650322,0.000875712838023901,12597.0,15394.0,14624.0,11615.0,0.35076582431793213,0.5366299152374268,0.4815790057182312,0.2948155999183655,0.0,0.0,0.0,0.0,13713.0,14920.0,15611.0,11559.0,1.717722773551941,-0.04338320183997164,0.017838941412974384,0.04877038591423475,0.026861246675252914,0.021180180832743645,0.0
444,5,0.0007707388722337782,0.0004862083005718887,-0.0006340530817396939,0.0011793063022196293,0.0019395070848986506,0.0022181787062436342,0.02682596631348133,0.06914717704057693,-0.001563524012453854,-0.001943283248692751,0.007684531155973673,-0.00043057108996436,0.0,0.0,0.0,-0.0011354286689311266,-0.0018275822512805462,-0.0,0.0,0.0,0.0,-0.006554449442774057,-0.02054966613650322,0.000875712838023901,12597.0,15394.0,14624.0,11615.0,0.35076582431793213,0.5366299152374268,0.4815790057182312,0.2948155999183655,0.0,0.0,0.0,0.0,13713.0,14920.0,15611.0,11559.0,1.6475428342819214,-0.04252226244217525,0.018144459851586962,0.0493163162422696,0.0072554610669612885,-0.0034674080088734627,0.0
450,5,0.0007483902736566961,0.0004165213031228632,-0.0004964419640600681,-0.002813554834574461,0.0022133796010166407,-0.012355592101812363,0.026566028594970703,0.0685921460390091,-0.0008351599099114537,-0.009269618429243565,0.05952879413962364,0.13508473336696625,0.0,0.0,0.0,-0.0011354286689311266,-0.0018275822512805462,-0.0,0.0,0.0,0.0,-0.006356505677103996,-0.021310286596417427,0.002055035438388586,13887.0,14623.0,15861.0,10415.0,0.4316440224647522,0.48152005672454834,0.5715208649635315,0.23303775489330292,0.0,0.0,0.0,0.0,11495.0,16253.0,13626.0,12738.0,1.6475428342819214,-0.046478292001465304,0.016770389038785177,0.04759263838677261,0.0072554610669612885,-0.0034674080088734627,0.0
455,5,0.0008153063245117664,0.0004487168334890157,-0.0005714533035643399,0.006904508452862501,-0.00297811278142035,0.004059122875332832,0.026566028594970703,0.0685921460390091,-0.0008351599099114537,-0.009269618429243565,0.05952879413962364,0.13508473336696625,0.0,0.0,0.0,-0.001959666144102812,-0.0016065025702118874,-0.0,0.0,0.0,0.0,-0.006356505677103996,-0.021310286596417427,0.002055035438388586,13887.0,14623.0,15861.0,10415.0,0.4316440224647522,0.48152005672454834,0.5715208649635315,0.23303775489330292,0.0,0.0,0.0,0.0,11495.0,16253.0,13626.0,12738.0,1.6494756937026978,-0.04266690023818845,0.019289354427208725,0.049067316494544336,0.0063852546736598015,-0.005991506855934858,0.0
460,5,0.0009050403605215251,0.00030338054057210684,-0.0006366942543536425,0.013529886491596699,0.01624911092221737,0.009452561847865582,0.026372574269771576,0.0679258331656456,-0.0009314292692579329,0.010357658378779888,0.07824467867612839,-0.06838752329349518,0.0,0.0,0.0,-0.001959666144102812,-0.0016065025702118874,-0.0,0.0,0.0,0.0,-0.0059481277130544186,-0.021329879760742188,-0.002799881622195244,11674.0,16222.0,13471.0,12511.0,0.2980267405509949,0.5991663932800293,0.4046647548675537,0.3456849455833435,0.0,0.0,0.0,0.0,13701.0,14717.0,15861.0,10532.0,1.6494756937026978,-0.04855498323377996,0.016798902265549902,0.046607133092063956,0.0063852546736598015,-0.005991506855934858,0.0
465,5,0.0008097634417936206,0.00040352431824430823,-0.0004963621031492949,-0.0060212742537260056,-0.0055176084861159325,-0.01305883564054966,0.026372574269771576,0.0679258331656456,-0.0009314292692579329,0.010357658378779888,0.07824467867612839,-0.06838752329349518,0.0,0.0,0.0,-0.001959666144102812,-0.0016065025702118874,-0.0,0.0,0.0,0.0,-0.0059481277130544186,-0.021329879760742188,-0.002799881622195244,11674.0,16222.0,13471.0,12511.0,0.2980267405509949,0.5991663932800293,0.4046647548675537,0.3456849455833435,0.0,0.0,0.0,0.0,13701.0,14717.0,15861.0,10532.0,1.6494756937026978,-0.04556069589716086,0.017753284174615757,0.04847486367961158,0.01807381585240364,0.02292962744832039,0.0
470,5,0.0008286078227683902,0.0004232447827234864,-0.0005836072959937155,-0.00014718837337568402,-0.004573500249534845,0.005245889537036419,0.02626539021730423,0.06759608536958694,-0.00011894977797055617,-0.04296322166919708,0.05306656286120415,0.016424423083662987,0.0,0.0,0.0,0.007258199620991945,-0.004400928504765034,-0.0,0.0,0.0,0.0,-0.007997515611350536,-0.020384816452860832,0.0024847732856869698,13265.0,14886.0,15016.0,10695.0,0.3916250169277191,0.4999328553676605,0.50921231508255,0.2467726767063141,0.0,0.0,0.0,0.0,12741.0,15454.0,14367.0,11400.0,1.7043801546096802,-0.04291803941216786,0.019837284882668598,0.049393079323985574,0.01807381585240364,0.02292962744832039,0.0
475,5,0.0008286078227683902,0.0004232447827234864,-0.0005836072959937155,-0.00014718837337568402,-0.004573500249534845,0.005245889537036419,0.02626539021730423,0.06759608536958694,-0.00011894977797055617,-0.04296322166919708,0.05306656286120415,0.016424423083662987,0.0,0.0,0.0,0.007258199620991945,-0.004400928504765034,-0.0,0.0,0.0,0.0,-0.007997515611350536,-0.020384816452860832,0.0024847732856869698,13265.0,14886.0,15016.0,10695.0,0.3916250169277191,0.4999328553676605,0.50921231508255,0.2467726767063141,0.0,0.0,0.0,0.0,12741.0,15454.0,14367.0,11400.0,1.7043801546096802,-0.04291803941216786,0.019837284882668598,0.049393079323985574,0.01807381585240364,0.02292962744832039,0.0
