timestamp,dt,pos_x,pos_y,pos_z,vel_x,vel_y,vel_z,roll,pitch,yaw,agv_x,agv_y,agv_z,x_ref,y_ref,z_ref,roll_ref,pitch_ref,yaw_ref,x_vel_ref,y_vel_ref,z_vel_ref,x_torque,y_torque,z_torque,w0,w1,w2,w3,u0,u1,u2,u3,m0req,m1req,m2req,m3req,thrust0,thrust1,thrust2,thrust3,thrust_ref,roll_vicon,pitch_vicon,yaw_vicon,acc_x,acc_y,acc_z
5,5,0.0,0.0,0.0,0.0011328369146212935,0.0011009909212589264,0.00047358646406792104,0.008183049969375134,0.0999540388584137,-0.006517000496387482,-0.001405846094712615,0.008567715995013714,5.474862700793892e-05,0.0,0.0,0.0,-0.0013566970592364669,0.0010738001437857747,-0.0,0.0,0.0,0.0,-0.002482454990968108,-0.030091241002082825,-0.0007025981321930885,1495.0,1495.0,1495.0,1495.0,0.0,0.0,0.0,0.0,0.0,0.0,0.0,0.0,1495.0,1495.0,1495.0,1495.0,1.6418133974075317,-0.07812265291547456,-0.013785236228571187,-0.0503282617052595,-0.004248138517141342,-0.004128715954720974,0.0
31,26,0.0,0.0,0.0,6.0701699112541974e-05,0.0004983361577615142,0.0033457395620644093,0.008153123781085014,0.0998825952410698,-0.006494044326245785,0.0012913080863654613,0.005721188150346279,0.0011759910266846418,0.0,0.0,0.0,-0.0013566970592364669,0.0010738001437857747,-0.0,0.0,0.0,0.0,-0.0027485573664307594,-0.02940460294485092,-0.0008158345008268952,1495.0,1495.0,1495.0,1495.0,0.0,0.0,0.0,0.0,0.0,0.0,0.0,0.0,1495.0,1495.0,1495.0,1495.0,1.6418133974075317,-0.07768816228571872,-0.013871112446454836,-0.050714047828392145,-0.004248138517141342,-0.004128715954720974,0.0
37,5,0.0,0.0,0.0,3.788153480854817e-05,0.00126238155644387,-0.0004397340817376971,0.008153123781085014,0.0998825952410698,-0.006494044326245785,0.0012913080863654613,0.005721188150346279,0.0011759910266846418,0.0,0.0,0.0,-0.0006182005745358765,5.7924797147279605e-05,-0.0,0.0,0.0,0.0,-0.0027485573664307594,-0.02940460294485092,-0.0008158345008268952,1495.0,1495.0,1495.0,1495.0,0.0,0.0,0.0,0.0,0.0,0.0,0.0,0.0,1495.0,1495.0,1495.0,1495.0,1.6308566331863403,-0.07702409831259723,-0.013574268169431077,-0.050593980832242334,-0.0002276313753100112,-0.0018687605625018477,0.0
48,12,0.0,0.0,0.0,3.788153480854817e-05,0.00126238155644387,-0.0004397340817376971,0.008125624619424343,0.09980696439743042,-0.0065185148268938065,-0.00012188086111564189,-0.00286572752520442,-0.0006463702884502709,0.0,0.0,0.0,-0.0006182005745358765,5.7924797147279605e-05,-0.0,0.0,0.0,0.0,-0.0027485573664307594,-0.02940460294485092,-0.0008158345008268952,1495.0,1495.0,1495.0,1495.0,0.0,0.0,0.0,0.0,0.0,0.0,0.0,0.0,1495.0,1495.0,1495.0,1495.0,1.6308566331863403,-0.07702409831259723,-0.013574268169431077,-0.050593980832242334,-0.0002276313753100112,-0.0018687605625018477,0.0
57,8,0.0,0.0,0.0,0.0002369854919379577,-0.0022180338855832815,-0.0012091996613889933,0.00813907478004694,0.09991062432527542,-0.0065740435384213924,0.005038795992732048,-0.012511000037193298,-0.003273316426202655,0.0,0.0,0.0,0.002722225384786725,0.00022373553656507283,-0.0,0.0,0.0,0.0,-0.002841559238731861,-0.02989332005381584,-0.0009067167993634939,11063.0,15974.0,15067.0,11402.0,0.26549121737480164,0.5801201462745667,0.5128717422485352,0.2833302915096283,0.0,0.0,0.0,0.0,1495.0,1495.0,1495.0,1495.0,1.6484196186065674,-0.0783376396197791,-0.013733943376882983,-0.0505433482465236,-0.0008886955911293626,0.008317627012729645,0.0
65,9,0.0,0.0,0.0,-0.00012533078552223742,0.0013272167416289449,0.003973739687353373,0.00813907478004694,0.09991062432527542,-0.0065740435384213924,0.005038795992732048,-0.012511000037193298,-0.003273316426202655,0.0,0.0,0.0,0.002722225384786725,0.00022373553656507283,-0.0,0.0,0.0,0.0,-0.002841559238731861,-0.02989332005381584,-0.0009067167993634939,11063.0,15974.0,15067.0,11402.0,0.26549121737480164,0.5801201462745667,0.5128717422485352,0.2833302915096283,0.0,0.0,0.0,0.0,1495.0,1495.0,1495.0,1495.0,1.6484196186065674,-0.07838963759710132,-0.014175213063378024,-0.05046297840702153,-0.0008886955911293626,0.008317627012729645,0.0
70,5,7.760746484564152e-06,1.9793824321823195e-05,2.0345956727396697e-05,0.0008811572333797812,-0.0018443722510710359,-0.0008520190604031086,0.00813907478004694,0.09991062432527542,-0.0065740435384213924,0.005038795992732048,-0.012511000037193298,-0.003273316426202655,0.0,0.0,0.0,0.002722225384786725,0.00022373553656507283,-0.0,0.0,0.0,0.0,-0.002841559238731861,-0.02989332005381584,-0.0009067167993634939,11063.0,15974.0,15067.0,11402.0,0.26549121737480164,0.5801201462745667,0.5128717422485352,0.2833302915096283,0.0,0.0,0.0,0.0,1495.0,1495.0,1495.0,1495.0,1.6484196186065674,-0.07863512990551998,-0.013847771371192204,-0.05040637974039532,-0.0008886955911293626,0.008317627012729645,0.0
75,5,5.096493623568676e-06,-7.71701797930291e-06,2.1275529434205964e-05,3.2752606784924865e-05,0.0025635522324591875,-0.00045235632569529116,0.008146407082676888,0.09992607682943344,-0.006567921489477158,0.0012931625824421644,0.002015411388128996,0.004735758062452078,0.0,0.0,0.0,0.002301478525623679,0.0008434504852630198,-0.0,0.0,0.0,0.0,-0.002827721182256937,-0.02961428463459015,-0.0005983817973174155,11226.0,15858.0,15148.0,11300.0,0.27397748827934265,0.5712608695030212,0.5187024474143982,0.27787259221076965,0.0,0.0,0.0,0.0,11254.0,15850.0,15158.0,11269.0,1.646842360496521,-0.07929807982542618,-0.01389301261387333,-0.05024612853871722,-0.003347050864249468,0.007025331258773804,0.0
81,5,-4.089236426807474e-06,-2.215425411122851e-05,6.34262542007491e-05,-0.0010891866404563189,0.0027578892186284065,-0.005239029880613089,0.008146407082676888,0.09992607682943344,-0.006567921489477158,0.0012931625824421644,0.002015411388128996,0.004735758062452078,0.0,0.0,0.0,0.002301478525623679,0.0008434504852630198,-0.0,0.0,0.0,0.0,-0.002827721182256937,-0.02961428463459015,-0.0005983817973174155,11226.0,15858.0,15148.0,11300.0,0.27397748827934265,0.5712608695030212,0.5187024474143982,0.27787259221076965,0.0,0.0,0.0,0.0,11254.0,15850.0,15158.0,11269.0,1.646842360496521,-0.07932901677892448,-0.013290462076167265,-0.05014112884833561,-0.003347050864249468,0.007025331258773804,0.0
86,5,-1.3559953004005365e-05,-1.0425918617329444e-06,7.751079829176888e-05,-0.0015721606323495507,-0.001430243719369173,-0.0037857568822801113,0.008166097104549408,0.09989657998085022,-0.006551862228661776,0.0026818490587174892,-0.0017989822663366795,-0.0003312217886559665,0.0,0.0,0.0,-0.0034086178056895733,-0.001029100501909852,-0.0,0.0,0.0,0.0,-0.0015795864164829254,-0.030004488304257393,-0.0007660515257157385,11042.0,15890.0,15229.0,11447.0,0.26439568400382996,0.5736854076385498,0.52458256483078,0.2857559621334076,0.0,0.0,0.0,0.0,11144.0,15912.0,15130.0,11267.0,1.656189203262329,-0.07848225738896025,-0.013594521963632528,-0.050116338104499475,0.004106927663087845,-0.010463940910995007,0.0
91,5,-4.12525105275563e-06,7.841501428629272e-06,7.834161806385964e-05,0.000503299932461232,-0.0016381887253373861,-0.0016140008810907602,0.008166097104549408,0.09989657998085022,-0.006551862228661776,0.0026818490587174892,-0.0017989822663366795,-0.0003312217886559665,0.0,0.0,0.0,-0.0034086178056895733,-0.001029100501909852,-0.0,0.0,0.0,0.0,-0.0015795864164829254,-0.030004488304257393,-0.0007660515257157385,11042.0,15890.0,15229.0,11447.0,0.26439568400382996,0.5736854076385498,0.52458256483078,0.2857559621334076,0.0,0.0,0.0,0.0,11144.0,15912.0,15130.0,11267.0,1.656189203262329,-0.07772279586904711,-0.01354034493470086,-0.050350976227946743,0.004106927663087845,-0.010463940910995007,0.0
96,5,-3.3529311167512788e-06,-4.61035006082966e-06,1.8068520148517564e-05,0.0002939983969554305,0.0008389467257075012,0.006587170995771885,0.008163097314536572,0.09990950673818588,-0.006569283083081245,-0.00034468804369680583,-0.009493352845311165,-0.00013631429465021938,0.0,0.0,0.0,0.0020310387481004,0.0004709184286184609,-0.0,0.0,0.0,0.0,-0.0015795864164829254,-0.030004488304257393,-0.0007660515257157385,11042.0,15890.0,15229.0,11447.0,0.26439568400382996,0.5736854076385498,0.52458256483078,0.2857559621334076,0.0,0.0,0.0,0.0,11054.0,15886.0,15243.0,11422.0,1.6432688236236572,-0.07781547073214123,-0.014253475950915901,-0.05008115555796086,-0.0018646842800080776,0.006186355371028185,0.0
101,5,-1.927117227751296e-05,1.7600064893485978e-05,1.5814919606782496e-05,-0.0017925894353538752,-0.0023296712897717953,0.0029053003527224064,0.008163097314536572,0.09990950673818588,-0.006569283083081245,-0.00034468804369680583,-0.009493352845311165,-0.00013631429465021938,0.0,0.0,0.0,0.0020310387481004,0.0004709184286184609,-0.0,0.0,0.0,0.0,-0.0015795864164829254,-0.030004488304257393,-0.0007660515257157385,11042.0,15890.0,15229.0,11447.0,0.26439568400382996,0.5736854076385498,0.52458256483078,0.2857559621334076,0.0,0.0,0.0,0.0,11054.0,15886.0,15243.0,11422.0,1.6432688236236572,-0.07734145094456552,-0.013508920023972425,-0.050491575014647676,-0.0018646842800080776,0.006186355371028185,0.0
106,5,-1.2904876712127589e-05,1.1891579561051913e-05,9.010397661768366e-06,4.6919547457946464e-05,-0.000246850133407861,0.001978662796318531,0.008171466179192066,0.09998834878206253,-0.006581989116966724,0.0010484420927241445,-0.005698372609913349,-0.0007803078624419868,0.0,0.0,0.0,0.002877746010199189,-0.001711217570118606,-0.0,0.0,0.0,0.0,-0.0016192580806091428,-0.03010849468410015,-0.0006700048688799143,11068.0,15875.0,15243.0,11424.0,0.26575982570648193,0.5725401639938354,0.5256357192993164,0.2844839096069336,0.0,0.0,0.0,0.0,11058.0,15889.0,15218.0,11447.0,1.6559820175170898,-0.07812063287066254,-0.01393252286506231,-0.05061855910554337,0.006828270852565765,0.008833148516714573,-0.0
111,5,-1.7749727703630924e-05,1.0096686082761153e-06,2.2768081180402078e-06,-0.0005626141792163253,0.0012070892844349146,0.0015994958812370896,0.008171466179192066,0.09998834878206253,-0.006581989116966724,0.0010484420927241445,-0.005698372609913349,-0.0007803078624419868,0.0,0.0,0.0,0.002877746010199189,-0.001711217570118606,-0.0,0.0,0.0,0.0,-0.0016192580806091428,-0.03010849468410015,-0.0006700048688799143,11068.0,15875.0,15243.0,11424.0,0.26575982570648193,0.5725401639938354,0.5256357192993164,0.2844839096069336,0.0,0.0,0.0,0.0,11058.0,15889.0,15218.0,11447.0,1.6559820175170898,-0.07774353983436443,-0.01394793084023653,-0.05049353772501056,0.006828270852565765,0.008833148516714573,-0.0
117,6,-6.884009053464979e-06,-2.2758514717224898e-07,4.5412572944769636e-05,0.0010788404615595937,0.0006313061458058655,-0.004536493681371212,0.00819468218833208,0.09996432811021805,-0.0065803672187030315,2.4357632355531678e-05,0.0075099654495716095,0.004018889740109444,0.0,0.0,0.0,-0.001487775589339435,-0.0005588264320977032,-0.0,0.0,0.0,0.0,-0.001800767844542861,-0.02970319427549839,-0.0006537247099913657,11139.0,15835.0,15218.0,11401.0,0.2702891528606415,0.5685603022575378,0.5247004628181458,0.2832924425601959,0.0,0.0,0.0,0.0,11154.0,15819.0,15215.0,11429.0,1.6393955945968628,-0.07923522977529905,-0.014069300561652424,-0.050126886002060125,0.0022075579036027193,-0.004520947113633156,-0.0
122,5,-3.0785927265242208e-06,-2.459840516166878e-06,5.046339356340468e-05,0.0008881861576810479,0.0005203931359574199,-0.0024206959642469883,0.00819468218833208,0.09996432811021805,-0.0065803672187030315,2.4357632355531678e-05,0.0075099654495716095,0.004018889740109444,0.0,0.0,0.0,-0.001487775589339435,-0.0005588264320977032,-0.0,0.0,0.0,0.0,-0.001800767844542861,-0.02970319427549839,-0.0006537247099913657,11139.0,15835.0,15218.0,11401.0,0.2702891528606415,0.5685603022575378,0.5247004628181458,0.2832924425601959,0.0,0.0,0.0,0.0,11154.0,15819.0,15215.0,11429.0,1.6393955945968628,-0.07875128027964397,-0.013483568181239315,-0.05029232889762275,0.0022075579036027193,-0.004520947113633156,-0.0
127,5,-9.640473308536457e-07,1.8832125761036878e-06,4.0622388041811064e-05,0.0006090198876336217,-0.0003130091354250908,0.00021264232054818422,0.008189734071493149,0.09988992661237717,-0.0065638599917292595,0.0005030074389651418,-0.0029317133594304323,0.001519050681963563,0.0,0.0,0.0,0.00038342285552062094,0.0005761778447777033,-0.0,0.0,0.0,0.0,-0.0017770392587408423,-0.029687359929084778,-0.0006521124741993845,11120.0,15846.0,15219.0,11418.0,0.2684403955936432,0.5703548789024353,0.5238698720932007,0.28417715430259705,0.0,0.0,0.0,0.0,11022.0,15894.0,15180.0,11430.0,1.6326583623886108,-0.07946481311250359,-0.014138652910892354,-0.050012020787174725,-0.0022667504381388426,0.0011603308375924826,-0.0
133,6,-1.7175829270854592e-05,3.5308432870806428e-06,5.19043423992116e-05,-0.0017018058570101857,-0.0003229193389415741,-0.0012687775306403637,0.008189734071493149,0.09988992661237717,-0.0065638599917292595,0.0005030074389651418,-0.0029317133594304323,0.001519050681963563,0.0,0.0,0.0,0.00038342285552062094,0.0005761778447777033,-0.0,0.0,0.0,0.0,-0.0017770392587408423,-0.029687359929084778,-0.0006521124741993845,11120.0,15846.0,15219.0,11418.0,0.2684403955936432,0.5703548789024353,0.5238698720932007,0.28417715430259705,0.0,0.0,0.0,0.0,11022.0,15894.0,15180.0,11430.0,1.6326583623886108,-0.07874595311711584,-0.013776999415030348,-0.05019041723325249,-0.0022667504381388426,0.0011603308375924826,-0.0
138,5,-1.5548483133898117e-05,3.1840936571825296e-05,3.9851154724601656e-05,-0.000485440919874236,-0.003526379121467471,0.000938871584367007,0.008182485587894917,0.09993855655193329,-0.006619427818804979,-0.0019892144482582808,-0.004766091238707304,-0.003568114945665002,0.0,0.0,0.0,0.0004038827319163829,-0.0016352446982637048,-0.0,0.0,0.0,0.0,-0.0015922855818644166,-0.030758831650018692,-0.000726024154573679,10974.0,15982.0,15264.0,11475.0,0.26089733839035034,0.5806940793991089,0.5271645784378052,0.2872260808944702,0.0,0.0,0.0,0.0,11000.0,15963.0,15283.0,11451.0,1.6436221599578857,-0.07756121617137732,-0.013294200624433655,-0.051103771287351454,0.00647644093260169,0.0012304552365094423,0.0
143,5,-1.6605508790235035e-05,9.212422810378484e-06,1.830262044677511e-05,-0.000321019469993189,0.0013048701221123338,0.002961372723802924,0.008182485587894917,0.09993855655193329,-0.006619427818804979,-0.0019892144482582808,-0.004766091238707304,-0.003568114945665002,0.0,0.0,0.0,0.0004038827319163829,-0.0016352446982637048,-0.0,0.0,0.0,0.0,-0.0015922855818644166,-0.030758831650018692,-0.000726024154573679,10974.0,15982.0,15264.0,11475.0,0.26089733839035034,0.5806940793991089,0.5271645784378052,0.2872260808944702,0.0,0.0,0.0,0.0,11000.0,15963.0,15283.0,11451.0,1.6436221599578857,-0.07838053783625507,-0.014497033903804824,-0.05021912726242181,0.00647644093260169,0.0012304552365094423,0.0
148,5,-1.9211425751564093e-05,5.62675268156454e-06,2.6967212761519477e-05,-0.00044111773604527116,0.0009522284963168204,0.00014479810488410294,0.008184503763914108,0.09998400509357452,-0.006640850566327572,0.0017872040625661612,-0.0004746685444843024,0.0015267948620021343,0.0,0.0,0.0,-0.0015936336712911725,-0.0003279340162407607,-0.0,0.0,0.0,0.0,-0.0015568815870210528,-0.0304814912378788,-0.0007145850686356425,11096.0,15936.0,15112.0,11318.0,0.2671930193901062,0.5771955847740173,0.5161517858505249,0.27885520458221436,0.0,0.0,0.0,0.0,11123.0,15887.0,15343.0,11359.0,1.6393458843231201,-0.07771638982717143,-0.01399673109997046,-0.05018607805578616,0.0012954134726896882,-0.00484247412532568,-0.0
153,5,4.045858986501116e-06,-7.212678156065522e-06,1.6022931959014386e-05,0.00261442712508142,0.0019216230139136314,0.0013712329091504216,0.008184503763914108,0.09998400509357452,-0.006640850566327572,0.0017872040625661612,-0.0004746685444843024,0.0015267948620021343,0.0,0.0,0.0,-0.0015936336712911725,-0.0003279340162407607,-0.0,0.0,0.0,0.0,-0.0015568815870210528,-0.0304814912378788,-0.0007145850686356425,11096.0,15936.0,15112.0,11318.0,0.2671930193901062,0.5771955847740173,0.5161517858505249,0.27885520458221436,0.0,0.0,0.0,0.0,11123.0,15887.0,15343.0,11359.0,1.6393458843231201,-0.07824847832068393,-0.014198875024594028,-0.04987408538133162,0.0012954134726896882,-0.00484247412532568,-0.0
158,5,-2.0285448044887744e-05,-4.4965253209738876e-07,3.3881442504934967e-05,-0.0018739859806373715,-4.29138308390975e-05,-0.0015945280902087688,0.008172637782990932,0.09992595762014389,-0.0066209398210048676,-0.002636173740029335,0.011225969530642033,0.00016832952678669244,0.0,0.0,0.0,-0.0015936336712911725,-0.0003279340162407607,-0.0,0.0,0.0,0.0,-0.002884494373574853,-0.03044457919895649,-0.0006502767209894955,11080.0,15949.0,15140.0,11277.0,0.266376256942749,0.5782146453857422,0.5181257128715515,0.27667897939682007,0.0,0.0,0.0,0.0,11168.0,15889.0,15167.0,11240.0,1.6393458843231201,-0.07837864690019529,-0.01410404271425326,-0.0500729311280571,0.0012954134726896882,-0.00484247412532568,-0.0
164,5,-1.6843854609760456e-05,-4.174872174189659e-06,4.6886649215593934e-05,-0.00033660311601124704,0.0004298608109820634,-0.002198436064645648,0.008172637782990932,0.09992595762014389,-0.0066209398210048676,-0.002636173740029335,0.011225969530642033,0.00016832952678669244,0.0,0.0,0.0,5.200261148274876e-05,-0.0018009957857429981,-0.0,0.0,0.0,0.0,-0.002884494373574853,-0.03044457919895649,-0.0006502767209894955,11080.0,15949.0,15140.0,11277.0,0.266376256942749,0.5782146453857422,0.5181257128715515,0.27667897939682007,0.0,0.0,0.0,0.0,11168.0,15889.0,15167.0,11240.0,1.6451071500778198,-0.07834467123064882,-0.014256371070668485,-0.050177458873103015,0.007139348424971104,0.00015857251128181815,0.0
169,5,-1.1712518244166858e-05,1.6433388736913912e-05,8.276492735603824e-05,0.0004811190883629024,-0.0023010470904409885,-0.005184768233448267,0.008158472366631031,0.09992070496082306,-0.006616456434130669,-0.0009919751901179552,-0.001958001870661974,-0.0054441895335912704,0.0,0.0,0.0,5.200261148274876e-05,-0.0018009957857429981,-0.0,0.0,0.0,0.0,-0.002418825402855873,-0.030236179009079933,-0.0006047395872883499,11055.0,15871.0,15152.0,11270.0,0.2650851905345917,0.5722406506538391,0.519005298614502,0.2763272225856781,0.0,0.0,0.0,0.0,10980.0,15909.0,15094.0,11366.0,1.6451071500778198,-0.07758526445389982,-0.013183490144236509,-0.05037190461599968,0.007139348424971104,0.00015857251128181815,0.0
174,5,-7.060531515890034e-06,-3.023275667146663e-06,5.0843209464801475e-06,0.0007506859838031232,0.001414380967617035,0.007247766014188528,0.008158472366631031,0.09992070496082306,-0.006616456434130669,-0.0009919751901179552,-0.001958001870661974,-0.0054441895335912704,0.0,0.0,0.0,0.00285128690302372,0.0004375304270070046,-0.0,0.0,0.0,0.0,-0.002418825402855873,-0.030236179009079933,-0.0006047395872883499,11055.0,15871.0,15152.0,11270.0,0.2650851905345917,0.5722406506538391,0.519005298614502,0.2763272225856781,0.0,0.0,0.0,0.0,10980.0,15909.0,15094.0,11366.0,1.6498425006866455,-0.07865490201993565,-0.014198592558608888,-0.04983374918989754,-0.0017394055612385273,0.008719486184418201,0.0
179,5,-2.196208697569091e-05,5.096631412015995e-06,2.1790188839077018e-05,-0.00148791226092726,-0.00040863643516786397,0.000894402211997658,0.00824589654803276,0.10005311667919159,-0.006598912179470062,0.014768472872674465,0.00400996720418334,-0.01742783933877945,0.0,0.0,0.0,0.00285128690302372,0.0004375304270070046,-0.0,0.0,0.0,0.0,-0.0024750360753387213,-0.03079301118850708,-0.0005219614249654114,10991.0,15996.0,15159.0,11350.0,0.26176920533180237,0.5817831754684448,0.5195042490959167,0.2805655300617218,0.0,0.0,0.0,0.0,11119.0,15891.0,15304.0,11176.0,1.6498425006866455,-0.07973361841222534,-0.014743250859814412,-0.0500280258952332,-0.0017394055612385273,0.008719486184418201,0.0
184,5,-2.7556863642530516e-05,6.2274439187604e-06,3.4007647627731785e-05,-0.0012665381655097008,-0.0002991521032527089,-0.0011083343997597694,0.00824589654803276,0.10005311667919159,-0.006598912179470062,0.014768472872674465,0.00400996720418334,-0.01742783933877945,0.0,0.0,0.0,0.0005128287011757493,-0.0014410479925572872,-0.0,0.0,0.0,0.0,-0.0024750360753387213,-0.03079301118850708,-0.0005219614249654114,10991.0,15996.0,15159.0,11350.0,0.26176920533180237,0.5817831754684448,0.5195042490959167,0.2805655300617218,0.0,0.0,0.0,0.0,11119.0,15891.0,15304.0,11176.0,1.6417770385742188,-0.07824160121013533,-0.013974642526718883,-0.04999270110405189,0.005700911395251751,0.0015606122324243188,-0.0
189,5,-2.243953349534422e-05,-1.8708738934947178e-05,1.8997110601048917e-05,0.00010746438056230545,0.0028726812452077866,0.0013579308288171887,0.008214452303946018,0.09998804330825806,-0.006672856397926807,-0.02005612663924694,0.004062596708536148,-0.004541049245744944,0.0,0.0,0.0,0.0005128287011757493,-0.0014410479925572872,-0.0,0.0,0.0,0.0,-0.0026749835815280676,-0.030110321938991547,-0.0010817790171131492,10869.0,16058.0,14992.0,11522.0,0.2555595636367798,0.5865306258201599,0.507484495639801,0.28977125883102417,0.0,0.0,0.0,0.0,11397.0,15705.0,15473.0,10953.0,1.6417770385742188,-0.07905457929889481,-0.014611001172732067,-0.050113100120484214,0.005700911395251751,0.0015606122324243188,-0.0
194,5,-1.7101845514844172e-05,-3.6409601307241246e-06,3.4046574000967667e-05,0.0006835082895122468,-0.0006590610719285905,-0.001262763049453497,0.008214452303946018,0.09998804330825806,-0.006672856397926807,-0.02005612663924694,0.004062596708536148,-0.004541049245744944,0.0,0.0,0.0,-0.003544717328622937,6.996383308432996e-05,-0.0,0.0,0.0,0.0,-0.0026749835815280676,-0.030110321938991547,-0.0010817790171131492,10869.0,16058.0,14992.0,11522.0,0.2555595636367798,0.5865306258201599,0.507484495639801,0.28977125883102417,0.0,0.0,0.0,0.0,11397.0,15705.0,15473.0,10953.0,1.655212163925171,-0.07844764641119394,-0.01454591087717371,-0.049779209777633115,-0.0002790464204736054,-0.010875323787331581,-0.0
199,5,-1.893189073598478e-05,-3.974400442530168e-06,1.4670980817754753e-05,5.379777940106578e-05,-0.00022361156879924238,0.001819965778850019,0.008339622989296913,0.1000208929181099,-0.00658337352797389,0.0057760607451200485,-0.0018148758681491017,-0.05451678857207298,0.0,0.0,0.0,-0.003544717328622937,6.996383308432996e-05,-0.0,0.0,0.0,0.0,-0.001633775420486927,-0.030932001769542694,-0.0005726304370909929,11065.0,15980.0,15208.0,11261.0,0.2656024992465973,0.5805670022964478,0.523080050945282,0.2758576571941376,0.0,0.0,0.0,0.0,10155.0,16460.0,14632.0,12231.0,1.655212163925171,-0.07868053614432803,-0.01570197193017066,-0.049564308787043314,-0.0002790464204736054,-0.010875323787331581,-0.0
204,5,-3.824099985649809e-05,5.818951194669353e-06,4.896810423815623e-05,-0.002295573940500617,-0.0012646468821913004,-0.0033876686356961727,0.008339622989296913,0.1000208929181099,-0.00658337352797389,0.0057760607451200485,-0.0018148758681491017,-0.05451678857207298,0.0,0.0,0.0,0.00027060104184783995,2.4725393814151175e-05,-0.0,0.0,0.0,0.0,-0.001633775420486927,-0.030932001769542694,-0.0005726304370909929,11065.0,15980.0,15208.0,11261.0,0.2656024992465973,0.5805670022964478,0.523080050945282,0.2758576571941376,0.0,0.0,0.0,0.0,10155.0,16460.0,14632.0,12231.0,1.6284600496292114,-0.07859710462314502,-0.015038730664789056,-0.05056284718746205,-9.702244278742e-05,0.0008167988853529096,-0.0
209,5,-3.138219108222984e-05,6.490826763183577e-06,2.216224675066769e-05,-9.51725960476324e-05,-0.0005864838021807373,0.0018616355955600739,0.008332326076924801,0.1001935824751854,-0.006708335597068071,0.022606607526540756,-0.038723938167095184,0.04155765473842621,0.0,0.0,0.0,0.00027060104184783995,2.4725393814151175e-05,-0.0,0.0,0.0,0.0,-0.0023792788852006197,-0.03079737350344658,-0.002369622467085719,9907.0,16646.0,14399.0,12314.0,0.20901937782764435,0.6325491070747375,0.46604007482528687,0.33416855335235596,0.0,0.0,0.0,0.0,11675.0,15538.0,15768.0,10393.0,1.6284600496292114,-0.0776136196420132,-0.014954094261256427,-0.050263400168915694,-9.702244278742e-05,0.0008167988853529096,-0.0
214,5,-7.629768515471369e-05,-2.080842386931181e-05,5.610523294308223e-05,-0.005427928175777197,0.003041316522285342,-0.0033285042736679316,0.008332326076924801,0.1001935824751854,-0.006708335597068071,0.022606607526540756,-0.038723938167095184,0.04155765473842621,0.0,0.0,0.0,0.0007388955564238131,-0.00013482641952577978,-0.0,0.0,0.0,0.0,-0.0023792788852006197,-0.03079737350344658,-0.002369622467085719,9907.0,16646.0,14399.0,12314.0,0.20901937782764435,0.6325491070747375,0.46604007482528687,0.33416855335235596,0.0,0.0,0.0,0.0,11675.0,15538.0,15768.0,10393.0,1.6319819688796997,-0.07964027477231185,-0.014085032032331522,-0.05080762694118293,0.0005302029312588274,0.0022351511288434267,-0.0
219,5,-1.0628608833940234e-05,7.83027098805178e-06,2.296109414601233e-05,0.005709117744117975,-0.002220116788521409,0.002645895117893815,0.008332326076924801,0.1001935824751854,-0.006708335597068071,0.022606607526540756,-0.038723938167095184,0.04155765473842621,0.0,0.0,0.0,0.0007388955564238131,-0.00013482641952577978,-0.0,0.0,0.0,0.0,-0.0023792788852006197,-0.03079737350344658,-0.002369622467085719,9907.0,16646.0,14399.0,12314.0,0.20901937782764435,0.6325491070747375,0.46604007482528687,0.33416855335235596,0.0,0.0,0.0,0.0,11675.0,15538.0,15768.0,10393.0,1.6319819688796997,-0.07900393273868564,-0.014911704147439099,-0.05001184607500592,0.0005302029312588274,0.0022351511288434267,-0.0
225,5,0.0001458414044464007,6.930621020728722e-05,-0.00010738028504420072,0.021060047671198845,-0.008265160024166107,0.016699323430657387,0.008519589900970459,0.10034220665693283,-0.0069189416244626045,0.009903076104819775,0.02675536274909973,-0.08009442687034607,0.0,0.0,0.0,0.0026753137353807688,0.005250193178653717,-0.0,0.0,0.0,0.0,-0.003729051910340786,-0.030257053673267365,0.0010111798765137792,11670.0,15711.0,15470.0,10858.0,0.29780033230781555,0.5601774454116821,0.5422369837760925,0.2549974024295807,0.0,0.0,0.0,0.0,11194.0,16094.0,15010.0,11428.0,1.6876177787780762,-0.07223882715786867,-0.013904092424281263,-0.04562281003379175,-0.021349992603063583,0.00836866907775402,-0.0
230,5,0.0005185616319067776,-2.613021933939308e-06,8.500445983372629e-05,0.024171561002731323,0.0022888928651809692,-0.0054162126034498215,0.008519589900970459,0.10034220665693283,-0.0069189416244626045,0.009903076104819775,0.02675536274909973,-0.08009442687034607,0.0,0.0,0.0,0.0026753137353807688,0.005250193178653717,-0.0,0.0,0.0,0.0,-0.003729051910340786,-0.030257053673267365,0.0010111798765137792,11670.0,15711.0,15470.0,10858.0,0.29780033230781555,0.5601774454116821,0.5422369837760925,0.2549974024295807,0.0,0.0,0.0,0.0,11194.0,16094.0,15010.0,11428.0,1.6876177787780762,-0.07582175096800055,-0.0069773652355490465,-0.03744346622326816,-0.021349992603063583,0.00836866907775402,-0.0
235,5,0.0005333936423994601,-1.3636023368235328e-06,0.00013671534543391317,0.011448467150330544,0.000765626784414053,-0.008371790871024132,0.00825295690447092,0.0996716171503067,-0.0065511250868439674,0.017295751720666885,0.08351068198680878,0.042753495275974274,0.0,0.0,0.0,-0.0024760097730904818,0.020713839679956436,-0.0,0.0,0.0,0.0,-0.0022193151526153088,-0.02880346216261387,-1.8119839296559803e-05,11637.0,15441.0,15364.0,10916.0,0.2960089445114136,0.5400799512863159,0.5344125628471375,0.2579585909843445,0.0,0.0,0.0,0.0,10231.0,16256.0,14611.0,12099.0,1.8733344078063965,-0.07521609402293077,-0.004927838526779554,-0.03708656087158754,-0.09349651634693146,-0.008597563952207565,0.0
240,5,0.0005333936423994601,-1.3636023368235328e-06,0.00013671534543391317,0.011448467150330544,0.000765626784414053,-0.008371790871024132,0.00825295690447092,0.0996716171503067,-0.0065511250868439674,0.017295751720666885,0.08351068198680878,0.042753495275974274,0.0,0.0,0.0,-0.0024760097730904818,0.020713839679956436,-0.0,0.0,0.0,0.0,-0.0022193151526153088,-0.02880346216261387,-1.8119839296559803e-05,11637.0,15441.0,15364.0,10916.0,0.2960089445114136,0.5400799512863159,0.5344125628471375,0.2579585909843445,0.0,0.0,0.0,0.0,10231.0,16256.0,14611.0,12099.0,1.8733344078063965,-0.07521609402293077,-0.004927838526779554,-0.03708656087158754,-0.09349651634693146,-0.008597563952207565,0.0
245,5,0.0005977071705274284,7.978456778801046e-06,0.00021827999444212765,0.0076604015193879604,-0.0007266616448760033,-0.008438818156719208,0.008009666576981544,0.09828029572963715,-0.006821190472692251,-0.015024414286017418,0.2762143909931183,-0.004479297436773777,0.0,0.0,0.0,-0.0008879753295332193,0.010884808376431465,-0.0,0.0,0.0,0.0,-0.0016150908777490258,-0.02505837380886078,-0.0021388069726526737,10908.0,15883.0,14344.0,12398.0,0.25751158595085144,0.573165237903595,0.46225014328956604,0.33905497193336487,0.0,0.0,0.0,0.0,11519.0,15495.0,15123.0,11366.0,1.7488367557525635,-0.07533903452455104,-0.0005835887300331947,-0.036104899512682066,-0.04586835950613022,-0.0028784493915736675,0.0
250,5,0.0006286439602263272,2.4111504899337888e-05,0.0002354478492634371,0.006776576396077871,-0.0022266304586082697,-0.005435670726001263,0.008009666576981544,0.09828029572963715,-0.006821190472692251,-0.015024414286017418,0.2762143909931183,-0.004479297436773777,0.0,0.0,0.0,-0.0008879753295332193,0.010884808376431465,-0.0,0.0,0.0,0.0,-0.0016150908777490258,-0.02505837380886078,-0.0021388069726526737,10908.0,15883.0,14344.0,12398.0,0.25751158595085144,0.573165237903595,0.46225014328956604,0.33905497193336487,0.0,0.0,0.0,0.0,11519.0,15495.0,15123.0,11366.0,1.7488367557525635,-0.0734800832563533,0.0031179018870077808,-0.03577301836002502,-0.04586835950613022,-0.0028784493915736675,0.0
255,5,0.0006724675185978413,0.00014900205133017153,0.00039203837513923645,0.007969459518790245,-0.01587751694023609,-0.020965130999684334,0.007825564593076706,0.09379945695400238,-0.006650637835264206,-0.029616929590702057,0.469946950674057,-0.016309792175889015,0.0,0.0,0.0,0.002681356156244874,0.007021019700914621,-0.0,0.0,0.0,0.0,-0.0013004170032218099,-0.0170269962400198,-0.0005210720701143146,12310.0,15176.0,14498.0,12753.0,0.3339235186576843,0.5207276940345764,0.4728327989578247,0.3601337671279907,0.0,0.0,0.0,0.0,12314.0,15141.0,14185.0,13139.0,1.7067608833312988,-0.06813060069111382,0.011680567952241126,-0.03785858105718943,-0.028874844312667847,0.008482713252305984,0.0
260,5,0.0007238818216137588,4.0836552216205746e-05,0.0003187237016391009,0.009357496164739132,0.006628852337598801,0.0004117098869755864,0.007825564593076706,0.09379945695400238,-0.006650637835264206,-0.029616929590702057,0.469946950674057,-0.016309792175889015,0.0,0.0,0.0,0.002681356156244874,0.007021019700914621,-0.0,0.0,0.0,0.0,-0.0013004170032218099,-0.0170269962400198,-0.0005210720701143146,12310.0,15176.0,14498.0,12753.0,0.3339235186576843,0.5207276940345764,0.4728327989578247,0.3601337671279907,0.0,0.0,0.0,0.0,12314.0,15141.0,14185.0,13139.0,1.7067608833312988,-0.0746508888291009,0.011419981759017631,-0.03704305042074514,-0.028874844312667847,0.008482713252305984,0.0
265,5,0.0006365325534716249,0.00016048485122155398,0.000616681354586035,-0.006738914642482996,-0.011706255376338959,-0.035590238869190216,0.00762486457824707,0.08933461457490921,-0.006491625215858221,-0.0185954961925745,0.6166703104972839,0.047180142253637314,0.0,0.0,0.0,-0.007596450857818127,0.009270601905882359,-0.0,0.0,0.0,0.0,-0.00205920054577291,-0.005303444340825081,-0.0016472380375489593,14495.0,14687.0,14919.0,13593.0,0.4725953936576843,0.48597413301467896,0.5023332238197327,0.41243165731430054,0.0,0.0,0.0,0.0,14030.0,15150.0,14220.0,14304.0,1.7494817972183228,-0.0705501594049702,0.018516804494417005,-0.03882583736650393,-0.039079636335372925,-0.024633217602968216,-0.0
270,5,0.0007123427931219339,0.00014940672554075718,0.00043599438504315913,0.006401665508747101,-0.003353127045556903,0.00744634261354804,0.00762486457824707,0.08933461457490921,-0.006491625215858221,-0.0185954961925745,0.6166703104972839,0.047180142253637314,0.0,0.0,0.0,-0.007596450857818127,0.009270601905882359,-0.0,0.0,0.0,0.0,-0.00205920054577291,-0.005303444340825081,-0.0016472380375489593,14495.0,14687.0,14919.0,13593.0,0.4725953936576843,0.48597413301467896,0.5023332238197327,0.41243165731430054,0.0,0.0,0.0,0.0,14030.0,15150.0,14220.0,14304.0,1.7494817972183228,-0.0678008725360427,0.019354311546865895,-0.03353435077806237,-0.039079636335372925,-0.024633217602968216,-0.0
275,5,0.0006439301650971174,0.0001398357708239928,0.000526140327565372,-0.005648849997669458,-0.00019273528596386313,-0.007838977500796318,0.007393854670226574,0.08136355876922607,-0.006524109747260809,-0.007136698812246323,0.6811160445213318,0.009995227679610252,0.0,0.0,0.0,-0.007596450857818127,0.009270601905882359,-0.0,0.0,0.0,0.0,-0.0008978283149190247,-0.007286403328180313,-2.8792749162676046e-07,13213.0,14481.0,14085.0,13429.0,0.38832786679267883,0.47168657183647156,0.44479605555534363,0.4019503891468048,0.0,0.0,0.0,0.0,13952.0,14270.0,14399.0,13235.0,1.7494817972183228,-0.06774247060196535,0.023629842847124247,-0.033823176161110115,-0.039079636335372925,-0.024633217602968216,-0.0
280,5,0.0007005391526035964,0.00016835055430419743,0.0004977924982085824,0.004533535800874233,-0.0034988694824278355,0.0002661479520611465,0.007393854670226574,0.08136355876922607,-0.006524109747260809,-0.007136698812246323,0.6811160445213318,0.009995227679610252,0.0,0.0,0.0,0.0004812023544218391,-0.004372196737676859,-0.0,0.0,0.0,0.0,-0.0008978283149190247,-0.007286403328180313,-2.8792749162676046e-07,13213.0,14481.0,14085.0,13429.0,0.38832786679267883,0.47168657183647156,0.44479605555534363,0.4019503891468048,0.0,0.0,0.0,0.0,13952.0,14270.0,14399.0,13235.0,1.6735650300979614,-0.06575593823652583,0.024357654625683078,-0.031903221296815665,0.017631642520427704,0.001492721727117896,0.0
286,5,0.0006205458776094019,0.00014395936159417033,0.0006478898576460779,-0.007785777095705271,0.0015273966128006577,-0.01790522038936615,0.0070613170973956585,0.07656532526016235,-0.006256886292248964,-0.049569740891456604,0.5310322642326355,-0.02040196768939495,0.0,0.0,0.0,0.0004812023544218391,-0.004372196737676859,-0.0,0.0,0.0,0.0,-0.0036833316553384066,-0.008998904377222061,0.00035344783100299537,13792.0,14633.0,14562.0,12828.0,0.4254048764705658,0.4821909964084625,0.4772421419620514,0.36464378237724304,0.0,0.0,0.0,0.0,12672.0,14965.0,13653.0,13856.0,1.6735650300979614,-0.07045821307259739,0.025515848219927237,-0.03267437689359768,0.017631642520427704,0.001492721727117896,0.0
291,5,0.0006719436496496201,5.923265416640788e-05,0.0005280024488456547,0.0030534255784004927,0.010778162628412247,0.007224399596452713,0.0070613170973956585,0.07656532526016235,-0.006256886292248964,-0.049569740891456604,0.5310322642326355,-0.02040196768939495,0.0,0.0,0.0,-0.0015692684100940824,-0.0063044424168765545,-0.0,0.0,0.0,0.0,-0.0036833316553384066,-0.008998904377222061,0.00035344783100299537,13792.0,14633.0,14562.0,12828.0,0.4254048764705658,0.4821909964084625,0.4772421419620514,0.36464378237724304,0.0,0.0,0.0,0.0,12672.0,14965.0,13653.0,13856.0,1.6964675188064575,-0.07516871939420718,0.02476245531319055,-0.03395158916176841,0.02577156201004982,-0.0049345893785357475,0.0
296,5,0.0006199980271048844,0.00021557653963100165,0.0006117994198575616,-0.00501210754737258,-0.01445000059902668,-0.0071658785454928875,0.006628833245486021,0.07124678045511246,-0.006002465263009071,-0.03722016140818596,0.3598032593727112,0.06797289848327637,0.0,0.0,0.0,-0.0015692684100940824,-0.0063044424168765545,-0.0,0.0,0.0,0.0,-0.001477241632528603,-0.017039773985743523,-0.0008787401602603495,12092.0,15299.0,14332.0,12768.0,0.321390837430954,0.5296918749809265,0.46145763993263245,0.3610246479511261,0.0,0.0,0.0,0.0,13664.0,14737.0,14650.0,12745.0,1.6964675188064575,-0.06628549745412154,0.02899062345193879,-0.030436357570550385,0.02577156201004982,-0.0049345893785357475,0.0
301,5,0.0006128932000137866,0.00019108038395643234,0.0005920801777392626,-0.0028574250172823668,-0.0028404626064002514,-0.000500040128827095,0.006628833245486021,0.07124678045511246,-0.006002465263009071,-0.03722016140818596,0.3598032593727112,0.06797289848327637,0.0,0.0,0.0,0.01679268665611744,-0.00358584919013083,-0.0,0.0,0.0,0.0,-0.001477241632528603,-0.017039773985743523,-0.0008787401602603495,12092.0,15299.0,14332.0,12768.0,0.321390837430954,0.5296918749809265,0.46145763993263245,0.3610246479511261,0.0,0.0,0.0,0.0,13664.0,14737.0,14650.0,12745.0,1.7791985273361206,-0.06877371652852053,0.030287099675227157,-0.03088170140729028,0.015371143817901611,0.05537530034780502,0.0
306,5,0.0005252048722468317,0.00023970314941834658,0.0006939818267710507,-0.011665564961731434,-0.006970916409045458,-0.012428214773535728,0.006533491890877485,0.06912587583065033,-0.0060861678794026375,-0.00642389664426446,0.19372883439064026,0.003611702937632799,0.0,0.0,0.0,0.01679268665611744,-0.00358584919013083,-0.0,0.0,0.0,0.0,-0.001725624082610011,-0.020525211468338966,0.0014312583953142166,12748.0,14922.0,15351.0,11722.0,0.3598008453845978,0.5025079250335693,0.5334900617599487,0.3006686270236969,0.0,0.0,0.0,0.0,12831.0,14657.0,15195.0,11760.0,1.7791985273361206,-0.06701455968560184,0.030825640459029167,-0.02985469425984301,0.015371143817901611,0.05537530034780502,0.0
311,5,0.0004352601827122271,0.0002735515881795436,0.0007881756173446774,-0.015459591522812843,-0.0068501802161335945,-0.01627454347908497,0.006533491890877485,0.06912587583065033,-0.0060861678794026375,-0.00642389664426446,0.19372883439064026,0.003611702937632799,0.0,0.0,0.0,0.00843052938580513,-0.009644633159041405,-0.0,0.0,0.0,0.0,-0.001725624082610011,-0.020525211468338966,0.0014312583953142166,12748.0,14922.0,15351.0,11722.0,0.3598008453845978,0.5025079250335693,0.5334900617599487,0.3006686270236969,0.0,0.0,0.0,0.0,12831.0,14657.0,15195.0,11760.0,1.757447361946106,-0.0676137028615289,0.0343907376833329,-0.031152948824206814,0.040841132402420044,0.027462268248200417,0.0
316,5,0.0004412472771946341,0.0002827623102348298,0.0007421859772875905,-0.005465385038405657,-0.0038453564047813416,-0.0009910580702126026,0.005998421460390091,0.06744494289159775,-0.005363079719245434,-0.03307056054472923,0.04263157770037651,0.0576496385037899,0.0,0.0,0.0,0.00843052938580513,-0.009644633159041405,-0.0,0.0,0.0,0.0,0.0035479599609971046,-0.02024691179394722,0.00016465855878777802,12670.0,14942.0,15842.0,12584.0,0.355133056640625,0.5039818286895752,0.5700861215591431,0.34999746084213257,0.0,0.0,0.0,0.0,11952.0,15578.0,14722.0,12489.0,1.757447361946106,-0.06675685910607368,0.03238349906984,-0.03031291356944392,0.040841132402420044,0.027462268248200417,0.0
321,5,0.00035376613959670067,0.0002797521010506898,0.0007953838794492185,-0.012683888897299767,-0.0011769189732149243,-0.006780172232538462,0.005998421460390091,0.06744494289159775,-0.005363079719245434,-0.03307056054472923,0.04263157770037651,0.0576496385037899,0.0,0.0,0.0,0.005098773166537285,-0.004430610686540604,-0.0,0.0,0.0,0.0,0.0035479599609971046,-0.02024691179394722,0.00016465855878777802,12670.0,14942.0,15842.0,12584.0,0.355133056640625,0.5039818286895752,0.5700861215591431,0.34999746084213257,0.0,0.0,0.0,0.0,11952.0,15578.0,14722.0,12489.0,1.690772294998169,-0.06926503872436117,0.03313250685654566,-0.032244058886591175,0.018050679937005043,0.015979234129190445,0.0
326,5,0.00038774649146944284,0.00032317067962139845,0.0007703363080509007,-0.0009959128219634295,-0.005680996458977461,0.0002936431556008756,0.005998421460390091,0.06744494289159775,-0.005363079719245434,-0.03307056054472923,0.04263157770037651,0.0576496385037899,0.0,0.0,0.0,0.005098773166537285,-0.004430610686540604,-0.0,0.0,0.0,0.0,0.0035479599609971046,-0.02024691179394722,0.00016465855878777802,12670.0,14942.0,15842.0,12584.0,0.355133056640625,0.5039818286895752,0.5700861215591431,0.34999746084213257,0.0,0.0,0.0,0.0,11952.0,15578.0,14722.0,12489.0,1.690772294998169,-0.06712963209134593,0.03362803915520023,-0.030519130836974637,0.018050679937005043,0.015979234129190445,0.0
331,5,0.0003643232339527458,0.00029964643181301653,0.0007651578052900732,-0.0032091564498841763,0.0005505114095285535,0.0007388793746940792,0.0057504246942698956,0.06667046993970871,-0.005297007970511913,0.007488491013646126,0.11133841425180435,-0.008892668411135674,0.0,0.0,0.0,0.007377852685749531,-0.00038916547782719135,-0.0,0.0,0.0,0.0,0.0013885550433769822,-0.021803850308060646,-0.0013507114490494132,11730.0,15819.0,14957.0,13127.0,0.30114778876304626,0.5683208703994751,0.5050248503684998,0.38295385241508484,0.0,0.0,0.0,0.0,12513.0,15024.0,15840.0,12646.0,1.6881935596466064,-0.06887650877929216,0.033374711217986776,-0.030139210529422457,0.0015830572228878736,0.02308626100420952,-0.0
336,5,0.0004028113908134401,0.00020807216060347855,0.0006961167091503739,0.0033349173609167337,0.011209116317331791,0.008580478839576244,0.0057504246942698956,0.06667046993970871,-0.005297007970511913,0.007488491013646126,0.11133841425180435,-0.008892668411135674,0.0,0.0,0.0,0.007377852685749531,-0.00038916547782719135,-0.0,0.0,0.0,0.0,0.0013885550433769822,-0.021803850308060646,-0.0013507114490494132,11730.0,15819.0,14957.0,13127.0,0.30114778876304626,0.5683208703994751,0.5050248503684998,0.38295385241508484,0.0,0.0,0.0,0.0,12513.0,15024.0,15840.0,12646.0,1.6881935596466064,-0.07465075738152813,0.03225826168728949,-0.032109875021585924,0.0015830572228878736,0.02308626100420952,-0.0
341,5,0.0003678340290207416,0.00037500858888961375,0.0007372769759967923,-0.002863318892195821,-0.015548724681138992,-0.0015070424415171146,0.005772573873400688,0.06576050817966461,-0.004950160160660744,-0.004567070864140987,0.152679443359375,0.0012279970105737448,0.0,0.0,0.0,-0.012660290114581585,0.0035116642247885466,-0.0,0.0,0.0,0.0,0.0008459138334728777,-0.02019578032195568,0.0009833406656980515,12642.0,14777.0,15189.0,12127.0,0.3534247577190399,0.4922834038734436,0.5216788649559021,0.3233853280544281,0.0,0.0,0.0,0.0,12476.0,15274.0,15432.0,12525.0,1.7422962188720703,-0.0640577429641008,0.03763461644762494,-0.029538664307405316,-0.014741823077201843,-0.040883976966142654,-0.0
346,5,0.00042178796138614416,0.00021317858772818,0.0005727668758481741,0.00532914511859417,0.013200109824538231,0.0191383957862854,0.005772573873400688,0.06576050817966461,-0.004950160160660744,-0.004567070864140987,0.152679443359375,0.0012279970105737448,0.0,0.0,0.0,-0.012660290114581585,0.0035116642247885466,-0.0,0.0,0.0,0.0,0.0008459138334728777,-0.02019578032195568,0.0009833406656980515,12642.0,14777.0,15189.0,12127.0,0.3534247577190399,0.4922834038734436,0.5216788649559021,0.3233853280544281,0.0,0.0,0.0,0.0,12476.0,15274.0,15432.0,12525.0,1.7422962188720703,-0.0722439281025159,0.03708217760289254,-0.031997733443299974,-0.014741823077201843,-0.040883976966142654,-0.0
351,5,0.0003574916045181453,0.00039602132164873183,0.0005775149329565465,-0.005583904217928648,-0.016661083325743675,0.007085591088980436,0.005666421260684729,0.06358280032873154,-0.004900982137769461,-0.01999463513493538,0.21824990212917328,0.03513515368103981,0.0,0.0,0.0,-0.014745622873306274,0.005240980535745621,-0.0,0.0,0.0,0.0,-0.00025103226653300226,-0.015754027292132378,-0.0004433112044353038,12630.0,14789.0,14834.0,12561.0,0.3527238070964813,0.49309346079826355,0.4962986409664154,0.34865638613700867,0.0,0.0,0.0,0.0,12838.0,14501.0,14900.0,12566.0,1.7680565118789673,-0.06183774932082344,0.03841603504187274,-0.027847542065680807,-0.022326024249196053,-0.04832137003540993,-0.0
356,5,0.00032410715357400477,0.00035251950612291694,0.0006086405483074486,-0.006239696871489286,-0.0014442144893109798,-0.0009008370107039809,0.005666421260684729,0.06358280032873154,-0.004900982137769461,-0.01999463513493538,0.21824990212917328,0.03513515368103981,0.0,0.0,0.0,-0.014745622873306274,0.005240980535745621,-0.0,0.0,0.0,0.0,-0.00025103226653300226,-0.015754027292132378,-0.0004433112044353038,12630.0,14789.0,14834.0,12561.0,0.3527238070964813,0.49309346079826355,0.4962986409664154,0.34865638613700867,0.0,0.0,0.0,0.0,12838.0,14501.0,14900.0,12566.0,1.7680565118789673,-0.06623104702934206,0.038879837132995976,-0.02959786096528209,-0.022326024249196053,-0.04832137003540993,-0.0
361,5,0.00038846887764520943,0.00043149563134647906,0.0004041919019073248,0.005227529909461737,-0.010054821148514748,0.02417350746691227,0.005610381253063679,0.06179548054933548,-0.0047165523283183575,-0.00630448292940855,0.2624690532684326,0.007716016378253698,0.0,0.0,0.0,0.002354084514081478,-0.005311001092195511,-0.0,0.0,0.0,0.0,0.0007680903654545546,-0.013761256821453571,-0.0005208647344261408,12499.0,14801.0,14457.0,13068.0,0.3449496030807495,0.4939407706260681,0.4700053930282593,0.37929779291152954,0.0,0.0,0.0,0.0,13319.0,15163.0,14271.0,12919.0,1.6873019933700562,-0.05939918859158714,0.040857121534229345,-0.02602700127948502,0.02159324288368225,0.0073624555952847,0.0
367,5,0.0003316788643132895,0.0004249103949405253,0.0004038573824800551,-0.004723789636045694,-0.003231701208278537,0.00970954354852438,0.005610381253063679,0.06179548054933548,-0.0047165523283183575,-0.00630448292940855,0.2624690532684326,0.007716016378253698,0.0,0.0,0.0,0.002354084514081478,-0.005311001092195511,-0.0,0.0,0.0,0.0,0.0007680903654545546,-0.013761256821453571,-0.0005208647344261408,12499.0,14801.0,14457.0,13068.0,0.3449496030807495,0.4939407706260681,0.4700053930282593,0.37929779291152954,0.0,0.0,0.0,0.0,13319.0,15163.0,14271.0,12919.0,1.6873019933700562,-0.06065890124393861,0.04265596897863052,-0.02705576273363786,0.02159324288368225,0.0073624555952847,0.0
372,5,0.00034646879066713154,0.0005120090208947659,0.0004683235310949385,-0.00011472692131064832,-0.011744515970349312,-0.003852118970826268,0.005488084629178047,0.05880468711256981,-0.0042871227487921715,-0.01414733100682497,0.25318610668182373,0.03984877094626427,0.0,0.0,0.0,0.002354084514081478,-0.005311001092195511,-0.0,0.0,0.0,0.0,-0.005295756738632917,-0.011297901161015034,0.0010818655136972666,13857.0,14707.0,14691.0,12398.0,0.42965924739837646,0.4873739182949066,0.4862038493156433,0.33905917406082153,0.0,0.0,0.0,0.0,13319.0,15163.0,14271.0,12919.0,1.683706283569336,-0.05837088568553561,0.04376853814892737,-0.02647111535313535,0.015865786001086235,0.014465168118476868,-0.0
377,5,0.00037437074934132397,0.0005579087301157415,0.0004631614137906581,0.0033023450523614883,-0.010205770842730999,-0.0009213936282321811,0.005488084629178047,0.05880468711256981,-0.0042871227487921715,-0.01414733100682497,0.25318610668182373,0.03984877094626427,0.0,0.0,0.0,0.0046350182965397835,-0.003910651430487633,-0.0,0.0,0.0,0.0,-0.005295756738632917,-0.011297901161015034,0.0010818655136972666,13857.0,14707.0,14691.0,12398.0,0.42965924739837646,0.4873739182949066,0.4862038493156433,0.33905917406082153,0.0,0.0,0.0,0.0,13319.0,15163.0,14271.0,12919.0,1.683706283569336,-0.057091548116120674,0.04837787088075191,-0.02599233896811987,0.015865786001086235,0.014465168118476868,-0.0
382,5,0.000330062466673553,0.00036746490513905883,0.0003952046390622854,-0.003996053710579872,0.01877095177769661,0.0077862548641860485,0.005008484236896038,0.05728194862604141,-0.004254732746630907,-0.05973090976476669,0.18043968081474304,0.008968601934611797,0.0,0.0,0.0,0.0046350182965397835,-0.003910651430487633,-0.0,0.0,0.0,0.0,-0.005057523027062416,-0.011711029335856438,-0.000384434504667297,13469.0,15188.0,14445.0,12961.0,0.4045347273349762,0.521647036075592,0.4691513478755951,0.37272337079048157,0.0,0.0,0.0,0.0,12667.0,14702.0,14786.0,12624.0,1.683706283569336,-0.06756441696902582,0.04712438714350197,-0.027678011677036884,0.013144510798156261,-0.06835944205522537,-0.0
387,5,0.0003194964665453881,0.0006003789021633565,0.0004588023293763399,-0.0028663447592407465,-0.02044130116701126,-0.004517220426350832,0.005008484236896038,0.05728194862604141,-0.004254732746630907,-0.05973090976476669,0.18043968081474304,0.008968601934611797,0.0,0.0,0.0,-0.020367823541164398,-0.0030128909274935722,-0.0,0.0,0.0,0.0,-0.005057523027062416,-0.011711029335856438,-0.000384434504667297,13469.0,15188.0,14445.0,12961.0,0.4045347273349762,0.521647036075592,0.4691513478755951,0.37272337079048157,0.0,0.0,0.0,0.0,12667.0,14702.0,14786.0,12624.0,1.8109225034713745,-0.05541766616465821,0.04982998706048596,-0.026233535389702696,0.013144510798156261,-0.06835944205522537,-0.0
392,5,0.00031324420706368983,0.000540488341357559,0.0005231685354374349,-0.0018968064105138183,-0.0009896510746330023,-0.00953083299100399,0.0040911054238677025,0.055422455072402954,-0.004038363695144653,-0.1031382605433464,0.11950366199016571,0.017536219209432602,0.0,0.0,0.0,-0.020367823541164398,-0.0030128909274935722,-0.0,0.0,0.0,0.0,0.0006717487704008818,-0.015562118962407112,-0.0001336890709353611,12520.0,14751.0,14849.0,12640.0,0.34618857502937317,0.49044111371040344,0.4973312318325043,0.35334107279777527,0.0,0.0,0.0,0.0,12667.0,14702.0,14786.0,12624.0,1.8109225034713745,-0.06230626406643152,0.04812032193108843,-0.028217190861133466,0.0053637376986444,0.0066963364370167255,0.0
397,5,0.00027851242339238524,0.0006365429144352674,0.0004317870771046728,-0.0049265362322330475,-0.011922408826649189,0.00715344212949276,0.0040911054238677025,0.055422455072402954,-0.004038363695144653,-0.1031382605433464,0.11950366199016571,0.017536219209432602,0.0,0.0,0.0,0.0021908313501626253,-0.0013498838525265455,-0.0,0.0,0.0,0.0,0.0006717487704008818,-0.015562118962407112,-0.0001336890709353611,12520.0,14751.0,14849.0,12640.0,0.34618857502937317,0.49044111371040344,0.4973312318325043,0.35334107279777527,0.0,0.0,0.0,0.0,12667.0,14702.0,14786.0,12624.0,1.6489990949630737,-0.05392552458596398,0.04851660162589963,-0.02601425712028831,0.0053637376986444,0.0066963364370167255,0.0
402,5,0.00020887730352114886,0.0005624042241834104,0.0004295461403671652,-0.010326829738914967,0.004127674736082554,0.0031302866991609335,0.0033256099559366703,0.05479414388537407,-0.003771878546103835,-0.09682363271713257,0.07364358752965927,0.047417256981134415,0.0,0.0,0.0,0.0021908313501626253,-0.0013498838525265455,-0.0,0.0,0.0,0.0,0.001875896006822586,-0.016312021762132645,0.0003420502180233598,12545.0,14571.0,15064.0,12508.0,0.3476651906967163,0.47785043716430664,0.5126941204071045,0.34549659490585327,0.0,0.0,0.0,0.0,12371.0,14746.0,14791.0,12799.0,1.6489990949630737,-0.05825307284900324,0.04731807036052684,-0.024470723935125015,0.0053637376986444,0.0066963364370167255,0.0
407,5,0.0003628549166023731,0.00043044605990871787,0.00011174333485541865,0.01434657908976078,0.017486050724983215,0.03938845172524452,0.0033256099559366703,0.05479414388537407,-0.003771878546103835,-0.09682363271713257,0.07364358752965927,0.047417256981134415,0.0,0.0,0.0,-0.0038538172375410795,-0.008998103439807892,-0.0,0.0,0.0,0.0,0.001875896006822586,-0.016312021762132645,0.0003420502180233598,12545.0,14571.0,15064.0,12508.0,0.3476651906967163,0.47785043716430664,0.5126941204071045,0.34549659490585327,0.0,0.0,0.0,0.0,12371.0,14746.0,14791.0,12799.0,1.7318553924560547,-0.06218253714723349,0.04669141197279751,-0.0276048877787992,0.03754961118102074,-0.012371129356324673,-0.0
412,5,0.0003200906212441623,0.00043170512071810663,7.55855071474798e-05,0.0006069169612601399,0.0068433345295488834,0.02009432017803192,0.0024057442788034678,0.05418810993432999,-0.0033799426164478064,-0.035928066819906235,0.061356477439403534,0.03688158839941025,0.0,0.0,0.0,-0.0038538172375410795,-0.008998103439807892,-0.0,0.0,0.0,0.0,-0.005932720843702555,-0.016700971871614456,0.0003062685136683285,13497.0,15592.0,14968.0,12542.0,0.4062890112400055,0.5513056516647339,0.5058155059814453,0.34751227498054504,0.0,0.0,0.0,0.0,12651.0,14382.0,15043.0,12050.0,1.7318553924560547,-0.06177645302618547,0.04638714250962531,-0.027037794111630542,0.03754961118102074,-0.012371129356324673,-0.0
417,5,0.0002270023978780955,0.0003746560832951218,6.292167381616309e-05,-0.010927818715572357,0.009583217091858387,0.009557387791574001,0.0024057442788034678,0.05418810993432999,-0.0033799426164478064,-0.035928066819906235,0.061356477439403534,0.03688158839941025,0.0,0.0,0.0,-0.007431565783917904,0.0009984731441363692,-0.0,0.0,0.0,0.0,-0.005932720843702555,-0.016700971871614456,0.0003062685136683285,13497.0,15592.0,14968.0,12542.0,0.4062890112400055,0.5513056516647339,0.5058155059814453,0.34751227498054504,0.0,0.0,0.0,0.0,12651.0,14382.0,15043.0,12050.0,1.6894898414611816,-0.06441513807905054,0.044448870137496675,-0.025472721453671156,-0.004064731299877167,-0.023272188380360603,-0.0
422,5,0.00024765683338046074,0.000382715166779235,-1.2169294677732978e-05,-0.0018925939220935106,0.00286619714461267,0.012833871878683567,0.002186104655265808,0.054233368486166,-0.003058039816096425,0.012237546034157276,0.009976228699088097,0.025759490206837654,0.0,0.0,0.0,-0.007431565783917904,0.0009984731441363692,-0.0,0.0,0.0,0.0,-0.0017424958059564233,-0.01966715231537819,0.00034423329634591937,12532.0,14556.0,14990.0,12029.0,0.3469090759754181,0.4768649637699127,0.5073782205581665,0.31784680485725403,0.0,0.0,0.0,0.0,12366.0,14733.0,14760.0,12269.0,1.6894898414611816,-0.06310540280026353,0.0446501499697184,-0.025689675891981758,-0.004064731299877167,-0.023272188380360603,-0.0
428,5,9.723100083647296e-05,0.00037214139592833817,0.000112938265374396,-0.018808139488101006,0.002415331546217203,-0.009879359044134617,0.002186104655265808,0.054233368486166,-0.003058039816096425,0.012237546034157276,0.009976228699088097,0.025759490206837654,0.0,0.0,0.0,-0.002814039820805192,-0.001431874930858612,-0.0,0.0,0.0,0.0,-0.0017424958059564233,-0.01966715231537819,0.00034423329634591937,12532.0,14556.0,14990.0,12029.0,0.3469090759754181,0.4768649637699127,0.5073782205581665,0.31784680485725403,0.0,0.0,0.0,0.0,12366.0,14733.0,14760.0,12269.0,1.6537624597549438,-0.06478464263998641,0.04467684975689924,-0.025552382185074544,0.005705953575670719,-0.008626027964055538,0.0
433,5,0.00016683638386894017,0.0003816783719230443,-2.553903505031485e-05,0.0008293900755234063,-0.00017830236174631864,0.012665532529354095,0.0021376151125878096,0.0542423315346241,-0.0026713151019066572,-0.023511655628681183,-0.0006254015024751425,0.055037595331668854,0.0,0.0,0.0,-0.002814039820805192,-0.001431874930858612,-0.0,0.0,0.0,0.0,-0.0017424958059564233,-0.01966715231537819,0.00034423329634591937,12807.0,15125.0,15306.0,12089.0,0.3633413016796112,0.5170735716819763,0.5302280783653259,0.321212500333786,0.0,0.0,0.0,0.0,12875.0,15036.0,15322.0,12108.0,1.6537624597549438,-0.06334859164599072,0.043723838504063015,-0.024720995276033726,0.005705953575670719,-0.008626027964055538,0.0
438,5,2.8616079362109303e-05,0.0004165384452790022,0.0001607774756848812,-0.01625468023121357,-0.004254530183970928,-0.01729176752269268,0.0021376151125878096,0.0542423315346241,-0.0026713151019066572,-0.023511655628681183,-0.0006254015024751425,0.055037595331668854,0.0,0.0,0.0,0.0009171530837193131,0.0010273245861753821,-0.0,0.0,0.0,0.0,-0.0017424958059564233,-0.01966715231537819,0.00034423329634591937,12807.0,15125.0,15306.0,12089.0,0.3633413016796112,0.5170735716819763,0.5302280783653259,0.321212500333786,0.0,0.0,0.0,0.0,12875.0,15036.0,15322.0,12108.0,1.6390999555587769,-0.06416583571741942,0.045611173180793295,-0.02593921234166675,-0.004057558253407478,0.002786478726193309,0.0
443,5,6.64072431391105e-05,0.0004294767859391868,4.160027310717851e-05,-0.001966932089999318,-0.00325441244058311,0.0073845568113029,0.0021769891027361155,0.05416562408208847,-0.002445780672132969,0.01143725123256445,0.022651370614767075,0.031923286616802216,0.0,0.0,0.0,0.0009171530837193131,0.0010273245861753821,-0.0,0.0,0.0,0.0,-0.0010412420378997922,-0.01691742055118084,0.0007857424207031727,12853.0,15001.0,14643.0,12282.0,0.366158664226532,0.508122444152832,0.4828895926475525,0.33231914043426514,0.0,0.0,0.0,0.0,12894.0,14842.0,14837.0,12198.0,1.6390999555587769,-0.06284255644040694,0.04534253328685824,-0.02489575014596006,-0.004057558253407478,0.002786478726193309,0.0
448,5,-3.540408215485513e-05,0.0004011710989288986,7.741551235085353e-05,-0.01300413254648447,0.0020949174650013447,-0.001344005693681538,0.0021769891027361155,0.05416562408208847,-0.002445780672132969,0.01143725123256445,0.022651370614767075,0.031923286616802216,0.0,0.0,0.0,0.00471367035061121,-0.0017353100702166557,-0.0,0.0,0.0,0.0,-0.0010412420378997922,-0.01691742055118084,0.0007857424207031727,12853.0,15001.0,14643.0,12282.0,0.366158664226532,0.508122444152832,0.4828895926475525,0.33231914043426514,0.0,0.0,0.0,0.0,12894.0,14842.0,14837.0,12198.0,1.6694748401641846,-0.06412345431416619,0.044478915747388756,-0.02445235561163589,0.006980777718126774,0.014586285687983036,-0.0
453,5,-6.549342970174621e-07,0.00042978639248758554,3.5272259992780164e-05,-0.0010317552369087934,-0.00259587075561285,0.0045195878483355045,0.0021769891027361155,0.05416562408208847,-0.002445780672132969,0.01143725123256445,0.022651370614767075,0.031923286616802216,0.0,0.0,0.0,0.00471367035061121,-0.0017353100702166557,-0.0,0.0,0.0,0.0,-0.0010412420378997922,-0.01691742055118084,0.0007857424207031727,12853.0,15001.0,14643.0,12282.0,0.366158664226532,0.508122444152832,0.4828895926475525,0.33231914043426514,0.0,0.0,0.0,0.0,12894.0,14842.0,14837.0,12198.0,1.6694748401641846,-0.06290744290153223,0.04460331407953804,-0.023103354708212454,0.006980777718126774,0.014586285687983036,-0.0
458,5,-3.498934529488906e-05,0.00042506985482759774,-1.610839353816118e-05,-0.004532831255346537,-0.00047236113459803164,0.007973513565957546,0.0019550551660358906,0.05392061918973923,-0.0020126865711063147,0.012307604774832726,0.040425855666399,0.035857152193784714,0.0,0.0,0.0,0.0039386143907904625,-0.000960589328315109,-0.0,0.0,0.0,0.0,-4.49844628747087e-05,-0.01592520996928215,0.0002839361550286412,12467.0,14538.0,14788.0,12196.0,0.34307682514190674,0.47562581300735474,0.49304836988449097,0.3273489475250244,0.0,0.0,0.0,0.0,12606.0,14734.0,14690.0,12191.0,1.6601649522781372,-0.06270334220717884,0.04449639866467856,-0.023855975795875697,0.0038427088875323534,0.012119961902499199,-0.0
463,5,-6.429218774428591e-05,0.000440206378698349,4.3048862607975025e-06,-0.005329473409801722,-0.0020053284242749214,0.000739811803214252,0.0019550551660358906,0.05392061918973923,-0.0020126865711063147,0.012307604774832726,0.040425855666399,0.035857152193784714,0.0,0.0,0.0,0.0039386143907904625,-0.000960589328315109,-0.0,0.0,0.0,0.0,-4.49844628747087e-05,-0.01592520996928215,0.0002839361550286412,12467.0,14538.0,14788.0,12196.0,0.34307682514190674,0.47562581300735474,0.49304836988449097,0.3273489475250244,0.0,0.0,0.0,0.0,12606.0,14734.0,14690.0,12191.0,1.6601649522781372,-0.06294129230408672,0.04494349129001781,-0.023727771154969903,0.0038427088875323534,0.012119961902499199,-0.0
468,5,-0.00010948918497888371,0.00045084289740771055,1.5922438251436688e-05,-0.007555429823696613,-0.0020785126835107803,-0.0010981815867125988,0.001880388823337853,0.05392394959926605,-0.0018854675581678748,-0.020183496177196503,0.03588901832699776,0.03926495462656021,0.0,0.0,0.0,0.00318696815520525,-0.004996752832084894,-0.0,0.0,0.0,0.0,0.001060844399034977,-0.015564999543130398,0.00013242692511994392,12438.0,14667.0,14811.0,12565.0,0.3413962423801422,0.4845246970653534,0.4946535527706146,0.34890034794807434,0.0,0.0,0.0,0.0,12718.0,14325.0,14838.0,12131.0,1.6867897510528564,-0.06320028489050673,0.0452734493537,-0.023837831305413466,0.020309381186962128,0.009964278899133205,-0.0
473,5,-0.0001854979491326958,0.0004600880783982575,6.421885336749256e-05,-0.012143222615122795,-0.0019408274674788117,-0.006234842352569103,0.001880388823337853,0.05392394959926605,-0.0018854675581678748,-0.020183496177196503,0.03588901832699776,0.03926495462656021,0.0,0.0,0.0,0.00318696815520525,-0.004996752832084894,-0.0,0.0,0.0,0.0,0.001060844399034977,-0.015564999543130398,0.00013242692511994392,12438.0,14667.0,14811.0,12565.0,0.3413962423801422,0.4845246970653534,0.4946535527706146,0.34890034794807434,0.0,0.0,0.0,0.0,12718.0,14325.0,14838.0,12131.0,1.6867897510528564,-0.06427669432861034,0.04645506985241755,-0.02494081402460219,0.020309381186962128,0.009964278899133205,-0.0
478,5,-0.0001898930495372042,0.0005352316075004637,6.640693754889071e-05,-0.005384702235460281,-0.009793552570044994,-0.002756507368758321,0.001747357426211238,0.0532042533159256,-0.0016078234184533358,-0.009690256789326668,0.05464315041899681,0.013697249814867973,0.0,0.0,0.0,0.0030262134969234467,-0.011014895513653755,-0.0,0.0,0.0,0.0,0.0009281809907406569,-0.015761669725179672,0.0003331795451231301,12568.0,14514.0,14898.0,12353.0,0.34903684258461,0.4739319384098053,0.5008060336112976,0.33639010787010193,0.0,0.0,0.0,0.0,12486.0,14623.0,14825.0,12551.0,1.7530527114868164,-0.062138104059815534,0.04722809159964826,-0.024845338967330724,0.046528223901987076,0.00983335915952921,0.0
