timestamp,dt,pos_x,pos_y,pos_z,vel_x,vel_y,vel_z,roll,pitch,yaw,agv_x,agv_y,agv_z,x_ref,y_ref,z_ref,roll_ref,pitch_ref,yaw_ref,x_vel_ref,y_vel_ref,z_vel_ref,x_torque,y_torque,z_torque,w0,w1,w2,w3,u0,u1,u2,u3,m0req,m1req,m2req,m3req,thrust0,thrust1,thrust2,thrust3,thrust_ref,roll_vicon,pitch_vicon,yaw_vicon,acc_x,acc_y,acc_z
5,5,0.0,0.0,0.0,-0.0032322262413799763,-0.006946135777980089,-0.015518597327172756,0.004028316121548414,-0.040202826261520386,-0.0011826865375041962,-0.00040224724216386676,-0.0027187764644622803,-0.000708245497662574,0.0,0.0,0.0,0.00825133640319109,-0.0029535607900470495,-0.0,0.0,0.0,0.0,-0.0012106547364965081,0.011992068961262703,-0.00011831246229121462,1495.0,1495.0,1495.0,1495.0,0.0,0.0,0.0,0.0,0.0,0.0,0.0,0.0,1495.0,1495.0,1495.0,1495.0,1.7031410932540894,-0.0072992359378776924,0.07193044972196391,0.006523467539368437,0.012120848521590233,0.02604800835251808,0.0
41,36,0.0,0.0,0.0,0.0020884473342448473,0.0021878324914723635,0.0027269767597317696,0.004028316121548414,-0.040202826261520386,-0.0011826865375041962,-0.00040224724216386676,-0.0027187764644622803,-0.000708245497662574,0.0,0.0,0.0,0.00825133640319109,-0.0029535607900470495,-0.0,0.0,0.0,0.0,-0.0012106547364965081,0.011992068961262703,-0.00011831246229121462,1495.0,1495.0,1495.0,1495.0,0.0,0.0,0.0,0.0,0.0,0.0,0.0,0.0,1495.0,1495.0,1495.0,1495.0,1.7031410932540894,-0.005644364524763987,0.07112444948641462,0.00727076871191622,0.012120848521590233,0.02604800835251808,0.0
47,5,0.0,0.0,0.0,0.0016253546345978975,0.0004348787188064307,0.004185561090707779,0.004025483038276434,-0.04017409682273865,-0.0011642518220469356,0.002103471662849188,-0.001324240118265152,0.00286624557338655,0.0,0.0,0.0,-0.0026721234899014235,0.0019621108658611774,-0.0,0.0,0.0,0.0,-0.0012135819997638464,0.011995956301689148,-6.559438043041155e-05,1495.0,1495.0,1495.0,1495.0,0.0,0.0,0.0,0.0,0.0,0.0,0.0,0.0,1495.0,1495.0,1495.0,1495.0,1.6564608812332153,-0.004861637903249064,0.07156955709789696,0.006987592917908262,-0.007831677794456482,-0.00820437166839838,0.0
52,5,0.0,0.0,0.0,0.003615397261455655,0.0020505418069660664,0.015168962068855762,0.004025483038276434,-0.04017409682273865,-0.0011642518220469356,0.002103471662849188,-0.001324240118265152,0.00286624557338655,0.0,0.0,0.0,-0.0026721234899014235,0.0019621108658611774,-0.0,0.0,0.0,0.0,-0.0012135819997638464,0.011995956301689148,-6.559438043041155e-05,1495.0,1495.0,1495.0,1495.0,0.0,0.0,0.0,0.0,0.0,0.0,0.0,0.0,1495.0,1495.0,1495.0,1495.0,1.6564608812332153,-0.00517287738002527,0.06966542616082726,0.008430533493067535,-0.007831677794456482,-0.00820437166839838,0.0
57,5,2.607946953503415e-05,-3.973360435338691e-05,-0.00010571927850833163,0.004575695376843214,0.0055882493034005165,0.0187538992613554,0.004036531317979097,-0.040169116109609604,-0.0011374761816114187,0.000750879175029695,-0.00011296434968244284,0.004197089467197657,0.0,0.0,0.0,-0.0024872689973562956,0.0033734021708369255,-0.0,0.0,0.0,0.0,0.0012858142144978046,0.011200650595128536,-0.00012598185276146978,1495.0,1495.0,1495.0,1495.0,0.0,0.0,0.0,0.0,0.0,0.0,0.0,0.0,1495.0,1495.0,1495.0,1495.0,1.6678977012634277,-0.0024543880205364793,0.06954203913210626,0.008932527286311057,-0.013557739555835724,-0.007689531892538071,0.0
62,5,4.874585647485219e-05,-5.9782374592032284e-05,-0.00018465306493453681,0.0045502446591854095,0.004641151987016201,0.01697361283004284,0.004036531317979097,-0.040169116109609604,-0.0011374761816114187,0.000750879175029695,-0.00011296434968244284,0.004197089467197657,0.0,0.0,0.0,-0.0024872689973562956,0.0033734021708369255,-0.0,0.0,0.0,0.0,0.0012858142144978046,0.011200650595128536,-0.00012598185276146978,1495.0,1495.0,1495.0,1495.0,0.0,0.0,0.0,0.0,0.0,0.0,0.0,0.0,1495.0,1495.0,1495.0,1495.0,1.6678977012634277,0.0003277713932272922,0.06887002177714852,0.008741859199632324,-0.013557739555835724,-0.007689531892538071,0.0
67,5,8.239853923441842e-05,-9.33402479859069e-05,-0.00032262131571769714,0.005858419928699732,0.005883405450731516,0.02334563620388508,0.004032584372907877,-0.040167953819036484,-0.0011413227766752243,0.0015142625197768211,-9.838223195401952e-05,0.0015681844670325518,0.0,0.0,0.0,-0.005652323365211487,0.004249504301697016,-0.0,0.0,0.0,0.0,0.0012858142144978046,0.011200650595128536,-0.00012598185276146978,1495.0,1495.0,1495.0,1495.0,0.0,0.0,0.0,0.0,0.0,0.0,0.0,0.0,1495.0,1495.0,1495.0,1495.0,1.6926180124282837,0.0022111176798986797,0.06748059024616342,0.009514724794033423,-0.017331689596176147,-0.01773333176970482,0.0
80,13,8.000682282727212e-05,-0.00014978242688812315,-0.00045406576828099787,0.002056361408904195,0.009126423858106136,0.025111587718129158,0.004029626026749611,-0.04018331319093704,-0.0011199399596080184,0.00039363958057947457,0.0033004337456077337,-0.00019178364891558886,0.0,0.0,0.0,-0.010978071950376034,0.0019641658291220665,-0.0,0.0,0.0,0.0,-0.0020088693127036095,0.012637575156986713,4.043406079290435e-05,14620.0,12824.0,12554.0,14348.0,0.48127099871635437,0.36440494656562805,0.34821954369544983,0.4625653922557831,0.0,0.0,0.0,0.0,14539.0,12909.0,12476.0,14423.0,1.7224721908569336,0.00413160313274681,0.0648804310987649,0.011022172491451501,-0.008151843212544918,-0.035048626363277435,0.0
89,9,-4.9177910113940015e-05,5.112523285788484e-05,0.00016314959793817252,-0.0011509571922942996,-0.0028215537313371897,-0.01087996270507574,0.004029626026749611,-0.04018331319093704,-0.0011199399596080184,0.00039363958057947457,0.0033004337456077337,-0.00019178364891558886,0.0,0.0,0.0,-0.010978071950376034,0.0019641658291220665,-0.0,0.0,0.0,0.0,-0.0020088693127036095,0.012637575156986713,4.043406079290435e-05,14620.0,12824.0,12554.0,14348.0,0.48127099871635437,0.36440494656562805,0.34821954369544983,0.4625653922557831,0.0,0.0,0.0,0.0,14539.0,12909.0,12476.0,14423.0,1.7224721908569336,-0.006978060703595243,0.07257570061572706,0.006255090236175373,-0.008151843212544918,-0.035048626363277435,0.0
94,5,-5.425474591902457e-05,2.4416840460617095e-05,0.0001517573546152562,-0.0010696029057726264,0.0020763857755810022,-0.0029849165584892035,0.0040309675969183445,-0.04017985239624977,-0.0011009493609890342,0.003195379627868533,0.0034501058980822563,0.000739219831302762,0.0,0.0,0.0,0.003534948220476508,-0.001148190931417048,-0.0,0.0,0.0,0.0,-0.0019525571260601282,0.0130835622549057,-6.698134529870003e-05,14645.0,12884.0,12525.0,14461.0,0.4830397665500641,0.36806705594062805,0.3465166389942169,0.4702742397785187,0.0,0.0,0.0,0.0,14604.0,12924.0,12498.0,14491.0,1.6576708555221558,-0.006426615422714935,0.07175189142851242,0.0067481332918937304,0.004586289636790752,0.01086146105080843,0.0
99,5,-5.617913120659068e-05,3.0098031857050955e-05,0.00014929246390238404,-0.000658767472486943,0.00014881121751386672,-0.0008981794235296547,0.004050218965858221,-0.0402190126478672,-0.001101855537854135,-0.0020380280911922455,0.00103704200591892,0.0005925337318331003,0.0,0.0,0.0,-0.00012979196617379785,-0.0007061507785692811,-0.0,0.0,0.0,0.0,-0.002925869543105364,0.013476748019456863,-0.00014251560787670314,14795.0,13040.0,12529.0,14526.0,0.49354949593544006,0.3775857985019684,0.34673556685447693,0.4747471511363983,0.0,0.0,0.0,0.0,14659.0,12874.0,12514.0,14465.0,1.6333649158477783,-0.00707531250357835,0.07139958409016184,0.006851239886319586,0.0027792814653366804,-0.0003929520898964256,0.0
104,5,-6.47324268356897e-05,2.3634196622879244e-05,0.00016452145064249635,-0.0012899027206003666,0.0008351848227903247,-0.002186749828979373,0.004050218965858221,-0.0402190126478672,-0.001101855537854135,-0.0020380280911922455,0.00103704200591892,0.0005925337318331003,0.0,0.0,0.0,-0.00012979196617379785,-0.0007061507785692811,-0.0,0.0,0.0,0.0,-0.002925869543105364,0.013476748019456863,-0.00014251560787670314,14795.0,13040.0,12529.0,14526.0,0.49354949593544006,0.3775857985019684,0.34673556685447693,0.4747471511363983,0.0,0.0,0.0,0.0,14659.0,12874.0,12514.0,14465.0,1.6333649158477783,-0.005060790005824862,0.07184098259940007,0.006282648398955924,0.0027792814653366804,-0.0003929520898964256,0.0
109,5,-5.581919685937464e-05,-1.62575815920718e-05,9.882721496978775e-05,0.0005536265089176595,0.005121087189763784,0.007008607964962721,0.004064952023327351,-0.04020606726408005,-0.0011033263290300965,0.001293253037147224,-0.0007822695770300925,-0.002654849085956812,0.0,0.0,0.0,-0.006203020457178354,0.0004374857235234231,-0.0,0.0,0.0,0.0,-0.004557136446237564,0.012722396291792393,-0.0001734809047775343,14936.0,13350.0,12564.0,14503.0,0.5035108923912048,0.3969458043575287,0.34881725907325745,0.473198264837265,0.0,0.0,0.0,0.0,14833.0,13001.0,12583.0,14475.0,1.678091287612915,-0.004924653009179951,0.07057495325053448,0.0074579321314338,-0.001768980291672051,-0.019293999299407005,0.0
114,5,-6.830904021626338e-05,1.2894322026113514e-05,0.00014016531349625438,-0.0012773304479196668,-0.001449793460778892,-0.0021571279503405094,0.004064952023327351,-0.04020606726408005,-0.0011033263290300965,0.001293253037147224,-0.0007822695770300925,-0.002654849085956812,0.0,0.0,0.0,-0.006203020457178354,0.0004374857235234231,-0.0,0.0,0.0,0.0,-0.004557136446237564,0.012722396291792393,-0.0001734809047775343,14936.0,13350.0,12564.0,14503.0,0.5035108923912048,0.3969458043575287,0.34881725907325745,0.473198264837265,0.0,0.0,0.0,0.0,14833.0,13001.0,12583.0,14475.0,1.678091287612915,-0.005512287928367556,0.07176840265419329,0.006445680376947665,-0.001768980291672051,-0.019293999299407005,0.0
119,5,-5.974749365122989e-05,4.502243609749712e-05,0.0001642185088712722,0.0005164536414667964,-0.004435291048139334,-0.0037492350675165653,0.004064952023327351,-0.04020606726408005,-0.0011033263290300965,0.001293253037147224,-0.0007822695770300925,-0.002654849085956812,0.0,0.0,0.0,-0.006203020457178354,0.0004374857235234231,-0.0,0.0,0.0,0.0,-0.004557136446237564,0.012722396291792393,-0.0001734809047775343,14936.0,13350.0,12564.0,14503.0,0.5035108923912048,0.3969458043575287,0.34881725907325745,0.473198264837265,0.0,0.0,0.0,0.0,14833.0,13001.0,12583.0,14475.0,1.678091287612915,-0.007489817509230148,0.07145674808366607,0.007167872954081605,-0.001768980291672051,-0.019293999299407005,0.0
125,5,-5.1484072173479944e-05,6.688987195957452e-05,0.00018648116383701563,0.001198191661387682,-0.0043982090428471565,-0.00417121360078454,0.004069176502525806,-0.04016495123505592,-0.001102735404856503,-0.0003905149351339787,-0.00114890793338418,0.000467033707536757,0.0,0.0,0.0,0.005447889678180218,0.00039916104287840426,-0.0,0.0,0.0,0.0,-0.0001661393471295014,0.011633148416876793,-0.00011902624100912362,14389.0,12832.0,12712.0,14454.0,0.4653160572052002,0.3648855686187744,0.3576631546020508,0.46980607509613037,0.0,0.0,0.0,0.0,14424.0,12796.0,12742.0,14424.0,1.6715893745422363,-0.00787799853409433,0.07246487171157438,0.006439352610378009,-0.0016077673062682152,0.016879616305232048,0.0
130,5,-6.726156425429508e-05,3.106535950792022e-05,0.00011927237937925383,-0.0014140220591798425,0.002539658220484853,0.006396569311618805,0.004091122653335333,-0.0401642844080925,-0.001107686897739768,0.0019081424688920379,0.0008780159987509251,-0.004794794134795666,0.0,0.0,0.0,-0.0030482609290629625,-0.0014222406316548586,-0.0,0.0,0.0,0.0,-0.00124819774646312,0.011862825602293015,-0.00010125418339157477,14358.0,12829.0,12482.0,14332.0,0.4632364511489868,0.3646945357322693,0.3439820408821106,0.4614518880844116,0.0,0.0,0.0,0.0,14363.0,12822.0,12475.0,14339.0,1.6553735733032227,-0.008121030952069574,0.07043705026818028,0.008047202771345985,0.005673079285770655,-0.009353098459541798,-0.0
137,7,-6.829229823779315e-05,1.911353501782287e-05,0.00011932563938898966,-0.0014103122521191835,0.0025271507911384106,0.003623660420998931,0.004091122653335333,-0.0401642844080925,-0.001107686897739768,0.0019081424688920379,0.0008780159987509251,-0.004794794134795666,0.0,0.0,0.0,-0.0030482609290629625,-0.0014222406316548586,-0.0,0.0,0.0,0.0,-0.00124819774646312,0.011862825602293015,-0.00010125418339157477,14358.0,12829.0,12482.0,14332.0,0.4632364511489868,0.3646945357322693,0.3439820408821106,0.4614518880844116,0.0,0.0,0.0,0.0,14363.0,12822.0,12475.0,14339.0,1.6553735733032227,-0.006484811379113429,0.07039959702117558,0.007332015847857526,0.005673079285770655,-0.009353098459541798,-0.0
143,6,-5.147504998603836e-05,1.1314728908473626e-05,0.00012395399971865118,0.0014539443654939532,0.0019467170350253582,0.000894061173312366,0.004091122653335333,-0.0401642844080925,-0.001107686897739768,0.0019081424688920379,0.0008780159987509251,-0.004794794134795666,0.0,0.0,0.0,-0.0030543175525963306,-0.0014202065067365766,-0.0,0.0,0.0,0.0,-0.00124819774646312,0.011862825602293015,-0.00010125418339157477,14358.0,12829.0,12482.0,14332.0,0.4632364511489868,0.3646945357322693,0.3439820408821106,0.4614518880844116,0.0,0.0,0.0,0.0,14363.0,12822.0,12475.0,14339.0,1.6554057598114014,-0.004650336237021675,0.07141084452271465,0.006564410433054411,0.005665075499564409,-0.009371863678097725,-0.0
148,5,-7.193833880592138e-05,8.735610208532307e-06,0.00012591398262884468,-0.0018740164814516902,0.001088180928491056,0.00012242567026987672,0.004088540095835924,-0.0401628278195858,-0.0011135701788589358,0.001233904156833887,-0.0023256021086126566,-0.0025891384575515985,0.0,0.0,0.0,-0.0013196800136938691,-0.0018688548589125276,-0.0,0.0,0.0,0.0,0.00038800211041234434,0.012161285616457462,-9.775291982805356e-05,14421.0,12830.0,12755.0,14587.0,0.4675361216068268,0.36478498578071594,0.3602519929409027,0.4790162742137909,0.0,0.0,0.0,0.0,14426.0,12828.0,12760.0,14581.0,1.6486444473266602,-0.006734276352360715,0.07012632105124052,0.007645628941793202,0.0074242716655135155,-0.004032774828374386,-0.0
154,5,-7.537453348049894e-05,5.4813563110656105e-06,0.00010621637920849025,-0.0011619505239650607,0.0008257828885689378,0.0024126835633069277,0.004088540095835924,-0.0401628278195858,-0.0011135701788589358,0.001233904156833887,-0.0023256021086126566,-0.0025891384575515985,0.0,0.0,0.0,-0.0013196800136938691,-0.0018688548589125276,-0.0,0.0,0.0,0.0,0.00038800211041234434,0.012161285616457462,-9.775291982805356e-05,14421.0,12830.0,12755.0,14587.0,0.4675361216068268,0.36478498578071594,0.3602519929409027,0.4790162742137909,0.0,0.0,0.0,0.0,14426.0,12828.0,12760.0,14581.0,1.6486444473266602,-0.006987177371257142,0.07028829228865212,0.007681117081947649,0.0074242716655135155,-0.004032774828374386,-0.0
159,5,-3.989277684013359e-05,1.5992598491720855e-05,0.00013442456838674843,0.003793030511587858,-0.0009310357854701579,-0.0024199087638407946,0.004089893773198128,-0.04014180973172188,-0.0011378030758351088,0.00011318862379994243,-0.000167276753927581,-0.004962260834872723,0.0,0.0,0.0,-0.0013196800136938691,-0.0018688548589125276,-0.0,0.0,0.0,0.0,-0.0021388225723057985,0.011744726449251175,-0.00016024280921556056,14408.0,12846.0,12736.0,14603.0,0.46667104959487915,0.3657347559928894,0.3590916395187378,0.48009192943573,0.0,0.0,0.0,0.0,14494.0,12978.0,12529.0,14344.0,1.6486444473266602,-0.005806488666252588,0.0721169420662146,0.006729700142918875,0.0074242716655135155,-0.004032774828374386,-0.0
164,5,-4.291576624382287e-05,3.169096453348175e-05,0.00012633831647690386,0.0011544538429006934,-0.0022562185768038034,2.385916559433099e-06,0.004090840928256512,-0.04015784338116646,-0.0011489208554849029,0.002199892420321703,0.0016430197283625603,-0.0014074492501094937,0.0,0.0,0.0,0.0011598732089623809,0.003490636358037591,-0.0,0.0,0.0,0.0,-0.0021198270842432976,0.011697470210492611,-0.00013483646034728736,14499.0,12973.0,12542.0,14332.0,0.4729118347167969,0.37348824739456177,0.3475208282470703,0.4614526629447937,0.0,0.0,0.0,0.0,14480.0,12994.0,12512.0,14359.0,1.6648457050323486,-0.006564276266305892,0.07140483182990251,0.007531478066935004,-0.014003265649080276,0.003579257056117058,0.0
169,5,-3.13533928419929e-05,1.326294477621559e-05,7.296362309716642e-05,0.0018492661183699965,0.001308875042013824,0.006405917927622795,0.004090840928256512,-0.04015784338116646,-0.0011489208554849029,0.002199892420321703,0.0016430197283625603,-0.0014074492501094937,0.0,0.0,0.0,0.0011598732089623809,0.003490636358037591,-0.0,0.0,0.0,0.0,-0.0021198270842432976,0.011697470210492611,-0.00013483646034728736,14499.0,12973.0,12542.0,14332.0,0.4729118347167969,0.37348824739456177,0.3475208282470703,0.4614526629447937,0.0,0.0,0.0,0.0,14480.0,12994.0,12512.0,14359.0,1.6648457050323486,-0.0056737865927782155,0.07046829421838363,0.007718969387210901,-0.014003265649080276,0.003579257056117058,0.0
174,5,-5.402323040470947e-06,-2.708687497943174e-05,-2.6272633476764895e-05,0.003853834932669997,0.005365528631955385,0.014470717869699001,0.004090840928256512,-0.04015784338116646,-0.0011489208554849029,0.002199892420321703,0.0016430197283625603,-0.0014074492501094937,0.0,0.0,0.0,-0.0015826767776161432,0.001702277921140194,-0.0,0.0,0.0,0.0,-0.0021198270842432976,0.011697470210492611,-0.00013483646034728736,14499.0,12973.0,12542.0,14332.0,0.4729118347167969,0.37348824739456177,0.3475208282470703,0.4614526629447937,0.0,0.0,0.0,0.0,14480.0,12994.0,12512.0,14359.0,1.6482752561569214,-0.0031672527975480074,0.0695394354855565,0.008728211286647651,-0.0067610060796141624,-0.004835375119000673,-0.0
179,5,-6.965170177863911e-05,2.5681607439764775e-05,0.00012957939179614186,-0.006168391555547714,-0.0041860067285597324,-0.012913956306874752,0.0040432158857584,-0.040175724774599075,-0.0011794695165008307,-0.012011823244392872,0.002231597201898694,-0.0034552868455648422,0.0,0.0,0.0,-0.0015826767776161432,0.001702277921140194,-0.0,0.0,0.0,0.0,-0.0013625724241137505,0.01193716935813427,-0.00039033047505654395,14586.0,12722.0,12721.0,14213.0,0.4788919687271118,0.3582168221473694,0.35818541049957275,0.4533502459526062,0.0,0.0,0.0,0.0,14295.0,13046.0,12414.0,14482.0,1.6482752561569214,-0.006760944135852238,0.07115023220034322,0.0071248431073957985,-0.0067610060796141624,-0.004835375119000673,-0.0
184,5,-5.3881623898632824e-05,3.441908484091982e-05,0.0001493436866439879,-0.0005749474512413144,-0.0027228998951613903,-0.007537298370152712,0.0040432158857584,-0.040175724774599075,-0.0011794695165008307,-0.012011823244392872,0.002231597201898694,-0.0034552868455648422,0.0,0.0,0.0,-0.0015826767776161432,0.001702277921140194,-0.0,0.0,0.0,0.0,-0.0013625724241137505,0.01193716935813427,-0.00039033047505654395,14586.0,12722.0,12721.0,14213.0,0.4788919687271118,0.3582168221473694,0.35818541049957275,0.4533502459526062,0.0,0.0,0.0,0.0,14295.0,13046.0,12414.0,14482.0,1.6482752561569214,-0.00578452615782067,0.07221690445537927,0.006212407381323599,-0.0067610060796141624,-0.004835375119000673,-0.0
189,5,-6.716547795804217e-05,5.333612716640346e-05,0.00017455127090215683,-0.0018240408971905708,-0.003359205089509487,-0.006039828062057495,0.003959461115300655,-0.04026465117931366,-0.001251198467798531,-0.002696954645216465,0.004778057802468538,0.02851533144712448,0.0,0.0,0.0,0.003390941768884659,-0.0006154441507533193,-0.0,0.0,0.0,0.0,-0.0008956360979937017,0.013036655262112617,-0.0011090715415775776,13609.0,13802.0,11458.0,15426.0,0.41350919008255005,0.4260338544845581,0.28632932901382446,0.538973331451416,0.0,0.0,0.0,0.0,15082.0,12183.0,13208.0,13957.0,1.6546907424926758,-0.006428207588230333,0.07247553538943557,0.006393300710742594,0.0024538885336369276,0.010400259867310524,0.0
194,5,-5.72736062167678e-05,3.789471884374507e-05,0.00015366509614977986,0.000457407848443836,0.000509286648593843,9.040987788466737e-05,0.003959461115300655,-0.04026465117931366,-0.001251198467798531,-0.002696954645216465,0.004778057802468538,0.02851533144712448,0.0,0.0,0.0,0.003390941768884659,-0.0006154441507533193,-0.0,0.0,0.0,0.0,-0.0008956360979937017,0.013036655262112617,-0.0011090715415775776,13609.0,13802.0,11458.0,15426.0,0.41350919008255005,0.4260338544845581,0.28632932901382446,0.538973331451416,0.0,0.0,0.0,0.0,15082.0,12183.0,13208.0,13957.0,1.6546907424926758,-0.005356662152615461,0.07272733626306067,0.005766248780159201,0.0024538885336369276,0.010400259867310524,0.0
199,5,-7.232486677821726e-05,7.564493716927245e-05,0.00019693451758939773,-0.0016231877962127328,-0.004326310940086842,-0.005156167782843113,0.00397157296538353,-0.040227796882390976,-0.0014284607023000717,-0.0055534858256578445,0.002393975155428052,-0.10004708915948868,0.0,0.0,0.0,-0.0005624679033644497,0.0003557058225851506,-0.0,0.0,0.0,0.0,-0.0015827480237931013,0.01222969964146614,0.002448798855766654,14500.0,12840.0,12537.0,14350.0,0.47300031781196594,0.36538490653038025,0.3472115695476532,0.462678462266922,0.0,0.0,0.0,0.0,14767.0,12503.0,12785.0,14155.0,1.6317243576049805,-0.008311510474846451,0.07229506057334062,0.006582210310884245,-0.001398587366566062,-0.001701190834864974,-0.0
205,5,-0.0003602973301894963,0.00018233437731396407,0.0010262856958433986,-0.03520597144961357,-0.014533257111907005,-0.10158461332321167,0.00397157296538353,-0.040227796882390976,-0.0014284607023000717,-0.0055534858256578445,0.002393975155428052,-0.10004708915948868,0.0,0.0,0.0,-0.0005624679033644497,0.0003557058225851506,-0.0,0.0,0.0,0.0,-0.0015827480237931013,0.01222969964146614,0.002448798855766654,14500.0,12840.0,12537.0,14350.0,0.47300031781196594,0.36538490653038025,0.3472115695476532,0.462678462266922,0.0,0.0,0.0,0.0,14767.0,12503.0,12785.0,14155.0,1.6317243576049805,-0.024655033589802113,0.07301033338380242,-0.002616653354632712,-0.001398587366566062,-0.001701190834864974,-0.0
210,5,-5.7819634093903005e-05,3.0755196348764e-05,0.00017356350144837052,0.02221493609249592,0.012376198545098305,0.061692822724580765,0.003949492238461971,-0.04018367454409599,-0.0008799251518212259,4.235184678691439e-05,-0.007799426093697548,-0.05189352482557297,0.0,0.0,0.0,0.014959017746150494,-0.02778705768287182,-0.0,0.0,0.0,0.0,0.00011282147170277312,0.012127727270126343,0.0022902986966073513,15273.0,11676.0,13752.0,13492.0,0.5277820825576782,0.2981739938259125,0.4227406680583954,0.4059940278530121,0.0,0.0,0.0,0.0,13617.0,13619.0,11694.0,15267.0,2.0018770694732666,-0.006692721264017249,0.07254449624702941,0.006479157043462959,0.13400697708129883,0.05550340563058853,0.0
215,5,-0.000343592168064788,0.00015832959616091102,0.0010001177433878183,-0.02540672942996025,-0.010358449071645737,-0.07450937479734421,0.003949492238461971,-0.04018367454409599,-0.0008799251518212259,4.235184678691439e-05,-0.007799426093697548,-0.05189352482557297,0.0,0.0,0.0,0.014959017746150494,-0.02778705768287182,-0.0,0.0,0.0,0.0,0.00011282147170277312,0.012127727270126343,0.0022902986966073513,15273.0,11676.0,13752.0,13492.0,0.5277820825576782,0.2981739938259125,0.4227406680583954,0.4059940278530121,0.0,0.0,0.0,0.0,13617.0,13619.0,11694.0,15267.0,2.0018770694732666,-0.024602556954430737,0.07179511597602196,-0.0020120262627037503,0.13400697708129883,0.05550340563058853,0.0
220,5,-6.808825128246099e-05,5.774670353275724e-05,0.00018992929835803807,0.02289777807891369,0.00792656745761633,0.06741885840892792,0.003832530230283737,-0.04027221351861954,-0.0008031453471630812,-0.02003808505833149,-0.016868289560079575,0.06536530703306198,0.0,0.0,0.0,0.011268340051174164,-0.02120891772210598,-0.0,0.0,0.0,0.0,-0.00185764383058995,0.012656990438699722,-0.000296038604574278,15299.0,11763.0,13384.0,13397.0,0.529691755771637,0.3029634654521942,0.3991117775440216,0.3999573886394501,0.0,0.0,0.0,0.0,13593.0,13626.0,11540.0,15081.0,1.9015953540802002,-0.006542311367467512,0.07256201074088374,0.005368140333667466,0.09716914594173431,0.03971640393137932,0.0
225,5,-7.619341340614483e-05,4.506194090936333e-05,0.00020688834774773568,0.008186492137610912,0.004692798480391502,0.024932458996772766,0.003832530230283737,-0.04027221351861954,-0.0008031453471630812,-0.02003808505833149,-0.016868289560079575,0.06536530703306198,0.0,0.0,0.0,0.011268340051174164,-0.02120891772210598,-0.0,0.0,0.0,0.0,-0.00185764383058995,0.012656990438699722,-0.000296038604574278,15299.0,11763.0,13384.0,13397.0,0.529691755771637,0.3029634654521942,0.3991117775440216,0.3999573886394501,0.0,0.0,0.0,0.0,13593.0,13626.0,11540.0,15081.0,1.9015953540802002,-0.006709490685561165,0.07182093839487866,0.006784340471283885,0.09716914594173431,0.03971640393137932,0.0
230,5,-0.00020647748897317797,0.0001476781617384404,0.0005590746295638382,-0.012359492480754852,-0.010436827316880226,-0.03228937089443207,0.004001915920525789,-0.04032213240861893,-0.0010234013898298144,0.03345887362957001,0.001703140907920897,0.11951036006212234,0.0,0.0,0.0,-0.005443098954856396,0.007307042367756367,-0.0,0.0,0.0,0.0,0.0031241814140230417,0.003959714900702238,-0.0026092911139130592,14483.0,14918.0,14276.0,15843.0,0.4718112349510193,0.5022510290145874,0.4576619565486908,0.5701528787612915,0.0,0.0,0.0,0.0,14820.0,12339.0,12945.0,13848.0,1.7195441722869873,-0.00991240711656408,0.07497049298901604,0.002732028000874576,-0.030275864526629448,-0.01734859123826027,-0.0
235,5,-5.8338959206594154e-05,1.6331125152646564e-05,0.0001974184124264866,0.012832826934754848,0.011586913838982582,0.030482998117804527,0.004001915920525789,-0.04032213240861893,-0.0010234013898298144,0.03345887362957001,0.001703140907920897,0.11951036006212234,0.0,0.0,0.0,-0.005443098954856396,0.007307042367756367,-0.0,0.0,0.0,0.0,0.0031241814140230417,0.003959714900702238,-0.0026092911139130592,14483.0,14918.0,14276.0,15843.0,0.4718112349510193,0.5022510290145874,0.4576619565486908,0.5701528787612915,0.0,0.0,0.0,0.0,14820.0,12339.0,12945.0,13848.0,1.7195441722869873,-0.0057646888788469176,0.07171479537151373,0.006570418639215738,-0.030275864526629448,-0.01734859123826027,-0.0
240,5,-9.827137546380982e-05,4.523039751802571e-05,0.0003707693540491164,0.00034124066587537527,0.0011668528895825148,-0.00860891304910183,0.0041411747224628925,-0.04040224105119705,-0.0010570138692855835,0.0047197784297168255,0.031110800802707672,-0.00923240277916193,0.0,0.0,0.0,-0.0130136888474226,0.011035767383873463,-0.0,0.0,0.0,0.0,0.002105330117046833,0.005095707252621651,0.0003356056404300034,14225.0,14583.0,13776.0,15499.0,0.4542022943496704,0.47871530055999756,0.4243108034133911,0.5443669557571411,0.0,0.0,0.0,0.0,15726.0,13583.0,15603.0,14554.0,1.79761803150177,-0.008269038909143697,0.07134511485645047,0.005493537987699126,-0.04779761657118797,-0.043359484523534775,-0.0
245,5,-6.660960934823379e-05,2.232461702078581e-05,0.00031756889075040817,0.003935908433049917,0.003215434728190303,0.0029404901433736086,0.0041411747224628925,-0.04040224105119705,-0.0010570138692855835,0.0047197784297168255,0.031110800802707672,-0.00923240277916193,0.0,0.0,0.0,-0.0130136888474226,0.011035767383873463,-0.0,0.0,0.0,0.0,0.002105330117046833,0.005095707252621651,0.0003356056404300034,14225.0,14583.0,13776.0,15499.0,0.4542022943496704,0.47871530055999756,0.4243108034133911,0.5443669557571411,0.0,0.0,0.0,0.0,15726.0,13583.0,15603.0,14554.0,1.79761803150177,-0.005907936946452621,0.07097202862293041,0.0064223982888005305,-0.04779761657118797,-0.043359484523534775,-0.0
251,5,-6.642274092882872e-05,-3.1124120141612366e-05,0.0003438506682869047,0.0015967872459441423,0.007700022775679827,-0.001977616921067238,0.0050947535783052444,-0.039985816925764084,-0.0007184605346992612,0.11837775260210037,-0.05649520456790924,0.05214636027812958,0.0,0.0,0.0,-0.003840767778456211,0.003562269499525428,-0.0,0.0,0.0,0.0,-0.004788469057530165,0.013918477110564709,0.001382282585836947,15601.0,12585.0,13225.0,13839.0,0.5519659519195557,0.35004922747612,0.3890713155269623,0.428457647562027,0.0,0.0,0.0,0.0,14268.0,14634.0,13676.0,15500.0,1.6762523651123047,-0.003394614772816134,0.0712542877802889,0.006473083383241899,-0.014388448558747768,-0.011933396570384502,-0.0
256,5,-9.081680764211342e-05,-4.960135629517026e-05,0.00042972646770067513,-0.0022885731887072325,0.005297277122735977,-0.011096141301095486,0.0050947535783052444,-0.039985816925764084,-0.0007184605346992612,0.11837775260210037,-0.05649520456790924,0.05214636027812958,0.0,0.0,0.0,-0.003840767778456211,0.003562269499525428,-0.0,0.0,0.0,0.0,-0.004788469057530165,0.013918477110564709,0.001382282585836947,15601.0,12585.0,13225.0,13839.0,0.5519659519195557,0.35004922747612,0.3890713155269623,0.428457647562027,0.0,0.0,0.0,0.0,14268.0,14634.0,13676.0,15500.0,1.6762523651123047,-0.002125933019282916,0.0700531819578893,0.007154961601896617,-0.014388448558747768,-0.011933396570384502,-0.0
261,5,-0.00010664634464774281,-0.00016007751401048154,0.0005515478551387787,-0.0007731883670203388,0.011798986233770847,-0.007515227422118187,0.0050947535783052444,-0.039985816925764084,-0.0007184605346992612,0.11837775260210037,-0.05649520456790924,0.05214636027812958,0.0,0.0,0.0,-0.006445760373026133,-0.002237544395029545,-0.0,0.0,0.0,0.0,-0.004788469057530165,0.013918477110564709,0.001382282585836947,15601.0,12585.0,13225.0,13839.0,0.5519659519195557,0.35004922747612,0.3890713155269623,0.428457647562027,0.0,0.0,0.0,0.0,14268.0,14634.0,13676.0,15500.0,1.6853786706924438,0.0018488621747156685,0.06887385950636878,0.007703472247241799,0.00908681470900774,-0.020136071369051933,0.0
266,5,-0.00013393617700785398,-0.00021511217346414924,0.0006322542321868241,-0.003584054531529546,0.011323753744363785,-0.012690859846770763,0.006574441213160753,-0.039732519537210464,-0.001120806555263698,0.2666608691215515,-0.053377289324998856,0.027446851134300232,0.0,0.0,0.0,-0.006445760373026133,-0.002237544395029545,-0.0,0.0,0.0,0.0,-0.006767909042537212,0.013597385957837105,-0.0015960531309247017,15364.0,14117.0,12076.0,14826.0,0.5344489216804504,0.4469158947467804,0.32049885392189026,0.49575433135032654,0.0,0.0,0.0,0.0,14665.0,13761.0,12022.0,14807.0,1.6853786706924438,0.00411209290256808,0.06729445133144984,0.007805591282878786,0.00908681470900774,-0.020136071369051933,0.0
271,5,-0.00038784928619861603,-8.728860120754689e-05,0.001332898624241352,-0.03190319612622261,-0.01080932654440403,-0.08915366977453232,0.006574441213160753,-0.039732519537210464,-0.001120806555263698,0.2666608691215515,-0.053377289324998856,0.027446851134300232,0.0,0.0,0.0,-0.01346609741449356,-0.0033660358749330044,-0.0,0.0,0.0,0.0,-0.006767909042537212,0.013597385957837105,-0.0015960531309247017,15364.0,14117.0,12076.0,14826.0,0.5344489216804504,0.4469158947467804,0.32049885392189026,0.49575433135032654,0.0,0.0,0.0,0.0,14665.0,13761.0,12022.0,14807.0,1.7487276792526245,-0.006372875145714924,0.0702786453095132,0.001997531108092364,0.014182494953274727,-0.043646421283483505,0.0
276,5,-0.00022511564020533115,-0.00022492489370051771,0.0008912976481951773,0.006766761187463999,0.012192624621093273,0.017330646514892578,0.010450467467308044,-0.03885107487440109,-0.0011763882357627153,0.3511263132095337,-0.08120608329772949,-0.07881806790828705,0.0,0.0,0.0,-0.01346609741449356,-0.0033660358749330044,-0.0,0.0,0.0,0.0,-0.009325560182332993,0.010590489022433758,-0.0005225231288932264,14356.0,14254.0,11382.0,14526.0,0.4630778133869171,0.456139475107193,0.28227296471595764,0.47476211190223694,0.0,0.0,0.0,0.0,16175.0,13455.0,12916.0,13839.0,1.7487276792526245,0.0014047327104258621,0.06877220320527928,0.005597936005134755,0.014182494953274727,-0.043646421283483505,0.0
281,5,-0.00031027832301333547,-0.00021109360386617482,0.0010374017292633653,-0.007512818090617657,0.0032172957435250282,-0.010600224137306213,0.010450467467308044,-0.03885107487440109,-0.0011763882357627153,0.3511263132095337,-0.08120608329772949,-0.07881806790828705,0.0,0.0,0.0,-0.014339231885969639,0.00566827692091465,-0.0,0.0,0.0,0.0,-0.009325560182332993,0.010590489022433758,-0.0005225231288932264,14356.0,14254.0,11382.0,14526.0,0.4630778133869171,0.456139475107193,0.28227296471595764,0.47476211190223694,0.0,0.0,0.0,0.0,16175.0,13455.0,12916.0,13839.0,1.7669146060943604,-0.001712627713035834,0.06674058798220503,0.004965124017313178,-0.024130789563059807,-0.046959444880485535,-0.0
286,5,-0.0003883116878569126,-0.00018861104035750031,0.0010978082427754998,-0.012369130738079548,-0.0014109903713688254,-0.011488874442875385,0.012679075822234154,-0.03765764832496643,-0.0009478263091295958,0.19761307537555695,-0.1901734173297882,0.055664967745542526,0.0,0.0,0.0,-0.014339231885969639,0.00566827692091465,-0.0,0.0,0.0,0.0,-0.008960886858403683,0.008662376552820206,0.0013611025642603636,15299.0,13292.0,13319.0,12874.0,0.5296759009361267,0.3932633101940155,0.3949998915195465,0.3674395978450775,0.0,0.0,0.0,0.0,14487.0,13984.0,12617.0,13760.0,1.7669146060943604,-0.0011120998222147271,0.06621930749513714,0.004790036657937626,-0.024130789563059807,-0.046959444880485535,-0.0
291,5,-0.0003999354084953666,-0.000268199248239398,0.0009967619553208351,-0.006342497654259205,0.008986188098788261,0.007530001923441887,0.012679075822234154,-0.03765764832496643,-0.0009478263091295958,0.19761307537555695,-0.1901734173297882,0.055664967745542526,0.0,0.0,0.0,0.0013066394021734595,-0.011468288488686085,-0.0,0.0,0.0,0.0,-0.008960886858403683,0.008662376552820206,0.0013611025642603636,15299.0,13292.0,13319.0,12874.0,0.5296759009361267,0.3932633101940155,0.3949998915195465,0.3674395978450775,0.0,0.0,0.0,0.0,14487.0,13984.0,12617.0,13760.0,1.7561008930206299,0.000551977767684028,0.06436715994578007,0.005699281521106144,0.04852774366736412,0.0042531779035925865,0.0
296,5,-0.0005358493654057384,-0.00023929565213620663,0.0012000197311863303,-0.018846673890948296,0.00012604576477315277,-0.021378936246037483,0.01330362819135189,-0.035343851894140244,-0.0011161352740600705,-0.04652230069041252,-0.2273225486278534,0.006563960108906031,0.0,0.0,0.0,0.0013066394021734595,-0.011468288488686085,-0.0,0.0,0.0,0.0,-0.005966366734355688,0.00555266160517931,-0.0013602131512016058,14593.0,14321.0,12927.0,13983.0,0.47941210865974426,0.4606764614582062,0.3706776797771454,0.4379614293575287,0.0,0.0,0.0,0.0,15215.0,13587.0,13726.0,13271.0,1.7561008930206299,-0.004702754710594389,0.06548354441835921,0.00283147551760923,0.04852774366736412,0.0042531779035925865,0.0
301,5,-0.0005809166468679905,-0.0002335392782697454,0.0011455047642812133,-0.01294674165546894,-0.0006403473671525717,-0.002009772229939699,0.01330362819135189,-0.035343851894140244,-0.0011161352740600705,-0.04652230069041252,-0.2273225486278534,0.006563960108906031,0.0,0.0,0.0,-0.0005303334328345954,-0.016778897494077682,-0.0,0.0,0.0,0.0,-0.005966366734355688,0.00555266160517931,-0.0013602131512016058,14593.0,14321.0,12927.0,13983.0,0.47941210865974426,0.4606764614582062,0.3706776797771454,0.4379614293575287,0.0,0.0,0.0,0.0,15215.0,13587.0,13726.0,13271.0,1.8212554454803467,-0.0036956806571167436,0.0645024461425613,0.004797445487895587,0.07363186031579971,-0.001790310605429113,0.0
307,5,-0.0006143125938251615,-0.0003278540389146656,0.0009884549072012305,-0.00918621476739645,0.011061632074415684,0.018042070791125298,0.01284114085137844,-0.033760931342840195,-0.0007577438373118639,-0.058876633644104004,-0.1946478635072708,-0.005573819391429424,0.0,0.0,0.0,-0.0005303334328345954,-0.016778897494077682,-0.0,0.0,0.0,0.0,-0.006707021966576576,0.007282294798642397,0.0012008327757939696,14910.0,13894.0,13454.0,13578.0,0.5016539096832275,0.4320717751979828,0.40352103114128113,0.41148099303245544,0.0,0.0,0.0,0.0,14800.0,14179.0,12795.0,14300.0,1.8212554454803467,-0.004224705816487724,0.06145607809934115,0.007336268648942114,0.07363186031579971,-0.001790310605429113,0.0
312,5,-0.0007093664025887847,-0.00028825789922848344,0.0011338613694533706,-0.015080941841006279,-0.00032688339706510305,-0.01023195218294859,0.01284114085137844,-0.033760931342840195,-0.0007577438373118639,-0.058876633644104004,-0.1946478635072708,-0.005573819391429424,0.0,0.0,0.0,-0.00010933072917396203,-0.014043374918401241,-0.0,0.0,0.0,0.0,-0.006707021966576576,0.007282294798642397,0.0012008327757939696,14910.0,13894.0,13454.0,13578.0,0.5016539096832275,0.4320717751979828,0.40352103114128113,0.41148099303245544,0.0,0.0,0.0,0.0,14800.0,14179.0,12795.0,14300.0,1.7869430780410767,-0.008050265519667983,0.06212058278000939,0.004883234220802672,0.0604671947658062,-0.0003621274954639375,0.0
317,5,-0.0009336781804449856,-0.00026223217719234526,0.001585545134730637,-0.032949790358543396,-0.003253839910030365,-0.05829482898116112,0.011927642859518528,-0.03178490698337555,-0.00041894367313943803,-0.07227928191423416,-0.1711462438106537,0.07931017130613327,0.0,0.0,0.0,-0.00010933072917396203,-0.014043374918401241,-0.0,0.0,0.0,0.0,-0.0019288213225081563,0.002656114986166358,4.2011222831206396e-05,14252.0,14012.0,13600.0,14122.0,0.4560048282146454,0.43991753458976746,0.4129236042499542,0.4472549259662628,0.0,0.0,0.0,0.0,14698.0,13591.0,14053.0,13623.0,1.7869430780410767,-0.017542382684969667,0.06171082332144539,-2.8459927330225236e-05,0.0604671947658062,-0.0003621274954639375,0.0
322,5,-0.0008412760216742754,-0.0003025057667400688,0.0011598158162087202,-0.002091659465804696,0.0035312955733388662,0.027769586071372032,0.011927642859518528,-0.03178490698337555,-0.00041894367313943803,-0.07227928191423416,-0.1711462438106537,0.07931017130613327,0.0,0.0,0.0,-0.00010933072917396203,-0.014043374918401241,-0.0,0.0,0.0,0.0,-0.0019288213225081563,0.002656114986166358,4.2011222831206396e-05,14252.0,14012.0,13600.0,14122.0,0.4560048282146454,0.43991753458976746,0.4129236042499542,0.4472549259662628,0.0,0.0,0.0,0.0,14698.0,13591.0,14053.0,13623.0,1.6782801151275635,-0.008680129955038338,0.06292704590490679,0.003853382773548045,0.01248583197593689,-0.014909720979630947,-0.0
327,5,-0.0008702470804564655,-0.00036567996721714735,0.0012040246510878205,-0.004313184414058924,0.008993422612547874,0.005802781321108341,0.01017554011195898,-0.029487332329154015,-2.442240838718135e-05,-0.11103540658950806,-0.08976801484823227,-0.004726272076368332,0.0,0.0,0.0,-0.0047929128631949425,-0.0030874989461153746,-0.0,0.0,0.0,0.0,-0.0008033474441617727,0.0015850996132940054,0.0010906289098784328,14578.0,14077.0,14130.0,14177.0,0.4783317446708679,0.4442429542541504,0.4477601647377014,0.45092058181762695,0.0,0.0,0.0,0.0,14879.0,13869.0,14402.0,13788.0,1.6782801151275635,-0.006311330006579604,0.06291546099226548,0.0037200698718268506,0.01248583197593689,-0.014909720979630947,-0.0
332,5,-0.0010256455279886723,-0.0004359006998129189,0.001364252995699644,-0.020373087376356125,0.012023854069411755,-0.01690630055963993,0.01017554011195898,-0.029487332329154015,-2.442240838718135e-05,-0.11103540658950806,-0.08976801484823227,-0.004726272076368332,0.0,0.0,0.0,-0.013660312630236149,-0.01815773919224739,-0.0,0.0,0.0,0.0,-0.0008033474441617727,0.0015850996132940054,0.0010906289098784328,14578.0,14077.0,14130.0,14177.0,0.4783317446708679,0.4442429542541504,0.4477601647377014,0.45092058181762695,0.0,0.0,0.0,0.0,14879.0,13869.0,14402.0,13788.0,1.8757542371749878,-0.007702677427652884,0.06316582607167892,0.0013914194699950705,0.08205880969762802,-0.04749201238155365,0.0
337,5,-0.001170109142549336,-0.0004488287668209523,0.0016605884302407503,-0.025484876707196236,0.0063609108328819275,-0.04232276231050491,0.009749767370522022,-0.028922880068421364,6.597008905373514e-05,0.024182436987757683,-0.05565091595053673,0.03565389662981033,0.0,0.0,0.0,-0.013660312630236149,-0.01815773919224739,-0.0,0.0,0.0,0.0,-0.002247438533231616,0.0028494729194790125,0.0005804334650747478,14795.0,13739.0,14068.0,13829.0,0.49354392290115356,0.421953022480011,0.44362419843673706,0.42782193422317505,0.0,0.0,0.0,0.0,14589.0,13454.0,13029.0,13690.0,1.8757542371749878,-0.010482394244820236,0.06149870054493728,0.0011332641961431403,0.08205880969762802,-0.04749201238155365,0.0
342,5,-0.0010712537914514542,-0.0005191841046325862,0.0014032506151124835,0.0016686924500390887,0.010987007059156895,0.013951432891190052,0.009749767370522022,-0.028922880068421364,6.597008905373514e-05,0.024182436987757683,-0.05565091595053673,0.03565389662981033,0.0,0.0,0.0,-0.013632475398480892,8.169635839294642e-05,-0.0,0.0,0.0,0.0,-0.002247438533231616,0.0028494729194790125,0.0005804334650747478,14795.0,13739.0,14068.0,13829.0,0.49354392290115356,0.421953022480011,0.44362419843673706,0.42782193422317505,0.0,0.0,0.0,0.0,14589.0,13454.0,13029.0,13690.0,1.7439028024673462,-0.003992140681823745,0.06240733171648112,0.0030822985771798584,-0.00034327051253058016,-0.044063713401556015,-0.0
347,5,-0.0011202290188521147,-0.0006076311110518873,0.0014033637708052993,-0.005209552589803934,0.015008439309895039,0.005566990002989769,0.010880238376557827,-0.028444474563002586,5.502972271642648e-05,0.15396924316883087,-0.025333644822239876,-0.00242515723221004,0.0,0.0,0.0,-0.013632475398480892,8.169635839294642e-05,-0.0,0.0,0.0,0.0,-0.0064620706252753735,0.0066787670366466045,-0.0006273746839724481,14511.0,13782.0,12576.0,13867.0,0.47373339533805847,0.4247060716152191,0.34952619671821594,0.43031445145606995,0.0,0.0,0.0,0.0,15312.0,14712.0,13865.0,13821.0,1.7439028024673462,-0.0024929715398199445,0.061621012914059276,0.003706250421881412,-0.00034327051253058016,-0.044063713401556015,-0.0
352,5,-0.0012572261039167643,-0.0006819675909355283,0.0015382088022306561,-0.01852347142994404,0.014923758804798126,-0.013954603113234043,0.010880238376557827,-0.028444474563002586,5.502972271642648e-05,0.15396924316883087,-0.025333644822239876,-0.00242515723221004,0.0,0.0,0.0,-0.017128337174654007,-0.0168572086840868,-0.0,0.0,0.0,0.0,-0.0064620706252753735,0.0066787670366466045,-0.0006273746839724481,14511.0,13782.0,12576.0,13867.0,0.47373339533805847,0.4247060716152191,0.34952619671821594,0.43031445145606995,0.0,0.0,0.0,0.0,15312.0,14712.0,13865.0,13821.0,1.8813233375549316,-0.004011476980253778,0.06324888591061181,0.0007044838290261624,0.07640410959720612,-0.05972396582365036,0.0
357,5,-0.0013506690738722682,-0.0007299931603483856,0.0017863052198663354,-0.018622536212205887,0.01173256803303957,-0.035353414714336395,0.011652550660073757,-0.028064977377653122,0.00021582373301498592,0.08215972036123276,-0.06301992386579514,0.00926424004137516,0.0,0.0,0.0,-0.017128337174654007,-0.0168572086840868,-0.0,0.0,0.0,0.0,-0.007531763985753059,0.005410350393503904,-0.0005787337431684136,15227.0,14771.0,13895.0,13822.0,0.5244653820991516,0.4918152987957001,0.4321439266204834,0.4273296594619751,0.0,0.0,0.0,0.0,14596.0,14396.0,12613.0,14115.0,1.8813233375549316,-0.008563989494748493,0.05972193023999691,0.0021052863923071287,0.07640410959720612,-0.05972396582365036,0.0
362,5,-0.0012361624976620078,-0.0008781804936006665,0.0012578456662595272,0.0062917680479586124,0.022475507110357285,0.0492737740278244,0.011652550660073757,-0.028064977377653122,0.00021582373301498592,0.08215972036123276,-0.06301992386579514,0.00926424004137516,0.0,0.0,0.0,-0.025781596079468727,0.003730917815119028,-0.0,0.0,0.0,0.0,-0.007531763985753059,0.005410350393503904,-0.0005787337431684136,15227.0,14771.0,13895.0,13822.0,0.5244653820991516,0.4918152987957001,0.4321439266204834,0.4273296594619751,0.0,0.0,0.0,0.0,14596.0,14396.0,12613.0,14115.0,1.8653911352157593,-0.00012040364114127101,0.05760363558688109,0.007519343764535831,-0.016764558851718903,-0.08912526816129684,-0.0
367,5,-0.0012877150438725948,-0.0009115652064792812,0.0012399632250890136,-0.003669590223580599,0.01299636997282505,0.02185540273785591,0.011962874792516232,-0.02732045017182827,2.4604067220934667e-05,-0.041253991425037384,-0.11491459608078003,-0.014502698555588722,0.0,0.0,0.0,-0.025781596079468727,0.003730917815119028,-0.0,0.0,0.0,0.0,-0.007531763985753059,0.005410350393503904,-0.0005787337431684136,14639.0,14166.0,12932.0,14015.0,0.48262128233909607,0.4502142369747162,0.3709855377674103,0.44008174538612366,0.0,0.0,0.0,0.0,14782.0,13917.0,13341.0,13806.0,1.8653911352157593,-0.0003223348792052914,0.05771486396453415,0.0066202394442583575,-0.016764558851718903,-0.08912526816129684,-0.0
373,5,-0.0014254646375775337,-0.0009442809969186783,0.0013501991052180529,-0.01799778640270233,0.00912443920969963,-0.00448613939806819,0.011962874792516232,-0.02732045017182827,2.4604067220934667e-05,-0.041253991425037384,-0.11491459608078003,-0.014502698555588722,0.0,0.0,0.0,-0.011493250727653503,-0.01690194196999073,-0.0,0.0,0.0,0.0,-0.007531763985753059,0.005410350393503904,-0.0005787337431684136,14639.0,14166.0,12932.0,14015.0,0.48262128233909607,0.4502142369747162,0.3709855377674103,0.44008174538612366,0.0,0.0,0.0,0.0,14782.0,13917.0,13341.0,13806.0,1.850736141204834,-0.00520603164778432,0.05725963363945985,0.005335495620158625,0.07536742091178894,-0.039425622671842575,0.0
378,5,-0.0015881735598668456,-0.0009062094031833112,0.0016854770947247744,-0.026724185794591904,-0.0009188110125251114,-0.04202781990170479,0.010920428670942783,-0.025731736794114113,-0.00012954942940268666,-0.14276142418384552,-0.15086160600185394,-0.04456479847431183,0.0,0.0,0.0,-0.011493250727653503,-0.01690194196999073,-0.0,0.0,0.0,0.0,-0.007814794778823853,0.004693781491369009,-0.00028177566127851605,14497.0,15180.0,13860.0,14277.0,0.47273945808410645,0.5210210680961609,0.4298549294471741,0.45770788192749023,0.0,0.0,0.0,0.0,14346.0,15210.0,13911.0,14347.0,1.850736141204834,-0.012268713194618114,0.05656668730479881,0.001578972474869932,0.07536742091178894,-0.039425622671842575,0.0
383,5,-0.0014908581506460905,-0.0010074620367959142,0.0011997232213616371,0.0009881743462756276,0.011782785877585411,0.04147934913635254,0.010920428670942783,-0.025731736794114113,-0.00012954942940268666,-0.14276142418384552,-0.15086160600185394,-0.04456479847431183,0.0,0.0,0.0,-0.011493250727653503,-0.01690194196999073,-0.0,0.0,0.0,0.0,-0.007814794778823853,0.004693781491369009,-0.00028177566127851605,14497.0,15180.0,13860.0,14277.0,0.47273945808410645,0.5210210680961609,0.4298549294471741,0.45770788192749023,0.0,0.0,0.0,0.0,14346.0,15210.0,13911.0,14347.0,1.850736141204834,-0.003442867054269271,0.055092497171324,0.007058292545965355,0.07536742091178894,-0.039425622671842575,0.0
388,5,-0.001533600385300815,-0.0010905115632340312,0.0011428389698266983,-0.004733807872980833,0.01467906404286623,0.023417849093675613,0.009512243792414665,-0.0243633221834898,-0.0003187134861946106,-0.13827592134475708,-0.1624104380607605,-0.0006693551549687982,0.0,0.0,0.0,-0.015254572965204716,-0.0010697836987674236,-0.0,0.0,0.0,0.0,-0.00554099353030324,-0.00040588562842458487,-0.0012566711520776153,15191.0,14617.0,13612.0,14145.0,0.5218017101287842,0.4810711443424225,0.41370898485183716,0.44880926609039307,0.0,0.0,0.0,0.0,15000.0,14855.0,13244.0,14446.0,1.7594434022903442,-0.003252826874493012,0.053034299358173394,0.008063552533596653,0.0045349509455263615,-0.04974544420838356,-0.0
393,5,-0.03577939420938492,0.004597862716764212,0.0010704451706260443,-0.004733807872980833,0.01467906404286623,0.023417849093675613,0.009512243792414665,-0.0243633221834898,-0.0003187134861946106,-0.13827592134475708,-0.1624104380607605,-0.0006693551549687982,0.0,0.0,0.0,-0.015254572965204716,-0.0010697836987674236,-0.0,0.0,0.0,0.0,-0.00554099353030324,-0.00040588562842458487,-0.0012566711520776153,15191.0,14617.0,13612.0,14145.0,0.5218017101287842,0.4810711443424225,0.41370898485183716,0.44880926609039307,0.0,0.0,0.0,0.0,15000.0,14855.0,13244.0,14446.0,1.7594434022903442,-0.10260670181359133,-0.13563300784318197,-3.116209139068169,0.0045349509455263615,-0.04974544420838356,-0.0
398,5,-0.0018160686595365405,-0.002784229349344969,-0.00046196836046874523,-0.004733807872980833,0.01467906404286623,0.023417849093675613,0.008542959578335285,-0.02271151728928089,-0.000695231428835541,0.0005139527493156493,-0.11427895724773407,-0.036430224776268005,0.0,0.0,0.0,-0.007385122124105692,-0.04099518433213234,-0.0,0.0,0.0,0.0,-0.007640954107046127,0.004775902256369591,-0.0009386998135596514,14224.0,15189.0,13619.0,14323.0,0.4541107416152954,0.5216550827026367,0.41414874792099,0.46082156896591187,0.0,0.0,0.0,0.0,14433.0,15048.0,13665.0,14219.0,2.1741526126861572,0.03863661297016653,0.038002328517403414,0.026301995188734887,0.21470455825328827,-0.02976110763847828,-0.0
403,5,-0.0018741689855232835,-0.0028654260095208883,-0.0009437138796783984,-0.008865568786859512,0.015615222975611687,0.06717660278081894,0.008542959578335285,-0.02271151728928089,-0.000695231428835541,0.0005139527493156493,-0.11427895724773407,-0.036430224776268005,0.0,0.0,0.0,-0.007385122124105692,-0.04099518433213234,-0.0,0.0,0.0,0.0,-0.007640954107046127,0.004775902256369591,-0.0009386998135596514,14224.0,15189.0,13619.0,14323.0,0.4541107416152954,0.5216550827026367,0.41414874792099,0.46082156896591187,0.0,0.0,0.0,0.0,14433.0,15048.0,13665.0,14219.0,2.1741526126861572,0.02165762503466165,0.052323583005510634,0.019193928797599787,0.21470455825328827,-0.02976110763847828,-0.0
408,5,-0.00191953731700778,-0.0028085424564778805,-0.0007436994928866625,-0.00899041909724474,-0.0005799432983621955,0.002868917305022478,0.008617517538368702,-0.022007212042808533,-0.0009482027962803841,0.019832348451018333,-0.0957837775349617,-0.07250216603279114,0.0,0.0,0.0,-0.02163366600871086,-0.009790734387934208,-0.0,0.0,0.0,0.0,-0.005176420323550701,-0.007103886920958757,-0.0013274799566715956,14914.0,16587.0,15270.0,15121.0,0.501963198184967,0.6278342604637146,0.527604877948761,0.5167502760887146,0.0,0.0,0.0,0.0,14144.0,14841.0,12394.0,14531.0,1.8538986444473267,0.03220781877519855,0.0536004320560477,0.01979782554459613,0.04372648522257805,-0.07432982325553894,0.0
413,5,-0.0024801918771117926,-0.0016219738172367215,0.0015034173848107457,-0.07087471336126328,-0.14262020587921143,-0.2685064673423767,0.008617517538368702,-0.022007212042808533,-0.0009482027962803841,0.019832348451018333,-0.0957837775349617,-0.07250216603279114,0.0,0.0,0.0,-0.02163366600871086,-0.009790734387934208,-0.0,0.0,0.0,0.0,-0.005176420323550701,-0.007103886920958757,-0.0013274799566715956,14914.0,16587.0,15270.0,15121.0,0.501963198184967,0.6278342604637146,0.527604877948761,0.5167502760887146,0.0,0.0,0.0,0.0,14144.0,14841.0,12394.0,14531.0,1.8538986444473267,-0.023615472773915562,0.026579557983586063,0.022015594571840106,0.04372648522257805,-0.07432982325553894,0.0
418,5,-0.0024041500873863697,-0.0018838790711015463,0.0012940865708515048,-0.0192248672246933,-0.025619450956583023,-0.0822828859090805,0.00873483344912529,-0.021114664152264595,-0.0016883808420971036,0.0003217602788936347,-0.07916507124900818,-0.050253450870513916,0.0,0.0,0.0,0.09680579602718353,-0.03967573866248131,-0.0,0.0,0.0,0.0,-0.008653988130390644,0.0018497318960726261,-0.0028518717736005783,14307.0,15474.0,12925.0,14617.0,0.45974916219711304,0.5425560474395752,0.370515376329422,0.4810781180858612,0.0,0.0,0.0,0.0,14730.0,16717.0,15083.0,15344.0,2.9391136169433594,-0.015661970916814583,0.02501088161069302,0.021501488547459254,0.279602587223053,0.5258863568305969,0.0
423,5,-0.0024114332627505064,-0.001917788409627974,0.0013846727088093758,-0.008563932031393051,-0.006178659852594137,-0.04378348961472511,0.00873483344912529,-0.021114664152264595,-0.0016883808420971036,0.0003217602788936347,-0.07916507124900818,-0.050253450870513916,0.0,0.0,0.0,0.09680579602718353,-0.03967573866248131,-0.0,0.0,0.0,0.0,-0.008653988130390644,0.0018497318960726261,-0.0028518717736005783,14307.0,15474.0,12925.0,14617.0,0.45974916219711304,0.5425560474395752,0.370515376329422,0.4810781180858612,0.0,0.0,0.0,0.0,14730.0,16717.0,15083.0,15344.0,2.9391136169433594,-0.008780406686489252,0.034307864732700304,0.015577690325204742,0.279602587223053,0.5258863568305969,0.0
428,5,-0.002401859499514103,-0.0019604740664362907,0.0014068882446736097,-0.0022767360787838697,0.002650817157700658,-0.0201792623847723,0.00873483344912529,-0.021114664152264595,-0.0016883808420971036,0.0003217602788936347,-0.07916507124900818,-0.050253450870513916,0.0,0.0,0.0,0.003878311486914754,-0.01079198345541954,-0.0,0.0,0.0,0.0,-0.008653988130390644,0.0018497318960726261,-0.0028518717736005783,14307.0,15474.0,12925.0,14617.0,0.45974916219711304,0.5425560474395752,0.370515376329422,0.4810781180858612,0.0,0.0,0.0,0.0,14730.0,16717.0,15083.0,15344.0,1.7523181438446045,-0.007142094013076914,0.036952211741424296,0.013303554206293726,0.04556741937994957,0.012596857734024525,0.0
433,5,-0.002395249903202057,-0.0019490389386191964,0.001440980820916593,-0.00011752825957955793,-0.000311897398205474,-0.012162812054157257,0.008621755987405777,-0.0206354521214962,-0.0023391491267830133,-0.013911137357354164,-0.08762158453464508,-0.06629299372434616,0.0,0.0,0.0,0.003878311486914754,-0.01079198345541954,-0.0,0.0,0.0,0.0,0.026150472462177277,-0.006944312714040279,-0.0020440591033548117,15424.0,17514.0,18961.0,19344.0,0.5388848185539246,0.703663170337677,0.8306286931037903,0.8659369349479675,0.0,0.0,0.0,0.0,14625.0,15220.0,13224.0,14300.0,1.7523181438446045,-0.008384520022509105,0.04022273910415878,0.009941449530784545,0.04556741937994957,0.012596857734024525,0.0
438,5,-0.0023677574936300516,-0.0019472192507237196,0.0014343628427013755,0.0032520750537514687,-0.000343117251759395,-0.004070968367159367,0.008729947730898857,-0.019309427589178085,-0.0036793549079447985,-0.0047558872029185295,-0.06604088097810745,-0.03619404882192612,0.0,0.0,0.0,-0.003093366976827383,-0.0034300910774618387,-0.0,0.0,0.0,0.0,0.02628817781805992,-0.007336600683629513,-0.0020289297681301832,13630.0,14511.0,13286.0,14469.0,0.4148653447628021,0.473714143037796,0.39290401339530945,0.4708346426486969,0.0,0.0,0.0,0.0,15137.0,17769.0,18740.0,19551.0,1.6711927652359009,-0.00901843967754843,0.043198737108805056,0.006922592056547551,0.013812782242894173,-0.009582201018929482,0.0
443,5,-0.0023401863873004913,-0.0019055838929489255,0.0014608849305659533,0.0046093580313026905,-0.005133495200425386,-0.004811037797480822,0.008729947730898857,-0.019309427589178085,-0.0036793549079447985,-0.0047558872029185295,-0.06604088097810745,-0.03619404882192612,0.0,0.0,0.0,-0.003093366976827383,-0.0034300910774618387,-0.0,0.0,0.0,0.0,0.02628817781805992,-0.007336600683629513,-0.0020289297681301832,13630.0,14511.0,13286.0,14469.0,0.4148653447628021,0.473714143037796,0.39290401339530945,0.4708346426486969,0.0,0.0,0.0,0.0,15137.0,17769.0,18740.0,19551.0,1.6711927652359009,-0.0069073572660840925,0.04322770216328797,0.007166827246707475,0.013812782242894173,-0.009582201018929482,0.0
448,5,-0.002293485216796398,-0.0018787889275699854,0.001460460713133216,0.0074478755705058575,-0.005268787033855915,-0.0018735146149992943,0.008729947730898857,-0.019309427589178085,-0.0036793549079447985,-0.0047558872029185295,-0.06604088097810745,-0.03619404882192612,0.0,0.0,0.0,0.0028513530269265175,0.0010570196900516748,-0.0,0.0,0.0,0.0,0.02628817781805992,-0.007336600683629513,-0.0020289297681301832,13630.0,14511.0,13286.0,14469.0,0.4148653447628021,0.473714143037796,0.39290401339530945,0.4708346426486969,0.0,0.0,0.0,0.0,15137.0,17769.0,18740.0,19551.0,1.6520062685012817,-0.0037428302153453023,0.04725774237056595,0.005695926046940495,-0.004207700490951538,0.008731123991310596,0.0
454,5,-0.002267849398776889,-0.0018459220882505178,0.001553062698803842,0.0060554672963917255,-0.006051540840417147,-0.011861639097332954,0.009544527158141136,-0.01895071379840374,-0.004406957421451807,0.1646992415189743,-0.003911356441676617,-0.07833386957645416,0.0,0.0,0.0,0.0028513530269265175,0.0010570196900516748,-0.0,0.0,0.0,0.0,-0.0037330558989197016,0.0029919843655079603,-0.002502485178411007,13483.0,14675.0,11831.0,14514.0,0.4054332375526428,0.4851081371307373,0.3067314624786377,0.47391992807388306,0.0,0.0,0.0,0.0,13706.0,14535.0,13051.0,14586.0,1.6520062685012817,-0.004910368596563306,0.04874506188259642,0.0038284022415255537,-0.004207700490951538,0.008731123991310596,0.0
459,5,-0.0023098192177712917,-0.0019170220475643873,0.0015001430874690413,-0.0026141945272684097,0.006111381575465202,0.0016057005850598216,0.009544527158141136,-0.01895071379840374,-0.004406957421451807,0.1646992415189743,-0.003911356441676617,-0.07833386957645416,0.0,0.0,0.0,0.004039005842059851,0.0024915565736591816,-0.0,0.0,0.0,0.0,-0.0037330558989197016,0.0029919843655079603,-0.002502485178411007,13483.0,14675.0,11831.0,14514.0,0.4054332375526428,0.4851081371307373,0.3067314624786377,0.47391992807388306,0.0,0.0,0.0,0.0,13706.0,14535.0,13051.0,14586.0,1.6690596342086792,-0.0006243225348881697,0.049970261148486315,0.001855960513465534,-0.010020526126027107,0.012495473958551884,0.0
464,5,-0.0023160686250776052,-0.0019277079263702035,0.0016390333184972405,-0.0017956122756004333,0.00372686586342752,-0.016024554148316383,0.011074163019657135,-0.01878090761601925,-0.004808323457837105,0.18623429536819458,-0.04482576251029968,-0.02105984091758728,0.0,0.0,0.0,0.004039005842059851,0.0024915565736591816,-0.0,0.0,0.0,0.0,-0.007904903031885624,0.0040944358333945274,-0.001361464150249958,14039.0,14300.0,12437.0,13845.0,0.4416823387145996,0.45928680896759033,0.34135276079177856,0.4288708567619324,0.0,0.0,0.0,0.0,13691.0,14609.0,11925.0,14310.0,1.6690596342086792,-0.00424651315872597,0.05039603401564011,0.0011174901697097144,-0.010020526126027107,0.012495473958551884,0.0
469,5,-0.0023164686281234026,-0.0020015782210975885,0.0015906160697340965,-0.0007662579882889986,0.010355175472795963,-0.0005997466505505145,0.011074163019657135,-0.01878090761601925,-0.004808323457837105,0.18623429536819458,-0.04482576251029968,-0.02105984091758728,0.0,0.0,0.0,-0.0077680605463683605,-0.004778051748871803,-0.0,0.0,0.0,0.0,-0.007904903031885624,0.0040944358333945274,-0.001361464150249958,14039.0,14300.0,12437.0,13845.0,0.4416823387145996,0.45928680896759033,0.34135276079177856,0.4288708567619324,0.0,0.0,0.0,0.0,13691.0,14609.0,11925.0,14310.0,1.7106190919876099,-0.001611891441086276,0.051159031968591784,-5.6654469189400036e-05,0.019694333896040916,-0.024630120024085045,0.0
474,5,-0.002350714523345232,-0.002029645023867488,0.0016300505958497524,-0.004416004754602909,0.007510089315474033,-0.004972044378519058,0.012900182045996189,-0.01805482804775238,-0.005315644200891256,0.1298971176147461,-0.0983673632144928,-0.03617912903428078,0.0,0.0,0.0,-0.0077680605463683605,-0.004778051748871803,-0.0,0.0,0.0,0.0,-0.005295665934681892,0.004363076761364937,-0.0019480014452710748,13544.0,14359.0,12194.0,14195.0,0.409292608499527,0.4633174240589142,0.3272228538990021,0.4521733820438385,0.0,0.0,0.0,0.0,13786.0,14088.0,12746.0,14005.0,1.7106190919876099,-0.002604534997290392,0.05093779703765377,-0.0008704718001935506,0.019694333896040916,-0.024630120024085045,0.0
479,5,-0.0023812255822122097,-0.002093952614814043,0.0015604172367602587,-0.005427725147455931,0.010720944032073021,0.006367190275341272,0.012900182045996189,-0.01805482804775238,-0.005315644200891256,0.1298971176147461,-0.0983673632144928,-0.03617912903428078,0.0,0.0,0.0,-0.012088467366993427,-0.007017076946794987,-0.0,0.0,0.0,0.0,-0.005295665934681892,0.004363076761364937,-0.0019480014452710748,13544.0,14359.0,12194.0,14195.0,0.409292608499527,0.4633174240589142,0.3272228538990021,0.4521733820438385,0.0,0.0,0.0,0.0,13786.0,14088.0,12746.0,14005.0,1.7578017711639404,-0.00220223523638807,0.049309006660991125,-0.0006362642324503639,0.029719585552811623,-0.03938496485352516,0.0
484,5,-0.002440094482153654,-0.002107539912685752,0.0015932542737573385,-0.00923536904156208,0.005918854847550392,-0.0013935724273324013,0.013198429718613625,-0.01686376892030239,-0.005357734858989716,-0.01109873503446579,-0.2135562151670456,-0.013424012809991837,0.0,0.0,0.0,-0.012088467366993427,-0.007017076946794987,-0.0,0.0,0.0,0.0,-0.00249459664337337,0.0013847658410668373,-0.00025964665110222995,13632.0,14060.0,13099.0,13858.0,0.41498371958732605,0.443107932806015,0.3812430799007416,0.42972490191459656,0.0,0.0,0.0,0.0,13582.0,14761.0,13115.0,13794.0,1.7578017711639404,-0.004407776022169718,0.04865094037309311,-0.0012679396378863805,0.029719585552811623,-0.03938496485352516,0.0
489,5,-0.0024802940897643566,-0.0021392814815044403,0.001550332992337644,-0.008518093265593052,0.006176542025059462,0.004593119956552982,0.013198429718613625,-0.01686376892030239,-0.005357734858989716,-0.01109873503446579,-0.2135562151670456,-0.013424012809991837,0.0,0.0,0.0,-0.01024329662322998,-0.01124054566025734,-0.0,0.0,0.0,0.0,-0.00249459664337337,0.0013847658410668373,-0.00025964665110222995,13632.0,14060.0,13099.0,13858.0,0.41498371958732605,0.443107932806015,0.3812430799007416,0.42972490191459656,0.0,0.0,0.0,0.0,13582.0,14761.0,13115.0,13794.0,1.783079981803894,-0.006543981195138616,0.0464489099985623,-0.0006820057992943327,0.04829233139753342,-0.03385363519191742,0.0
