timestamp,dt,pos_x,pos_y,pos_z,vel_x,vel_y,vel_z,roll,pitch,yaw,agv_x,agv_y,agv_z,x_ref,y_ref,z_ref,roll_ref,pitch_ref,yaw_ref,x_vel_ref,y_vel_ref,z_vel_ref,x_torque,y_torque,z_torque,w0,w1,w2,w3,u0,u1,u2,u3,m0req,m1req,m2req,m3req,thrust0,thrust1,thrust2,thrust3,thrust_ref,roll_vicon,pitch_vicon,yaw_vicon,acc_x,acc_y,acc_z
5,5,0.0,0.0,0.0,0.0012043401366099715,0.0009201522334478796,0.0008080326369963586,0.010685612447559834,0.0014169628266245127,-0.00025386124616488814,-0.0015036833938211203,0.0039145504124462605,-0.0036695676390081644,0.0,0.0,0.0,-0.0011343079386278987,0.0011420295340940356,-0.0,0.0,0.0,0.0,-0.003239959478378296,-0.00033569103106856346,-3.1481853511650115e-05,1495.0,1495.0,1495.0,1495.0,0.0,0.0,0.0,0.0,0.0,0.0,0.0,0.0,1495.0,1495.0,1495.0,1495.0,1.6411625146865845,-0.05574556375613728,0.10525620613288109,-0.03696488904879431,-0.004516275599598885,-0.003450570860877633,0.0
29,24,0.0,0.0,0.0,-0.0006045930786058307,-0.00018491681839805096,-0.004935278091579676,0.010685612447559834,0.0014169628266245127,-0.00025386124616488814,-0.0015036833938211203,0.0039145504124462605,-0.0036695676390081644,0.0,0.0,0.0,-0.0011343079386278987,0.0011420295340940356,-0.0,0.0,0.0,0.0,-0.003239959478378296,-0.00033569103106856346,-3.1481853511650115e-05,1495.0,1495.0,1495.0,1495.0,0.0,0.0,0.0,0.0,0.0,0.0,0.0,0.0,1495.0,1495.0,1495.0,1495.0,1.6411625146865845,-0.05565619175202894,0.10386711975895238,-0.03672987931663306,-0.004516275599598885,-0.003450570860877633,0.0
34,5,0.0,0.0,0.0,-0.0011123268632218242,3.164498775731772e-05,-0.0010574640473350883,0.010684008710086346,0.0014135560486465693,-0.0002623322361614555,0.0005007241270504892,-0.00010080490756081417,0.0002475825895089656,0.0,0.0,0.0,0.00022920842457097024,-0.0005764664383605123,-0.0,0.0,0.0,0.0,-0.003537363838404417,-9.642119402997196e-05,-2.537713044148404e-05,1495.0,1495.0,1495.0,1495.0,0.0,0.0,0.0,0.0,0.0,0.0,0.0,0.0,1495.0,1495.0,1495.0,1495.0,1.6321818828582764,-0.05624302393388115,0.1040371698345235,-0.036633268855978444,0.0022672240156680346,0.0006934380508027971,0.0
39,5,0.0,0.0,0.0,5.38764288648963e-05,0.0013389744563028216,0.0029576849192380905,0.010684008710086346,0.0014135560486465693,-0.0002623322361614555,0.0005007241270504892,-0.00010080490756081417,0.0002475825895089656,0.0,0.0,0.0,0.00022920842457097024,-0.0005764664383605123,-0.0,0.0,0.0,0.0,-0.003537363838404417,-9.642119402997196e-05,-2.537713044148404e-05,1495.0,1495.0,1495.0,1495.0,0.0,0.0,0.0,0.0,0.0,0.0,0.0,0.0,1495.0,1495.0,1495.0,1495.0,1.6321818828582764,-0.056133767371726255,0.10426481942880952,-0.03675421288809303,0.0022672240156680346,0.0006934380508027971,0.0
47,7,-6.111502557359927e-07,2.6287223590770736e-05,6.591683631995693e-05,0.0013449741527438164,-0.0026576307136565447,-0.004914902150630951,0.01069971639662981,0.0014264410128816962,-0.00023566876188851893,3.462520908215083e-05,0.0021221216302365065,0.0012386247981339693,0.0,0.0,0.0,0.0032932753674685955,0.0012628630502149463,-0.0,0.0,0.0,0.0,-0.0031341868452727795,-0.0005042407428845763,-4.188079037703574e-05,13675.0,13793.0,13327.0,13294.0,0.41775602102279663,0.4254746437072754,0.39551836252212524,0.3934328556060791,0.0,0.0,0.0,0.0,13695.0,13769.0,13352.0,13273.0,1.6563411951065063,-0.05653344506728119,0.10447024517013459,-0.036948811548514565,-0.005040289834141731,0.010110787115991116,0.0
55,9,-9.687724741525017e-06,2.3167976905824617e-05,6.991069676587358e-05,-0.0005511993076652288,-0.0006887424970045686,-0.002445224206894636,0.01069971639662981,0.0014264410128816962,-0.00023566876188851893,3.462520908215083e-05,0.0021221216302365065,0.0012386247981339693,0.0,0.0,0.0,0.0032932753674685955,0.0012628630502149463,-0.0,0.0,0.0,0.0,-0.0031341868452727795,-0.0005042407428845763,-4.188079037703574e-05,13675.0,13793.0,13327.0,13294.0,0.41775602102279663,0.4254746437072754,0.39551836252212524,0.3934328556060791,0.0,0.0,0.0,0.0,13695.0,13769.0,13352.0,13273.0,1.6563411951065063,-0.056142271874333946,0.1043715425522375,-0.03691777512066602,-0.005040289834141731,0.010110787115991116,0.0
60,5,-1.6081761714303866e-05,1.8696175175136887e-05,5.672057159245014e-05,-0.0009877639822661877,0.00026111913030035794,0.0006047252682037652,0.010690388269722462,0.0013907852116972208,-0.00023365077504422516,0.0015343055129051208,0.0005861069657839835,-0.0017360448837280273,0.0,0.0,0.0,0.0008942963322624564,-0.0005381562514230609,-0.0,0.0,0.0,0.0,-0.0031664723064750433,-0.0006561420159414411,-2.8827976166212466e-06,13683.0,13792.0,13344.0,13272.0,0.4182724058628082,0.4253608286380768,0.39654234051704407,0.3920063078403473,0.0,0.0,0.0,0.0,13663.0,13810.0,13320.0,13297.0,1.6350855827331543,-0.05610441815543501,0.10429285763402274,-0.0366838252461231,0.0021203160285949707,0.0027103812899440527,0.0
67,6,-9.87774274108233e-06,2.2293388610705733e-05,8.145617175614461e-05,0.001019513001665473,-0.0006710578454658389,-0.0016659005777910352,0.010690388269722462,0.0013907852116972208,-0.00023365077504422516,0.0015343055129051208,0.0005861069657839835,-0.0017360448837280273,0.0,0.0,0.0,0.0008942963322624564,-0.0005381562514230609,-0.0,0.0,0.0,0.0,-0.0031664723064750433,-0.0006561420159414411,-2.8827976166212466e-06,13683.0,13792.0,13344.0,13272.0,0.4182724058628082,0.4253608286380768,0.39654234051704407,0.3920063078403473,0.0,0.0,0.0,0.0,13663.0,13810.0,13320.0,13297.0,1.6350855827331543,-0.054551512378951575,0.10384471706417221,-0.036706700498852385,0.0021203160285949707,0.0027103812899440527,0.0
72,5,-9.87774274108233e-06,2.2293388610705733e-05,8.145617175614461e-05,0.001019513001665473,-0.0006710578454658389,-0.0016659005777910352,0.010713096708059311,0.001421863678842783,-0.00025582665693946183,0.0019407260697335005,-0.0018697143532335758,0.0015687377890571952,0.0,0.0,0.0,0.0008691819384694099,0.0009547151275910437,-0.0,0.0,0.0,0.0,-0.0022222718689590693,-0.00011490120232338086,-2.876658697914536e-07,13768.0,13767.0,13484.0,13450.0,0.42383894324302673,0.42371997237205505,0.4054594933986664,0.4033227860927582,0.0,0.0,0.0,0.0,13672.0,13798.0,13352.0,13314.0,1.6382297277450562,-0.054551512378951575,0.10384471706417221,-0.036706700498852385,-0.00376877561211586,0.0026393316220492125,0.0
77,5,-4.461436401470564e-05,2.1356136130634695e-05,5.554138624574989e-05,-0.002310868352651596,-0.0007108170539140701,0.0008120276615954936,0.010713096708059311,0.001421863678842783,-0.00025582665693946183,0.0019407260697335005,-0.0018697143532335758,0.0015687377890571952,0.0,0.0,0.0,0.0009094967972487211,-0.0022399313747882843,-0.0,0.0,0.0,0.0,-0.0022222718689590693,-0.00011490120232338086,-2.876658697914536e-07,13768.0,13767.0,13484.0,13450.0,0.42383894324302673,0.42371997237205505,0.4054594933986664,0.4033227860927582,0.0,0.0,0.0,0.0,13672.0,13798.0,13352.0,13314.0,1.6510415077209473,-0.056282908876045465,0.10463202729446923,-0.03682615849035889,0.008911361917853355,0.002783348551020026,-0.0
82,5,-1.9541552319424227e-05,-8.23750815470703e-06,-1.4993794366091606e-06,0.0020843897946178913,0.003266910556703806,0.007169703021645546,0.010713096708059311,0.001421863678842783,-0.00025582665693946183,0.0019407260697335005,-0.0018697143532335758,0.0015687377890571952,0.0,0.0,0.0,0.0009094967972487211,-0.0022399313747882843,-0.0,0.0,0.0,0.0,-0.0022222718689590693,-0.00011490120232338086,-2.876658697914536e-07,13768.0,13767.0,13484.0,13450.0,0.42383894324302673,0.42371997237205505,0.4054594933986664,0.4033227860927582,0.0,0.0,0.0,0.0,13672.0,13798.0,13352.0,13314.0,1.6510415077209473,-0.05707315096996524,0.10453503123913459,-0.036928248317757845,0.008911361917853355,0.002783348551020026,-0.0
87,5,-1.9541552319424227e-05,-8.23750815470703e-06,-1.4993794366091606e-06,0.0020843897946178913,0.003266910556703806,0.007169703021645546,0.010718354023993015,0.0014319211477413774,-0.0002674702845979482,-0.0009252690360881388,-0.002254820428788662,-0.0021627345122396946,0.0,0.0,0.0,0.0009094967972487211,-0.0022399313747882843,-0.0,0.0,0.0,0.0,-0.00293318391777575,-0.0006594916922040284,-7.016257586656138e-05,13653.0,13809.0,13350.0,13323.0,0.4163387417793274,0.42650938034057617,0.39697569608688354,0.3952617645263672,0.0,0.0,0.0,0.0,13723.0,13767.0,13354.0,13342.0,1.6510415077209473,-0.05707315096996524,0.10453503123913459,-0.036928248317757845,0.008911361917853355,0.002783348551020026,-0.0
92,5,-2.2648968297289684e-05,1.3652228517457843e-05,2.742318611126393e-05,0.00046086596557870507,-0.0013200042303651571,-0.0006028267671354115,0.010718354023993015,0.0014319211477413774,-0.0002674702845979482,-0.0009252690360881388,-0.002254820428788662,-0.0021627345122396946,0.0,0.0,0.0,-0.003984170500189066,0.001921389834024012,-0.0,0.0,0.0,0.0,-0.00293318391777575,-0.0006594916922040284,-7.016257586656138e-05,13653.0,13809.0,13350.0,13323.0,0.4163387417793274,0.42650938034057617,0.39697569608688354,0.3952617645263672,0.0,0.0,0.0,0.0,13723.0,13767.0,13354.0,13342.0,1.6650097370147705,-0.05737057072413697,0.10473090119952547,-0.036947462504702856,-0.007708687800914049,-0.012295924127101898,0.0
97,5,-2.4248631234513596e-05,1.1181149602634832e-05,4.11575056205038e-05,0.0006248056306503713,0.0008172409143298864,-3.067847137572244e-05,0.010713930241763592,0.001435547019354999,-0.00026353320572525263,0.0015260135987773538,0.0034494991414248943,0.0006149989203549922,0.0,0.0,0.0,-0.003984170500189066,0.001921389834024012,-0.0,0.0,0.0,0.0,-0.002970227738842368,-8.865094423526898e-05,3.3429466839152155e-06,13739.0,13753.0,13348.0,13344.0,0.4219433069229126,0.42284059524536133,0.3968505859375,0.3965952396392822,0.0,0.0,0.0,0.0,13741.0,13754.0,13353.0,13337.0,1.6650097370147705,-0.0562964057429133,0.10483404778564245,-0.036865114217738686,-0.007708687800914049,-0.012295924127101898,0.0
102,5,-2.12555933103431e-05,2.387463246122934e-05,8.763669029576704e-05,0.0006090868264436722,-0.001196321565657854,-0.005589773412793875,0.010713930241763592,0.001435547019354999,-0.00026353320572525263,0.0015260135987773538,0.0034494991414248943,0.0006149989203549922,0.0,0.0,0.0,-0.000990316504612565,0.0005604680045507848,-0.0,0.0,0.0,0.0,-0.002970227738842368,-8.865094423526898e-05,3.3429466839152155e-06,13739.0,13753.0,13348.0,13344.0,0.4219433069229126,0.42284059524536133,0.3968505859375,0.3965952396392822,0.0,0.0,0.0,0.0,13741.0,13754.0,13353.0,13337.0,1.6358633041381836,-0.05687271201588613,0.1039222471777931,-0.036760431114558886,-0.0022092736326158047,-0.0030028210021555424,0.0
107,5,-1.9763907403103076e-05,1.5681813238188624e-05,4.210897895973176e-05,0.00042263700743205845,0.000504609546624124,0.0032274159602820873,0.010714948177337646,0.0014285511570051312,-0.0002654959971550852,-0.0014726478839293122,0.0026655804831534624,-0.002642116043716669,0.0,0.0,0.0,-0.000990316504612565,0.0005604680045507848,-0.0,0.0,0.0,0.0,-0.0029222997836768627,-0.0010631219483911991,-0.00011157769040437415,13674.0,13908.0,13430.0,13371.0,0.4177076816558838,0.4329952001571655,0.4020274877548218,0.39831113815307617,0.0,0.0,0.0,0.0,13728.0,13859.0,13477.0,13320.0,1.6358633041381836,-0.05629535547613748,0.10471327913862181,-0.036753831648427784,-0.0022092736326158047,-0.0030028210021555424,0.0
112,5,-1.5408286344609223e-05,2.7246944227954373e-05,7.056355389067903e-05,0.0006917293649166822,-0.0011859717778861523,-0.002123582875356078,0.010714948177337646,0.0014285511570051312,-0.0002654959971550852,-0.0014726478839293122,0.0026655804831534624,-0.002642116043716669,0.0,0.0,0.0,-0.0005968749173916876,0.0003752468037419021,-0.0,0.0,0.0,0.0,-0.0029222997836768627,-0.0010631219483911991,-0.00011157769040437415,13674.0,13908.0,13430.0,13371.0,0.4177076816558838,0.4329952001571655,0.4020274877548218,0.39831113815307617,0.0,0.0,0.0,0.0,13728.0,13859.0,13477.0,13320.0,1.632076382637024,-0.05582511560164209,0.10356736172855134,-0.03673160699865037,-0.0014757381286472082,-0.001805644715204835,-0.0
117,5,-1.2236099792062305e-05,1.100288409361383e-05,2.3679393052589148e-05,0.000657354190479964,0.0014748985413461924,0.004776666406542063,0.010714948177337646,0.0014285511570051312,-0.0002654959971550852,-0.0014726478839293122,0.0026655804831534624,-0.002642116043716669,0.0,0.0,0.0,-0.0005968749173916876,0.0003752468037419021,-0.0,0.0,0.0,0.0,-0.0029222997836768627,-0.0010631219483911991,-0.00011157769040437415,13674.0,13908.0,13430.0,13371.0,0.4177076816558838,0.4329952001571655,0.4020274877548218,0.39831113815307617,0.0,0.0,0.0,0.0,13728.0,13859.0,13477.0,13320.0,1.632076382637024,-0.05515689588050813,0.10438577655768973,-0.036760258062117725,-0.0014757381286472082,-0.001805644715204835,-0.0
122,5,-1.2236099792062305e-05,1.100288409361383e-05,2.3679393052589148e-05,0.000657354190479964,0.0014748985413461924,0.004776666406542063,0.01069437526166439,0.0014033527113497257,-0.00026746702496893704,-0.0022708517499268055,-0.004988946486264467,0.000562378263566643,0.0,0.0,0.0,-0.0017972756177186966,0.000605913286563009,-0.0,0.0,0.0,0.0,-0.003506813198328018,-0.00030368301668204367,-0.00015719051589258015,13923.0,13957.0,13325.0,13389.0,0.4340081810951233,0.43624407052993774,0.3953670859336853,0.39939039945602417,0.0,0.0,0.0,0.0,13959.0,13921.0,13377.0,13336.0,1.6419445276260376,-0.05515689588050813,0.10438577655768973,-0.036760258062117725,-0.0023972876369953156,-0.005469924304634333,-0.0
127,5,-2.577419945737347e-05,1.622659146960359e-05,3.501439277897589e-05,-0.0006283267866820097,-1.8352569895796478e-05,0.0007391028921119869,0.01069437526166439,0.0014033527113497257,-0.00026746702496893704,-0.0022708517499268055,-0.004988946486264467,0.000562378263566643,0.0,0.0,0.0,-0.0017972756177186966,0.000605913286563009,-0.0,0.0,0.0,0.0,-0.003506813198328018,-0.00030368301668204367,-0.00015719051589258015,13923.0,13957.0,13325.0,13389.0,0.4340081810951233,0.43624407052993774,0.3953670859336853,0.39939039945602417,0.0,0.0,0.0,0.0,13959.0,13921.0,13377.0,13336.0,1.6419445276260376,-0.056020448638078646,0.10461687760492175,-0.03681325219694725,-0.0023972876369953156,-0.005469924304634333,-0.0
132,5,-1.275232989428332e-05,5.013894224248361e-06,1.0549125363468193e-05,0.0013112936867401004,0.0013381827156990767,0.0032314732670783997,0.010686187073588371,0.00143701012711972,-0.00028166998527012765,-0.0014609647914767265,-0.000411205313866958,-0.0006532621919177473,0.0,0.0,0.0,5.2396990213310346e-05,-0.000635147443972528,-0.0,0.0,0.0,0.0,-0.0033758848439902067,-0.00032898547942750156,-0.00024546406348235905,13648.0,13849.0,13234.0,13355.0,0.4159809947013855,0.4291501045227051,0.3896770477294922,0.39726823568344116,0.0,0.0,0.0,0.0,13766.0,13782.0,13329.0,13269.0,1.6325418949127197,-0.05560874812429756,0.10439793117754062,-0.03664822161786092,0.0024985657073557377,0.00015855474339332432,-0.0
137,5,-2.0601035430445336e-05,1.1327556421747431e-05,2.0639792637666687e-05,-0.00041732718818821013,-0.00022236637596506625,8.170919318217784e-05,0.010686187073588371,0.00143701012711972,-0.00028166998527012765,-0.0014609647914767265,-0.000411205313866958,-0.0006532621919177473,0.0,0.0,0.0,5.2396990213310346e-05,-0.000635147443972528,-0.0,0.0,0.0,0.0,-0.0033758848439902067,-0.00032898547942750156,-0.00024546406348235905,13648.0,13849.0,13234.0,13355.0,0.4159809947013855,0.4291501045227051,0.3896770477294922,0.39726823568344116,0.0,0.0,0.0,0.0,13766.0,13782.0,13329.0,13269.0,1.6325418949127197,-0.05611110928803173,0.1047773099534727,-0.036724370016849056,0.0024985657073557377,0.00015855474339332432,-0.0
142,5,-2.285713162564207e-05,9.269596375816036e-06,4.5424108975566924e-05,-0.00043766244198195636,0.0001580087118782103,-0.002941434271633625,0.01069096103310585,0.0014484648127108812,-0.000313473807182163,-0.0015975050628185272,0.0011052979389205575,-0.00442614546045661,0.0,0.0,0.0,0.00029662554152309895,-0.00042722016223706305,-0.0,0.0,0.0,0.0,-0.00377486040815711,-0.00019852291734423488,-8.539285772712901e-05,13775.0,13851.0,13301.0,13312.0,0.4243028163909912,0.42926257848739624,0.3938383460044861,0.39454078674316406,0.0,0.0,0.0,0.0,13712.0,13788.0,13294.0,13293.0,1.6309130191802979,-0.05626527487169868,0.10428853513334149,-0.03681364399190059,0.001678936998359859,0.0008967014728114009,-0.0
148,5,-1.9897279344149865e-05,6.856696927570738e-06,4.089266076334752e-05,0.00018011721840593964,0.0003527513472363353,-0.0006327997543849051,0.01069096103310585,0.0014484648127108812,-0.000313473807182163,-0.0015975050628185272,0.0011052979389205575,-0.00442614546045661,0.0,0.0,0.0,0.00029662554152309895,-0.00042722016223706305,-0.0,0.0,0.0,0.0,-0.00377486040815711,-0.00019852291734423488,-8.539285772712901e-05,13775.0,13851.0,13301.0,13312.0,0.4243028163909912,0.42926257848739624,0.3938383460044861,0.39454078674316406,0.0,0.0,0.0,0.0,13712.0,13788.0,13294.0,13293.0,1.6309130191802979,-0.05656813178990985,0.1051731589786171,-0.03689865250870833,0.001678936998359859,0.0008967014728114009,-0.0
153,5,-9.363352546643e-06,9.657463124312926e-06,5.030652027926408e-05,0.001336118089966476,-0.00019499142945278436,-0.0013827834045514464,0.010690744034945965,0.0014332614373415709,-0.00032177582033909857,0.0013127573765814304,-0.0009578283061273396,0.0011491060722619295,0.0,0.0,0.0,0.00029662554152309895,-0.00042722016223706305,-0.0,0.0,0.0,0.0,-0.0032146249432116747,-0.0006447065970860422,-3.9730104617774487e-05,13677.0,13797.0,13340.0,13282.0,0.4178859293460846,0.42567935585975647,0.39629217982292175,0.3926844298839569,0.0,0.0,0.0,0.0,13816.0,13813.0,13353.0,13256.0,1.6309130191802979,-0.055843889933875894,0.10527121453540189,-0.03685738832537722,0.001678936998359859,0.0008967014728114009,-0.0
158,5,-2.0934898202540353e-05,3.895518148055999e-06,3.2357071177102625e-05,-0.000854138343129307,0.0006134368595667183,0.0016008209204301238,0.010690744034945965,0.0014332614373415709,-0.00032177582033909857,0.0013127573765814304,-0.0009578283061273396,0.0011491060722619295,0.0,0.0,0.0,0.00025830138474702835,0.0012551675317808986,-0.0,0.0,0.0,0.0,-0.0032146249432116747,-0.0006447065970860422,-3.9730104617774487e-05,13677.0,13797.0,13340.0,13282.0,0.4178859293460846,0.42567935585975647,0.39629217982292175,0.3926844298839569,0.0,0.0,0.0,0.0,13816.0,13813.0,13353.0,13256.0,1.6393646001815796,-0.05643998055422385,0.10481661779303916,-0.03686448518393583,-0.004958257079124451,0.0007848936947993934,0.0
163,5,-1.4802240002609324e-05,2.544024755479768e-05,7.083634409355e-05,0.0003942637413274497,-0.0023399926722049713,-0.003977184649556875,0.010687045753002167,0.0014608489582315087,-0.0003160708292853087,-0.005362255033105612,0.0008434533374384046,-0.0011906793806701899,0.0,0.0,0.0,0.00025830138474702835,0.0012551675317808986,-0.0,0.0,0.0,0.0,-0.0031045316718518734,-0.0005448324955068529,0.00046086282236501575,13901.0,13556.0,13563.0,13043.0,0.4325129985809326,0.4100525975227356,0.410538911819458,0.37780851125717163,0.0,0.0,0.0,0.0,13658.0,13809.0,13320.0,13308.0,1.6393646001815796,-0.055860977858966133,0.10420591284410137,-0.03671158753828119,-0.004958257079124451,0.0007848936947993934,0.0
168,6,-3.2198557164520025e-05,7.105530130502302e-06,4.327481656218879e-05,-0.001929852762259543,0.001264168880879879,0.0017165096942335367,0.010687045753002167,0.0014608489582315087,-0.0003160708292853087,-0.005362255033105612,0.0008434533374384046,-0.0011906793806701899,0.0,0.0,0.0,0.0029147632885724306,0.0003511586401145905,-0.0,0.0,0.0,0.0,-0.0031045316718518734,-0.0005448324955068529,0.00046086282236501575,13901.0,13556.0,13563.0,13043.0,0.4325129985809326,0.4100525975227356,0.410538911819458,0.37780851125717163,0.0,0.0,0.0,0.0,13658.0,13809.0,13320.0,13308.0,1.6502019166946411,-0.0565871526491949,0.1041021645518696,-0.03702791570233646,-0.0013963377568870783,0.008915542624890804,0.0
173,5,-2.88515402644407e-05,1.4668514268123545e-05,6.966019282117486e-05,-0.00037029889062978327,-0.00040189045830629766,-0.0024796416983008385,0.010669884271919727,0.00145264423917979,-0.0005131997750140727,-0.008860394358634949,-0.013404530473053455,-0.022314071655273438,0.0,0.0,0.0,0.0029147632885724306,0.0003511586401145905,-0.0,0.0,0.0,0.0,-0.003074352629482746,-0.000755202432628721,-0.0014670559903606772,13260.0,14231.0,12886.0,13792.0,0.39125144481658936,0.45459598302841187,0.36815929412841797,0.4253578782081604,0.0,0.0,0.0,0.0,13801.0,13663.0,13435.0,13169.0,1.6502019166946411,-0.05607066660643443,0.1044400398847712,-0.03681062498408534,-0.0013963377568870783,0.008915542624890804,0.0
179,5,-2.38454740610905e-05,2.1784617274533957e-05,6.377875979524106e-05,0.000452608335763216,-0.0010146885178983212,-0.00028608462889678776,0.010669884271919727,0.00145264423917979,-0.0005131997750140727,-0.008860394358634949,-0.013404530473053455,-0.022314071655273438,0.0,0.0,0.0,0.0005251837428659201,-0.0003937325964216143,-0.0,0.0,0.0,0.0,-0.003074352629482746,-0.000755202432628721,-0.0014670559903606772,13260.0,14231.0,12886.0,13792.0,0.39125144481658936,0.45459598302841187,0.36815929412841797,0.4253578782081604,0.0,0.0,0.0,0.0,13801.0,13663.0,13435.0,13169.0,1.6317672729492188,-0.055489851847054454,0.10426270605965575,-0.03672928477972579,0.001548144267871976,0.0015884662279859185,0.0
184,5,-2.3752758352202363e-05,1.9300918211229146e-05,7.310636283364147e-05,0.00019216927466914058,-0.00010783153993543237,-0.0012337462976574898,0.010657829232513905,0.0014372732257470489,-0.00016331422375515103,0.017915945500135422,0.024518515914678574,-0.02867288701236248,0.0,0.0,0.0,0.0005251837428659201,-0.0003937325964216143,-0.0,0.0,0.0,0.0,-0.0033572602551430464,0.0005298344185575843,-0.00028748944168910384,13614.0,13945.0,13060.0,13575.0,0.4138219952583313,0.4354240298271179,0.37881898880004883,0.41129958629608154,0.0,0.0,0.0,0.0,14176.0,13310.0,13846.0,12837.0,1.6317672729492188,-0.05563780002801974,0.1039933008226533,-0.036893212356372086,0.001548144267871976,0.0015884662279859185,0.0
189,5,-1.1758389518945478e-05,2.0911205865559168e-05,4.9902020691661164e-05,0.0015161919873207808,-0.0002363671810599044,0.0022910230327397585,0.010657829232513905,0.0014372732257470489,-0.00016331422375515103,0.017915945500135422,0.024518515914678574,-0.02867288701236248,0.0,0.0,0.0,0.00016938797489274293,0.00015012016228865832,-0.0,0.0,0.0,0.0,-0.0033572602551430464,0.0005298344185575843,-0.00028748944168910384,13614.0,13945.0,13060.0,13575.0,0.4138219952583313,0.4354240298271179,0.37881898880004883,0.41129958629608154,0.0,0.0,0.0,0.0,14176.0,13310.0,13846.0,12837.0,1.6284600496292114,-0.05579464275229284,0.10399023488936956,-0.03693758838061581,-0.0005890715401619673,0.0005112910876050591,0.0
194,5,-2.964434497698676e-05,2.090879024763126e-05,3.529266905388795e-05,-0.0015398379182443023,-9.425698954146355e-05,0.0026695311535149813,0.010561670176684856,0.0014726603403687477,-0.0005358472699299455,-0.03585529327392578,-0.019936902448534966,0.05496769770979881,0.0,0.0,0.0,0.00016938797489274293,0.00015012016228865832,-0.0,0.0,0.0,0.0,-0.001834289520047605,-0.0008706984808668494,-0.0001782543840818107,13880.0,13538.0,13770.0,13178.0,0.4311909079551697,0.408955454826355,0.4239254593849182,0.38613009452819824,0.0,0.0,0.0,0.0,13154.0,14345.0,12807.0,14011.0,1.6284600496292114,-0.05613789682556521,0.1049373479850084,-0.036798067109913894,-0.0005890715401619673,0.0005112910876050591,0.0
199,5,-3.439174179220572e-05,-8.517963578924537e-06,-2.8622112949960865e-05,-0.0011856225319206715,0.0034935076255351305,0.008737586438655853,0.010561670176684856,0.0014726603403687477,-0.0005358472699299455,-0.03585529327392578,-0.019936902448534966,0.05496769770979881,0.0,0.0,0.0,0.00015420465206261724,-0.0015009803464636207,-0.0,0.0,0.0,0.0,-0.001834289520047605,-0.0008706984808668494,-0.0001782543840818107,13880.0,13538.0,13770.0,13178.0,0.4311909079551697,0.408955454826355,0.4239254593849182,0.38613009452819824,0.0,0.0,0.0,0.0,13154.0,14345.0,12807.0,14011.0,1.6419023275375366,-0.05623791381984185,0.10703713450191411,-0.03692868977688366,0.0059384629130363464,0.00046930299140512943,-0.0
204,5,-3.764801294892095e-05,3.053122270557651e-07,2.354379466851242e-05,-0.0008650018135085702,0.0003386099706403911,-0.0027648743707686663,0.010505260899662971,0.0013721665600314736,-0.000617541023530066,-0.019116617739200592,0.013264089822769165,-0.08522697538137436,0.0,0.0,0.0,0.00015420465206261724,-0.0015009803464636207,-0.0,0.0,0.0,0.0,-0.002870960859581828,0.0003618291229940951,-0.002445193938910961,12718.0,14628.0,12293.0,14296.0,0.3580228388309479,0.4818115532398224,0.33290722966194153,0.45902565121650696,0.0,0.0,0.0,0.0,14330.0,13041.0,14122.0,12509.0,1.6419023275375366,-0.05722497775283784,0.10613405402771452,-0.03750246412924079,0.0059384629130363464,0.00046930299140512943,-0.0
209,5,-2.9385122616076842e-05,-4.5799628423992544e-05,-3.248878783779219e-05,0.0006455461261793971,0.0056680371053516865,0.0056179603561758995,0.010505260899662971,0.0013721665600314736,-0.000617541023530066,-0.019116617739200592,0.013264089822769165,-0.08522697538137436,0.0,0.0,0.0,-0.00041797367157414556,-0.0008758021285757422,-0.0,0.0,0.0,0.0,-0.002870960859581828,0.0003618291229940951,-0.002445193938910961,12718.0,14628.0,12293.0,14296.0,0.3580228388309479,0.4818115532398224,0.33290722966194153,0.45902565121650696,0.0,0.0,0.0,0.0,14330.0,13041.0,14122.0,12509.0,1.6357253789901733,-0.0583343512828172,0.10740962935531155,-0.03780601414917635,0.003451979486271739,-0.0012672662269324064,0.0
214,5,-4.376691867946647e-05,-1.511034497525543e-05,3.1592212508257944e-06,-0.0014675968559458852,-0.0014154993696138263,-0.0020305770449340343,0.01047809049487114,0.001441275468096137,-0.0005786163965240121,0.014436554163694382,0.01702285371720791,-0.049813803285360336,0.0,0.0,0.0,-0.00041797367157414556,-0.0008758021285757422,-0.0,0.0,0.0,0.0,-0.003313432913273573,-0.0006596008315682411,0.0005439988453872502,13560.0,13904.0,13148.0,13415.0,0.41036298871040344,0.43272945284843445,0.38431355357170105,0.4010540544986725,0.0,0.0,0.0,0.0,13461.0,13928.0,13171.0,13467.0,1.6357253789901733,-0.05661933736732844,0.10705975948470747,-0.037427193163866314,0.003451979486271739,-0.0012672662269324064,0.0
219,5,-3.086740252911113e-05,-1.6371226593037136e-05,3.1196229883789783e-06,0.0009609031258150935,-0.0004148940206505358,-0.0008074790239334106,0.01047809049487114,0.001441275468096137,-0.0005786163965240121,0.014436554163694382,0.01702285371720791,-0.049813803285360336,0.0,0.0,0.0,0.0017120013944804668,-0.0014478954253718257,-0.0,0.0,0.0,0.0,-0.003313432913273573,-0.0006596008315682411,0.0005439988453872502,13560.0,13904.0,13148.0,13415.0,0.41036298871040344,0.43272945284843445,0.38431355357170105,0.4010540544986725,0.0,0.0,0.0,0.0,13461.0,13928.0,13171.0,13467.0,1.64680016040802,-0.056417391087630414,0.10707340476645638,-0.0371461440542099,0.005745518021285534,0.0052258046343922615,0.0
224,5,-4.055596946272999e-05,-1.986842107726261e-05,9.451249752601143e-06,-0.0007782666943967342,0.0002537058899179101,-0.001082786824554205,0.010437735356390476,0.0011985545279458165,-0.0007083263481035829,-0.01257628109306097,0.041347771883010864,0.09182857722043991,0.0,0.0,0.0,0.0017120013944804668,-0.0014478954253718257,-0.0,0.0,0.0,0.0,-0.0028785732574760914,-0.00035609951009973884,0.0021635182201862335,14650.0,12787.0,14312.0,12350.0,0.48339706659317017,0.362176775932312,0.4600653052330017,0.33626317977905273,0.0,0.0,0.0,0.0,12802.0,14678.0,12344.0,14276.0,1.64680016040802,-0.056296792905529816,0.10654539239759472,-0.03709712005616339,0.005745518021285534,0.0052258046343922615,0.0
229,5,-5.301705459714867e-05,-6.1240934883244336e-06,5.999366840114817e-05,-0.0018066371558234096,-0.0015478370478376746,-0.006498205009847879,0.010437735356390476,0.0011985545279458165,-0.0007083263481035829,-0.01257628109306097,0.041347771883010864,0.09182857722043991,0.0,0.0,0.0,-0.00034980621421709657,-0.0007978904177434742,-0.0,0.0,0.0,0.0,-0.0028785732574760914,-0.00035609951009973884,0.0021635182201862335,14650.0,12787.0,14312.0,12350.0,0.48339706659317017,0.362176775932312,0.4600653052330017,0.33626317977905273,0.0,0.0,0.0,0.0,12802.0,14678.0,12344.0,14276.0,1.6347483396530151,-0.05698434020606367,0.10659985242710918,-0.037448164817323194,0.0031430115923285484,-0.001059953821823001,0.0
234,5,-3.521254620864056e-05,-1.4474238923867233e-05,5.8916761190630496e-05,0.001413886435329914,0.0003828826593235135,-0.002470053033903241,0.010371645912528038,0.00044586628791876137,-0.0007207300513982773,-0.04659631848335266,0.045706573873758316,0.046771083027124405,0.0,0.0,0.0,-0.00034980621421709657,-0.0007978904177434742,-0.0,0.0,0.0,0.0,-0.0029283335898071527,0.0007398281595669687,-0.0006802989519201219,13852.0,13573.0,13403.0,13318.0,0.42933526635169983,0.41115209460258484,0.4003202021121979,0.3949178159236908,0.0,0.0,0.0,0.0,14634.0,12726.0,14303.0,12526.0,1.6347483396530151,-0.055872093260963276,0.1077124370447869,-0.03713431295619655,0.0031430115923285484,-0.001059953821823001,0.0
240,5,-3.657132765511051e-05,-1.5224328308249824e-05,0.00012184841034468263,0.0004025004163850099,0.0002431637403788045,-0.008539819158613682,0.010371645912528038,0.00044586628791876137,-0.0007207300513982773,-0.04659631848335266,0.045706573873758316,0.046771083027124405,0.0,0.0,0.0,-0.0004982377286069095,0.00129212299361825,-0.0,0.0,0.0,0.0,-0.0029283335898071527,0.0007398281595669687,-0.0006802989519201219,13852.0,13573.0,13403.0,13318.0,0.42933526635169983,0.41115209460258484,0.4003202021121979,0.3949178159236908,0.0,0.0,0.0,0.0,14634.0,12726.0,14303.0,12526.0,1.640195608139038,-0.05693565104735771,0.10728214948200601,-0.037539065108379635,-0.005106828175485134,-0.0015147493686527014,0.0
245,5,-6.291046702244785e-06,-2.240466528746765e-05,0.00011316854215692729,0.0037946340162307024,0.0009589059627614915,-0.002374344039708376,0.010371645912528038,0.00044586628791876137,-0.0007207300513982773,-0.04659631848335266,0.045706573873758316,0.046771083027124405,0.0,0.0,0.0,-0.0004982377286069095,0.00129212299361825,-0.0,0.0,0.0,0.0,-0.0029283335898071527,0.0007398281595669687,-0.0006802989519201219,13852.0,13573.0,13403.0,13318.0,0.42933526635169983,0.41115209460258484,0.4003202021121979,0.3949178159236908,0.0,0.0,0.0,0.0,14634.0,12726.0,14303.0,12526.0,1.640195608139038,-0.05529336388397172,0.10824673653397562,-0.036914709152494306,-0.005106828175485134,-0.0015147493686527014,0.0
250,5,-3.394225495867431e-05,-5.942230814071081e-07,0.00018415809608995914,-0.0018002913566306233,-0.002233690582215786,-0.009468483738601208,0.01036269310861826,7.559681398561224e-05,-0.0004231558705214411,0.01939970999956131,0.05310428887605667,-0.04796120524406433,0.0,0.0,0.0,-0.0012045789044350386,0.003536847187206149,-0.0,0.0,0.0,0.0,-0.003047599922865629,0.0010042982175946236,-0.0016623841365799308,13151.0,14384.0,12568.0,14137.0,0.3844708502292633,0.4649861752986908,0.34905990958213806,0.44828322529792786,0.0,0.0,0.0,0.0,14031.0,13472.0,13538.0,13079.0,1.6654361486434937,-0.05681894145318829,0.10803900053074049,-0.03710178285401888,-0.01419367827475071,-0.003718532621860504,0.0
255,5,-4.03684243792668e-05,-4.8526228056289256e-05,0.00021473414381034672,-0.0014912568731233478,0.004858364351093769,-0.007456518243998289,0.01036269310861826,7.559681398561224e-05,-0.0004231558705214411,0.01939970999956131,0.05310428887605667,-0.04796120524406433,0.0,0.0,0.0,-0.0012045789044350386,0.003536847187206149,-0.0,0.0,0.0,0.0,-0.003047599922865629,0.0010042982175946236,-0.0016623841365799308,13151.0,14384.0,12568.0,14137.0,0.3844708502292633,0.4649861752986908,0.34905990958213806,0.44828322529792786,0.0,0.0,0.0,0.0,14031.0,13472.0,13538.0,13079.0,1.6654361486434937,-0.05747319998465709,0.10746862268856296,-0.03826627358832014,-0.01419367827475071,-0.003718532621860504,0.0
260,5,-1.6543222955078818e-05,-1.5136847650865093e-05,0.0001635052904020995,0.0022625213023275137,-0.002063379855826497,0.00316485483199358,0.010343991219997406,-8.824516407912597e-05,4.440562770469114e-05,-0.014108369126915932,-0.009434602223336697,0.018678098917007446,0.0,0.0,0.0,-0.005942998453974724,-0.0014383378438651562,-0.0,0.0,0.0,0.0,-0.003004528349265456,-0.000504226190969348,0.002186248544603586,14337.0,13092.0,14038.0,12592.0,0.4617832899093628,0.38081151247024536,0.4416514039039612,0.3505021333694458,0.0,0.0,0.0,0.0,12831.0,14614.0,12353.0,14202.0,1.6781002283096313,-0.0580587575997404,0.10814892612501109,-0.03746908620109379,0.005815980024635792,-0.018485339358448982,0.0
265,5,-2.6883401005761698e-05,2.9432437713694526e-06,0.00014509144239127636,-0.0003358127432875335,-0.0029949629679322243,0.0034756024833768606,0.010343991219997406,-8.824516407912597e-05,4.440562770469114e-05,-0.014108369126915932,-0.009434602223336697,0.018678098917007446,0.0,0.0,0.0,-0.005942998453974724,-0.0014383378438651562,-0.0,0.0,0.0,0.0,-0.003004528349265456,-0.000504226190969348,0.002186248544603586,14337.0,13092.0,14038.0,12592.0,0.4617832899093628,0.38081151247024536,0.4416514039039612,0.3505021333694458,0.0,0.0,0.0,0.0,12831.0,14614.0,12353.0,14202.0,1.6781002283096313,-0.05749348469583839,0.10894096760850061,-0.03637505519897053,0.005815980024635792,-0.018485339358448982,0.0
270,5,-2.4131149984896183e-05,-3.031439746337128e-06,0.00017512551858089864,0.000195945001905784,-0.00048102313303388655,-0.0022138478234410286,0.009897255338728428,-0.00025794855901040137,-0.00044789776438847184,-0.1708027422428131,0.047323670238256454,0.03995901718735695,0.0,0.0,0.0,0.0036633722484111786,-0.00035300603485666215,-0.0,0.0,0.0,0.0,-0.0006996910087764263,0.001274824608117342,-0.0007858893368393183,13581.0,13594.0,13306.0,13737.0,0.4116712808609009,0.41254502534866333,0.394164502620697,0.42181479930877686,0.0,0.0,0.0,0.0,14787.0,12248.0,14467.0,12519.0,1.6564451456069946,-0.05635698710485777,0.10921911818452595,-0.03660401095756181,0.001408990821801126,0.011247729882597923,-0.0
275,5,-5.0093833124265075e-05,4.590205662680091e-06,0.00022886441729497164,-0.0030371439643204212,-0.0011070066830143332,-0.007334205787628889,0.009897255338728428,-0.00025794855901040137,-0.00044789776438847184,-0.1708027422428131,0.047323670238256454,0.03995901718735695,0.0,0.0,0.0,0.0036633722484111786,-0.00035300603485666215,-0.0,0.0,0.0,0.0,-0.0006996910087764263,0.001274824608117342,-0.0007858893368393183,13581.0,13594.0,13306.0,13737.0,0.4116712808609009,0.41254502534866333,0.394164502620697,0.42181479930877686,0.0,0.0,0.0,0.0,14787.0,12248.0,14467.0,12519.0,1.6564451456069946,-0.057139177746084666,0.10867856464278416,-0.03721890440947098,0.001408990821801126,0.011247729882597923,-0.0
280,5,-8.512550994055346e-05,-1.011283870866464e-06,0.00021307854331098497,-0.005418658722192049,0.00022937606263440102,-0.0010393774136900902,0.00911087729036808,-0.0011363470694050193,-0.00016639103705529124,0.044528089463710785,0.06176882982254028,-0.03738187253475189,0.0,0.0,0.0,0.0036633722484111786,-0.00035300603485666215,-0.0,0.0,0.0,0.0,-0.003437308594584465,0.0030108147766441107,-7.266904140124097e-05,13949.0,13846.0,13009.0,13788.0,0.4357057511806488,0.42891648411750793,0.37567177414894104,0.4251421391963959,0.0,0.0,0.0,0.0,14020.0,13760.0,13249.0,13572.0,1.6564451456069946,-0.05841925553166735,0.10927334794001484,-0.037109267851976324,0.001408990821801126,0.011247729882597923,-0.0
285,5,-0.00010061256034532562,-3.8053210573707474e-06,0.00021428342733997852,-0.004025910049676895,0.0004270348872523755,-0.0005603386089205742,0.00911087729036808,-0.0011363470694050193,-0.00016639103705529124,0.044528089463710785,0.06176882982254028,-0.03738187253475189,0.0,0.0,0.0,-0.000277555052889511,-0.0051298439502716064,-0.0,0.0,0.0,0.0,-0.003437308594584465,0.0030108147766441107,-7.266904140124097e-05,13949.0,13846.0,13009.0,13788.0,0.4357057511806488,0.42891648411750793,0.37567177414894104,0.4251421391963959,0.0,0.0,0.0,0.0,14020.0,13760.0,13249.0,13572.0,1.6819243431091309,-0.05747254215365209,0.10788083268038229,-0.03695558903360878,0.02079029195010662,-0.0008652948890812695,0.0
290,5,-0.00013241304259281605,1.0578019100648817e-05,0.00020141879213042557,-0.005426420830190182,-0.0015551868127658963,0.0013196209911257029,0.009075585752725601,-0.0011932430788874626,0.00024298604694195092,-0.008385390043258667,-0.06274879723787308,0.014578472822904587,0.0,0.0,0.0,-0.000277555052889511,-0.0051298439502716064,-0.0,0.0,0.0,0.0,-0.002267260570079088,-0.0030765486881136894,0.001152837066911161,14164.0,13789.0,13827.0,13001.0,0.45007309317588806,0.42520996928215027,0.4276443421840668,0.37517282366752625,0.0,0.0,0.0,0.0,13266.0,14750.0,12886.0,13831.0,1.6819243431091309,-0.057863907030674865,0.10798818724827029,-0.036991116115802705,0.02079029195010662,-0.0008652948890812695,0.0
295,5,-0.00014979264233261347,3.080333954130765e-06,0.0001639213296584785,-0.004256120417267084,0.0002776474575512111,0.005027543753385544,0.009075585752725601,-0.0011932430788874626,0.00024298604694195092,-0.008385390043258667,-0.06274879723787308,0.014578472822904587,0.0,0.0,0.0,0.0018862433498725295,-0.005192386917769909,-0.0,0.0,0.0,0.0,-0.002267260570079088,-0.0030765486881136894,0.001152837066911161,14164.0,13789.0,13827.0,13001.0,0.45007309317588806,0.42520996928215027,0.4276443421840668,0.37517282366752625,0.0,0.0,0.0,0.0,13266.0,14750.0,12886.0,13831.0,1.6848191022872925,-0.05742671738494153,0.10719752504664354,-0.03638744629803948,0.02107994630932808,0.0058905938640236855,-0.0
300,5,-0.0002145103208022192,3.948338417103514e-06,0.00021519680740311742,-0.009468570351600647,6.89842454448808e-06,-0.004142038989812136,0.009427723474800587,2.3694308765698224e-05,0.0002099377306876704,-0.01697070337831974,-0.1372257024049759,0.06123533099889755,0.0,0.0,0.0,0.0018862433498725295,-0.005192386917769909,-0.0,0.0,0.0,0.0,-0.002971489680930972,-0.003928340505808592,-0.001671024365350604,14011.0,13471.0,14244.0,12694.0,0.43981802463531494,0.404621422290802,0.4554499387741089,0.3565557599067688,0.0,0.0,0.0,0.0,14062.0,13311.0,14296.0,12747.0,1.6848191022872925,-0.059499140581466464,0.10706284990985293,-0.03774124097114739,0.02107994630932808,0.0058905938640236855,-0.0
306,5,-0.00023354242148343474,2.7840771508635953e-05,0.0001979122607735917,-0.006071280688047409,-0.0028643326368182898,0.00041732960380613804,0.009427723474800587,2.3694308765698224e-05,0.0002099377306876704,-0.01697070337831974,-0.1372257024049759,0.06123533099889755,0.0,0.0,0.0,-1.149826857727021e-06,-0.008830612525343895,-0.0,0.0,0.0,0.0,-0.002971489680930972,-0.003928340505808592,-0.001671024365350604,14011.0,13471.0,14244.0,12694.0,0.43981802463531494,0.404621422290802,0.4554499387741089,0.3565557599067688,0.0,0.0,0.0,0.0,14062.0,13311.0,14296.0,12747.0,1.7243049144744873,-0.05737334028480186,0.10622791072282496,-0.03688268016706695,0.03669029101729393,-3.6749806895386428e-06,0.0
311,5,-0.0002875742793548852,-3.21191837429069e-05,0.0001823373168008402,-0.008912336081266403,0.006049461662769318,0.00203592493198812,0.009311371482908726,0.0006824956508353353,6.744790152879432e-05,0.025135347619652748,-0.09793408960103989,-0.0038973146583884954,0.0,0.0,0.0,-1.149826857727021e-06,-0.008830612525343895,-0.0,0.0,0.0,0.0,-0.00215429556556046,-0.0031192488968372345,-0.0002022818080149591,13355.0,14487.0,13469.0,13525.0,0.39727094769477844,0.4720446765422821,0.40449240803718567,0.40811631083488464,0.0,0.0,0.0,0.0,14171.0,13704.0,14238.0,12696.0,1.7243049144744873,-0.060816441113894774,0.10711029816739896,-0.03837922600453134,0.03669029101729393,-3.6749806895386428e-06,0.0
316,5,-0.00038271688390523195,4.519159847404808e-05,0.00022682221606373787,-0.008338898420333862,-0.003632924286648631,-0.003659586887806654,0.009311371482908726,0.0006824956508353353,6.744790152879432e-05,0.025135347619652748,-0.09793408960103989,-0.0038973146583884954,0.0,0.0,0.0,-0.007097157184034586,-0.008359856903553009,-0.0,0.0,0.0,0.0,-0.00215429556556046,-0.0031192488968372345,-0.0002022818080149591,13355.0,14487.0,13469.0,13525.0,0.39727094769477844,0.4720446765422821,0.40449240803718567,0.40811631083488464,0.0,0.0,0.0,0.0,14171.0,13704.0,14238.0,12696.0,1.7378950119018555,-0.05796823558179874,0.1073321950927602,-0.036867233402414254,0.03500727191567421,-0.022861771285533905,-0.0
321,5,-0.00038271688390523195,4.519159847404808e-05,0.00022682221606373787,-0.008338898420333862,-0.003632924286648631,-0.003659586887806654,0.009453727863729,0.0013485088711604476,0.0003155346494168043,-0.016344919800758362,-0.030137334018945694,-0.0649670884013176,0.0,0.0,0.0,-0.007097157184034586,-0.008359856903553009,-0.0,0.0,0.0,0.0,-0.003039964009076357,-0.004167383536696434,0.0017365384846925735,14562.0,13543.0,14697.0,12603.0,0.47725290060043335,0.4092237949371338,0.4866876006126404,0.3511406183242798,0.0,0.0,0.0,0.0,13103.0,14598.0,13216.0,13939.0,1.7378950119018555,-0.05796823558179874,0.1073321950927602,-0.036867233402414254,0.03500727191567421,-0.022861771285533905,-0.0
326,5,-0.0004734266549348831,6.266021955525503e-05,0.0002250404068036005,-0.009993174113333225,-0.0015281145460903645,0.0013513433514162898,0.009453727863729,0.0013485088711604476,0.0003155346494168043,-0.016344919800758362,-0.030137334018945694,-0.0649670884013176,0.0,0.0,0.0,0.004344064276665449,-0.008040979504585266,-0.0,0.0,0.0,0.0,-0.003039964009076357,-0.004167383536696434,0.0017365384846925735,14562.0,13543.0,14697.0,12603.0,0.47725290060043335,0.4092237949371338,0.4866876006126404,0.3511406183242798,0.0,0.0,0.0,0.0,13103.0,14598.0,13216.0,13939.0,1.7228751182556152,-0.057336799773907425,0.10706670950317979,-0.03768785402252806,0.03338150307536125,0.013872544281184673,0.0
331,5,-0.0005142106092534959,3.426766852498986e-05,0.00021290115546435118,-0.008891345001757145,0.002795860171318054,0.001997247338294983,0.009547402150928974,0.0020625886972993612,0.0002075665252050385,0.017273224890232086,-0.05737960711121559,0.05183853209018707,0.0,0.0,0.0,0.004344064276665449,-0.008040979504585266,-0.0,0.0,0.0,0.0,-0.005064727272838354,-0.004590161144733429,-0.000973499205429107,14073.0,14448.0,14045.0,13118.0,0.4439779222011566,0.4694106876850128,0.4420987665653229,0.38240763545036316,0.0,0.0,0.0,0.0,13738.0,14330.0,14019.0,13410.0,1.7228751182556152,-0.058784097440739806,0.10635459796494574,-0.03753734162262826,0.03338150307536125,0.013872544281184673,0.0
336,5,-0.0005533245857805014,9.114287240663543e-05,0.0002198805013904348,-0.008250212296843529,-0.005706680007278919,-3.8621496059931815e-05,0.009547402150928974,0.0020625886972993612,0.0002075665252050385,0.017273224890232086,-0.05737960711121559,0.05183853209018707,0.0,0.0,0.0,-0.003216636134311557,-0.008695014752447605,-0.0,0.0,0.0,0.0,-0.005064727272838354,-0.004590161144733429,-0.000973499205429107,14073.0,14448.0,14045.0,13118.0,0.4439779222011566,0.4694106876850128,0.4420987665653229,0.38240763545036316,0.0,0.0,0.0,0.0,13738.0,14330.0,14019.0,13410.0,1.7267615795135498,-0.05795797585131291,0.10704288690507217,-0.036698537410820506,0.03617819398641586,-0.010295359417796135,-0.0
341,5,-0.0005822117673233151,0.0001107774514821358,0.00024342522374354303,-0.006766549777239561,-0.004638821817934513,-0.0028408151119947433,0.009596124291419983,0.0026473139878362417,0.0004351692332420498,-0.0008967558387666941,-0.05449530854821205,-0.08097832649946213,0.0,0.0,0.0,-0.003216636134311557,-0.008695014752447605,-0.0,0.0,0.0,0.0,-0.0017017797799780965,-0.004588925279676914,-0.0005868002772331238,12782.0,15071.0,13275.0,14246.0,0.3618502616882324,0.5131756663322449,0.3922344446182251,0.45561474561691284,0.0,0.0,0.0,0.0,14661.0,13872.0,14655.0,12404.0,1.7267615795135498,-0.05694304040922191,0.10597823478859074,-0.036594380482125516,0.03617819398641586,-0.010295359417796135,-0.0
346,5,-0.0006358047830872238,6.192221189849079e-05,0.00024480896536260843,-0.009137780405580997,0.004007100127637386,-0.0013023745268583298,0.009596124291419983,0.0026473139878362417,0.0004351692332420498,-0.0008967558387666941,-0.05449530854821205,-0.08097832649946213,0.0,0.0,0.0,0.00565903726965189,-0.006911115255206823,-0.0,0.0,0.0,0.0,-0.0017017797799780965,-0.004588925279676914,-0.0005868002772331238,12782.0,15071.0,13275.0,14246.0,0.3618502616882324,0.5131756663322449,0.3922344446182251,0.45561474561691284,0.0,0.0,0.0,0.0,14661.0,13872.0,14655.0,12404.0,1.7165943384170532,-0.06016537473840901,0.10341325156221655,-0.037195794771343396,0.028586257249116898,0.018005888909101486,0.0
351,5,-0.0006930599338375032,0.00011871616152347997,0.00021474735694937408,-0.010525730438530445,-0.005212434567511082,0.0030864416621625423,0.009596124291419983,0.0026473139878362417,0.0004351692332420498,-0.0008967558387666941,-0.05449530854821205,-0.08097832649946213,0.0,0.0,0.0,0.00565903726965189,-0.006911115255206823,-0.0,0.0,0.0,0.0,-0.0017017797799780965,-0.004588925279676914,-0.0005868002772331238,12782.0,15071.0,13275.0,14246.0,0.3618502616882324,0.5131756663322449,0.3922344446182251,0.45561474561691284,0.0,0.0,0.0,0.0,14661.0,13872.0,14655.0,12404.0,1.7165943384170532,-0.05706998432809164,0.10640774569749839,-0.03640322781357153,0.028586257249116898,0.018005888909101486,0.0
356,5,-0.0007442450150847435,0.00011836766498163342,0.00018670530698727816,-0.010352502577006817,-0.0020431536249816418,0.004599622916430235,0.009643597528338432,0.003551779082044959,0.0006276595522649586,0.007329089567065239,-0.08602865785360336,0.019717518240213394,0.0,0.0,0.0,0.0062148175202310085,-0.010246209800243378,-0.0,0.0,0.0,0.0,-0.004283773247152567,-0.005600303411483765,0.002401200355961919,14330.0,13987.0,14594.0,12546.0,0.46134281158447266,0.4382171034812927,0.479451060295105,0.34775060415267944,0.0,0.0,0.0,0.0,13286.0,14636.0,13706.0,13829.0,1.7536436319351196,-0.05837764514647951,0.10558340484400545,-0.03656192104233225,0.043295275419950485,0.02020101621747017,-0.0
361,5,-0.0007990137091837823,0.00014045163698028773,0.00022778980201110244,-0.010713246650993824,-0.003467338625341654,-0.003090290119871497,0.009643597528338432,0.003551779082044959,0.0006276595522649586,0.007329089567065239,-0.08602865785360336,0.019717518240213394,0.0,0.0,0.0,0.0062148175202310085,-0.010246209800243378,-0.0,0.0,0.0,0.0,-0.004283773247152567,-0.005600303411483765,0.002401200355961919,14330.0,13987.0,14594.0,12546.0,0.46134281158447266,0.4382171034812927,0.479451060295105,0.34775060415267944,0.0,0.0,0.0,0.0,13286.0,14636.0,13706.0,13829.0,1.7536436319351196,-0.05920548220513865,0.10266292926902715,-0.035660552426100355,0.043295275419950485,0.02020101621747017,-0.0
366,5,-0.0008212374523282051,0.00012916888226754963,0.0001801055041141808,-0.006952143274247646,-3.3004136639647186e-05,0.004486000165343285,0.009680951945483685,0.0037502662744373083,0.00029080023523420095,-0.0021645287051796913,-0.056706659495830536,0.08106301724910736,0.0,0.0,0.0,0.004245549440383911,-0.010568817146122456,-0.0,0.0,0.0,0.0,-0.004007054027169943,-0.00444048922508955,-0.0005748291150666773,14221.0,13647.0,14628.0,12833.0,0.4539361894130707,0.4159163534641266,0.481824666261673,0.364917129278183,0.0,0.0,0.0,0.0,13480.0,14766.0,13617.0,13649.0,1.7507041692733765,-0.05838743183436675,0.10406166279078474,-0.036050507051007714,0.0445840023458004,0.013776942156255245,0.0
371,5,-0.0008477824158035219,6.166410457808524e-05,0.00019621891260612756,-0.0059662507846951485,0.008087371475994587,-0.00013920922356192023,0.009680951945483685,0.0037502662744373083,0.00029080023523420095,-0.0021645287051796913,-0.056706659495830536,0.08106301724910736,0.0,0.0,0.0,0.004245549440383911,-0.010568817146122456,-0.0,0.0,0.0,0.0,-0.004007054027169943,-0.00444048922508955,-0.0005748291150666773,14221.0,13647.0,14628.0,12833.0,0.4539361894130707,0.4159163534641266,0.481824666261673,0.364917129278183,0.0,0.0,0.0,0.0,13480.0,14766.0,13617.0,13649.0,1.7507041692733765,-0.0628884347968954,0.10073256408705192,-0.0377542822580805,0.0445840023458004,0.013776942156255245,0.0
376,5,-0.0009199083433486521,0.00012516617425717413,0.00011278713645879179,-0.011041616089642048,-0.004385300911962986,0.00995612982660532,0.00967930257320404,0.004120456054806709,0.0004006203089375049,-0.003989787772297859,-0.011330746114253998,-0.055655620992183685,0.0,0.0,0.0,-0.009329164400696754,-0.006474665831774473,-0.0,0.0,0.0,0.0,-0.0012224249076098204,-0.0030627259984612465,-0.0019907515961676836,13024.0,14773.0,13320.0,14206.0,0.37659916281700134,0.4920121133327484,0.3950864374637604,0.4528966248035431,0.0,0.0,0.0,0.0,14567.0,13245.0,14926.0,12514.0,1.7341376543045044,-0.060529701390995755,0.10273058887132858,-0.03497102887165654,0.027053963392972946,-0.029986334964632988,0.0
381,5,-0.000942185171879828,0.0001475215540267527,0.00016263801080640405,-0.007089865859597921,-0.004436765797436237,-0.001999654108658433,0.00967930257320404,0.004120456054806709,0.0004006203089375049,-0.003989787772297859,-0.011330746114253998,-0.055655620992183685,0.0,0.0,0.0,-0.009329164400696754,-0.006474665831774473,-0.0,0.0,0.0,0.0,-0.0012224249076098204,-0.0030627259984612465,-0.0019907515961676836,13024.0,14773.0,13320.0,14206.0,0.37659916281700134,0.4920121133327484,0.3950864374637604,0.4528966248035431,0.0,0.0,0.0,0.0,14567.0,13245.0,14926.0,12514.0,1.7341376543045044,-0.060351497799552685,0.10044419524063809,-0.035061442582454375,0.027053963392972946,-0.029986334964632988,0.0
386,5,-0.001001431723125279,8.961070125224069e-05,0.00020503049017861485,-0.00994553230702877,0.005174596328288317,-0.005886957980692387,0.009641839191317558,0.004259917419403791,0.0009543299674987793,0.014326559379696846,-0.023649100214242935,-0.00981091521680355,0.0,0.0,0.0,0.005463939625769854,-0.007656272035092115,-0.0,0.0,0.0,0.0,-0.0009556087316013873,-0.00535318860784173,0.0023634876124560833,14006.0,14113.0,14504.0,13307.0,0.4394894242286682,0.446669340133667,0.47327667474746704,0.3942081928253174,0.0,0.0,0.0,0.0,12858.0,15270.0,13367.0,14292.0,1.7231870889663696,-0.06285836239584387,0.09982359395544073,-0.03667981704097394,0.03179003298282623,0.01745191030204296,0.0
392,5,-0.0010080927750095725,0.00014629997895099223,0.00014183358871378005,-0.004777534864842892,-0.004732875153422356,0.005228844936937094,0.009641839191317558,0.004259917419403791,0.0009543299674987793,0.014326559379696846,-0.023649100214242935,-0.00981091521680355,0.0,0.0,0.0,0.005463939625769854,-0.007656272035092115,-0.0,0.0,0.0,0.0,-0.0009556087316013873,-0.00535318860784173,0.0023634876124560833,14006.0,14113.0,14504.0,13307.0,0.4394894242286682,0.446669340133667,0.47327667474746704,0.3942081928253174,0.0,0.0,0.0,0.0,12858.0,15270.0,13367.0,14292.0,1.7231870889663696,-0.0604745091448783,0.10048596696642607,-0.03433790585171574,0.03179003298282623,0.01745191030204296,0.0
397,5,-0.0010467011015862226,0.00015175201406236738,0.00015064762555994093,-0.006544019095599651,-0.002547393785789609,0.0010338537395000458,0.009709644131362438,0.0047930339351296425,0.001018242328427732,-0.016279513016343117,-0.053402964025735855,0.13249176740646362,0.0,0.0,0.0,0.005867042113095522,-0.005711907986551523,-0.0,0.0,0.0,0.0,-0.0015392049681395292,-0.006072469521313906,0.0012171742273494601,14718.0,13380.0,15305.0,12304.0,0.4881558418273926,0.39884233474731445,0.5301112532615662,0.33359473943710327,0.0,0.0,0.0,0.0,14867.0,13662.0,14857.0,12079.0,1.706333041191101,-0.06016165824640899,0.10132398329493492,-0.03477688324688337,0.023484811186790466,0.01855611428618431,-0.0
402,5,-0.0010755156399682164,0.000139593132189475,0.00018101523164659739,-0.006075343582779169,0.0004401088517624885,-0.003230572445318103,0.009709644131362438,0.0047930339351296425,0.001018242328427732,-0.016279513016343117,-0.053402964025735855,0.13249176740646362,0.0,0.0,0.0,0.005867042113095522,-0.005711907986551523,-0.0,0.0,0.0,0.0,-0.0015392049681395292,-0.006072469521313906,0.0012171742273494601,14718.0,13380.0,15305.0,12304.0,0.4881558418273926,0.39884233474731445,0.5301112532615662,0.33359473943710327,0.0,0.0,0.0,0.0,14867.0,13662.0,14857.0,12079.0,1.706333041191101,-0.061868511755643465,0.09907514860229658,-0.03530377679619736,0.023484811186790466,0.01855611428618431,-0.0
407,5,-0.0010867478558793664,0.0001563898695167154,0.0001264558668481186,-0.003778008045628667,-0.001839565928094089,0.005254894495010376,0.009785720147192478,0.005290654022246599,0.0007765929331071675,0.02362251840531826,-0.028910581022500992,-0.03352752700448036,0.0,0.0,0.0,-0.00027843035059049726,-0.00699968496337533,-0.0,0.0,0.0,0.0,-0.006203784141689539,-0.005083331372588873,-0.002582340035587549,13257.0,15295.0,13058.0,13937.0,0.391081839799881,0.5294086933135986,0.37871548533439636,0.43493160605430603,0.0,0.0,0.0,0.0,14698.0,13879.0,14599.0,12355.0,1.7031430006027222,-0.0605318367996794,0.1001538422436398,-0.03425503529897584,0.028726184740662575,-0.0008789744460955262,0.0
412,5,-0.0011235601268708706,0.0001280072028748691,0.0001285391190322116,-0.005928679369390011,0.0026700948365032673,0.0018519675359129906,0.009785720147192478,0.005290654022246599,0.0007765929331071675,0.02362251840531826,-0.028910581022500992,-0.03352752700448036,0.0,0.0,0.0,-0.00027843035059049726,-0.00699968496337533,-0.0,0.0,0.0,0.0,-0.006203784141689539,-0.005083331372588873,-0.002582340035587549,13257.0,15295.0,13058.0,13937.0,0.391081839799881,0.5294086933135986,0.37871548533439636,0.43493160605430603,0.0,0.0,0.0,0.0,14698.0,13879.0,14599.0,12355.0,1.7031430006027222,-0.06184228042206782,0.10010993287759475,-0.0352944733114336,0.028726184740662575,-0.0008789744460955262,0.0
417,5,-0.0011685009812936187,0.00015802713460288942,0.00014304323121905327,-0.0077643683180212975,-0.002534354105591774,-0.0009997057495638728,0.009785720147192478,0.005290654022246599,0.0007765929331071675,0.02362251840531826,-0.028910581022500992,-0.03352752700448036,0.0,0.0,0.0,-0.002941952319815755,-0.006918159779161215,-0.0,0.0,0.0,0.0,-0.006203784141689539,-0.005083331372588873,-0.002582340035587549,13257.0,15295.0,13058.0,13937.0,0.391081839799881,0.5294086933135986,0.37871548533439636,0.43493160605430603,0.0,0.0,0.0,0.0,14698.0,13879.0,14599.0,12355.0,1.7063148021697998,-0.06184538213409166,0.10059810400713007,-0.034854533675299434,0.02844437025487423,-0.009304696694016457,-0.0
422,5,-0.0012100226012989879,0.00017413683235645294,0.00017070575268007815,-0.008088349364697933,-0.0029469053260982037,-0.003719385014846921,0.009741364978253841,0.005814515054225922,0.0013098721392452717,0.0075127435848116875,-0.02741040661931038,-0.06377331912517548,0.0,0.0,0.0,-0.002941952319815755,-0.006918159779161215,-0.0,0.0,0.0,0.0,-0.0032839763443917036,-0.00506846746429801,0.0027561148162931204,13354.0,14400.0,13819.0,13646.0,0.3972192108631134,0.46609166264533997,0.427145391702652,0.4158767759799957,0.0,0.0,0.0,0.0,12821.0,14912.0,13231.0,14175.0,1.7063148021697998,-0.06206101735557964,0.1005791191439125,-0.03423071333159201,0.02844437025487423,-0.009304696694016457,-0.0
427,5,-0.0012130184331908822,0.00012623541988432407,0.00023665654589422047,-0.003594842040911317,0.004569406155496836,-0.009401848539710045,0.009741364978253841,0.005814515054225922,0.0013098721392452717,0.0075127435848116875,-0.02741040661931038,-0.06377331912517548,0.0,0.0,0.0,0.003745878115296364,-0.008880198933184147,-0.0,0.0,0.0,0.0,-0.0032839763443917036,-0.00506846746429801,0.0027561148162931204,13354.0,14400.0,13819.0,13646.0,0.3972192108631134,0.46609166264533997,0.427145391702652,0.4158767759799957,0.0,0.0,0.0,0.0,12821.0,14912.0,13231.0,14175.0,1.7302335500717163,-0.06431712557715523,0.09865960025342256,-0.03493209227144824,0.0370229110121727,0.01201337669044733,0.0
432,5,-0.0012017014669254422,0.000148960534716025,0.00016020124894566834,-7.990081212483346e-05,-0.0008992502698674798,0.0054138959385454655,0.009914026595652103,0.006165263243019581,0.0013792916433885694,0.0006698911893181503,-0.04941609129309654,0.1287120133638382,0.0,0.0,0.0,0.003745878115296364,-0.008880198933184147,-0.0,0.0,0.0,0.0,-0.004909503273665905,-0.0006838921690359712,0.0034409051295369864,14834.0,13127.0,15119.0,11840.0,0.4963010549545288,0.3830084800720215,0.5166109800338745,0.30722248554229736,0.0,0.0,0.0,0.0,15021.0,12917.0,15200.0,11727.0,1.7302335500717163,-0.061655025933655884,0.10167695925124302,-0.03391460530289651,0.0370229110121727,0.01201337669044733,0.0
437,5,-0.0012045957846567035,9.486995259067044e-05,0.00015289684233721346,-0.00037927590892650187,0.00613116892054677,0.003042087657377124,0.009914026595652103,0.006165263243019581,0.0013792916433885694,0.0006698911893181503,-0.04941609129309654,0.1287120133638382,0.0,0.0,0.0,0.0013740742579102516,-0.0017503349808976054,-0.0,0.0,0.0,0.0,-0.004909503273665905,-0.0006838921690359712,0.0034409051295369864,14834.0,13127.0,15119.0,11840.0,0.4963010549545288,0.3830084800720215,0.5166109800338745,0.30722248554229736,0.0,0.0,0.0,0.0,15021.0,12917.0,15200.0,11727.0,1.6477514505386353,-0.06348715924903511,0.10118711304347293,-0.035141983743031124,0.00694966921582818,0.004196722060441971,-0.0
442,5,-0.0012586178490892053,0.00016342259186785668,0.00017370101704727858,-0.006634352263063192,-0.005773849319666624,-0.0012796667870134115,0.01034290250390768,0.005498556885868311,0.002465151948854327,0.0390172153711319,0.13054421544075012,0.018121298402547836,0.0,0.0,0.0,0.0013740742579102516,-0.0017503349808976054,-0.0,0.0,0.0,0.0,-0.0013230314943939447,-0.0012040412984788418,0.0019310542847961187,14949.0,12949.0,14991.0,12522.0,0.5044543743133545,0.37198495864868164,0.5074679255485535,0.3463262915611267,0.0,0.0,0.0,0.0,13559.0,14571.0,13021.0,14038.0,1.6477514505386353,-0.061783632757108964,0.10178574884736949,-0.033508342925701665,0.00694966921582818,0.004196722060441971,-0.0
447,5,-0.0012760438257828355,0.00012964237248525023,0.00016477625467814505,-0.004744857549667358,0.0017440872034057975,0.0005591059452854097,0.01034290250390768,0.005498556885868311,0.002465151948854327,0.0390172153711319,0.13054421544075012,0.018121298402547836,0.0,0.0,0.0,0.007032266817986965,-0.007637412287294865,-0.0,0.0,0.0,0.0,-0.0013230314943939447,-0.0012040412984788418,0.0019310542847961187,14949.0,12949.0,14991.0,12522.0,0.5044543743133545,0.37198495864868164,0.5074679255485535,0.3463262915611267,0.0,0.0,0.0,0.0,13559.0,14571.0,13021.0,14038.0,1.7305171489715576,-0.061848719161025335,0.10137057611639474,-0.03423338954015435,0.0318463072180748,0.02255658246576786,0.0
452,5,-0.0013114223256707191,0.00014599677524529397,0.00021109245426487178,-0.006143361330032349,-0.001264893333427608,-0.00533430278301239,0.010089685209095478,0.0034618161153048277,0.0024418518878519535,-0.0019035965669900179,0.05084220692515373,-0.035999126732349396,0.0,0.0,0.0,0.007032266817986965,-0.007637412287294865,-0.0,0.0,0.0,0.0,-0.0027585402131080627,2.5620971427997574e-05,-0.0023266852367669344,13101.0,14389.0,12739.0,14041.0,0.3813384175300598,0.4653303623199463,0.3592713475227356,0.44181132316589355,0.0,0.0,0.0,0.0,14567.0,13424.0,14590.0,12946.0,1.7305171489715576,-0.06169873657395605,0.10061353576591849,-0.03388392928177369,0.0318463072180748,0.02255658246576786,0.0
457,5,-0.0013160064117982984,0.0001568126172060147,0.00021225625823717564,-0.003007443156093359,-0.0018038590205833316,-0.0022733774967491627,0.010089685209095478,0.0034618161153048277,0.0024418518878519535,-0.0019035965669900179,0.05084220692515373,-0.035999126732349396,0.0,0.0,0.0,0.007032266817986965,-0.007637412287294865,-0.0,0.0,0.0,0.0,-0.0027585402131080627,2.5620971427997574e-05,-0.0023266852367669344,13101.0,14389.0,12739.0,14041.0,0.3813384175300598,0.4653303623199463,0.3592713475227356,0.44181132316589355,0.0,0.0,0.0,0.0,14567.0,13424.0,14590.0,12946.0,1.7305171489715576,-0.061389628958689865,0.10041650607526485,-0.033589789339592016,0.0318463072180748,0.02255658246576786,0.0
462,5,-0.0013446902157738805,9.26446882658638e-05,0.0001788304653018713,-0.004645031411200762,0.006978608202189207,0.0031017449218779802,0.010029452852904797,0.003837485099211335,0.002832223894074559,0.00019132168381474912,-0.06728565692901611,-0.06630194187164307,0.0,0.0,0.0,0.002451362321153283,-0.00458630733191967,-0.0,0.0,0.0,0.0,-0.002497371518984437,-0.0036453092470765114,0.0007636429509148002,13411.0,14479.0,14025.0,13669.0,0.4008103013038635,0.4715486764907837,0.4407898187637329,0.4173683524131775,0.0,0.0,0.0,0.0,14047.0,13482.0,13835.0,12948.0,1.6799553632736206,-0.06382120215394223,0.10018127551450602,-0.035366363581528365,0.018565641716122627,0.00763331213966012,0.0
