timestamp,dt,pos_x,pos_y,pos_z,vel_x,vel_y,vel_z,roll,pitch,yaw,agv_x,agv_y,agv_z,x_ref,y_ref,z_ref,roll_ref,pitch_ref,yaw_ref,x_vel_ref,y_vel_ref,z_vel_ref,x_torque,y_torque,z_torque,w0,w1,w2,w3,u0,u1,u2,u3,m0req,m1req,m2req,m3req,thrust0,thrust1,thrust2,thrust3,thrust_ref,roll_vicon,pitch_vicon,yaw_vicon,acc_x,acc_y,acc_z
5,5,0.0,0.0,0.0,0.00029074001940898597,0.00040584761882200837,-0.000615747063420713,-0.02568860910832882,0.05293905362486839,0.015556437894701958,0.0002545590978115797,-0.0017613746458664536,0.00037248755688779056,0.0,0.0,0.0,-0.0004703601880464703,0.00025919644394889474,-0.0,0.0,0.0,0.0,0.007521931082010269,-0.015885652974247932,0.0015912252711132169,1495.0,1495.0,1495.0,1495.0,0.0,0.0,0.0,0.0,0.0,0.0,0.0,0.0,1495.0,1495.0,1495.0,1495.0,1.745642066001892,-0.1115632971392047,0.060124623609461095,0.05752656886694824,-0.0010902751237154007,-0.0015219285851344466,0.0
29,24,0.0,0.0,0.0,0.0008798048947937787,0.0007452103309333324,0.0014135309029370546,-0.02568860910832882,0.05293905362486839,0.015556437894701958,0.0002545590978115797,-0.0017613746458664536,0.00037248755688779056,0.0,0.0,0.0,-0.0004703601880464703,0.00025919644394889474,-0.0,0.0,0.0,0.0,0.007521931082010269,-0.015885652974247932,0.0015912252711132169,1495.0,1495.0,1495.0,1495.0,0.0,0.0,0.0,0.0,0.0,0.0,0.0,0.0,1495.0,1495.0,1495.0,1495.0,1.745642066001892,-0.1116785816354893,0.05863051440387095,0.057543628539941306,-0.0010902751237154007,-0.0015219285851344466,0.0
34,5,0.0,0.0,0.0,0.00147007848136127,-0.0006831047940067947,-0.002698057098314166,-0.02568860910832882,0.05293905362486839,0.015556437894701958,0.0002545590978115797,-0.0017613746458664536,0.00037248755688779056,0.0,0.0,0.0,0.0007916272734291852,0.0013104811077937484,-0.0,0.0,0.0,0.0,0.007521931082010269,-0.015885652974247932,0.0015912252711132169,1495.0,1495.0,1495.0,1495.0,0.0,0.0,0.0,0.0,0.0,0.0,0.0,0.0,1495.0,1495.0,1495.0,1495.0,1.7457795143127441,-0.11100085247732971,0.060585973861688236,0.05748342470191464,-0.005512794479727745,0.0025616430211812258,0.0
39,5,0.0,0.0,0.0,0.00046740780817344785,-0.0007672755746170878,0.0020267777144908905,-0.02568070776760578,0.05291390419006348,0.015567843802273273,0.0034036918077617884,-0.0017995252273976803,-0.00023071558098308742,0.0,0.0,0.0,0.0007916272734291852,0.0013104811077937484,-0.0,0.0,0.0,0.0,0.007612977642565966,-0.015866413712501526,0.001566984923556447,1495.0,1495.0,1495.0,1495.0,0.0,0.0,0.0,0.0,0.0,0.0,0.0,0.0,1495.0,1495.0,1495.0,1495.0,1.7457795143127441,-0.11112563387120915,0.0589563094861907,0.057409043669473296,-0.005512794479727745,0.0025616430211812258,0.0
44,5,0.0,0.0,0.0,1.021832758851815e-05,6.511648098239675e-05,0.0010217565577477217,-0.02568070776760578,0.05291390419006348,0.015567843802273273,0.0034036918077617884,-0.0017995252273976803,-0.00023071558098308742,0.0,0.0,0.0,0.0007916272734291852,0.0013104811077937484,-0.0,0.0,0.0,0.0,0.007612977642565966,-0.015866413712501526,0.001566984923556447,1495.0,1495.0,1495.0,1495.0,0.0,0.0,0.0,0.0,0.0,0.0,0.0,0.0,1495.0,1495.0,1495.0,1495.0,1.7457795143127441,-0.11127852896366543,0.05965025538688289,0.057141348256261555,-0.005512794479727745,0.0025616430211812258,0.0
49,5,-6.369001766870497e-06,-1.6773067379460826e-09,-1.5369249013019726e-05,-0.0007601928664371371,2.6247869755025022e-05,0.0022530124988406897,-0.02567124553024769,0.05290847271680832,0.01556340791285038,-0.003141089342534542,-0.003003372810781002,-0.0025698808021843433,0.0,0.0,0.0,-7.545112748630345e-05,9.107753612624947e-06,-0.0,0.0,0.0,0.0,0.007612977642565966,-0.015866413712501526,0.001566984923556447,1495.0,1495.0,1495.0,1495.0,0.0,0.0,0.0,0.0,0.0,0.0,0.0,0.0,1495.0,1495.0,1495.0,1495.0,1.7460147142410278,-0.1113555189170201,0.05890772924737344,0.057418494059318204,-3.8318728911690414e-05,-0.00024418681277893484,0.0
55,5,-7.005130555626238e-06,9.408867299498525e-06,-4.225103111821227e-06,-0.0003804126172326505,-0.0011187662603333592,-0.00043609252315945923,-0.02567124553024769,0.05290847271680832,0.01556340791285038,-0.003141089342534542,-0.003003372810781002,-0.0025698808021843433,0.0,0.0,0.0,0.0013123946264386177,-0.0003482494503259659,-0.0,0.0,0.0,0.0,0.007935002446174622,-0.01563849113881588,0.001439219107851386,12862.0,13980.0,15937.0,12818.0,0.3667120635509491,0.4377724826335907,0.5772853493690491,0.3640095889568329,0.0,0.0,0.0,0.0,1495.0,1495.0,1495.0,1495.0,1.7459241151809692,-0.11090926218599416,0.05994906877267321,0.057261830068147494,0.001465100096538663,0.004247155040502548,0.0
61,6,4.605133653967641e-06,8.890389835869428e-06,2.8750714591296855e-06,0.001241066725924611,-0.000385289138648659,-0.0010264579905197024,-0.02567124553024769,0.05290847271680832,0.01556340791285038,-0.003141089342534542,-0.003003372810781002,-0.0025698808021843433,0.0,0.0,0.0,0.0013123946264386177,-0.0003482494503259659,-0.0,0.0,0.0,0.0,0.007935002446174622,-0.01563849113881588,0.001439219107851386,12862.0,13980.0,15937.0,12818.0,0.3667120635509491,0.4377724826335907,0.5772853493690491,0.3640095889568329,0.0,0.0,0.0,0.0,1495.0,1495.0,1495.0,1495.0,1.7459241151809692,-0.11165757343528397,0.059493941428968675,0.057418439557955434,0.001465100096538663,0.004247155040502548,0.0
66,5,2.66527052872334e-07,1.6925974932746612e-06,9.814400073082652e-06,-2.420613236608915e-05,0.0007096194312907755,-0.0012433025985956192,-0.02567187510430813,0.05296344310045242,0.015546316280961037,0.003598575945943594,-0.00682765431702137,0.001797758392058313,0.0,0.0,0.0,-0.0008193979738280177,-2.1233609004411846e-05,-0.0,0.0,0.0,0.0,0.007909034378826618,-0.015716582536697388,0.0016062468057498336,12930.0,13924.0,15995.0,12737.0,0.3708575367927551,0.434045672416687,0.5817199349403381,0.35915637016296387,0.0,0.0,0.0,0.0,12922.0,13922.0,15991.0,12752.0,1.7459230422973633,-0.11097332941363365,0.05953713953601026,0.057390267401044574,8.933068602345884e-05,-0.0026517247315496206,0.0
74,9,-1.0123212632606737e-05,7.967492820171174e-06,7.758214451314416e-06,-0.0011938187526538968,0.0003861355362460017,0.0002713146968744695,-0.02567187510430813,0.05296344310045242,0.015546316280961037,0.003598575945943594,-0.00682765431702137,0.001797758392058313,0.0,0.0,0.0,-0.0008193979738280177,-2.1233609004411846e-05,-0.0,0.0,0.0,0.0,0.007909034378826618,-0.015716582536697388,0.0016062468057498336,12930.0,13924.0,15995.0,12737.0,0.3708575367927551,0.434045672416687,0.5817199349403381,0.35915637016296387,0.0,0.0,0.0,0.0,12922.0,13922.0,15991.0,12752.0,1.7459230422973633,-0.11114951491440674,0.05982489816149493,0.056998059979266685,8.933068602345884e-05,-0.0026517247315496206,0.0
79,5,1.8898659845945076e-06,5.416322892415337e-06,4.019662810605951e-06,0.0009640419157221913,0.00046059457235969603,0.0005571520887315273,-0.02567187510430813,0.05296344310045242,0.015546316280961037,0.003598575945943594,-0.00682765431702137,0.001797758392058313,0.0,0.0,0.0,-0.00043396931141614914,-0.0010775928385555744,-0.0,0.0,0.0,0.0,0.007909034378826618,-0.015716582536697388,0.0016062468057498336,12930.0,13924.0,15995.0,12737.0,0.3708575367927551,0.434045672416687,0.5817199349403381,0.35915637016296387,0.0,0.0,0.0,0.0,12922.0,13922.0,15991.0,12752.0,1.7455681562423706,-0.11138953815228064,0.0600456863231394,0.057373505850731484,0.004532556980848312,-0.0014041203539818525,-0.0
84,5,1.7096641613534302e-06,2.106730562445591e-06,-1.1200530934729613e-05,0.00036399252712726593,0.0005813889438286424,0.002049284055829048,-0.025669822469353676,0.05296117067337036,0.015550125390291214,0.0013142047682777047,-0.002274108584970236,-0.0023158541880548,0.0,0.0,0.0,-0.00043396931141614914,-0.0010775928385555744,-0.0,0.0,0.0,0.0,0.007664122618734837,-0.01595454290509224,0.001539703574962914,12889.0,13992.0,15967.0,12743.0,0.36833634972572327,0.4385565221309662,0.5795937180519104,0.35952815413475037,0.0,0.0,0.0,0.0,12857.0,13965.0,16002.0,12760.0,1.7455681562423706,-0.11151824320824139,0.05958827615769085,0.057575389378606776,0.004532556980848312,-0.0014041203539818525,-0.0
89,5,1.164167201750388e-06,-7.62534682507976e-06,1.587697806826327e-05,8.013738261070102e-05,0.001400404842570424,-0.0024295873008668423,-0.025658201426267624,0.05296631157398224,0.015542441979050636,0.0025772128719836473,-0.005712957587093115,-0.0008287155069410801,0.0,0.0,0.0,-0.000670199457090348,0.00032672350062057376,-0.0,0.0,0.0,0.0,0.00745275616645813,-0.016176795586943626,0.0015897987177595496,12857.0,13967.0,16008.0,12750.0,0.3663941025733948,0.4369335174560547,0.5826826095581055,0.3599138855934143,0.0,0.0,0.0,0.0,12909.0,14001.0,15987.0,12687.0,1.7456467151641846,-0.1117978163818693,0.059984161754475,0.05724424479205519,-0.0013743221061304212,-0.002168547362089157,0.0
97,8,3.998346073785797e-06,1.0045207091025077e-05,2.431713255646173e-05,0.0005809128633700311,-0.0009011415531858802,-0.001599687966518104,-0.025658201426267624,0.05296631157398224,0.015542441979050636,0.0025772128719836473,-0.005712957587093115,-0.0008287155069410801,0.0,0.0,0.0,-0.000670199457090348,0.00032672350062057376,-0.0,0.0,0.0,0.0,0.00745275616645813,-0.016176795586943626,0.0015897987177595496,12857.0,13967.0,16008.0,12750.0,0.3663941025733948,0.4369335174560547,0.5826826095581055,0.3599138855934143,0.0,0.0,0.0,0.0,12909.0,14001.0,15987.0,12687.0,1.7456467151641846,-0.11187382944659054,0.05992378860500595,0.05737008406919173,-0.0013743221061304212,-0.002168547362089157,0.0
102,5,4.926832843921147e-06,4.917475962429307e-06,5.412171049101744e-06,0.00034378355485387146,0.0002548711490817368,0.0016287202015519142,-0.025647880509495735,0.053027648478746414,0.01555381715297699,0.0030217214953154325,-0.008935950696468353,0.001742736087180674,0.0,0.0,0.0,0.001061587710864842,0.0005231525283306837,-0.0,0.0,0.0,0.0,0.0075981710106134415,-0.01616148091852665,0.0015376659575849771,12921.0,13992.0,15992.0,12679.0,0.3702779710292816,0.4385380446910858,0.5814566016197205,0.3556504547595978,0.0,0.0,0.0,0.0,12895.0,14004.0,16020.0,12650.0,1.7454875707626343,-0.11068865276033177,0.059880404486464874,0.05748023743812352,-0.0022003750782459974,0.003434638725593686,0.0
107,5,6.793849934183527e-06,8.070303010754287e-06,1.850096850830596e-05,0.0003615554596763104,-0.0002763907832559198,-0.0009191676508635283,-0.025647880509495735,0.053027648478746414,0.01555381715297699,0.0030217214953154325,-0.008935950696468353,0.001742736087180674,0.0,0.0,0.0,0.0003340700932312757,0.00033119303407147527,-0.0,0.0,0.0,0.0,0.0075981710106134415,-0.01616148091852665,0.0015376659575849771,12921.0,13992.0,15992.0,12679.0,0.3702779710292816,0.4385380446910858,0.5814566016197205,0.3556504547595978,0.0,0.0,0.0,0.0,12895.0,14004.0,16020.0,12650.0,1.7457231283187866,-0.11171086632710298,0.059318856047588714,0.057360940197727535,-0.001393183832988143,0.0010809896048158407,0.0
113,5,9.251721166947391e-06,5.275006969895912e-06,-2.0769297407241538e-05,0.00043956667650491,0.00022487920068670064,0.004344765096902847,-0.025647880509495735,0.053027648478746414,0.01555381715297699,0.0030217214953154325,-0.008935950696468353,0.001742736087180674,0.0,0.0,0.0,0.0003340700932312757,0.00033119303407147527,-0.0,0.0,0.0,0.0,0.0075981710106134415,-0.01616148091852665,0.0015376659575849771,12921.0,13992.0,15992.0,12679.0,0.3702779710292816,0.4385380446910858,0.5814566016197205,0.3556504547595978,0.0,0.0,0.0,0.0,12895.0,14004.0,16020.0,12650.0,1.7457231283187866,-0.11079681421108734,0.05958282487111358,0.05755974955816737,-0.001393183832988143,0.0010809896048158407,0.0
118,5,2.1786386241728906e-06,1.6134681573021226e-05,-1.969144022950786e-06,-0.0006729431916028261,-0.0012132092379033566,-0.0005181125015951693,-0.025622325018048286,0.0530070923268795,0.015551508404314518,-2.3841603251639754e-05,0.004507671110332012,0.0025534387677907944,0.0,0.0,0.0,0.0003340700932312757,0.00033119303407147527,-0.0,0.0,0.0,0.0,0.007527269423007965,-0.01587091013789177,0.0015284729888662696,12908.0,13989.0,15951.0,12741.0,0.3695279657840729,0.43838897347450256,0.5783246755599976,0.3594050705432892,0.0,0.0,0.0,0.0,12960.0,13940.0,16001.0,12679.0,1.7457231283187866,-0.11139738381403931,0.05973718030123683,0.05713441395919382,-0.001393183832988143,0.0010809896048158407,0.0
123,5,-3.4344184314250015e-06,9.802012755244505e-06,2.4079365630313987e-06,-0.00094274414004758,0.00027463652077130973,-0.0007324946927838027,-0.025622325018048286,0.0530070923268795,0.015551508404314518,-2.3841603251639754e-05,0.004507671110332012,0.0025534387677907944,0.0,0.0,0.0,0.0014335159212350845,-0.0005970745696686208,-0.0,0.0,0.0,0.0,0.007527269423007965,-0.01587091013789177,0.0015284729888662696,12908.0,13989.0,15951.0,12741.0,0.3695279657840729,0.43838897347450256,0.5783246755599976,0.3594050705432892,0.0,0.0,0.0,0.0,12960.0,13940.0,16001.0,12679.0,1.7456769943237305,-0.11219715981590479,0.05949971775260718,0.05743527612763365,0.002511562081053853,0.004638469312340021,0.0
128,5,-1.1553918739082292e-05,7.233216820168309e-06,1.0809848163262359e-06,-0.0013514377642422915,0.0004181101394351572,-0.0001337636640528217,-0.025639977306127548,0.05296811833977699,0.01557571068406105,-0.0019140035146847367,0.0005581105942837894,0.0009693821775726974,0.0,0.0,0.0,0.0014335159212350845,-0.0005970745696686208,-0.0,0.0,0.0,0.0,0.00802119541913271,-0.015815839171409607,0.0017161621944978833,12930.0,13900.0,16025.0,12721.0,0.37085625529289246,0.43245813250541687,0.5839667320251465,0.3582064211368561,0.0,0.0,0.0,0.0,12877.0,13947.0,15984.0,12775.0,1.7456769943237305,-0.11179848102149113,0.059594656509831714,0.05714074260262091,0.002511562081053853,0.004638469312340021,0.0
133,5,-9.715110536490101e-06,5.025007794756675e-06,3.91304783988744e-05,-0.00031991806463338435,0.0004322291351854801,-0.0046194447204470634,-0.025639977306127548,0.05296811833977699,0.01557571068406105,-0.0019140035146847367,0.0005581105942837894,0.0009693821775726974,0.0,0.0,0.0,-0.00047206366434693336,-0.0012195579474791884,-0.0,0.0,0.0,0.0,0.00802119541913271,-0.015815839171409607,0.0017161621944978833,12930.0,13900.0,16025.0,12721.0,0.37085625529289246,0.43245813250541687,0.5839667320251465,0.3582064211368561,0.0,0.0,0.0,0.0,12877.0,13947.0,15984.0,12775.0,1.7461798191070557,-0.11175806774194154,0.06004036387233638,0.057059896637419026,0.005131486337631941,-0.001527911052107811,0.0
138,5,4.8752035581856035e-06,-4.2119668250961695e-06,3.488412039587274e-05,0.0016228704480454326,0.001281328615732491,-0.0013382150791585445,-0.025649484246969223,0.052938882261514664,0.015566222369670868,0.0017603259766474366,-0.009014198556542397,0.00011877625365741551,0.0,0.0,0.0,-0.00047206366434693336,-0.0012195579474791884,-0.0,0.0,0.0,0.0,0.008163389749825,-0.016146352514624596,0.0016212352784350514,12899.0,13962.0,15998.0,12722.0,0.3689718544483185,0.43656644225120544,0.5819269418716431,0.358257919549942,0.0,0.0,0.0,0.0,12891.0,13968.0,16013.0,12706.0,1.7461798191070557,-0.111494614567184,0.059839709950725,0.05728725759138331,0.005131486337631941,-0.001527911052107811,0.0
143,5,-3.578944415494334e-06,-2.64308937403257e-06,3.6597245980374282e-06,-0.0003653495805338025,0.0003242661477997899,0.0032116416841745377,-0.025649484246969223,0.052938882261514664,0.015566222369670868,0.0017603259766474366,-0.009014198556542397,0.00011877625365741551,0.0,0.0,0.0,-0.0014918098459020257,0.001452882424928248,-0.0,0.0,0.0,0.0,0.008163389749825,-0.016146352514624596,0.0016212352784350514,12899.0,13962.0,15998.0,12722.0,0.3689718544483185,0.43656644225120544,0.5819269418716431,0.358257919549942,0.0,0.0,0.0,0.0,12891.0,13968.0,16013.0,12706.0,1.7459847927093506,-0.11086462356398917,0.05930124070259938,0.05738217281720321,-0.006112546660006046,-0.004827943630516529,0.0
148,5,-7.309400189114967e-06,2.096925754813128e-06,3.709740121848881e-05,-0.000593794509768486,-0.0004390953399706632,-0.0027278647758066654,-0.025644032284617424,0.05296090245246887,0.01557918731123209,0.0005576473195105791,-0.002402337733656168,0.00334020983427763,0.0,0.0,0.0,-0.0014918098459020257,0.001452882424928248,-0.0,0.0,0.0,0.0,0.008163389749825,-0.016146352514624596,0.0016212352784350514,12892.0,13923.0,16050.0,12706.0,0.36849552392959595,0.4339990019798279,0.5859047174453735,0.3572777509689331,0.0,0.0,0.0,0.0,12876.0,13934.0,16054.0,12705.0,1.7459847927093506,-0.1118960194213715,0.05975567769371749,0.05716756217567592,-0.006112546660006046,-0.004827943630516529,0.0
153,5,1.2979659913980868e-05,1.5650408386136405e-05,2.0201752704451792e-05,0.002197169465944171,-0.001802055980078876,0.0009363322169519961,-0.025644032284617424,0.05296090245246887,0.01557918731123209,0.0005576473195105791,-0.002402337733656168,0.00334020983427763,0.0,0.0,0.0,0.0005123440059833229,-0.000538754160515964,-0.0,0.0,0.0,0.0,0.008163389749825,-0.016146352514624596,0.0016212352784350514,12892.0,13923.0,16050.0,12706.0,0.36849552392959595,0.4339990019798279,0.5859047174453735,0.3572777509689331,0.0,0.0,0.0,0.0,12876.0,13934.0,16054.0,12705.0,1.746251106262207,-0.1101492406799755,0.06069271326658588,0.057237765416786816,0.002266987692564726,0.0016583525575697422,0.0
158,5,2.537262616897351e-06,2.585672336863354e-05,4.8269292165059596e-05,-0.0003742199332918972,-0.0019455801229923964,-0.002993572037667036,-0.02566005289554596,0.05295245721936226,0.015575666911900043,0.0003523788182064891,-0.0016333271050825715,0.002237501088529825,0.0,0.0,0.0,0.0005123440059833229,-0.000538754160515964,-0.0,0.0,0.0,0.0,0.007311855908483267,-0.015294347889721394,0.001406644587405026,12905.0,13985.0,16023.0,12667.0,0.3692951202392578,0.43810462951660156,0.5838301777839661,0.3549498915672302,0.0,0.0,0.0,0.0,12909.0,13984.0,16036.0,12648.0,1.746251106262207,-0.11196689824030084,0.05986686558298721,0.05716585965086381,0.002266987692564726,0.0016583525575697422,0.0
163,5,8.733234608371276e-06,1.4900712812959682e-05,2.1324382032616995e-05,0.0005938287358731031,0.0005364891258068383,0.002035960555076599,-0.02566005289554596,0.05295245721936226,0.015575666911900043,0.0003523788182064891,-0.0016333271050825715,0.002237501088529825,0.0,0.0,0.0,0.0022981821093708277,-0.0003302117402199656,-0.0,0.0,0.0,0.0,0.007311855908483267,-0.015294347889721394,0.001406644587405026,12905.0,13985.0,16023.0,12667.0,0.3692951202392578,0.43810462951660156,0.5838301777839661,0.3549498915672302,0.0,0.0,0.0,0.0,12909.0,13984.0,16036.0,12648.0,1.7461820840835571,-0.11117607563059408,0.059735326860377747,0.05760834000545258,0.001389417564496398,0.007438439875841141,0.0
168,5,1.9981969217042206e-06,2.6561914637568407e-05,2.236720138171222e-05,-0.0005706730880774558,-0.0011847486020997167,0.0006892458768561482,-0.025655966252088547,0.05288202688097954,0.015544441528618336,-0.0020839571952819824,0.009717977605760098,-0.011362692341208458,0.0,0.0,0.0,0.0022981821093708277,-0.0003302117402199656,-0.0,0.0,0.0,0.0,0.00795038603246212,-0.01599731296300888,0.0031051738187670708,12884.0,14040.0,15840.0,12855.0,0.36801576614379883,0.4417630434036255,0.5699305534362793,0.366275429725647,0.0,0.0,0.0,0.0,13045.0,13886.0,16007.0,12650.0,1.7461820840835571,-0.111266839357108,0.059619545495506215,0.0576728421263393,0.001389417564496398,0.007438439875841141,0.0
173,5,-4.822699793294305e-06,-1.078072159543808e-06,1.674246959737502e-05,-0.001046776887960732,0.0028428989462554455,0.0009506660862825811,-0.025655966252088547,0.05288202688097954,0.015544441528618336,-0.0020839571952819824,0.009717977605760098,-0.011362692341208458,0.0,0.0,0.0,0.0022981821093708277,-0.0003302117402199656,-0.0,0.0,0.0,0.0,0.00795038603246212,-0.01599731296300888,0.0031051738187670708,12884.0,14040.0,15840.0,12855.0,0.36801576614379883,0.4417630434036255,0.5699305534362793,0.366275429725647,0.0,0.0,0.0,0.0,13045.0,13886.0,16007.0,12650.0,1.7461820840835571,-0.1109830619816874,0.06037001981693631,0.05663355282225849,0.003951978869736195,-0.010666404850780964,-0.0
178,5,-1.3470824342221022e-05,6.046900580258807e-06,3.41452905558981e-05,-0.0014564857119694352,0.0002821628877427429,-0.0017080719117075205,-0.025714632123708725,0.0528373122215271,0.01604010909795761,0.004051510244607925,0.019332407042384148,-0.07122061401605606,0.0,0.0,0.0,-0.003296716371551156,-0.0009395843371748924,-0.0,0.0,0.0,0.0,0.008204912766814232,-0.017572741955518723,0.004928599111735821,12918.0,13935.0,16005.0,12733.0,0.3700992465019226,0.4348239302635193,0.5824379920959473,0.35888993740081787,0.0,0.0,0.0,0.0,10905.0,15562.0,14377.0,14534.0,1.7455382347106934,-0.11234797330718581,0.05995376953261773,0.05758898051867806,0.003951978869736195,-0.010666404850780964,-0.0
183,5,-1.2212305591674522e-05,1.712292396405246e-05,4.293339588912204e-05,-0.00043157205800525844,-0.0012162575731053948,-0.0017378013581037521,-0.025714632123708725,0.0528373122215271,0.01604010909795761,0.004051510244607925,0.019332407042384148,-0.07122061401605606,0.0,0.0,0.0,-0.003296716371551156,-0.0009395843371748924,-0.0,0.0,0.0,0.0,0.008204912766814232,-0.017572741955518723,0.004928599111735821,12918.0,13935.0,16005.0,12733.0,0.3700992465019226,0.4348239302635193,0.5824379920959473,0.35888993740081787,0.0,0.0,0.0,0.0,10905.0,15562.0,14377.0,14534.0,1.7455382347106934,-0.11186200718204338,0.05965675914561009,0.05768560187120805,0.0016856463626027107,0.004655597265809774,0.0
189,5,-8.54378959047608e-06,-5.622069693345111e-06,5.329495979822241e-05,0.0002675931609701365,0.0022428962402045727,-0.0019385084742680192,-0.02558574266731739,0.05294060334563255,0.015795500949025154,-0.014577648602426052,-0.07706967741250992,0.23630033433437347,0.0,0.0,0.0,0.00143049203325063,-0.00039841284160502255,-0.0,0.0,0.0,0.0,0.006596213672310114,-0.015075623989105225,-0.003512451658025384,14679.0,11987.0,17715.0,10241.0,0.4854087829589844,0.3154367208480835,0.720674455165863,0.22466214001178741,0.0,0.0,0.0,0.0,14569.0,12002.0,17673.0,10456.0,1.7558268308639526,-0.11134622849177178,0.0601902031330497,0.05692196731016607,0.0016856463626027107,0.004655597265809774,0.0
194,5,-1.567810500091582e-06,8.966844120550377e-07,6.230247527128085e-05,0.0009441546862944961,0.00011490796168800443,-0.0018563055200502276,-0.02558574266731739,0.05294060334563255,0.015795500949025154,-0.014577648602426052,-0.07706967741250992,0.23630033433437347,0.0,0.0,0.0,0.00143049203325063,-0.00039841284160502255,-0.0,0.0,0.0,0.0,0.006596213672310114,-0.015075623989105225,-0.003512451658025384,14679.0,11987.0,17715.0,10241.0,0.4854087829589844,0.3154367208480835,0.720674455165863,0.22466214001178741,0.0,0.0,0.0,0.0,14569.0,12002.0,17673.0,10456.0,1.750747561454773,-0.11091740600308841,0.060464145852516346,0.05628014476544397,-0.003531868103891611,-0.000425514648668468,0.0
199,5,6.782296168239554e-06,8.36248818814056e-06,-3.8030505038477713e-06,0.00137967464979738,-0.0008499333052895963,0.00719014136120677,-0.025874139741063118,0.05295801907777786,0.015610354021191597,0.06625701487064362,0.0329623818397522,-0.18739311397075653,0.0,0.0,0.0,-0.000131124077597633,0.0008371997973881662,-0.0,0.0,0.0,0.0,0.009705995209515095,-0.018729286268353462,0.006326113827526569,14129.0,12487.0,17518.0,10954.0,0.44771629571914673,0.3442648649215698,0.7039673328399658,0.25987833738327026,0.0,0.0,0.0,0.0,11927.0,15082.0,15011.0,13565.0,1.750747561454773,-0.1120901608744624,0.058131206031003725,0.05744231076089653,-0.003531868103891611,-0.000425514648668468,0.0
204,5,-8.223921213357244e-06,5.407275693869451e-06,3.456833655945957e-05,-0.0012488762149587274,1.4652221580035985e-05,-0.0017285101348534226,-0.025874139741063118,0.05295801907777786,0.015610354021191597,0.06625701487064362,0.0329623818397522,-0.18739311397075653,0.0,0.0,0.0,-7.636956979695242e-06,-0.0011233523255214095,-0.0,0.0,0.0,0.0,0.009705995209515095,-0.018729286268353462,0.006326113827526569,14129.0,12487.0,17518.0,10954.0,0.44771629571914673,0.3442648649215698,0.7039673328399658,0.25987833738327026,0.0,0.0,0.0,0.0,11927.0,15082.0,15011.0,13565.0,1.746899962425232,-0.11189814918145137,0.05899835301854209,0.05684695873730311,0.004728635307401419,-2.4728451535338536e-05,0.0
209,5,-9.176591447612736e-06,-1.0377289072494023e-05,4.532405364443548e-05,-0.0006138709140941501,0.0019000086467713118,-0.0019820898305624723,-0.02553604729473591,0.05338225141167641,0.01507203932851553,0.0425226092338562,-0.011869663372635841,0.053662534803152084,0.0,0.0,0.0,-7.636956979695242e-06,-0.0011233523255214095,-0.0,0.0,0.0,0.0,0.006167537998408079,-0.015644684433937073,0.0003059177834074944,13092.0,13991.0,15995.0,12580.0,0.38080349564552307,0.4385090172290802,0.5816681981086731,0.34976688027381897,0.0,0.0,0.0,0.0,12106.0,14578.0,15640.0,13404.0,1.746899962425232,-0.11165438319464648,0.0596201095197326,0.056796427189677784,0.004728635307401419,-2.4728451535338536e-05,0.0
214,5,-1.296000300499145e-05,1.5175091903074645e-05,5.031717591919005e-05,-0.0006995577132329345,-0.002306282287463546,-0.0013920109486207366,-0.02553604729473591,0.05338225141167641,0.01507203932851553,0.0425226092338562,-0.011869663372635841,0.053662534803152084,0.0,0.0,0.0,0.00271431403234601,-0.0006443180027417839,-0.0,0.0,0.0,0.0,0.006167537998408079,-0.015644684433937073,0.0003059177834074944,13092.0,13991.0,15995.0,12580.0,0.38080349564552307,0.4385090172290802,0.5816681981086731,0.34976688027381897,0.0,0.0,0.0,0.0,12106.0,14578.0,15640.0,13404.0,1.735695242881775,-0.11148562195961971,0.059332359286413755,0.057012491644929476,0.0026947844307869673,0.008732551708817482,0.0
219,5,-6.907959686941467e-06,1.2941477507411037e-05,3.6562214518198743e-05,0.00044642214197665453,-0.0006544791394844651,0.001093790982849896,-0.02553604729473591,0.05338225141167641,0.01507203932851553,0.0425226092338562,-0.011869663372635841,0.053662534803152084,0.0,0.0,0.0,0.00271431403234601,-0.0006443180027417839,-0.0,0.0,0.0,0.0,0.008661739528179169,-0.01535873580724001,0.0005106666940264404,12374.0,14391.0,15593.0,13278.0,0.33766958117485046,0.465482622385025,0.5513452887535095,0.3924024999141693,0.0,0.0,0.0,0.0,13653.0,13206.0,16726.0,11847.0,1.735695242881775,-0.1112333281784469,0.05927576002123702,0.05662816514092377,0.0026947844307869673,0.008732551708817482,0.0
224,5,-1.2030307516397443e-05,7.507823738706065e-06,3.467384522082284e-05,-0.0004361129249446094,0.0003902467724401504,0.0006641211220994592,-0.02553604729473591,0.05338225141167641,0.01507203932851553,0.0425226092338562,-0.011869663372635841,0.053662534803152084,0.0,0.0,0.0,0.00271431403234601,-0.0006443180027417839,-0.0,0.0,0.0,0.0,0.008661739528179169,-0.01535873580724001,0.0005106666940264404,12374.0,14391.0,15593.0,13278.0,0.33766958117485046,0.465482622385025,0.5513452887535095,0.3924024999141693,0.0,0.0,0.0,0.0,13653.0,13206.0,16726.0,11847.0,1.735695242881775,-0.11084523360702471,0.05914122481076504,0.05660094532191027,0.0017017953796312213,-0.0014215756673365831,-0.0
229,5,-1.607723424967844e-05,1.3581274288299028e-05,5.798998608952388e-05,-0.0006600764463655651,-0.0005727153038606048,-0.0025322886649519205,-0.02553604729473591,0.05338225141167641,0.01507203932851553,0.0425226092338562,-0.011869663372635841,0.053662534803152084,0.0,0.0,0.0,-0.0004418649768922478,-0.00040689620072953403,-0.0,0.0,0.0,0.0,0.008661739528179169,-0.01535873580724001,0.0005106666940264404,12374.0,14391.0,15593.0,13278.0,0.33766958117485046,0.465482622385025,0.5513452887535095,0.3924024999141693,0.0,0.0,0.0,0.0,13653.0,13206.0,16726.0,11847.0,1.7356888055801392,-0.1111729155658611,0.05928867646337753,0.05662993159025402,0.0017017953796312213,-0.0014215756673365831,-0.0
234,5,7.825057764421217e-06,2.61583936662646e-05,0.00011247161455685273,0.0026042445097118616,-0.0017383405938744545,-0.007550711277872324,-0.02597676031291485,0.053379446268081665,0.015216640196740627,0.019806763157248497,0.03358718380331993,-0.05287106707692146,0.0,0.0,0.0,-0.0004418649768922478,-0.00040689620072953403,-0.0,0.0,0.0,0.0,0.009193972684442997,-0.016461167484521866,0.0019429970998317003,13000.0,13563.0,16309.0,12484.0,0.37510502338409424,0.41054993867874146,0.6059381365776062,0.344102144241333,0.0,0.0,0.0,0.0,12527.0,14442.0,15536.0,13146.0,1.7356888055801392,-0.11152094252954785,0.06056579075219766,0.05675805122250369,-0.009808776900172234,0.006663296837359667,0.0
239,5,2.99621642625425e-05,-5.254077223071363e-06,0.00014829789870418608,0.0036981506273150444,0.003074160311371088,-0.007319437339901924,-0.02597676031291485,0.053379446268081665,0.015216640196740627,0.019806763157248497,0.03358718380331993,-0.05287106707692146,0.0,0.0,0.0,0.0020675386767834425,0.0023411905858665705,-0.0,0.0,0.0,0.0,0.009193972684442997,-0.016461167484521866,0.0019429970998317003,13000.0,13563.0,16309.0,12484.0,0.37510502338409424,0.41054993867874146,0.6059381365776062,0.344102144241333,0.0,0.0,0.0,0.0,12527.0,14442.0,15536.0,13146.0,1.7387114763259888,-0.1114625342531732,0.060795437365587915,0.056693168764350245,-0.009808776900172234,0.006663296837359667,0.0
244,5,2.4882594516384415e-05,-1.2611047850441537e-06,0.00019600309315137565,0.0008697119192220271,0.0007505074609071016,-0.00865239929407835,-0.025542303919792175,0.05219453573226929,0.014822841621935368,0.09399121254682541,0.15457819402217865,0.01481883879750967,0.0,0.0,0.0,0.0020675386767834425,0.0023411905858665705,-0.0,0.0,0.0,0.0,0.00723262969404459,-0.012979287654161453,9.470316581428051e-05,12937.0,13967.0,15500.0,13129.0,0.37124156951904297,0.4369087219238281,0.5444356799125671,0.38310933113098145,0.0,0.0,0.0,0.0,12998.0,13541.0,16183.0,12674.0,1.7387114763259888,-0.11115281966419044,0.06229326777308885,0.05618268045258906,-0.009808776900172234,0.006663296837359667,0.0
249,5,3.646540790214203e-05,-9.439235327590723e-06,0.00022188549337442964,0.0017378225456923246,0.0012815785594284534,-0.006566847674548626,-0.025542303919792175,0.05219453573226929,0.014822841621935368,0.09399121254682541,0.15457819402217865,0.01481883879750967,0.0,0.0,0.0,-0.0008793844608590007,0.0008149410714395344,-0.0,0.0,0.0,0.0,0.00723262969404459,-0.012979287654161453,9.470316581428051e-05,12937.0,13967.0,15500.0,13129.0,0.37124156951904297,0.4369087219238281,0.5444356799125671,0.38310933113098145,0.0,0.0,0.0,0.0,12998.0,13541.0,16183.0,12674.0,1.7304892539978027,-0.11173688470240146,0.06257746195641041,0.05629935910577542,-0.0033981832675635815,-0.002820695051923394,0.0
255,5,8.051177428569645e-05,-4.892545348411659e-06,0.0002499828115105629,0.005980693269520998,-3.29713111568708e-05,-0.00599841820076108,-0.025749197229743004,0.05058838799595833,0.01485920324921608,-0.02988726831972599,0.24852202832698822,-0.022856419906020164,0.0,0.0,0.0,-0.0008793844608590007,0.0008149410714395344,-0.0,0.0,0.0,0.0,0.00847482867538929,-0.009354183450341225,0.0005556631949730217,12963.0,13752.0,15303.0,13556.0,0.3728475868701935,0.4227878153324127,0.5300019383430481,0.41005149483680725,0.0,0.0,0.0,0.0,13760.0,13126.0,16147.0,12348.0,1.7304892539978027,-0.11046762502610113,0.06555042922609654,0.056128650597396565,-0.0033981832675635815,-0.002820695051923394,0.0
260,5,9.10401067812927e-05,-1.4780154742766172e-05,0.00024146537180058658,0.0036556769628077745,0.0011733246501535177,-0.0013772734673693776,-0.025749197229743004,0.05058838799595833,0.01485920324921608,-0.02988726831972599,0.24852202832698822,-0.022856419906020164,0.0,0.0,0.0,3.0339415388880298e-05,0.0054822941310703754,-0.0,0.0,0.0,0.0,0.00847482867538929,-0.009354183450341225,0.0005556631949730217,12963.0,13752.0,15303.0,13556.0,0.3728475868701935,0.4227878153324127,0.5300019383430481,0.41005149483680725,0.0,0.0,0.0,0.0,13760.0,13126.0,16147.0,12348.0,1.7312732934951782,-0.11027123523223661,0.06590038950918645,0.056876041231461796,-0.022870605811476707,9.736018546391279e-05,0.0
265,5,8.542447903892025e-05,-1.7073574781534262e-05,0.0003120254841633141,0.0007883956423029304,0.0007445401861332357,-0.009018122218549252,-0.025337308645248413,0.04724416509270668,0.01467154361307621,0.02521856315433979,0.32279133796691895,-0.0238743107765913,0.0,0.0,0.0,3.0339415388880298e-05,0.0054822941310703754,-0.0,0.0,0.0,0.0,0.00760298827663064,-0.006805772893130779,0.0025816692505031824,13725.0,13110.0,15470.0,13296.0,0.42102837562561035,0.38191890716552734,0.5422394871711731,0.393524706363678,0.0,0.0,0.0,0.0,13186.0,13604.0,15262.0,13585.0,1.7312732934951782,-0.11236876322395206,0.06794742131500185,0.056147628642952946,-0.022870605811476707,9.736018546391279e-05,0.0
270,5,0.00015042450104374439,8.622221685072873e-06,0.00025990817812271416,0.008115360513329506,-0.002785679418593645,0.0026468257419764996,-0.025337308645248413,0.04724416509270668,0.01467154361307621,0.02521856315433979,0.32279133796691895,-0.0238743107765913,0.0,0.0,0.0,-0.0009011916117742658,0.0008233097032643855,-0.0,0.0,0.0,0.0,0.00760298827663064,-0.006805772893130779,0.0025816692505031824,13725.0,13110.0,15470.0,13296.0,0.42102837562561035,0.38191890716552734,0.5422394871711731,0.393524706363678,0.0,0.0,0.0,0.0,13186.0,13604.0,15262.0,13585.0,1.7273284196853638,-0.1102291864544652,0.06974400107341529,0.05690067337379682,-0.003426808398216963,-0.002885363297536969,0.0
275,5,0.0001775797427399084,-5.618420345854247e-06,0.00023539699031971395,0.006504773627966642,0.0005946052260696888,0.0040000737644732,-0.025338364765048027,0.04452547803521156,0.01430060900747776,0.006206837948411703,0.3392103314399719,0.03167376294732094,0.0,0.0,0.0,-0.0009011916117742658,0.0008233097032643855,-0.0,0.0,0.0,0.0,0.0074300142005085945,-0.004885121714323759,0.0009275277843698859,13759.0,13046.0,15333.0,13352.0,0.42325565218925476,0.37798938155174255,0.5321892499923706,0.3970550000667572,0.0,0.0,0.0,0.0,13156.0,13649.0,14913.0,13828.0,1.7273284196853638,-0.11033434388650054,0.07216314505741236,0.0571927350592207,-0.003426808398216963,-0.002885363297536969,0.0
280,5,0.0002079637924907729,-4.747534603666281e-06,0.00020175005192868412,0.00624799495562911,0.00013333582319319248,0.005637662950903177,-0.025338364765048027,0.04452547803521156,0.01430060900747776,0.006206837948411703,0.3392103314399719,0.03167376294732094,0.0,0.0,0.0,-0.0007090819417499006,0.006122885271906853,-0.0,0.0,0.0,0.0,0.0074300142005085945,-0.004885121714323759,0.0009275277843698859,13759.0,13046.0,15333.0,13352.0,0.42325565218925476,0.37798938155174255,0.5321892499923706,0.3970550000667572,0.0,0.0,0.0,0.0,13156.0,13649.0,14913.0,13828.0,1.7195993661880493,-0.11001112693681024,0.07352643871710059,0.05676934613502938,-0.025370702147483826,-0.002260123612359166,-0.0
285,5,0.00020832312293350697,-4.141363751841709e-05,0.00019049416005145758,0.0025423183105885983,0.004453266970813274,0.0036057725083082914,-0.025323785841464996,0.04014686122536659,0.014113225974142551,-0.019429344683885574,0.3599090576171875,-0.028012307360768318,0.0,0.0,0.0,-0.0007090819417499006,0.006122885271906853,-0.0,0.0,0.0,0.0,0.007915481925010681,-0.0019430351676419377,0.000223198308958672,13423.0,13323.0,14643.0,14186.0,0.40155014395713806,0.3952743113040924,0.48289385437965393,0.4515549838542938,0.0,0.0,0.0,0.0,13895.0,12896.0,15181.0,13544.0,1.7195993661880493,-0.11067628796357616,0.07494167885527614,0.057444192220086024,-0.025370702147483826,-0.002260123612359166,-0.0
290,5,0.0002429903979646042,-3.5934797779191285e-05,0.00017988463514484465,0.005176999140530825,0.0011238460429012775,0.002715450944378972,-0.025323785841464996,0.04014686122536659,0.014113225974142551,-0.019429344683885574,0.3599090576171875,-0.028012307360768318,0.0,0.0,0.0,-0.00532285263761878,0.002583719789981842,-0.0,0.0,0.0,0.0,0.007915481925010681,-0.0019430351676419377,0.000223198308958672,13423.0,13323.0,14643.0,14186.0,0.40155014395713806,0.3952743113040924,0.48289385437965393,0.4515549838542938,0.0,0.0,0.0,0.0,13895.0,12896.0,15181.0,13544.0,1.7156705856323242,-0.11023636443837352,0.07651817479895234,0.058325789767872116,-0.01068131159991026,-0.016927123069763184,-0.0
295,5,0.00023810294806025922,-4.267756958142854e-05,0.00016518430493306369,0.0014843071112409234,0.0012586709344759583,0.002850220538675785,-0.025407051667571068,0.037399888038635254,0.014109982177615166,-0.014292369596660137,0.32688045501708984,-0.019394343718886375,0.0,0.0,0.0,-0.00532285263761878,0.002583719789981842,-0.0,0.0,0.0,0.0,0.0077268583700060844,-0.0033230921253561974,0.0017848568968474865,13715.0,13035.0,15079.0,13647.0,0.42035993933677673,0.3772794306278229,0.5137438774108887,0.4159452021121979,0.0,0.0,0.0,0.0,13595.0,13157.0,15043.0,13689.0,1.7156705856323242,-0.11062391105789048,0.07742833487286407,0.05816896733509259,-0.01068131159991026,-0.016927123069763184,-0.0
300,5,0.00021432367793750018,-5.3370305977296084e-05,0.00022355650435201824,-0.0022597908973693848,0.0017865966074168682,-0.0058645750395953655,-0.025407051667571068,0.037399888038635254,0.014109982177615166,-0.014292369596660137,0.32688045501708984,-0.019394343718886375,0.0,0.0,0.0,-0.0015580466715618968,0.001663893461227417,-0.0,0.0,0.0,0.0,0.0077268583700060844,-0.0033230921253561974,0.0017848568968474865,13715.0,13035.0,15079.0,13647.0,0.42035993933677673,0.3772794306278229,0.5137438774108887,0.4159452021121979,0.0,0.0,0.0,0.0,13595.0,13157.0,15043.0,13689.0,1.7155770063400269,-0.11197140115575388,0.07934836609900947,0.05793633859120899,-0.006878391839563847,-0.004954489413648844,-0.0
305,5,0.00023746276565361768,-3.477721838862635e-05,0.00017826100520323962,0.0018727746792137623,-0.0015165319200605154,0.0030896298121660948,-0.02556554041802883,0.03427574783563614,0.01370730809867382,-0.000311113748466596,0.1947152018547058,0.002893804805353284,0.0,0.0,0.0,-0.0015580466715618968,0.001663893461227417,-0.0,0.0,0.0,0.0,0.007884116843342781,-0.003686110954731703,0.0011457821819931269,13667.0,13021.0,15114.0,13550.0,0.4172179698944092,0.37640225887298584,0.5162531137466431,0.40972602367401123,0.0,0.0,0.0,0.0,13478.0,13364.0,15078.0,13384.0,1.7155770063400269,-0.11068526934462086,0.0790624371057947,0.05816851585807772,-0.006878391839563847,-0.004954489413648844,-0.0
310,5,0.00022579797951038927,-3.9643931813770905e-05,0.000191224055015482,-0.000650664500426501,-2.260699875478167e-05,-0.00031971486168913543,-0.02556554041802883,0.03427574783563614,0.01370730809867382,-0.000311113748466596,0.1947152018547058,0.002893804805353284,0.0,0.0,0.0,0.0017368437256664038,0.0020256107673048973,-0.0,0.0,0.0,0.0,0.007884116843342781,-0.003686110954731703,0.0011457821819931269,13667.0,13021.0,15114.0,13550.0,0.4172179698944092,0.37640225887298584,0.5162531137466431,0.40972602367401123,0.0,0.0,0.0,0.0,13478.0,13364.0,15078.0,13384.0,1.7071279287338257,-0.11267577132079941,0.07847048854327242,0.058151720919378855,-0.008332455530762672,0.005495851393789053,-0.0
315,5,0.00021755826310254633,-3.548555832821876e-05,0.0002380598452873528,-0.0012490315129980445,-0.000508047582115978,-0.005748181603848934,-0.025626132264733315,0.0331847257912159,0.013339084573090076,-0.014388304203748703,0.08764728903770447,-0.0509389229118824,0.0,0.0,0.0,0.0017368437256664038,0.0020256107673048973,-0.0,0.0,0.0,0.0,0.006519206799566746,-0.006919343955814838,-0.00035602107527665794,12893.0,13914.0,14730.0,13782.0,0.36855649948120117,0.43339699506759644,0.48899686336517334,0.42472022771835327,0.0,0.0,0.0,0.0,12912.0,13890.0,14812.0,13700.0,1.7071279287338257,-0.11278537416246129,0.07905353270472208,0.05790375846044403,-0.008332455530762672,0.005495851393789053,-0.0
321,5,0.0002238649467471987,-1.2967846487299539e-05,0.00020550517365336418,0.00025718912365846336,-0.0029053445905447006,0.0016072893049567938,-0.025626132264733315,0.0331847257912159,0.013339084573090076,-0.014388304203748703,0.08764728903770447,-0.0509389229118824,0.0,0.0,0.0,0.0005428766016848385,-0.0008505802834406495,-0.0,0.0,0.0,0.0,0.006519206799566746,-0.006919343955814838,-0.00035602107527665794,12893.0,13914.0,14730.0,13782.0,0.36855649948120117,0.43339699506759644,0.48899686336517334,0.42472022771835327,0.0,0.0,0.0,0.0,12912.0,13890.0,14812.0,13700.0,1.6993790864944458,-0.11209469461073582,0.07922660673635092,0.05809465817803324,0.003483031177893281,0.0017100149998441339,0.0
326,5,0.00021157001901883632,-3.945177923014853e-06,0.00021712324814870954,-0.0013725156895816326,-0.002244858071208,-0.0007512532756663859,-0.025698721408843994,0.03241879492998123,0.01296482514590025,-0.009823922999203205,0.0344565287232399,-0.04021204635500908,0.0,0.0,0.0,0.0005428766016848385,-0.0008505802834406495,-0.0,0.0,0.0,0.0,0.0074724480509757996,-0.00847690925002098,0.0005663937772624195,12966.0,13707.0,15095.0,13520.0,0.3730475902557373,0.419833779335022,0.5149324536323547,0.40776318311691284,0.0,0.0,0.0,0.0,12371.0,14241.0,14633.0,14023.0,1.6993790864944458,-0.11158629083061189,0.08016076174383581,0.057635589737124814,0.003483031177893281,0.0017100149998441339,0.0
331,5,0.0001920232898555696,-1.7453226064390037e-06,0.00021619172184728086,-0.0028946136590093374,-0.0011619258439168334,-0.0001887182443169877,-0.025698721408843994,0.03241879492998123,0.01296482514590025,-0.009823922999203205,0.0344565287232399,-0.04021204635500908,0.0,0.0,0.0,0.002678056014701724,-0.0009760557441040874,-0.0,0.0,0.0,0.0,0.0074724480509757996,-0.00847690925002098,0.0005663937772624195,12966.0,13707.0,15095.0,13520.0,0.3730475902557373,0.419833779335022,0.5149324536323547,0.40776318311691284,0.0,0.0,0.0,0.0,12371.0,14241.0,14633.0,14023.0,1.691498875617981,-0.11197646213667077,0.08074908222617831,0.05738283920135929,0.003978291526436806,0.0083965128287673,0.0
336,5,0.00018792456830851734,1.4793243281019386e-05,0.00020359554036986083,-0.00164969137404114,-0.002449398161843419,0.0014360545901581645,-0.02569509483873844,0.03226054832339287,0.012477659620344639,-0.0008150487556122243,0.000883893808349967,-0.0060674771666526794,0.0,0.0,0.0,0.002678056014701724,-0.0009760557441040874,-0.0,0.0,0.0,0.0,0.008012542501091957,-0.0094962939620018,-0.0006513223052024841,12983.0,13511.0,15264.0,13378.0,0.37408962845802307,0.4071756899356842,0.5271121859550476,0.3987504541873932,0.0,0.0,0.0,0.0,12933.0,13590.0,15252.0,13360.0,1.691498875617981,-0.11208098453364283,0.08017921201411893,0.05743033710924448,0.003978291526436806,0.0083965128287673,0.0
341,5,0.00012931493984069675,3.028878927580081e-05,0.00027285635587759316,-0.007693031802773476,-0.0028392246458679438,-0.007736877538263798,-0.02569509483873844,0.03226054832339287,0.012477659620344639,-0.0008150487556122243,0.000883893808349967,-0.0060674771666526794,0.0,0.0,0.0,0.002973671769723296,-0.0012705440167337656,-0.0,0.0,0.0,0.0,0.008012542501091957,-0.0094962939620018,-0.0006513223052024841,12983.0,13511.0,15264.0,13378.0,0.37408962845802307,0.4071756899356842,0.5271121859550476,0.3987504541873932,0.0,0.0,0.0,0.0,12933.0,13590.0,15252.0,13360.0,1.6812117099761963,-0.11215642936775029,0.08126705248823654,0.0561076048303527,0.005147092510014772,0.00926665123552084,-0.0
346,5,0.00012935859558638185,4.091899245395325e-05,0.0002711462730076164,-0.003071974264457822,-0.0024113142862915993,-0.002889540046453476,-0.02559543401002884,0.031949419528245926,0.01195363700389862,0.008080819621682167,0.036337725818157196,-0.0561617910861969,0.0,0.0,0.0,0.002973671769723296,-0.0012705440167337656,-0.0,0.0,0.0,0.0,0.008784017525613308,-0.0084063820540905,0.0006428416818380356,12392.0,14059.0,14734.0,13838.0,0.3386772871017456,0.4430133104324341,0.48926323652267456,0.42842525243759155,0.0,0.0,0.0,0.0,12828.0,13682.0,15087.0,13434.0,1.6812117099761963,-0.11222049969800263,0.08099396106396124,0.05640614614943076,0.005147092510014772,0.00926665123552084,-0.0
351,5,0.00013162055984139442,2.9096443540765904e-05,0.00025090633425861597,-0.0009573547285981476,0.00045418005902320147,0.0012729773297905922,-0.02559543401002884,0.031949419528245926,0.01195363700389862,0.008080819621682167,0.036337725818157196,-0.0561617910861969,0.0,0.0,0.0,0.002993751782923937,-0.002684231149032712,-0.0,0.0,0.0,0.0,0.008784017525613308,-0.0084063820540905,0.0006428416818380356,12392.0,14059.0,14734.0,13838.0,0.3386772871017456,0.4430133104324341,0.48926323652267456,0.42842525243759155,0.0,0.0,0.0,0.0,12828.0,13682.0,15087.0,13434.0,1.670119047164917,-0.11196860832788906,0.08089927760480302,0.056634291309615024,0.010802313685417175,0.009267671033740044,0.0
356,5,0.00010752269736258313,3.6951430956833065e-05,0.0002678210730664432,-0.003274685237556696,-0.0007609263411723077,-0.001520577585324645,-0.02559543401002884,0.031949419528245926,0.01195363700389862,0.008080819621682167,0.036337725818157196,-0.0561617910861969,0.0,0.0,0.0,0.002993751782923937,-0.002684231149032712,-0.0,0.0,0.0,0.0,0.008784017525613308,-0.0084063820540905,0.0006428416818380356,12392.0,14059.0,14734.0,13838.0,0.3386772871017456,0.4430133104324341,0.48926323652267456,0.42842525243759155,0.0,0.0,0.0,0.0,12828.0,13682.0,15087.0,13434.0,1.670119047164917,-0.11169270018763244,0.08212478245829528,0.05606081770402844,0.010802313685417175,0.009267671033740044,0.0
361,5,6.123043567640707e-05,3.513756382744759e-05,0.0003205540415365249,-0.006864944938570261,-8.670640818309039e-05,-0.006936187390238047,-0.025614870712161064,0.03156159818172455,0.01185169443488121,-0.007068198174238205,0.08832471072673798,-0.06385709345340729,0.0,0.0,0.0,0.002993751782923937,-0.002684231149032712,-0.0,0.0,0.0,0.0,0.00822528451681137,-0.007178105413913727,0.0011509946780279279,13205.0,13107.0,15173.0,13257.0,0.3878646194934845,0.38173195719718933,0.5204959511756897,0.39111921191215515,0.0,0.0,0.0,0.0,12223.0,14030.0,14572.0,14067.0,1.693556308746338,-0.11374487458768888,0.08278296965946233,0.05548664498240891,0.025145674124360085,0.0005286995437927544,0.0
366,5,8.188580977730453e-05,6.576920713996515e-05,0.0002849445736501366,-0.0002673334092833102,-0.0037104797083884478,0.001498660072684288,-0.025614870712161064,0.03156159818172455,0.01185169443488121,-0.007068198174238205,0.08832471072673798,-0.06385709345340729,0.0,0.0,0.0,0.00016842274635564536,-0.0061618974432349205,-0.0,0.0,0.0,0.0,0.00822528451681137,-0.007178105413913727,0.0011509946780279279,13205.0,13107.0,15173.0,13257.0,0.3878646194934845,0.38173195719718933,0.5204959511756897,0.39111921191215515,0.0,0.0,0.0,0.0,12223.0,14030.0,14572.0,14067.0,1.693556308746338,-0.11180039532805995,0.08356052354419789,0.055882808598824975,0.025145674124360085,0.0005286995437927544,0.0
371,5,5.7686713262228295e-05,7.482914952561259e-05,0.00029678604914806783,-0.003010824555531144,-0.0025713848881423473,-0.0008215108537115157,-0.025531329214572906,0.03043559193611145,0.011301307938992977,0.021001476794481277,0.12594391405582428,0.0022043432109057903,0.0,0.0,0.0,0.00016842274635564536,-0.0061618974432349205,-0.0,0.0,0.0,0.0,0.008489327505230904,-0.006360085215419531,-0.000606297398917377,12379.0,13767.0,14468.0,13978.0,0.33793777227401733,0.4237474799156189,0.47078680992126465,0.4376469850540161,0.0,0.0,0.0,0.0,13013.0,13252.0,15039.0,13455.0,1.693556308746338,-0.11173312761839656,0.0845790884954638,0.05543788330502597,0.010966619476675987,0.010054833255708218,0.0
376,5,5.526404856937006e-05,8.659038576297462e-05,0.00027884915471076965,-0.0014950498007237911,-0.002439902862533927,0.0018238202901557088,-0.025531329214572906,0.03043559193611145,0.011301307938992977,0.021001476794481277,0.12594391405582428,0.0022043432109057903,0.0,0.0,0.0,0.0032560760155320168,-0.002731810323894024,-0.0,0.0,0.0,0.0,0.008489327505230904,-0.006360085215419531,-0.000606297398917377,12379.0,13767.0,14468.0,13978.0,0.33793777227401733,0.4237474799156189,0.47078680992126465,0.4376469850540161,0.0,0.0,0.0,0.0,13013.0,13252.0,15039.0,13455.0,1.6659929752349854,-0.11164341414587539,0.08483123397018212,0.05556375250836874,0.010966619476675987,0.010054833255708218,0.0
381,5,4.5099350245436653e-05,9.820352715905756e-05,0.0002980863209813833,-0.001817783690057695,-0.0023695374839007854,-0.0015789298340678215,-0.02544792927801609,0.029293254017829895,0.010859193280339241,0.00590550946071744,0.13212735950946808,-0.06342628598213196,0.0,0.0,0.0,0.0032560760155320168,-0.002731810323894024,-0.0,0.0,0.0,0.0,0.0078260637819767,-0.007638989947736263,0.0006063506007194519,12648.0,13810.0,14751.0,13752.0,0.35383492708206177,0.4265294671058655,0.4904184341430664,0.42277348041534424,0.0,0.0,0.0,0.0,12960.0,13218.0,14940.0,13477.0,1.6659929752349854,-0.111924060238691,0.08589792778640012,0.0553462668296307,0.006561788730323315,0.00942680798470974,0.0
386,5,4.0968308894662187e-05,8.619972504675388e-05,0.0002979822747875005,0.0006702045793645084,-0.0005817615310661495,-8.381659426959231e-06,-0.02544792927801609,0.029293254017829895,0.010859193280339241,0.00590550946071744,0.13212735950946808,-0.06342628598213196,0.0,0.0,0.0,0.003069548401981592,-0.0016435757279396057,-0.0,0.0,0.0,0.0,0.0078260637819767,-0.007638989947736263,0.0006063506007194519,12648.0,13810.0,14751.0,13752.0,0.35383492708206177,0.4265294671058655,0.4904184341430664,0.42277348041534424,0.0,0.0,0.0,0.0,12960.0,13218.0,14940.0,13477.0,1.656848669052124,-0.11170812717435395,0.08678250694855151,0.055053596739506716,0.006561788730323315,0.00942680798470974,0.0
391,5,1.7344287698506378e-05,8.386353874811903e-05,0.0003010817745234817,-0.00256680091843009,4.763772085425444e-05,-0.00037529319524765015,-0.02525920420885086,0.02674643136560917,0.010073661804199219,0.022499721497297287,0.08362377434968948,0.0012381298001855612,0.0,0.0,0.0,0.003069548401981592,-0.0016435757279396057,-0.0,0.0,0.0,0.0,0.008505127392709255,-0.006610861513763666,0.0012879417045041919,13184.0,12983.0,15183.0,13146.0,0.3865523338317871,0.3740847110748291,0.5212190747261047,0.3841368556022644,0.0,0.0,0.0,0.0,12288.0,14164.0,14313.0,14173.0,1.656848669052124,-0.1122011919402883,0.0875970506410196,0.055010511556748465,0.006561788730323315,0.00942680798470974,0.0
396,5,1.7344287698506378e-05,8.386353874811903e-05,0.0003010817745234817,-0.00256680091843009,4.763772085425444e-05,-0.00037529319524765015,-0.02525920420885086,0.02674643136560917,0.010073661804199219,0.022499721497297287,0.08362377434968948,0.0012381298001855612,0.0,0.0,0.0,9.271452290704474e-05,-0.0023929697927087545,-0.0,0.0,0.0,0.0,0.008505127392709255,-0.006610861513763666,0.0012879417045041919,13184.0,12983.0,15183.0,13146.0,0.3865523338317871,0.3740847110748291,0.5212190747261047,0.3841368556022644,0.0,0.0,0.0,0.0,12288.0,14164.0,14313.0,14173.0,1.6515586376190186,-0.1122011919402883,0.0875970506410196,0.055010511556748465,0.009523195214569569,0.0002838247746694833,0.0
402,5,-3.78584923055314e-06,7.956523768370971e-05,0.00032251467928290367,-0.003562336787581444,0.0005348512204363942,-0.0027220663614571095,-0.024999966844916344,0.02553464099764824,0.009309490211308002,0.01022917777299881,0.08112058788537979,-0.06814245879650116,0.0,0.0,0.0,9.271452290704474e-05,-0.0023929697927087545,-0.0,0.0,0.0,0.0,0.008442400954663754,-0.005956998560577631,-0.001628337660804391,12096.0,13929.0,14139.0,14199.0,0.3216199576854706,0.43440982699394226,0.44838979840278625,0.4524290859699249,0.0,0.0,0.0,0.0,12760.0,13402.0,14756.0,13623.0,1.6515586376190186,-0.11162869568327596,0.08871108536536566,0.05403712528026891,0.009523195214569569,0.0002838247746694833,0.0
407,5,-1.351875744148856e-05,8.352865552296862e-05,0.00035310586099512875,-0.002592883538454771,-0.0002616689307615161,-0.004759768955409527,-0.024999966844916344,0.02553464099764824,0.009309490211308002,0.01022917777299881,0.08112058788537979,-0.06814245879650116,0.0,0.0,0.0,-0.0005084733129478991,-0.0033387925941497087,-0.0,0.0,0.0,0.0,0.008442400954663754,-0.005956998560577631,-0.001628337660804391,12096.0,13929.0,14139.0,14199.0,0.3216199576854706,0.43440982699394226,0.44838979840278625,0.4524290859699249,0.0,0.0,0.0,0.0,12760.0,13402.0,14756.0,13623.0,1.6621801853179932,-0.11198799326263173,0.08987942819571562,0.054118731580573495,0.013372683897614479,-0.001566588063724339,0.0
412,5,-5.332617729436606e-05,7.039573392830789e-05,0.00039839817327447236,-0.0058140442706644535,0.0014712829142808914,-0.007338984403759241,-0.024905657395720482,0.024539517238736153,0.009195986203849316,-0.009712176397442818,0.08704546093940735,-0.07945900410413742,0.0,0.0,0.0,-0.0005084733129478991,-0.0033387925941497087,-0.0,0.0,0.0,0.0,0.007616930175572634,-0.005555746611207724,0.0001440374762751162,12437.0,13667.0,14349.0,13867.0,0.34135186672210693,0.4172649383544922,0.46262210607528687,0.43031972646713257,0.0,0.0,0.0,0.0,12699.0,13369.0,14698.0,13634.0,1.6621801853179932,-0.11250974370825383,0.09083737820179213,0.053421476331713895,0.013372683897614479,-0.001566588063724339,0.0
417,5,-7.180283137131482e-05,5.595933544100262e-05,0.0003551884146872908,-0.002838214859366417,0.0014616844709962606,0.0017926633590832353,-0.024905657395720482,0.024539517238736153,0.009195986203849316,-0.009712176397442818,0.08704546093940735,-0.07945900410413742,0.0,0.0,0.0,-0.001640118076466024,-0.005434175953269005,-0.0,0.0,0.0,0.0,0.007616930175572634,-0.005555746611207724,0.0001440374762751162,12437.0,13667.0,14349.0,13867.0,0.34135186672210693,0.4172649383544922,0.46262210607528687,0.43031972646713257,0.0,0.0,0.0,0.0,12699.0,13369.0,14698.0,13634.0,1.6869336366653442,-0.11133687592109819,0.09137326076841663,0.05308814162751007,0.022089244797825813,-0.0051283929497003555,0.0
422,5,-0.00010548817226663232,4.584769703797065e-05,0.0003406822797842324,-0.005177527200430632,0.001798070385120809,0.0024578014854341745,-0.024836592376232147,0.02335524745285511,0.008438291028141975,-0.0026737204752862453,0.06117942929267883,-0.0021447250619530678,0.0,0.0,0.0,-0.001640118076466024,-0.005434175953269005,-0.0,0.0,0.0,0.0,0.007137133274227381,-0.005600710865110159,0.0005984832532703876,12933.0,13251.0,14740.0,13400.0,0.3710503578186035,0.3907141089439392,0.4896714687347412,0.4001227021217346,0.0,0.0,0.0,0.0,11959.0,14119.0,13828.0,14352.0,1.6869336366653442,-0.11097967910962105,0.09188930964852608,0.052995627986125976,0.022089244797825813,-0.0051283929497003555,0.0
427,5,-0.00011641914170468226,4.670369526138529e-05,0.00036505042226053774,-0.0033827272709459066,0.0006165083032101393,-0.0019410587847232819,-0.024836592376232147,0.02335524745285511,0.008438291028141975,-0.0026737204752862453,0.06117942929267883,-0.0021447250619530678,0.0,0.0,0.0,-0.0020806489046663046,-0.004930640105158091,-0.0,0.0,0.0,0.0,0.007137133274227381,-0.005600710865110159,0.0005984832532703876,12933.0,13251.0,14740.0,13400.0,0.3710503578186035,0.3907141089439392,0.4896714687347412,0.4001227021217346,0.0,0.0,0.0,0.0,11959.0,14119.0,13828.0,14352.0,1.6824836730957031,-0.10998636948007422,0.09327008929279695,0.05243518625754857,0.01998956687748432,-0.0064886994659900665,-0.0
432,5,-0.0001806783548090607,1.729277937556617e-05,0.00038460627547465265,-0.009064195677638054,0.0037759135011583567,-0.0031231234315782785,-0.024777473881840706,0.022739803418517113,0.007904679514467716,0.012020646594464779,0.05192446708679199,-0.10903964191675186,0.0,0.0,0.0,-0.0020806489046663046,-0.004930640105158091,-0.0,0.0,0.0,0.0,0.007115253247320652,-0.0064211259596049786,-0.0018190863775089383,11803.0,14375.0,13804.0,14405.0,0.3051842451095581,0.4643855690956116,0.42614442110061646,0.46646595001220703,0.0,0.0,0.0,0.0,13027.0,13218.0,14932.0,13296.0,1.6824836730957031,-0.11161870972611547,0.0927484270077232,0.051902602430176165,0.01998956687748432,-0.0064886994659900665,-0.0
437,5,-0.000165587363881059,3.1637777283322066e-05,0.00033434873330406845,-0.0018147596856579185,-0.00021103446488268673,0.004781655035912991,-0.024777473881840706,0.022739803418517113,0.007904679514467716,0.012020646594464779,0.05192446708679199,-0.10903964191675186,0.0,0.0,0.0,-0.004393085837364197,-0.008405657485127449,-0.0,0.0,0.0,0.0,0.007115253247320652,-0.0064211259596049786,-0.0018190863775089383,11803.0,14375.0,13804.0,14405.0,0.3051842451095581,0.4643855690956116,0.42614442110061646,0.46646595001220703,0.0,0.0,0.0,0.0,13027.0,13218.0,14932.0,13296.0,1.7269906997680664,-0.11027301986700982,0.09239618604064109,0.052683899356135,0.034978751093149185,-0.014062603004276752,0.0
442,5,-0.00018386005831416696,3.539494355209172e-05,0.0003499871527310461,-0.002918626880273223,-0.0005352735752239823,3.6050070775672793e-05,-0.024731358513236046,0.022416314110159874,0.0073864092119038105,-0.009000699035823345,0.01640363782644272,-0.08454083651304245,0.0,0.0,0.0,-0.004393085837364197,-0.008405657485127449,-0.0,0.0,0.0,0.0,0.00724050821736455,-0.00855197012424469,0.0005999935674481094,12490.0,13961.0,14650.0,13749.0,0.344455748796463,0.43653497099876404,0.4833807647228241,0.4225621521472931,0.0,0.0,0.0,0.0,12624.0,13871.0,14688.0,13678.0,1.7269906997680664,-0.11014223564544286,0.09314973366097604,0.05207422674227991,0.034978751093149185,-0.014062603004276752,0.0
447,5,-0.00023436064657289535,3.2706884667277336e-05,0.00035809175460599363,-0.007227521389722824,0.00010845746874110773,-0.0009581308113411069,-0.024731358513236046,0.022416314110159874,0.0073864092119038105,-0.009000699035823345,0.01640363782644272,-0.08454083651304245,0.0,0.0,0.0,0.0007168967858888209,-0.0029901997186243534,-0.0,0.0,0.0,0.0,0.00724050821736455,-0.00855197012424469,0.0005999935674481094,12490.0,13961.0,14650.0,13749.0,0.344455748796463,0.43653497099876404,0.4833807647228241,0.4225621521472931,0.0,0.0,0.0,0.0,12624.0,13871.0,14688.0,13678.0,1.658644437789917,-0.1096086067376161,0.0931334894498569,0.051448120891784764,0.01195101160556078,0.002204034710302949,-0.0
452,5,-0.000267867959337309,1.3695675079361536e-05,0.0003771176270674914,-0.006911888252943754,0.00232472806237638,-0.0026663574390113354,-0.024741727858781815,0.022373219951987267,0.006708771921694279,0.02135736308991909,-0.03168167546391487,0.008600504137575626,0.0,0.0,0.0,0.0007168967858888209,-0.0029901997186243534,-0.0,0.0,0.0,0.0,0.0067113246768713,-0.00904077384620905,0.0003024161560460925,12895.0,13635.0,15046.0,13195.0,0.36873066425323486,0.41514307260513306,0.5114030838012695,0.3872068524360657,0.0,0.0,0.0,0.0,11751.0,14566.0,13989.0,14373.0,1.658644437789917,-0.10967872184314593,0.09280665386498337,0.05098118890191946,0.01195101160556078,0.002204034710302949,-0.0
458,5,-0.0003060942981392145,-2.1005611415603198e-05,0.00044368222006596625,-0.007351913955062628,0.005094045773148537,-0.009054293856024742,-0.024741727858781815,0.022373219951987267,0.006708771921694279,0.02135736308991909,-0.03168167546391487,0.008600504137575626,0.0,0.0,0.0,-0.0027370441239327192,-0.006674009375274181,-0.0,0.0,0.0,0.0,0.0067113246768713,-0.00904077384620905,0.0003024161560460925,12895.0,13635.0,15046.0,13195.0,0.36873066425323486,0.41514307260513306,0.5114030838012695,0.3872068524360657,0.0,0.0,0.0,0.0,11751.0,14566.0,13989.0,14373.0,1.7030912637710571,-0.11136599655097609,0.09299347715909288,0.050535632385874496,0.02738872356712818,-0.008640269748866558,0.0
463,5,-0.0003651702718343586,-4.867972165811807e-05,0.0004460514464881271,-0.010029882192611694,0.005358511582016945,-0.0039060241542756557,-0.02462920732796192,0.022305238991975784,0.0058409059420228004,0.030429016798734665,0.03310551866889,-0.14456775784492493,0.0,0.0,0.0,-0.0027370441239327192,-0.006674009375274181,-0.0,0.0,0.0,0.0,0.005827432032674551,-0.008730710484087467,-0.002623623935505748,11585.0,15182.0,13753.0,14742.0,0.2931855618953705,0.5211455225944519,0.4228604733943939,0.4897991120815277,0.0,0.0,0.0,0.0,12235.0,13955.0,14181.0,14040.0,1.7030912637710571,-0.11131221262656728,0.09334331808163471,0.050286507859632505,0.02738872356712818,-0.008640269748866558,0.0
468,5,-0.00038010324351489544,-2.586308983154595e-05,0.00044027785770595074,-0.0058039105497300625,-0.0005945913144387305,-0.0008695798460394144,-0.02462920732796192,0.022305238991975784,0.0058409059420228004,0.030429016798734665,0.03310551866889,-0.14456775784492493,0.0,0.0,0.0,-0.006294406484812498,-0.00942167267203331,-0.0,0.0,0.0,0.0,0.005827432032674551,-0.008730710484087467,-0.002623623935505748,11585.0,15182.0,13753.0,14742.0,0.2931855618953705,0.5211455225944519,0.4228604733943939,0.4897991120815277,0.0,0.0,0.0,0.0,12235.0,13955.0,14181.0,14040.0,1.7451138496398926,-0.11108281777695798,0.0934486121328669,0.050258293000754094,0.039617642760276794,-0.020360192283988,0.0
