timestamp,dt,pos_x,pos_y,pos_z,vel_x,vel_y,vel_z,roll,pitch,yaw,agv_x,agv_y,agv_z,x_ref,y_ref,z_ref,roll_ref,pitch_ref,yaw_ref,x_vel_ref,y_vel_ref,z_vel_ref,x_torque,y_torque,z_torque,w0,w1,w2,w3,u0,u1,u2,u3,m0req,m1req,m2req,m3req,thrust0,thrust1,thrust2,thrust3,thrust_ref,roll_vicon,pitch_vicon,yaw_vicon,acc_x,acc_y,acc_z
5,5,0.0,0.0,0.0,0.0036730775609612465,0.0018431986682116985,0.007867726497352123,0.0,0.0,0.0,0.0,0.0,0.0,0.0,0.0,0.0,-0.002236398635432124,0.003428191877901554,-0.0,0.0,0.0,0.0,0.0,0.0,0.0,0.0,0.0,0.0,0.0,0.0,0.0,0.0,0.0,0.0,0.0,0.0,0.0,0.0,0.0,0.0,0.0,1.6674249172210693,0.0008879834599238395,-0.08888154655531297,0.03646877717383767,-0.013774041086435318,-0.006911994889378548,0.0
43,37,0.0,0.0,0.0,0.0007986663258634508,0.001180662657134235,-0.0012318282388150692,0.0,0.0,0.0,0.0,0.0,0.0,0.0,0.0,0.0,-0.002236398635432124,0.003428191877901554,-0.0,0.0,0.0,0.0,0.0,0.0,0.0,0.0,0.0,0.0,0.0,0.0,0.0,0.0,0.0,0.0,0.0,0.0,0.0,0.0,0.0,0.0,0.0,1.6674249172210693,0.0023279863732865095,-0.08860538115177823,0.036972619403259736,-0.013774041086435318,-0.006911994889378548,0.0
48,5,0.0,0.0,0.0,0.00350781437009573,0.004290880635380745,0.006757109891623259,0.0,0.0,0.0,0.0,0.0,0.0,0.0,0.0,0.0,-0.001456262543797493,0.0007577677024528384,-0.0,0.0,0.0,0.0,0.0,0.0,0.0,0.0,0.0,0.0,0.0,0.0,0.0,0.0,0.0,0.0,0.0,0.0,0.0,0.0,0.0,0.0,0.0,1.6402466297149658,0.00018587992443043095,-0.08940177491174037,0.0363098001494737,-0.002994998823851347,-0.004427485167980194,0.0
53,5,0.0,0.0,0.0,0.0038160711992532015,0.00042870521428994834,0.004998448770493269,0.0,0.0,0.0,0.0,0.0,0.0,0.0,0.0,0.0,-0.001456262543797493,0.0007577677024528384,-0.0,0.0,0.0,0.0,0.0,0.0,0.0,0.0,0.0,0.0,0.0,0.0,0.0,0.0,0.0,0.0,0.0,0.0,0.0,0.0,0.0,0.0,0.0,1.6402466297149658,0.0016573502901014304,-0.08890733057280874,0.0367223442699024,-0.002994998823851347,-0.004427485167980194,0.0
58,5,0.0,0.0,0.0,0.0008567096083424985,-0.002441409742459655,0.00031985301757231355,0.0,0.0,0.0,0.0,0.0,0.0,0.0,0.0,0.0,-0.0005210087401792407,0.0035674695391207933,-0.0,0.0,0.0,0.0,0.0,0.0,0.0,0.0,0.0,0.0,0.0,0.0,0.0,0.0,0.0,0.0,0.0,0.0,0.0,0.0,0.0,0.0,0.0,1.6647021770477295,0.0012382471809350552,-0.08903448386560524,0.036989323895922195,-0.014310266822576523,-0.0016076446045190096,0.0
63,5,4.945195541949943e-06,-7.132706286938628e-06,5.495614459505305e-06,0.0009361073025502264,-0.0001206391243613325,-0.0005315325106494129,0.0,0.0,0.0,0.0,0.0,0.0,0.0,0.0,0.0,-0.0005210087401792407,0.0035674695391207933,-0.0,0.0,0.0,0.0,0.0,0.0,0.0,0.0,0.0,0.0,0.0,0.0,0.0,0.0,0.0,0.0,0.0,0.0,0.0,0.0,0.0,0.0,0.0,1.6647021770477295,0.0013193354967482801,-0.08837415742303667,0.03672263155391413,-0.014310266822576523,-0.0016076446045190096,0.0
68,5,-7.2378047661914025e-06,-1.699916538200341e-05,1.668338882154785e-05,-0.0010875171283259988,0.0011357194744050503,-0.001555145950987935,0.0,0.0,0.0,0.0,0.0,0.0,0.0,0.0,0.0,0.0001362898328807205,0.0008977015386335552,-0.0,0.0,0.0,0.0,0.0,0.0,0.0,0.0,0.0,0.0,0.0,0.0,0.0,0.0,0.0,0.0,0.0,0.0,0.0,0.0,0.0,0.0,0.0,1.6354119777679443,0.0019327413765342365,-0.08973950931308555,0.03694980269379857,-0.0035376183222979307,0.0004131418536417186,0.0
73,5,-2.3525151846115477e-05,-1.4400724467122927e-05,5.431185127235949e-05,-0.002389488508924842,0.00014247478975448757,-0.005137473810464144,0.0,0.0,0.0,0.0,0.0,0.0,0.0,0.0,0.0,0.0001362898328807205,0.0008977015386335552,-0.0,0.0,0.0,0.0,0.0,0.0,0.0,0.0,0.0,0.0,0.0,0.0,0.0,0.0,0.0,0.0,0.0,0.0,0.0,0.0,0.0,0.0,0.0,1.6354119777679443,0.0012797303423224817,-0.08866253667728326,0.03665651097850171,-0.0035376183222979307,0.0004131418536417186,0.0
78,5,-1.739252547849901e-05,-3.794378244492691e-06,3.785357330343686e-05,-0.00021988018124829978,-0.0012157716555520892,-7.99962945166044e-05,0.0,0.0,0.0,0.0,0.0,0.0,0.0,0.0,0.0,-0.00020056286302860826,-0.0022856842260807753,-0.0,0.0,0.0,0.0,0.0,0.0,0.0,0.0,0.0,0.0,0.0,0.0,0.0,0.0,0.0,0.0,0.0,0.0,0.0,0.0,0.0,0.0,0.0,1.6504327058792114,0.0026794257568001374,-0.08915304457830504,0.0374957466381683,0.00909003522247076,-0.0006135597941465676,0.0
83,5,-5.025525297241984e-06,-2.2610562155023217e-05,2.71187109319726e-05,0.0013960879296064377,0.0017716333968564868,0.0012561852345243096,0.0,0.0,0.0,0.0,0.0,0.0,0.0,0.0,0.0,-0.00020056286302860826,-0.0022856842260807753,-0.0,0.0,0.0,0.0,0.0,0.0,0.0,0.0,0.0,0.0,0.0,0.0,0.0,0.0,0.0,0.0,0.0,0.0,0.0,0.0,0.0,0.0,0.0,1.6504327058792114,0.0003519905669657591,-0.08847799515779883,0.036525023294450315,0.00909003522247076,-0.0006135597941465676,0.0
88,5,-2.5053346689674072e-05,3.904480308847269e-06,3.937929795938544e-05,-0.0018449033377692103,-0.0024731517769396305,-0.0009687963756732643,0.0,0.0,0.0,0.0,0.0,0.0,0.0,0.0,0.0,-0.0022144673857837915,0.0013106763362884521,-0.0,0.0,0.0,0.0,0.0,0.0,0.0,0.0,0.0,0.0,0.0,0.0,0.0,0.0,0.0,0.0,0.0,0.0,0.0,0.0,0.0,0.0,0.0,1.6488912105560303,0.002424597311205077,-0.08904452483890657,0.03693427958864351,-0.005207606591284275,-0.0067681376822292805,-0.0
93,5,-1.4748545254406054e-05,-5.277599939290667e-06,2.2228312445804477e-05,0.000498614739626646,0.00011258893209742382,0.0016705996822565794,0.0,0.0,0.0,0.0,0.0,0.0,0.0,0.0,0.0,-0.0022144673857837915,0.0013106763362884521,-0.0,0.0,0.0,0.0,0.0,0.0,0.0,0.0,0.0,0.0,0.0,0.0,0.0,0.0,0.0,0.0,0.0,0.0,0.0,0.0,0.0,0.0,0.0,1.6488912105560303,0.0022132644502663025,-0.08836856583172586,0.036679059465703864,-0.005207606591284275,-0.0067681376822292805,-0.0
98,5,-2.551104626036249e-05,-2.2553858798346482e-05,-3.717221943588811e-06,-0.001092054066248238,0.0021181865595281124,0.0037817039992660284,0.0,0.0,0.0,0.0,0.0,0.0,0.0,0.0,0.0,-0.00014933879720047116,0.00045515765668824315,-0.0,0.0,0.0,0.0,0.0,0.0,0.0,0.0,0.0,0.0,0.0,0.0,0.0,0.0,0.0,0.0,0.0,0.0,0.0,0.0,0.0,0.0,0.0,1.630753517150879,0.0016377507993502998,-0.09036826837208384,0.03709346079837135,-0.0017885540146380663,-0.00045140826841816306,-0.0
103,5,-3.747247319552116e-05,1.0885312804020941e-05,3.643246236606501e-05,-0.0018721928354352713,-0.003165425965562463,-0.0033052803482860327,0.0,0.0,0.0,0.0,0.0,0.0,0.0,0.0,0.0,-0.00014933879720047116,0.00045515765668824315,-0.0,0.0,0.0,0.0,0.0,0.0,0.0,0.0,0.0,0.0,0.0,0.0,0.0,0.0,0.0,0.0,0.0,0.0,0.0,0.0,0.0,0.0,0.0,1.630753517150879,0.0032551678931511552,-0.08919867860813845,0.037627265415694756,-0.0017885540146380663,-0.00045140826841816306,-0.0
109,5,-4.797250221599825e-05,1.612705636944156e-05,5.8016386901726946e-05,-0.0020088807214051485,-0.0018951797392219305,-0.003912183456122875,0.0,0.0,0.0,0.0,0.0,0.0,0.0,0.0,0.0,0.003869159845635295,-0.001802995684556663,-0.0,0.0,0.0,0.0,0.0,0.0,0.0,0.0,0.0,0.0,0.0,0.0,0.0,0.0,0.0,0.0,0.0,0.0,0.0,0.0,0.0,0.0,0.0,1.6634899377822876,0.0026946691242355613,-0.08878215346925498,0.037163112931652274,0.007227086927741766,0.011930081993341446,0.0
114,5,-2.6594751034281217e-05,5.962491741229314e-06,2.862758447008673e-05,0.0017617777921259403,0.0004616759833879769,0.001961783040314913,0.0,0.0,0.0,0.0,0.0,0.0,0.0,0.0,0.0,-0.0005574674578383565,0.0016308684134855866,-0.0,0.0,0.0,0.0,0.0,0.0,0.0,0.0,0.0,0.0,0.0,0.0,0.0,0.0,0.0,0.0,0.0,0.0,0.0,0.0,0.0,0.0,0.0,1.643858551979065,0.001695169983414382,-0.0894684808391898,0.037088371320191854,-0.0064600370824337006,-0.0016986052505671978,-0.0
122,8,-1.5405814792757155e-06,1.4800625649513677e-06,9.119764854403911e-08,0.0022663092240691185,-9.004555613500997e-05,0.0015372050693258643,0.0,0.0,0.0,0.0,0.0,0.0,0.0,0.0,0.0,-0.0005574674578383565,0.0016308684134855866,-0.0,0.0,0.0,0.0,0.0,0.0,0.0,0.0,0.0,0.0,0.0,0.0,0.0,0.0,0.0,0.0,0.0,0.0,0.0,0.0,0.0,0.0,0.0,1.643858551979065,0.0017416527252019545,-0.08900711897659515,0.03704091231440422,-0.0064600370824337006,-0.0016986052505671978,-0.0
127,5,6.710997695336118e-06,-1.6177977158804424e-05,-2.2174694095156156e-05,0.0018967131618410349,0.002082946477457881,0.0032867889385670424,0.0,0.0,0.0,0.0,0.0,0.0,0.0,0.0,0.0,-0.0005574674578383565,0.0016308684134855866,-0.0,0.0,0.0,0.0,0.0,0.0,0.0,0.0,0.0,0.0,0.0,0.0,0.0,0.0,0.0,0.0,0.0,0.0,0.0,0.0,0.0,0.0,0.0,1.643858551979065,0.0013338722576421655,-0.08883927743002283,0.036710102754713994,-0.0064600370824337006,-0.0016986052505671978,-0.0
132,5,-1.803218765417114e-05,-1.0123795618710574e-05,1.921227521961555e-05,-0.002210496924817562,0.00010667688184184954,-0.003651720704510808,0.0,0.0,0.0,0.0,0.0,0.0,0.0,0.0,0.0,-0.00257594115100801,0.0017931467154994607,-0.0,0.0,0.0,0.0,0.0,0.0,0.0,0.0,0.0,0.0,0.0,0.0,0.0,0.0,0.0,0.0,0.0,0.0,0.0,0.0,0.0,0.0,0.0,1.6546052694320679,0.0016632522899674973,-0.08903187712122376,0.03728611428043272,-0.007149249780923128,-0.007900198921561241,0.0
137,5,5.453535777633078e-06,-2.300057531101629e-05,-7.797251782903913e-06,0.0019340880680829287,0.0015878843842074275,0.0017804548842832446,0.0,0.0,0.0,0.0,0.0,0.0,0.0,0.0,0.0,-0.00257594115100801,0.0017931467154994607,-0.0,0.0,0.0,0.0,0.0,0.0,0.0,0.0,0.0,0.0,0.0,0.0,0.0,0.0,0.0,0.0,0.0,0.0,0.0,0.0,0.0,0.0,0.0,1.6546052694320679,0.00259155116106405,-0.08875327751960871,0.03701207467797312,-0.007149249780923128,-0.007900198921561241,0.0
142,5,-2.273992504342459e-05,-2.3212298401631415e-05,5.211262032389641e-05,-0.0026095800567418337,0.0006605605594813824,-0.006477002985775471,0.0,0.0,0.0,0.0,0.0,0.0,0.0,0.0,0.0,-0.001986660761758685,0.0018300546798855066,-0.0,0.0,0.0,0.0,0.0,0.0,0.0,0.0,0.0,0.0,0.0,0.0,0.0,0.0,0.0,0.0,0.0,0.0,0.0,0.0,0.0,0.0,0.0,1.6514527797698975,0.0009000292985173371,-0.08808008314661969,0.036201574169920994,-0.0072825090028345585,-0.006081320811063051,0.0
147,5,7.151773388613947e-06,-2.624402077344712e-05,1.3328387467481662e-05,0.0025431718677282333,0.0006280309171415865,0.0020633069798350334,0.0,0.0,0.0,0.0,0.0,0.0,0.0,0.0,0.0,-0.001986660761758685,0.0018300546798855066,-0.0,0.0,0.0,0.0,0.0,0.0,0.0,0.0,0.0,0.0,0.0,0.0,0.0,0.0,0.0,0.0,0.0,0.0,0.0,0.0,0.0,0.0,0.0,1.6514527797698975,0.0012055564872041848,-0.08931433522056154,0.036683696348770306,-0.009575938805937767,-0.002499801106750965,-0.0
152,5,-5.073722422821447e-05,2.9303697374416515e-05,8.585883915657178e-05,-0.005929410923272371,-0.006414514034986496,-0.00787833146750927,0.0,0.0,0.0,0.0,0.0,0.0,0.0,0.0,0.0,-0.0008160948636941612,0.0024047705810517073,-0.0,0.0,0.0,0.0,0.0,0.0,0.0,0.0,0.0,0.0,0.0,0.0,0.0,0.0,0.0,0.0,0.0,0.0,0.0,0.0,0.0,0.0,0.0,1.6525566577911377,0.003307508208364709,-0.0891644383251303,0.037681229580964704,-0.009575938805937767,-0.002499801106750965,-0.0
157,5,-1.8498018107493408e-05,3.897238002537051e-06,1.9794633772107773e-05,0.0014969403855502605,0.00048296956811100245,0.004776372108608484,0.0,0.0,0.0,0.0,0.0,0.0,0.0,0.0,0.0,-0.0008160948636941612,0.0024047705810517073,-0.0,0.0,0.0,0.0,0.0,0.0,0.0,0.0,0.0,0.0,0.0,0.0,0.0,0.0,0.0,0.0,0.0,0.0,0.0,0.0,0.0,0.0,0.0,1.6525566577911377,0.0015585420117166322,-0.0889860749254747,0.03686792792615688,-0.009575938805937767,-0.002499801106750965,-0.0
162,5,-1.9180166418664157e-05,5.57765451958403e-06,2.3346086891251616e-05,0.0005169182550162077,-8.462202458758838e-06,0.0014843742828816175,0.0,0.0,0.0,0.0,0.0,0.0,0.0,0.0,0.0,-0.0005883296253159642,0.0013934184098616242,-0.0,0.0,0.0,0.0,0.0,0.0,0.0,0.0,0.0,0.0,0.0,0.0,0.0,0.0,0.0,0.0,0.0,0.0,0.0,0.0,0.0,0.0,0.0,1.6414633989334106,0.002278256232962108,-0.08888733710893391,0.03706037163817362,-0.005511431954801083,-0.0017900303937494755,-0.0
167,5,6.495225079561351e-06,-2.723477518884465e-05,-1.6445954315713607e-05,0.003287814324721694,0.003934106789529324,0.005368794780224562,0.0,0.0,0.0,0.0,0.0,0.0,0.0,0.0,0.0,-0.004791423212736845,0.003057948313653469,-0.0,0.0,0.0,0.0,0.0,0.0,0.0,0.0,0.0,0.0,0.0,0.0,0.0,0.0,0.0,0.0,0.0,0.0,0.0,0.0,0.0,0.0,0.0,1.6780582666397095,0.001489438961302562,-0.08840528770855542,0.036629078004995985,-0.012364694848656654,-0.014903116039931774,0.0
173,5,5.328640781954164e-06,-1.764822991390247e-05,-1.2810253792849835e-05,0.0011751356068998575,0.0004232572391629219,0.00171123375184834,0.0,0.0,0.0,0.0,0.0,0.0,0.0,0.0,0.0,-0.004791423212736845,0.003057948313653469,-0.0,0.0,0.0,0.0,0.0,0.0,0.0,0.0,0.0,0.0,0.0,0.0,0.0,0.0,0.0,0.0,0.0,0.0,0.0,0.0,0.0,0.0,0.0,1.6780582666397095,0.002178279390483263,-0.0882277370616126,0.03702820348782875,-0.012364694848656654,-0.014903116039931774,0.0
178,5,-3.6110282053414267e-06,-3.164190275128931e-05,-1.8955490304506384e-05,-0.000602706044446677,0.0018485437612980604,0.0014219218865036964,0.0,0.0,0.0,0.0,0.0,0.0,0.0,0.0,0.0,-0.004791423212736845,0.003057948313653469,-0.0,0.0,0.0,0.0,0.0,0.0,0.0,0.0,0.0,0.0,0.0,0.0,0.0,0.0,0.0,0.0,0.0,0.0,0.0,0.0,0.0,0.0,0.0,1.6780582666397095,0.0010225179473165574,-0.08962231065803286,0.03700783560384166,-0.012364694848656654,-0.014903116039931774,0.0
183,5,9.048288120538928e-06,-2.0926223442074843e-05,-3.321074473205954e-05,0.0012780355755239725,-0.0005464642308652401,0.0022793991956859827,0.0,0.0,0.0,0.0,0.0,0.0,0.0,0.0,0.0,-0.002329321810975671,-0.0005749454721808434,-0.0,0.0,0.0,0.0,0.0,0.0,0.0,0.0,0.0,0.0,0.0,0.0,0.0,0.0,0.0,0.0,0.0,0.0,0.0,0.0,0.0,0.0,0.0,1.6459811925888062,0.0016131606168955555,-0.08978154295130426,0.03723685373537203,0.0022803538013249636,-0.007106604985892773,0.0
188,5,-3.535268842824735e-05,1.6064093870227225e-05,3.5710298107005656e-05,-0.00481690326705575,-0.004657423589378595,-0.0073587652295827866,0.0,0.0,0.0,0.0,0.0,0.0,0.0,0.0,0.0,-0.002329321810975671,-0.0005749454721808434,-0.0,0.0,0.0,0.0,0.0,0.0,0.0,0.0,0.0,0.0,0.0,0.0,0.0,0.0,0.0,0.0,0.0,0.0,0.0,0.0,0.0,0.0,0.0,1.6459811925888062,0.0036269821278102693,-0.08987156829089102,0.03816779200804885,0.0022803538013249636,-0.007106604985892773,0.0
193,5,2.861423672584351e-05,-4.7510158765362576e-05,-6.310821481747553e-05,0.005749269854277372,0.005765940528362989,0.008914715610444546,0.0,0.0,0.0,0.0,0.0,0.0,0.0,0.0,0.0,0.005590219981968403,-0.004472942091524601,-0.0,0.0,0.0,0.0,0.0,0.0,0.0,0.0,0.0,0.0,0.0,0.0,0.0,0.0,0.0,0.0,0.0,0.0,0.0,0.0,0.0,0.0,0.0,1.6940385103225708,0.0019303326336999778,-0.08969843155668096,0.03670334058522363,0.018258295953273773,0.017553212121129036,0.0
198,5,-1.9084600353380665e-05,1.5023822470539017e-06,1.0367441063863225e-05,-0.003424152499064803,-0.0035751285031437874,-0.0052511924877762794,0.0,0.0,0.0,0.0,0.0,0.0,0.0,0.0,0.0,0.005590219981968403,-0.004472942091524601,-0.0,0.0,0.0,0.0,0.0,0.0,0.0,0.0,0.0,0.0,0.0,0.0,0.0,0.0,0.0,0.0,0.0,0.0,0.0,0.0,0.0,0.0,0.0,1.6940385103225708,0.0022284656973107554,-0.08962996892133816,0.03726208708598602,0.018258295953273773,0.017553212121129036,0.0
203,5,-2.286401650053449e-05,7.73386454966385e-06,1.955429615918547e-05,-0.0018231909489259124,-0.0021778291556984186,-0.0032028998248279095,0.0,0.0,0.0,0.0,0.0,0.0,0.0,0.0,0.0,0.005590219981968403,-0.004472942091524601,-0.0,0.0,0.0,0.0,0.0,0.0,0.0,0.0,0.0,0.0,0.0,0.0,0.0,0.0,0.0,0.0,0.0,0.0,0.0,0.0,0.0,0.0,0.0,1.6940385103225708,0.0025563856384287565,-0.09019707325916566,0.03770669636606477,0.006963267456740141,0.008208943530917168,0.0
208,5,-3.560759432730265e-05,2.0122306523262523e-05,5.8063786127604544e-05,-0.002258505905047059,-0.0023577448446303606,-0.005902298726141453,0.0,0.0,0.0,0.0,0.0,0.0,0.0,0.0,0.0,0.0026761319022625685,-0.0017461872193962336,-0.0,0.0,0.0,0.0,0.0,0.0,0.0,0.0,0.0,0.0,0.0,0.0,0.0,0.0,0.0,0.0,0.0,0.0,0.0,0.0,0.0,0.0,0.0,1.6549015045166016,0.0047034560052797506,-0.08912913234118378,0.038180276076336894,0.006963267456740141,0.008208943530917168,0.0
213,5,-1.1315139090584125e-05,4.106696906092111e-06,8.345320566149894e-06,0.0020116926170885563,0.0009787753224372864,0.0036052963696420193,0.0,0.0,0.0,0.0,0.0,0.0,0.0,0.0,0.0,-0.0011940973345190287,0.0018835288938134909,-0.0,0.0,0.0,0.0,0.0,0.0,0.0,0.0,0.0,0.0,0.0,0.0,0.0,0.0,0.0,0.0,0.0,0.0,0.0,0.0,0.0,0.0,0.0,1.6483047008514404,0.002188869135192534,-0.0895231791702096,0.03762351036548201,-0.007481025066226721,-0.0036482582800090313,-0.0
218,5,-2.0598443370545283e-05,5.514491022040602e-06,1.703949055809062e-05,-0.0003093196137342602,0.00022257481759879738,0.00039881825796328485,0.0,0.0,0.0,0.0,0.0,0.0,0.0,0.0,0.0,-0.0011940973345190287,0.0018835288938134909,-0.0,0.0,0.0,0.0,0.0,0.0,0.0,0.0,0.0,0.0,0.0,0.0,0.0,0.0,0.0,0.0,0.0,0.0,0.0,0.0,0.0,0.0,0.0,1.6483047008514404,0.002279485899933596,-0.08918356627957588,0.0372749299802718,-0.007481025066226721,-0.0036482582800090313,-0.0
224,5,-7.665785233257338e-06,9.061061973625328e-06,-1.0022604328696616e-05,0.0014281912008300424,-0.0003365585580468178,0.00340697867795825,0.0,0.0,0.0,0.0,0.0,0.0,0.0,0.0,0.0,-0.0011940973345190287,0.0018835288938134909,-0.0,0.0,0.0,0.0,0.0,0.0,0.0,0.0,0.0,0.0,0.0,0.0,0.0,0.0,0.0,0.0,0.0,0.0,0.0,0.0,0.0,0.0,0.0,1.6483047008514404,0.003895690307963304,-0.08947475744325377,0.037921882193832454,-0.007481025066226721,-0.0036482582800090313,-0.0
229,5,1.8220438505522907e-05,-1.1948654901061673e-05,-3.8526362914126366e-05,0.0036776233464479446,0.0023865425027906895,0.004783242475241423,0.0,0.0,0.0,0.0,0.0,0.0,0.0,0.0,0.0,0.0004312883538659662,0.0013439496979117393,-0.0,0.0,0.0,0.0,0.0,0.0,0.0,0.0,0.0,0.0,0.0,0.0,0.0,0.0,0.0,0.0,0.0,0.0,0.0,0.0,0.0,0.0,0.0,1.6405901908874512,0.002542957736768246,-0.08872495261175303,0.0369245796393554,-0.005312939640134573,0.0013115244219079614,0.0
234,5,2.038153434114065e-05,-3.372645005583763e-05,-6.14803793723695e-05,0.0017303806962445378,0.003567952662706375,0.0046677784994244576,0.0,0.0,0.0,0.0,0.0,0.0,0.0,0.0,0.0,-0.004391580820083618,0.0016436456935480237,-0.0,0.0,0.0,0.0,0.0,0.0,0.0,0.0,0.0,0.0,0.0,0.0,0.0,0.0,0.0,0.0,0.0,0.0,0.0,0.0,0.0,0.0,0.0,1.6665558815002441,0.0017118179036370942,-0.09023162174974104,0.03733433192856359,-0.006600481458008289,-0.013565842062234879,0.0
240,6,1.1161784641444683e-05,-1.7337089957436547e-05,-1.3345836123335175e-05,-0.0004142176185268909,-0.0005395424086600542,-0.003909033257514238,0.0,0.0,0.0,0.0,0.0,0.0,0.0,0.0,0.0,-0.004391580820083618,0.0016436456935480237,-0.0,0.0,0.0,0.0,0.0,0.0,0.0,0.0,0.0,0.0,0.0,0.0,0.0,0.0,0.0,0.0,0.0,0.0,0.0,0.0,0.0,0.0,0.0,1.6665558815002441,0.0023493892409867717,-0.08926110331494913,0.03722091472619366,-0.006600481458008289,-0.013565842062234879,0.0
245,5,1.5586469089612365e-05,-3.694128827191889e-05,-3.5273358207632555e-06,0.0012401125859469175,0.002806635806336999,0.0007820621831342578,0.0,0.0,0.0,0.0,0.0,0.0,0.0,0.0,0.0,-0.004391580820083618,0.0016436456935480237,-0.0,0.0,0.0,0.0,0.0,0.0,0.0,0.0,0.0,0.0,0.0,0.0,0.0,0.0,0.0,0.0,0.0,0.0,0.0,0.0,0.0,0.0,0.0,1.6665558815002441,0.0004425968397398776,-0.08996403355991779,0.03692789641593331,-0.006600481458008289,-0.013565842062234879,0.0
250,5,-5.309990228852257e-06,-3.3655607694527134e-05,5.53135714653763e-06,-0.002011530101299286,0.0007283728918991983,-0.0007742182933725417,0.0,0.0,0.0,0.0,0.0,0.0,0.0,0.0,0.0,-0.003492100862786174,0.0011857064673677087,-0.0,0.0,0.0,0.0,0.0,0.0,0.0,0.0,0.0,0.0,0.0,0.0,0.0,0.0,0.0,0.0,0.0,0.0,0.0,0.0,0.0,0.0,0.0,1.6575016975402832,0.0011296105323813407,-0.0899742586843321,0.037063664406966734,-0.004735657945275307,-0.010728714987635612,0.0
255,5,-3.2518099033040926e-05,-7.5468469731276855e-06,2.3187423721537925e-05,-0.004069584887474775,-0.0028417021967470646,-0.0024284152314066887,0.0,0.0,0.0,0.0,0.0,0.0,0.0,0.0,0.0,-0.003492100862786174,0.0011857064673677087,-0.0,0.0,0.0,0.0,0.0,0.0,0.0,0.0,0.0,0.0,0.0,0.0,0.0,0.0,0.0,0.0,0.0,0.0,0.0,0.0,0.0,0.0,0.0,1.6575016975402832,0.004033905521402897,-0.08945085456959434,0.037802485552019045,-0.004735657945275307,-0.010728714987635612,0.0
260,5,-2.863022018573247e-05,-2.2595400878344662e-05,1.4490628927887883e-06,-0.0011612887028604746,0.0006691455491818488,0.0016372371464967728,0.0,0.0,0.0,0.0,0.0,0.0,0.0,0.0,0.0,0.003415942657738924,-0.0038224398158490658,-0.0,0.0,0.0,0.0,0.0,0.0,0.0,0.0,0.0,0.0,0.0,0.0,0.0,0.0,0.0,0.0,0.0,0.0,0.0,0.0,0.0,0.0,0.0,1.6763685941696167,0.0031217804850634462,-0.08932506711254415,0.037571933075232315,0.015440396964550018,0.010614195838570595,0.0
265,5,-3.017745621036738e-05,-4.739793439512141e-06,1.1200914741493762e-05,-0.0006501836469396949,-0.0018750146264210343,-0.0005153273814357817,0.0,0.0,0.0,0.0,0.0,0.0,0.0,0.0,0.0,0.003415942657738924,-0.0038224398158490658,-0.0,0.0,0.0,0.0,0.0,0.0,0.0,0.0,0.0,0.0,0.0,0.0,0.0,0.0,0.0,0.0,0.0,0.0,0.0,0.0,0.0,0.0,0.0,1.6763685941696167,0.0023114590915627444,-0.08871518895292715,0.037027897502811116,0.015440396964550018,0.010614195838570595,0.0
270,5,-2.743256845860742e-05,3.0436324323090957e-06,-3.3691189855744597e-06,6.931306415935978e-05,-0.001684017013758421,0.001542273093946278,0.0,0.0,0.0,0.0,0.0,0.0,0.0,0.0,0.0,0.0022958312183618546,-0.0006567562231794,-0.0,0.0,0.0,0.0,0.0,0.0,0.0,0.0,0.0,0.0,0.0,0.0,0.0,0.0,0.0,0.0,0.0,0.0,0.0,0.0,0.0,0.0,0.0,1.6460074186325073,0.0020121056114033916,-0.08911318271118233,0.037325899208464235,0.002604873850941658,0.007004539482295513,0.0
275,5,3.4159518691012636e-05,-4.159546733717434e-05,-9.91305205388926e-05,0.007418775465339422,0.00468308525159955,0.012108277529478073,0.0,0.0,0.0,0.0,0.0,0.0,0.0,0.0,0.0,0.0022958312183618546,-0.0006567562231794,-0.0,0.0,0.0,0.0,0.0,0.0,0.0,0.0,0.0,0.0,0.0,0.0,0.0,0.0,0.0,0.0,0.0,0.0,0.0,0.0,0.0,0.0,0.0,1.6460074186325073,0.0012396988224559063,-0.09047498172773434,0.03687879272823376,0.002604873850941658,0.007004539482295513,0.0
280,5,3.473842662060633e-05,-1.2980437531950884e-05,-9.847998444456607e-05,0.003036979353055358,-0.0015605695080012083,0.004765246994793415,0.0,0.0,0.0,0.0,0.0,0.0,0.0,0.0,0.0,-0.0055967955850064754,0.00677757803350687,-0.0,0.0,0.0,0.0,0.0,0.0,0.0,0.0,0.0,0.0,0.0,0.0,0.0,0.0,0.0,0.0,0.0,0.0,0.0,0.0,0.0,0.0,0.0,1.7149879932403564,0.0007302123092052809,-0.09005551329733609,0.03722480707587645,-0.028007695451378822,-0.01779118739068508,0.0
285,5,2.4972774554044008e-05,-1.206713386636693e-05,-5.55261540284846e-05,4.291329241823405e-05,-0.0007338242139667273,-0.0032483614049851894,0.0,0.0,0.0,0.0,0.0,0.0,0.0,0.0,0.0,-0.0055967955850064754,0.00677757803350687,-0.0,0.0,0.0,0.0,0.0,0.0,0.0,0.0,0.0,0.0,0.0,0.0,0.0,0.0,0.0,0.0,0.0,0.0,0.0,0.0,0.0,0.0,0.0,1.7149879932403564,0.001524424153418179,-0.08975039976867087,0.03692113980715183,-0.028007695451378822,-0.01779118739068508,0.0
290,5,-4.974035164195811e-06,4.694938979810104e-06,1.7266718714381568e-05,-0.0035764516796916723,-0.002304978435859084,-0.010034489445388317,0.0,0.0,0.0,0.0,0.0,0.0,0.0,0.0,0.0,0.0008868745644576848,7.567046850454062e-05,-0.0,0.0,0.0,0.0,0.0,0.0,0.0,0.0,0.0,0.0,0.0,0.0,0.0,0.0,0.0,0.0,0.0,0.0,0.0,0.0,0.0,0.0,0.0,1.6330779790878296,0.003144956861341178,-0.08946422053171545,0.03778339011156362,-0.0002977728145197034,0.0026845873799175024,0.0
295,5,-1.799478559405543e-05,1.0721010767156258e-05,4.580480162985623e-05,-0.0029930707532912493,-0.00164511997718364,-0.007438365835696459,0.0,0.0,0.0,0.0,0.0,0.0,0.0,0.0,0.0,0.0008868745644576848,7.567046850454062e-05,-0.0,0.0,0.0,0.0,0.0,0.0,0.0,0.0,0.0,0.0,0.0,0.0,0.0,0.0,0.0,0.0,0.0,0.0,0.0,0.0,0.0,0.0,0.0,1.6330779790878296,0.004384186671328277,-0.08945933854656676,0.038278981561484106,-0.0002977728145197034,0.0026845873799175024,0.0
300,5,3.3319051908620168e-06,-2.8129508791607805e-05,6.712779850204242e-06,0.0013619746314361691,0.004004014190286398,0.001715696300379932,0.0,0.0,0.0,0.0,0.0,0.0,0.0,0.0,0.0,0.0020230000372976065,-0.002829665318131447,-0.0,0.0,0.0,0.0,0.0,0.0,0.0,0.0,0.0,0.0,0.0,0.0,0.0,0.0,0.0,0.0,0.0,0.0,0.0,0.0,0.0,0.0,0.0,1.6607228517532349,0.001882963048109675,-0.08915927662526743,0.03690942685892529,0.011323551647365093,0.006227318663150072,0.0
306,5,-1.2633605365408584e-05,-3.2305936201737495e-06,3.8398196920752525e-05,-0.0013710714410990477,-0.00138626410625875,-0.0031159715726971626,0.0,0.0,0.0,0.0,0.0,0.0,0.0,0.0,0.0,0.0020230000372976065,-0.002829665318131447,-0.0,0.0,0.0,0.0,0.0,0.0,0.0,0.0,0.0,0.0,0.0,0.0,0.0,0.0,0.0,0.0,0.0,0.0,0.0,0.0,0.0,0.0,0.0,1.6607228517532349,0.0015504378535856555,-0.08910419481095747,0.03715795351206557,0.011323551647365093,0.006227318663150072,0.0
311,5,-3.6372680369822774e-06,-2.710312583076302e-05,4.284888291294919e-06,0.0005311318673193455,0.0023101982660591602,0.002847208408638835,0.0,0.0,0.0,0.0,0.0,0.0,0.0,0.0,0.0,0.0016981188673526049,-0.0013142524985596538,-0.0,0.0,0.0,0.0,0.0,0.0,0.0,0.0,0.0,0.0,0.0,0.0,0.0,0.0,0.0,0.0,0.0,0.0,0.0,0.0,0.0,0.0,0.0,1.6456676721572876,0.0031457500305819043,-0.0896460991855845,0.037491956198540344,0.005211612209677696,0.005179864354431629,0.0
316,5,-3.0305684504128294e-06,-2.6969870305038057e-05,-9.478948413743638e-06,0.00028525671223178506,0.0009080886375159025,0.0027905437164008617,0.0,0.0,0.0,0.0,0.0,0.0,0.0,0.0,0.0,0.0016981188673526049,-0.0013142524985596538,-0.0,0.0,0.0,0.0,0.0,0.0,0.0,0.0,0.0,0.0,0.0,0.0,0.0,0.0,0.0,0.0,0.0,0.0,0.0,0.0,0.0,0.0,0.0,1.6456676721572876,0.002796565819752479,-0.08999109523791098,0.037667025262470726,0.005211612209677696,0.005179864354431629,0.0
321,5,2.126387698808685e-06,-9.720571142679546e-06,-1.8783042833092622e-05,0.0007329374202527106,-0.001706680515781045,0.0022327089682221413,0.0,0.0,0.0,0.0,0.0,0.0,0.0,0.0,0.0,-0.0011723375646397471,0.00026699755107983947,-0.0,0.0,0.0,0.0,0.0,0.0,0.0,0.0,0.0,0.0,0.0,0.0,0.0,0.0,0.0,0.0,0.0,0.0,0.0,0.0,0.0,0.0,0.0,1.635806918144226,0.0024252182133238875,-0.08984739963664026,0.03764221238756189,-0.0010524244280532002,-0.003554619150236249,0.0
326,5,-2.0589799532899633e-05,2.2642698240815662e-05,3.902271419065073e-05,-0.0024327675346285105,-0.00456626433879137,-0.006043607369065285,0.0,0.0,0.0,0.0,0.0,0.0,0.0,0.0,0.0,-0.0011723375646397471,0.00026699755107983947,-0.0,0.0,0.0,0.0,0.0,0.0,0.0,0.0,0.0,0.0,0.0,0.0,0.0,0.0,0.0,0.0,0.0,0.0,0.0,0.0,0.0,0.0,0.0,1.635806918144226,0.003484553555999351,-0.08902030552099496,0.0378279736404524,-0.0010524244280532002,-0.003554619150236249,0.0
331,5,1.1620167242654134e-05,-2.5105750864895526e-06,-1.4321079788714997e-06,0.0028920890763401985,0.0011918869568035007,0.0024371356703341007,0.0,0.0,0.0,0.0,0.0,0.0,0.0,0.0,0.0,0.005543271079659462,-0.0022836553398519754,-0.0,0.0,0.0,0.0,0.0,0.0,0.0,0.0,0.0,0.0,0.0,0.0,0.0,0.0,0.0,0.0,0.0,0.0,0.0,0.0,0.0,0.0,0.0,1.678598403930664,0.002216292275798947,-0.08891613148189305,0.03669022304902436,0.009236814454197884,0.0172471534460783,0.0
336,5,3.047884320039884e-06,2.2984966108197113e-06,3.5779232803179184e-06,0.00012816162779927254,-0.00010033381840912625,0.0003736505168490112,0.0,0.0,0.0,0.0,0.0,0.0,0.0,0.0,0.0,0.005543271079659462,-0.0022836553398519754,-0.0,0.0,0.0,0.0,0.0,0.0,0.0,0.0,0.0,0.0,0.0,0.0,0.0,0.0,0.0,0.0,0.0,0.0,0.0,0.0,0.0,0.0,0.0,1.678598403930664,0.0028132483290995735,-0.08809169515965078,0.036966211526291586,0.009236814454197884,0.0172471534460783,0.0
341,5,3.516887545629288e-06,-1.334577154921135e-05,-9.154222425422631e-06,0.00010754506365628913,0.001837178715504706,0.0016773176612332463,0.0,0.0,0.0,0.0,0.0,0.0,0.0,0.0,0.0,0.0001285517355427146,0.00012657695333473384,-0.0,0.0,0.0,0.0,0.0,0.0,0.0,0.0,0.0,0.0,0.0,0.0,0.0,0.0,0.0,0.0,0.0,0.0,0.0,0.0,0.0,0.0,0.0,1.6284600496292114,0.000931227584432359,-0.09005720858606628,0.03722648111546215,-0.0004966879496350884,0.00038802847848273814,-0.0
346,5,-2.4763961846474558e-05,4.265475581632927e-05,4.005894879810512e-05,-0.003350683953613043,-0.005985191557556391,-0.0052346535958349705,0.0,0.0,0.0,0.0,0.0,0.0,0.0,0.0,0.0,0.0001285517355427146,0.00012657695333473384,-0.0,0.0,0.0,0.0,0.0,0.0,0.0,0.0,0.0,0.0,0.0,0.0,0.0,0.0,0.0,0.0,0.0,0.0,0.0,0.0,0.0,0.0,0.0,1.6284600496292114,0.00314173307726685,-0.08872096172203447,0.03784083403351221,-0.0004966879496350884,0.00038802847848273814,-0.0
351,5,2.2946265744394623e-05,-3.281549288658425e-05,-5.776163743576035e-05,0.004384953994303942,0.006662352941930294,0.009644608944654465,0.0,0.0,0.0,0.0,0.0,0.0,0.0,0.0,0.0,0.0072148703038692474,-0.0031085091177374125,-0.0,0.0,0.0,0.0,0.0,0.0,0.0,0.0,0.0,0.0,0.0,0.0,0.0,0.0,0.0,0.0,0.0,0.0,0.0,0.0,0.0,0.0,0.0,1.6958259344100952,0.002264584018834541,-0.08983179175057156,0.0372253209705753,0.012702034786343575,0.022678352892398834,0.0
356,5,3.369692649357603e-06,-5.783336746389978e-06,-9.126636541623157e-06,-0.0005952073261141777,-0.0005789175047539175,-0.001978356624022126,0.0,0.0,0.0,0.0,0.0,0.0,0.0,0.0,0.0,0.0072148703038692474,-0.0031085091177374125,-0.0,0.0,0.0,0.0,0.0,0.0,0.0,0.0,0.0,0.0,0.0,0.0,0.0,0.0,0.0,0.0,0.0,0.0,0.0,0.0,0.0,0.0,0.0,1.6958259344100952,0.0018695426618014436,-0.08988386623210211,0.037546338146177013,0.012702034786343575,0.022678352892398834,0.0
361,5,-3.4480901376809925e-05,4.145086495555006e-05,5.1763010560534894e-05,-0.004780154209583998,-0.0058996714651584625,-0.008098100312054157,0.0,0.0,0.0,0.0,0.0,0.0,0.0,0.0,0.0,0.0007059936178848147,-0.0005623362376354635,-0.0,0.0,0.0,0.0,0.0,0.0,0.0,0.0,0.0,0.0,0.0,0.0,0.0,0.0,0.0,0.0,0.0,0.0,0.0,0.0,0.0,0.0,0.0,1.634101152420044,0.006038963666217168,-0.0892605518992288,0.03857830600381004,0.00221425062045455,0.0021383962593972683,0.0
366,5,-1.1567656656552572e-05,1.9715545931831002e-05,3.385484524187632e-05,0.0008375276811420918,0.0002483699645381421,-0.0010902602225542068,0.0,0.0,0.0,0.0,0.0,0.0,0.0,0.0,0.0,0.0007059936178848147,-0.0005623362376354635,-0.0,0.0,0.0,0.0,0.0,0.0,0.0,0.0,0.0,0.0,0.0,0.0,0.0,0.0,0.0,0.0,0.0,0.0,0.0,0.0,0.0,0.0,0.0,1.634101152420044,0.0034916230417046355,-0.0898485073695853,0.03772946715170758,0.00221425062045455,0.0021383962593972683,0.0
371,5,-2.4723483875277452e-05,1.8773780539049767e-05,4.997197538614273e-05,-0.0012436882825568318,0.0002123597078025341,-0.0023701596073806286,0.0,0.0,0.0,0.0,0.0,0.0,0.0,0.0,0.0,-0.0002718705509323627,0.0007811287650838494,-0.0,0.0,0.0,0.0,0.0,0.0,0.0,0.0,0.0,0.0,0.0,0.0,0.0,0.0,0.0,0.0,0.0,0.0,0.0,0.0,0.0,0.0,0.0,1.6343895196914673,0.004335129927113509,-0.08971615766653238,0.03810920711626116,-0.0030763098038733006,-0.0008236189023591578,0.0
377,5,-2.2551546862814575e-05,2.193596628785599e-05,6.803734140703455e-05,-0.00023684269399382174,-0.0002945184533018619,-0.0031159082427620888,0.0,0.0,0.0,0.0,0.0,0.0,0.0,0.0,0.0,-0.0002718705509323627,0.0007811287650838494,-0.0,0.0,0.0,0.0,0.0,0.0,0.0,0.0,0.0,0.0,0.0,0.0,0.0,0.0,0.0,0.0,0.0,0.0,0.0,0.0,0.0,0.0,0.0,1.6343895196914673,0.004473232723442907,-0.08890328605618031,0.03812073334756261,-0.0030763098038733006,-0.0008236189023591578,0.0
382,5,9.262989806302357e-06,9.873280760075431e-06,1.2692712516582105e-05,0.0037230071611702442,0.001329715014435351,0.005394992418587208,0.0,0.0,0.0,0.0,0.0,0.0,0.0,0.0,0.0,0.0004052725853398442,-0.000257919222349301,-0.0,0.0,0.0,0.0,0.0,0.0,0.0,0.0,0.0,0.0,0.0,0.0,0.0,0.0,0.0,0.0,0.0,0.0,0.0,0.0,0.0,0.0,0.0,1.6300601959228516,0.0026387581269047143,-0.09028192903688821,0.03806736762748063,0.0010130694136023521,0.0012245017569512129,0.0
387,5,1.0818475857377052e-05,3.169172941852594e-06,5.730263637815369e-06,0.0016758611891418695,0.0013363788602873683,0.002993490779772401,0.0,0.0,0.0,0.0,0.0,0.0,0.0,0.0,0.0,-0.0016354232793673873,0.0015976943541318178,-0.0,0.0,0.0,0.0,0.0,0.0,0.0,0.0,0.0,0.0,0.0,0.0,0.0,0.0,0.0,0.0,0.0,0.0,0.0,0.0,0.0,0.0,0.0,1.647629976272583,0.0032599417754293585,-0.08936426794713892,0.03781131897750866,-0.006343143060803413,-0.004994569346308708,-0.0
393,6,-1.2944855370733421e-05,3.749057214008644e-05,3.942762850783765e-05,-0.0021812552586197853,-0.00358401658013463,-0.002846287563443184,0.0,0.0,0.0,0.0,0.0,0.0,0.0,0.0,0.0,-0.0016354232793673873,0.0015976943541318178,-0.0,0.0,0.0,0.0,0.0,0.0,0.0,0.0,0.0,0.0,0.0,0.0,0.0,0.0,0.0,0.0,0.0,0.0,0.0,0.0,0.0,0.0,0.0,1.647629976272583,0.004140189552879851,-0.08865089207650002,0.03808388954183584,-0.006343143060803413,-0.004994569346308708,-0.0
398,5,1.3275855963001959e-05,-2.194452690673643e-06,-2.526168100303039e-05,0.00227398332208395,0.0033285964746028185,0.006624202243983746,0.0,0.0,0.0,0.0,0.0,0.0,0.0,0.0,0.0,-0.0016354232793673873,0.0015976943541318178,-0.0,0.0,0.0,0.0,0.0,0.0,0.0,0.0,0.0,0.0,0.0,0.0,0.0,0.0,0.0,0.0,0.0,0.0,0.0,0.0,0.0,0.0,0.0,1.647629976272583,0.0024258416465503425,-0.0897191613525526,0.0376409373246462,-0.006343143060803413,-0.004994569346308708,-0.0
403,5,1.8346598153584637e-05,-1.1441299648140557e-05,-4.154618727625348e-05,0.0015180824557319283,0.0024410602636635303,0.004603821784257889,0.0,0.0,0.0,0.0,0.0,0.0,0.0,0.0,0.0,-0.0040443530306220055,0.0021411955822259188,-0.0,0.0,0.0,0.0,0.0,0.0,0.0,0.0,0.0,0.0,0.0,0.0,0.0,0.0,0.0,0.0,0.0,0.0,0.0,0.0,0.0,0.0,0.0,1.6667753458023071,0.002346596085251252,-0.08997867469129522,0.03760176667646758,-0.008599663153290749,-0.012494892813265324,0.0
408,5,-1.0026411473518237e-05,-6.166691036924021e-06,-2.5847986762528308e-05,-0.0027975281700491905,0.0003434710670262575,-4.225549491820857e-05,0.0,0.0,0.0,0.0,0.0,0.0,0.0,0.0,0.0,-0.0040443530306220055,0.0021411955822259188,-0.0,0.0,0.0,0.0,0.0,0.0,0.0,0.0,0.0,0.0,0.0,0.0,0.0,0.0,0.0,0.0,0.0,0.0,0.0,0.0,0.0,0.0,0.0,1.6667753458023071,0.003364994228379561,-0.09008093871946235,0.037772288997083764,-0.008599663153290749,-0.012494892813265324,0.0
413,5,-1.6682981367921457e-05,-7.378847044492431e-07,1.5301598978112452e-05,-0.0019177997019141912,-0.0005140683497302234,-0.004954852629452944,0.0,0.0,0.0,0.0,0.0,0.0,0.0,0.0,0.0,-0.00043124600779265165,-0.002645389176905155,-0.0,0.0,0.0,0.0,0.0,0.0,0.0,0.0,0.0,0.0,0.0,0.0,0.0,0.0,0.0,0.0,0.0,0.0,0.0,0.0,0.0,0.0,0.0,1.6545342206954956,0.00301659467610021,-0.08937305467236516,0.03777452101691366,0.010546702891588211,-0.0013225417351350188,0.0
418,5,-2.846657662303187e-05,-8.656365935166832e-06,2.2271920897765085e-05,-0.002181151183322072,0.000744590419344604,-0.0028183795511722565,0.0,0.0,0.0,0.0,0.0,0.0,0.0,0.0,0.0,-0.00043124600779265165,-0.002645389176905155,-0.0,0.0,0.0,0.0,0.0,0.0,0.0,0.0,0.0,0.0,0.0,0.0,0.0,0.0,0.0,0.0,0.0,0.0,0.0,0.0,0.0,0.0,0.0,1.6545342206954956,0.002563615085735562,-0.08979574839189094,0.03782567766364173,0.010546702891588211,-0.0013225417351350188,0.0
423,5,-2.7341407985659316e-05,-7.216389349196106e-06,1.9492026694933884e-05,-0.0007374404231086373,0.00012503897596616298,-0.0007937643676996231,0.0,0.0,0.0,0.0,0.0,0.0,0.0,0.0,0.0,-0.000928963185288012,-0.0020973277278244495,-0.0,0.0,0.0,0.0,0.0,0.0,0.0,0.0,0.0,0.0,0.0,0.0,0.0,0.0,0.0,0.0,0.0,0.0,0.0,0.0,0.0,0.0,0.0,1.649613380432129,0.0031571806321717003,-0.08970861127492012,0.037748550969028884,0.008336809463799,-0.002840462839230895,0.0
428,5,-5.783950473414734e-05,3.982954876846634e-05,0.00010116889461642131,-0.003954747691750526,-0.005595496855676174,-0.010118729434907436,0.0,0.0,0.0,0.0,0.0,0.0,0.0,0.0,0.0,-0.000928963185288012,-0.0020973277278244495,-0.0,0.0,0.0,0.0,0.0,0.0,0.0,0.0,0.0,0.0,0.0,0.0,0.0,0.0,0.0,0.0,0.0,0.0,0.0,0.0,0.0,0.0,0.0,1.649613380432129,0.0024443402287203137,-0.08889775934900059,0.037777818938065755,0.008336809463799,-0.002840462839230895,0.0
434,5,-2.7464227969176136e-05,1.100037570722634e-05,4.420713958097622e-05,0.0020631342194974422,0.001221301849000156,0.0027879185508936644,0.0,0.0,0.0,0.0,0.0,0.0,0.0,0.0,0.0,-0.0014781577046960592,0.0019080162746831775,-0.0,0.0,0.0,0.0,0.0,0.0,0.0,0.0,0.0,0.0,0.0,0.0,0.0,0.0,0.0,0.0,0.0,0.0,0.0,0.0,0.0,0.0,0.0,1.6496727466583252,0.002010017658111097,-0.08867146451491567,0.03701150343218224,-0.007584571372717619,-0.004519879352301359,-0.0
439,5,-2.120035424013622e-05,7.537949841207592e-06,3.057650610571727e-05,0.0015769185265526175,0.0009040118893608451,0.002750843297690153,0.0,0.0,0.0,0.0,0.0,0.0,0.0,0.0,0.0,-0.0014781577046960592,0.0019080162746831775,-0.0,0.0,0.0,0.0,0.0,0.0,0.0,0.0,0.0,0.0,0.0,0.0,0.0,0.0,0.0,0.0,0.0,0.0,0.0,0.0,0.0,0.0,0.0,1.6496727466583252,0.0024560278296860303,-0.08879440813132036,0.03714700772722715,-0.007584571372717619,-0.004519879352301359,-0.0
444,5,1.4113345969235525e-05,-1.4085738257563207e-05,-2.5519744667690247e-05,0.004868411459028721,0.0029564471915364265,0.00783188734203577,0.0,0.0,0.0,0.0,0.0,0.0,0.0,0.0,0.0,-0.003577485913410783,0.004518827889114618,-0.0,0.0,0.0,0.0,0.0,0.0,0.0,0.0,0.0,0.0,0.0,0.0,0.0,0.0,0.0,0.0,0.0,0.0,0.0,0.0,0.0,0.0,0.0,1.683690071105957,0.0013485875984682175,-0.08885184602060847,0.036634324832762806,-0.018333086743950844,-0.011164696887135506,0.0
449,5,-4.144679678574903e-06,5.545378371607512e-06,2.1723801182815805e-05,-0.0002435984933981672,-0.0011731550330296159,-0.0025364705361425877,0.0,0.0,0.0,0.0,0.0,0.0,0.0,0.0,0.0,-0.003577485913410783,0.004518827889114618,-0.0,0.0,0.0,0.0,0.0,0.0,0.0,0.0,0.0,0.0,0.0,0.0,0.0,0.0,0.0,0.0,0.0,0.0,0.0,0.0,0.0,0.0,0.0,1.683690071105957,0.0018971769765691179,-0.08865336772855253,0.03696562183716443,-0.018333086743950844,-0.011164696887135506,0.0
454,5,-1.0893502803810406e-05,1.2371340744721238e-05,2.9727816581726074e-05,-0.0009072982356883585,-0.00128837744705379,-0.001975070219486952,0.0,0.0,0.0,0.0,0.0,0.0,0.0,0.0,0.0,0.0016095963073894382,-0.0008753330330364406,-0.0,0.0,0.0,0.0,0.0,0.0,0.0,0.0,0.0,0.0,0.0,0.0,0.0,0.0,0.0,0.0,0.0,0.0,0.0,0.0,0.0,0.0,0.0,1.6420185565948486,0.0032142480147333676,-0.08799026471201316,0.03714363437088233,0.003463400062173605,0.004898952320218086,0.0
459,5,-5.687983048119349e-06,-1.7545085938763805e-05,3.1244760521076387e-06,0.0002617431164253503,0.003074620384722948,0.0024023728910833597,0.0,0.0,0.0,0.0,0.0,0.0,0.0,0.0,0.0,0.0016095963073894382,-0.0008753330330364406,-0.0,0.0,0.0,0.0,0.0,0.0,0.0,0.0,0.0,0.0,0.0,0.0,0.0,0.0,0.0,0.0,0.0,0.0,0.0,0.0,0.0,0.0,0.0,1.6420185565948486,0.0016958875496038122,-0.08895634549919085,0.03699976720925476,0.003463400062173605,0.004898952320218086,0.0
464,5,-1.0673930773918983e-05,-1.305510613747174e-05,1.1324245861032978e-05,-0.0004936165059916675,0.0006910504889674485,-2.3023185349302366e-05,0.0,0.0,0.0,0.0,0.0,0.0,0.0,0.0,0.0,-0.0008791621075943112,-0.00048514147056266665,-0.0,0.0,0.0,0.0,0.0,0.0,0.0,0.0,0.0,0.0,0.0,0.0,0.0,0.0,0.0,0.0,0.0,0.0,0.0,0.0,0.0,0.0,0.0,1.634643793106079,0.0026208705330466,-0.08862866666233536,0.03726009115955369,0.0019109232816845179,-0.002663793507963419,0.0
469,5,-5.0981511776626576e-06,-1.7059130186680704e-05,-1.2092261385987513e-05,0.00018437067046761513,0.000483418523799628,0.0007315535913221538,0.0,0.0,0.0,0.0,0.0,0.0,0.0,0.0,0.0,-0.0008791621075943112,-0.00048514147056266665,-0.0,0.0,0.0,0.0,0.0,0.0,0.0,0.0,0.0,0.0,0.0,0.0,0.0,0.0,0.0,0.0,0.0,0.0,0.0,0.0,0.0,0.0,0.0,1.634643793106079,0.002619079882635315,-0.0895714698308619,0.03751101553003313,0.0019109232816845179,-0.002663793507963419,0.0
475,5,-1.7308864698861726e-05,9.28680401557358e-06,1.6942718502832577e-05,-0.0013915374875068665,-0.002968144603073597,-0.0031915761064738035,0.0,0.0,0.0,0.0,0.0,0.0,0.0,0.0,0.0,0.003635488683357835,-0.0013292700750753284,-0.0,0.0,0.0,0.0,0.0,0.0,0.0,0.0,0.0,0.0,0.0,0.0,0.0,0.0,0.0,0.0,0.0,0.0,0.0,0.0,0.0,0.0,0.0,1.6592620611190796,0.0037436678472780945,-0.09003332709343938,0.03793821740748514,0.005314679816365242,0.011181101202964783,0.0
480,5,2.5486651793471538e-06,-1.146237991633825e-05,-1.9959839846706018e-05,0.0018262886442244053,0.001302644144743681,0.003151676384732127,0.0,0.0,0.0,0.0,0.0,0.0,0.0,0.0,0.0,0.003635488683357835,-0.0013292700750753284,-0.0,0.0,0.0,0.0,0.0,0.0,0.0,0.0,0.0,0.0,0.0,0.0,0.0,0.0,0.0,0.0,0.0,0.0,0.0,0.0,0.0,0.0,0.0,1.6592620611190796,0.0025604203454890066,-0.08965232901611135,0.037497418867198706,0.005314679816365242,0.011181101202964783,0.0
485,5,2.4745097107370384e-05,-3.26109875459224e-05,-5.173015597392805e-05,0.0033940873108804226,0.00305889081209898,0.005073108710348606,0.0,0.0,0.0,0.0,0.0,0.0,0.0,0.0,0.0,0.003635488683357835,-0.0013292700750753284,-0.0,0.0,0.0,0.0,0.0,0.0,0.0,0.0,0.0,0.0,0.0,0.0,0.0,0.0,0.0,0.0,0.0,0.0,0.0,0.0,0.0,0.0,0.0,1.6592620611190796,0.0025214348441252874,-0.09040435475487954,0.03717078116584978,0.005314679816365242,0.011181101202964783,0.0
490,5,2.319696795893833e-05,-3.881948214257136e-05,-2.673368544492405e-05,0.001171859446913004,0.001968575641512871,-0.0009703331161290407,0.0,0.0,0.0,0.0,0.0,0.0,0.0,0.0,0.0,-0.0037578854244202375,0.003191394964233041,-0.0,0.0,0.0,0.0,0.0,0.0,0.0,0.0,0.0,0.0,0.0,0.0,0.0,0.0,0.0,0.0,0.0,0.0,0.0,0.0,0.0,0.0,0.0,1.672656536102295,0.001201154044959737,-0.08976220312735018,0.03690843185595657,-0.012862796895205975,-0.011650833301246166,0.0
495,5,2.0463778128032573e-05,-3.722662586369552e-05,-2.9660379368579015e-05,0.0001407609524903819,0.000596287427470088,-3.6930050555383787e-05,0.0,0.0,0.0,0.0,0.0,0.0,0.0,0.0,0.0,-0.0037578854244202375,0.003191394964233041,-0.0,0.0,0.0,0.0,0.0,0.0,0.0,0.0,0.0,0.0,0.0,0.0,0.0,0.0,0.0,0.0,0.0,0.0,0.0,0.0,0.0,0.0,0.0,1.672656536102295,0.001854934001995875,-0.08996737080157484,0.03695045377961662,-0.012862796895205975,-0.011650833301246166,0.0
500,5,5.795999186375411e-06,-8.462701771350112e-06,-1.7770438716979697e-05,-0.001703829038888216,-0.0032131560146808624,-0.001441564760170877,0.0,0.0,0.0,0.0,0.0,0.0,0.0,0.0,0.0,-0.0008068349561654031,0.00016251970373559743,-0.0,0.0,0.0,0.0,0.0,0.0,0.0,0.0,0.0,0.0,0.0,0.0,0.0,0.0,0.0,0.0,0.0,0.0,0.0,0.0,0.0,0.0,0.0,1.6325972080230713,0.00289223475453555,-0.08953912793860572,0.037505224753039586,-0.0006393473013304174,-0.002441587159410119,0.0
505,5,-1.92317438632017e-05,4.050051302328939e-06,4.222866209602216e-06,-0.003684860887005925,-0.002786792814731598,-0.00321582262404263,0.0,0.0,0.0,0.0,0.0,0.0,0.0,0.0,0.0,-0.0008068349561654031,0.00016251970373559743,-0.0,0.0,0.0,0.0,0.0,0.0,0.0,0.0,0.0,0.0,0.0,0.0,0.0,0.0,0.0,0.0,0.0,0.0,0.0,0.0,0.0,0.0,0.0,1.6325972080230713,0.0022210213241135343,-0.08929602387463738,0.037508683797732485,-0.0006393473013304174,-0.002441587159410119,0.0
510,5,-7.236503734020516e-06,-7.023836133157602e-06,-7.897712748672348e-06,-3.4515451261540875e-05,0.00021414940420072526,0.00016814039554446936,0.0,0.0,0.0,0.0,0.0,0.0,0.0,0.0,0.0,0.003377289744094014,-0.003454588819295168,-0.0,0.0,0.0,0.0,0.0,0.0,0.0,0.0,0.0,0.0,0.0,0.0,0.0,0.0,0.0,0.0,0.0,0.0,0.0,0.0,0.0,0.0,0.0,1.6728394031524658,0.002252966584229595,-0.08945816909389138,0.03731439521042679,0.013925127685070038,0.010471999645233154,0.0
515,5,-1.2511104614532087e-05,-2.708003557927441e-05,-1.737196907924954e-05,-0.0006467582425102592,0.002492403844371438,0.001204166910611093,0.0,0.0,0.0,0.0,0.0,0.0,0.0,0.0,0.0,0.003377289744094014,-0.003454588819295168,-0.0,0.0,0.0,0.0,0.0,0.0,0.0,0.0,0.0,0.0,0.0,0.0,0.0,0.0,0.0,0.0,0.0,0.0,0.0,0.0,0.0,0.0,0.0,1.6728394031524658,0.001124930774082479,-0.08972430659292072,0.037177391580027926,0.013925127685070038,0.010471999645233154,0.0
521,5,-2.193580257880967e-05,-1.8633064655659837e-06,2.874984966183547e-05,-0.001389667042531073,-0.00202904618345201,-0.005052951630204916,0.0,0.0,0.0,0.0,0.0,0.0,0.0,0.0,0.0,-0.0031005972996354103,-0.0006267224671319127,-0.0,0.0,0.0,0.0,0.0,0.0,0.0,0.0,0.0,0.0,0.0,0.0,0.0,0.0,0.0,0.0,0.0,0.0,0.0,0.0,0.0,0.0,0.0,1.652348518371582,0.002314357700115358,-0.08932160972834921,0.03711729681299163,0.002495322609320283,-0.009496297687292099,0.0
526,5,-1.925915239553433e-05,-1.6055128071457148e-05,3.136417944915593e-05,-0.00023466873972211033,0.0008914001518860459,-0.0023348999675363302,0.0,0.0,0.0,0.0,0.0,0.0,0.0,0.0,0.0,-0.0031005972996354103,-0.0006267224671319127,-0.0,0.0,0.0,0.0,0.0,0.0,0.0,0.0,0.0,0.0,0.0,0.0,0.0,0.0,0.0,0.0,0.0,0.0,0.0,0.0,0.0,0.0,0.0,1.652348518371582,0.0023550310401463754,-0.0889394398248167,0.03716927077619673,0.002495322609320283,-0.009496297687292099,0.0
531,5,-8.929499927035067e-06,-4.505549441091716e-06,3.847459811368026e-05,0.0011456907959654927,-0.0010293893283233047,-0.0017872103489935398,0.0,0.0,0.0,0.0,0.0,0.0,0.0,0.0,0.0,-0.0011321367928758264,-0.00025049879332073033,-0.0,0.0,0.0,0.0,0.0,0.0,0.0,0.0,0.0,0.0,0.0,0.0,0.0,0.0,0.0,0.0,0.0,0.0,0.0,0.0,0.0,0.0,0.0,1.6354379653930664,0.0019423991644582784,-0.08902462974679169,0.037051704611177474,0.0009871686343103647,-0.003431953489780426,0.0
536,5,-8.28225165605545e-06,-1.3364714504859876e-05,4.58248450740939e-06,0.0005359461065381765,0.0006513440166600049,0.0033521694131195545,0.0,0.0,0.0,0.0,0.0,0.0,0.0,0.0,0.0,-0.0011321367928758264,-0.00025049879332073033,-0.0,0.0,0.0,0.0,0.0,0.0,0.0,0.0,0.0,0.0,0.0,0.0,0.0,0.0,0.0,0.0,0.0,0.0,0.0,0.0,0.0,0.0,0.0,1.6354379653930664,0.002168031868113398,-0.0890577456058219,0.03710053147568496,0.0009871686343103647,-0.003431953489780426,0.0
541,5,-1.5453035302925855e-05,-1.689664895820897e-05,4.7545567213092e-05,-0.0006461155717261136,0.000684369879309088,-0.003814701922237873,0.0,0.0,0.0,0.0,0.0,0.0,0.0,0.0,0.0,-0.0008308307151310146,0.0004984291736036539,-0.0,0.0,0.0,0.0,0.0,0.0,0.0,0.0,0.0,0.0,0.0,0.0,0.0,0.0,0.0,0.0,0.0,0.0,0.0,0.0,0.0,0.0,0.0,1.6344095468521118,0.00011017754751485562,-0.08891076138038512,0.036414770039744845,-0.001962980953976512,-0.0025169923901557922,-0.0
546,5,-4.386751606944017e-05,2.1484831449924968e-05,6.214837776497006e-05,-0.0036681839264929295,-0.004332029726356268,-0.0032782182097434998,0.0,0.0,0.0,0.0,0.0,0.0,0.0,0.0,0.0,-0.0008308307151310146,0.0004984291736036539,-0.0,0.0,0.0,0.0,0.0,0.0,0.0,0.0,0.0,0.0,0.0,0.0,0.0,0.0,0.0,0.0,0.0,0.0,0.0,0.0,0.0,0.0,0.0,1.6344095468521118,0.0031938786009083984,-0.08954192541311333,0.03788193603345163,-0.001962980953976512,-0.0025169923901557922,-0.0
551,5,-9.206180038745515e-06,-3.571490742615424e-05,9.615650014893617e-06,0.00269208662211895,0.005131156649440527,0.004992640111595392,0.0,0.0,0.0,0.0,0.0,0.0,0.0,0.0,0.0,0.00524241803213954,-0.00345002394169569,-0.0,0.0,0.0,0.0,0.0,0.0,0.0,0.0,0.0,0.0,0.0,0.0,0.0,0.0,0.0,0.0,0.0,0.0,0.0,0.0,0.0,0.0,0.0,1.6838778257369995,0.00047902421481376675,-0.08956674161237681,0.0366758607503726,0.013998378999531269,0.016362406313419342,0.0
556,5,1.4120927517069504e-05,-3.8218666304601356e-05,-3.220738290110603e-05,0.003876087488606572,0.0023529138416051865,0.007015820126980543,0.0,0.0,0.0,0.0,0.0,0.0,0.0,0.0,0.0,0.00524241803213954,-0.00345002394169569,-0.0,0.0,0.0,0.0,0.0,0.0,0.0,0.0,0.0,0.0,0.0,0.0,0.0,0.0,0.0,0.0,0.0,0.0,0.0,0.0,0.0,0.0,0.0,1.6838778257369995,0.00035371859323164376,-0.08991850498009508,0.03666408296574875,0.013998378999531269,0.016362406313419342,0.0
561,5,1.695245737209916e-05,-5.9710346249630675e-05,-5.644639895763248e-05,0.0018902187002822757,0.003520167199894786,0.00571500975638628,0.0,0.0,0.0,0.0,0.0,0.0,0.0,0.0,0.0,-0.0029148724861443043,0.0036263172514736652,-0.0,0.0,0.0,0.0,0.0,0.0,0.0,0.0,0.0,0.0,0.0,0.0,0.0,0.0,0.0,0.0,0.0,0.0,0.0,0.0,0.0,0.0,0.0,1.6721822023391724,0.0013622867293669584,-0.08946768705714105,0.036480400910697375,-0.0146116241812706,-0.009034634567797184,0.0
566,5,2.0339826733106747e-05,-2.950672023871448e-05,-7.651553460163996e-05,0.0011625717161223292,-0.0022163682151585817,0.004694300703704357,0.0,0.0,0.0,0.0,0.0,0.0,0.0,0.0,0.0,-0.0029148724861443043,0.0036263172514736652,-0.0,0.0,0.0,0.0,0.0,0.0,0.0,0.0,0.0,0.0,0.0,0.0,0.0,0.0,0.0,0.0,0.0,0.0,0.0,0.0,0.0,0.0,0.0,1.6721822023391724,0.001934437949517478,-0.09046472238393788,0.03764672703477691,-0.0146116241812706,-0.009034634567797184,0.0
571,5,-7.864357939979527e-06,-3.922759788110852e-06,-2.083893741655629e-05,-0.0029194734524935484,-0.003956622444093227,-0.0048034717328846455,0.0,0.0,0.0,0.0,0.0,0.0,0.0,0.0,0.0,0.0026626503095030785,0.0011236981954425573,-0.0,0.0,0.0,0.0,0.0,0.0,0.0,0.0,0.0,0.0,0.0,0.0,0.0,0.0,0.0,0.0,0.0,0.0,0.0,0.0,0.0,0.0,0.0,1.6509294509887695,0.0037771230450952147,-0.08917890435455217,0.03774602600315544,-0.004470215644687414,0.00814798567444086,0.0
576,5,2.0554794900817797e-05,-3.7112797144800425e-05,-5.360085560823791e-05,0.0022425090428441763,0.0024001554120332003,0.002010041382163763,0.0,0.0,0.0,0.0,0.0,0.0,0.0,0.0,0.0,0.0026626503095030785,0.0011236981954425573,-0.0,0.0,0.0,0.0,0.0,0.0,0.0,0.0,0.0,0.0,0.0,0.0,0.0,0.0,0.0,0.0,0.0,0.0,0.0,0.0,0.0,0.0,0.0,1.6509294509887695,0.0009142563646394119,-0.08964858628490395,0.03663707030854386,-0.004470215644687414,0.00814798567444086,0.0
581,5,-1.6140007573994808e-05,-5.405771389632719e-06,5.481479661284538e-07,-0.003506372682750225,-0.0028447809163480997,-0.005693863611668348,0.0,0.0,0.0,0.0,0.0,0.0,0.0,0.0,0.0,0.0026626503095030785,0.0011236981954425573,-0.0,0.0,0.0,0.0,0.0,0.0,0.0,0.0,0.0,0.0,0.0,0.0,0.0,0.0,0.0,0.0,0.0,0.0,0.0,0.0,0.0,0.0,0.0,1.6509294509887695,0.003434738705232201,-0.08952121340806586,0.03788917577881815,-0.004470215644687414,0.00814798567444086,0.0
586,5,-2.125615083059529e-06,-1.771626375557389e-05,-1.2113945558667183e-05,0.00027917802799493074,0.0003393467632122338,-0.0007580943056382239,0.0,0.0,0.0,0.0,0.0,0.0,0.0,0.0,0.0,0.0034329555928707123,-0.0032867034897208214,-0.0,0.0,0.0,0.0,0.0,0.0,0.0,0.0,0.0,0.0,0.0,0.0,0.0,0.0,0.0,0.0,0.0,0.0,0.0,0.0,0.0,0.0,0.0,1.671655535697937,0.003080166403451637,-0.0892401474826584,0.03699152694736651,0.01323902141302824,0.010637069121003151,0.0
592,5,-1.3782544556306675e-05,-1.3921431673225015e-05,1.9942703147535212e-05,-0.0012871603248640895,-0.000319641170790419,-0.0041500357910990715,0.0,0.0,0.0,0.0,0.0,0.0,0.0,0.0,0.0,0.0034329555928707123,-0.0032867034897208214,-0.0,0.0,0.0,0.0,0.0,0.0,0.0,0.0,0.0,0.0,0.0,0.0,0.0,0.0,0.0,0.0,0.0,0.0,0.0,0.0,0.0,0.0,0.0,1.671655535697937,0.0023676542566791717,-0.08974146035731256,0.03738567103532381,0.01323902141302824,0.010637069121003151,0.0
597,5,-2.4580162062193267e-05,-2.432270412100479e-05,7.777948667353485e-06,-0.0018105782801285386,0.0011202963069081306,-0.00020024363766424358,0.0,0.0,0.0,0.0,0.0,0.0,0.0,0.0,0.0,0.0003688750439323485,-0.0012414254015311599,-0.0,0.0,0.0,0.0,0.0,0.0,0.0,0.0,0.0,0.0,0.0,0.0,0.0,0.0,0.0,0.0,0.0,0.0,0.0,0.0,0.0,0.0,0.0,1.6393932104110718,0.002682347660259588,-0.09036064412943712,0.03767795207413729,0.004904057364910841,0.0011209105141460896,0.0
602,5,5.758913175668567e-06,-4.678785990108736e-05,-2.3596061510033906e-05,0.0029164578299969435,0.0031439373269677162,0.0036847838200628757,0.0,0.0,0.0,0.0,0.0,0.0,0.0,0.0,0.0,0.0003688750439323485,-0.0012414254015311599,-0.0,0.0,0.0,0.0,0.0,0.0,0.0,0.0,0.0,0.0,0.0,0.0,0.0,0.0,0.0,0.0,0.0,0.0,0.0,0.0,0.0,0.0,0.0,1.6393932104110718,0.0017300253726013895,-0.08877645976904495,0.03688429563406873,0.004904057364910841,0.0011209105141460896,0.0
607,5,-6.025806669640588e-06,-4.006899689557031e-05,7.651758096471895e-06,-0.00024758322979323566,0.00045131135266274214,-0.0022758247796446085,0.0,0.0,0.0,0.0,0.0,0.0,0.0,0.0,0.0,-0.003892779815942049,0.002725685480982065,-0.0,0.0,0.0,0.0,0.0,0.0,0.0,0.0,0.0,0.0,0.0,0.0,0.0,0.0,0.0,0.0,0.0,0.0,0.0,0.0,0.0,0.0,0.0,1.669799566268921,0.0014265683707824534,-0.08930708536664599,0.03696732937386023,-0.010967008769512177,-0.01204843819141388,0.0
614,7,-7.722464033577126e-06,-2.27220261876937e-05,-2.1117656956448627e-07,-0.0003026322228834033,-0.0019011121476069093,3.322222983115353e-05,0.0,0.0,0.0,0.0,0.0,0.0,0.0,0.0,0.0,0.0022966584656387568,-0.00029737604199908674,-0.0,0.0,0.0,0.0,0.0,0.0,0.0,0.0,0.0,0.0,0.0,0.0,0.0,0.0,0.0,0.0,0.0,0.0,0.0,0.0,0.0,0.0,0.0,1.6450012922286987,0.002964526314217979,-0.08911302992176061,0.03736345594785381,0.0011787534458562732,0.0070027802139520645,0.0
619,5,-5.922048330830876e-06,7.426135653076926e-06,9.299175872001797e-06,-0.0007263048901222646,-0.004554966930299997,-0.0027439678087830544,0.0,0.0,0.0,0.0,0.0,0.0,0.0,0.0,0.0,0.0022966584656387568,-0.00029737604199908674,-0.0,0.0,0.0,0.0,0.0,0.0,0.0,0.0,0.0,0.0,0.0,0.0,0.0,0.0,0.0,0.0,0.0,0.0,0.0,0.0,0.0,0.0,0.0,1.6450012922286987,0.0035683390310160285,-0.08885887114905779,0.03767890124932962,0.0011787534458562732,0.0070027802139520645,0.0
624,5,-5.922048330830876e-06,7.426135653076926e-06,9.299175872001797e-06,-0.0007263048901222646,-0.004554966930299997,-0.0027439678087830544,0.0,0.0,0.0,0.0,0.0,0.0,0.0,0.0,0.0,0.0022966584656387568,-0.00029737604199908674,-0.0,0.0,0.0,0.0,0.0,0.0,0.0,0.0,0.0,0.0,0.0,0.0,0.0,0.0,0.0,0.0,0.0,0.0,0.0,0.0,0.0,0.0,0.0,1.6450012922286987,0.0035683390310160285,-0.08885887114905779,0.03767890124932962,0.0011787534458562732,0.0070027802139520645,0.0
629,5,1.9225517462473363e-05,-4.952421659254469e-05,-3.162007487844676e-05,0.0027271860744804144,0.005012055393308401,0.003812722861766815,0.0,0.0,0.0,0.0,0.0,0.0,0.0,0.0,0.0,0.005522238556295633,-0.0006842177826911211,-0.0,0.0,0.0,0.0,0.0,0.0,0.0,0.0,0.0,0.0,0.0,0.0,0.0,0.0,0.0,0.0,0.0,0.0,0.0,0.0,0.0,0.0,0.0,1.6726253032684326,0.00024326226554312146,-0.08931244005973683,0.03611945815917171,0.0027576445136219263,0.01712057553231716,0.0
635,6,9.833805961534381e-06,-4.71046514576301e-05,-4.408461245475337e-05,-3.613100852817297e-05,0.0017144742887467146,0.0030208337120711803,0.0,0.0,0.0,0.0,0.0,0.0,0.0,0.0,0.0,0.005522238556295633,-0.0006842177826911211,-0.0,0.0,0.0,0.0,0.0,0.0,0.0,0.0,0.0,0.0,0.0,0.0,0.0,0.0,0.0,0.0,0.0,0.0,0.0,0.0,0.0,0.0,0.0,1.6726253032684326,-5.2738250302035e-05,-0.08989685708455637,0.03658239228701393,0.0027576445136219263,0.01712057553231716,0.0
640,5,-2.9196035029599443e-06,-7.149818702600896e-05,-4.8468613385921344e-05,-0.0011108724866062403,0.003632594831287861,0.0022750122006982565,0.0,0.0,0.0,0.0,0.0,0.0,0.0,0.0,0.0,-0.002195532899349928,-2.0903104086755775e-05,-0.0,0.0,0.0,0.0,0.0,0.0,0.0,0.0,0.0,0.0,0.0,0.0,0.0,0.0,0.0,0.0,0.0,0.0,0.0,0.0,0.0,0.0,0.0,1.643889307975769,0.0008824426354375439,-0.08918926812106026,0.036302520630923894,8.280073961941525e-05,-0.006689912173897028,0.0
645,5,-1.4549368643201888e-05,-4.2841747927013785e-05,-8.660112143843435e-06,-0.0018399207619950175,-0.0019857350271195173,-0.0038670154754072428,0.0,0.0,0.0,0.0,0.0,0.0,0.0,0.0,0.0,-0.002195532899349928,-2.0903104086755775e-05,-0.0,0.0,0.0,0.0,0.0,0.0,0.0,0.0,0.0,0.0,0.0,0.0,0.0,0.0,0.0,0.0,0.0,0.0,0.0,0.0,0.0,0.0,0.0,1.643889307975769,-0.0008732157438277895,-0.08958036041008498,0.03623448918128928,8.280073961941525e-05,-0.006689912173897028,0.0
650,5,-3.700704951370426e-07,-3.751783151528798e-05,-2.761991709121503e-06,0.0009655473986640573,-0.0014331639977172017,-0.0022545806132256985,0.0,0.0,0.0,0.0,0.0,0.0,0.0,0.0,0.0,0.0023530018515884876,-0.001752760843373835,-0.0,0.0,0.0,0.0,0.0,0.0,0.0,0.0,0.0,0.0,0.0,0.0,0.0,0.0,0.0,0.0,0.0,0.0,0.0,0.0,0.0,0.0,0.0,1.6529324054718018,6.25891016492608e-05,-0.08961350551174009,0.03626073798784008,0.0069811707362532616,0.0072091687470674515,0.0
655,5,-1.753250035108067e-05,-2.5976905817515217e-05,4.0354480006499216e-05,-0.0016732725780457258,-0.001958176726475358,-0.0060758087784051895,0.0,0.0,0.0,0.0,0.0,0.0,0.0,0.0,0.0,0.0023530018515884876,-0.001752760843373835,-0.0,0.0,0.0,0.0,0.0,0.0,0.0,0.0,0.0,0.0,0.0,0.0,0.0,0.0,0.0,0.0,0.0,0.0,0.0,0.0,0.0,0.0,0.0,1.6529324054718018,0.0015972333448461694,-0.08868822131754463,0.0366736305780223,0.0069811707362532616,0.0072091687470674515,0.0
660,5,-1.401483405061299e-05,-4.004514266853221e-05,1.2986987712793052e-05,-0.00024718913482502103,0.0009049179498106241,0.0008537755347788334,0.0,0.0,0.0,0.0,0.0,0.0,0.0,0.0,0.0,0.0023511352483183146,-0.0016010967083275318,-0.0,0.0,0.0,0.0,0.0,0.0,0.0,0.0,0.0,0.0,0.0,0.0,0.0,0.0,0.0,0.0,0.0,0.0,0.0,0.0,0.0,0.0,0.0,1.65179443359375,0.001265479314773465,-0.08887435200274031,0.036473219380481134,0.006372708827257156,0.007198490668088198,0.0
666,5,-6.641718755417969e-06,-4.9662270612316206e-05,8.239321687142365e-07,0.000785898242611438,0.0015160221373662353,0.0018010768108069897,0.0,0.0,0.0,0.0,0.0,0.0,0.0,0.0,0.0,0.0023511352483183146,-0.0016010967083275318,-0.0,0.0,0.0,0.0,0.0,0.0,0.0,0.0,0.0,0.0,0.0,0.0,0.0,0.0,0.0,0.0,0.0,0.0,0.0,0.0,0.0,0.0,0.0,1.65179443359375,0.00015331103286251555,-0.08946304907358514,0.03665923880964989,0.006372708827257156,0.007198490668088198,0.0
671,5,-2.4793673219392076e-05,-2.7267460609436966e-05,5.107856122776866e-05,-0.0018638753099367023,-0.002080968115478754,-0.005310124717652798,0.0,0.0,0.0,0.0,0.0,0.0,0.0,0.0,0.0,-0.0019562384113669395,0.0007344639161601663,-0.0,0.0,0.0,0.0,0.0,0.0,0.0,0.0,0.0,0.0,0.0,0.0,0.0,0.0,0.0,0.0,0.0,0.0,0.0,0.0,0.0,0.0,0.0,1.6437314748764038,0.0009281370831300156,-0.08776330693159481,0.03629769328678874,-0.002909058006480336,-0.0059601981192827225,-0.0
676,5,-2.170319203287363e-05,-7.868282409617677e-06,3.5334043786861e-05,-0.0003746922593563795,-0.00316028855741024,-0.00023470779706258327,0.0,0.0,0.0,0.0,0.0,0.0,0.0,0.0,0.0,-0.0019562384113669395,0.0007344639161601663,-0.0,0.0,0.0,0.0,0.0,0.0,0.0,0.0,0.0,0.0,0.0,0.0,0.0,0.0,0.0,0.0,0.0,0.0,0.0,0.0,0.0,0.0,0.0,1.6437314748764038,0.00010054549533439874,-0.08953052984156744,0.036775554507323074,-0.002909058006480336,-0.0059601981192827225,-0.0
681,5,2.3886900635261554e-06,-4.377922959974967e-05,-2.145739745174069e-05,0.002741148928180337,0.0030451982747763395,0.00672109005972743,0.0,0.0,0.0,0.0,0.0,0.0,0.0,0.0,0.0,0.003841581055894494,-0.0003819854755420238,-0.0,0.0,0.0,0.0,0.0,0.0,0.0,0.0,0.0,0.0,0.0,0.0,0.0,0.0,0.0,0.0,0.0,0.0,0.0,0.0,0.0,0.0,0.0,1.6579790115356445,-0.0004536147849225941,-0.0885518900629308,0.0358866488044618,0.0015260704094544053,0.011805806308984756,0.0
686,5,-2.1783622287330218e-05,-4.343710770626785e-06,-3.588012987165712e-06,-0.0018042180454358459,-0.003514182986691594,0.0005441097309812903,0.0,0.0,0.0,0.0,0.0,0.0,0.0,0.0,0.0,0.003841581055894494,-0.0003819854755420238,-0.0,0.0,0.0,0.0,0.0,0.0,0.0,0.0,0.0,0.0,0.0,0.0,0.0,0.0,0.0,0.0,0.0,0.0,0.0,0.0,0.0,0.0,0.0,1.6579790115356445,0.0012570359708696437,-0.08936963354159046,0.03676370716742681,0.0015260704094544053,0.011805806308984756,0.0
691,5,-9.41709822654957e-06,-3.1145609682425857e-06,-9.453698112338316e-06,0.0007622957928106189,-0.0015531711978837848,0.0009215261088684201,0.0,0.0,0.0,0.0,0.0,0.0,0.0,0.0,0.0,0.004259351175278425,-0.0017157361144199967,-0.0,0.0,0.0,0.0,0.0,0.0,0.0,0.0,0.0,0.0,0.0,0.0,0.0,0.0,0.0,0.0,0.0,0.0,0.0,0.0,0.0,0.0,0.0,1.6659096479415894,0.0011514756648980978,-0.08931445329715959,0.03657341862651517,0.006887310650199652,0.013152279891073704,0.0
696,5,-1.5543064364464954e-05,-3.155051308567636e-05,1.736855301714968e-05,-0.00043019771692343056,0.002791045932099223,-0.0028500596527010202,0.0,0.0,0.0,0.0,0.0,0.0,0.0,0.0,0.0,0.004259351175278425,-0.0017157361144199967,-0.0,0.0,0.0,0.0,0.0,0.0,0.0,0.0,0.0,0.0,0.0,0.0,0.0,0.0,0.0,0.0,0.0,0.0,0.0,0.0,0.0,0.0,0.0,1.6659096479415894,-0.0004628582715822802,-0.08843311835195526,0.03592341419472207,0.0017004658002406359,-0.010642075911164284,0.0
701,5,-8.486696060572285e-06,-3.477063000900671e-05,9.482037057750858e-06,0.0006746851722709835,0.0015028321649879217,-0.00019364195759408176,0.0,0.0,0.0,0.0,0.0,0.0,0.0,0.0,0.0,-0.0034692680928856134,-0.00042641954496502876,-0.0,0.0,0.0,0.0,0.0,0.0,0.0,0.0,0.0,0.0,0.0,0.0,0.0,0.0,0.0,0.0,0.0,0.0,0.0,0.0,0.0,0.0,0.0,1.6549371480941772,0.001460171224567337,-0.08894240593155783,0.03660067268518448,0.0017004658002406359,-0.010642075911164284,0.0
706,5,-9.412400686414912e-06,-3.440001091803424e-05,1.2716503078991082e-05,0.00015878952399361879,0.000556658604182303,-0.00046559268957935274,0.0,0.0,0.0,0.0,0.0,0.0,0.0,0.0,0.0,-0.0007533067255280912,0.00013779611617792398,-0.0,0.0,0.0,0.0,0.0,0.0,0.0,0.0,0.0,0.0,0.0,0.0,0.0,0.0,0.0,0.0,0.0,0.0,0.0,0.0,0.0,0.0,0.0,1.6321048736572266,0.0012659788247406853,-0.08833961541931315,0.03642423760637338,-0.0005419220542535186,-0.0022789163049310446,0.0
711,5,-8.395728400500957e-06,-5.905201760469936e-05,1.6654472346999682e-05,0.00018551645916886628,0.0031809043139219284,-0.0006587933166883886,0.0,0.0,0.0,0.0,0.0,0.0,0.0,0.0,0.0,-0.0007533067255280912,0.00013779611617792398,-0.0,0.0,0.0,0.0,0.0,0.0,0.0,0.0,0.0,0.0,0.0,0.0,0.0,0.0,0.0,0.0,0.0,0.0,0.0,0.0,0.0,0.0,0.0,1.6321048736572266,-1.7900686154654804e-05,-0.0887668230563416,0.03579313713064839,-0.0005419220542535186,-0.0022789163049310446,0.0
716,5,-3.775498771574348e-05,-1.811426227504853e-05,6.579890759894624e-05,-0.0034489042591303587,-0.003640169044956565,-0.006160849705338478,0.0,0.0,0.0,0.0,0.0,0.0,0.0,0.0,0.0,0.0043593766167759895,-0.0032529598101973534,-0.0,0.0,0.0,0.0,0.0,0.0,0.0,0.0,0.0,0.0,0.0,0.0,0.0,0.0,0.0,0.0,0.0,0.0,0.0,0.0,0.0,0.0,0.0,1.6767449378967285,0.001107360912713884,-0.08855327505598513,0.03690257206648545,0.013142946176230907,0.013548695482313633,0.0
721,5,-4.403950515552424e-05,-5.368569418351399e-06,7.272062066476792e-05,-0.002133703790605068,-0.002985550556331873,-0.003294945228844881,0.0,0.0,0.0,0.0,0.0,0.0,0.0,0.0,0.0,0.0043593766167759895,-0.0032529598101973534,-0.0,0.0,0.0,0.0,0.0,0.0,0.0,0.0,0.0,0.0,0.0,0.0,0.0,0.0,0.0,0.0,0.0,0.0,0.0,0.0,0.0,0.0,0.0,1.6767449378967285,0.0020498639464083287,-0.08818192526746539,0.036785702375367,0.013142946176230907,0.013548695482313633,0.0
726,5,-3.1896477594273165e-05,-1.3103946002956945e-05,2.101700556522701e-05,0.0006036818958818913,-0.00026597504620440304,0.0048864553682506084,0.0,0.0,0.0,0.0,0.0,0.0,0.0,0.0,0.0,0.0043593766167759895,-0.0032529598101973534,-0.0,0.0,0.0,0.0,0.0,0.0,0.0,0.0,0.0,0.0,0.0,0.0,0.0,0.0,0.0,0.0,0.0,0.0,0.0,0.0,0.0,0.0,0.0,1.6767449378967285,0.001426722444925177,-0.0897461561108594,0.03720302669930137,0.013142946176230907,0.013548695482313633,0.0
