timestamp,dt,pos_x,pos_y,pos_z,vel_x,vel_y,vel_z,roll,pitch,yaw,agv_x,agv_y,agv_z,x_ref,y_ref,z_ref,roll_ref,pitch_ref,yaw_ref,x_vel_ref,y_vel_ref,z_vel_ref,x_torque,y_torque,z_torque,w0,w1,w2,w3,u0,u1,u2,u3,m0req,m1req,m2req,m3req,thrust0,thrust1,thrust2,thrust3,thrust_ref,roll_vicon,pitch_vicon,yaw_vicon,acc_x,acc_y,acc_z
5,5,0.0,0.0,0.0,0.028598984703421593,-0.013545382767915726,0.03016046993434429,0.042494773864746094,0.4313567876815796,-0.017740601673722267,-0.0025604586116969585,0.0008401999366469681,-0.0008832046878524125,0.0,0.0,0.0,0.014154383912682533,0.0229912381619215,-0.0,0.0,0.0,0.0,0.004999999888241291,0.004999999888241291,-2.3059501530475757e-10,1495.0,1495.0,1495.0,1495.0,0.0,0.0,0.0,0.0,0.0,0.0,0.0,0.0,1495.0,1495.0,1495.0,1495.0,1.9361963272094727,-2.85736858330369,0.523542276902622,1.5345575895012804,-0.10724619030952454,0.050795186311006546,0.0
44,39,0.0,0.0,0.0,0.042819470167160034,-0.011775010265409946,0.06717059016227722,0.042494773864746094,0.4313567876815796,-0.017740601673722267,-0.0025604586116969585,0.0008401999366469681,-0.0008832046878524125,0.0,0.0,0.0,0.014154383912682533,0.0229912381619215,-0.0,0.0,0.0,0.0,0.004999999888241291,0.004999999888241291,-2.3059501530475757e-10,1495.0,1495.0,1495.0,1495.0,0.0,0.0,0.0,0.0,0.0,0.0,0.0,0.0,1495.0,1495.0,1495.0,1495.0,1.9361963272094727,-0.16698109363516914,-0.4873384412605799,-0.011763723176308116,-0.10724619030952454,0.050795186311006546,0.0
49,5,0.0,0.0,0.0,0.04264496639370918,-0.014754483476281166,0.06569433212280273,0.04250868409872055,0.4313408136367798,-0.017754333093762398,0.000902309431694448,0.00576141569763422,-0.006590184755623341,0.0,0.0,0.0,0.01159605197608471,0.03244400769472122,-0.0,0.0,0.0,0.0,0.004999999888241291,0.004999999888241291,3.8972985949570216e-10,1495.0,1495.0,1495.0,1495.0,0.0,0.0,0.0,0.0,0.0,0.0,0.0,0.0,1495.0,1495.0,1495.0,1495.0,2.0544307231903076,-0.16626060166006576,-0.4765831322354927,-0.007027201878074884,-0.16057300567626953,0.044156286865472794,0.0
54,5,0.0,0.0,0.0,0.03327205777168274,-0.015568379312753677,0.05432843789458275,0.04250868409872055,0.4313408136367798,-0.017754333093762398,0.000902309431694448,0.00576141569763422,-0.006590184755623341,0.0,0.0,0.0,0.01159605197608471,0.03244400769472122,-0.0,0.0,0.0,0.0,0.004999999888241291,0.004999999888241291,3.8972985949570216e-10,1495.0,1495.0,1495.0,1495.0,0.0,0.0,0.0,0.0,0.0,0.0,0.0,0.0,1495.0,1495.0,1495.0,1495.0,2.0544307231903076,-0.1630656669053015,-0.4701203913140057,-0.0023012268842797284,-0.12477021664381027,0.058381423354148865,0.0
59,5,0.0,0.0,0.0,0.025708932429552078,-0.01510537788271904,0.03628472983837128,0.042491525411605835,0.43131083250045776,-0.01778671145439148,-0.0009032898233272135,0.005152692086994648,-0.002669387497007847,0.0,0.0,0.0,0.015877770259976387,0.026106782257556915,-0.0,0.0,0.0,0.0,0.004999999888241291,0.004999999888241291,3.8972985949570216e-10,1495.0,1495.0,1495.0,1495.0,0.0,0.0,0.0,0.0,0.0,0.0,0.0,0.0,1495.0,1495.0,1495.0,1495.0,1.9838541746139526,-0.16317939778723412,-0.4660098269260018,0.0009245972150315377,-0.12477021664381027,0.058381423354148865,0.0
64,5,-0.012915443629026413,-0.011837752535939217,-0.0023310291580855846,0.025708932429552078,-0.01510537788271904,0.03628472983837128,0.042491525411605835,0.43131083250045776,-0.01778671145439148,-0.0009032898233272135,0.005152692086994648,-0.002669387497007847,0.0,0.0,0.0,-0.0025620826054364443,0.005864466540515423,-0.0,0.0,0.0,0.0,0.004999999888241291,0.004999999888241291,3.8972985949570216e-10,1495.0,1495.0,1495.0,1495.0,0.0,0.0,0.0,0.0,0.0,0.0,0.0,0.0,1495.0,1495.0,1495.0,1495.0,1.7919244766235352,-2.8619016305637497,0.5548263729751444,1.535799354148772,-0.025321895256638527,-0.008509823121130466,0.0
69,5,-0.012801691889762878,-0.011779943481087685,-0.0024438798427581787,0.02393382415175438,-0.012979250401258469,0.028055990114808083,0.04249124974012375,0.43128103017807007,-0.01779891550540924,-0.0012169616529718041,0.0038278813008219004,-0.003259933553636074,0.0,0.0,0.0,-0.0025620826054364443,0.005864466540515423,-0.0,0.0,0.0,0.0,0.004999999888241291,0.004999999888241291,4.329453809348571e-11,15079.0,15015.0,15075.0,15138.0,0.513725221157074,0.5091797709465027,0.5134901404380798,0.5180355906486511,0.0,0.0,0.0,0.0,15079.0,15015.0,15075.0,15138.0,1.7919244766235352,-2.8609046069565,0.5483896744736538,1.535801379061768,-0.025321895256638527,-0.008509823121130466,0.0
74,5,-0.01275066938251257,-0.011759024113416672,-0.002527759177610278,0.015696175396442413,-0.007701977156102657,0.021287910640239716,0.04249124974012375,0.43128103017807007,-0.01779891550540924,-0.0012169616529718041,0.0038278813008219004,-0.003259933553636074,0.0,0.0,0.0,-0.0025620826054364443,0.005864466540515423,-0.0,0.0,0.0,0.0,0.004999999888241291,0.004999999888241291,4.329453809348571e-11,15079.0,15015.0,15075.0,15138.0,0.513725221157074,0.5091797709465027,0.5134901404380798,0.5180355906486511,0.0,0.0,0.0,0.0,15079.0,15015.0,15075.0,15138.0,1.792249321937561,-2.8611144019304704,0.5440550100302457,1.5364066988425957,0.011370688676834106,-0.035886604338884354,0.0
79,5,-0.012628844007849693,-0.011721187271177769,-0.0026608516927808523,0.02089754119515419,-0.007621290627866983,0.024486279115080833,0.0425032377243042,0.4312766492366791,-0.017848225310444832,-0.0009000904974527657,-0.002241804962977767,-0.0018362955888733268,0.0,0.0,0.0,-0.01080290973186493,-0.0026330691762268543,-0.0,0.0,0.0,0.0,0.004999999888241291,0.004999999888241291,7.060337037234632e-11,14831.0,14767.0,14828.0,14892.0,0.49608108401298523,0.49153563380241394,0.4958460032939911,0.5003914833068848,0.0,0.0,0.0,0.0,14831.0,14767.0,14828.0,14892.0,1.792249321937561,-2.8608913185001255,0.5378119019132127,1.53627720509646,0.011370688676834106,-0.035886604338884354,0.0
85,5,-0.012469189241528511,-0.011662282980978489,-0.0028224459383636713,0.027517598122358322,-0.010116963647305965,0.02918579988181591,0.042526643723249435,0.4313099980354309,-0.017856189981102943,-0.0031427766662091017,0.00357173103839159,-0.003146264236420393,0.0,0.0,0.0,-0.00792598258703947,0.007974634878337383,-0.0,0.0,0.0,0.0,0.004999999888241291,0.004999999888241291,-1.8964924075604017e-10,14135.0,14067.0,14131.0,14199.0,0.44809865951538086,0.44355320930480957,0.4478635787963867,0.452409029006958,0.0,0.0,0.0,0.0,14135.0,14067.0,14131.0,14199.0,1.7932649850845337,-2.8583736788270757,0.5299122888040202,1.5352902074978143,-0.03445791080594063,-0.02634497918188572,0.0
90,5,-0.01236699242144823,-0.011614842340350151,-0.0029190059285610914,0.02327064611017704,-0.009739727713167667,0.023261521011590958,0.042526643723249435,0.4313099980354309,-0.017856189981102943,-0.0031427766662091017,0.00357173103839159,-0.003146264236420393,0.0,0.0,0.0,-0.00792598258703947,0.007974634878337383,-0.0,0.0,0.0,0.0,0.004999999888241291,0.004999999888241291,-1.8964924075604017e-10,14135.0,14067.0,14131.0,14199.0,0.44809865951538086,0.44355320930480957,0.4478635787963867,0.452409029006958,0.0,0.0,0.0,0.0,14135.0,14067.0,14131.0,14199.0,1.7932649850845337,-2.859356651780877,0.5214980850337612,1.5365442266237235,-0.03445791080594063,-0.02634497918188572,0.0
95,5,-0.012183216400444508,-0.011571582406759262,-0.003078634850680828,0.0313614085316658,-0.00908700842410326,0.028460092842578888,0.042526643723249435,0.4313099980354309,-0.017856189981102943,-0.0031427766662091017,0.00357173103839159,-0.003146264236420393,0.0,0.0,0.0,-0.00792598258703947,0.007974634878337383,-0.0,0.0,0.0,0.0,0.004999999888241291,0.004999999888241291,-1.8964924075604017e-10,14135.0,14067.0,14131.0,14199.0,0.44809865951538086,0.44355320930480957,0.4478635787963867,0.452409029006958,0.0,0.0,0.0,0.0,14135.0,14067.0,14131.0,14199.0,1.7932649850845337,-2.8529476997919434,0.5191308260348457,1.531330089253043,-0.03445791080594063,-0.02634497918188572,0.0
100,5,-0.0011913204798474908,-0.0004461456264834851,0.0019361743470653892,0.0313614085316658,-0.00908700842410326,0.028460092842578888,0.042517565190792084,0.43126821517944336,-0.01785738579928875,-0.00024181578191928566,0.005944153293967247,-0.005649100989103317,0.0,0.0,0.0,-0.008950651623308659,0.011661934666335583,-0.0,0.0,0.0,0.0,0.004999999888241291,0.004999999888241291,6.13268533178335e-11,14140.0,14072.0,14136.0,14204.0,0.4484337866306305,0.4438883364200592,0.44819870591163635,0.45274415612220764,0.0,0.0,0.0,0.0,14136.0,14068.0,14132.0,14200.0,1.7935090065002441,-0.164478760417827,-0.5331080449081227,-0.025913086270213395,-0.05039631947875023,-0.029754744842648506,0.0
105,5,-0.0009178637992590666,-0.00037105585215613246,0.001426626113243401,0.032146111130714417,-0.008131573908030987,0.05364874750375748,0.042517565190792084,0.43126821517944336,-0.01785738579928875,-0.00024181578191928566,0.005944153293967247,-0.005649100989103317,0.0,0.0,0.0,-0.008950651623308659,0.011661934666335583,-0.0,0.0,0.0,0.0,0.004999999888241291,0.004999999888241291,6.13268533178335e-11,14140.0,14072.0,14136.0,14204.0,0.4484337866306305,0.4438883364200592,0.44819870591163635,0.45274415612220764,0.0,0.0,0.0,0.0,14136.0,14068.0,14132.0,14200.0,1.7935090065002441,-0.16423986582071243,-0.5156999076073947,-0.02055934817791092,-0.05039631947875023,-0.029754744842648506,0.0
111,5,-0.0006882862653583288,-0.0003068193036597222,0.0010523294331505895,0.04040775075554848,-0.010961014777421951,0.06637509912252426,0.042507611215114594,0.43126437067985535,-0.017878221347928047,-0.0031327870674431324,-0.00105229951441288,-0.0006511440151371062,0.0,0.0,0.0,0.007875344716012478,0.024714667350053787,-0.0,0.0,0.0,0.0,0.004999999888241291,0.004999999888241291,5.289130244889861e-10,14141.0,14073.0,14137.0,14205.0,0.4484947919845581,0.4439493417739868,0.44825971126556396,0.45280516147613525,0.0,0.0,0.0,0.0,14140.0,14072.0,14136.0,14204.0,1.9362455606460571,-0.16261077468516194,-0.5035789433547799,-0.015288011054974498,-0.11529471725225449,0.028263788670301437,0.0
116,5,-0.0004174735804554075,-0.0002465883444529027,0.0006054114201106131,0.04866062104701996,-0.011612119153141975,0.08018019795417786,0.042507611215114594,0.43126437067985535,-0.017878221347928047,-0.0031327870674431324,-0.00105229951441288,-0.0006511440151371062,0.0,0.0,0.0,0.007875344716012478,0.024714667350053787,-0.0,0.0,0.0,0.0,0.004999999888241291,0.004999999888241291,5.289130244889861e-10,14141.0,14073.0,14137.0,14205.0,0.4484947919845581,0.4439493417739868,0.44825971126556396,0.45280516147613525,0.0,0.0,0.0,0.0,14140.0,14072.0,14136.0,14204.0,1.9362455606460571,-0.16371665791250473,-0.48863748535638896,-0.010310689752846752,-0.11529471725225449,0.028263788670301437,0.0
121,5,-0.0002226751676062122,-0.00014195131370797753,0.00028470944380387664,0.04284005984663963,-0.017201291397213936,0.07055632025003433,0.042465537786483765,0.4312533438205719,-0.017872583121061325,-0.0017632166855037212,0.002327198628336191,-0.0010609031887724996,0.0,0.0,0.0,0.01079785730689764,0.035601142793893814,-0.0,0.0,0.0,0.0,0.004999999888241291,0.004999999888241291,-3.0022012653674324e-10,14662.0,14596.0,14658.0,14723.0,0.48417893052101135,0.47963348031044006,0.4839438498020172,0.4884893000125885,0.0,0.0,0.0,0.0,14141.0,14073.0,14137.0,14205.0,2.0985169410705566,-0.16148344864072314,-0.47768933827260224,-0.004938673708381984,-0.17997461557388306,0.041999418288469315,0.0
127,6,-0.00010717147233663127,-5.612841414404102e-05,0.00010295837273588404,0.030996467918157578,-0.01717926561832428,0.05003265663981438,0.042465537786483765,0.4312533438205719,-0.017872583121061325,-0.0017632166855037212,0.002327198628336191,-0.0010609031887724996,0.0,0.0,0.0,0.01079785730689764,0.035601142793893814,-0.0,0.0,0.0,0.0,0.004999999888241291,0.004999999888241291,-3.0022012653674324e-10,14662.0,14596.0,14658.0,14723.0,0.48417893052101135,0.47963348031044006,0.4839438498020172,0.4884893000125885,0.0,0.0,0.0,0.0,14141.0,14073.0,14137.0,14205.0,2.0985169410705566,-0.16119441940336768,-0.47117579016088723,-0.0015691357565454723,-0.17997461557388306,0.041999418288469315,0.0
132,5,-2.1972527974867262e-05,1.5579580576741137e-05,1.1198701940884348e-05,0.02262246049940586,-0.015476665459573269,0.031024223193526268,0.04245913773775101,0.43129846453666687,-0.0178437028080225,0.00090065534459427,-0.0002294859295943752,0.0025049345567822456,0.0,0.0,0.0,0.017512239515781403,0.0243312306702137,-0.0,0.0,0.0,0.0,0.004999999888241291,0.004999999888241291,-1.1178208532414136e-11,15231.0,15168.0,15228.0,15290.0,0.5247467756271362,0.5202013254165649,0.5245116949081421,0.5290571451187134,0.0,0.0,0.0,0.0,14662.0,14596.0,14658.0,14723.0,1.9694764614105225,-0.1605208925928716,-0.46602427832890814,0.001373611267875621,-0.1154402643442154,0.06392352283000946,0.0
137,5,2.045868313871324e-05,0.00011029791494365782,2.0697385480161756e-05,0.014140729792416096,-0.017556866630911827,0.011269846931099892,0.04245913773775101,0.43129846453666687,-0.0178437028080225,0.00090065534459427,-0.0002294859295943752,0.0025049345567822456,0.0,0.0,0.0,0.019321812316775322,0.011875583790242672,-0.0,0.0,0.0,0.0,0.004999999888241291,0.004999999888241291,-1.1178208532414136e-11,15231.0,15168.0,15228.0,15290.0,0.5247467756271362,0.5202013254165649,0.5245116949081421,0.5290571451187134,0.0,0.0,0.0,0.0,14662.0,14596.0,14658.0,14723.0,1.8501774072647095,-0.16075571884026185,-0.4635441630814925,0.003637663976624944,-0.05293329805135727,0.06625530868768692,0.0
142,5,5.244495332590304e-05,0.0002023492706939578,3.214220851077698e-05,0.009494644589722157,-0.018068909645080566,0.003134559839963913,0.04245913773775101,0.43129846453666687,-0.0178437028080225,0.00090065534459427,-0.0002294859295943752,0.0025049345567822456,0.0,0.0,0.0,0.019321812316775322,0.011875583790242672,-0.0,0.0,0.0,0.0,0.004999999888241291,0.004999999888241291,-1.1178208532414136e-11,15231.0,15168.0,15228.0,15290.0,0.5247467756271362,0.5202013254165649,0.5245116949081421,0.5290571451187134,0.0,0.0,0.0,0.0,14662.0,14596.0,14658.0,14723.0,1.8501774072647095,-0.16119337782738352,-0.4617842050490525,0.005144244900729267,-0.05293329805135727,0.06625530868768692,0.0
147,5,7.522661326220259e-05,0.00026025931583717465,6.351482443278655e-05,0.006531657185405493,-0.014176768250763416,-0.0025108898989856243,0.04245913773775101,0.43129846453666687,-0.0178437028080225,0.00090065534459427,-0.0002294859295943752,0.0025049345567822456,0.0,0.0,0.0,0.019321812316775322,0.011875583790242672,-0.0,0.0,0.0,0.0,0.004999999888241291,0.004999999888241291,-1.1178208532414136e-11,15231.0,15168.0,15228.0,15290.0,0.5247467756271362,0.5202013254165649,0.5245116949081421,0.5290571451187134,0.0,0.0,0.0,0.0,15231.0,15168.0,15228.0,15290.0,1.8501774072647095,-0.16040538058140633,-0.4623621791039484,0.006966739868825018,-0.05293329805135727,0.06625530868768692,0.0
153,5,0.00010690575436456129,0.0003328261082060635,0.00010990647569997236,0.006414159666746855,-0.014378722757101059,-0.00657135434448719,0.042452577501535416,0.431278258562088,-0.017836084589362144,-0.00212838314473629,0.002882893430069089,-0.004180981777608395,0.0,0.0,0.0,0.01636861264705658,0.005716890562325716,-0.0,0.0,0.0,0.0,0.004999999888241291,0.004999999888241291,-1.9062824929694244e-10,14780.0,14715.0,14777.0,14841.0,0.4924866557121277,0.4879412055015564,0.49225157499313354,0.49679702520370483,0.0,0.0,0.0,0.0,14780.0,14715.0,14777.0,14841.0,1.7933282852172852,-0.15929485895804119,-0.4626627489010652,0.008452665768069478,-0.024700799956917763,0.05440577119588852,0.0
160,7,0.00012120509927626699,0.0003707747673615813,0.0001536847121315077,0.004281585104763508,-0.010305328294634819,-0.007881930097937584,0.042452577501535416,0.431278258562088,-0.017836084589362144,-0.00212838314473629,0.002882893430069089,-0.004180981777608395,0.0,0.0,0.0,0.01636861264705658,0.005716890562325716,-0.0,0.0,0.0,0.0,0.004999999888241291,0.004999999888241291,-1.9062824929694244e-10,14780.0,14715.0,14777.0,14841.0,0.4924866557121277,0.4879412055015564,0.49225157499313354,0.49679702520370483,0.0,0.0,0.0,0.0,14780.0,14715.0,14777.0,14841.0,1.7933282852172852,-0.15945055083583773,-0.46244524213477234,0.009017921604314475,-0.024700799956917763,0.05440577119588852,0.0
165,5,0.00012490880908444524,0.0003951670369133353,0.0001995261845877394,0.0021570799872279167,-0.00704920245334506,-0.008653748780488968,0.042452577501535416,0.431278258562088,-0.017836084589362144,-0.00212838314473629,0.002882893430069089,-0.004180981777608395,0.0,0.0,0.0,0.012185513973236084,0.0038230030331760645,-0.0,0.0,0.0,0.0,0.004999999888241291,0.004999999888241291,-1.9062824929694244e-10,14780.0,14715.0,14777.0,14841.0,0.4924866557121277,0.4879412055015564,0.49225157499313354,0.49679702520370483,0.0,0.0,0.0,0.0,14780.0,14715.0,14777.0,14841.0,1.79304838180542,-0.15996908429585002,-0.46277251855965323,0.009784191325215706,-0.016516394913196564,0.04049719125032425,0.0
170,5,0.00013807721552439034,0.0004211085324641317,0.00017761773779056966,0.0024430397897958755,-0.0059326631017029285,-0.0008324862574227154,0.042445261031389236,0.4312938153743744,-0.017830610275268555,7.8401411883533e-05,-0.004814370535314083,-0.0024937507696449757,0.0,0.0,0.0,0.012185513973236084,0.0038230030331760645,-0.0,0.0,0.0,0.0,0.004999999888241291,0.004999999888241291,-5.975264987662099e-12,14350.0,14283.0,14346.0,14413.0,0.46266189217567444,0.45811644196510315,0.4624268114566803,0.4669722616672516,0.0,0.0,0.0,0.0,14140.0,14072.0,14136.0,14204.0,1.79304838180542,-0.15727189961403717,-0.46368806585813044,0.010517969146082067,-0.016516394913196564,0.04049719125032425,0.0
175,5,5.1937811804236844e-05,0.00038345452048815787,0.0002383075188845396,-0.009359512478113174,0.002145417034626007,-0.007615768350660801,0.042445261031389236,0.4312938153743744,-0.017830610275268555,7.8401411883533e-05,-0.004814370535314083,-0.0024937507696449757,0.0,0.0,0.0,0.007335982751101255,0.0022488979157060385,-0.0,0.0,0.0,0.0,0.004999999888241291,0.004999999888241291,-5.975264987662099e-12,14350.0,14283.0,14346.0,14413.0,0.46266189217567444,0.45811644196510315,0.4624268114566803,0.4669722616672516,0.0,0.0,0.0,0.0,14140.0,14072.0,14136.0,14204.0,1.7928425073623657,-0.1630530348175461,-0.4607102630342751,0.007321270095735049,-0.00971519947052002,0.02437821589410305,0.0
180,5,0.0002312231808900833,0.0003828499757219106,0.0001569511223351583,0.017770439386367798,0.0009307143627665937,0.0067164599895477295,0.042571790516376495,0.4313063621520996,-0.018116572871804237,0.0016674716025590897,0.013697476126253605,-0.06598338484764099,0.0,0.0,0.0,0.007335982751101255,0.0022488979157060385,-0.0,0.0,0.0,0.0,0.004999999888241291,0.004999999888241291,6.3352159074270276e-09,14140.0,14072.0,14136.0,14204.0,0.44844961166381836,0.44390416145324707,0.4482145309448242,0.4527599811553955,0.0,0.0,0.0,0.0,14140.0,14072.0,14136.0,14204.0,1.7928425073623657,-0.16180869163801084,-0.46114117383397907,0.008963008368012755,-0.00971519947052002,0.02437821589410305,0.0
185,5,0.00012493545364122838,0.00043215087498538196,0.00027453163056634367,-0.002211354672908783,-0.0016861965414136648,-0.007044084370136261,0.042571790516376495,0.4313063621520996,-0.018116572871804237,0.0016674716025590897,0.013697476126253605,-0.06598338484764099,0.0,0.0,0.0,-0.0004685404128395021,0.015559985302388668,-0.0,0.0,0.0,0.0,0.004999999888241291,0.004999999888241291,6.3352159074270276e-09,14140.0,14072.0,14136.0,14204.0,0.44844961166381836,0.44390416145324707,0.4482145309448242,0.4527599811553955,0.0,0.0,0.0,0.0,14140.0,14072.0,14136.0,14204.0,1.8058629035949707,-0.16133480210876444,-0.46120131714616436,0.008941041627246859,-0.06770617514848709,-0.0015683404635637999,0.0
190,5,5.015406713937409e-05,0.00043518823804333806,0.00032904150430113077,-0.009858309291303158,-0.0010389626258984208,-0.009358820505440235,0.04217132180929184,0.4311911463737488,-0.017370466142892838,-0.022648507729172707,-0.013641721569001675,0.14332301914691925,0.0,0.0,0.0,0.0018476160475984216,-0.008586214855313301,-0.0,0.0,0.0,0.0,0.004999999888241291,0.004999999888241291,1.8083333941376623e-08,14138.0,14070.0,14135.0,14202.0,0.44832855463027954,0.44378232955932617,0.4480934739112854,0.4526381492614746,0.0,0.0,0.0,0.0,14139.0,14071.0,14135.0,14203.0,1.783393383026123,-0.16433465913448334,-0.45831974041232,0.008678776507810838,0.036897312849760056,0.00610754918307066,0.0
195,5,-0.012790392152965069,-0.011784989386796951,-0.00236895983107388,-0.009858309291303158,-0.0010389626258984208,-0.009358820505440235,0.04217132180929184,0.4311911463737488,-0.017370466142892838,-0.022648507729172707,-0.013641721569001675,0.14332301914691925,0.0,0.0,0.0,0.0018476160475984216,-0.008586214855313301,-0.0,0.0,0.0,0.0,0.004999999888241291,0.004999999888241291,1.8083333941376623e-08,14138.0,14070.0,14135.0,14202.0,0.44832855463027954,0.44378232955932617,0.4480934739112854,0.4526381492614746,0.0,0.0,0.0,0.0,14139.0,14071.0,14135.0,14203.0,1.783393383026123,-2.862646043320731,0.5496787496677793,1.5354731888453956,0.036897312849760056,0.00610754918307066,0.0
200,5,-0.012865666300058365,-0.011810803785920143,-0.002297128550708294,-0.012976152822375298,0.002682164078578353,-0.012363273650407791,0.04306946322321892,0.43131741881370544,-0.018817802891135216,0.08151224255561829,0.0026283888146281242,0.03323037922382355,0.0,0.0,0.0,0.0018476160475984216,-0.008586214855313301,-0.0,0.0,0.0,0.0,0.004999999888241291,0.004999999888241291,9.18203610922319e-08,14186.0,14119.0,14183.0,14250.0,0.4515860974788666,0.4470349848270416,0.45135101675987244,0.45589080452919006,0.0,0.0,0.0,0.0,14138.0,14070.0,14135.0,14202.0,1.783393383026123,-2.8614052739346865,0.5526546602426632,1.535585864376541,0.036897312849760056,0.00610754918307066,0.0
205,5,-0.01272861659526825,-0.011761961504817009,-0.002452139975503087,0.011255467310547829,-0.004788281861692667,0.013656060211360455,0.04306946322321892,0.43131741881370544,-0.018817802891135216,0.08151224255561829,0.0026283888146281242,0.03323037922382355,0.0,0.0,0.0,-0.02037302777171135,-0.024929726496338844,-0.0,0.0,0.0,0.0,0.004999999888241291,0.004999999888241291,9.18203610922319e-08,14186.0,14119.0,14183.0,14250.0,0.4515860974788666,0.4470349848270416,0.45135101675987244,0.45589080452919006,0.0,0.0,0.0,0.0,14138.0,14070.0,14135.0,14202.0,1.9928697347640991,-2.8593449182631123,0.5466747733390509,1.5347086913716732,0.11967770010232925,-0.07524687796831131,0.0
211,5,-0.012645874172449112,-0.011705521494150162,-0.0025814238470047712,0.014431297779083252,-0.008688075467944145,0.02097647823393345,0.04177091270685196,0.43131864070892334,-0.01688557304441929,-0.030070031061768532,0.008901767432689667,-0.18319490551948547,0.0,0.0,0.0,-0.02037302777171135,-0.024929726496338844,-0.0,0.0,0.0,0.0,0.004999999888241291,0.004999999888241291,3.300117441540351e-07,14103.0,14035.0,14099.0,14167.0,0.4459742605686188,0.4414120614528656,0.44573917984962463,0.45026788115501404,0.0,0.0,0.0,0.0,14186.0,14119.0,14183.0,14250.0,1.9928697347640991,-2.8599661081957657,0.5408055148543809,1.5348368630615863,0.015741486102342606,-0.03207624703645706,0.0
216,5,-0.01242104358971119,-0.011628296226263046,-0.002853362588211894,0.03275222331285477,-0.012742280960083008,0.04102323576807976,0.04177091270685196,0.43131864070892334,-0.01688557304441929,-0.030070031061768532,0.008901767432689667,-0.18319490551948547,0.0,0.0,0.0,-0.009758333675563335,-0.0036838643718510866,-0.0,0.0,0.0,0.0,0.004999999888241291,0.004999999888241291,3.300117441540351e-07,14103.0,14035.0,14099.0,14167.0,0.4459742605686188,0.4414120614528656,0.44573917984962463,0.45026788115501404,0.0,0.0,0.0,0.0,14186.0,14119.0,14183.0,14250.0,1.773421049118042,-2.8555542425013924,0.5332799987793426,1.532461305495134,0.015741486102342606,-0.03207624703645706,0.0
221,5,-0.012316281907260418,-0.011631900444626808,-0.003017533104866743,0.02567225880920887,-0.004664392210543156,0.03610977530479431,0.04325591400265694,0.4316280484199524,-0.017969749867916107,-0.050416287034749985,-0.05560174211859703,0.18944402039051056,0.0,0.0,0.0,-0.009758333675563335,-0.0036838643718510866,-0.0,0.0,0.0,0.0,0.004999999888241291,0.004999999888241291,9.951597768065312e-09,14863.0,14799.0,14860.0,14924.0,0.4983345568180084,0.493789941072464,0.4980994462966919,0.50264573097229,0.0,0.0,0.0,0.0,14103.0,14035.0,14099.0,14167.0,1.773421049118042,-2.856181358487921,0.5252514780673241,1.5333360936321963,0.015741486102342606,-0.03207624703645706,0.0
226,5,-0.01222742535173893,-0.011594058014452457,-0.0031628976576030254,0.020931636914610863,-0.006406887900084257,0.031887657940387726,0.04325591400265694,0.4316280484199524,-0.017969749867916107,-0.050416287034749985,-0.05560174211859703,0.18944402039051056,0.0,0.0,0.0,-0.01406216062605381,0.006511698476970196,-0.0,0.0,0.0,0.0,0.004999999888241291,0.004999999888241291,9.951597768065312e-09,14863.0,14799.0,14860.0,14924.0,0.4983345568180084,0.493789941072464,0.4980994462966919,0.50264573097229,0.0,0.0,0.0,0.0,14103.0,14035.0,14099.0,14167.0,1.7958627939224243,-2.855201780775925,0.5193453026530992,1.532417478669233,-0.028175609186291695,-0.04680667072534561,0.0
231,5,-0.012190626002848148,-0.011545809917151928,-0.003229376394301653,0.012788636609911919,-0.008352498523890972,0.02073250338435173,0.042395707219839096,0.431677907705307,-0.017911754548549652,0.15391145646572113,-0.01169102918356657,-0.07206930965185165,0.0,0.0,0.0,-0.009785499423742294,-0.004508680664002895,-0.0,0.0,0.0,0.0,0.004999999888241291,0.004999999888241291,-1.5355826121776772e-07,14065.0,13998.0,14062.0,14130.0,0.44346436858177185,0.438935786485672,0.4432292878627777,0.44779160618782043,0.0,0.0,0.0,0.0,14863.0,14798.0,14860.0,14924.0,1.7945605516433716,-2.85371728544799,0.5168304670707687,1.5308474293126597,0.019495628774166107,-0.03254895657300949,0.0
236,5,-0.012210527434945107,-0.011525862850248814,-0.003236754797399044,0.002727221930399537,-0.005734642501920462,0.009178400970995426,0.042395707219839096,0.431677907705307,-0.017911754548549652,0.15391145646572113,-0.01169102918356657,-0.07206930965185165,0.0,0.0,0.0,-0.009785499423742294,-0.004508680664002895,-0.0,0.0,0.0,0.0,0.004999999888241291,0.004999999888241291,-1.5355826121776772e-07,14065.0,13998.0,14062.0,14130.0,0.44346436858177185,0.438935786485672,0.4432292878627777,0.44779160618782043,0.0,0.0,0.0,0.0,14863.0,14798.0,14860.0,14924.0,1.7945605516433716,-2.8540084407718567,0.5147252258084031,1.530562354609559,0.019495628774166107,-0.03254895657300949,0.0
241,5,-0.012228191830217838,-0.01149185374379158,-0.0032251691445708275,-0.0010287484619766474,-0.006374996155500412,0.002281077904626727,0.042395707219839096,0.431677907705307,-0.017911754548549652,0.15391145646572113,-0.01169102918356657,-0.07206930965185165,0.0,0.0,0.0,-0.009785499423742294,-0.004508680664002895,-0.0,0.0,0.0,0.0,0.004999999888241291,0.004999999888241291,-1.5355826121776772e-07,14065.0,13998.0,14062.0,14130.0,0.44346436858177185,0.438935786485672,0.4432292878627777,0.44779160618782043,0.0,0.0,0.0,0.0,14863.0,14798.0,14860.0,14924.0,1.7945605516433716,-2.852429763771158,0.5144503734173718,1.5282749527333244,0.019495628774166107,-0.03254895657300949,0.0
246,5,-0.012269865721464157,-0.011468220502138138,-0.003255207557231188,-0.005412369966506958,-0.005385963711887598,0.004517036024481058,0.042732518166303635,0.43224823474884033,-0.017820658162236214,-0.13173040747642517,-0.055215202271938324,0.01765056885778904,0.0,0.0,0.0,-0.011629173532128334,-0.01612142100930214,-0.0,0.0,0.0,0.0,0.004999999888241291,0.004999999888241291,4.916789180242631e-07,14150.0,14081.0,14146.0,14213.0,0.44910216331481934,0.4445188641548157,0.4488670825958252,0.4533746838569641,0.0,0.0,0.0,0.0,14066.0,13997.0,14062.0,14130.0,1.8424758911132812,-2.8529010072420764,0.5156473871734666,1.527369687176176,0.07156635075807571,-0.03971379995346069,0.0
251,5,-0.01236224640160799,-0.01146380603313446,-0.003244773717597127,-0.013250615447759628,-0.002684135688468814,0.0005547609180212021,0.042732518166303635,0.43224823474884033,-0.017820658162236214,-0.13173040747642517,-0.055215202271938324,0.01765056885778904,0.0,0.0,0.0,-0.011629173532128334,-0.01612142100930214,-0.0,0.0,0.0,0.0,0.004999999888241291,0.004999999888241291,4.916789180242631e-07,14150.0,14081.0,14146.0,14213.0,0.44910216331481934,0.4445188641548157,0.4488670825958252,0.4533746838569641,0.0,0.0,0.0,0.0,14066.0,13997.0,14062.0,14130.0,1.8424758911132812,-2.852456016365013,0.515901718494378,1.5262862125508998,0.07156635075807571,-0.03971379995346069,0.0
256,5,-0.0124994907528162,-0.01146756112575531,-0.0032751280814409256,-0.021769648417830467,-0.0006230275612324476,0.0038644392043352127,0.04321718588471413,0.43290066719055176,-0.018145503476262093,0.044451408088207245,-0.17340338230133057,0.034244976937770844,0.0,0.0,0.0,-0.014683530665934086,-0.02498028241097927,-0.0,0.0,0.0,0.0,0.004999999888241291,0.004999999888241291,-6.605779390156385e-07,14149.0,14082.0,14146.0,14214.0,0.44906532764434814,0.44455569982528687,0.448830246925354,0.4534115195274353,0.0,0.0,0.0,0.0,14149.0,14082.0,14146.0,14214.0,1.9638371467590332,-2.853502645904807,0.5188422586802304,1.5258032201955127,0.11818509548902512,-0.05344611778855324,0.0
261,5,-0.012676789425313473,-0.011481677182018757,-0.0032996335066854954,-0.029983701184391975,0.0014447348657995462,0.004486418329179287,0.04321718588471413,0.43290066719055176,-0.018145503476262093,0.044451408088207245,-0.17340338230133057,0.034244976937770844,0.0,0.0,0.0,-0.014683530665934086,-0.02498028241097927,-0.0,0.0,0.0,0.0,0.004999999888241291,0.004999999888241291,-6.605779390156385e-07,14149.0,14082.0,14146.0,14214.0,0.44906532764434814,0.44455569982528687,0.448830246925354,0.4534115195274353,0.0,0.0,0.0,0.0,14149.0,14082.0,14146.0,14214.0,1.9638371467590332,-2.8554684488554143,0.5204871478157449,1.5261667941660417,0.11818509548902512,-0.05344611778855324,0.0
266,5,-0.01284648198634386,-0.011510037817060947,-0.0033286092802882195,-0.03235650807619095,0.003981196787208319,0.005271675065159798,0.04296397790312767,0.43751880526542664,-0.01807575672864914,-0.07110921293497086,-0.32188233733177185,0.0009163253707811236,0.0,0.0,0.0,-0.014683530665934086,-0.02498028241097927,-0.0,0.0,0.0,0.0,0.004999999888241291,0.004999999888241291,-2.1611685951938853e-07,14144.0,14077.0,14141.0,14209.0,0.4487403631210327,0.4442295432090759,0.4485052824020386,0.45308536291122437,0.0,0.0,0.0,0.0,14145.0,14076.0,14141.0,14208.0,1.9638371467590332,-2.8553254985762346,0.5234600584282624,1.5251359034903924,0.11818509548902512,-0.05344611778855324,0.0
271,5,-0.013024178333580494,-0.011556502431631088,-0.0033313289750367403,-0.03426623344421387,0.007168253418058157,0.0024350304156541824,0.04296397790312767,0.43751880526542664,-0.01807575672864914,-0.07110921293497086,-0.32188233733177185,0.0009163253707811236,0.0,0.0,0.0,-0.019726091995835304,-0.03711623325943947,-0.0,0.0,0.0,0.0,0.004999999888241291,0.004999999888241291,-2.1611685951938853e-07,14144.0,14077.0,14141.0,14209.0,0.4487403631210327,0.4442295432090759,0.4485052824020386,0.45308536291122437,0.0,0.0,0.0,0.0,14145.0,14076.0,14141.0,14208.0,2.1537976264953613,-2.8550284068089815,0.5265601742987474,1.523425444507035,0.19254687428474426,-0.07874143123626709,0.0
277,5,-0.013219731859862804,-0.011594412848353386,-0.003323059296235442,-0.037172917276620865,0.007416526786983013,-1.8351169273955747e-05,0.04267330467700958,0.4413483738899231,-0.017993634566664696,0.05077899619936943,-0.3805512487888336,0.018386466428637505,0.0,0.0,0.0,-0.022501347586512566,-0.03997597098350525,-0.0,0.0,0.0,0.0,0.004999999888241291,0.004999999888241291,4.829042268283956e-07,14322.0,14254.0,14318.0,14384.0,0.4607611298561096,0.45616644620895386,0.4605260491371155,0.4650222659111023,0.0,0.0,0.0,0.0,14321.0,14255.0,14318.0,14385.0,2.209383487701416,-2.8565387888271703,0.5297417603956962,1.5221516011251948,0.21271416544914246,-0.09213435649871826,0.0
282,5,-0.013433261774480343,-0.011627529747784138,-0.0033585578203201294,-0.04049273580312729,0.0069405632093548775,0.004252472426742315,0.04267330467700958,0.4413483738899231,-0.017993634566664696,0.05077899619936943,-0.3805512487888336,0.018386466428637505,0.0,0.0,0.0,-0.022501347586512566,-0.03997597098350525,-0.0,0.0,0.0,0.0,0.004999999888241291,0.004999999888241291,4.829042268283956e-07,14322.0,14254.0,14318.0,14384.0,0.4607611298561096,0.45616644620895386,0.4605260491371155,0.4650222659111023,0.0,0.0,0.0,0.0,14321.0,14255.0,14318.0,14385.0,2.209383487701416,-2.8559170600355155,0.5325176167830015,1.5205461806545981,0.21271416544914246,-0.09213435649871826,0.0
287,5,-0.013754349201917648,-0.011661418713629246,-0.0033055786043405533,-0.05472753569483757,0.006842995062470436,-0.004656501114368439,0.04267330467700958,0.4413483738899231,-0.017993634566664696,0.05077899619936943,-0.3805512487888336,0.018386466428637505,0.0,0.0,0.0,-0.02072453498840332,-0.049674488604068756,-0.0,0.0,0.0,0.0,0.004999999888241291,0.004999999888241291,-7.855696253500355e-07,14760.0,14696.0,14756.0,14822.0,0.4910513162612915,0.48655688762664795,0.49081623554229736,0.4954127073287964,0.0,0.0,0.0,0.0,14760.0,14695.0,14757.0,14821.0,2.353562831878662,-2.8578441089366047,0.5335866423197484,1.5211575982548036,0.2815394103527069,-0.09039879590272903,0.0
293,6,-0.014094329439103603,-0.011671746149659157,-0.003247372107580304,-0.06268864125013351,0.003976466134190559,-0.008847403340041637,0.04267330467700958,0.4413483738899231,-0.017993634566664696,0.05077899619936943,-0.3805512487888336,0.018386466428637505,0.0,0.0,0.0,-0.02072453498840332,-0.049674488604068756,-0.0,0.0,0.0,0.0,0.004999999888241291,0.004999999888241291,-7.855696253500355e-07,14760.0,14696.0,14756.0,14822.0,0.4910513162612915,0.48655688762664795,0.49081623554229736,0.4954127073287964,0.0,0.0,0.0,0.0,14760.0,14695.0,14757.0,14821.0,2.353562831878662,-2.8581959852374164,0.5349141808039202,1.5208098365797746,0.2815394103527069,-0.09039879590272903,0.0
298,5,-0.01448091585189104,-0.011689059436321259,-0.00321185146458447,-0.07146590948104858,0.003668165998533368,-0.00780141819268465,0.042463794350624084,0.4441376030445099,-0.01808011904358864,-0.027729686349630356,-0.44090697169303894,0.045680541545152664,0.0,0.0,0.0,-0.017083171755075455,-0.05820981413125992,-0.0,0.0,0.0,0.0,0.004999999888241291,0.004999999888241291,3.70941194205443e-07,15420.0,15358.0,15417.0,15478.0,0.538575291633606,0.5340131521224976,0.5383402109146118,0.542868971824646,0.0,0.0,0.0,0.0,15420.0,15358.0,15417.0,15478.0,2.4853737354278564,-2.8582717906647055,0.5356435771503311,1.520416361263917,0.3483623266220093,-0.07869196683168411,0.0
303,5,-0.01483670063316822,-0.011662726290524006,-0.0033179873134940863,-0.07128047198057175,-0.0016927681863307953,0.00961572490632534,0.042463794350624084,0.4441376030445099,-0.01808011904358864,-0.027729686349630356,-0.44090697169303894,0.045680541545152664,0.0,0.0,0.0,-0.017083171755075455,-0.05820981413125992,-0.0,0.0,0.0,0.0,0.004999999888241291,0.004999999888241291,3.70941194205443e-07,15420.0,15358.0,15417.0,15478.0,0.538575291633606,0.5340131521224976,0.5383402109146118,0.542868971824646,0.0,0.0,0.0,0.0,15420.0,15358.0,15417.0,15478.0,2.4853737354278564,-2.857535893804785,0.5403114393077068,1.5192663247574647,0.3483623266220093,-0.07869196683168411,0.0
308,5,-0.015323677100241184,-0.01158092264086008,-0.0032328537199646235,-0.0869494378566742,-0.010493501089513302,-0.006369750015437603,0.04251905530691147,0.44907480478286743,-0.018031561747193336,-0.010860323905944824,-0.49601951241493225,0.011701802723109722,0.0,0.0,0.0,-0.005201178137212992,-0.06574298441410065,-0.0,0.0,0.0,0.0,0.004999999888241291,0.004999999888241291,-4.668987003242364e-06,15605.0,15550.0,15602.0,15669.0,0.5522312521934509,0.5481501221656799,0.5519961714744568,0.5570059418678284,0.0,0.0,0.0,0.0,15607.0,15547.0,15604.0,15666.0,2.5970849990844727,-2.8600803573813125,0.5432375622799248,1.520287737911604,0.41112011671066284,-0.0250376109033823,0.0
314,5,-0.015899918973445892,-0.011514044366776943,-0.003055332228541374,-0.10392868518829346,-0.012222790159285069,-0.023850474506616592,0.04251905530691147,0.44907480478286743,-0.018031561747193336,-0.010860323905944824,-0.49601951241493225,0.011701802723109722,0.0,0.0,0.0,-0.005201178137212992,-0.06574298441410065,-0.0,0.0,0.0,0.0,0.004999999888241291,0.004999999888241291,-4.668987003242364e-06,15605.0,15550.0,15602.0,15669.0,0.5522312521934509,0.5481501221656799,0.5519961714744568,0.5570059418678284,0.0,0.0,0.0,0.0,15607.0,15547.0,15604.0,15666.0,2.5970849990844727,-2.865321665407126,0.5476996697821772,1.5215041920984793,0.41112011671066284,-0.0250376109033823,0.0
319,5,-0.016432829201221466,-0.01146550290286541,-0.00299823353998363,-0.1055208146572113,-0.010714037343859673,-0.016392039135098457,0.03463767096400261,0.4601854383945465,-0.0179592352360487,-0.589983344078064,-0.7120426297187805,0.04314665496349335,0.0,0.0,0.0,-0.004646292421966791,-0.07374183088541031,-0.0,0.0,0.0,0.0,0.004999999888241291,0.004999999888241291,-1.5546067515970208e-05,16076.0,16032.0,16073.0,16147.0,0.5879294872283936,0.5845415592193604,0.5876944065093994,0.5933973789215088,0.0,0.0,0.0,0.0,16077.0,16031.0,16074.0,16146.0,2.7428245544433594,-2.8627588254355607,0.5507842240176228,1.5195833891837,0.4869288206100464,-0.023621652275323868,0.0
324,5,-0.016973085701465607,-0.01141884084790945,-0.00300994492135942,-0.10703910887241364,-0.009885169565677643,-0.005151432938873768,0.03463767096400261,0.4601854383945465,-0.0179592352360487,-0.589983344078064,-0.7120426297187805,0.04314665496349335,0.0,0.0,0.0,-0.004646292421966791,-0.07374183088541031,-0.0,0.0,0.0,0.0,0.004999999888241291,0.004999999888241291,-1.5546067515970208e-05,16076.0,16032.0,16073.0,16147.0,0.5879294872283936,0.5845415592193604,0.5876944065093994,0.5933973789215088,0.0,0.0,0.0,0.0,16077.0,16031.0,16074.0,16146.0,2.7428245544433594,-2.8629405653331337,0.5563357850348154,1.5180644717553446,0.4869288206100464,-0.023621652275323868,0.0
329,5,-0.017286205664277077,-0.011523135006427765,-0.0033831556793302298,-0.08038996160030365,0.008561288006603718,0.042724717408418655,0.0307939276099205,0.46578410267829895,-0.018307168036699295,-0.45593035221099854,-0.7947142124176025,-0.030153673142194748,0.0,0.0,0.0,-0.004646292421966791,-0.07374183088541031,-0.0,0.0,0.0,0.0,0.004999999888241291,0.004999999888241291,-1.3050336747255642e-05,16500.0,16455.0,16497.0,16567.0,0.6209677457809448,0.6174087524414062,0.6207326650619507,0.6262645721435547,0.0,0.0,0.0,0.0,16500.0,16455.0,16497.0,16567.0,2.7428245544433594,-2.8670820240250285,0.5739543204308619,1.5125147736311966,0.4869288206100464,-0.023621652275323868,0.0
334,5,-0.01793883740901947,-0.011506389826536179,-0.003430568380281329,-0.11047181487083435,0.001415050821378827,0.022779397666454315,0.0307939276099205,0.46578410267829895,-0.018307168036699295,-0.45593035221099854,-0.7947142124176025,-0.030153673142194748,0.0,0.0,0.0,-0.020044060423970222,-0.06370531767606735,-0.0,0.0,0.0,0.0,0.004999999888241291,0.004999999888241291,-1.3050336747255642e-05,16500.0,16455.0,16497.0,16567.0,0.6209677457809448,0.6174087524414062,0.6207326650619507,0.6262645721435547,0.0,0.0,0.0,0.0,16500.0,16455.0,16497.0,16567.0,2.591414451599121,-2.8680715715362157,0.5792703204210068,1.510805597319295,0.39745086431503296,-0.09626719355583191,0.0
339,5,-0.018739720806479454,-0.01142087671905756,-0.0032621591817587614,-0.14029482007026672,-0.009695506654679775,-0.011097339913249016,0.025891847908496857,0.47496989369392395,-0.01895195059478283,-0.4263313114643097,-0.8675030469894409,-0.037347424775362015,0.0,0.0,0.0,-0.020044060423970222,-0.06370531767606735,-0.0,0.0,0.0,0.0,0.004999999888241291,0.004999999888241291,-1.235509535035817e-05,16850.0,16805.0,16847.0,16915.0,0.6489093899726868,0.6453227400779724,0.6486743092536926,0.6541785597801208,0.0,0.0,0.0,0.0,16850.0,16805.0,16847.0,16914.0,2.591414451599121,-2.875735282678365,0.5819266051033455,1.5146382871258175,0.39745086431503296,-0.09626719355583191,0.0
344,5,-0.019516784697771072,-0.01136054191738367,-0.0033396196085959673,-0.14936563372612,-0.01111843716353178,0.004856308456510305,0.025891847908496857,0.47496989369392395,-0.01895195059478283,-0.4263313114643097,-0.8675030469894409,-0.037347424775362015,0.0,0.0,0.0,-0.004921946208924055,-0.08754680305719376,-0.0,0.0,0.0,0.0,0.004999999888241291,0.004999999888241291,-1.235509535035817e-05,16850.0,16805.0,16847.0,16915.0,0.6489093899726868,0.6453227400779724,0.6486743092536926,0.6541785597801208,0.0,0.0,0.0,0.0,16850.0,16805.0,16847.0,16914.0,2.991032600402832,-2.8785178905829514,0.5875684149423812,1.5148181319891496,0.6301633715629578,-0.027287475764751434,0.0
349,5,-0.02022235468029976,-0.011312239803373814,-0.0035155226942151785,-0.14441458880901337,-0.010243585333228111,0.023050911724567413,0.022663990035653114,0.48177507519721985,-0.019284889101982117,-0.35100042819976807,-0.9814077019691467,-0.006431014742702246,0.0,0.0,0.0,-0.004921946208924055,-0.08754680305719376,-0.0,0.0,0.0,0.0,0.004999999888241291,0.004999999888241291,-1.3387319995672442e-05,17295.0,17252.0,17292.0,17358.0,0.6853300333023071,0.6817718744277954,0.685094952583313,0.6906276941299438,0.0,0.0,0.0,0.0,17295.0,17251.0,17292.0,17358.0,2.991032600402832,-2.8730661752729514,0.5930980844543379,1.5105408537296277,0.6301633715629578,-0.027287475764751434,0.0
354,5,-0.02107870951294899,-0.01126653328537941,-0.003564905608072877,-0.160528302192688,-0.009582220576703548,0.015146312303841114,0.019276397302746773,0.4934718906879425,-0.019537033513188362,-0.20043855905532837,-1.1274347305297852,0.02155226841568947,0.0,0.0,0.0,-0.004396745003759861,-0.08972331136465073,-0.0,0.0,0.0,0.0,0.004999999888241291,0.004999999888241291,-3.114874061793671e-06,16834.0,16786.0,16831.0,16896.0,0.6476172208786011,0.6437796354293823,0.6473821401596069,0.6526354551315308,0.0,0.0,0.0,0.0,16836.0,16784.0,16833.0,16894.0,3.028353452682495,-2.873734738609681,0.5989606397840737,1.5098129996307625,0.653847873210907,-0.02467992529273033,0.0
360,6,-0.012561269104480743,-0.00011255216668359935,0.002977167023345828,-0.160528302192688,-0.009582220576703548,0.015146312303841114,0.019276397302746773,0.4934718906879425,-0.019537033513188362,-0.20043855905532837,-1.1274347305297852,0.02155226841568947,0.0,0.0,0.0,-0.004396745003759861,-0.08972331136465073,-0.0,0.0,0.0,0.0,0.004999999888241291,0.004999999888241291,-3.114874061793671e-06,16834.0,16786.0,16831.0,16896.0,0.6476172208786011,0.6437796354293823,0.6473821401596069,0.6526354551315308,0.0,0.0,0.0,0.0,16836.0,16784.0,16833.0,16894.0,3.028353452682495,-0.2101098545579872,-0.6784000732584762,-0.0788910079347336,0.653847873210907,-0.02467992529273033,0.0
365,5,-0.023807033896446228,-0.011491538025438786,-0.004284579772502184,-0.18828299641609192,-0.011296762153506279,0.01979784667491913,0.019276397302746773,0.4934718906879425,-0.019537033513188362,-0.20043855905532837,-1.1274347305297852,0.02155226841568947,0.0,0.0,0.0,0.006076913792639971,-0.09136991947889328,-0.0,0.0,0.0,0.0,0.004999999888241291,0.004999999888241291,-3.114874061793671e-06,16834.0,16786.0,16831.0,16896.0,0.6476172208786011,0.6437796354293823,0.6473821401596069,0.6526354551315308,0.0,0.0,0.0,0.0,16836.0,16784.0,16833.0,16894.0,3.057373285293579,-2.8847538261518957,0.6185740992757369,1.5124409349949355,0.6721885800361633,0.03443778678774834,0.0
370,5,-0.01570620946586132,-7.058965820760932e-06,0.0029352903366088867,-0.18828299641609192,-0.011296762153506279,0.01979784667491913,0.018347565084695816,0.502616286277771,-0.019486697390675545,-0.04361094534397125,-1.3308242559432983,0.016149131581187248,0.0,0.0,0.0,0.006076913792639971,-0.09136991947889328,-0.0,0.0,0.0,0.0,0.004999999888241291,0.004999999888241291,-5.308037884788064e-07,18139.0,18087.0,18136.0,18189.0,0.7571842074394226,0.7526821494102478,0.7569491267204285,0.7615379691123962,0.0,0.0,0.0,0.0,18031.0,17980.0,18028.0,18082.0,3.057373285293579,-0.2234032495071335,-0.6921951946739542,-0.08850328343266578,0.6721885800361633,0.03443778678774834,0.0
375,5,-0.01703817769885063,4.9592657887842506e-05,0.003067480865865946,-0.23514938354492188,-0.011316899210214615,-0.007943736389279366,0.018347565084695816,0.502616286277771,-0.019486697390675545,-0.04361094534397125,-1.3308242559432983,0.016149131581187248,0.0,0.0,0.0,0.00692230649292469,-0.10213766992092133,-0.0,0.0,0.0,0.0,0.004999999888241291,0.004999999888241291,-5.308037884788064e-07,18139.0,18087.0,18136.0,18189.0,0.7571842074394226,0.7526821494102478,0.7569491267204285,0.7615379691123962,0.0,0.0,0.0,0.0,18031.0,17980.0,18028.0,18082.0,3.230318069458008,-0.21971859844877387,-0.7071310838802773,-0.08753086051920234,0.7936286926269531,0.04144750162959099,0.0
380,5,-0.01836954988539219,0.00014750196714885533,0.0031419640872627497,-0.25382450222969055,-0.016275877133011818,-0.012115475721657276,0.018347565084695816,0.502616286277771,-0.019486697390675545,-0.04361094534397125,-1.3308242559432983,0.016149131581187248,0.0,0.0,0.0,0.00692230649292469,-0.10213766992092133,-0.0,0.0,0.0,0.0,0.004999999888241291,0.004999999888241291,-5.308037884788064e-07,18139.0,18087.0,18136.0,18189.0,0.7571842074394226,0.7526821494102478,0.7569491267204285,0.7615379691123962,0.0,0.0,0.0,0.0,18031.0,17980.0,18028.0,18082.0,3.230318069458008,-0.2205915614061464,-0.7166061102250614,-0.09067222839645835,0.7936286926269531,0.04144750162959099,0.0
385,5,-0.01973896659910679,0.0002124491147696972,0.0031650946475565434,-0.2658597230911255,-0.014304009266197681,-0.007621877361088991,0.018074676394462585,0.5188902020454407,-0.019880283623933792,-0.010895338840782642,-1.5704820156097412,-0.02485969290137291,0.0,0.0,0.0,0.009363904595375061,-0.12486182153224945,-0.0,0.0,0.0,0.0,0.004999999888241291,0.004999999888241291,-2.1076536995678907e-06,18221.0,18171.0,18218.0,18272.0,0.7643640637397766,0.7600122094154358,0.7641289830207825,0.7688680291175842,0.0,0.0,0.0,0.0,18138.0,18087.0,18136.0,18189.0,3.5128626823425293,-0.22567259509151685,-0.7252964724859188,-0.09473020600264442,1.0541311502456665,0.06096985936164856,0.0
390,5,-0.021012378856539726,0.00023504609998781234,0.002955249510705471,-0.25915342569351196,-0.008433242328464985,0.022132666781544685,0.018074676394462585,0.5188902020454407,-0.019880283623933792,-0.010895338840782642,-1.5704820156097412,-0.02485969290137291,0.0,0.0,0.0,0.009363904595375061,-0.12486182153224945,-0.0,0.0,0.0,0.0,0.004999999888241291,0.004999999888241291,-2.1076536995678907e-06,18221.0,18171.0,18218.0,18272.0,0.7643640637397766,0.7600122094154358,0.7641289830207825,0.7688680291175842,0.0,0.0,0.0,0.0,18138.0,18087.0,18136.0,18189.0,3.5128626823425293,-0.23707458666888312,-0.723957144930104,-0.10124473474413968,1.0541311502456665,0.06096985936164856,0.0
395,5,-0.022576292976737022,0.00028235805802978575,0.0030383835546672344,-0.29133090376853943,-0.009050730615854263,-0.0011230016825720668,0.01843484677374363,0.5536949634552002,-0.021655071526765823,-0.0379452146589756,-2.1087405681610107,-0.048003584146499634,0.0,0.0,0.0,0.004883120767772198,-0.1279790997505188,-0.0,0.0,0.0,0.0,0.004999999888241291,0.004999999888241291,-1.8184221062256256e-06,18708.0,18658.0,18705.0,18757.0,0.8076460957527161,0.8032025694847107,0.8074110150337219,0.8120583891868591,0.0,0.0,0.0,0.0,18221.0,18171.0,18218.0,18272.0,3.5401551723480225,-0.23691692245543117,-0.7363899972236624,-0.10364153133047371,1.0887342691421509,0.03204241022467613,0.0
401,5,-0.02429303154349327,0.0003420660796109587,0.0031863506883382797,-0.3225409984588623,-0.010785256512463093,-0.018205272033810616,0.01843484677374363,0.5536949634552002,-0.021655071526765823,-0.0379452146589756,-2.1087405681610107,-0.048003584146499634,0.0,0.0,0.0,0.004883120767772198,-0.1279790997505188,-0.0,0.0,0.0,0.0,0.004999999888241291,0.004999999888241291,-1.8184221062256256e-06,18708.0,18658.0,18705.0,18757.0,0.8076460957527161,0.8032025694847107,0.8074110150337219,0.8120583891868591,0.0,0.0,0.0,0.0,18221.0,18171.0,18218.0,18272.0,3.5401551723480225,-0.23330259169553227,-0.7626997265015274,-0.10169289575977006,1.0887342691421509,0.03204241022467613,0.0
406,5,-0.03440584987401962,-0.010906142182648182,-0.004863662179559469,-0.3225409984588623,-0.010785256512463093,-0.018205272033810616,0.018421204760670662,0.5704354047775269,-0.02269023098051548,-0.141620472073555,-2.3511533737182617,-0.09182456135749817,0.0,0.0,0.0,0.0060690599493682384,-0.15201666951179504,-0.0,0.0,0.0,0.0,0.004999999888241291,0.004999999888241291,-7.974932486831676e-06,19472.0,19431.0,19470.0,19526.0,0.8779782652854919,0.8741427063941956,0.8777431845664978,0.882998526096344,0.0,0.0,0.0,0.0,18707.0,18660.0,18704.0,18758.0,3.684893846511841,-2.822643213716064,0.7243745341035759,1.451710051426847,1.3445783853530884,0.04145244136452675,0.0
411,5,-0.0366114042699337,-0.010841820389032364,-0.004406381864100695,-0.3936825394630432,-0.012032678350806236,-0.062155723571777344,0.018421204760670662,0.5704354047775269,-0.02269023098051548,-0.141620472073555,-2.3511533737182617,-0.09182456135749817,0.0,0.0,0.0,0.0060690599493682384,-0.15201666951179504,-0.0,0.0,0.0,0.0,0.004999999888241291,0.004999999888241291,-7.974932486831676e-06,19472.0,19431.0,19470.0,19526.0,0.8779782652854919,0.8741427063941956,0.8777431845664978,0.882998526096344,0.0,0.0,0.0,0.0,18707.0,18660.0,18704.0,18758.0,3.684893846511841,-2.870189726934755,0.7163690890070052,1.4858426639207916,1.3445783853530884,0.04145244136452675,0.0
416,5,-0.038376204669475555,-0.0108370091766119,-0.004503264091908932,-0.3692491352558136,-0.005390414502471685,-0.01323644071817398,0.0171801820397377,0.5983327627182007,-0.023822186514735222,-0.15108884871006012,-2.5108768939971924,0.0693110004067421,0.0,0.0,0.0,-0.0022311306092888117,-0.18795287609100342,-0.0,0.0,0.0,0.0,0.004999999888241291,0.004999999888241291,-1.4966132766858209e-05,19470.0,19433.0,19468.0,19528.0,0.8777766823768616,0.8743442893028259,0.8775416016578674,0.8832001090049744,0.0,0.0,0.0,0.0,19471.0,19433.0,19468.0,19527.0,3.729729175567627,-2.8713838047485067,0.7246022744931965,1.4834293488089922,1.6792566776275635,-0.015424467623233795,0.0
421,5,-0.040485043078660965,-0.01116908062249422,0.0027386583387851715,-0.3692491352558136,-0.005390414502471685,-0.01323644071817398,0.0171801820397377,0.5983327627182007,-0.023822186514735222,-0.15108884871006012,-2.5108768939971924,0.0693110004067421,0.0,0.0,0.0,-0.0022311306092888117,-0.18795287609100342,-0.0,0.0,0.0,0.0,0.004999999888241291,0.004999999888241291,-1.4966132766858209e-05,19470.0,19433.0,19468.0,19528.0,0.8777766823768616,0.8743442893028259,0.8775416016578674,0.8832001090049744,0.0,0.0,0.0,0.0,19471.0,19433.0,19468.0,19527.0,3.729729175567627,-0.4335478902919786,-0.6813088869432834,-1.8357010180153683,1.6792566776275635,-0.015424467623233795,0.0
426,5,-0.0425756461918354,-0.011064078658819199,0.0027402129489928484,-0.3985716700553894,-0.014756481163203716,-0.005481116008013487,0.015158532187342644,0.6182081699371338,-0.023315174505114555,-0.29063838720321655,-2.6691856384277344,0.0005337100010365248,0.0,0.0,0.0,-0.0061096264980733395,-0.1802729070186615,-0.0,0.0,0.0,0.0,0.004999999888241291,0.004999999888241291,-2.284933543705847e-05,19539.0,19510.0,19537.0,19603.0,0.8842718601226807,0.8814953565597534,0.8840367794036865,0.8903511762619019,0.0,0.0,0.0,0.0,19542.0,19506.0,19540.0,19600.0,3.724458932876587,-0.4418979303417388,-0.690825531272271,-1.8451890017031995,1.6090983152389526,-0.04217756539583206,0.0
431,5,-0.04473022744059563,-0.010911872610449791,0.002704647136852145,-0.4179783761501312,-0.024167310446500778,0.00207542534917593,0.015158532187342644,0.6182081699371338,-0.023315174505114555,-0.29063838720321655,-2.6691856384277344,0.0005337100010365248,0.0,0.0,0.0,-0.0061096264980733395,-0.1802729070186615,-0.0,0.0,0.0,0.0,0.004999999888241291,0.004999999888241291,-2.284933543705847e-05,19539.0,19510.0,19537.0,19603.0,0.8842718601226807,0.8814953565597534,0.8840367794036865,0.8903511762619019,0.0,0.0,0.0,0.0,19542.0,19506.0,19540.0,19600.0,3.724458932876587,-0.44956786185098063,-0.7018552099300919,-1.8541170530669986,1.6090983152389526,-0.04217756539583206,0.0
436,5,-0.04812673106789589,0.007036934606730938,-0.0019612405449151993,-0.4179783761501312,-0.024167310446500778,0.00207542534917593,0.011915035545825958,0.6498281955718994,-0.023774323984980583,-0.28148338198661804,-2.800806999206543,0.04635780677199364,0.0,0.0,0.0,0.004270021338015795,-0.20278716087341309,-0.0,0.0,0.0,0.0,0.004999999888241291,0.004999999888241291,-2.781729017442558e-05,19917.0,19892.0,19915.0,19984.0,0.9202725887298584,0.9178639650344849,0.9200375080108643,0.9267197847366333,0.0,0.0,0.0,0.0,20034.0,20008.0,20032.0,20099.0,3.7407193183898926,0.2453987640057219,-0.73697466632305,1.7631241107040978,1.815360426902771,0.029606791213154793,0.0
441,5,-0.05030306801199913,0.007129627279937267,-0.0021479749120771885,-0.42835158109664917,-0.020790012553334236,0.0232382882386446,0.011915035545825958,0.6498281955718994,-0.023774323984980583,-0.28148338198661804,-2.800806999206543,0.04635780677199364,0.0,0.0,0.0,0.004270021338015795,-0.20278716087341309,-0.0,0.0,0.0,0.0,0.004999999888241291,0.004999999888241291,-2.781729017442558e-05,19917.0,19892.0,19915.0,19984.0,0.9202725887298584,0.9178639650344849,0.9200375080108643,0.9267197847366333,0.0,0.0,0.0,0.0,20034.0,20008.0,20032.0,20099.0,3.7407193183898926,0.24902637055314875,-0.7490599131949196,1.7686051958479223,1.815360426902771,0.029606791213154793,0.0
447,5,-0.05258757248520851,0.0072479695081710815,-0.0024155511055141687,-0.44548115134239197,-0.022517088800668716,0.04140447452664375,0.009370945394039154,0.6713293194770813,-0.02321244403719902,-0.25896894931793213,-2.8748998641967773,0.0434197261929512,0.0,0.0,0.0,0.0167312640696764,-0.2103550285100937,-0.0,0.0,0.0,0.0,0.004999999888241291,0.004999999888241291,-2.457113987475168e-05,20035.0,20007.0,20033.0,20098.0,0.9316399097442627,0.9289143085479736,0.9314048290252686,0.9377701282501221,0.0,0.0,0.0,0.0,20022.0,19992.0,20020.0,20084.0,3.7471468448638916,0.24990606009507663,-0.7647485250401074,1.7713498478785406,1.8851118087768555,0.11619868874549866,0.0
452,5,-0.04505882039666176,0.0008097101817838848,0.002929832087829709,-0.44548115134239197,-0.022517088800668716,0.04140447452664375,0.009370945394039154,0.6713293194770813,-0.02321244403719902,-0.25896894931793213,-2.8748998641967773,0.0434197261929512,0.0,0.0,0.0,0.0167312640696764,-0.2103550285100937,-0.0,0.0,0.0,0.0,0.004999999888241291,0.004999999888241291,-2.457113987475168e-05,20035.0,20007.0,20033.0,20098.0,0.9316399097442627,0.9289143085479736,0.9314048290252686,0.9377701282501221,0.0,0.0,0.0,0.0,20022.0,19992.0,20020.0,20084.0,3.7471468448638916,-0.2397834196277663,-0.9106188146437281,-0.1360451872147341,1.8851118087768555,0.11619868874549866,0.0
457,5,-0.047517817467451096,0.0008586779003962874,0.002583281137049198,-0.4732721149921417,-0.014882957562804222,0.05814789608120918,0.00767122907564044,0.7046655416488647,-0.024464640766382217,-0.1628369241952896,-3.0710089206695557,-0.08977959305047989,0.0,0.0,0.0,0.012649104930460453,-0.21420525014400482,-0.0,0.0,0.0,0.0,0.004999999888241291,0.004999999888241291,-1.9184206394129433e-05,20023.0,19991.0,20021.0,20083.0,0.9305014610290527,0.9274176359176636,0.9302663803100586,0.936273455619812,0.0,0.0,0.0,0.0,20068.0,20031.0,20065.0,20122.0,3.750032663345337,-0.2551052428915607,-0.920497388776264,-0.1476218477536766,1.920684576034546,0.08791892230510712,0.0
462,5,-0.05026589334011078,0.0009210013668052852,0.002393758622929454,-0.5190777778625488,-0.01343199796974659,0.0460018664598465,0.006712429225444794,0.7284837365150452,-0.0247504822909832,-0.1691926121711731,-3.1812829971313477,0.06926818192005157,0.0,0.0,0.0,0.012649104930460453,-0.21420525014400482,-0.0,0.0,0.0,0.0,0.004999999888241291,0.004999999888241291,-1.6915497326408513e-05,20066.0,20033.0,20064.0,20124.0,0.9346533417701721,0.931395947933197,0.934418261051178,0.9402517676353455,0.0,0.0,0.0,0.0,20123.0,20097.0,20032.0,20100.0,3.750032663345337,-0.2557639453501125,-0.939320253870964,-0.14997794146861454,1.920684576034546,0.08791892230510712,0.0
467,5,-0.053092196583747864,0.0011040263343602419,0.0021853214129805565,-0.5467875599861145,-0.027335792779922485,0.04341321811079979,0.006712429225444794,0.7284837365150452,-0.0247504822909832,-0.1691926121711731,-3.1812829971313477,0.06926818192005157,0.0,0.0,0.0,0.015176662243902683,-0.2579594552516937,-0.0,0.0,0.0,0.0,0.004999999888241291,0.004999999888241291,-1.6915497326408513e-05,20066.0,20033.0,20064.0,20124.0,0.9346533417701721,0.931395947933197,0.934418261051178,0.9402517676353455,0.0,0.0,0.0,0.0,20123.0,20097.0,20032.0,20100.0,3.789853572845459,-0.2686368479913876,-0.9543565805915802,-0.1614829210179542,2.329423666000366,0.10660485178232193,0.0
472,5,-0.055794548243284225,0.0012790299952030182,0.0017846126575022936,-0.5429973006248474,-0.03193475678563118,0.06545032560825348,0.00282325129956007,0.7649733424186707,-0.023917321115732193,-0.36341986060142517,-3.203073024749756,-0.018603060394525528,0.0,0.0,0.0,0.015176662243902683,-0.2579594552516937,-0.0,0.0,0.0,0.0,-0.004999999888241291,0.004999999888241291,-3.6857010854873806e-05,20119.0,20102.0,20028.0,20104.0,0.9397649765014648,0.9381188154220581,0.9309091567993164,0.9383538961410522,0.0,0.0,0.0,0.0,20121.0,20115.0,20030.0,20117.0,3.789853572845459,-0.30317478662557773,-0.9613558007809169,-0.18687579265940454,2.329423666000366,0.10660485178232193,0.0
477,5,-0.06583580374717712,-0.009972812607884407,-0.007464127149432898,-0.5429973006248474,-0.03193475678563118,0.06545032560825348,0.00282325129956007,0.7649733424186707,-0.023917321115732193,-0.36341986060142517,-3.203073024749756,-0.018603060394525528,0.0,0.0,0.0,0.00907816644757986,-0.2655349373817444,-0.0,0.0,0.0,0.0,-0.004999999888241291,0.004999999888241291,-3.6857010854873806e-05,20119.0,20102.0,20028.0,20104.0,0.9397649765014648,0.9381188154220581,0.9309091567993164,0.9383538961410522,0.0,0.0,0.0,0.0,20121.0,20115.0,20030.0,20117.0,3.797271728515625,-2.834691139939452,0.891119062806825,1.4159704373755584,2.4011080265045166,0.0638950988650322,0.0
482,5,-0.06881865113973618,-0.009778362698853016,-0.007619695272296667,-0.5751410722732544,-0.03610799461603165,0.044848278164863586,-0.0011450025485828519,0.7898074388504028,-0.024191908538341522,-0.6635333299636841,-3.3011233806610107,-0.006689931266009808,0.0,0.0,0.0,0.00907816644757986,-0.2655349373817444,-0.0,0.0,0.0,0.0,-0.004999999888241291,0.004999999888241291,-6.651721196249127e-05,20116.0,20120.0,20024.0,20122.0,0.9394540786743164,0.9398726224899292,0.930598258972168,0.9401077032089233,0.0,0.0,0.0,0.0,20211.0,20229.0,20120.0,20232.0,3.797271728515625,-2.8354338984374436,0.9078052365394468,1.414132168231689,2.4011080265045166,0.0638950988650322,0.0
487,5,-0.07196415215730667,-0.009501618333160877,-0.007702258415520191,-0.6075167059898376,-0.04765245318412781,0.02784692496061325,-0.0011450025485828519,0.7898074388504028,-0.024191908538341522,-0.6635333299636841,-3.3011233806610107,-0.006689931266009808,0.0,0.0,0.0,0.017667263746261597,-0.29440000653266907,-0.0,0.0,0.0,0.0,-0.004999999888241291,0.004999999888241291,-6.651721196249127e-05,20116.0,20120.0,20024.0,20122.0,0.9394540786743164,0.9398726224899292,0.930598258972168,0.9401077032089233,0.0,0.0,0.0,0.0,20211.0,20229.0,20120.0,20232.0,3.829359769821167,-2.843712899696237,0.9267576807932837,1.4179243765500333,2.677049398422241,0.12539002299308777,0.0
493,5,-0.0750894546508789,-0.009209590032696724,-0.007670477963984013,-0.6180427670478821,-0.054104387760162354,0.007325079292058945,-0.0011450025485828519,0.7898074388504028,-0.024191908538341522,-0.6635333299636841,-3.3011233806610107,-0.006689931266009808,0.0,0.0,0.0,0.017667263746261597,-0.29440000653266907,-0.0,0.0,0.0,0.0,-0.004999999888241291,0.004999999888241291,-6.651721196249127e-05,20116.0,20120.0,20024.0,20122.0,0.9394540786743164,0.9398726224899292,0.930598258972168,0.9401077032089233,0.0,0.0,0.0,0.0,20211.0,20229.0,20120.0,20232.0,3.829359769821167,-2.847263645364231,0.9418278195946563,1.415760387657087,2.677049398422241,0.12539002299308777,0.0
