timestamp,dt,pos_x,pos_y,pos_z,vel_x,vel_y,vel_z,roll,pitch,yaw,agv_x,agv_y,agv_z,x_ref,y_ref,z_ref,roll_ref,pitch_ref,yaw_ref,x_vel_ref,y_vel_ref,z_vel_ref,x_torque,y_torque,z_torque,w0,w1,w2,w3,u0,u1,u2,u3,m0req,m1req,m2req,m3req,thrust0,thrust1,thrust2,thrust3,thrust_ref,roll_vicon,pitch_vicon,yaw_vicon,acc_x,acc_y,acc_z
5,5,0.0,0.0,0.0,-0.00031416185083799064,0.0013163364492356777,0.0012766564032062888,0.01112376619130373,0.25338032841682434,-0.008344058878719807,-0.0016078426269814372,-0.0026905180420726538,-0.001275814138352871,0.0,0.0,0.0,-0.001624331809580326,-0.00029820724739693105,-0.0,0.0,0.0,0.0,-0.0033450908958911896,-0.07593563199043274,-0.0006540545145981014,1495.0,1495.0,1495.0,1495.0,0.0,0.0,0.0,0.0,0.0,0.0,0.0,0.0,1495.0,1495.0,1495.0,1495.0,1.6395142078399658,-0.04871882657455445,-0.16804770533997765,0.03208339852513754,0.0011781069915741682,-0.00493626156821847,0.0
30,25,0.0,0.0,0.0,-0.00022757146507501602,-0.0012863327283412218,-0.00195120123680681,0.01112376619130373,0.25338032841682434,-0.008344058878719807,-0.0016078426269814372,-0.0026905180420726538,-0.001275814138352871,0.0,0.0,0.0,-0.001624331809580326,-0.00029820724739693105,-0.0,0.0,0.0,0.0,-0.0033450908958911896,-0.07593563199043274,-0.0006540545145981014,1495.0,1495.0,1495.0,1495.0,0.0,0.0,0.0,0.0,0.0,0.0,0.0,0.0,1495.0,1495.0,1495.0,1495.0,1.6395142078399658,-0.049032655446206656,-0.16760347504407744,0.03211738379338632,0.0011781069915741682,-0.00493626156821847,0.0
35,5,0.0,0.0,0.0,0.00023135103401727974,-0.00098760228138417,-0.0020084907300770283,0.011092212982475758,0.25333842635154724,-0.008300365880131721,0.00020551796478684992,0.003759881481528282,-0.00027282096561975777,0.0,0.0,0.0,0.001587770297192037,-0.0002160772419301793,-0.0,0.0,0.0,0.0,-0.00330912577919662,-0.07588852196931839,-0.0008248952799476683,1495.0,1495.0,1495.0,1495.0,0.0,0.0,0.0,0.0,0.0,0.0,0.0,0.0,1495.0,1495.0,1495.0,1495.0,1.639036774635315,-0.04965012761623636,-0.1680083569472553,0.031904001659627014,0.0008533929940313101,0.004823747556656599,0.0
44,9,0.0,0.0,0.0,-0.00019650303875096142,0.0005342692020349205,-0.001431899145245552,0.011092212982475758,0.25333842635154724,-0.008300365880131721,0.00020551796478684992,0.003759881481528282,-0.00027282096561975777,0.0,0.0,0.0,-0.0006624985253438354,-0.00018743501277640462,-0.0,0.0,0.0,0.0,-0.003805479034781456,-0.07629918307065964,-0.0008053312776610255,1495.0,1495.0,1495.0,1495.0,0.0,0.0,0.0,0.0,0.0,0.0,0.0,0.0,1495.0,1495.0,1495.0,1495.0,1.6315410137176514,-0.04923723855773508,-0.16786262087477086,0.03193896073204401,0.000736886402592063,-0.0020035095512866974,0.0
54,10,0.0,0.0,0.0,0.0012584860669448972,0.0004897648468613625,-0.00041045871330425143,0.011087438091635704,0.2533891499042511,-0.008285517804324627,-0.0012160971527919173,-0.005430932622402906,-0.0015658724587410688,0.0,0.0,0.0,-0.0006043703178875148,0.0011945950100198388,-0.0,0.0,0.0,0.0,-0.0038175168447196484,-0.0761403888463974,-0.0008493132190778852,1495.0,1495.0,1495.0,1495.0,0.0,0.0,0.0,0.0,0.0,0.0,0.0,0.0,5611.0,18564.0,17681.0,6049.0,1.6394842863082886,-0.049581716660331114,-0.16850413227654346,0.03219374968855491,-0.004719322547316551,-0.0018366181757301092,0.0
63,10,0.0,0.0,0.0,-8.99583101272583e-05,-0.0015043574385344982,-0.0024705904070287943,0.011087438091635704,0.2533891499042511,-0.008285517804324627,-0.0012160971527919173,-0.005430932622402906,-0.0015658724587410688,0.0,0.0,0.0,-0.0006043703178875148,0.0011945950100198388,-0.0,0.0,0.0,0.0,-0.0038175168447196484,-0.0761403888463974,-0.0008493132190778852,1495.0,1495.0,1495.0,1495.0,0.0,0.0,0.0,0.0,0.0,0.0,0.0,0.0,5611.0,18564.0,17681.0,6049.0,1.6394842863082886,-0.04983856014755155,-0.1676499888203813,0.03207514276335867,-0.004719322547316551,-0.0018366181757301092,0.0
68,5,0.0,0.0,0.0,0.0004169973253738135,-8.027697185752913e-05,0.001723612891510129,0.011088757775723934,0.25341659784317017,-0.008294838480651379,-0.0014880959643051028,-0.00023371473071165383,0.0011368514969944954,0.0,0.0,0.0,9.963403863366693e-05,0.00039811330498196185,-0.0,0.0,0.0,0.0,-0.002820097841322422,-0.07597661018371582,-0.0007925890386104584,5680.0,18543.0,17698.0,6001.0,0.059615857899188995,0.7928706407546997,0.7192064523696899,0.06782124936580658,0.0,0.0,0.0,0.0,5720.0,18534.0,17698.0,5992.0,1.6300688982009888,-0.05022819405798576,-0.1678920263556837,0.031891301615138964,-0.001563739962875843,0.00030103864264674485,0.0
74,6,1.4387496776180342e-06,8.592829544795677e-06,-1.1697905392793473e-05,0.00033944888855330646,-0.0010632503544911742,0.002093193819746375,0.011088757775723934,0.25341659784317017,-0.008294838480651379,-0.0014880959643051028,-0.00023371473071165383,0.0011368514969944954,0.0,0.0,0.0,9.963403863366693e-05,0.00039811330498196185,-0.0,0.0,0.0,0.0,-0.002820097841322422,-0.07597661018371582,-0.0007925890386104584,5680.0,18543.0,17698.0,6001.0,0.059615857899188995,0.7928706407546997,0.7192064523696899,0.06782124936580658,0.0,0.0,0.0,0.0,5720.0,18534.0,17698.0,5992.0,1.6300688982009888,-0.05058522306014991,-0.1678077854575613,0.031670679375281986,-0.001563739962875843,0.00030103864264674485,0.0
79,5,5.301870714902179e-06,1.6489284462295473e-05,2.746991413005162e-05,0.0005993540398776531,-0.0013728748308494687,-0.003862860845401883,0.011081945151090622,0.2533440887928009,-0.008306065574288368,-0.0012595474254339933,-0.001587695092894137,-0.003801840590313077,0.0,0.0,0.0,9.963403863366693e-05,0.00039811330498196185,-0.0,0.0,0.0,0.0,-0.0035598089452832937,-0.0761847048997879,-0.0008544554584659636,5473.0,18530.0,17670.0,6021.0,0.05460686236619949,0.7917045950889587,0.7168763279914856,0.06835326552391052,0.0,0.0,0.0,0.0,5509.0,18497.0,17730.0,6188.0,1.6300688982009888,-0.050069512399614075,-0.16687554925432063,0.03169105540961673,-0.001563739962875843,0.00030103864264674485,0.0
84,5,2.863186637114268e-06,2.2873875423101708e-05,4.561819150694646e-05,-5.290045737638138e-05,-0.0013153007021173835,-0.0037229375448077917,0.011081945151090622,0.2533440887928009,-0.008306065574288368,-0.0012595474254339933,-0.001587695092894137,-0.003801840590313077,0.0,0.0,0.0,0.0017221474554389715,0.000575695768930018,-0.0,0.0,0.0,0.0,-0.0035598089452832937,-0.0761847048997879,-0.0008544554584659636,5473.0,18530.0,17670.0,6021.0,0.05460686236619949,0.7917045950889587,0.7168763279914856,0.06835326552391052,0.0,0.0,0.0,0.0,5509.0,18497.0,17730.0,6188.0,1.6412409543991089,-0.04976828364821025,-0.16610035606518697,0.03139836022293016,-0.0022767565678805113,0.005239029414951801,0.0
89,5,-2.513363824618864e-06,3.0824954592389986e-05,5.334661909728311e-05,-0.0006663462263531983,-0.0014802496880292892,-0.0024165865033864975,0.011085404083132744,0.2534027695655823,-0.008288678713142872,0.004454943351447582,-0.007797118276357651,0.0025345480535179377,0.0,0.0,0.0,0.0017221474554389715,0.000575695768930018,-0.0,0.0,0.0,0.0,-0.003525621723383665,-0.07578349113464355,-0.00095065135974437,5743.0,18506.0,17727.0,5971.0,0.06118987500667572,0.7895607948303223,0.7216913104057312,0.0670422837138176,0.0,0.0,0.0,0.0,5670.0,18516.0,17700.0,6090.0,1.6412409543991089,-0.05074694728634634,-0.16636135096984617,0.031584563134654374,-0.0022767565678805113,0.005239029414951801,0.0
94,5,-6.879805027892871e-07,8.300557965412736e-06,2.61362310993718e-05,-4.7492496378254145e-05,0.0021108274813741446,0.0022986121475696564,0.011085404083132744,0.2534027695655823,-0.008288678713142872,0.004454943351447582,-0.007797118276357651,0.0025345480535179377,0.0,0.0,0.0,0.0018787994049489498,-0.000634772761259228,-0.0,0.0,0.0,0.0,-0.003525621723383665,-0.07578349113464355,-0.00095065135974437,5743.0,18506.0,17727.0,5971.0,0.06118987500667572,0.7895607948303223,0.7216913104057312,0.0670422837138176,0.0,0.0,0.0,0.0,5670.0,18516.0,17700.0,6090.0,1.642691731452942,-0.05054844036322357,-0.1669843121412316,0.031643866182436274,0.002512612147256732,0.005720639135688543,0.0
99,5,8.992795301310252e-06,1.8762555555440485e-05,4.757560236612335e-05,0.0011426961282268167,-0.0004111086600460112,-0.0016532797599211335,0.01107300166040659,0.2533223628997803,-0.008322983980178833,-0.003105554496869445,0.00946794543415308,0.0019816849380731583,0.0,0.0,0.0,0.0018787994049489498,-0.000634772761259228,-0.0,0.0,0.0,0.0,-0.003263234393671155,-0.07586359977722168,-0.0008256887667812407,5603.0,18475.0,17745.0,6213.0,0.057735033333301544,0.7867874503135681,0.7232037782669067,0.07351472228765488,0.0,0.0,0.0,0.0,5443.0,18505.0,17662.0,6102.0,1.642691731452942,-0.05095977481017037,-0.16691257301361587,0.031566962920152555,0.002512612147256732,0.005720639135688543,0.0
104,5,1.3899190207666834e-06,3.0350012821145356e-05,5.47161944268737e-05,-0.00045526670874096453,-0.0015549382660537958,-0.001518182922154665,0.01107300166040659,0.2533223628997803,-0.008322983980178833,-0.003105554496869445,0.00946794543415308,0.0019816849380731583,0.0,0.0,0.0,0.000541725370567292,0.0010979900835081935,-0.0,0.0,0.0,0.0,-0.003263234393671155,-0.07586359977722168,-0.0008256887667812407,5603.0,18475.0,17745.0,6213.0,0.057735033333301544,0.7867874503135681,0.7232037782669067,0.07351472228765488,0.0,0.0,0.0,0.0,5443.0,18505.0,17662.0,6102.0,1.6383250951766968,-0.051463215036160914,-0.16669478268375515,0.03140885028329268,-0.004334612283855677,0.0016450828406959772,0.0
110,5,-5.225788868301606e-07,-7.272018592630047e-06,-2.919207327067852e-05,-0.0004116064519621432,0.0038926685228943825,0.009461718611419201,0.011112352833151817,0.25330618023872375,-0.00834418460726738,0.003239126643165946,0.004312965553253889,-0.0008318523177877069,0.0,0.0,0.0,-0.004741252865642309,-0.00038530188612639904,-0.0,0.0,0.0,0.0,-0.002899477956816554,-0.07613930851221085,-0.0008845047559589148,5504.0,18513.0,17731.0,6216.0,0.05534745752811432,0.7902016043663025,0.72207111120224,0.07362079620361328,0.0,0.0,0.0,0.0,5435.0,18524.0,17728.0,6251.0,1.6655672788619995,-0.04936671941785856,-0.16859479216701712,0.032143015372457694,0.001546358922496438,-0.01463729701936245,0.0
118,8,1.4851129890303127e-05,-2.26390748139238e-05,-8.751713721721899e-06,0.0020422490779310465,0.002665290841832757,0.002465717727318406,0.011112352833151817,0.25330618023872375,-0.00834418460726738,0.003239126643165946,0.004312965553253889,-0.0008318523177877069,0.0,0.0,0.0,-0.004741252865642309,-0.00038530188612639904,-0.0,0.0,0.0,0.0,-0.002899477956816554,-0.07613930851221085,-0.0008845047559589148,5504.0,18513.0,17731.0,6216.0,0.05534745752811432,0.7902016043663025,0.72207111120224,0.07362079620361328,0.0,0.0,0.0,0.0,5435.0,18524.0,17728.0,6251.0,1.6655672788619995,-0.04924680598592793,-0.1680241097358892,0.0319460323672895,0.001546358922496438,-0.01463729701936245,0.0
123,5,-3.2495916002517333e-06,-1.0845515134860761e-05,-1.4320941772894002e-05,-0.0013551869196817279,-0.00034911074908450246,0.001654594438150525,0.011115551926195621,0.25333359837532043,-0.008355718106031418,0.0013038866454735398,-0.006826286669820547,0.002601992106065154,0.0,0.0,0.0,-0.004741252865642309,-0.00038530188612639904,-0.0,0.0,0.0,0.0,-0.0028008322697132826,-0.07669945061206818,-0.0008570412173867226,5437.0,18531.0,17791.0,6084.0,0.05375322699546814,0.7917646765708923,0.7271537780761719,0.07002004981040955,0.0,0.0,0.0,0.0,5384.0,18542.0,17761.0,6188.0,1.6655672788619995,-0.05008551366414764,-0.16830033908941833,0.03188112234490903,0.001546358922496438,-0.01463729701936245,0.0
128,5,-1.3286820831126533e-05,-2.283888079546159e-06,-5.2687942115881015e-06,-0.0017465422861278057,-0.0011670395033434033,-0.0004244198789820075,0.011115551926195621,0.25333359837532043,-0.008355718106031418,0.0013038866454735398,-0.006826286669820547,0.002601992106065154,0.0,0.0,0.0,0.00041110257734544575,-0.0012905057519674301,-0.0,0.0,0.0,0.0,-0.0028008322697132826,-0.07669945061206818,-0.0008570412173867226,5437.0,18531.0,17791.0,6084.0,0.05375322699546814,0.7917646765708923,0.7271537780761719,0.07002004981040955,0.0,0.0,0.0,0.0,5384.0,18542.0,17761.0,6188.0,1.6399896144866943,-0.04990504771077134,-0.16771073670493,0.03194718263691208,0.005099795758724213,0.0012496828567236662,0.0
133,5,-3.487553158265655e-06,-8.98937742022099e-06,-1.541199890198186e-05,0.0004772951942868531,0.0003378429391887039,0.0010474164737388492,0.011131088249385357,0.2533123791217804,-0.008353875018656254,0.004257748834788799,0.009116771630942822,-0.001333829015493393,0.0,0.0,0.0,0.00041110257734544575,-0.0012905057519674301,-0.0,0.0,0.0,0.0,-0.003193655051290989,-0.0759284496307373,-0.0009382733260281384,5525.0,18524.0,17683.0,6206.0,0.055850908160209656,0.7911695241928101,0.7179816961288452,0.07332292199134827,0.0,0.0,0.0,0.0,5627.0,18493.0,17745.0,6022.0,1.6399896144866943,-0.05021483498679434,-0.16792861216304342,0.03177360697401386,0.005099795758724213,0.0012496828567236662,0.0
138,5,-1.2372162245810614e-06,-8.479555617668666e-06,3.421867404540535e-06,0.0004609585157595575,7.395851571345702e-05,-0.0018410972552374005,0.011131088249385357,0.2533123791217804,-0.008353875018656254,0.004257748834788799,0.009116771630942822,-0.001333829015493393,0.0,0.0,0.0,-0.0004351800889708102,0.00045034082722850144,-0.0,0.0,0.0,0.0,-0.003193655051290989,-0.0759284496307373,-0.0009382733260281384,5525.0,18524.0,17683.0,6206.0,0.055850908160209656,0.7911695241928101,0.7179816961288452,0.07332292199134827,0.0,0.0,0.0,0.0,5627.0,18493.0,17745.0,6022.0,1.6317352056503296,-0.04915839740368938,-0.16749087586443276,0.031945618768294375,-0.0017706912476569414,-0.0013162161922082305,0.0
143,5,2.112253923769458e-06,-5.403732757258695e-06,-4.926477231492754e-06,0.000586319831199944,-0.0003395153034944087,0.00026536243967711926,0.011131088249385357,0.2533123791217804,-0.008353875018656254,0.004257748834788799,0.009116771630942822,-0.001333829015493393,0.0,0.0,0.0,-0.0004351800889708102,0.00045034082722850144,-0.0,0.0,0.0,0.0,-0.004713045433163643,-0.07632624357938766,-0.0008722274214960635,5944.0,18702.0,17707.0,6163.0,0.06633011996746063,0.8070992827415466,0.7199859619140625,0.07215193659067154,0.0,0.0,0.0,0.0,6094.0,18665.0,17753.0,5990.0,1.6317352056503296,-0.04909724954767203,-0.16784691059145246,0.03199413509116728,-0.0017706912476569414,-0.0013162161922082305,0.0
148,5,7.177835414040601e-06,-3.6539229313348187e-06,2.894220756388677e-07,0.0008423976833000779,-0.0003457833081483841,-0.0005197629216127098,0.011109516955912113,0.25326594710350037,-0.008344401605427265,-0.0030429940670728683,0.005708589684218168,-0.006066510919481516,0.0,0.0,0.0,0.0004109387518838048,0.0005618486902676523,-0.0,0.0,0.0,0.0,-0.003239425364881754,-0.0769694596529007,-0.0009843969019129872,5274.0,18597.0,17726.0,6106.0,0.049996815621852875,0.7977328896522522,0.7216508388519287,0.07060901820659637,0.0,0.0,0.0,0.0,5844.0,18739.0,17704.0,6143.0,1.6326303482055664,-0.0487790551115031,-0.1675936595310633,0.03203534987575971,-0.0022103399969637394,0.0012435793178156018,0.0
153,5,1.28206493172911e-05,-9.222876542480662e-06,-1.0898728760366794e-05,0.0010140967788174748,0.0005299611366353929,0.0011346729006618261,0.011109516955912113,0.25326594710350037,-0.008344401605427265,-0.0030429940670728683,0.005708589684218168,-0.006066510919481516,0.0,0.0,0.0,0.0004109387518838048,0.0005618486902676523,-0.0,0.0,0.0,0.0,-0.003239425364881754,-0.0769694596529007,-0.0009843969019129872,5274.0,18597.0,17726.0,6106.0,0.049996815621852875,0.7977328896522522,0.7216508388519287,0.07060901820659637,0.0,0.0,0.0,0.0,5844.0,18739.0,17704.0,6143.0,1.6326303482055664,-0.04929072146685535,-0.16795859082790196,0.03194855618589102,-0.0022103399969637394,0.0012435793178156018,0.0
158,5,-3.680202553368872e-06,-8.558836270822212e-06,-1.3318018318386748e-05,-0.0015744635602459311,0.0001322995958616957,0.0007441839552484453,0.011109516955912113,0.25326594710350037,-0.008344401605427265,-0.0030429940670728683,0.005708589684218168,-0.006066510919481516,0.0,0.0,0.0,-0.0006713992916047573,0.000981594086624682,-0.0,0.0,0.0,0.0,-0.003239425364881754,-0.0769694596529007,-0.0009843969019129872,5274.0,18597.0,17726.0,6106.0,0.049996815621852875,0.7977328896522522,0.7216508388519287,0.07060901820659637,0.0,0.0,0.0,0.0,5844.0,18739.0,17704.0,6143.0,1.6376221179962158,-0.04887753903454583,-0.16809215360053778,0.03222364451547005,-0.003873444627970457,-0.002037994796410203,0.0
163,5,-1.7991776985581964e-05,-3.579240365070291e-05,3.180078783771023e-05,-0.002347174333408475,0.0033209477551281452,-0.005116583313792944,0.01113481167703867,0.2533462345600128,-0.008365466259419918,0.003025090554729104,0.005519114900380373,0.018142560496926308,0.0,0.0,0.0,-0.0006713992916047573,0.000981594086624682,-0.0,0.0,0.0,0.0,-0.003589082509279251,-0.07649154216051102,-0.0006757110240869224,5780.0,18450.0,17776.0,5657.0,0.062137797474861145,0.7846158146858215,0.7259164452552795,0.05906510725617409,0.0,0.0,0.0,0.0,5449.0,18531.0,17706.0,5931.0,1.6376221179962158,-0.0504445360098462,-0.16956404285568746,0.030915043555307872,-0.003873444627970457,-0.002037994796410203,0.0
168,5,-2.5501425625407137e-05,-7.350134546868503e-05,1.510149104433367e-05,-0.0018400276312604547,0.00585345271974802,-4.271761645213701e-05,0.01113481167703867,0.2533462345600128,-0.008365466259419918,0.003025090554729104,0.005519114900380373,0.018142560496926308,0.0,0.0,0.0,-0.004092724062502384,-0.0022151160519570112,-0.0,0.0,0.0,0.0,-0.003589082509279251,-0.07649154216051102,-0.0006757110240869224,5780.0,18450.0,17776.0,5657.0,0.062137797474861145,0.7846158146858215,0.7259164452552795,0.05906510725617409,0.0,0.0,0.0,0.0,5449.0,18531.0,17706.0,5931.0,1.6675822734832764,-0.05145740993956925,-0.16998324655683633,0.030231040577289713,0.008900853805243969,-0.012650452554225922,0.0
173,5,-7.32197486286168e-06,-1.578255796630401e-05,-1.6275993402814493e-05,0.0014455231139436364,-0.004584874026477337,0.0037482110783457756,0.011284605599939823,0.25321486592292786,-0.008748750202357769,0.019059915095567703,0.005830237176269293,-0.11338449269533157,0.0,0.0,0.0,-0.004092724062502384,-0.0022151160519570112,-0.0,0.0,0.0,0.0,-0.003329001134261489,-0.07612833380699158,-0.0031986557878553867,1495.0,19304.0,16825.0,8251.0,-0.016308896243572235,0.8622521162033081,0.6468849182128906,0.13980217278003693,0.0,0.0,0.0,0.0,6457.0,18211.0,17987.0,5036.0,1.6675822734832764,-0.049420800975690016,-0.16792915779664044,0.03244154836046312,0.008900853805243969,-0.012650452554225922,0.0
179,5,-1.8188733520219103e-05,-3.0902723665349185e-05,-4.483363591134548e-05,-0.0007258017431013286,-1.9529439668986015e-05,0.004926201421767473,0.011284605599939823,0.25321486592292786,-0.008748750202357769,0.019059915095567703,0.005830237176269293,-0.11338449269533157,0.0,0.0,0.0,0.0055124214850366116,0.0013337054988369346,-0.0,0.0,0.0,0.0,-0.003329001134261489,-0.07612833380699158,-0.0031986557878553867,1495.0,19304.0,16825.0,8251.0,-0.016308896243572235,0.8622521162033081,0.6468849182128906,0.13980217278003693,0.0,0.0,0.0,0.0,6457.0,18211.0,17987.0,5036.0,1.674214482307434,-0.04957978540294611,-0.16877230053697037,0.032163975732841334,-0.005380420479923487,0.017106378450989723,0.0
184,5,-1.207042168971384e-05,-6.59470897517167e-05,2.103947554132901e-05,0.00044387669186107814,0.004197512287646532,-0.005934292916208506,0.010934453457593918,0.2532874643802643,-0.007811886258423328,-0.03536352142691612,0.006224349606782198,0.027024630457162857,0.0,0.0,0.0,0.0055124214850366116,0.0013337054988369346,-0.0,0.0,0.0,0.0,-0.00294702616520226,-0.07660470902919769,0.003103612456470728,7664.0,17769.0,18496.0,2357.0,0.11859309673309326,0.72525554895401,0.7886735200881958,0.005099993199110031,0.0,0.0,0.0,0.0,5905.0,18469.0,17800.0,5618.0,1.674214482307434,-0.05181046067430885,-0.17005756505110006,0.030219105610050038,-0.005380420479923487,0.017106378450989723,0.0
189,5,3.10173595607921e-06,-1.4994550838309806e-05,-1.2180641533632297e-05,0.0019982096273452044,-0.004435299895703793,0.0016126969130709767,0.010934453457593918,0.2532874643802643,-0.007811886258423328,-0.03536352142691612,0.006224349606782198,0.027024630457162857,0.0,0.0,0.0,-0.00520393718034029,0.00039725168608129025,-0.0,0.0,0.0,0.0,-0.00294702616520226,-0.07660470902919769,0.003103612456470728,7664.0,17769.0,18496.0,2357.0,0.11859309673309326,0.72525554895401,0.7886735200881958,0.005099993199110031,0.0,0.0,0.0,0.0,5905.0,18469.0,17800.0,5618.0,1.6695090532302856,-0.05049643497057038,-0.1682339055444544,0.03201185757979883,-0.0015980874886736274,-0.016103705391287804,0.0
194,5,1.9838064417854184e-06,2.966234205814544e-06,1.2343072739895433e-05,0.0006651323055848479,-0.0039294143207371235,-0.002297766972333193,0.011298835277557373,0.25329315662384033,-0.008411150425672531,0.02038378268480301,-0.04112045839428902,0.05256226286292076,0.0,0.0,0.0,-0.00520393718034029,0.00039725168608129025,-0.0,0.0,0.0,0.0,-0.005351789761334658,-0.07765552401542664,-0.0010327664203941822,6367.0,18632.0,17969.0,5118.0,0.07780357450246811,0.800825297832489,0.7424442768096924,0.04650908336043358,0.0,0.0,0.0,0.0,7459.0,18166.0,18498.0,2636.0,1.6695090532302856,-0.04974802064203,-0.16729301835694166,0.03180788574765505,-0.0015980874886736274,-0.016103705391287804,0.0
199,5,1.2223788871779107e-05,-1.027475627779495e-05,-9.116872206504922e-06,0.0014948508469387889,1.7153217413579114e-05,0.0016560866497457027,0.011298835277557373,0.25329315662384033,-0.008411150425672531,0.02038378268480301,-0.04112045839428902,0.05256226286292076,0.0,0.0,0.0,0.004776298999786377,0.0006239432259462774,-0.0,0.0,0.0,0.0,-0.005351789761334658,-0.07765552401542664,-0.0010327664203941822,6367.0,18632.0,17969.0,5118.0,0.07780357450246811,0.800825297832489,0.7424442768096924,0.04650908336043358,0.0,0.0,0.0,0.0,7459.0,18166.0,18498.0,2636.0,1.6662236452102661,-0.049768994423413856,-0.1676202717297294,0.03181840152798873,-0.002505101263523102,0.01475130207836628,0.0
204,5,2.726882121351082e-05,-2.8730757549055852e-05,-2.45745868596714e-05,0.0024033442605286837,0.0022215815261006355,0.0025173602625727654,0.01129714585840702,0.25343748927116394,-0.008400809019804,0.03689562901854515,0.010638073086738586,-0.059876296669244766,0.0,0.0,0.0,0.004776298999786377,0.0006239432259462774,-0.0,0.0,0.0,0.0,-0.004687081091105938,-0.07659225910902023,0.0008750209235586226,3728.0,19015.0,17403.0,7800.0,0.02089102193713188,0.8355788588523865,0.6944013833999634,0.12334318459033966,0.0,0.0,0.0,0.0,5129.0,18727.0,17736.0,6967.0,1.6662236452102661,-0.05170226635370328,-0.16684853870884692,0.030799980511328862,-0.002505101263523102,0.01475130207836628,0.0
209,5,-7.662658390472643e-06,-1.7500402691439376e-06,-5.309697371558286e-06,-0.003230439964681864,-0.0023490535095334053,-0.0013048425316810608,0.01129714585840702,0.25343748927116394,-0.008400809019804,0.03689562901854515,0.010638073086738586,-0.059876296669244766,0.0,0.0,0.0,-0.0027597832959145308,0.00229125889018178,-0.0,0.0,0.0,0.0,-0.004687081091105938,-0.07659225910902023,0.0008750209235586226,3728.0,19015.0,17403.0,7800.0,0.02089102193713188,0.8355788588523865,0.6944013833999634,0.12334318459033966,0.0,0.0,0.0,0.0,5129.0,18727.0,17736.0,6967.0,1.6595592498779297,-0.049835876203553266,-0.167052589174587,0.03186969680550359,-0.009162559174001217,-0.008489366620779037,0.0
214,5,1.1320563316985499e-05,-3.8309757655952126e-05,-2.326316825929098e-05,0.0009858106495812535,0.00344754452817142,0.0016324796015396714,0.01129714585840702,0.25343748927116394,-0.008400809019804,0.03689562901854515,0.010638073086738586,-0.059876296669244766,0.0,0.0,0.0,-0.0027597832959145308,0.00229125889018178,-0.0,0.0,0.0,0.0,-0.004687081091105938,-0.07659225910902023,0.0008750209235586226,3728.0,19015.0,17403.0,7800.0,0.02089102193713188,0.8355788588523865,0.6944013833999634,0.12334318459033966,0.0,0.0,0.0,0.0,5129.0,18727.0,17736.0,6967.0,1.6595592498779297,-0.05042721951499709,-0.1666222572958065,0.030809970996681663,-0.009162559174001217,-0.008489366620779037,0.0
219,5,1.7527505406178534e-05,2.917407300628838e-06,2.734174813667778e-05,0.0011391572188585997,-0.0035682418383657932,-0.005419598426669836,0.011316140182316303,0.25338441133499146,-0.008246972225606441,-0.005659793969243765,0.02044413983821869,0.012351988814771175,0.0,0.0,0.0,-0.004263359121978283,0.0009382475400343537,-0.0,0.0,0.0,0.0,-0.002045310800895095,-0.07572315633296967,-0.0008476481307297945,6602.0,18231.0,18142.0,5652.0,0.08458367735147476,0.7652332782745361,0.7574676275253296,0.05893905833363533,0.0,0.0,0.0,0.0,3981.0,19225.0,17109.0,7699.0,1.6627321243286133,-0.05078484475085207,-0.16685113980364963,0.03146203381508013,-0.003759132232517004,-0.013139545917510986,0.0
224,5,1.612467485756497e-06,-3.454413672443479e-05,-2.588031748018693e-06,-0.001454141573049128,0.0030680885538458824,0.00142373435664922,0.011316140182316303,0.25338441133499146,-0.008246972225606441,-0.005659793969243765,0.02044413983821869,0.012351988814771175,0.0,0.0,0.0,-0.004263359121978283,0.0009382475400343537,-0.0,0.0,0.0,0.0,-0.002045310800895095,-0.07572315633296967,-0.0008476481307297945,6602.0,18231.0,18142.0,5652.0,0.08458367735147476,0.7652332782745361,0.7574676275253296,0.05893905833363533,0.0,0.0,0.0,0.0,3981.0,19225.0,17109.0,7699.0,1.6627321243286133,-0.0486952763831759,-0.16721414907040294,0.03248184383446754,-0.003759132232517004,-0.013139545917510986,0.0
229,5,-6.604654117836617e-06,-6.65237384964712e-05,3.247921267757192e-05,-0.0015677112387493253,0.005064787808805704,-0.0036385757848620415,0.011491980403661728,0.2530882954597473,-0.008619101718068123,-0.011750295758247375,0.02801612578332424,0.07485907524824142,0.0,0.0,0.0,-0.0037996883038431406,-0.0013604828855022788,-0.0,0.0,0.0,0.0,-0.0046999198384583,-0.07185869663953781,-0.003844082122668624,1710.0,19370.0,16366.0,9249.0,0.0009254738688468933,0.868359386920929,0.6103975176811218,0.17987683415412903,0.0,0.0,0.0,0.0,7747.0,17793.0,18562.0,3854.0,1.660667061805725,-0.050812059463558726,-0.16635945736406163,0.03070211002467043,0.005444077309221029,-0.011695995926856995,0.0
234,5,7.106191333150491e-05,-4.0802868170430884e-05,3.8403799408115447e-05,0.008692903444170952,-0.0010605896823108196,-0.002166380640119314,0.011491980403661728,0.2530882954597473,-0.008619101718068123,-0.011750295758247375,0.02801612578332424,0.07485907524824142,0.0,0.0,0.0,-0.0037996883038431406,-0.0013604828855022788,-0.0,0.0,0.0,0.0,-0.0046999198384583,-0.07185869663953781,-0.003844082122668624,1710.0,19370.0,16366.0,9249.0,0.0009254738688468933,0.868359386920929,0.6103975176811218,0.17987683415412903,0.0,0.0,0.0,0.0,7747.0,17793.0,18562.0,3854.0,1.660667061805725,-0.04919671501893694,-0.16356177383947554,0.03284991736846324,0.005444077309221029,-0.011695995926856995,0.0
239,5,0.0001273449743166566,-4.330121009843424e-05,6.707322609145194e-05,0.01023112889379263,-0.00012443489686120301,-0.004306883085519075,0.011241079308092594,0.2483528107404709,-0.007795007899403572,0.01177957933396101,0.6987124681472778,-0.00545733654871583,0.0,0.0,0.0,0.0011802646331489086,0.007982824929058552,-0.0,0.0,0.0,0.0,-0.004602150525897741,-0.06165502592921257,0.002274547005072236,9311.0,17348.0,17307.0,7233.0,0.1825307309627533,0.6897554397583008,0.6863362789154053,0.10410967469215393,0.0,0.0,0.0,0.0,8015.0,17843.0,17683.0,6406.0,1.71503484249115,-0.049041317329524894,-0.159341715678384,0.03336753718064634,-0.032989561557769775,0.0037519815377891064,0.0
244,5,0.00021945960179436952,-5.172051169211045e-05,5.501952182385139e-05,0.015146206133067608,0.00096054223831743,-0.00027630876866169274,0.011241079308092594,0.2483528107404709,-0.007795007899403572,0.01177957933396101,0.6987124681472778,-0.00545733654871583,0.0,0.0,0.0,0.0011802646331489086,0.007982824929058552,-0.0,0.0,0.0,0.0,-0.004602150525897741,-0.06165502592921257,0.002274547005072236,9311.0,17348.0,17307.0,7233.0,0.1825307309627533,0.6897554397583008,0.6863362789154053,0.10410967469215393,0.0,0.0,0.0,0.0,8015.0,17843.0,17683.0,6406.0,1.71503484249115,-0.04837484208537047,-0.15373583643881417,0.0332554036223619,-0.032989561557769775,0.0037519815377891064,0.0
249,5,0.00034917559241876006,-5.957428948022425e-05,2.773149208223913e-05,0.021624403074383736,0.001326670404523611,0.0031640399247407913,0.011150607839226723,0.23446950316429138,-0.0076240431517362595,-0.03013516031205654,1.5298631191253662,0.22743619978427887,0.0,0.0,0.0,-0.0011777012841776013,0.013517974875867367,-0.0,0.0,0.0,0.0,-0.004307428374886513,-0.03947989642620087,0.0014417648781090975,12535.0,15112.0,16942.0,8284.0,0.34708279371261597,0.5161066651344299,0.6564129590988159,0.1410646289587021,0.0,0.0,0.0,0.0,6924.0,18422.0,15279.0,10918.0,1.7808442115783691,-0.04854313617738487,-0.1455512933009973,0.03490700945792705,-0.058006402105093,-0.003887491300702095,0.0
255,5,0.0005302494973875582,-7.46401710784994e-05,-3.7405421608127654e-05,0.03037862852215767,0.002338573569431901,0.009082045406103134,0.011150607839226723,0.23446950316429138,-0.0076240431517362595,-0.03013516031205654,1.5298631191253662,0.22743619978427887,0.0,0.0,0.0,-0.0011777012841776013,0.013517974875867367,-0.0,0.0,0.0,0.0,-0.004307428374886513,-0.03947989642620087,0.0014417648781090975,12535.0,15112.0,16942.0,8284.0,0.34708279371261597,0.5161066651344299,0.6564129590988159,0.1410646289587021,0.0,0.0,0.0,0.0,6924.0,18422.0,15279.0,10918.0,1.7808442115783691,-0.048098486228211834,-0.13642142721582273,0.03536137146937826,-0.058006402105093,-0.003887491300702095,0.0
260,5,0.0007562850951217115,-9.653468441683799e-05,-0.00012428413901943713,0.039275724440813065,0.003562771249562502,0.014058263972401619,0.010901255533099174,0.217927023768425,-0.008022909052670002,0.04341579228639603,2.4844093322753906,-0.21947072446346283,0.0,0.0,0.0,-0.0025632958859205246,0.025094574317336082,-0.0,0.0,0.0,0.0,-0.005859151482582092,-0.009388139471411705,-0.006992947310209274,10378.0,16912.0,10602.0,15349.0,0.2312103807926178,0.6539469957351685,0.24216929078102112,0.5333404541015625,0.0,0.0,0.0,0.0,13433.0,14154.0,16456.0,9517.0,1.9324300289154053,-0.0481646911636273,-0.12433320643728973,0.03548173080199439,-0.11683918535709381,-0.009181427769362926,0.0
265,5,0.000989912310615182,-0.00015123233606573194,-0.00022190170420799404,0.043745554983615875,0.007988827303051949,0.017337413504719734,0.010901255533099174,0.217927023768425,-0.008022909052670002,0.04341579228639603,2.4844093322753906,-0.21947072446346283,0.0,0.0,0.0,-0.0025632958859205246,0.025094574317336082,-0.0,0.0,0.0,0.0,-0.005859151482582092,-0.009388139471411705,-0.006992947310209274,10378.0,16912.0,10602.0,15349.0,0.2312103807926178,0.6539469957351685,0.24216929078102112,0.5333404541015625,0.0,0.0,0.0,0.0,13433.0,14154.0,16456.0,9517.0,1.9324300289154053,-0.05119926291388131,-0.11338010231450876,0.03713221226704815,-0.11683918535709381,-0.009181427769362926,0.0
270,5,0.0013013819698244333,-0.00014036557695362717,-0.00036046383320353925,0.05487458407878876,0.0018915199907496572,0.023562420159578323,0.0101169990375638,0.1828545480966568,-0.006734078284353018,-0.1335635781288147,3.271399736404419,-0.07289736717939377,0.0,0.0,0.0,-0.00195990945212543,0.040819667279720306,-0.0,0.0,0.0,0.0,0.0007910247659310699,0.020259546115994453,0.004389785695821047,15667.0,11725.0,12659.0,14926.0,0.5569211840629578,0.30082350969314575,0.35447126626968384,0.5028189420700073,0.0,0.0,0.0,0.0,13851.0,14373.0,12461.0,14584.0,2.1655335426330566,-0.04904557351873582,-0.09498780893012126,0.03796839548879981,-0.21294371783733368,-0.007866996340453625,0.0
275,5,0.0016161297680810094,-0.00019792736566159874,-0.0004908309783786535,0.05971956625580788,0.007664022501558065,0.02506902627646923,0.0101169990375638,0.1828545480966568,-0.006734078284353018,-0.1335635781288147,3.271399736404419,-0.07289736717939377,0.0,0.0,0.0,-0.00195990945212543,0.040819667279720306,-0.0,0.0,0.0,0.0,0.0007910247659310699,0.020259546115994453,0.004389785695821047,15667.0,11725.0,12659.0,14926.0,0.5569211840629578,0.30082350969314575,0.35447126626968384,0.5028189420700073,0.0,0.0,0.0,0.0,13851.0,14373.0,12461.0,14584.0,2.1655335426330566,-0.04956145071882341,-0.07615360260828145,0.03739364497126542,-0.21294371783733368,-0.007866996340453625,0.0
280,5,0.0018680822104215622,-0.00013996029156260192,-0.0005281930207274854,0.054122116416692734,-0.0038904405664652586,0.014511053450405598,0.010787800885736942,0.15454250574111938,-0.007034010253846645,0.044851645827293396,3.671900510787964,0.26225173473358154,0.0,0.0,0.0,-0.00195990945212543,0.040819667279720306,-0.0,0.0,0.0,0.0,-0.004768300335854292,0.0467400923371315,0.0015172924613580108,18333.0,8432.0,11909.0,15559.0,0.7742111682891846,0.1467171162366867,0.3110669255256653,0.5488489270210266,0.0,0.0,0.0,0.0,13868.0,15024.0,6216.0,18251.0,2.1655335426330566,-0.04818436716151385,-0.05598177198243345,0.04132163961841302,-0.21294371783733368,-0.007866996340453625,0.0
285,5,0.0020867413841187954,-0.00011455805361038074,-0.0006037192652001977,0.04788793995976448,-0.0046044448390603065,0.014867572113871574,0.010787800885736942,0.15454250574111938,-0.007034010253846645,0.044851645827293396,3.671900510787964,0.26225173473358154,0.0,0.0,0.0,0.0034400145523250103,0.040850892663002014,-0.0,0.0,0.0,0.0,-0.004768300335854292,0.0467400923371315,0.0015172924613580108,18333.0,8432.0,11909.0,15559.0,0.7742111682891846,0.1467171162366867,0.3110669255256653,0.5488489270210266,0.0,0.0,0.0,0.0,13868.0,15024.0,6216.0,18251.0,2.1669530868530273,-0.04905753278552556,-0.038659323297506896,0.04205472880395832,-0.21324534714221954,0.013817095197737217,0.0
290,5,0.0023560160771012306,-0.0001357447763439268,-0.0006267481949180365,0.05146816000342369,0.0007006288506090641,0.008710503578186035,0.009981509298086166,0.11143480986356735,-0.0070100571028888226,0.05324118584394455,3.5296337604522705,-0.19751769304275513,0.0,0.0,0.0,0.0034400145523250103,0.040850892663002014,-0.0,0.0,0.0,0.0,-0.005606032907962799,0.05744117498397827,-0.008176421746611595,16013.0,13956.0,3199.0,19700.0,0.5831036567687988,0.43616151809692383,0.013675585389137268,0.899489164352417,0.0,0.0,0.0,0.0,19582.0,6307.0,13323.0,15878.0,2.1669530868530273,-0.04890083097494283,-0.022558875883507964,0.04173943720543102,-0.21324534714221954,0.013817095197737217,0.0
295,5,0.0025766680482774973,-0.0001403739006491378,-0.0007456580642610788,0.04706549644470215,0.0008357467595487833,0.01775338314473629,0.009981509298086166,0.11143480986356735,-0.0070100571028888226,0.05324118584394455,3.5296337604522705,-0.19751769304275513,0.0,0.0,0.0,-0.0008477583760395646,0.03979107365012169,-0.0,0.0,0.0,0.0,-0.005606032907962799,0.05744117498397827,-0.008176421746611595,16013.0,13956.0,3199.0,19700.0,0.5831036567687988,0.43616151809692383,0.013675585389137268,0.899489164352417,0.0,0.0,0.0,0.0,19582.0,6307.0,13323.0,15878.0,2.1488821506500244,-0.04628919664071451,-0.005548404328085837,0.0447620981913268,-0.20598489046096802,-0.0033767051063477993,0.0
300,5,0.0027855620719492435,-0.00016966091061476618,-0.0008666074718348682,0.0438934788107872,0.0038487392012029886,0.021615279838442802,0.009839797392487526,0.08564315736293793,-0.005057453643530607,-0.16307678818702698,2.8670613765716553,-0.05834604799747467,0.0,0.0,0.0,-0.0008477583760395646,0.03979107365012169,-0.0,0.0,0.0,0.0,-0.00026163755683228374,0.06083541736006737,0.005108596291393042,19245.0,10390.0,12035.0,18158.0,0.8567243218421936,0.23178716003894806,0.3181476891040802,0.7588743567466736,0.0,0.0,0.0,0.0,19644.0,10340.0,11478.0,18108.0,2.1488821506500244,-0.04712611397723178,0.0076524279412877065,0.04428552284744349,-0.20598489046096802,-0.0033767051063477993,0.0
306,5,0.002909713890403509,-0.00021370775357354432,-0.0009743436239659786,0.032455623149871826,0.00682511692866683,0.02157444879412651,0.009839797392487526,0.08564315736293793,-0.005057453643530607,-0.16307678818702698,2.8670613765716553,-0.05834604799747467,0.0,0.0,0.0,-0.003970411140471697,0.03576764091849327,-0.0,0.0,0.0,0.0,-0.00026163755683228374,0.06083541736006737,0.005108596291393042,19245.0,10390.0,12035.0,18158.0,0.8567243218421936,0.23178716003894806,0.3181476891040802,0.7588743567466736,0.0,0.0,0.0,0.0,19644.0,10340.0,11478.0,18108.0,2.088385820388794,-0.04776070743486111,0.018045282614856058,0.0449557970292717,-0.17995209991931915,-0.015369251370429993,0.0
311,5,0.002951587550342083,-0.0001929193240357563,-0.00106319529004395,0.018007084727287292,0.00023543494171462953,0.01929198019206524,0.009571993723511696,0.056739795953035355,-0.0049101184122264385,0.053074467927217484,1.9471172094345093,0.3326670825481415,0.0,0.0,0.0,-0.003970411140471697,0.03576764091849327,-0.0,0.0,0.0,0.0,-0.003070153295993805,0.045847322791814804,0.0022810189984738827,19508.0,10165.0,14470.0,16151.0,0.8812992572784424,0.22105276584625244,0.47091126441955566,0.5936897993087769,0.0,0.0,0.0,0.0,16500.0,14515.0,6928.0,20504.0,2.088385820388794,-0.04877315244135628,0.026407819413456275,0.04823638382219817,-0.17995209991931915,-0.015369251370429993,0.0
316,5,0.0029605876188725233,-0.00019053676805924624,-0.0011036561336368322,0.008282829076051712,-0.00019173158216290176,0.012572092935442924,0.009571993723511696,0.056739795953035355,-0.0049101184122264385,0.053074467927217484,1.9471172094345093,0.3326670825481415,0.0,0.0,0.0,-0.0005688300589099526,0.018825119361281395,-0.0,0.0,0.0,0.0,-0.003070153295993805,0.045847322791814804,0.0022810189984738827,19508.0,10165.0,14470.0,16151.0,0.8812992572784424,0.22105276584625244,0.47091126441955566,0.5936897993087769,0.0,0.0,0.0,0.0,16500.0,14515.0,6928.0,20504.0,1.847516417503357,-0.04956563102764307,0.03224035547591221,0.047375768948962727,-0.08380158245563507,-0.0019479569746181369,0.0
321,5,0.0029465940315276384,-0.0002281417982885614,-0.001097915810532868,0.001633905922062695,0.004435911308974028,0.004339997190982103,0.009571993723511696,0.056739795953035355,-0.0049101184122264385,0.053074467927217484,1.9471172094345093,0.3326670825481415,0.0,0.0,0.0,-0.0005688300589099526,0.018825119361281395,-0.0,0.0,0.0,0.0,-0.003070153295993805,0.045847322791814804,0.0022810189984738827,19508.0,10165.0,14470.0,16151.0,0.8812992572784424,0.22105276584625244,0.47091126441955566,0.5936897993087769,0.0,0.0,0.0,0.0,16500.0,14515.0,6928.0,20504.0,1.847516417503357,-0.05040055419801401,0.03511841955958931,0.04689869081856312,-0.08380158245563507,-0.0019479569746181369,0.0
326,5,0.0029079150408506393,-0.00024500375729985535,-0.0010505564277991652,-0.003987929318100214,0.003797797719016671,-0.003947119694203138,0.008776236325502396,0.04668663814663887,-0.005659321788698435,-0.03768544644117355,0.7944786548614502,-0.18129202723503113,0.0,0.0,0.0,-0.005669059231877327,0.005455267149955034,-0.0,0.0,0.0,0.0,-0.0018374870996922255,0.020549079403281212,-0.006644414272159338,14615.0,16397.0,11608.0,18178.0,0.48092883825302124,0.6128917336463928,0.2944257855415344,0.7606357932090759,0.0,0.0,0.0,0.0,18526.0,11567.0,14688.0,15964.0,1.7029370069503784,-0.05270282425358532,0.0382627322822518,0.04795371771722872,-0.022385014221072197,-0.017894266173243523,0.0
331,5,0.0027639849577099085,-0.00024826719891279936,-0.0009554732241667807,-0.01886676624417305,0.0019107349216938019,-0.012988833710551262,0.008853650651872158,0.0437663234770298,-0.004669337999075651,-0.03928971290588379,-0.2716674506664276,-0.09516078978776932,0.0,0.0,0.0,-0.005669059231877327,0.005455267149955034,-0.0,0.0,0.0,0.0,-0.004280025605112314,-0.004885795991867781,0.0022131125442683697,14654.0,16112.0,15210.0,14757.0,0.4836421012878418,0.5907042026519775,0.5231778621673584,0.4908616542816162,0.0,0.0,0.0,0.0,15986.0,14900.0,13920.0,15876.0,1.7029370069503784,-0.054287119388397385,0.03670912684819023,0.04743326060547165,-0.022385014221072197,-0.017894266173243523,0.0
336,5,0.0024768072180449963,-0.0002578434650786221,-0.000858883373439312,-0.028223639354109764,0.001143815228715539,-0.008426074869930744,0.008853650651872158,0.0437663234770298,-0.004669337999075651,-0.03928971290588379,-0.2716674506664276,-0.09516078978776932,0.0,0.0,0.0,-0.002593693323433399,-0.01296896394342184,-0.0,0.0,0.0,0.0,-0.004280025605112314,-0.004885795991867781,0.0022131125442683697,14654.0,16112.0,15210.0,14757.0,0.4836421012878418,0.5907042026519775,0.5231778621673584,0.4908616542816162,0.0,0.0,0.0,0.0,15986.0,14900.0,13920.0,15876.0,1.77561616897583,-0.052906627901322216,0.03431095917199683,0.04806313703138306,0.05548718199133873,-0.008536412380635738,0.0
341,5,0.0024768072180449963,-0.0002578434650786221,-0.000858883373439312,-0.028223639354109764,0.001143815228715539,-0.008426074869930744,0.00860193558037281,0.04841580614447594,-0.0047121066600084305,-0.030376505106687546,-0.7960458397865295,0.25570252537727356,0.0,0.0,0.0,-0.002593693323433399,-0.01296896394342184,-0.0,0.0,0.0,0.0,-0.002651770832017064,-0.02623852714896202,0.002695346251130104,14975.0,14042.0,17999.0,8626.0,0.5062894821166992,0.44187623262405396,0.7450518012046814,0.15429893136024475,0.0,0.0,0.0,0.0,13455.0,15504.0,17253.0,10085.0,1.77561616897583,-0.052906627901322216,0.03431095917199683,0.04806313703138306,0.05548718199133873,-0.008536412380635738,0.0
346,5,0.0022970731370151043,-0.000309095426928252,-0.0008273319690488279,-0.03285754844546318,0.006607761140912771,-0.007156592793762684,0.00860193558037281,0.04841580614447594,-0.0047121066600084305,-0.030376505106687546,-0.7960458397865295,0.25570252537727356,0.0,0.0,0.0,-0.0016491117421537638,-0.020458418875932693,-0.0,0.0,0.0,0.0,-0.002651770832017064,-0.02623852714896202,0.002695346251130104,14975.0,14042.0,17999.0,8626.0,0.5062894821166992,0.44187623262405396,0.7450518012046814,0.15429893136024475,0.0,0.0,0.0,0.0,13455.0,15504.0,17253.0,10085.0,1.8693243265151978,-0.05036400731049517,0.030288823341400876,0.04741578232763993,0.09214626252651215,-0.005714035592973232,0.0
351,5,0.001833538175560534,-0.0003706833522301167,-0.0008367226109839976,-0.04223593324422836,0.006607012823224068,0.0002599425206426531,0.008716624230146408,0.059352755546569824,-0.005146048963069916,0.00859811156988144,-0.9733811616897583,-0.046917226165533066,0.0,0.0,0.0,-0.0016491117421537638,-0.020458418875932693,-0.0,0.0,0.0,0.0,-0.004077819176018238,-0.040928903967142105,-0.006346201989799738,8546.0,17896.0,14695.0,12228.0,0.15112954378128052,0.7361462712287903,0.48649823665618896,0.32916295528411865,0.0,0.0,0.0,0.0,12270.0,15721.0,17131.0,8218.0,1.8693243265151978,-0.05087118458819916,0.01681728265406497,0.04763585411656544,0.09214626252651215,-0.005714035592973232,0.0
357,5,0.0016315747052431107,-0.0003433148085605353,-0.000884073437191546,-0.04112998768687248,-0.0006414210074581206,0.0057860747911036015,0.008716624230146408,0.059352755546569824,-0.005146048963069916,0.00859811156988144,-0.9733811616897583,-0.046917226165533066,0.0,0.0,0.0,-0.007179766893386841,-0.030524656176567078,-0.0,0.0,0.0,0.0,-0.004077819176018238,-0.040928903967142105,-0.006346201989799738,8546.0,17896.0,14695.0,12228.0,0.15112954378128052,0.7361462712287903,0.48649823665618896,0.32916295528411865,0.0,0.0,0.0,0.0,12270.0,15721.0,17131.0,8218.0,2.0155534744262695,-0.05235613291473613,0.012448214914859815,0.04727558972968089,0.14822393655776978,-0.02682294324040413,0.0
362,5,0.0016315747052431107,-0.0003433148085605353,-0.000884073437191546,-0.04112998768687248,-0.0006414210074581206,0.0057860747911036015,0.008716624230146408,0.059352755546569824,-0.005146048963069916,0.00859811156988144,-0.9733811616897583,-0.046917226165533066,0.0,0.0,0.0,-0.007179766893386841,-0.030524656176567078,-0.0,0.0,0.0,0.0,-0.004077819176018238,-0.040928903967142105,-0.006346201989799738,8546.0,17896.0,14695.0,12228.0,0.15112954378128052,0.7361462712287903,0.48649823665618896,0.32916295528411865,0.0,0.0,0.0,0.0,12270.0,15721.0,17131.0,8218.0,2.0155534744262695,-0.05235613291473613,0.012448214914859815,0.04727558972968089,0.14822393655776978,-0.02682294324040413,0.0
367,5,0.001356530818156898,-0.0003098174638580531,-0.0009207049151882529,-0.027813374996185303,-0.0036420710384845734,0.003373355371877551,0.008721503429114819,0.0669965147972107,-0.004185470286756754,0.021438278257846832,-0.8310360908508301,-0.16320347785949707,0.0,0.0,0.0,0.00013689017214346677,-0.030097832903265953,-0.0,0.0,0.0,0.0,-0.0038051914889365435,-0.047047656029462814,0.0029360817279666662,10754.0,17091.0,16941.0,9731.0,0.2497481107711792,0.6685542464256287,0.6563069820404053,0.20100679993629456,0.0,0.0,0.0,0.0,7616.0,18658.0,14700.0,12893.0,2.0021212100982666,-0.05470036330454033,0.011907328748657664,0.04543303092388713,0.14518171548843384,0.0005080087576061487,0.0
372,5,0.0012619034387171268,-0.0002736329915933311,-0.0009019245044328272,-0.02248063124716282,-0.005798966158181429,-0.0009043096215464175,0.008721503429114819,0.0669965147972107,-0.004185470286756754,0.021438278257846832,-0.8310360908508301,-0.16320347785949707,0.0,0.0,0.0,0.00013689017214346677,-0.030097832903265953,-0.0,0.0,0.0,0.0,-0.0038051914889365435,-0.047047656029462814,0.0029360817279666662,10754.0,17091.0,16941.0,9731.0,0.2497481107711792,0.6685542464256287,0.6563069820404053,0.20100679993629456,0.0,0.0,0.0,0.0,7616.0,18658.0,14700.0,12893.0,2.0021212100982666,-0.054021229154793654,0.014542024746869315,0.04414232353689719,0.14518171548843384,0.0005080087576061487,0.0
377,5,0.0011940625263378024,-0.0002727217797655612,-0.000946642889175564,-0.01713317073881626,-0.0024289314169436693,0.00500448327511549,0.00899507850408554,0.07194812595844269,-0.004662264138460159,-0.044828325510025024,-0.34722867608070374,0.22859476506710052,0.0,0.0,0.0,0.005940455477684736,-0.017455141991376877,-0.0,0.0,0.0,0.0,-0.0031780563294887543,-0.03970932587981224,0.003975448198616505,13845.0,15321.0,18129.0,8589.0,0.42884910106658936,0.5312633514404297,0.7563809752464294,0.15283091366291046,0.0,0.0,0.0,0.0,12864.0,16104.0,16766.0,11154.0,1.8373663425445557,-0.05467826369915073,0.01668928230439654,0.04464087042367369,0.07727541029453278,0.0202310960739851,0.0
382,5,0.0010934603633359075,-0.00024920806754380465,-0.0009420668357051909,-0.01892552524805069,-0.0037932186387479305,0.0014526665909215808,0.00899507850408554,0.07194812595844269,-0.004662264138460159,-0.044828325510025024,-0.34722867608070374,0.22859476506710052,0.0,0.0,0.0,0.005940455477684736,-0.017455141991376877,-0.0,0.0,0.0,0.0,-0.0031780563294887543,-0.03970932587981224,0.003975448198616505,13845.0,15321.0,18129.0,8589.0,0.42884910106658936,0.5312633514404297,0.7563809752464294,0.15283091366291046,0.0,0.0,0.0,0.0,12864.0,16104.0,16766.0,11154.0,1.8373663425445557,-0.05342393025315087,0.022477913889862863,0.044856125001876065,0.07727541029453278,0.0202310960739851,0.0
387,5,0.0010202403645962477,-0.00019737101683858782,-0.0008751715067774057,-0.016356611624360085,-0.007737732958048582,-0.0074463714845478535,0.009066212922334671,0.07281436771154404,-0.0047843968495726585,0.047627463936805725,0.24779215455055237,-0.05230821296572685,0.0,0.0,0.0,0.0038457040209323168,-0.014941796660423279,-0.0,0.0,0.0,0.0,-0.002090246183797717,-0.014795825816690922,-0.0002299518819199875,11998.0,17973.0,15121.0,14012.0,0.3160479962825775,0.7428330183029175,0.5167518854141235,0.43992048501968384,0.0,0.0,0.0,0.0,15435.0,14997.0,17462.0,11126.0,1.80170738697052,-0.0508473576613149,0.02891717199730457,0.04401479041645043,0.06486637145280838,0.01284300722181797,0.0
393,5,0.0009402045398019254,-0.00017879759252537042,-0.0009145335061475635,-0.016146941110491753,-0.005323905497789383,0.00174489407800138,0.009066212922334671,0.07281436771154404,-0.0047843968495726585,0.047627463936805725,0.24779215455055237,-0.05230821296572685,0.0,0.0,0.0,0.0038457040209323168,-0.014941796660423279,-0.0,0.0,0.0,0.0,-0.002090246183797717,-0.014795825816690922,-0.0002299518819199875,11998.0,17973.0,15121.0,14012.0,0.3160479962825775,0.7428330183029175,0.5167518854141235,0.43992048501968384,0.0,0.0,0.0,0.0,15435.0,14997.0,17462.0,11126.0,1.80170738697052,-0.05106313144121643,0.03681229089830219,0.0441149558687722,0.06486637145280838,0.01284300722181797,0.0
398,5,0.0008698013261891901,-0.00011685241042869166,-0.0008946725865826011,-0.014907162636518478,-0.009562983177602291,-0.0016853534616529942,0.00887541938573122,0.06916502863168716,-0.003577187191694975,-0.023656945675611496,0.7529915571212769,-0.15712416172027588,0.0,0.0,0.0,0.005744175054132938,-0.012878221459686756,-0.0,0.0,0.0,0.0,-0.00020448543364182115,0.002182655967772007,0.003932833205908537,13155.0,16684.0,14760.0,14754.0,0.3847447335720062,0.6356087923049927,0.4910935163497925,0.49067410826683044,0.0,0.0,0.0,0.0,12762.0,17136.0,13350.0,15871.0,1.7816767692565918,-0.05112240151062038,0.04234660913693769,0.04462985334051027,0.05528629943728447,0.018969714641571045,0.0
403,5,0.000845850445330143,-0.00013583026884589344,-0.001023794524371624,-0.008836967870593071,-0.0015478504355996847,0.01482048537582159,0.00887541938573122,0.06916502863168716,-0.003577187191694975,-0.023656945675611496,0.7529915571212769,-0.15712416172027588,0.0,0.0,0.0,0.005744175054132938,-0.012878221459686756,-0.0,0.0,0.0,0.0,-0.00020448543364182115,0.002182655967772007,0.003932833205908537,13155.0,16684.0,14760.0,14754.0,0.3847447335720062,0.6356087923049927,0.4910935163497925,0.49067410826683044,0.0,0.0,0.0,0.0,12762.0,17136.0,13350.0,15871.0,1.7816767692565918,-0.05216669113892011,0.0498884140961449,0.04364655143071966,0.05528629943728447,0.018969714641571045,0.0
408,5,0.0008228129590861499,-0.00011421348608564585,-0.001146161463111639,-0.00629928894340992,-0.003213153686374426,0.02061222679913044,0.008934162557125092,0.05783820524811745,-0.0037009119987487793,-0.05354109779000282,1.1508580446243286,0.17821218073368073,0.0,0.0,0.0,0.0015979651361703873,-0.006916712503880262,-0.0,0.0,0.0,0.0,-0.0027282920200377703,0.011620022356510162,-0.004945398773998022,13793.0,14905.0,11540.0,16027.0,0.42544248700141907,0.5013311505317688,0.2907479703426361,0.5841858386993408,0.0,0.0,0.0,0.0,14631.0,13964.0,13666.0,14907.0,1.7033976316452026,-0.051702176601560415,0.055487052276206046,0.04524925617325928,0.028389886021614075,0.005045352969318628,0.0
413,5,0.0007579023367725313,-6.430179200833663e-05,-0.001144314301200211,-0.010308989323675632,-0.007274665404111147,0.008023233152925968,0.008934162557125092,0.05783820524811745,-0.0037009119987487793,-0.05354109779000282,1.1508580446243286,0.17821218073368073,0.0,0.0,0.0,0.0015979651361703873,-0.006916712503880262,-0.0,0.0,0.0,0.0,-0.0027282920200377703,0.011620022356510162,-0.004945398773998022,13793.0,14905.0,11540.0,16027.0,0.42544248700141907,0.5013311505317688,0.2907479703426361,0.5841858386993408,0.0,0.0,0.0,0.0,14631.0,13964.0,13666.0,14907.0,1.7033976316452026,-0.05233603037981031,0.06075770237665889,0.045959099223889535,0.028389886021614075,0.005045352969318628,0.0
418,5,0.000775047461502254,-8.520748087903485e-05,-0.001276549999602139,-0.00206617615185678,-0.00040118294418789446,0.019077572971582413,0.00885133445262909,0.04798801988363266,-0.004409921821206808,0.08101221174001694,1.3162271976470947,-0.0533122755587101,0.0,0.0,0.0,0.008331593126058578,-0.008189568296074867,-0.0,0.0,0.0,0.0,6.715397466905415e-05,0.013512753881514072,-0.0003522991028148681,14107.0,14103.0,11898.0,15959.0,0.44625163078308105,0.44599881768226624,0.3104552924633026,0.5789709687232971,0.0,0.0,0.0,0.0,16405.0,11716.0,14640.0,13480.0,1.7428187131881714,-0.05517128186756908,0.061829540764502616,0.04591810538688362,0.03439103066921234,0.026914089918136597,0.0
423,5,0.0007302032317966223,-5.096051245345734e-05,-0.0013760128058493137,-0.006207779981195927,-0.004270109813660383,0.019566571339964867,0.00885133445262909,0.04798801988363266,-0.004409921821206808,0.08101221174001694,1.3162271976470947,-0.0533122755587101,0.0,0.0,0.0,0.008331593126058578,-0.008189568296074867,-0.0,0.0,0.0,0.0,6.715397466905415e-05,0.013512753881514072,-0.0003522991028148681,14107.0,14103.0,11898.0,15959.0,0.44625163078308105,0.44599881768226624,0.3104552924633026,0.5789709687232971,0.0,0.0,0.0,0.0,16405.0,11716.0,14640.0,13480.0,1.7428187131881714,-0.05535505876133054,0.06713034664013685,0.04756360379473567,0.03439103066921234,0.026914089918136597,0.0
428,5,0.0006864565657451749,5.776147190772463e-06,-0.001444198191165924,-0.007732709404081106,-0.008516442961990833,0.016008872538805008,0.008838077075779438,0.03284332901239395,-0.0036555801052600145,-0.04661146551370621,1.213174819946289,-0.1490962952375412,0.0,0.0,0.0,0.005010748747736216,-0.004698177333921194,-0.0,0.0,0.0,0.0,-0.0021003419533371925,0.01479154359549284,0.005259025376290083,16594.0,10488.0,14742.0,12561.0,0.628434419631958,0.23656688630580902,0.4897766709327698,0.34861963987350464,0.0,0.0,0.0,0.0,13123.0,15211.0,10457.0,16747.0,1.69258451461792,-0.05616383179489667,0.06936563720833767,0.04908040979689285,0.01916128396987915,0.015720205381512642,0.0
433,5,0.0005927822203375399,-2.246157009722083e-06,-0.001504348125308752,-0.01433400809764862,-0.0024439007975161076,0.013621545396745205,0.008838077075779438,0.03284332901239395,-0.0036555801052600145,-0.04661146551370621,1.213174819946289,-0.1490962952375412,0.0,0.0,0.0,0.005010748747736216,-0.004698177333921194,-0.0,0.0,0.0,0.0,-0.0021003419533371925,0.01479154359549284,0.005259025376290083,16594.0,10488.0,14742.0,12561.0,0.628434419631958,0.23656688630580902,0.4897766709327698,0.34861963987350464,0.0,0.0,0.0,0.0,13123.0,15211.0,10457.0,16747.0,1.69258451461792,-0.058891561427993365,0.07039634134967031,0.04821647137159319,0.01916128396987915,0.015720205381512642,0.0
438,5,0.0004845401272177696,4.655617522075772e-05,-0.001546860788948834,-0.01872265338897705,-0.006833840161561966,0.010550133883953094,0.00891088880598545,0.014035806059837341,-0.004109194967895746,0.03719743713736534,0.6439310908317566,-0.0719580352306366,0.0,0.0,0.0,0.0027974292170256376,-0.0118636479601264,-0.0,0.0,0.0,0.0,-0.0031796209514141083,0.009140362031757832,-0.005203177221119404,13042.0,14700.0,11188.0,15656.0,0.3777029514312744,0.4868563413619995,0.27199530601501465,0.5560299158096313,0.0,0.0,0.0,0.0,15025.0,12644.0,13292.0,14114.0,1.7626745700836182,-0.05947549594448678,0.07417113142747947,0.04846681044479588,0.05038838088512421,0.00913984328508377,0.0
443,5,0.0003224762331228703,0.00011182304297108203,-0.001591697451658547,-0.0269367303699255,-0.010565560311079025,0.009600450284779072,0.00891088880598545,0.014035806059837341,-0.004109194967895746,0.03719743713736534,0.6439310908317566,-0.0719580352306366,0.0,0.0,0.0,0.0027974292170256376,-0.0118636479601264,-0.0,0.0,0.0,0.0,-0.0031796209514141083,0.009140362031757832,-0.005203177221119404,13042.0,14700.0,11188.0,15656.0,0.3777029514312744,0.4868563413619995,0.27199530601501465,0.5560299158096313,0.0,0.0,0.0,0.0,15025.0,12644.0,13292.0,14114.0,1.7626745700836182,-0.0600109906307336,0.07523130416821786,0.050515567563538304,0.05038838088512421,0.00913984328508377,0.0
448,5,0.00019385950872674584,0.0001233738730661571,-0.0016306634061038494,-0.026208698749542236,-0.005612323526293039,0.008516102097928524,0.00878618098795414,0.01016402617096901,-0.002573017729446292,-0.040419865399599075,0.27326124906539917,-0.14258772134780884,0.0,0.0,0.0,0.011381799355149269,-0.021580033004283905,-0.0,0.0,0.0,0.0,-1.914791573653929e-05,0.003071374725550413,0.0010780487209558487,13435.0,14113.0,13102.0,14343.0,0.40233951807022095,0.4466288089752197,0.38144367933273315,0.4621725082397461,0.0,0.0,0.0,0.0,16283.0,10841.0,15258.0,11851.0,1.9066942930221558,-0.05847672928936819,0.07563177523793363,0.04984061749587977,0.09913413971662521,0.04022383689880371,0.0
454,5,7.612467743456364e-05,8.756379247643054e-05,-0.001750055467709899,-0.024611659348011017,0.002052279654890299,0.017733482643961906,0.00878618098795414,0.01016402617096901,-0.002573017729446292,-0.040419865399599075,0.27326124906539917,-0.14258772134780884,0.0,0.0,0.0,0.011381799355149269,-0.021580033004283905,-0.0,0.0,0.0,0.0,-1.914791573653929e-05,0.003071374725550413,0.0010780487209558487,13435.0,14113.0,13102.0,14343.0,0.40233951807022095,0.4466288089752197,0.38144367933273315,0.4621725082397461,0.0,0.0,0.0,0.0,16283.0,10841.0,15258.0,11851.0,1.9066942930221558,-0.061571708107438776,0.0730223789731672,0.05092470025318141,0.09913413971662521,0.04022383689880371,0.0
459,5,-0.00010935065802186728,0.0001048684207489714,-0.0016912153223529458,-0.03210170567035675,-0.001255642855539918,3.2579380786046386e-05,0.008929938077926636,0.008430670946836472,-0.0026036424096673727,-0.0326719731092453,-0.05538904294371605,0.2883041799068451,0.0,0.0,0.0,-0.0020862973760813475,-0.0203823484480381,-0.0,0.0,0.0,0.0,-0.0016298231203109026,-0.004448188468813896,0.004739948082715273,16034.0,12795.0,17315.0,11194.0,0.5847214460372925,0.3626599907875061,0.6870023608207703,0.27231043577194214,0.0,0.0,0.0,0.0,13641.0,15214.0,15643.0,13595.0,1.868635654449463,-0.06262937984078558,0.07208999562418077,0.050786371743712505,0.09176979213953018,-0.007226180750876665,0.0
464,5,-0.00025878456654027104,9.218321793014184e-05,-0.0017032112227752805,-0.030772749334573746,0.0010199672542512417,0.0014525376027449965,0.008929938077926636,0.008430670946836472,-0.0026036424096673727,-0.0326719731092453,-0.05538904294371605,0.2883041799068451,0.0,0.0,0.0,-0.0020862973760813475,-0.0203823484480381,-0.0,0.0,0.0,0.0,-0.0016298231203109026,-0.004448188468813896,0.004739948082715273,16034.0,12795.0,17315.0,11194.0,0.5847214460372925,0.3626599907875061,0.6870023608207703,0.27231043577194214,0.0,0.0,0.0,0.0,13641.0,15214.0,15643.0,13595.0,1.868635654449463,-0.06285378087337194,0.07161329924747628,0.04873284667714444,0.09176979213953018,-0.007226180750876665,0.0
469,5,-0.0006125795189291239,-0.000498150591738522,-0.001780934282578528,-0.05476449429988861,0.07124804705381393,0.009907788597047329,0.008929938077926636,0.008430670946836472,-0.0026036424096673727,-0.0326719731092453,-0.05538904294371605,0.2883041799068451,0.0,0.0,0.0,-0.05942251533269882,-0.035361260175704956,-0.0,0.0,0.0,0.0,-0.0016298231203109026,-0.004448188468813896,0.004739948082715273,16034.0,12795.0,17315.0,11194.0,0.5847214460372925,0.3626599907875061,0.6870023608207703,0.27231043577194214,0.0,0.0,0.0,0.0,13641.0,15214.0,15643.0,13595.0,2.4533438682556152,-0.09022553069981572,0.0826587663402889,0.04156943549609212,0.2086317092180252,-0.2699314057826996,0.0
474,5,-0.0007986016571521759,-0.00044866371899843216,-0.0017333852592855692,-0.0442284494638443,0.022560790181159973,-0.0017427674029022455,0.008833691477775574,0.009519734419882298,-0.00356751075014472,0.09313714504241943,-0.15646283328533173,-0.0872621089220047,0.0,0.0,0.0,-0.05942251533269882,-0.035361260175704956,-0.0,0.0,0.0,0.0,-0.00034022252657450736,-0.01427469588816166,-0.006951197981834412,11371.0,17199.0,13483.0,15469.0,0.28168874979019165,0.6774053573608398,0.4054309129714966,0.5421692728996277,0.0,0.0,0.0,0.0,13641.0,15214.0,15643.0,13595.0,2.4533438682556152,-0.09121864394530745,0.08283707120271079,0.04180026947153761,0.2086317092180252,-0.2699314057826996,0.0
479,5,-0.000997793162241578,-0.00044031674042344093,-0.0017244619084522128,-0.04159437119960785,0.008022678084671497,-0.0017679111333563924,0.008716851472854614,0.012336689047515392,-0.0028131466824561357,-0.03427868336439133,-0.28798413276672363,-0.18534548580646515,0.0,0.0,0.0,-0.008559558540582657,-0.032678067684173584,-0.0,0.0,0.0,0.0,-0.0022973590530455112,-0.01800145022571087,0.00038303923793137074,12246.0,16540.0,14556.0,13976.0,0.33021092414855957,0.6241315007209778,0.4768028259277344,0.43749040365219116,0.0,0.0,0.0,0.0,15410.0,13902.0,16841.0,10760.0,2.0497303009033203,-0.09038794010075915,0.08240624916955674,0.0401702329729277,0.16136591136455536,-0.032519735395908356,0.0
484,5,-0.0012183946091681719,-0.00047058946802280843,-0.0017372379079461098,-0.04310990869998932,0.00684179924428463,0.0008259564638137817,0.008716851472854614,0.012336689047515392,-0.0028131466824561357,-0.03427868336439133,-0.28798413276672363,-0.18534548580646515,0.0,0.0,0.0,-0.008559558540582657,-0.032678067684173584,-0.0,0.0,0.0,0.0,-0.0022973590530455112,-0.01800145022571087,0.00038303923793137074,12246.0,16540.0,14556.0,13976.0,0.33021092414855957,0.6241315007209778,0.4768028259277344,0.43749040365219116,0.0,0.0,0.0,0.0,15410.0,13902.0,16841.0,10760.0,2.0497303009033203,-0.0926808520673702,0.08009646283742891,0.040973490384881954,0.16136591136455536,-0.032519735395908356,0.0
