timestamp,dt,pos_x,pos_y,pos_z,vel_x,vel_y,vel_z,roll,pitch,yaw,agv_x,agv_y,agv_z,x_ref,y_ref,z_ref,roll_ref,pitch_ref,yaw_ref,x_vel_ref,y_vel_ref,z_vel_ref,x_torque,y_torque,z_torque,w0,w1,w2,w3,u0,u1,u2,u3,m0req,m1req,m2req,m3req,thrust0,thrust1,thrust2,thrust3,thrust_ref,roll_vicon,pitch_vicon,yaw_vicon,acc_x,acc_y,acc_z
5,5,0.0,0.0,0.0,8.409084693994373e-05,-0.0007098664646036923,0.001181276747956872,0.0014849764993414283,0.39091160893440247,0.0009294020710512996,-0.001337743829935789,0.0013941570650786161,0.002065992448478937,0.0,0.0,0.0,0.0008794422610662878,8.013755723368376e-05,-0.0,0.0,0.0,0.0,-0.004999999888241291,-0.004999999888241291,-4.595381714045388e-11,1495.0,1495.0,1495.0,1495.0,0.0,0.0,0.0,0.0,0.0,0.0,0.0,0.0,1495.0,1495.0,1495.0,1495.0,1.633022427558899,-2.864558652008492,0.4512710340006517,1.454228770015706,-0.0003153406723868102,0.0026619993150234222,0.0
40,35,0.0,0.0,0.0,-0.012092315591871738,-0.009430588223040104,-0.022983476519584656,0.0014849764993414283,0.39091160893440247,0.0009294020710512996,-0.001337743829935789,0.0013941570650786161,0.002065992448478937,0.0,0.0,0.0,0.0008794422610662878,8.013755723368376e-05,-0.0,0.0,0.0,0.0,-0.004999999888241291,-0.004999999888241291,-4.595381714045388e-11,1495.0,1495.0,1495.0,1495.0,0.0,0.0,0.0,0.0,0.0,0.0,0.0,0.0,1495.0,1495.0,1495.0,1495.0,1.633022427558899,-2.8671496595284833,0.4602311654642194,1.452280912450294,-0.0003153406723868102,0.0026619993150234222,0.0
46,5,0.0,0.0,0.0,-0.012092315591871738,-0.009430588223040104,-0.022983476519584656,0.0014849764993414283,0.39091160893440247,0.0009294020710512996,-0.001337743829935789,0.0013941570650786161,0.002065992448478937,0.0,0.0,0.0,0.010723669081926346,-0.010577637702226639,-0.0,0.0,0.0,0.0,-0.004999999888241291,-0.004999999888241291,-4.595381714045388e-11,1495.0,1495.0,1495.0,1495.0,0.0,0.0,0.0,0.0,0.0,0.0,0.0,0.0,1495.0,1495.0,1495.0,1495.0,1.779234528541565,-0.315597974485951,-0.46800207201141764,-1.6216018435594954,0.045346181839704514,0.03536470606923103,0.0
51,5,0.0,0.0,0.0,-0.004823851864784956,-0.002453365596011281,-0.007985872216522694,0.0014957140665501356,0.3909004032611847,0.0008981125429272652,-0.00014236134302336723,0.00036678570904769003,-0.0028325736057013273,0.0,0.0,0.0,0.010723669081926346,-0.010577637702226639,-0.0,0.0,0.0,0.0,-0.004999999888241291,-0.004999999888241291,-2.5775680201345352e-11,1495.0,1495.0,1495.0,1495.0,0.0,0.0,0.0,0.0,0.0,0.0,0.0,0.0,1495.0,1495.0,1495.0,1495.0,1.779234528541565,-0.31479866306353704,-0.46801106245312474,-1.6213198294169937,0.045346181839704514,0.03536470606923103,0.0
57,6,0.0,0.0,0.0,-0.0009480725857429206,-0.0019429180538281798,-0.004369859583675861,0.0014957140665501356,0.3909004032611847,0.0008981125429272652,-0.00014236134302336723,0.00036678570904769003,-0.0028325736057013273,0.0,0.0,0.0,0.0029534860514104366,-0.0044670975767076015,-0.0,0.0,0.0,0.0,-0.004999999888241291,-0.004999999888241291,-2.5775680201345352e-11,1495.0,1495.0,1495.0,1495.0,0.0,0.0,0.0,0.0,0.0,0.0,0.0,0.0,1495.0,1495.0,1495.0,1495.0,1.6805492639541626,-0.3148853268895104,-0.46833051644314233,-1.621321381339831,0.018089445307850838,0.009200121276080608,0.0
63,6,4.168277428107103e-06,2.5808023565332405e-05,3.867947816615924e-05,-0.0002395117044216022,-0.003160476917400956,-0.004477886948734522,0.0014957140665501356,0.3909004032611847,0.0008981125429272652,-0.00014236134302336723,0.00036678570904769003,-0.0028325736057013273,0.0,0.0,0.0,0.0029534860514104366,-0.0044670975767076015,-0.0,0.0,0.0,0.0,-0.004999999888241291,-0.004999999888241291,-2.5775680201345352e-11,1495.0,1495.0,1495.0,1495.0,0.0,0.0,0.0,0.0,0.0,0.0,0.0,0.0,1495.0,1495.0,1495.0,1495.0,1.6805492639541626,-0.3151020936822266,-0.4681605388062419,-1.6213259541827534,0.018089445307850838,0.009200121276080608,0.0
68,5,-1.0251588719256688e-05,2.440619391563814e-05,4.321674714446999e-05,-0.001826188643462956,-0.0010959712089970708,-0.0023356270976364613,0.0014672650722786784,0.3909253180027008,0.0009031959343701601,-0.0005658161244355142,-0.0014475577045232058,-0.0036711653228849173,0.0,0.0,0.0,0.0039019931573420763,-0.00021903167362324893,-0.0,0.0,0.0,0.0,-0.004999999888241291,-0.004999999888241291,-1.7406172336809078e-10,1495.0,1495.0,1495.0,1495.0,0.0,0.0,0.0,0.0,0.0,0.0,0.0,0.0,1495.0,1495.0,1495.0,1495.0,1.658307433128357,-0.3151874809481119,-0.46913939001545835,-1.6213901372017492,0.0008752266876399517,0.011993835680186749,0.0
73,5,-3.0327599233714864e-05,3.184023444191553e-05,7.47321464587003e-05,-0.003139596665278077,-0.0013304734602570534,-0.00471609877422452,0.0014672650722786784,0.3909253180027008,0.0009031959343701601,-0.0005658161244355142,-0.0014475577045232058,-0.0036711653228849173,0.0,0.0,0.0,0.0039019931573420763,-0.00021903167362324893,-0.0,0.0,0.0,0.0,-0.004999999888241291,-0.004999999888241291,-1.7406172336809078e-10,1495.0,1495.0,1495.0,1495.0,0.0,0.0,0.0,0.0,0.0,0.0,0.0,0.0,1495.0,1495.0,1495.0,1495.0,1.658307433128357,-0.31550487023385726,-0.4707283825233885,-1.6216184810425271,0.0008752266876399517,0.011993835680186749,0.0
78,5,-6.857699918327853e-05,5.476121441461146e-05,0.00012592313578352332,-0.005845766980201006,-0.003282706718891859,-0.00802935753017664,0.0014755328884348273,0.39095282554626465,0.000905562483239919,0.0025478738825768232,-0.0027202267665416002,0.0010096454061567783,0.0,0.0,0.0,0.0016775395488366485,-0.0029833894222974777,-0.0,0.0,0.0,0.0,-0.004999999888241291,-0.004999999888241291,9.280926027699365e-11,1495.0,1495.0,1495.0,1495.0,0.0,0.0,0.0,0.0,0.0,0.0,0.0,0.0,1495.0,1495.0,1495.0,1495.0,1.6609556674957275,-0.31627442985579907,-0.4728298726407177,-1.622168085310013,0.011940393596887589,0.005164627451449633,0.0
84,6,-0.0011901423567906022,1.6930696347117191e-06,-0.007436512969434261,-0.005845766980201006,-0.003282706718891859,-0.00802935753017664,0.0014755328884348273,0.39095282554626465,0.000905562483239919,0.0025478738825768232,-0.0027202267665416002,0.0010096454061567783,0.0,0.0,0.0,0.0016775395488366485,-0.0029833894222974777,-0.0,0.0,0.0,0.0,-0.004999999888241291,-0.004999999888241291,9.280926027699365e-11,1495.0,1495.0,1495.0,1495.0,0.0,0.0,0.0,0.0,0.0,0.0,0.0,0.0,1495.0,1495.0,1495.0,1495.0,1.6609556674957275,-2.8646844059361904,0.45143868213742455,1.4542509942677213,0.011940393596887589,0.005164627451449633,0.0
89,5,-0.0011943847639486194,-2.515738060537842e-06,-0.007442437577992678,-0.0028473944403231144,-0.0008080257684923708,-0.0025007999502122402,0.0014790828572586179,0.3909246027469635,0.0008903875714167953,-0.003008277388289571,0.005795018747448921,0.0015611306298524141,0.0,0.0,0.0,0.003888580249622464,-0.006913126911967993,-0.0,0.0,0.0,0.0,-0.004999999888241291,-0.004999999888241291,-1.9769323678087147e-10,1495.0,1495.0,1495.0,1495.0,0.0,0.0,0.0,0.0,0.0,0.0,0.0,0.0,1495.0,1495.0,1495.0,1495.0,1.709237813949585,-2.864459472636405,0.4513688989950329,1.4541848431280926,0.02847227454185486,0.012319699861109257,0.0
94,5,-0.0011984712909907103,3.827937234746059e-06,-0.007424934301525354,-0.001629344653338194,-0.0010844513308256865,-0.0031007234938442707,0.0014790828572586179,0.3909246027469635,0.0008903875714167953,-0.003008277388289571,0.005795018747448921,0.0015611306298524141,0.0,0.0,0.0,0.003888580249622464,-0.006913126911967993,-0.0,0.0,0.0,0.0,-0.004999999888241291,-0.004999999888241291,-1.9769323678087147e-10,1495.0,1495.0,1495.0,1495.0,0.0,0.0,0.0,0.0,0.0,0.0,0.0,0.0,1495.0,1495.0,1495.0,1495.0,1.709237813949585,-2.8644406649413847,0.45102994702229915,1.4544411834191813,0.02847227454185486,0.012319699861109257,0.0
99,5,-0.0011956228408962488,5.374605734687066e-06,-0.007398755289614201,-0.0003099148452747613,-0.000619380793068558,-0.004381734412163496,0.0014412420568987727,0.39093708992004395,0.0009011842776089907,-0.003419208340346813,-0.0011891478206962347,-0.0005719780456274748,0.0,0.0,0.0,0.001327097532339394,-0.003174236975610256,-0.0,0.0,0.0,0.0,-0.004999999888241291,-0.004999999888241291,5.270359842990402e-11,1495.0,1495.0,1495.0,1495.0,0.0,0.0,0.0,0.0,0.0,0.0,0.0,0.0,1495.0,1495.0,1495.0,1495.0,1.6618798971176147,-2.864546370173455,0.4513802906489492,1.4542086950640425,0.012711293995380402,0.0040879989974200726,0.0
104,5,3.6522465052257758e-06,6.399216090358095e-06,1.0513147572055459e-05,-0.0003099148452747613,-0.000619380793068558,-0.004381734412163496,0.0014356541214510798,0.3909635543823242,0.0008787200204096735,0.0006267170538194478,0.0008059804677031934,0.000817649532109499,0.0,0.0,0.0,0.001327097532339394,-0.003174236975610256,-0.0,0.0,0.0,0.0,-0.004999999888241291,-0.004999999888241291,3.8643338529098514e-10,1495.0,1495.0,1495.0,1495.0,0.0,0.0,0.0,0.0,0.0,0.0,0.0,0.0,1495.0,1495.0,1495.0,1495.0,1.6618798971176147,-0.3148688717717179,-0.4679632293244474,-1.6212569391948308,0.012711293995380402,0.0040879989974200726,0.0
110,6,1.2304009942454286e-05,-7.608963414895697e-07,-1.0762220881588291e-05,0.0009142456110566854,0.0006114611751399934,0.000800350506324321,0.0014356541214510798,0.3909635543823242,0.0008787200204096735,0.0006267170538194478,0.0008059804677031934,0.000817649532109499,0.0,0.0,0.0,0.001327097532339394,-0.003174236975610256,-0.0,0.0,0.0,0.0,-0.004999999888241291,-0.004999999888241291,3.8643338529098514e-10,1495.0,1495.0,1495.0,1495.0,0.0,0.0,0.0,0.0,0.0,0.0,0.0,0.0,1495.0,1495.0,1495.0,1495.0,1.6618798971176147,-0.3139729093669362,-0.46757337489548284,-1.6209422271564136,-0.0034864831250160933,-0.0022969148121774197,0.0
115,5,1.2303834409976844e-05,-2.966267402371159e-06,-4.624017492460553e-06,0.0003656772314570844,0.0005092290230095387,-0.00041644423617981374,0.0014356541214510798,0.3909635543823242,0.0008787200204096735,0.0006267170538194478,0.0008059804677031934,0.000817649532109499,0.0,0.0,0.0,-0.0007569509907625616,0.0008838268695399165,-0.0,0.0,0.0,0.0,-0.004999999888241291,-0.004999999888241291,3.8643338529098514e-10,1495.0,1495.0,1495.0,1495.0,0.0,0.0,0.0,0.0,0.0,0.0,0.0,0.0,1495.0,1495.0,1495.0,1495.0,1.6370751857757568,-0.31499329672796356,-0.46802706520971765,-1.621230644725519,-0.0034864831250160933,-0.0022969148121774197,0.0
120,5,-3.1064068934938405e-06,7.741166882624384e-06,-7.028671461739577e-06,-0.001702958019450307,-0.0010812004329636693,0.00012198078911751509,0.0014215761329978704,0.39095625281333923,0.0008776022004894912,-0.00019241169502492994,0.004228523001074791,0.0013718563131988049,0.0,0.0,0.0,0.0013426616787910461,-0.0016164685366675258,-0.0,0.0,0.0,0.0,-0.004999999888241291,-0.004999999888241291,-2.220160687238515e-11,1495.0,1495.0,1495.0,1495.0,0.0,0.0,0.0,0.0,0.0,0.0,0.0,0.0,1495.0,1495.0,1495.0,1495.0,1.6463762521743774,-0.3147788179021505,-0.4682980032930315,-1.6212306598085016,0.006412799935787916,0.004097358789294958,0.0
125,5,-2.585286711109802e-05,1.2731718015857041e-05,1.8548838852439076e-05,-0.003410758450627327,-0.0010313463862985373,-0.003020508913323283,0.0014215761329978704,0.39095625281333923,0.0008776022004894912,-0.00019241169502492994,0.004228523001074791,0.0013718563131988049,0.0,0.0,0.0,0.0013426616787910461,-0.0016164685366675258,-0.0,0.0,0.0,0.0,-0.004999999888241291,-0.004999999888241291,-2.220160687238515e-11,1495.0,1495.0,1495.0,1495.0,0.0,0.0,0.0,0.0,0.0,0.0,0.0,0.0,1495.0,1495.0,1495.0,1495.0,1.6463762521743774,-0.3154619398431297,-0.46854224938258565,-1.6215787364926206,0.006412799935787916,0.004097358789294958,0.0
130,5,-3.615538662415929e-05,2.2266256564762443e-05,3.400838249945082e-05,-0.0026006055995821953,-0.0015566832153126597,-0.003063348587602377,0.0014312019338831306,0.39093291759490967,0.0008831191225908697,0.0015054666437208652,0.00013785135524813086,0.00011859348887810484,0.0,0.0,0.0,0.0019404311897233129,-0.00249447301030159,-0.0,0.0,0.0,0.0,-0.004999999888241291,-0.004999999888241291,-2.1162403426866483e-11,1495.0,1495.0,1495.0,1495.0,0.0,0.0,0.0,0.0,0.0,0.0,0.0,0.0,1495.0,1495.0,1495.0,1495.0,1.6571767330169678,-0.3159279868885111,-0.4692833812575181,-1.6219077138653635,0.009960892610251904,0.005960396025329828,0.0
136,5,-0.0011937845265492797,4.0852802385416e-07,-0.007431733887642622,-0.0026006055995821953,-0.0015566832153126597,-0.003063348587602377,0.0014491871697828174,0.3909571170806885,0.0008588114287704229,0.001877527916803956,-0.004104650113731623,-0.0015658147167414427,0.0,0.0,0.0,0.0018837315728887916,-0.004052350297570229,-0.0,0.0,0.0,0.0,-0.004999999888241291,-0.004999999888241291,8.836847920079549e-11,1495.0,1495.0,1495.0,1495.0,0.0,0.0,0.0,0.0,0.0,0.0,0.0,0.0,1495.0,1495.0,1495.0,1495.0,1.672627329826355,-2.864352026600338,0.4513438018032168,1.4539373393363886,0.016332628205418587,0.005840180441737175,0.0
143,7,-8.54447171150241e-06,1.429151552656549e-06,-9.017779120767955e-06,0.0006174619193188846,0.0001404358772560954,-3.674554682220332e-05,0.0014491871697828174,0.3909571170806885,0.0008588114287704229,0.001877527916803956,-0.004104650113731623,-0.0015658147167414427,0.0,0.0,0.0,0.0018837315728887916,-0.004052350297570229,-0.0,0.0,0.0,0.0,-0.004999999888241291,-0.004999999888241291,8.836847920079549e-11,1495.0,1495.0,1495.0,1495.0,0.0,0.0,0.0,0.0,0.0,0.0,0.0,0.0,1495.0,1495.0,1495.0,1495.0,1.672627329826355,-0.3147792860374326,-0.4677376929665786,-1.6212912472372283,0.016332628205418587,0.005840180441737175,0.0
148,5,1.2393594488457893e-06,2.504742440123664e-07,-1.8281400116393343e-05,0.0014210444642230868,0.00019761561998166144,0.001096936292015016,0.0014491871697828174,0.3909571170806885,0.0008588114287704229,0.001877527916803956,-0.004104650113731623,-0.0015658147167414427,0.0,0.0,0.0,0.0018837315728887916,-0.004052350297570229,-0.0,0.0,0.0,0.0,-0.004999999888241291,-0.004999999888241291,8.836847920079549e-11,1495.0,1495.0,1495.0,1495.0,0.0,0.0,0.0,0.0,0.0,0.0,0.0,0.0,1495.0,1495.0,1495.0,1495.0,1.672627329826355,-0.3144710539454966,-0.46790517765992873,-1.621045199590051,0.016332628205418587,0.005840180441737175,0.0
153,5,-8.006107236724347e-06,3.0364728900167393e-06,7.089801783877192e-06,-0.0005410382291302085,-0.0002552735968492925,-0.002605769783258438,0.0014491871697828174,0.3909571170806885,0.0008588114287704229,0.001877527916803956,-0.004104650113731623,-0.0015658147167414427,0.0,0.0,0.0,-0.00024315821065101773,0.0013462607748806477,-0.0,0.0,0.0,0.0,-0.004999999888241291,-0.004999999888241291,2.1348298129275634e-11,1495.0,1495.0,1495.0,1495.0,0.0,0.0,0.0,0.0,0.0,0.0,0.0,0.0,1495.0,1495.0,1495.0,1495.0,1.6403189897537231,-0.3152097077868672,-0.46848601452528554,-1.6215279304723977,-0.0053211962804198265,-0.000739308656193316,0.0
159,7,-1.7573140212334692e-05,2.65184598902124e-06,1.4207844287739135e-06,-0.0013644591672345996,-5.595420952886343e-05,-0.00036202583578415215,0.0014491871697828174,0.3909571170806885,0.0008588114287704229,0.001877527916803956,-0.004104650113731623,-0.0015658147167414427,0.0,0.0,0.0,-0.00024315821065101773,0.0013462607748806477,-0.0,0.0,0.0,0.0,-0.004999999888241291,-0.004999999888241291,2.1348298129275634e-11,1495.0,1495.0,1495.0,1495.0,0.0,0.0,0.0,0.0,0.0,0.0,0.0,0.0,1495.0,1495.0,1495.0,1495.0,1.6403189897537231,-0.3145521330604224,-0.46871884666540364,-1.621265263468072,-0.0053211962804198265,-0.000739308656193316,0.0
165,5,-2.611576928757131e-05,1.3382949873630423e-05,3.926764475181699e-05,-0.001570899155922234,-0.0013101141666993499,-0.00468643382191658,0.0014639144064858556,0.3909842073917389,0.0008418799261562526,-0.003135302336886525,0.0014282010961323977,-0.0011737681925296783,0.0,0.0,0.0,7.395242573693395e-05,-0.001322982250712812,-0.0,0.0,0.0,0.0,-0.004999999888241291,-0.004999999888241291,8.54275955530781e-11,1495.0,1495.0,1495.0,1495.0,0.0,0.0,0.0,0.0,0.0,0.0,0.0,0.0,1495.0,1495.0,1495.0,1495.0,1.6399410963058472,-0.3154599037883548,-0.46908688822328604,-1.6215432166763983,0.005227981600910425,0.00022479634208139032,0.0
170,5,-5.649578451993875e-05,3.193088559783064e-05,0.00011689712118823081,-0.0042739612981677055,-0.0027497978881001472,-0.011190109886229038,0.0014639144064858556,0.3909842073917389,0.0008418799261562526,-0.003135302336886525,0.0014282010961323977,-0.0011737681925296783,0.0,0.0,0.0,7.395242573693395e-05,-0.001322982250712812,-0.0,0.0,0.0,0.0,-0.004999999888241291,-0.004999999888241291,8.54275955530781e-11,1495.0,1495.0,1495.0,1495.0,0.0,0.0,0.0,0.0,0.0,0.0,0.0,0.0,1495.0,1495.0,1495.0,1495.0,1.6399410963058472,-0.316904005748729,-0.4707244494639533,-1.6223943897527366,0.005227981600910425,0.00022479634208139032,0.0
175,5,0.006960372906178236,0.0066679841838777065,0.0009164570947177708,-0.0042739612981677055,-0.0027497978881001472,-0.011190109886229038,0.0014401153894141316,0.39098742604255676,0.0008233657572418451,-0.0017678298754617572,0.0013413529377430677,-0.00024232070427387953,0.0,0.0,0.0,0.003371560014784336,-0.004043872933834791,-0.0,0.0,0.0,0.0,-0.004999999888241291,-0.004999999888241291,8.117625495407399e-12,1495.0,1495.0,1495.0,1495.0,0.0,0.0,0.0,0.0,0.0,0.0,0.0,0.0,1495.0,1495.0,1495.0,1495.0,1.6782220602035522,3.0669606442129433,0.2642920272627313,0.06333910788566148,0.01635291427373886,0.010487872175872326,0.0
180,5,-0.00016982917441055179,-0.00026059037190862,0.00024391128681600094,-0.0042739612981677055,-0.0027497978881001472,-0.011190109886229038,0.0014401153894141316,0.39098742604255676,0.0008233657572418451,-0.0017678298754617572,0.0013413529377430677,-0.00024232070427387953,0.0,0.0,0.0,0.003371560014784336,-0.004043872933834791,-0.0,0.0,0.0,0.0,-0.004999999888241291,-0.004999999888241291,8.117625495407399e-12,1495.0,1495.0,1495.0,1495.0,0.0,0.0,0.0,0.0,0.0,0.0,0.0,0.0,1495.0,1495.0,1495.0,1495.0,1.6782220602035522,-0.35265658239960623,-0.4903762114180009,-1.63665732917223,0.01635291427373886,0.010487872175872326,0.0
185,5,-0.0009731313330121338,0.00027477185358293355,-0.007414762396365404,-0.0042739612981677055,-0.0027497978881001472,-0.011190109886229038,0.0014401153894141316,0.39098742604255676,0.0008233657572418451,-0.0017678298754617572,0.0013413529377430677,-0.00024232070427387953,0.0,0.0,0.0,0.002855246886610985,-0.00419998774304986,-0.0,0.0,0.0,0.0,-0.004999999888241291,-0.004999999888241291,1.6440571126707937e-10,1495.0,1495.0,1495.0,1495.0,0.0,0.0,0.0,0.0,0.0,0.0,0.0,0.0,1495.0,1495.0,1495.0,1495.0,1.6774988174438477,-2.8298606245620332,0.4730894701586945,1.429544792228815,0.01697692833840847,0.00887796375900507,0.0
191,6,-0.0009692677995190024,0.00028808420756831765,-0.0074281818233430386,-0.001245962455868721,-0.0026974009815603495,-0.002865730319172144,0.0014401153894141316,0.39098742604255676,0.0008233657572418451,-0.0017678298754617572,0.0013413529377430677,-0.00024232070427387953,0.0,0.0,0.0,0.002855246886610985,-0.00419998774304986,-0.0,0.0,0.0,0.0,-0.004999999888241291,-0.004999999888241291,1.6440571126707937e-10,1495.0,1495.0,1495.0,1495.0,0.0,0.0,0.0,0.0,0.0,0.0,0.0,0.0,1495.0,1495.0,1495.0,1495.0,1.6774988174438477,-2.828587740521167,0.4736729413087526,1.4289167874397017,0.01697692833840847,0.00887796375900507,0.0
196,5,-0.000968486478086561,0.0002757429610937834,-0.007427323143929243,-0.0004046198446303606,0.000401989440433681,-0.0012493410613387823,0.0014685754431411624,0.3909924030303955,0.0008118656114675105,0.002325147157534957,0.0022224278654903173,-0.001838636351749301,0.0,0.0,0.0,0.003785715438425541,-0.0024945579934865236,-0.0,0.0,0.0,0.0,-0.004999999888241291,-0.004999999888241291,-1.7766851878597834e-10,1495.0,1495.0,1495.0,1495.0,0.0,0.0,0.0,0.0,0.0,0.0,0.0,0.0,1495.0,1495.0,1495.0,1495.0,1.6674152612686157,-2.82953968907918,0.47329062377164144,1.4292918961872796,0.01002272218465805,0.011700337752699852,0.0
202,6,-0.0009789065225049853,0.0002728382241912186,-0.007410095538944006,-0.0014122535940259695,0.0005093626095913351,-0.0025670116301625967,0.0014685754431411624,0.3909924030303955,0.0008118656114675105,0.002325147157534957,0.0022224278654903173,-0.001838636351749301,0.0,0.0,0.0,0.003785715438425541,-0.0024945579934865236,-0.0,0.0,0.0,0.0,-0.004999999888241291,-0.004999999888241291,-1.7766851878597834e-10,1495.0,1495.0,1495.0,1495.0,0.0,0.0,0.0,0.0,0.0,0.0,0.0,0.0,1495.0,1495.0,1495.0,1495.0,1.6674152612686157,-2.8311538975804695,0.47281452055886825,1.4302367014074722,0.01002272218465805,0.011700337752699852,0.0
207,5,-0.0009986144723370671,0.00028034811839461327,-0.007374251261353493,-0.002929854206740856,-0.0006974401767365634,-0.005328120198100805,0.0014623536262661219,0.39097273349761963,0.0008490000618621707,0.00046898217988200486,0.0016916922759264708,-5.008549851481803e-05,0.0,0.0,0.0,-0.00013295107055455446,-0.002684295643121004,-0.0,0.0,0.0,0.0,-0.004999999888241291,-0.004999999888241291,-2.7432938733140677e-12,1495.0,1495.0,1495.0,1495.0,0.0,0.0,0.0,0.0,0.0,0.0,0.0,0.0,1495.0,1495.0,1495.0,1495.0,1.6547547578811646,-2.8334051077136,0.47141613817863603,1.4320093400350407,0.010703242383897305,-0.00040778759284876287,0.0
212,5,-0.00010996015043929219,-0.00021403530263341963,0.00018927702330984175,0.001889627892524004,-0.002874240977689624,0.00019643244741018862,0.0014623536262661219,0.39097273349761963,0.0008490000618621707,0.00046898217988200486,0.0016916922759264708,-5.008549851481803e-05,0.0,0.0,0.0,-0.00013295107055455446,-0.002684295643121004,-0.0,0.0,0.0,0.0,-0.004999999888241291,-0.004999999888241291,-2.7432938733140677e-12,1495.0,1495.0,1495.0,1495.0,0.0,0.0,0.0,0.0,0.0,0.0,0.0,0.0,1495.0,1495.0,1495.0,1495.0,1.6547547578811646,-0.340068201651451,-0.4820777766346799,-1.6302698469150483,0.010703242383897305,-0.00040778759284876287,0.0
217,5,-8.002904360182583e-05,-0.00018276758783031255,0.00017714800196699798,0.004347583744674921,-0.0049018217250704765,0.0015340563841164112,0.0014619616558775306,0.3909466862678528,0.0008448983426205814,0.0003978253516834229,0.003814859315752983,-0.0017889641458168626,0.0,0.0,0.0,0.0031261788681149483,0.0016172477044165134,-0.0,0.0,0.0,0.0,-0.004999999888241291,-0.004999999888241291,1.5285636645323564e-10,1495.0,1495.0,1495.0,1495.0,0.0,0.0,0.0,0.0,0.0,0.0,0.0,0.0,1495.0,1495.0,1495.0,1495.0,1.6570802927017212,-0.33502477161343613,-0.4789793479062878,-1.6277030557846361,-0.006457578390836716,0.009602065198123455,0.0
222,5,-8.002904360182583e-05,-0.00018276758783031255,0.00017714800196699798,0.004347583744674921,-0.0049018217250704765,0.0015340563841164112,0.0014619616558775306,0.3909466862678528,0.0008448983426205814,0.0003978253516834229,0.003814859315752983,-0.0017889641458168626,0.0,0.0,0.0,0.0031261788681149483,0.0016172477044165134,-0.0,0.0,0.0,0.0,-0.004999999888241291,-0.004999999888241291,1.5285636645323564e-10,1495.0,1495.0,1495.0,1495.0,0.0,0.0,0.0,0.0,0.0,0.0,0.0,0.0,1495.0,1495.0,1495.0,1495.0,1.6570802927017212,-0.33502477161343613,-0.4789793479062878,-1.6277030557846361,-0.006457578390836716,0.009602065198123455,0.0
227,5,-4.828540841117501e-05,-0.00010600898531265557,0.0001199415055452846,0.0028160065412521362,-0.00688779866322875,0.00522678904235363,0.001457705395296216,0.39094462990760803,0.0008202996687032282,-0.0029165418818593025,0.00413860660046339,0.002105927327647805,0.0,0.0,0.0,0.005549928639084101,0.0038914659526199102,-0.0,0.0,0.0,0.0,-0.004999999888241291,-0.004999999888241291,3.9461800493967303e-10,1495.0,1495.0,1495.0,1495.0,0.0,0.0,0.0,0.0,0.0,0.0,0.0,0.0,1495.0,1495.0,1495.0,1495.0,1.6891813278198242,-0.32629774874517725,-0.47398616100632,-1.624038512980383,-0.015839213505387306,0.01737673394382,0.0
232,5,-5.337248876458034e-05,-6.983579078223556e-05,9.921663877321407e-05,0.0005159529973752797,-0.007095903158187866,0.0045776995830237865,0.001457705395296216,0.39094462990760803,0.0008202996687032282,-0.0029165418818593025,0.00413860660046339,0.002105927327647805,0.0,0.0,0.0,0.005549928639084101,0.0038914659526199102,-0.0,0.0,0.0,0.0,-0.004999999888241291,-0.004999999888241291,3.9461800493967303e-10,1495.0,1495.0,1495.0,1495.0,0.0,0.0,0.0,0.0,0.0,0.0,0.0,0.0,1495.0,1495.0,1495.0,1495.0,1.6891813278198242,-0.32334564775127916,-0.47323994442119627,-1.6233305235143762,-0.015839213505387306,0.01737673394382,0.0
238,5,-5.337248876458034e-05,-6.983579078223556e-05,9.921663877321407e-05,0.0005159529973752797,-0.007095903158187866,0.0045776995830237865,0.001427814713679254,0.39093253016471863,0.0008501735283061862,-0.0008431164897046983,0.0006772877532057464,0.004107201471924782,0.0,0.0,0.0,0.00833962857723236,0.0003955455031245947,-0.0,0.0,0.0,0.0,-0.004999999888241291,-0.004999999888241291,7.752598563115498e-11,1495.0,1495.0,1495.0,1495.0,0.0,0.0,0.0,0.0,0.0,0.0,0.0,0.0,1495.0,1495.0,1495.0,1495.0,1.6965855360031128,-0.32334564775127916,-0.47323994442119627,-1.6233305235143762,-0.0016169962473213673,0.026225386187434196,0.0
243,5,-9.034718823386356e-05,1.8709830328589305e-05,0.00016615199274383485,-0.0028674528002738953,-0.00910183321684599,-0.005572965834289789,0.001427814713679254,0.39093253016471863,0.0008501735283061862,-0.0008431164897046983,0.0006772877532057464,0.004107201471924782,0.0,0.0,0.0,0.00833962857723236,0.0003955455031245947,-0.0,0.0,0.0,0.0,-0.004999999888241291,-0.004999999888241291,7.752598563115498e-11,1495.0,1495.0,1495.0,1495.0,0.0,0.0,0.0,0.0,0.0,0.0,0.0,0.0,1495.0,1495.0,1495.0,1495.0,1.6965855360031128,-0.32034924054694847,-0.4736887730039063,-1.6226930894954221,-0.0016169962473213673,0.026225386187434196,0.0
248,5,-0.00011572440416784957,6.169238622533157e-05,0.0002568608906585723,-0.004192247521132231,-0.008798639290034771,-0.013114254921674728,0.0014357261825352907,0.3909502923488617,0.0008583240560255945,0.002431873930618167,0.0052188849076628685,-0.00515860365703702,0.0,0.0,0.0,0.0107221445068717,-0.0027163103222846985,-0.0,0.0,0.0,0.0,-0.004999999888241291,-0.004999999888241291,-2.3088131406723278e-10,1495.0,1495.0,1495.0,1495.0,0.0,0.0,0.0,0.0,0.0,0.0,0.0,0.0,1495.0,1495.0,1495.0,1495.0,1.7226277589797974,-0.3203140454974943,-0.4767240495684863,-1.623083365099955,0.011274497956037521,0.03423469886183739,0.0
253,5,-0.0011729958932846785,1.8867662220145576e-05,-0.007412557024508715,-0.004192247521132231,-0.008798639290034771,-0.013114254921674728,0.0014357261825352907,0.3909502923488617,0.0008583240560255945,0.002431873930618167,0.0052188849076628685,-0.00515860365703702,0.0,0.0,0.0,0.0107221445068717,-0.0027163103222846985,-0.0,0.0,0.0,0.0,-0.004999999888241291,-0.004999999888241291,-2.3088131406723278e-10,1495.0,1495.0,1495.0,1495.0,0.0,0.0,0.0,0.0,0.0,0.0,0.0,0.0,1495.0,1495.0,1495.0,1495.0,1.7226277589797974,-2.8631611780793453,0.4523161527551994,1.4533045071793833,0.011274497956037521,0.03423469886183739,0.0
258,5,-0.0011529503390192986,1.440531195839867e-05,-0.0074133058078587055,0.0007285688770934939,-0.002983973827213049,-0.0051558297127485275,0.0014564923476427794,0.39094388484954834,0.00081046880222857,-0.00132371683139354,-0.00221077399328351,-0.001035703462548554,0.0,0.0,0.0,0.010305841453373432,-0.005317747592926025,-0.0,0.0,0.0,0.0,-0.004999999888241291,-0.004999999888241291,-5.737570141217674e-12,1495.0,1495.0,1495.0,1495.0,0.0,0.0,0.0,0.0,0.0,0.0,0.0,0.0,1495.0,1495.0,1495.0,1495.0,1.7327361106872559,-2.863033860664877,0.4521322897304993,1.4531562883202052,0.022201737388968468,0.03309866413474083,0.0
263,5,-0.0011527689639478922,2.2500487830257043e-05,-0.0074036605656147,0.0003131838166154921,-0.002165010431781411,-0.003219766542315483,0.0014564923476427794,0.39094388484954834,0.00081046880222857,-0.00132371683139354,-0.00221077399328351,-0.001035703462548554,0.0,0.0,0.0,0.010305841453373432,-0.005317747592926025,-0.0,0.0,0.0,0.0,-0.004999999888241291,-0.004999999888241291,-5.737570141217674e-12,1495.0,1495.0,1495.0,1495.0,0.0,0.0,0.0,0.0,0.0,0.0,0.0,0.0,1495.0,1495.0,1495.0,1495.0,1.7327361106872559,-2.8633334684823786,0.45169076392715973,1.4535528436226213,0.022201737388968468,0.03309866413474083,0.0
268,5,-0.0011621896410360932,2.181886520702392e-05,-0.007373882457613945,-0.001005198690108955,-0.0007842095219530165,-0.004861266352236271,0.0014417574275285006,0.39094647765159607,0.0008160913712345064,-0.0004407282394822687,0.002480084775015712,-0.0015813288046047091,0.0,0.0,0.0,0.0026915872003883123,-0.0013061144854873419,-0.0,0.0,0.0,0.0,-0.004999999888241291,-0.004999999888241291,1.9385525129589354e-10,1495.0,1495.0,1495.0,1495.0,0.0,0.0,0.0,0.0,0.0,0.0,0.0,0.0,1495.0,1495.0,1495.0,1495.0,1.6521505117416382,-2.8640229607944048,0.4517775434574432,1.4536988320565216,0.005199733190238476,0.00824262760579586,0.0
273,5,-0.0011744319926947355,1.288659950660076e-05,-0.007372983731329441,-0.0018711676821112633,0.0007581880199722946,-0.0020523855928331614,0.0014417574275285006,0.39094647765159607,0.0008160913712345064,-0.0004407282394822687,0.002480084775015712,-0.0015813288046047091,0.0,0.0,0.0,0.0026915872003883123,-0.0013061144854873419,-0.0,0.0,0.0,0.0,-0.004999999888241291,-0.004999999888241291,1.9385525129589354e-10,1495.0,1495.0,1495.0,1495.0,0.0,0.0,0.0,0.0,0.0,0.0,0.0,0.0,1495.0,1495.0,1495.0,1495.0,1.6521505117416382,-2.8645620393098636,0.4514139812166727,1.4541382076501184,0.005199733190238476,0.00824262760579586,0.0
278,5,-0.0011926316656172276,2.005839087360073e-05,-0.007358531933277845,-0.0029324248898774385,-0.0005573398084379733,-0.0025551794096827507,0.0014329046243801713,0.39091286063194275,0.0008508820901624858,-4.4127711589680985e-05,0.003736878978088498,0.003658470930531621,0.0,0.0,0.0,-0.0008992964285425842,-0.0033724838867783546,-0.0,0.0,0.0,0.0,-0.004999999888241291,-0.004999999888241291,-7.67092778186651e-11,1495.0,1495.0,1495.0,1495.0,0.0,0.0,0.0,0.0,0.0,0.0,0.0,0.0,1495.0,1495.0,1495.0,1495.0,1.66307532787323,-2.8651657888474658,0.4518010979033237,1.4542654311473424,0.013514895923435688,-0.0027721915394067764,0.0
283,5,-0.0012168858665972948,3.86575011361856e-05,-0.007339990232139826,-0.004083472304046154,-0.0024548291694372892,-0.0032470400910824537,0.0014329046243801713,0.39091286063194275,0.0008508820901624858,-4.4127711589680985e-05,0.003736878978088498,0.003658470930531621,0.0,0.0,0.0,-0.0008992964285425842,-0.0033724838867783546,-0.0,0.0,0.0,0.0,-0.004999999888241291,-0.004999999888241291,-7.67092778186651e-11,1495.0,1495.0,1495.0,1495.0,0.0,0.0,0.0,0.0,0.0,0.0,0.0,0.0,1495.0,1495.0,1495.0,1495.0,1.66307532787323,-2.865089893616918,0.4525667632779759,1.4540240786605412,0.013514895923435688,-0.0027721915394067764,0.0
288,5,-0.0012653357116505504,7.338589784922078e-05,-0.007255708333104849,-0.007447375450283289,-0.005149338860064745,-0.01141262985765934,0.0014373124577105045,0.3909456133842468,0.0008432259783148766,0.0022627690341323614,0.0002645795466378331,0.001845710794441402,0.0,0.0,0.0,0.006135846488177776,-0.00836317241191864,-0.0,0.0,0.0,0.0,-0.004999999888241291,-0.004999999888241291,1.5247338114310338e-10,1495.0,1495.0,1495.0,1495.0,0.0,0.0,0.0,0.0,0.0,0.0,0.0,0.0,1495.0,1495.0,1495.0,1495.0,1.7333858013153076,-2.8660316801847796,0.4533321278873307,1.4540475323036839,0.0349305123090744,0.019713934510946274,0.0
294,5,-5.9195375797571614e-05,7.865195220801979e-05,0.0002056781086139381,-0.007447375450283289,-0.005149338860064745,-0.01141262985765934,0.001433007069863379,0.39095339179039,0.0008664416382089257,-0.00030624226201325655,-0.00012608034012373537,0.0027789848390966654,0.0,0.0,0.0,0.006198154296725988,-0.006833573803305626,-0.0,0.0,0.0,0.0,-0.004999999888241291,-0.004999999888241291,1.816730468319483e-12,1495.0,1495.0,1495.0,1495.0,0.0,0.0,0.0,0.0,0.0,0.0,0.0,0.0,1495.0,1495.0,1495.0,1495.0,1.7185096740722656,-0.3222862562753542,-0.46726654800447326,-1.6240428987961932,0.028296977281570435,0.019743213430047035,0.0
301,7,-5.737817627959885e-05,8.292891288874671e-05,0.00022938982874620706,-0.0027608859818428755,-0.00257297046482563,-0.007410458289086819,0.001433007069863379,0.39095339179039,0.0008664416382089257,-0.00030624226201325655,-0.00012608034012373537,0.0027789848390966654,0.0,0.0,0.0,0.006198154296725988,-0.006833573803305626,-0.0,0.0,0.0,0.0,-0.004999999888241291,-0.004999999888241291,1.816730468319483e-12,1495.0,1495.0,1495.0,1495.0,0.0,0.0,0.0,0.0,0.0,0.0,0.0,0.0,1495.0,1495.0,1495.0,1495.0,1.7185096740722656,-0.32203503009850665,-0.46791203997152814,-1.6238298465068222,0.028296977281570435,0.019743213430047035,0.0
306,5,-0.0011580970603972673,1.261723355128197e-06,-0.00742550753057003,-0.0027608859818428755,-0.00257297046482563,-0.007410458289086819,0.0014324691146612167,0.390945166349411,0.0008404496475122869,-0.0018656657775864005,0.001979598542675376,0.00015344953862950206,0.0,0.0,0.0,0.0031045677606016397,-0.004147812258452177,-0.0,0.0,0.0,0.0,-0.004999999888241291,-0.004999999888241291,1.8431417503350644e-10,1495.0,1495.0,1495.0,1495.0,0.0,0.0,0.0,0.0,0.0,0.0,0.0,0.0,1495.0,1495.0,1495.0,1495.0,1.67802095413208,-2.8645141910659726,0.45108467938425734,1.454228798080929,0.016771234571933746,0.009656189940869808,0.0
311,5,-0.0011593622621148825,7.988724973984063e-06,-0.007414761930704117,-0.001256179646588862,-0.0018364283023402095,-0.004253667313605547,0.0014324691146612167,0.390945166349411,0.0008404496475122869,-0.0018656657775864005,0.001979598542675376,0.00015344953862950206,0.0,0.0,0.0,0.0031045677606016397,-0.004147812258452177,-0.0,0.0,0.0,0.0,-0.004999999888241291,-0.004999999888241291,1.8431417503350644e-10,1495.0,1495.0,1495.0,1495.0,0.0,0.0,0.0,0.0,0.0,0.0,0.0,0.0,1495.0,1495.0,1495.0,1495.0,1.67802095413208,-2.8643848601109343,0.4508640271319464,1.454186190160405,0.016771234571933746,0.009656189940869808,0.0
316,5,-3.868748535751365e-05,6.538764864671975e-05,0.00021272877347655594,-0.001256179646588862,-0.0018364283023402095,-0.004253667313605547,0.0014250915264710784,0.39096662402153015,0.0008649197407066822,6.848755583632737e-05,-0.005005509592592716,0.003225680673494935,0.0,0.0,0.0,0.0023702154867351055,-0.001250864122994244,-0.0,0.0,0.0,0.0,-0.004999999888241291,-0.004999999888241291,9.440592751985832e-11,1495.0,1495.0,1495.0,1495.0,0.0,0.0,0.0,0.0,0.0,0.0,0.0,0.0,1495.0,1495.0,1495.0,1495.0,1.6495643854141235,-0.32081266715270956,-0.4672565785685161,-1.6236359919775305,0.004971987102180719,0.007247111294418573,0.0
321,5,-3.345631557749584e-05,5.374475222197361e-05,0.00018412455392535776,0.00012526866339612752,0.000662576756440103,0.0017310392577201128,0.0014250915264710784,0.39096662402153015,0.0008649197407066822,6.848755583632737e-05,-0.005005509592592716,0.003225680673494935,0.0,0.0,0.0,0.0023702154867351055,-0.001250864122994244,-0.0,0.0,0.0,0.0,-0.004999999888241291,-0.004999999888241291,9.440592751985832e-11,1495.0,1495.0,1495.0,1495.0,0.0,0.0,0.0,0.0,0.0,0.0,0.0,0.0,1495.0,1495.0,1495.0,1495.0,1.6495643854141235,-0.32000217921987023,-0.4675689912524272,-1.623281556948535,0.004971987102180719,0.007247111294418573,0.0
326,5,-3.604641824495047e-05,5.445450369734317e-05,0.0001551224704599008,-0.0002607049827929586,0.0001798602461349219,0.00417266646400094,0.0014250915264710784,0.39096662402153015,0.0008649197407066822,6.848755583632737e-05,-0.005005509592592716,0.003225680673494935,0.0,0.0,0.0,0.0023702154867351055,-0.001250864122994244,-0.0,0.0,0.0,0.0,-0.004999999888241291,-0.004999999888241291,9.440592751985832e-11,1495.0,1495.0,1495.0,1495.0,0.0,0.0,0.0,0.0,0.0,0.0,0.0,0.0,1495.0,1495.0,1495.0,1495.0,1.6495643854141235,-0.3194750332687408,-0.46762338933092473,-1.6230434017824802,0.004971987102180719,0.007247111294418573,0.0
331,5,-0.0011768852127715945,-4.0370223359786905e-06,-0.007438788190484047,-0.0002607049827929586,0.0001798602461349219,0.00417266646400094,0.0014269379898905754,0.39096418023109436,0.000844599911943078,-0.00016010410035960376,0.001237638178281486,0.0019309920025989413,0.0,0.0,0.0,-0.00012380826228763908,-0.0003119274624623358,-0.0,0.0,0.0,0.0,-0.004999999888241291,-0.004999999888241291,4.646950879649836e-10,1495.0,1495.0,1495.0,1495.0,0.0,0.0,0.0,0.0,0.0,0.0,0.0,0.0,1495.0,1495.0,1495.0,1495.0,1.6292215585708618,-2.8648066029083155,0.4510420875636708,1.4543973658971598,0.001224575680680573,-0.00037388523924164474,0.0
336,5,-0.0011793329613283277,2.1702638264287089e-07,-0.007442518137395382,-0.0003980167966801673,-0.00043854175601154566,0.002116641029715538,0.0014269379898905754,0.39096418023109436,0.000844599911943078,-0.00016010410035960376,0.001237638178281486,0.0019309920025989413,0.0,0.0,0.0,-0.00012380826228763908,-0.0003119274624623358,-0.0,0.0,0.0,0.0,-0.004999999888241291,-0.004999999888241291,4.646950879649836e-10,1495.0,1495.0,1495.0,1495.0,0.0,0.0,0.0,0.0,0.0,0.0,0.0,0.0,1495.0,1495.0,1495.0,1495.0,1.6292215585708618,-2.864325975581051,0.4510815873970443,1.454188808072445,0.001224575680680573,-0.00037388523924164474,0.0
341,5,-5.823167884955183e-05,7.966009434312582e-05,0.0002247305092168972,-0.0003980167966801673,-0.00043854175601154566,0.002116641029715538,0.0014094768557697535,0.39095330238342285,0.0008563072769902647,-0.000982097932137549,0.0040849344804883,-0.0008958778344094753,0.0,0.0,0.0,0.0005391227314248681,-0.0020227329805493355,-0.0,0.0,0.0,0.0,-0.004999999888241291,-0.004999999888241291,-4.590477303834106e-11,1495.0,1495.0,1495.0,1495.0,0.0,0.0,0.0,0.0,0.0,0.0,0.0,0.0,1495.0,1495.0,1495.0,1495.0,1.6479694843292236,-0.32210467166182055,-0.46733296524095924,-1.62406163842855,0.008032288402318954,0.0016468169633299112,0.0
346,5,-5.9386286011431366e-05,8.391273149754852e-05,0.0002442967670504004,-0.0002977593394462019,-0.000685733335558325,-0.001501294318586588,0.0014094768557697535,0.39095330238342285,0.0008563072769902647,-0.000982097932137549,0.0040849344804883,-0.0008958778344094753,0.0,0.0,0.0,0.0005391227314248681,-0.0020227329805493355,-0.0,0.0,0.0,0.0,-0.004999999888241291,-0.004999999888241291,-4.590477303834106e-11,1495.0,1495.0,1495.0,1495.0,0.0,0.0,0.0,0.0,0.0,0.0,0.0,0.0,1495.0,1495.0,1495.0,1495.0,1.6479694843292236,-0.3221416559741904,-0.46735061934369576,-1.6239764834488448,0.008032288402318954,0.0016468169633299112,0.0
351,5,-5.9472298744367436e-05,8.323483052663505e-05,0.00025047705275937915,-0.0001294255198445171,-0.00019294464436825365,-0.0013421516632661223,0.0014249025844037533,0.39094114303588867,0.0008635931299068034,-0.0010614586062729359,0.00014305685181170702,0.0006076431600376964,0.0,0.0,0.0,0.0003915373235940933,-0.00022054098371881992,-0.0,0.0,0.0,0.0,-0.004999999888241291,-0.004999999888241291,5.911730133201232e-11,1495.0,1495.0,1495.0,1495.0,0.0,0.0,0.0,0.0,0.0,0.0,0.0,0.0,1495.0,1495.0,1495.0,1495.0,1.629725456237793,-0.3220917348820285,-0.4676368140531034,-1.6240639742458212,0.0008660752209834754,0.0011827587150037289,0.0
357,5,-0.001175134559161961,5.796532605018001e-06,-0.007399584166705608,-0.0001294255198445171,-0.00019294464436825365,-0.0013421516632661223,0.0014249025844037533,0.39094114303588867,0.0008635931299068034,-0.0010614586062729359,0.00014305685181170702,0.0006076431600376964,0.0,0.0,0.0,0.0003915373235940933,-0.00022054098371881992,-0.0,0.0,0.0,0.0,-0.004999999888241291,-0.004999999888241291,5.911730133201232e-11,1495.0,1495.0,1495.0,1495.0,0.0,0.0,0.0,0.0,0.0,0.0,0.0,0.0,1495.0,1495.0,1495.0,1495.0,1.629725456237793,-2.8648732215282156,0.45098022007369487,1.4545548922673062,0.0008660752209834754,0.0011827587150037289,0.0
362,5,-0.0011694884160533547,6.315844984783325e-06,-0.007402189541608095,0.0006257679779082537,-0.0001394953578710556,-0.0002242064947495237,0.0014178475830703974,0.3909803032875061,0.0008837332716211677,0.0015831629280000925,-0.006344049237668514,0.0017725761281326413,0.0,0.0,0.0,0.00018431429634802043,-0.0010504629462957382,-0.0,0.0,0.0,0.0,-0.004999999888241291,-0.004999999888241291,-4.3170055204211355e-12,1495.0,1495.0,1495.0,1495.0,0.0,0.0,0.0,0.0,0.0,0.0,0.0,0.0,1495.0,1495.0,1495.0,1495.0,1.6370922327041626,-2.864979946106236,0.45096902687499546,1.4544106505755576,0.004143866244703531,0.0005592947127297521,0.0
367,5,-4.8241661716019735e-05,8.495177462464198e-05,0.00024893367663025856,0.0006257679779082537,-0.0001394953578710556,-0.0002242064947495237,0.0014178475830703974,0.3909803032875061,0.0008837332716211677,0.0015831629280000925,-0.006344049237668514,0.0017725761281326413,0.0,0.0,0.0,0.00018431429634802043,-0.0010504629462957382,-0.0,0.0,0.0,0.0,-0.004999999888241291,-0.004999999888241291,-4.3170055204211355e-12,1495.0,1495.0,1495.0,1495.0,0.0,0.0,0.0,0.0,0.0,0.0,0.0,0.0,1495.0,1495.0,1495.0,1495.0,1.6370922327041626,-0.3218706919449149,-0.46739843980722573,-1.6240210985433405,0.004143866244703531,0.0005592947127297521,0.0
372,5,-5.126816176925786e-05,7.101243681972846e-05,0.00022145768161863089,-0.00011287274537608027,0.0016169229056686163,0.003207435831427574,0.0014305555960163474,0.3909838795661926,0.000853648001793772,0.00022962204820942134,0.0014087061863392591,0.0004396861477289349,0.0,0.0,0.0,-0.0018641641363501549,-0.00019312019867356867,-0.0,0.0,0.0,0.0,-0.004999999888241291,-0.004999999888241291,-1.950428187014186e-11,1495.0,1495.0,1495.0,1495.0,0.0,0.0,0.0,0.0,0.0,0.0,0.0,0.0,1495.0,1495.0,1495.0,1495.0,1.6412681341171265,-0.3217450224397414,-0.46769117626152407,-1.6238567021723773,0.0007637626258656383,-0.00567115843296051,0.0
377,5,-5.0534763431642205e-05,6.696471245959401e-05,0.00020847479754593223,4.28585299232509e-05,0.001132495584897697,0.0028409212827682495,0.0014305555960163474,0.3909838795661926,0.000853648001793772,0.00022962204820942134,0.0014087061863392591,0.0004396861477289349,0.0,0.0,0.0,-0.0018641641363501549,-0.00019312019867356867,-0.0,0.0,0.0,0.0,-0.004999999888241291,-0.004999999888241291,-1.950428187014186e-11,1495.0,1495.0,1495.0,1495.0,0.0,0.0,0.0,0.0,0.0,0.0,0.0,0.0,1495.0,1495.0,1495.0,1495.0,1.6412681341171265,-0.3213353613139659,-0.4675558574440537,-1.6236240396456725,0.0007637626258656383,-0.00567115843296051,0.0
382,5,-5.3972038585925475e-05,6.320196553133428e-05,0.00019338108540978283,-0.0003953294944949448,0.0009045276092365384,0.0029476131312549114,0.0014130189083516598,0.3909779489040375,0.0008499071700498462,0.0008687371155247092,-0.0009711534949019551,0.004932072479277849,0.0,0.0,0.0,-0.0018641641363501549,-0.00019312019867356867,-0.0,0.0,0.0,0.0,-0.004999999888241291,-0.004999999888241291,1.451710557320851e-10,1495.0,1495.0,1495.0,1495.0,0.0,0.0,0.0,0.0,0.0,0.0,0.0,0.0,1495.0,1495.0,1495.0,1495.0,1.6412681341171265,-0.3210631502396297,-0.46770454475356477,-1.6234183116262162,0.0007637626258656383,-0.00567115843296051,0.0
387,5,-5.1406354032224044e-05,6.065837442292832e-05,0.00018240622011944652,0.000149750238051638,0.0006670423317700624,0.0024960290174931288,0.0014130189083516598,0.3909779489040375,0.0008499071700498462,0.0008687371155247092,-0.0009711534949019551,0.004932072479277849,0.0,0.0,0.0,-0.0010036517633125186,-0.0004664300649892539,-0.0,0.0,0.0,0.0,-0.004999999888241291,-0.004999999888241291,1.451710557320851e-10,1495.0,1495.0,1495.0,1495.0,0.0,0.0,0.0,0.0,0.0,0.0,0.0,0.0,1495.0,1495.0,1495.0,1495.0,1.6353929042816162,-0.32040731790000004,-0.4683711564957443,-1.6232855828444865,0.0018380626570433378,-0.003042380791157484,0.0
392,5,-6.18026897427626e-05,6.21576327830553e-05,0.0001958800567081198,-0.0011876600328832865,8.690620597917587e-05,-0.0006184487137943506,0.0014251554384827614,0.3910413086414337,0.0008713975548744202,-0.0013635646319016814,-0.003931088838726282,0.002840216038748622,0.0,0.0,0.0,-0.0010036517633125186,-0.0004664300649892539,-0.0,0.0,0.0,0.0,-0.004999999888241291,-0.004999999888241291,5.89233314918225e-11,1495.0,1495.0,1495.0,1495.0,0.0,0.0,0.0,0.0,0.0,0.0,0.0,0.0,1495.0,1495.0,1495.0,1495.0,1.6353929042816162,-0.3202822698552432,-0.46912852653723414,-1.6234524928871152,0.0018380626570433378,-0.003042380791157484,0.0
397,5,-6.765453144907951e-05,8.239171438617632e-05,0.0002141783043043688,-0.00117728509940207,-0.0023933276534080505,-0.0024431694764643908,0.0014251554384827614,0.3910413086414337,0.0008713975548744202,-0.0013635646319016814,-0.003931088838726282,0.002840216038748622,0.0,0.0,0.0,5.992488240735838e-06,-0.0012287651188671589,-0.0,0.0,0.0,0.0,-0.004999999888241291,-0.004999999888241291,5.89233314918225e-11,1495.0,1495.0,1495.0,1495.0,0.0,0.0,0.0,0.0,0.0,0.0,0.0,0.0,1495.0,1495.0,1495.0,1495.0,1.638911247253418,-0.31932520352534793,-0.47019701218687954,-1.623094202469902,0.004852618090808392,1.8204182197223417e-05,0.0
402,5,-0.00010464322986081243,0.00011544329026946798,0.00030263321241363883,-0.0032150906044989824,-0.0034644666593521833,-0.007344162091612816,0.001430446864105761,0.3910630941390991,0.0008586100884713233,0.002299173967912793,0.002356954151764512,-0.0024621845223009586,0.0,0.0,0.0,5.992488240735838e-06,-0.0012287651188671589,-0.0,0.0,0.0,0.0,-0.004999999888241291,-0.004999999888241291,3.6841342476723327e-11,1495.0,1495.0,1495.0,1495.0,0.0,0.0,0.0,0.0,0.0,0.0,0.0,0.0,1495.0,1495.0,1495.0,1495.0,1.638911247253418,-0.31859430150783263,-0.47525623208800355,-1.6226936237556615,0.004852618090808392,1.8204182197223417e-05,0.0
407,5,-0.00010464322986081243,0.00011544329026946798,0.00030263321241363883,-0.0032150906044989824,-0.0034644666593521833,-0.007344162091612816,0.001430446864105761,0.3910630941390991,0.0008586100884713233,0.002299173967912793,0.002356954151764512,-0.0024621845223009586,0.0,0.0,0.0,0.004387113731354475,-0.0031425009947270155,-0.0,0.0,0.0,0.0,-0.004999999888241291,-0.004999999888241291,3.6841342476723327e-11,1495.0,1495.0,1495.0,1495.0,0.0,0.0,0.0,0.0,0.0,0.0,0.0,0.0,1495.0,1495.0,1495.0,1495.0,1.6760668754577637,-0.31859430150783263,-0.47525623208800355,-1.6226936237556615,0.012691523879766464,0.013629385270178318,0.0
412,5,-0.00019786992925219238,0.0001814391289371997,0.000512327067553997,-0.007955536246299744,-0.006363159045577049,-0.019674688577651978,0.0014450234593823552,0.39108601212501526,0.0008554977248422801,-0.0006210911087691784,0.0021778997033834457,0.005341681186109781,0.0,0.0,0.0,0.004387113731354475,-0.0031425009947270155,-0.0,0.0,0.0,0.0,-0.004999999888241291,-0.004999999888241291,2.4398398232317042e-11,1495.0,1495.0,1495.0,1495.0,0.0,0.0,0.0,0.0,0.0,0.0,0.0,0.0,1495.0,1495.0,1495.0,1495.0,1.6760668754577637,-0.31999933322202173,-0.4827910119947461,-1.6240650772507554,0.012691523879766464,0.013629385270178318,0.0
418,5,-0.00022961193462833762,0.00023237436835188419,0.0006358500104397535,-0.006991255562752485,-0.008657492697238922,-0.02269262820482254,0.0014450234593823552,0.39108601212501526,0.0008554977248422801,-0.0006210911087691784,0.0021778997033834457,0.005341681186109781,0.0,0.0,0.0,0.007743093650788069,-0.00742214173078537,-0.0,0.0,0.0,0.0,-0.004999999888241291,-0.004999999888241291,2.4398398232317042e-11,1495.0,1495.0,1495.0,1495.0,0.0,0.0,0.0,0.0,0.0,0.0,0.0,0.0,1495.0,1495.0,1495.0,1495.0,1.7323737144470215,-0.320565208302945,-0.48609629976513724,-1.624031421616626,0.03098173439502716,0.024863185361027718,0.0
423,5,-0.0002582792076282203,0.0002795581240206957,0.0007402728078886867,-0.006236574146896601,-0.009125049225986004,-0.021607786417007446,0.0014252652181312442,0.39108824729919434,0.0008841489907354116,-0.00017772857972886413,0.001111496239900589,0.0032560937106609344,0.0,0.0,0.0,0.007743093650788069,-0.00742214173078537,-0.0,0.0,0.0,0.0,-0.004999999888241291,-0.004999999888241291,3.779315055352228e-11,1495.0,1495.0,1495.0,1495.0,0.0,0.0,0.0,0.0,0.0,0.0,0.0,0.0,1495.0,1495.0,1495.0,1495.0,1.7323737144470215,-0.321037759547206,-0.48894873615268275,-1.6241817203625943,0.03098173439502716,0.024863185361027718,0.0
428,5,-0.00029524063575081527,0.0003251354501117021,0.0008624315378256142,-0.006930001080036163,-0.009119299240410328,-0.023302165791392326,0.0014252652181312442,0.39108824729919434,0.0008841489907354116,-0.00017772857972886413,0.001111496239900589,0.0032560937106609344,0.0,0.0,0.0,0.011072223074734211,-0.005923126824200153,-0.0,0.0,0.0,0.0,-0.004999999888241291,-0.004999999888241291,3.779315055352228e-11,1495.0,1495.0,1495.0,1495.0,0.0,0.0,0.0,0.0,0.0,0.0,0.0,0.0,1495.0,1495.0,1495.0,1495.0,1.7425408363342285,-0.32274187837342244,-0.49194933978163957,-1.6251070480384977,0.024868909269571304,0.03576104715466499,0.0
433,5,-0.0003058356523979455,0.00034749461337924004,0.0009122006013058126,-0.004043403547257185,-0.0063308184035122395,-0.015293151140213013,0.00145206309389323,0.39109545946121216,0.0008779977215453982,0.0012483180034905672,0.0015976022696122527,-0.00022147034178487957,0.0,0.0,0.0,0.011072223074734211,-0.005923126824200153,-0.0,0.0,0.0,0.0,-0.004999999888241291,-0.004999999888241291,6.096747412476233e-11,1495.0,1495.0,1495.0,1495.0,0.0,0.0,0.0,0.0,0.0,0.0,0.0,0.0,1495.0,1495.0,1495.0,1495.0,1.7425408363342285,-0.3225987748446594,-0.4934797393265868,-1.625086802222083,0.024868909269571304,0.03576104715466499,0.0
438,5,-0.0003439239808358252,0.0003715955826919526,0.0009696729830466211,-0.006187962368130684,-0.005424441769719124,-0.013013945892453194,0.00145206309389323,0.39109545946121216,0.0008779977215453982,0.0012483180034905672,0.0015976022696122527,-0.00022147034178487957,0.0,0.0,0.0,0.008102360181510448,-0.004107062704861164,-0.0,0.0,0.0,0.0,-0.004999999888241291,-0.004999999888241291,6.096747412476233e-11,1495.0,1495.0,1495.0,1495.0,0.0,0.0,0.0,0.0,0.0,0.0,0.0,0.0,1495.0,1495.0,1495.0,1495.0,1.7084670066833496,-0.32384905117350665,-0.4951373766784367,-1.6257069693694002,0.016907304525375366,0.025657720863819122,0.0
443,5,-0.0003688064171001315,0.0003801138955168426,0.000992479850538075,-0.005461076274514198,-0.0031919749453663826,-0.007942398078739643,0.00145206309389323,0.39109545946121216,0.0008779977215453982,0.0012483180034905672,0.0015976022696122527,-0.00022147034178487957,0.0,0.0,0.0,0.008102360181510448,-0.004107062704861164,-0.0,0.0,0.0,0.0,-0.004999999888241291,-0.004999999888241291,6.096747412476233e-11,1495.0,1495.0,1495.0,1495.0,0.0,0.0,0.0,0.0,0.0,0.0,0.0,0.0,1495.0,1495.0,1495.0,1495.0,1.7084670066833496,-0.32444312816738285,-0.496317077176153,-1.626121866149337,0.016907304525375366,0.025657720863819122,0.0
448,5,-0.0003679624933283776,0.0003820414422079921,0.0009997138986364007,-0.0020831602159887552,-0.0015080950688570738,-0.004045048262923956,0.0014519101241603494,0.39111390709877014,0.0008847863064147532,0.001909084152430296,0.00038820490590296686,0.0002908343740273267,0.0,0.0,0.0,0.004471309948712587,-0.005518509540706873,-0.0,0.0,0.0,0.0,-0.004999999888241291,-0.004999999888241291,2.2060259174949692e-10,1495.0,1495.0,1495.0,1495.0,0.0,0.0,0.0,0.0,0.0,0.0,0.0,0.0,1495.0,1495.0,1495.0,1495.0,1.6974271535873413,-0.3240286819279019,-0.4966847509438996,-1.6256651685410572,0.022571390494704247,0.01406798418611288,0.0
453,5,-0.0011818783823400736,-5.448145657283021e-06,-0.0074443211778998375,-0.0020831602159887552,-0.0015080950688570738,-0.004045048262923956,0.0014519101241603494,0.39111390709877014,0.0008847863064147532,0.001909084152430296,0.00038820490590296686,0.0002908343740273267,0.0,0.0,0.0,0.004471309948712587,-0.005518509540706873,-0.0,0.0,0.0,0.0,-0.004999999888241291,-0.004999999888241291,2.2060259174949692e-10,1495.0,1495.0,1495.0,1495.0,0.0,0.0,0.0,0.0,0.0,0.0,0.0,0.0,1495.0,1495.0,1495.0,1495.0,1.6974271535873413,-2.864019214677494,0.4514464955303089,1.453829250212932,0.022571390494704247,0.01406798418611288,0.0
458,5,-0.001191296731121838,2.7768794552684994e-07,-0.007419471628963947,-0.001963462447747588,-0.0012903381139039993,-0.0045999521389603615,0.0014632948441430926,0.3911823034286499,0.0008874936029314995,0.0007307978812605143,-0.004743542056530714,0.0024569097440689802,0.0,0.0,0.0,0.0018224187660962343,-0.0035790188703686,-0.0,0.0,0.0,0.0,-0.004999999888241291,-0.004999999888241291,6.566623911297143e-10,1495.0,1495.0,1495.0,1495.0,0.0,0.0,0.0,0.0,0.0,0.0,0.0,0.0,1495.0,1495.0,1495.0,1495.0,1.6675148010253906,-2.8648511320544596,0.4510391017338192,1.454540256090296,0.01438082940876484,0.005632821470499039,0.0
463,5,-7.121743692550808e-05,7.121377711882815e-05,0.00026459177024662495,-0.001963462447747588,-0.0012903381139039993,-0.0045999521389603615,0.0014632948441430926,0.3911823034286499,0.0008874936029314995,0.0007307978812605143,-0.004743542056530714,0.0024569097440689802,0.0,0.0,0.0,0.0018224187660962343,-0.0035790188703686,-0.0,0.0,0.0,0.0,-0.004999999888241291,-0.004999999888241291,6.566623911297143e-10,1495.0,1495.0,1495.0,1495.0,0.0,0.0,0.0,0.0,0.0,0.0,0.0,0.0,1495.0,1495.0,1495.0,1495.0,1.6675148010253906,-0.32209195203392127,-0.4673706739994836,-1.624115490369203,0.01438082940876484,0.005632821470499039,0.0
468,5,-6.648719863733277e-05,8.877064828993753e-05,0.0002843273978214711,-0.0002177557471441105,-0.002622960601001978,-0.004208256024867296,0.0014580116840079427,0.391191691160202,0.0008724816725589335,0.0021095601841807365,-0.0037720820400863886,-0.0008535095839761198,0.0,0.0,0.0,0.0018224187660962343,-0.0035790188703686,-0.0,0.0,0.0,0.0,-0.004999999888241291,-0.004999999888241291,2.2053141257583064e-10,1495.0,1495.0,1495.0,1495.0,0.0,0.0,0.0,0.0,0.0,0.0,0.0,0.0,1495.0,1495.0,1495.0,1495.0,1.6675148010253906,-0.32263310870517065,-0.46793762868453287,-1.6242140067294633,0.01438082940876484,0.005632821470499039,0.0
473,5,-5.699062967323698e-05,9.045189653988928e-05,0.0002778652706183493,0.001052485778927803,-0.0012509339721873403,-0.0009078451548703015,0.0014580116840079427,0.391191691160202,0.0008724816725589335,0.0021095601841807365,-0.0037720820400863886,-0.0008535095839761198,0.0,0.0,0.0,0.003370257094502449,-0.00031394214602187276,-0.0,0.0,0.0,0.0,-0.004999999888241291,-0.004999999888241291,2.2053141257583064e-10,1495.0,1495.0,1495.0,1495.0,0.0,0.0,0.0,0.0,0.0,0.0,0.0,0.0,1495.0,1495.0,1495.0,1495.0,1.6539394855499268,-0.32230258410439294,-0.46786952780355234,-1.624140386886293,0.0012511768145486712,0.010332126170396805,0.0
479,5,-5.952420906396583e-05,7.546155393356457e-05,0.00026591881760396063,0.00011696474393829703,0.0012984677450731397,0.0010704364394769073,0.0014815053436905146,0.39122340083122253,0.0008853974286466837,0.0005779095808975399,0.004355978686362505,-0.00027240862254984677,0.0,0.0,0.0,0.003370257094502449,-0.00031394214602187276,-0.0,0.0,0.0,0.0,-0.004999999888241291,-0.004999999888241291,6.723066547920098e-10,1495.0,1495.0,1495.0,1495.0,0.0,0.0,0.0,0.0,0.0,0.0,0.0,0.0,1495.0,1495.0,1495.0,1495.0,1.6539394855499268,-0.32232069381188266,-0.46804027294725387,-1.6240503162175512,0.0012511768145486712,0.010332126170396805,0.0
484,5,-0.0011878012446686625,4.189904245777143e-07,-0.007407734170556068,0.00011696474393829703,0.0012984677450731397,0.0010704364394769073,0.0014815053436905146,0.39122340083122253,0.0008853974286466837,0.0005779095808975399,0.004355978686362505,-0.00027240862254984677,0.0,0.0,0.0,-0.0014645695919170976,1.0663380635378417e-05,-0.0,0.0,0.0,0.0,-0.004999999888241291,-0.004999999888241291,6.723066547920098e-10,1495.0,1495.0,1495.0,1495.0,0.0,0.0,0.0,0.0,0.0,0.0,0.0,0.0,1495.0,1495.0,1495.0,1495.0,1.6378109455108643,-2.8647117365318007,0.4511061137309795,1.4542800070524753,-4.208333120914176e-05,-0.004446128848940134,0.0
489,5,-7.722269947407767e-05,6.912060780450702e-05,0.00022325493046082556,0.00011696474393829703,0.0012984677450731397,0.0010704364394769073,0.0014686869690194726,0.39117488265037537,0.0008796520996838808,-0.0020000371150672436,0.004766626749187708,-0.0011493888450786471,0.0,0.0,0.0,-0.0014645695919170976,1.0663380635378417e-05,-0.0,0.0,0.0,0.0,-0.004999999888241291,-0.004999999888241291,-1.6291037963078736e-10,1495.0,1495.0,1495.0,1495.0,0.0,0.0,0.0,0.0,0.0,0.0,0.0,0.0,1495.0,1495.0,1495.0,1495.0,1.6378109455108643,-0.3220051446852767,-0.46779837797456725,-1.6240477087909397,-4.208333120914176e-05,-0.004446128848940134,0.0
494,5,-7.028642721707001e-05,6.880523869767785e-05,0.00019982307276222855,0.0008791386499069631,0.000557231658603996,0.003239997196942568,0.0014686869690194726,0.39117488265037537,0.0008796520996838808,-0.0020000371150672436,0.004766626749187708,-0.0011493888450786471,0.0,0.0,0.0,-0.0014758816687390208,-1.4079226275498513e-05,-0.0,0.0,0.0,0.0,-0.004999999888241291,-0.004999999888241291,-1.6291037963078736e-10,1495.0,1495.0,1495.0,1495.0,0.0,0.0,0.0,0.0,0.0,0.0,0.0,0.0,1495.0,1495.0,1495.0,1495.0,1.6379051208496094,-0.3212330170735453,-0.46734852527601606,-1.6234995199091615,5.556725591304712e-05,-0.004480727482587099,0.0
499,5,-8.101025014184415e-05,6.560142355738208e-05,0.00019124260870739818,-0.000935203512199223,0.0006073510739952326,0.0023256547283381224,0.001463239430449903,0.3911716938018799,0.0008726520463824272,-0.0008174590766429901,-0.002691747387871146,0.0029201204888522625,0.0,0.0,0.0,-0.0014758816687390208,-1.4079226275498513e-05,-0.0,0.0,0.0,0.0,-0.004999999888241291,-0.004999999888241291,-1.3580837843196747e-10,1495.0,1495.0,1495.0,1495.0,0.0,0.0,0.0,0.0,0.0,0.0,0.0,0.0,1495.0,1495.0,1495.0,1495.0,1.6379051208496094,-0.32150158970203235,-0.4673848377236489,-1.6239136934969347,5.556725591304712e-05,-0.004480727482587099,0.0
504,5,-6.262870010687038e-05,6.844280869700015e-05,0.00018022696895059198,0.001831704517826438,-9.802580461837351e-05,0.0022521389182657003,0.001463239430449903,0.3911716938018799,0.0008726520463824272,-0.0008174590766429901,-0.002691747387871146,0.0029201204888522625,0.0,0.0,0.0,-0.0006285393610596657,-0.0010192033369094133,-0.0,0.0,0.0,0.0,-0.004999999888241291,-0.004999999888241291,-1.3580837843196747e-10,1495.0,1495.0,1495.0,1495.0,0.0,0.0,0.0,0.0,0.0,0.0,0.0,0.0,1495.0,1495.0,1495.0,1495.0,1.6378257274627686,-0.32029221855313594,-0.46743868825595775,-1.6232783220135358,0.004022353794425726,-0.0019081330392509699,0.0
509,5,-5.9396283177193254e-05,6.652140291407704e-05,0.00019766742479987442,0.0011205724440515041,0.00019135801994707435,-0.0011919991811737418,0.001464547822251916,0.3912091851234436,0.0008897862280718982,-0.001981672365218401,-0.0002615238190628588,-0.006582123693078756,0.0,0.0,0.0,-0.0006285393610596657,-0.0010192033369094133,-0.0,0.0,0.0,0.0,-0.004999999888241291,-0.004999999888241291,8.518819538672062e-10,1495.0,1495.0,1495.0,1495.0,0.0,0.0,0.0,0.0,0.0,0.0,0.0,0.0,1495.0,1495.0,1495.0,1495.0,1.6378257274627686,-0.31994235153447986,-0.4683697828233598,-1.6232398501001473,0.004022353794425726,-0.0019081330392509699,0.0
514,5,-4.8466659791301936e-05,7.069909770507365e-05,0.0002096475218422711,0.0017597837140783668,-0.0004247800097800791,-0.0019144118996337056,0.001464547822251916,0.3912091851234436,0.0008897862280718982,-0.001981672365218401,-0.0002615238190628588,-0.006582123693078756,0.0,0.0,0.0,-0.00011304735380690545,0.0009652501903474331,-0.0,0.0,0.0,0.0,-0.004999999888241291,-0.004999999888241291,8.518819538672062e-10,1495.0,1495.0,1495.0,1495.0,0.0,0.0,0.0,0.0,0.0,0.0,0.0,0.0,1495.0,1495.0,1495.0,1495.0,1.6361147165298462,-0.3195679092459534,-0.4690528084368613,-1.6231344414620834,-0.003805445274338126,-0.00034283308195881546,0.0
519,5,-4.290702418074943e-05,5.6319546274608e-05,0.000201853719772771,0.0013710696948692203,0.0015556339640170336,0.00016949282144196332,0.0014604084426537156,0.3912089765071869,0.0008563033188693225,-0.0037228858564049006,0.006830916740000248,-0.002823467832058668,0.0,0.0,0.0,-0.00011304735380690545,0.0009652501903474331,-0.0,0.0,0.0,0.0,-0.004999999888241291,-0.004999999888241291,7.720764305663153e-11,1495.0,1495.0,1495.0,1495.0,0.0,0.0,0.0,0.0,0.0,0.0,0.0,0.0,1495.0,1495.0,1495.0,1495.0,1.6361147165298462,-0.3185873888299706,-0.47018514273212975,-1.6227945399155956,-0.003805445274338126,-0.00034283308195881546,0.0
524,5,-7.092821761034429e-05,8.910850738175213e-05,0.00026461289962753654,-0.0028141154907643795,-0.003312421729788184,-0.0074633038602769375,0.0014634549152106047,0.3911864757537842,0.000849268224555999,0.00043273819028399885,0.006849571131169796,0.0007642032578587532,0.0,0.0,0.0,-0.001807945896871388,0.0012193896109238267,-0.0,0.0,0.0,0.0,-0.004999999888241291,-0.004999999888241291,-2.193658102389584e-11,1495.0,1495.0,1495.0,1495.0,0.0,0.0,0.0,0.0,0.0,0.0,0.0,0.0,1495.0,1495.0,1495.0,1495.0,1.6456310749053955,-0.3189518450287588,-0.47254927916016126,-1.622873003251037,-0.004835329484194517,-0.005514752585440874,0.0
529,5,-0.0001169244569609873,0.00010197463416261598,0.00032822065986692905,-0.006645194720476866,-0.002868903800845146,-0.01061825267970562,0.0014634549152106047,0.3911864757537842,0.000849268224555999,0.00043273819028399885,0.006849571131169796,0.0007642032578587532,0.0,0.0,0.0,-0.001807945896871388,0.0012193896109238267,-0.0,0.0,0.0,0.0,-0.004999999888241291,-0.004999999888241291,-2.193658102389584e-11,1495.0,1495.0,1495.0,1495.0,0.0,0.0,0.0,0.0,0.0,0.0,0.0,0.0,1495.0,1495.0,1495.0,1495.0,1.6456310749053955,-0.31910651405423923,-0.4752770154446259,-1.6234122262843427,-0.004835329484194517,-0.005514752585440874,0.0
