timestamp,dt,pos_x,pos_y,pos_z,vel_x,vel_y,vel_z,roll,pitch,yaw,agv_x,agv_y,agv_z,x_ref,y_ref,z_ref,roll_ref,pitch_ref,yaw_ref,x_vel_ref,y_vel_ref,z_vel_ref,x_torque,y_torque,z_torque,w0,w1,w2,w3,u0,u1,u2,u3,m0req,m1req,m2req,m3req,thrust0,thrust1,thrust2,thrust3,thrust_ref,roll_vicon,pitch_vicon,yaw_vicon,acc_x,acc_y,acc_z
5,5,0.0,0.0,0.0,0.0017072766786441207,-0.0007523029344156384,-0.00040809717029333115,0.003655174747109413,0.03930719569325447,-0.002341433195397258,0.00014801484940107912,0.00443013571202755,-0.0012279768707230687,0.0,0.0,0.0,0.0009253899333998561,0.0016154474578797817,-0.0,0.0,0.0,0.0,-0.0010546970879659057,-0.01183089055120945,-0.0002958913682959974,1495.0,1495.0,1495.0,1495.0,0.0,0.0,0.0,0.0,0.0,0.0,0.0,0.0,1495.0,1495.0,1495.0,1495.0,1.644715666770935,0.020759113783185058,-0.2680908612846467,-3.1142275505629975,-0.006402287632226944,0.0028211360331624746,0.0
28,23,0.0,0.0,0.0,0.0016681089764460921,0.0012775689829140902,0.0022705132141709328,0.003655174747109413,0.03930719569325447,-0.002341433195397258,0.00014801484940107912,0.00443013571202755,-0.0012279768707230687,0.0,0.0,0.0,0.0009253899333998561,0.0016154474578797817,-0.0,0.0,0.0,0.0,-0.0010546970879659057,-0.01183089055120945,-0.0002958913682959974,1495.0,1495.0,1495.0,1495.0,0.0,0.0,0.0,0.0,0.0,0.0,0.0,0.0,1495.0,1495.0,1495.0,1495.0,1.644715666770935,0.02041293469914488,-0.26911964842244246,-3.114016835892134,-0.006402287632226944,0.0028211360331624746,0.0
33,5,0.0,0.0,0.0,-0.0016746954061090946,0.00011018701479770243,-8.190263179130852e-05,0.00363945122808218,0.03928890824317932,-0.0023439645301550627,-0.0005022766999900341,-0.0027216707821935415,-0.004615710116922855,0.0,0.0,0.0,-0.00013569529983215034,-0.0015864523593336344,-0.0,0.0,0.0,0.0,-0.0008725434308871627,-0.011380821466445923,-0.00020773103460669518,1495.0,1495.0,1495.0,1495.0,0.0,0.0,0.0,0.0,0.0,0.0,0.0,0.0,1495.0,1495.0,1495.0,1495.0,1.6428139209747314,0.020191010218312693,-0.2686743796545914,-3.1141765927886333,0.006280107889324427,-0.00041320131276734173,0.0
41,8,0.0,0.0,0.0,-0.0022017373703420162,-0.00028063234640285373,0.00046916096471250057,0.0036677634343504906,0.03932774066925049,-0.002317301230505109,0.0010480445344001055,-0.0003727029252331704,-0.002442566677927971,0.0,0.0,0.0,0.00034444750053808093,-0.00207877648063004,-0.0,0.0,0.0,0.0,-0.0008085346780717373,-0.011315950192511082,-0.000264051923295483,12689.0,14501.0,14194.0,12807.0,0.3562376797199249,0.47306570410728455,0.4520619213581085,0.36335036158561707,0.0,0.0,0.0,0.0,1495.0,1495.0,1495.0,1495.0,1.6483045816421509,0.019467493099038422,-0.2678740777701552,-3.114846700422177,0.008256515488028526,0.0010523713426664472,0.0
49,8,0.0,0.0,0.0,0.0014353637816384435,-0.0006600259221158922,-0.00117659626994282,0.0036677634343504906,0.03932774066925049,-0.002317301230505109,0.0010480445344001055,-0.0003727029252331704,-0.002442566677927971,0.0,0.0,0.0,0.00034444750053808093,-0.00207877648063004,-0.0,0.0,0.0,0.0,-0.0008085346780717373,-0.011315950192511082,-0.000264051923295483,12689.0,14501.0,14194.0,12807.0,0.3562376797199249,0.47306570410728455,0.4520619213581085,0.36335036158561707,0.0,0.0,0.0,0.0,1495.0,1495.0,1495.0,1495.0,1.6483045816421509,0.020072772762692634,-0.2679504669750542,-3.1143228898100666,0.008256515488028526,0.0010523713426664472,0.0
54,5,0.0,0.0,0.0,-0.0005163452005945146,-0.0005442133406177163,-0.0013830767711624503,0.0036677634343504906,0.03932774066925049,-0.002317301230505109,0.0010480445344001055,-0.0003727029252331704,-0.002442566677927971,0.0,0.0,0.0,0.00034444750053808093,-0.00207877648063004,-0.0,0.0,0.0,0.0,-0.0008085346780717373,-0.011315950192511082,-0.000264051923295483,12689.0,14501.0,14194.0,12807.0,0.3562376797199249,0.47306570410728455,0.4520619213581085,0.36335036158561707,0.0,0.0,0.0,0.0,1495.0,1495.0,1495.0,1495.0,1.6483045816421509,0.0204014924366999,-0.2674708890418874,-3.114510992229655,0.008256515488028526,0.0010523713426664472,0.0
59,5,-8.440024430456106e-07,-2.296685579494806e-07,-1.0785280437630718e-06,-0.00030781837995164096,-0.00019012509437743574,-0.00042380733066238463,0.0036632127594202757,0.039312127977609634,-0.0023423521779477596,-0.000717867398634553,0.0013578434009104967,-0.002558555221185088,0.0,0.0,0.0,0.0006740686949342489,-0.0004919623024761677,-0.0,0.0,0.0,0.0,-0.0010526793776080012,-0.012663928791880608,-0.0002737880276981741,12618.0,14619.0,14284.0,12699.0,0.35203319787979126,0.4812086820602417,0.4581819176673889,0.356880784034729,0.0,0.0,0.0,0.0,12687.0,14507.0,14180.0,12817.0,1.6333820819854736,0.020323130629371522,-0.26816929748416174,-3.1143803160509935,0.0019362944876775146,0.002040799940004945,0.0
64,5,-2.883522256524884e-06,-5.0031453611154575e-06,6.766392289137002e-06,-0.000367869739420712,0.0004967671702615917,-0.0011109133483842015,0.0036975566763430834,0.03936653956770897,-0.002403752878308296,0.0028171332087367773,-0.0022637094371020794,0.0004207491874694824,0.0,0.0,0.0,-0.0006248772260732949,-0.00035480340011417866,-0.0,0.0,0.0,0.0,-0.0009399731061421335,-0.012013969011604786,-0.00030962651362642646,12602.0,14513.0,14194.0,12691.0,0.35107508301734924,0.47383978962898254,0.452083021402359,0.35638418793678284,0.0,0.0,0.0,0.0,12577.0,14646.0,14253.0,12744.0,1.6321241855621338,0.01923123231481117,-0.26864707622672307,-3.114648890334336,0.0013953809393569827,-0.0018904117168858647,0.0
69,5,-1.3057511750957929e-05,5.495171990332892e-06,2.6255831471644342e-05,-0.0013680265983566642,-0.00106109119951725,-0.0027830980252474546,0.0036975566763430834,0.03936653956770897,-0.002403752878308296,0.0028171332087367773,-0.0022637094371020794,0.0004207491874694824,0.0,0.0,0.0,-0.0006248772260732949,-0.00035480340011417866,-0.0,0.0,0.0,0.0,-0.0009399731061421335,-0.012013969011604786,-0.00030962651362642646,12602.0,14513.0,14194.0,12691.0,0.35107508301734924,0.47383978962898254,0.452083021402359,0.35638418793678284,0.0,0.0,0.0,0.0,12577.0,14646.0,14253.0,12744.0,1.6321241855621338,0.018944586766313033,-0.2685922934749096,-3.114785766861211,0.0013953809393569827,-0.0018904117168858647,0.0
74,5,-5.5574450925632846e-06,-2.096835851261858e-05,-1.4122199900157284e-05,0.00035279730218462646,0.00275118718855083,0.003732124576345086,0.0036975566763430834,0.03936653956770897,-0.002403752878308296,0.0028171332087367773,-0.0022637094371020794,0.0004207491874694824,0.0,0.0,0.0,-0.0006248772260732949,-0.00035480340011417866,-0.0,0.0,0.0,0.0,-0.0009399731061421335,-0.012013969011604786,-0.00030962651362642646,12602.0,14513.0,14194.0,12691.0,0.35107508301734924,0.47383978962898254,0.452083021402359,0.35638418793678284,0.0,0.0,0.0,0.0,12577.0,14646.0,14253.0,12744.0,1.6321241855621338,0.02001263138913538,-0.26838756302691835,-3.1143021427276305,0.0013953809393569827,-0.0018904117168858647,0.0
79,5,-9.562078048475087e-06,-2.5187004212057218e-05,-3.344233118696138e-05,-0.00033943704329431057,0.0016067124670371413,0.0038112658075988293,0.003691787365823984,0.03937288001179695,-0.0023622740991413593,-0.00163499906193465,0.006365601439028978,-0.002864622976630926,0.0,0.0,0.0,-0.0034023751504719257,0.000324229069519788,-0.0,0.0,0.0,0.0,-0.0012575337896123528,-0.011861171573400497,-0.00024338116054423153,12625.0,14522.0,14150.0,12686.0,0.3524293005466461,0.47451457381248474,0.4491027295589447,0.3560775816440582,0.0,0.0,0.0,0.0,12662.0,14459.0,14259.0,12620.0,1.654221773147583,0.02031695558168099,-0.2680255220887881,-3.114495087947675,-0.0012923943577334285,-0.010432369075715542,0.0
84,5,1.737717980176967e-06,-8.571343641960993e-06,-2.047575071628671e-05,0.0012202007928863168,-0.0013511943398043513,-3.148342511849478e-05,0.003691787365823984,0.03937288001179695,-0.0023622740991413593,-0.00163499906193465,0.006365601439028978,-0.002864622976630926,0.0,0.0,0.0,-0.0034023751504719257,0.000324229069519788,-0.0,0.0,0.0,0.0,-0.0012575337896123528,-0.011861171573400497,-0.00024338116054423153,12625.0,14522.0,14150.0,12686.0,0.3524293005466461,0.47451457381248474,0.4491027295589447,0.3560775816440582,0.0,0.0,0.0,0.0,12662.0,14459.0,14259.0,12620.0,1.654221773147583,0.019162820347034853,-0.26945943689851176,-3.1142932004221384,-0.0012923943577334285,-0.010432369075715542,0.0
89,5,-1.3974453395348974e-05,-4.487251317186747e-06,-3.861955337924883e-05,-0.0013973802560940385,-0.0010305688483640552,0.002164662815630436,0.003687633667141199,0.03927375376224518,-0.002371840411797166,-0.0008245527860708535,0.007019694894552231,-0.005518075078725815,0.0,0.0,0.0,0.001647104392759502,0.0011573521187528968,-0.0,0.0,0.0,0.0,-0.002104455605149269,-0.011531326919794083,-0.00030445674201473594,12773.0,14658.0,14132.0,12769.0,0.3613089919090271,0.48396003246307373,0.44788724184036255,0.36106550693511963,0.0,0.0,0.0,0.0,12661.0,14497.0,14160.0,12668.0,1.6441816091537476,0.019943293412572095,-0.26848512219779463,-3.114372230476712,-0.004585287068039179,0.005019715521484613,0.0
96,7,7.067880233080359e-06,-9.68349922914058e-06,-4.488759805099107e-05,0.0019661278929561377,0.00021132217079866678,0.001618030364625156,0.003687633667141199,0.03927375376224518,-0.002371840411797166,-0.0008245527860708535,0.007019694894552231,-0.005518075078725815,0.0,0.0,0.0,0.001647104392759502,0.0011573521187528968,-0.0,0.0,0.0,0.0,-0.002104455605149269,-0.011531326919794083,-0.00030445674201473594,12773.0,14658.0,14132.0,12769.0,0.3613089919090271,0.48396003246307373,0.44788724184036255,0.36106550693511963,0.0,0.0,0.0,0.0,12661.0,14497.0,14160.0,12668.0,1.6441816091537476,0.020661143641399416,-0.268223753647666,-3.1143185461509444,-0.004585287068039179,0.005019715521484613,0.0
102,5,2.2006148014952487e-07,-3.46267324857763e-06,-1.7981661585508846e-05,-3.528706292854622e-05,-0.0006619701744057238,-0.002581499982625246,0.0036810541059821844,0.03927678242325783,-0.002377675613388419,-0.0015848737675696611,-0.005790546536445618,-5.444187991088256e-05,0.0,0.0,0.0,0.0008140467689372599,-3.3331885788356885e-05,-0.0,0.0,0.0,0.0,-0.0021114200353622437,-0.011886742897331715,-0.00019887338567059487,12805.0,14631.0,14209.0,12681.0,0.3632727861404419,0.4820232391357422,0.4531330466270447,0.35579270124435425,0.0,0.0,0.0,0.0,12773.0,14661.0,14145.0,12751.0,1.6324418783187866,0.019239327754899074,-0.26761401494825804,-3.114766460229203,0.00013111409498378634,0.0024631766136735678,0.0
108,6,-1.586804137332365e-05,-2.3638399397896137e-06,-3.7818570035597077e-06,-0.0025603175163269043,-0.0006016107508912683,-0.002744724042713642,0.0036810541059821844,0.03927678242325783,-0.002377675613388419,-0.0015848737675696611,-0.005790546536445618,-5.444187991088256e-05,0.0,0.0,0.0,0.0008140467689372599,-3.3331885788356885e-05,-0.0,0.0,0.0,0.0,-0.0021114200353622437,-0.011886742897331715,-0.00019887338567059487,12805.0,14631.0,14209.0,12681.0,0.3632727861404419,0.4820232391357422,0.4531330466270447,0.35579270124435425,0.0,0.0,0.0,0.0,12773.0,14661.0,14145.0,12751.0,1.6324418783187866,0.018924857032457776,-0.26856398793356057,-3.1147528012096886,0.00013111409498378634,0.0024631766136735678,0.0
113,5,-6.987801953073358e-06,-1.675386329225148e-06,2.4448293061141158e-06,4.150166205363348e-05,-0.00032325871870853007,-0.00184509193059057,0.0036792918108403683,0.03930947929620743,-0.0023949500173330307,0.00013767348718829453,0.002505506854504347,-0.0027754982002079487,0.0,0.0,0.0,0.0008140467689372599,-3.3331885788356885e-05,-0.0,0.0,0.0,0.0,-0.0006345140282064676,-0.011537457816302776,-0.0003031142696272582,12648.0,14510.0,14205.0,12816.0,0.35379281640052795,0.47365692257881165,0.4528137743473053,0.36391809582710266,0.0,0.0,0.0,0.0,12647.0,14506.0,14231.0,12791.0,1.6324418783187866,0.02029614112824449,-0.26768362556257086,-3.1146319023531595,0.00013111409498378634,0.0024631766136735678,0.0
118,5,3.835044026345713e-06,-1.228995097335428e-05,-3.515388380037621e-05,0.0013153421459719539,0.00114444422069937,0.0037738087121397257,0.0036792918108403683,0.03930947929620743,-0.0023949500173330307,0.00013767348718829453,0.002505506854504347,-0.0027754982002079487,0.0,0.0,0.0,0.0003983534697908908,2.9850963983335532e-05,-0.0,0.0,0.0,0.0,-0.0006345140282064676,-0.011537457816302776,-0.0003031142696272582,12648.0,14510.0,14205.0,12816.0,0.35379281640052795,0.47365692257881165,0.4528137743473053,0.36391809582710266,0.0,0.0,0.0,0.0,12647.0,14506.0,14231.0,12791.0,1.6290264129638672,0.020428876647401794,-0.26882682490788895,-3.114156568074653,-0.00011717591405613348,0.0012028327910229564,0.0
123,5,-3.199544516974129e-05,-1.501310066487349e-06,8.036438885028474e-06,-0.003773521864786744,-0.0008368592243641615,-0.003673315281048417,0.0036790985614061356,0.03928135707974434,-0.0023935367353260517,0.0019540772773325443,0.00016548614075873047,-0.003255868563428521,0.0,0.0,0.0,0.0003983534697908908,2.9850963983335532e-05,-0.0,0.0,0.0,0.0,-0.0012073488906025887,-0.011216764338314533,-0.0002731531858444214,12723.0,14532.0,14163.0,12793.0,0.35828301310539246,0.4751839339733124,0.44998404383659363,0.36251887679100037,0.0,0.0,0.0,0.0,12736.0,14518.0,14170.0,12788.0,1.6290264129638672,0.01935353704529572,-0.26792032844897057,-3.114622831065107,-0.00011717591405613348,0.0012028327910229564,0.0
128,5,-6.805758403061191e-06,-8.473538400721736e-06,-1.1759364497265778e-05,0.0015133536653593183,0.0005019236705265939,0.0009061702876351774,0.0036790985614061356,0.03928135707974434,-0.0023935367353260517,0.0019540772773325443,0.00016548614075873047,-0.003255868563428521,0.0,0.0,0.0,0.00101387407630682,-0.003570069093257189,-0.0,0.0,0.0,0.0,-0.0012073488906025887,-0.011216764338314533,-0.0002731531858444214,12723.0,14532.0,14163.0,12793.0,0.35828301310539246,0.4751839339733124,0.44998404383659363,0.36251887679100037,0.0,0.0,0.0,0.0,12736.0,14518.0,14170.0,12788.0,1.6654144525527954,0.021508812397985123,-0.26748458070892683,-3.114338936178166,0.01432681642472744,0.0031297868117690086,0.0
133,5,-6.007055617374135e-06,-1.5265737602021545e-05,-2.5124776584561914e-05,0.0007011857815086842,0.001015833462588489,0.0019663176499307156,0.003683373797684908,0.039283402264118195,-0.0024174542631953955,-0.00021803792333230376,-0.002868575742468238,-0.003023743163794279,0.0,0.0,0.0,0.00101387407630682,-0.003570069093257189,-0.0,0.0,0.0,0.0,-0.0008766679093241692,-0.011931140907108784,-0.0002474741486366838,12590.0,14506.0,14183.0,12708.0,0.35032811760902405,0.47338029742240906,0.4513475000858307,0.3573859632015228,0.0,0.0,0.0,0.0,12561.0,14530.0,14154.0,12740.0,1.6654144525527954,0.019846626354909625,-0.26836124542608836,-3.1143121081681455,0.01432681642472744,0.0031297868117690086,0.0
138,5,-7.149989414756419e-06,-1.3474518709699623e-05,-1.1060911674576346e-05,0.00014332227874547243,0.00019138710922561586,-0.0009011367801576853,0.003683373797684908,0.039283402264118195,-0.0024174542631953955,-0.00021803792333230376,-0.002868575742468238,-0.003023743163794279,0.0,0.0,0.0,-0.0012820590054616332,0.0006576032610610127,-0.0,0.0,0.0,0.0,-0.0008766679093241692,-0.011931140907108784,-0.0002474741486366838,12590.0,14506.0,14183.0,12708.0,0.35032811760902405,0.47338029742240906,0.4513475000858307,0.3573859632015228,0.0,0.0,0.0,0.0,12561.0,14530.0,14154.0,12740.0,1.6384433507919312,0.020493352458579493,-0.26770770861600784,-3.1146407946669363,-0.002596252365037799,-0.0038935684133321047,0.0
144,5,1.3435217624646612e-05,-1.3322942322702147e-05,-3.1913325074128807e-05,0.0025275538209825754,5.836561831529252e-05,0.0021418347023427486,0.0036996002309024334,0.0393441803753376,-0.002406327286735177,-0.001887803664430976,-0.006245506461709738,-0.0017351873684674501,0.0,0.0,0.0,-0.0012820590054616332,0.0006576032610610127,-0.0,0.0,0.0,0.0,-0.0010222032433375716,-0.01206995826214552,-0.00021791801555082202,12591.0,14496.0,14182.0,12662.0,0.35040047764778137,0.47267600893974304,0.451293021440506,0.3546569049358368,0.0,0.0,0.0,0.0,12582.0,14504.0,14167.0,12678.0,1.6384433507919312,0.02006555919538036,-0.26895454511229394,-3.1143439944852975,-0.002596252365037799,-0.0038935684133321047,0.0
149,5,7.95854430180043e-06,-2.4156719518941827e-05,-3.197976548108272e-05,0.00035382076748646796,0.0013233994832262397,0.0008647068752907217,0.0036996002309024334,0.0393441803753376,-0.002406327286735177,-0.001887803664430976,-0.006245506461709738,-0.0017351873684674501,0.0,0.0,0.0,-0.0012820590054616332,0.0006576032610610127,-0.0,0.0,0.0,0.0,-0.0010222032433375716,-0.01206995826214552,-0.00021791801555082202,12591.0,14496.0,14182.0,12662.0,0.35040047764778137,0.47267600893974304,0.451293021440506,0.3546569049358368,0.0,0.0,0.0,0.0,12582.0,14504.0,14167.0,12678.0,1.6384433507919312,0.020761939454609683,-0.2685411418321775,-3.114178405301345,-0.0013704722514376044,-0.005095926113426685,0.0
154,5,1.488021734985523e-05,-6.842557922936976e-06,-1.636788329051342e-05,0.0009721289970912039,-0.0015483394963666797,-0.001527543063275516,0.0036896977107971907,0.039393939077854156,-0.002410982036963105,0.0033145698253065348,0.001480466453358531,-0.0013639579992741346,0.0,0.0,0.0,-0.001676311600022018,0.0003467837523203343,-0.0,0.0,0.0,0.0,-0.0008567845798097551,-0.013044934719800949,-0.00026707767392508686,12653.0,14689.0,14379.0,12760.0,0.3540959656238556,0.4861126244068146,0.46467551589012146,0.3605303466320038,0.0,0.0,0.0,0.0,12663.0,14673.0,14376.0,12772.0,1.6400617361068726,0.02044854077068486,-0.26866962786525267,-3.1142047815626683,-0.0013704722514376044,-0.005095926113426685,0.0
159,5,6.406834017980145e-06,-1.0291521903127432e-05,-3.0374721973203123e-05,-0.0006279543740674853,-0.00020546017913147807,0.0010698034893721342,0.0036896977107971907,0.039393939077854156,-0.002410982036963105,0.0033145698253065348,0.001480466453358531,-0.0013639579992741346,0.0,0.0,0.0,-0.001676311600022018,0.0003467837523203343,-0.0,0.0,0.0,0.0,-0.0008567845798097551,-0.013044934719800949,-0.00026707767392508686,12653.0,14689.0,14379.0,12760.0,0.3540959656238556,0.4861126244068146,0.46467551589012146,0.3605303466320038,0.0,0.0,0.0,0.0,12663.0,14673.0,14376.0,12772.0,1.6400617361068726,0.019927379387674558,-0.26850934229003,-3.114239062990954,-0.0013704722514376044,-0.005095926113426685,0.0
164,5,-4.163015546509996e-06,6.745480732206488e-06,1.5088367945281789e-05,-0.0015195637242868543,-0.0021266243420541286,-0.005027649458497763,0.003664381103590131,0.03933735564351082,-0.002427249914035201,-0.0022580961231142282,-0.00036307325353845954,-0.001085209776647389,0.0,0.0,0.0,0.00023582440917380154,-0.000589753151871264,-0.0,0.0,0.0,0.0,-0.0016585562843829393,-0.0116633465513587,0.0009761390392668545,12669.0,14553.0,14138.0,12724.0,0.355060875415802,0.4766630530357361,0.4483484625816345,0.35837095975875854,0.0,0.0,0.0,0.0,12757.0,14472.0,14231.0,12626.0,1.6323339939117432,0.019117801114861596,-0.2685325856042503,-3.1141817247147303,0.002319696359336376,0.0007135202758945525,0.0
169,5,-2.0999141270294785e-05,4.4196344788360875e-06,1.988803342101164e-05,-0.0026281606405973434,-0.0005715481820516288,-0.0025870196986943483,0.003664381103590131,0.03933735564351082,-0.002427249914035201,-0.0022580961231142282,-0.00036307325353845954,-0.001085209776647389,0.0,0.0,0.0,0.00023582440917380154,-0.000589753151871264,-0.0,0.0,0.0,0.0,-0.0016585562843829393,-0.0116633465513587,0.0009761390392668545,12669.0,14553.0,14138.0,12724.0,0.355060875415802,0.4766630530357361,0.4483484625816345,0.35837095975875854,0.0,0.0,0.0,0.0,12757.0,14472.0,14231.0,12626.0,1.6323339939117432,0.019089998533556703,-0.2667083399712662,-3.114782586250572,0.002319696359336376,0.0007135202758945525,0.0
174,5,-3.69381882592279e-06,-8.956682904681657e-06,-4.2697680328274146e-05,0.0010253745131194592,0.0013765388866886497,0.006475477945059538,0.0036494878586381674,0.03929927945137024,-0.0021561114117503166,0.003982768394052982,0.0010707955807447433,0.008150964044034481,0.0,0.0,0.0,0.000707182683981955,-0.0025027936790138483,-0.0,0.0,0.0,0.0,-0.0010362245375290513,-0.01251887809485197,-0.000577530765440315,13083.0,14225.0,14489.0,12301.0,0.38026249408721924,0.4541708827018738,0.47220903635025024,0.3334193229675293,0.0,0.0,0.0,0.0,12044.0,15108.0,13584.0,13298.0,1.6533863544464111,0.019698512238815722,-0.26821152068518134,-3.1145907440965064,0.009971275925636292,0.0021672770380973816,0.0
179,5,-2.467945341777522e-05,-3.1361178116640076e-06,-1.8562084733275697e-05,-0.002108126413077116,-0.00014785228995606303,-0.00030608047381974757,0.0036494878586381674,0.03929927945137024,-0.0021561114117503166,0.003982768394052982,0.0010707955807447433,0.008150964044034481,0.0,0.0,0.0,0.000707182683981955,-0.0025027936790138483,-0.0,0.0,0.0,0.0,-0.0010362245375290513,-0.01251887809485197,-0.000577530765440315,13083.0,14225.0,14489.0,12301.0,0.38026249408721924,0.4541708827018738,0.47220903635025024,0.3334193229675293,0.0,0.0,0.0,0.0,12044.0,15108.0,13584.0,13298.0,1.6533863544464111,0.019266692043577976,-0.26927518113401105,-3.1140802348780454,0.009971275925636292,0.0021672770380973816,0.0
184,5,-1.023888307827292e-05,-5.796625373477582e-06,-2.9071563403704204e-05,0.0008896179497241974,0.00026011999580077827,0.0011387052945792675,0.0036494878586381674,0.03929927945137024,-0.0021561114117503166,0.003982768394052982,0.0010707955807447433,0.008150964044034481,0.0,0.0,0.0,0.00017579030827619135,-0.0020255118142813444,-0.0,0.0,0.0,0.0,-0.0010362245375290513,-0.01251887809485197,-0.000577530765440315,13083.0,14225.0,14489.0,12301.0,0.38026249408721924,0.4541708827018738,0.47220903635025024,0.3334193229675293,0.0,0.0,0.0,0.0,12044.0,15108.0,13584.0,13298.0,1.6475908756256104,0.020070886083115008,-0.26850684304955813,-3.114495647648279,0.008041475899517536,0.0005368498968891799,0.0
189,5,-1.948740828083828e-05,-1.0298485904058907e-06,-1.2695073564827908e-05,-0.0007539758225902915,-0.00046796523383818567,-0.001509696594439447,0.00371139170601964,0.03931814804673195,-0.002693244256079197,-0.003632051171734929,-0.023394374176859856,0.05691155791282654,0.0,0.0,0.0,0.00017579030827619135,-0.0020255118142813444,-0.0,0.0,0.0,0.0,-0.0009191230637952685,-0.011629973538219929,-0.002581514185294509,12785.0,14353.0,14429.0,12403.0,0.3620418310165405,0.46285927295684814,0.46807998418807983,0.33935290575027466,0.0,0.0,0.0,0.0,13811.0,13370.0,15323.0,11266.0,1.6475908756256104,0.01911440508718404,-0.26800566175694984,-3.115296641433205,0.008041475899517536,0.0005368498968891799,0.0
194,5,-1.621031333343126e-05,-1.3160308299120516e-05,-2.520450289011933e-05,9.166103700408712e-05,0.0012684691464528441,0.0008972527575679123,0.00371139170601964,0.03931814804673195,-0.002693244256079197,-0.003632051171734929,-0.023394374176859856,0.05691155791282654,0.0,0.0,0.0,0.0005770620191469789,-0.0007449418189935386,-0.0,0.0,0.0,0.0,-0.0009191230637952685,-0.011629973538219929,-0.002581514185294509,12785.0,14353.0,14429.0,12403.0,0.3620418310165405,0.46285927295684814,0.46807998418807983,0.33935290575027466,0.0,0.0,0.0,0.0,13811.0,13370.0,15323.0,11266.0,1.6350183486938477,0.02046871445233818,-0.26758425511719175,-3.1140439338945582,0.0029349233955144882,0.0017488542944192886,0.0
199,5,-5.381545634008944e-06,-1.0841668881766964e-05,-2.803318238875363e-05,0.0013361164601519704,0.00022915087174624205,0.0006983426865190268,0.003709860611706972,0.03920937702059746,-0.0025131073780357838,0.0011439259396865964,0.03765115141868591,-0.18106327950954437,0.0,0.0,0.0,0.0005770620191469789,-0.0007449418189935386,-0.0,0.0,0.0,0.0,-0.0009843395091593266,-0.01338184718042612,0.003943511284887791,11025.0,15859.0,12760.0,14281.0,0.2635093331336975,0.5713484883308411,0.36052316427230835,0.4580053687095642,0.0,0.0,0.0,0.0,11145.0,15769.0,12974.0,14097.0,1.6350183486938477,0.019175405794988984,-0.2684280836878901,-3.114537248793924,0.0029349233955144882,0.0017488542944192886,0.0
205,5,-4.816704858967569e-06,2.336853185624932e-06,2.0362880604807287e-05,0.0006022275192663074,-0.0014897623332217336,-0.005528190638870001,0.003709860611706972,0.03920937702059746,-0.0025131073780357838,0.0011439259396865964,0.03765115141868591,-0.18106327950954437,0.0,0.0,0.0,-0.00030252215219661593,0.0012607017997652292,-0.0,0.0,0.0,0.0,-0.0009843395091593266,-0.01338184718042612,0.003943511284887791,11025.0,15859.0,12760.0,14281.0,0.2635093331336975,0.5713484883308411,0.36052316427230835,0.4580053687095642,0.0,0.0,0.0,0.0,11145.0,15769.0,12974.0,14097.0,1.6394855976104736,0.018572529934778585,-0.26867476400016677,-3.114492966190998,-0.00498048635199666,-0.0009193340083584189,0.0
210,5,1.494614753028145e-05,-1.2366625924187247e-05,-2.222730290668551e-05,0.002612433163449168,0.0011685126228258014,0.002899545943364501,0.0036558182910084724,0.039338916540145874,-0.0021655966993421316,-0.009677082300186157,-1.7961750927497633e-05,0.09679973125457764,0.0,0.0,0.0,-0.00030252215219661593,0.0012607017997652292,-0.0,0.0,0.0,0.0,-0.000938513083383441,-0.011404285207390785,-0.000810087367426604,12996.0,14173.0,14484.0,12373.0,0.3748866021633148,0.45070716738700867,0.47186872363090515,0.337555855512619,0.0,0.0,0.0,0.0,13024.0,14220.0,14589.0,12380.0,1.6394855976104736,0.020817130897686147,-0.2680925489918077,-3.1137270990927877,-0.00498048635199666,-0.0009193340083584189,0.0
215,5,-1.9598605831561144e-06,1.2962069376953878e-05,2.8239755920367315e-05,-0.0009837476536631584,-0.0025720384437590837,-0.004896228667348623,0.0036558182910084724,0.039338916540145874,-0.0021655966993421316,-0.009677082300186157,-1.7961750927497633e-05,0.09679973125457764,0.0,0.0,0.0,-0.0014506628504022956,0.0024769646115601063,-0.0,0.0,0.0,0.0,-0.000938513083383441,-0.011404285207390785,-0.000810087367426604,12996.0,14173.0,14484.0,12373.0,0.3748866021633148,0.45070716738700867,0.47186872363090515,0.337555855512619,0.0,0.0,0.0,0.0,13024.0,14220.0,14589.0,12380.0,1.6550893783569336,0.0198980955767285,-0.26773812163878913,-3.1147126280133546,-0.00987852830439806,-0.0044503710232675076,0.0
220,5,-1.7123830957643804e-06,1.3945700629847124e-05,3.384356023161672e-05,-0.00036380175151862204,-0.0011468511074781418,-0.002630947856232524,0.0035707734059542418,0.039025064557790756,-0.0024311060551553965,-0.0005193352117203176,0.01307923998683691,0.07550680637359619,0.0,0.0,0.0,-0.0014506628504022956,0.0024769646115601063,-0.0,0.0,0.0,0.0,-0.000742987438570708,-0.011158823035657406,-0.001995841274037957,12008.0,15025.0,13560.0,13439.0,0.316647469997406,0.5099095702171326,0.4103406071662903,0.4025879502296448,0.0,0.0,0.0,0.0,13559.0,13617.0,15062.0,11677.0,1.6550893783569336,0.019294200196583535,-0.2680926971867,-3.114681353607643,-0.00987852830439806,-0.0044503710232675076,0.0
225,5,9.115591637964826e-06,1.0959337970462002e-07,6.606904935324565e-05,0.0011538362596184015,0.0012015923857688904,-0.004919438622891903,0.0035707734059542418,0.039025064557790756,-0.0024311060551553965,-0.0005193352117203176,0.01307923998683691,0.07550680637359619,0.0,0.0,0.0,0.0014414644101634622,-0.00034806778421625495,-0.0,0.0,0.0,0.0,-0.000742987438570708,-0.011158823035657406,-0.001995841274037957,12008.0,15025.0,13560.0,13439.0,0.316647469997406,0.5099095702171326,0.4103406071662903,0.4025879502296448,0.0,0.0,0.0,0.0,13559.0,13617.0,15062.0,11677.0,1.6381937265396118,0.020253283510423065,-0.266262106181751,-3.114673771955659,0.001373980427160859,0.004377009347081184,0.0
230,5,3.7423622416099533e-05,-1.2153275747550651e-05,6.463175668613985e-05,0.0038584982976317406,0.0019521813374012709,-0.0017952998168766499,0.003443427849560976,0.03899838775396347,-0.0023825184907764196,-0.01938963122665882,0.021587034687399864,-0.04813573136925697,0.0,0.0,0.0,0.0014414644101634622,-0.00034806778421625495,-0.0,0.0,0.0,0.0,-0.001270498032681644,-0.008653969503939152,0.0001978861982934177,12890.0,14438.0,13901.0,13166.0,0.36841073632240295,0.4687216579914093,0.43253961205482483,0.3854173719882965,0.0,0.0,0.0,0.0,12456.0,14665.0,13907.0,13074.0,1.6381937265396118,0.02003632718434925,-0.26557198046751196,-3.1146975960714203,0.001373980427160859,0.004377009347081184,0.0
235,5,5.405560295912437e-05,-1.8205262676929124e-05,9.07206122064963e-05,0.0035392367281019688,0.0015071108937263489,-0.0038487829733639956,0.003443427849560976,0.03899838775396347,-0.0023825184907764196,-0.01938963122665882,0.021587034687399864,-0.04813573136925697,0.0,0.0,0.0,-0.0023864724207669497,0.0036464431323111057,-0.0,0.0,0.0,0.0,-0.001270498032681644,-0.008653969503939152,0.0001978861982934177,12890.0,14438.0,13901.0,13166.0,0.36841073632240295,0.4687216579914093,0.43253961205482483,0.3854173719882965,0.0,0.0,0.0,0.0,12456.0,14665.0,13907.0,13074.0,1.6701661348342896,0.018707345782666973,-0.2669343106928198,-3.1146612272246297,-0.014675023965537548,-0.007387949153780937,0.0
240,5,5.559391502174549e-05,3.57265048478439e-06,0.00015933102986309677,0.0016002922784537077,-0.0020105051808059216,-0.009772762656211853,0.0030917287804186344,0.03697321191430092,-0.0024003225844353437,0.007682192604988813,0.23618339002132416,0.06346606463193893,0.0,0.0,0.0,-0.0023864724207669497,0.0036464431323111057,-0.0,0.0,0.0,0.0,-0.0014365904498845339,-0.005448616109788418,0.0013691876083612442,13942.0,13487.0,14411.0,12539.0,0.435280442237854,0.40565025806427,0.4668154716491699,0.34734320640563965,0.0,0.0,0.0,0.0,12275.0,14928.0,13216.0,13889.0,1.6701661348342896,0.019365080425750178,-0.2643161209321665,-3.114629537982917,-0.014675023965537548,-0.007387949153780937,0.0
245,5,0.00010067742550745606,-1.9496050299494527e-05,0.00018627758254297078,0.006050138268619776,0.0019640419632196426,-0.007142690941691399,0.0030917287804186344,0.03697321191430092,-0.0024003225844353437,0.007682192604988813,0.23618339002132416,0.06346606463193893,0.0,0.0,0.0,0.002467833459377289,0.0015839622355997562,-0.0,0.0,0.0,0.0,-0.0014365904498845339,-0.005448616109788418,0.0013691876083612442,13942.0,13487.0,14411.0,12539.0,0.435280442237854,0.40565025806427,0.4668154716491699,0.34734320640563965,0.0,0.0,0.0,0.0,12275.0,14928.0,13216.0,13889.0,1.652416467666626,0.019554747129437274,-0.2627999642758778,-3.1148993890273187,-0.006306882482022047,0.007558630313724279,0.0
250,5,0.00013072267756797373,-2.612343814689666e-05,0.00024228899565059692,0.0060254852287471294,0.0015809034230187535,-0.009578446857631207,0.0027570228558033705,0.03407040983438492,-0.0026298847515136003,-0.040368739515542984,0.23673944175243378,0.007191953249275684,0.0,0.0,0.0,0.002467833459377289,0.0015839622355997562,-0.0,0.0,0.0,0.0,1.9605254237831105e-06,-0.004105004947632551,-0.0015851882053539157,12913.0,14134.0,13548.0,13566.0,0.36979150772094727,0.4480709433555603,0.409593403339386,0.41073787212371826,0.0,0.0,0.0,0.0,13569.0,13570.0,14240.0,12768.0,1.652416467666626,0.019005386456131142,-0.26381410280599055,-3.1140428096972976,-0.006306882482022047,0.007558630313724279,0.0
255,5,0.00016905095253605396,-5.9322490415070206e-05,0.0002045289147645235,0.007009586784988642,0.004616247955709696,0.000699830474331975,0.0027570228558033705,0.03407040983438492,-0.0026298847515136003,-0.040368739515542984,0.23673944175243378,0.007191953249275684,0.0,0.0,0.0,-0.0019377217395231128,0.005722870118916035,-0.0,0.0,0.0,0.0,1.9605254237831105e-06,-0.004105004947632551,-0.0015851882053539157,12913.0,14134.0,13548.0,13566.0,0.36979150772094727,0.4480709433555603,0.409593403339386,0.41073787212371826,0.0,0.0,0.0,0.0,13569.0,13570.0,14240.0,12768.0,1.6907259225845337,0.019189024508518147,-0.2638421141746422,-3.113716068395431,-0.02331502176821232,-0.006072571966797113,0.0
260,5,0.0001685382885625586,-6.422615115297958e-05,0.00024361346731893718,0.002742315176874399,0.002434937981888652,-0.004410213325172663,0.0027570228558033705,0.03407040983438492,-0.0026298847515136003,-0.040368739515542984,0.23673944175243378,0.007191953249275684,0.0,0.0,0.0,-0.0019377217395231128,0.005722870118916035,-0.0,0.0,0.0,0.0,-0.0008921637199819088,-0.0022980826906859875,-0.0016709903720766306,12732.0,14657.0,12895.0,14292.0,0.35883191227912903,0.4838770925998688,0.3687081038951874,0.45874902606010437,0.0,0.0,0.0,0.0,13920.0,13543.0,14228.0,12961.0,1.6907259225845337,0.018784980479969713,-0.26139631715904893,-3.114665178332768,-0.02331502176821232,-0.006072571966797113,0.0
265,5,0.0001960763765964657,-8.216051355702803e-05,0.0003254618204664439,0.004401497542858124,0.0031260992400348186,-0.011585887521505356,0.0027570228558033705,0.03407040983438492,-0.0026298847515136003,-0.040368739515542984,0.23673944175243378,0.007191953249275684,0.0,0.0,0.0,-0.0039018660318106413,0.004335013683885336,-0.0,0.0,0.0,0.0,-0.0008921637199819088,-0.0022980826906859875,-0.0016709903720766306,12732.0,14657.0,12895.0,14292.0,0.35883191227912903,0.4838770925998688,0.3687081038951874,0.45874902606010437,0.0,0.0,0.0,0.0,13920.0,13543.0,14228.0,12961.0,1.6834863424301147,0.017484835072600725,-0.2607683292865525,-3.1142142296506305,-0.01758519932627678,-0.012175547890365124,0.0
271,5,0.00020169040362816304,-0.00011113750952063128,0.0003424831957090646,0.002434282097965479,0.004727678373456001,-0.006676920689642429,0.002157418755814433,0.02945796586573124,-0.0023780378978699446,-0.01637217216193676,0.1643684059381485,0.03347570449113846,0.0,0.0,0.0,-0.0039018660318106413,0.004335013683885336,-0.0,0.0,0.0,0.0,0.0002325302775716409,-0.0047299242578446865,0.001620217808522284,13687.0,13474.0,14355.0,12851.0,0.4185482859611511,0.4048272967338562,0.46300840377807617,0.3660324811935425,0.0,0.0,0.0,0.0,12403.0,14636.0,12840.0,14389.0,1.6834863424301147,0.016707358665842813,-0.26066347070634105,-3.1140563249261226,-0.01758519932627678,-0.012175547890365124,0.0
276,5,0.00025206126156263053,-0.00015926192281767726,0.0002821604139171541,0.0070182159543037415,0.007666001096367836,0.004567967262119055,0.002157418755814433,0.02945796586573124,-0.0023780378978699446,-0.01637217216193676,0.1643684059381485,0.03347570449113846,0.0,0.0,0.0,-0.009214214980602264,0.006629102863371372,-0.0,0.0,0.0,0.0,0.0002325302775716409,-0.0047299242578446865,0.001620217808522284,13687.0,13474.0,14355.0,12851.0,0.4185482859611511,0.4048272967338562,0.46300840377807617,0.3660324811935425,0.0,0.0,0.0,0.0,12403.0,14636.0,12840.0,14389.0,1.7346011400222778,0.018051212558270552,-0.26151389683165804,-3.1132596061990436,-0.0277066919952631,-0.02962479554116726,-0.0
281,5,0.00024338775256182998,-0.00017732066044118255,0.0003382107533980161,0.0017664642073214054,0.00523344986140728,-0.004898854065686464,0.0020422309171408415,0.02837803028523922,-0.0027825161814689636,-0.04092755168676376,0.04000318422913551,0.06310968101024628,0.0,0.0,0.0,-0.009214214980602264,0.006629102863371372,-0.0,0.0,0.0,0.0,-0.0007432291749864817,-0.004960391670465469,-0.00025245084543712437,13584.0,13998.0,14267.0,13124.0,0.4119120240211487,0.4389786720275879,0.45704030990600586,0.38279491662979126,0.0,0.0,0.0,0.0,13213.0,14417.0,13527.0,13815.0,1.7346011400222778,0.016042185130519068,-0.2616813568103603,-3.1127672605823284,-0.0277066919952631,-0.02962479554116726,-0.0
286,5,0.00026178330881521106,-0.0002133490634150803,0.0003268637810833752,0.0029140524566173553,0.006416787393391132,-0.0005979054258204997,0.0020422309171408415,0.02837803028523922,-0.0027825161814689636,-0.04092755168676376,0.04000318422913551,0.06310968101024628,0.0,0.0,0.0,-0.009214214980602264,0.006629102863371372,-0.0,0.0,0.0,0.0,-0.0007432291749864817,-0.004960391670465469,-0.00025245084543712437,13584.0,13998.0,14267.0,13124.0,0.4119120240211487,0.4389786720275879,0.45704030990600586,0.38279491662979126,0.0,0.0,0.0,0.0,13213.0,14417.0,13527.0,13815.0,1.7346011400222778,0.018673102201874892,-0.259427160626454,-3.1131607884351795,-0.0277066919952631,-0.02962479554116726,-0.0
291,5,0.0002761870564427227,-0.0002570896758697927,0.00034767770557664335,0.0028940720949321985,0.00781558733433485,-0.002736835042014718,0.0018292961176484823,0.027957051992416382,-0.0027181769255548716,0.020307209342718124,0.006394135300070047,-0.10017745941877365,0.0,0.0,0.0,-0.008002704940736294,0.0030173291452229023,-0.0,0.0,0.0,0.0,-0.0014474858762696385,-0.0066268835216760635,-0.001384324161335826,12273.0,15249.0,13057.0,14119.0,0.3317605257034302,0.5260469317436218,0.3786517381668091,0.44702714681625366,0.0,0.0,0.0,0.0,14173.0,13404.0,14898.0,12271.0,1.70147705078125,0.017698111095949036,-0.2602295287300545,-3.1128294567926376,-0.012370467185974121,-0.02523846924304962,0.0
296,5,0.0002860130334738642,-0.00027840613620355725,0.00036529111093841493,0.002336745150387287,0.005684211850166321,-0.003208341309800744,0.0018292961176484823,0.027957051992416382,-0.0027181769255548716,0.020307209342718124,0.006394135300070047,-0.10017745941877365,0.0,0.0,0.0,-0.008002704940736294,0.0030173291452229023,-0.0,0.0,0.0,0.0,-0.0014474858762696385,-0.0066268835216760635,-0.001384324161335826,12273.0,15249.0,13057.0,14119.0,0.3317605257034302,0.5260469317436218,0.3786517381668091,0.44702714681625366,0.0,0.0,0.0,0.0,14173.0,13404.0,14898.0,12271.0,1.70147705078125,0.018873593018631684,-0.2596081672824354,-3.1126546727437203,-0.012370467185974121,-0.02523846924304962,0.0
301,5,0.00028393903630785644,-0.0003029154322575778,0.00040583263034932315,0.0006858182605355978,0.00521479919552803,-0.006148317363113165,0.0018292961176484823,0.027957051992416382,-0.0027181769255548716,0.020307209342718124,0.006394135300070047,-0.10017745941877365,0.0,0.0,0.0,-0.0072799865156412125,0.002534063532948494,-0.0,0.0,0.0,0.0,-0.0014474858762696385,-0.0066268835216760635,-0.001384324161335826,12273.0,15249.0,13057.0,14119.0,0.3317605257034302,0.5260469317436218,0.3786517381668091,0.44702714681625366,0.0,0.0,0.0,0.0,14173.0,13404.0,14898.0,12271.0,1.6933858394622803,0.018218649705509196,-0.25977787420820686,-3.113090120396088,-0.01033982913941145,-0.022850099951028824,0.0
306,5,0.0003028143255505711,-0.000331898161675781,0.00046013802057132125,0.002539363456889987,0.005563848651945591,-0.008975976146757603,0.0019372724927961826,0.028117571026086807,-0.0020984159782528877,-0.007068218197673559,-0.0030457195825874805,0.009277991950511932,0.0,0.0,0.0,-0.0072799865156412125,0.002534063532948494,-0.0,0.0,0.0,0.0,-0.0032811560668051243,-0.007221716921776533,0.0026788932736963034,14278.0,13965.0,14802.0,12517.0,0.45775026082992554,0.4367893934249878,0.4940192699432373,0.3460422158241272,0.0,0.0,0.0,0.0,13439.0,14845.0,13909.0,13428.0,1.6933858394622803,0.018418201924154384,-0.25981675971660295,-3.1131663181010905,-0.01033982913941145,-0.022850099951028824,0.0
311,5,0.00030958978459239006,-0.00036825911956839263,0.00043385630124248564,0.0018287976272404194,0.006588852498680353,-0.00043658248614519835,0.0019372724927961826,0.028117571026086807,-0.0020984159782528877,-0.007068218197673559,-0.0030457195825874805,0.009277991950511932,0.0,0.0,0.0,-0.007227733265608549,0.0027422159910202026,-0.0,0.0,0.0,0.0,-0.0032811560668051243,-0.007221716921776533,0.0026788932736963034,14278.0,13965.0,14802.0,12517.0,0.45775026082992554,0.4367893934249878,0.4940192699432373,0.3460422158241272,0.0,0.0,0.0,0.0,13439.0,14845.0,13909.0,13428.0,1.693983793258667,0.02080528046940101,-0.259049766860145,-3.112334999463122,-0.011193114332854748,-0.02269410528242588,0.0
316,5,0.00031976765603758395,-0.00039290127460844815,0.0005269109969958663,0.0019528656266629696,0.005592599976807833,-0.011341197416186333,0.0019921432249248028,0.0281071774661541,-0.0021300900261849165,-0.0014814016176387668,-0.013115614652633667,0.12022121995687485,0.0,0.0,0.0,-0.007227733265608549,0.0027422159910202026,-0.0,0.0,0.0,0.0,-0.0031718784011900425,-0.007583859842270613,-0.0005376192857511342,13960.0,14027.0,14608.0,12477.0,0.43646442890167236,0.4408724308013916,0.48045647144317627,0.34368371963500977,0.0,0.0,0.0,0.0,14443.0,13511.0,15078.0,11918.0,1.693983793258667,0.020077720551306993,-0.25725517851225327,-3.1135369698631408,-0.011193114332854748,-0.02269410528242588,0.0
321,5,0.00034267676528543234,-0.00041058706119656563,0.00047663127770647407,0.003530240384861827,0.004359333775937557,0.0014970873016864061,0.0019921432249248028,0.0281071774661541,-0.0021300900261849165,-0.0014814016176387668,-0.013115614652633667,0.12022121995687485,0.0,0.0,0.0,-0.007374546956270933,0.0022280733101069927,-0.0,0.0,0.0,0.0,-0.0031718784011900425,-0.007583859842270613,-0.0005376192857511342,13960.0,14027.0,14608.0,12477.0,0.43646442890167236,0.4408724308013916,0.48045647144317627,0.34368371963500977,0.0,0.0,0.0,0.0,14443.0,13511.0,15078.0,11918.0,1.6927950382232666,0.01982633550508947,-0.2588957424178515,-3.1126246022223563,-0.00908811017870903,-0.02313881553709507,0.0
326,5,0.00035897374618798494,-0.00038848796975798905,0.0005838024080730975,0.00336773251183331,-0.0009081546450033784,-0.012261699885129929,0.0019822069443762302,0.027730658650398254,-0.002321034437045455,-0.018730120733380318,0.055090487003326416,-0.08662697672843933,0.0,0.0,0.0,-0.007374546956270933,0.0022280733101069927,-0.0,0.0,0.0,0.0,-0.0026114534121006727,-0.006163942161947489,-0.003256778232753277,12186.0,15468.0,12748.0,14380.0,0.32674404978752136,0.5421199798583984,0.3598281443119049,0.46469369530677795,0.0,0.0,0.0,0.0,13263.0,14560.0,13880.0,13298.0,1.6927950382232666,0.020205259983978756,-0.2567935716407227,-3.1132364185218413,-0.00908811017870903,-0.02313881553709507,0.0
331,5,0.0003657369234133512,-0.0004020341148134321,0.0005708487005904317,0.0021586758084595203,0.001262273290194571,-0.0033502373844385147,0.0019822069443762302,0.027730658650398254,-0.002321034437045455,-0.018730120733380318,0.055090487003326416,-0.08662697672843933,0.0,0.0,0.0,0.00040879318839870393,0.0036408191081136465,-0.0,0.0,0.0,0.0,-0.0026114534121006727,-0.006163942161947489,-0.003256778232753277,12186.0,15468.0,12748.0,14380.0,0.32674404978752136,0.5421199798583984,0.3598281443119049,0.46469369530677795,0.0,0.0,0.0,0.0,13263.0,14560.0,13880.0,13298.0,1.6654152870178223,0.01977346859955455,-0.2578894966954633,-3.1137558836852217,-0.014610751532018185,0.0012619284680113196,0.0
337,5,0.00038652773946523666,-0.0004101284430362284,0.0005994662642478943,0.0033583668991923332,0.0014762282371520996,-0.004774199333041906,0.0018905673641711473,0.02720707096159458,-0.0017574367811903358,-0.015602631494402885,0.07356232404708862,-0.005168713629245758,0.0,0.0,0.0,0.00040879318839870393,0.0036408191081136465,-0.0,0.0,0.0,0.0,-0.0025821481831371784,-0.006463105324655771,0.0019171874737367034,13813.0,14047.0,14299.0,12847.0,0.42675215005874634,0.44219791889190674,0.4592297077178955,0.3658040165901184,0.0,0.0,0.0,0.0,12271.0,15408.0,12787.0,14347.0,1.6654152870178223,0.020513011066777376,-0.2563759432502192,-3.113360463343679,-0.014610751532018185,0.0012619284680113196,0.0
342,5,0.00038158585084602237,-0.00040042930049821734,0.000591557240113616,0.0007503207889385521,-0.0005734061123803258,-0.0009606023086234927,0.0018905673641711473,0.02720707096159458,-0.0017574367811903358,-0.015602631494402885,0.07356232404708862,-0.005168713629245758,0.0,0.0,0.0,-0.0025186033453792334,0.003658345201984048,-0.0,0.0,0.0,0.0,-0.0025821481831371784,-0.006463105324655771,0.0019171874737367034,13813.0,14047.0,14299.0,12847.0,0.42675215005874634,0.44219791889190674,0.4592297077178955,0.3658040165901184,0.0,0.0,0.0,0.0,12271.0,15408.0,12787.0,14347.0,1.6708027124404907,0.02031521648125028,-0.25669724257012205,-3.1129368410752827,-0.014728530310094357,-0.00779996532946825,0.0
347,5,0.0003838983830064535,-0.00038186178426258266,0.000615915167145431,0.0005776318721473217,-0.002457463415339589,-0.0033071881625801325,0.001867258339188993,0.02664199471473694,-0.002061536069959402,-0.023917531594634056,0.05225561559200287,0.1581484079360962,0.0,0.0,0.0,-0.0025186033453792334,0.003658345201984048,-0.0,0.0,0.0,0.0,-0.002298796782270074,-0.006348502356559038,0.0014514209469780326,14491.0,13303.0,15013.0,12022.0,0.47236862778663635,0.3939635455608368,0.5090135931968689,0.31744930148124695,0.0,0.0,0.0,0.0,14670.0,13111.0,15217.0,11751.0,1.6708027124404907,0.0189383498433061,-0.25646553883104767,-3.113209755142099,-0.014728530310094357,-0.00779996532946825,0.0
352,5,0.0003935109416488558,-0.0003783704887609929,0.0006367830210365355,0.0013845596695318818,-0.0014019404770806432,-0.0038270200602710247,0.001867258339188993,0.02664199471473694,-0.002061536069959402,-0.023917531594634056,0.05225561559200287,0.1581484079360962,0.0,0.0,0.0,0.002325769979506731,0.001079564681276679,-0.0,0.0,0.0,0.0,-0.002298796782270074,-0.006348502356559038,0.0014514209469780326,14491.0,13303.0,15013.0,12022.0,0.47236862778663635,0.3939635455608368,0.5090135931968689,0.31744930148124695,0.0,0.0,0.0,0.0,14670.0,13111.0,15217.0,11751.0,1.6482404470443726,0.020401305502334436,-0.2555174361890774,-3.1127621732940822,-0.0042876554653048515,0.007105508353561163,0.0
357,5,0.00039297319017350674,-0.0003801780112553388,0.0006038759020157158,0.0004892919678241014,-0.0003438742714934051,0.0024180454201996326,0.0015412234934046865,0.02590726688504219,-0.002242008224129677,-0.023957083001732826,0.06686156243085861,-0.0864834412932396,0.0,0.0,0.0,0.002325769979506731,0.001079564681276679,-0.0,0.0,0.0,0.0,-0.0009358332608826458,-0.005662925075739622,0.0014644975308328867,13196.0,14249.0,13841.0,13384.0,0.38729164004325867,0.4558112919330597,0.42859145998954773,0.39910832047462463,0.0,0.0,0.0,0.0,13625.0,13706.0,14417.0,12814.0,1.6482404470443726,0.020378144191657965,-0.25526952821759147,-3.1123357486618217,-0.0042876554653048515,0.007105508353561163,0.0
362,5,0.00039577684947289526,-0.00035977971856482327,0.0006452608504332602,0.0005321574280969799,-0.0025853437837213278,-0.003998972941190004,0.0015412234934046865,0.02590726688504219,-0.002242008224129677,-0.023957083001732826,0.06686156243085861,-0.0864834412932396,0.0,0.0,0.0,-0.0002678052696865052,0.0010160921374335885,-0.0,0.0,0.0,0.0,-0.0009358332608826458,-0.005662925075739622,0.0014644975308328867,13196.0,14249.0,13841.0,13384.0,0.38729164004325867,0.4558112919330597,0.42859145998954773,0.39910832047462463,0.0,0.0,0.0,0.0,13625.0,13706.0,14417.0,12814.0,1.6368422508239746,0.019509693994864023,-0.2547903811930228,-3.113562217420081,-0.0040076677687466145,-0.0008125207968987525,-0.0
367,5,0.00038969909655861557,-0.0003609077539294958,0.0006188435945659876,-0.0005164690664969385,-0.0008987737237475812,0.0015704822726547718,0.0014358607586473227,0.02559780701994896,-0.0014313755091279745,-0.014633644372224808,0.06852926313877106,-0.07127910107374191,0.0,0.0,0.0,-0.0002678052696865052,0.0010160921374335885,-0.0,0.0,0.0,0.0,0.00030784131377004087,-0.006869024597108364,0.0030512569937855005,14590.0,12420.0,15543.0,11360.0,0.4792211949825287,0.34030577540397644,0.5476478338241577,0.28106561303138733,0.0,0.0,0.0,0.0,11771.0,15451.0,12379.0,14726.0,1.6368422508239746,0.019601207664491107,-0.2554969195303245,-3.1126452775046625,-0.0040076677687466145,-0.0008125207968987525,-0.0
372,5,0.00038283949834294617,-0.0003559902834240347,0.0006141682388260961,-0.001029737526550889,-0.0009496068232692778,0.0011892324546352029,0.0014358607586473227,0.02559780701994896,-0.0014313755091279745,-0.014633644372224808,0.06852926313877106,-0.07127910107374191,0.0,0.0,0.0,0.0004545964184217155,5.588115527643822e-05,-0.0,0.0,0.0,0.0,0.00030784131377004087,-0.006869024597108364,0.0030512569937855005,14590.0,12420.0,15543.0,11360.0,0.4792211949825287,0.34030577540397644,0.5476478338241577,0.28106561303138733,0.0,0.0,0.0,0.0,11771.0,15451.0,12379.0,14726.0,1.6295205354690552,0.020091047424443766,-0.25635107483222075,-3.1124254641704727,-0.00021942044259048998,0.0013730754144489765,-0.0
377,5,0.0004059293132741004,-0.00036154681583866477,0.0006467968923971057,0.002358880592510104,0.0002869421150535345,-0.0034397405106574297,0.0012742670951411128,0.024554552510380745,-0.002066848101094365,-0.006407363805919886,0.03125287592411041,-0.06796286255121231,0.0,0.0,0.0,0.0004545964184217155,5.588115527643822e-05,-0.0,0.0,0.0,0.0,-0.0006095257704146206,-0.005665414966642857,-0.004667569417506456,11532.0,15329.0,12443.0,14501.0,0.2903282344341278,0.5318481922149658,0.34165188670158386,0.47301390767097473,0.0,0.0,0.0,0.0,14246.0,12834.0,15119.0,11908.0,1.6295205354690552,0.020038093340198352,-0.25488623648905173,-3.1134968418421356,-0.00021942044259048998,0.0013730754144489765,-0.0
382,5,0.0004079534555785358,-0.00035049006692133844,0.0006609157426282763,0.0011864496627822518,-0.0012120308820158243,-0.0030701591167598963,0.0012742670951411128,0.024554552510380745,-0.002066848101094365,-0.006407363805919886,0.03125287592411041,-0.06796286255121231,0.0,0.0,0.0,-0.0010022573405876756,0.002778333146125078,-0.0,0.0,0.0,0.0,-0.0006095257704146206,-0.005665414966642857,-0.004667569417506456,11532.0,15329.0,12443.0,14501.0,0.2903282344341278,0.5318481922149658,0.34165188670158386,0.47301390767097473,0.0,0.0,0.0,0.0,14246.0,12834.0,15119.0,11908.0,1.6569162607192993,0.02020468627370977,-0.25484439678584386,-3.112507214548316,-0.011092668399214745,-0.003078139154240489,0.0
388,5,0.00042572704842314124,-0.00037157631595619023,0.0006270110607147217,0.0026074121706187725,0.0020455357152968645,0.002840497763827443,0.0013496782630681992,0.024213600903749466,-0.0014649564400315285,-0.025552839040756226,0.05757018178701401,-0.13741090893745422,0.0,0.0,0.0,-0.0010022573405876756,0.002778333146125078,-0.0,0.0,0.0,0.0,-0.0004905271925963461,-0.0059401486068964005,0.0010593513725325465,12457.0,14501.0,13351.0,13663.0,0.34252339601516724,0.4730262756347656,0.3970038890838623,0.41696697473526,0.0,0.0,0.0,0.0,13994.0,13210.0,14781.0,12023.0,1.6569162607192993,0.020765396712193157,-0.2551144800389766,-3.1119159292389433,-0.011092668399214745,-0.003078139154240489,0.0
393,5,0.0004270985664334148,-0.0003304346464574337,0.0007091026636771858,0.0012075484264642,-0.004118786193430424,-0.00871479231864214,0.0013496782630681992,0.024213600903749466,-0.0014649564400315285,-0.025552839040756226,0.05757018178701401,-0.13741090893745422,0.0,0.0,0.0,-0.0031472325790673494,0.00301957200281322,-0.0,0.0,0.0,0.0,-0.0004905271925963461,-0.0059401486068964005,0.0010593513725325465,12457.0,14501.0,13351.0,13663.0,0.34252339601516724,0.4730262756347656,0.3970038890838623,0.41696697473526,0.0,0.0,0.0,0.0,13994.0,13210.0,14781.0,12023.0,1.6678106784820557,0.020040380684287713,-0.2535465054799415,-3.113461278175866,-0.012135040014982224,-0.009729327633976936,-0.0
398,5,0.0004463951918296516,-0.00033709820127114654,0.0007166949799284339,0.002798614092171192,-0.0008478884119540453,-0.004396999254822731,0.0014061069814488292,0.02378876879811287,-0.0013523282250389457,-0.0020592897199094296,0.005973039194941521,0.22403410077095032,0.0,0.0,0.0,-0.0031472325790673494,0.00301957200281322,-0.0,0.0,0.0,0.0,-0.0004199681570753455,-0.006680930964648724,0.0045715197920799255,15258.0,11873.0,15897.0,10696.0,0.5267221927642822,0.3090648353099823,0.5742688179016113,0.24686047434806824,0.0,0.0,0.0,0.0,10786.0,15772.0,11746.0,15046.0,1.6678106784820557,0.0205073826840616,-0.2533557045471551,-3.1121507803847104,-0.012135040014982224,-0.009729327633976936,-0.0
403,5,0.00043845814070664346,-0.00032362082856707275,0.0007362901233136654,0.00016699677507858723,-0.001956440508365631,-0.004110216163098812,0.0014061069814488292,0.02378876879811287,-0.0013523282250389457,-0.0020592897199094296,0.005973039194941521,0.22403410077095032,0.0,0.0,0.0,0.0004253142105881125,0.003239838406443596,-0.0,0.0,0.0,0.0,-0.0004199681570753455,-0.006680930964648724,0.0045715197920799255,15258.0,11873.0,15897.0,10696.0,0.5267221927642822,0.3090648353099823,0.5742688179016113,0.24686047434806824,0.0,0.0,0.0,0.0,10786.0,15772.0,11746.0,15046.0,1.6610188484191895,0.018805101899699108,-0.25407633524578566,-3.112240784088106,-0.012967283837497234,0.001309462240897119,0.0
408,5,0.0004380146274343133,-0.00031283506541512907,0.0007271277136169374,1.3579212463810109e-05,-0.0020768672693520784,-0.0005445926799438894,0.0014430438168346882,0.023155881091952324,-0.002088474342599511,0.028743362054228783,0.052923087030649185,-0.09917189180850983,0.0,0.0,0.0,0.0004253142105881125,0.003239838406443596,-0.0,0.0,0.0,0.0,-0.0008840109803713858,-0.004550349432975054,-0.006005418486893177,11483.0,15729.0,11954.0,14958.0,0.28764891624450684,0.5615200996398926,0.31357210874557495,0.5050695538520813,0.0,0.0,0.0,0.0,14504.0,12747.0,15214.0,11718.0,1.6610188484191895,0.01882043965325685,-0.25484827523546144,-3.112631180478538,-0.012967283837497234,0.001309462240897119,0.0
413,5,0.00044248110498301685,-0.0003296725044492632,0.0007198230014182627,0.0005414072657003999,0.0011897466611117125,0.0006587260868400335,0.0014430438168346882,0.023155881091952324,-0.002088474342599511,0.028743362054228783,0.052923087030649185,-0.09917189180850983,0.0,0.0,0.0,0.0019861783366650343,0.0006259420188143849,-0.0,0.0,0.0,0.0,-0.0008840109803713858,-0.004550349432975054,-0.006005418486893177,11483.0,15729.0,11954.0,14958.0,0.28764891624450684,0.5615200996398926,0.31357210874557495,0.5050695538520813,0.0,0.0,0.0,0.0,14504.0,12747.0,15214.0,11718.0,1.6434780359268188,0.020214889882563106,-0.25379185556301903,-3.1118355270322997,-0.0024788430891931057,0.00605048518627882,0.0
418,5,0.0004369037051219493,-0.00031644495902583003,0.0007107686251401901,-0.00045272440183907747,-0.0011114083463326097,0.0013500157510861754,0.0014196773990988731,0.022944282740354538,-0.0009227539994753897,-0.009321999736130238,0.06367798149585724,-0.1565713882446289,0.0,0.0,0.0,0.0019861783366650343,0.0006259420188143849,-0.0,0.0,0.0,0.0,-0.0011509412433952093,-0.005465602967888117,0.0010853320127353072,12678.0,14542.0,13370.0,13883.0,0.3555760383605957,0.47586965560913086,0.39820271730422974,0.43137043714523315,0.0,0.0,0.0,0.0,14286.0,13250.0,14847.0,12097.0,1.6434780359268188,0.02079082245152256,-0.25405269619573945,-3.111496477369316,-0.0024788430891931057,0.00605048518627882,0.0
423,5,0.00041929888539016247,-0.0003099054447375238,0.0006877901032567024,-0.002293667057529092,-0.001229303190484643,0.0032974258065223694,0.0014196773990988731,0.022944282740354538,-0.0009227539994753897,-0.009321999736130238,0.06367798149585724,-0.1565713882446289,0.0,0.0,0.0,0.0007960941875353456,0.00018445326713845134,-0.0,0.0,0.0,0.0,-0.0011509412433952093,-0.005465602967888117,0.0010853320127353072,12678.0,14542.0,13370.0,13883.0,0.3555760383605957,0.47586965560913086,0.39820271730422974,0.43137043714523315,0.0,0.0,0.0,0.0,14286.0,13250.0,14847.0,12097.0,1.6325756311416626,0.020377448957081844,-0.25419118178629463,-3.1125657454871947,-0.0007256236858665943,0.002409052336588502,-0.0
428,5,0.0004015032318420708,-0.00030844792490825057,0.0007154949707910419,-0.0030529461801052094,-0.0006666246918030083,-0.002005614573135972,0.0014196773990988731,0.022944282740354538,-0.0009227539994753897,-0.009321999736130238,0.06367798149585724,-0.1565713882446289,0.0,0.0,0.0,0.0007960941875353456,0.00018445326713845134,-0.0,0.0,0.0,0.0,-0.0011509412433952093,-0.005465602967888117,0.0010853320127353072,12678.0,14542.0,13370.0,13883.0,0.5596629977226257,0.274133563041687,0.6078178286552429,0.2194044589996338,0.0,0.0,0.0,0.0,10261.0,16345.0,11062.0,15725.0,1.6325756311416626,0.020515525616279912,-0.25338462373018217,-3.1117733225389137,-0.0007256236858665943,0.002409052336588502,-0.0
433,5,0.00040435418486595154,-0.00032635172829031944,0.0006718315416947007,-0.0008790622232481837,0.0018818058306351304,0.004437371622771025,0.0015066255582496524,0.02244124561548233,-0.0007375225541181862,-0.012672441080212593,0.021082095801830292,0.29104599356651306,0.0,0.0,0.0,0.00025622366229072213,-0.0023174528032541275,-0.0,0.0,0.0,0.0,-0.0006336745573207736,-0.005867908243089914,0.005236614961177111,15704.0,11229.0,16333.0,10130.0,0.5596629977226257,0.274133563041687,0.6078178286552429,0.2194044589996338,0.0,0.0,0.0,0.0,10261.0,16345.0,11062.0,15725.0,1.6508139371871948,0.021255258929121654,-0.25367222913004145,-3.111511053873499,0.009218505583703518,0.0007840177859179676,0.0
438,5,0.00037128067924641073,-0.0003195501631125808,0.000738025875762105,-0.002694756956771016,0.0019574330653995275,-0.0034093803260475397,0.0015066255582496524,0.02244124561548233,-0.0007375225541181862,-0.012672441080212593,0.021082095801830292,0.29104599356651306,0.0,0.0,0.0,0.00025622366229072213,-0.0023174528032541275,-0.0,0.0,0.0,0.0,-0.0006336745573207736,-0.005867908243089914,0.005236614961177111,15704.0,11229.0,16333.0,10130.0,0.5596629977226257,0.274133563041687,0.6078178286552429,0.2194044589996338,0.0,0.0,0.0,0.0,10261.0,16345.0,11062.0,15725.0,1.6508139371871948,0.02049854785411473,-0.2534310514996934,-3.1121549814971385,0.009218505583703518,0.0007840177859179676,0.0
443,5,0.00037333491491153836,-0.0003436839033383876,0.0007147430442273617,-0.0008313953876495361,0.003679019631817937,0.001430185162462294,0.00136795942671597,0.022119833156466484,-0.0021934148389846087,0.008763247169554234,0.04054586589336395,-0.11306512355804443,0.0,0.0,0.0,-0.002965877065435052,-0.0020116905216127634,-0.0,0.0,0.0,0.0,0.00025146128609776497,-0.0056679872795939445,-0.007699557114392519,10500.0,16022.0,11503.0,15355.0,0.2371584177017212,0.5837438106536865,0.2887583374977112,0.5338174700737,0.0,0.0,0.0,0.0,14559.0,12414.0,15450.0,11447.0,1.6586589813232422,0.02050484365753386,-0.2523731026756708,-3.111798887252351,0.008040220476686954,-0.009118379093706608,0.0
448,5,0.00038188527105376124,-0.0003433530800975859,0.000719304196536541,0.0006934865959919989,0.0014319116016849875,2.4735229089856148e-05,0.00136795942671597,0.022119833156466484,-0.0021934148389846087,0.008763247169554234,0.04054586589336395,-0.11306512355804443,0.0,0.0,0.0,-0.002965877065435052,-0.0020116905216127634,-0.0,0.0,0.0,0.0,0.00025146128609776497,-0.0056679872795939445,-0.007699557114392519,10500.0,16022.0,11503.0,15355.0,0.2371584177017212,0.5837438106536865,0.2887583374977112,0.5338174700737,0.0,0.0,0.0,0.0,14559.0,12414.0,15450.0,11447.0,1.6586589813232422,0.020460340478332836,-0.25359703534366995,-3.113208615944804,0.008040220476686954,-0.009118379093706608,0.0
453,5,0.0003692773461807519,-0.0003449349314905703,0.0007267066976055503,-0.0012355584185570478,0.0007625843863934278,-0.0008784031379036605,0.0013060872443020344,0.022096242755651474,-0.0013340214500203729,-0.01571926660835743,0.015651389956474304,-0.1943400651216507,0.0,0.0,0.0,-0.002381332218647003,0.0011890296591445804,-0.0,0.0,0.0,0.0,9.943686745828018e-05,-0.0071543012745678425,0.0015713153406977654,12232.0,14692.0,13263.0,13792.0,0.32941606640815735,0.4862809479236603,0.3914789855480194,0.42539963126182556,0.0,0.0,0.0,0.0,8907.0,17014.0,10336.0,16152.0,1.6492677927017212,0.02103196741718298,-0.25373120998796916,-3.111422685087423,-0.004725354723632336,-0.007279791869223118,-0.0
459,5,0.00033119748695753515,-0.00033543515019118786,0.0007867065141908824,-0.0050638047978281975,-0.0008349376148544252,-0.0075513445772230625,0.0013060872443020344,0.022096242755651474,-0.0013340214500203729,-0.01571926660835743,0.015651389956474304,-0.1943400651216507,0.0,0.0,0.0,-0.002381332218647003,0.0011890296591445804,-0.0,0.0,0.0,0.0,9.943686745828018e-05,-0.0071543012745678425,0.0015713153406977654,12232.0,14692.0,13263.0,13792.0,0.32941606640815735,0.4862809479236603,0.3914789855480194,0.42539963126182556,0.0,0.0,0.0,0.0,8907.0,17014.0,10336.0,16152.0,1.6492677927017212,0.020354703903233042,-0.2528863362136829,-3.111773119343317,-0.004725354723632336,-0.007279791869223118,-0.0
464,5,0.00033469474874436855,-0.00031524410587735474,0.0007621960830874741,-0.00160584959667176,-0.0027568999212235212,-7.928080594865605e-05,0.0015066841151565313,0.022058604285120964,-0.001530165085569024,0.0014578552218154073,-0.03976072371006012,0.3418193459510803,0.0,0.0,0.0,0.00040756541420705616,-0.0042542628943920135,-0.0,0.0,0.0,0.0,-0.0007083808304741979,-0.00832140352576971,0.005855454597622156,15844.0,10975.0,16755.0,9213.0,0.5702021718025208,0.26098036766052246,0.641266942024231,0.17836445569992065,0.0,0.0,0.0,0.0,15091.0,12083.0,16117.0,10395.0,1.672204613685608,0.019841577266044658,-0.2531953608031964,-3.1137322521524546,0.01714211143553257,0.0012632673606276512,0.0
