timestamp,dt,pos_x,pos_y,pos_z,vel_x,vel_y,vel_z,roll,pitch,yaw,agv_x,agv_y,agv_z,x_ref,y_ref,z_ref,roll_ref,pitch_ref,yaw_ref,x_vel_ref,y_vel_ref,z_vel_ref,x_torque,y_torque,z_torque,w0,w1,w2,w3,u0,u1,u2,u3,m0req,m1req,m2req,m3req,thrust0,thrust1,thrust2,thrust3,thrust_ref,roll_vicon,pitch_vicon,yaw_vicon,acc_x,acc_y,acc_z
5,5,0.0,0.0,0.0,0.004288281314074993,-0.00554086547344923,0.005954565014690161,-0.0034413659013807774,0.09785409271717072,-0.003868930274620652,-0.00041756496648304164,0.011628974229097366,-0.005635082721710205,0.0,0.0,0.0,0.006607440300285816,0.003933692816644907,-0.0,0.0,0.0,0.0,0.10499220341444016,-1.7598381042480469,1.992338294343199e-09,1495.0,1495.0,1495.0,1495.0,0.0,0.0,0.0,0.0,0.0,0.0,0.0,0.0,1495.0,1495.0,1495.0,1495.0,1.696574091911316,-0.06489702614637813,-0.3232587029871778,0.1319844877427534,-0.016081055626273155,0.020778246223926544,0.0
31,26,0.0,0.0,0.0,0.0035557320807129145,-0.004943732172250748,-0.004492548294365406,-0.0034413659013807774,0.09785409271717072,-0.003868930274620652,-0.00041756496648304164,0.011628974229097366,-0.005635082721710205,0.0,0.0,0.0,0.006607440300285816,0.003933692816644907,-0.0,0.0,0.0,0.0,0.10499220341444016,-1.7598381042480469,1.992338294343199e-09,1495.0,1495.0,1495.0,1495.0,0.0,0.0,0.0,0.0,0.0,0.0,0.0,0.0,1495.0,1495.0,1495.0,1495.0,1.696574091911316,0.9171455790774232,0.9246294393845671,-2.567817986020468,-0.016081055626273155,0.020778246223926544,0.0
36,5,0.0,0.0,0.0,0.002520581241697073,-0.008278271183371544,-0.0030173014383763075,-0.0034413659013807774,0.09785409271717072,-0.003868930274620652,-0.00041756496648304164,0.011628974229097366,-0.005635082721710205,0.0,0.0,0.0,0.005927499383687973,0.0032794876024127007,-0.0,0.0,0.0,0.0,0.10499220341444016,-1.7598381042480469,1.992338294343199e-09,1495.0,1495.0,1495.0,1495.0,0.0,0.0,0.0,0.0,0.0,0.0,0.0,0.0,1495.0,1495.0,1495.0,1495.0,1.687371850013733,0.9204808740283934,0.9244884753334899,-2.571053749994468,-0.013333994895219803,0.01853899657726288,0.0
41,5,0.0,0.0,0.0,0.002520581241697073,-0.008278271183371544,-0.0030173014383763075,-0.0035487227141857147,0.09733803570270538,-0.004094636999070644,-0.007605930790305138,0.06534184515476227,-0.009923583827912807,0.0,0.0,0.0,0.005927499383687973,0.0032794876024127007,-0.0,0.0,0.0,0.0,0.10646019876003265,-1.7520846128463745,7.3018306956385e-09,1495.0,1495.0,1495.0,1495.0,0.0,0.0,0.0,0.0,0.0,0.0,0.0,0.0,1495.0,1495.0,1495.0,1495.0,1.687371850013733,0.9204808740283934,0.9244884753334899,-2.571053749994468,-0.013333994895219803,0.01853899657726288,0.0
46,5,0.0,0.0,0.0,0.002520581241697073,-0.008278271183371544,-0.0030173014383763075,-0.0035487227141857147,0.09733803570270538,-0.004094636999070644,-0.007605930790305138,0.06534184515476227,-0.009923583827912807,0.0,0.0,0.0,0.009776884689927101,0.0022899541072547436,-0.0,0.0,0.0,0.0,0.10646019876003265,-1.7520846128463745,7.3018306956385e-09,1495.0,1495.0,1495.0,1495.0,0.0,0.0,0.0,0.0,0.0,0.0,0.0,0.0,1495.0,1495.0,1495.0,1495.0,1.7130674123764038,0.9204808740283934,0.9244884753334899,-2.571053749994468,-0.00945218000560999,0.031043516471982002,0.0
51,5,0.0,0.0,0.0,0.002520581241697073,-0.008278271183371544,-0.0030173014383763075,-0.0035487227141857147,0.09733803570270538,-0.004094636999070644,-0.007605930790305138,0.06534184515476227,-0.009923583827912807,0.0,0.0,0.0,0.009776884689927101,0.0022899541072547436,-0.0,0.0,0.0,0.0,0.10808300226926804,-1.7414888143539429,1.0724603427547663e-08,1495.0,1495.0,1495.0,1495.0,0.0,0.0,0.0,0.0,0.0,0.0,0.0,0.0,1495.0,1495.0,1495.0,1495.0,1.7130674123764038,0.9204808740283934,0.9244884753334899,-2.571053749994468,-0.00945218000560999,0.031043516471982002,0.0
56,5,0.00023226518533192575,0.0003701354726217687,0.00033663908834569156,0.018377143889665604,-0.01980551704764366,-0.022829363122582436,-0.0036296455655246973,0.09641294181346893,-0.004141072276979685,-0.0049238731153309345,0.08446795493364334,0.0019213610794395208,0.0,0.0,0.0,0.009776884689927101,0.0022899541072547436,-0.0,0.0,0.0,0.0,0.11041007190942764,-1.7250126600265503,3.805885828711553e-09,1495.0,1495.0,1495.0,1495.0,0.0,0.0,0.0,0.0,0.0,0.0,0.0,0.0,1495.0,1495.0,1495.0,1495.0,1.7130674123764038,0.9618638106649745,0.9249204607291915,-2.611759184996559,-0.00945218000560999,0.031043516471982002,0.0
63,7,0.00045763261732645333,0.0005979251000098884,0.000579541374463588,0.02228403463959694,-0.021282648667693138,-0.0218287892639637,-0.0036296455655246973,0.09641294181346893,-0.004141072276979685,-0.0049238731153309345,0.08446795493364334,0.0019213610794395208,0.0,0.0,0.0,0.009776884689927101,0.0022899541072547436,-0.0,0.0,0.0,0.0,0.11041007190942764,-1.7250126600265503,3.805885828711553e-09,1495.0,1495.0,1495.0,1495.0,0.0,0.0,0.0,0.0,0.0,0.0,0.0,0.0,1495.0,1495.0,1495.0,1495.0,1.7130674123764038,0.9812885779491605,0.9244566939431454,-2.632219395683609,-0.00945218000560999,0.031043516471982002,0.0
68,5,0.0005571331712417305,0.0006799242692068219,0.0006521056639030576,0.020853683352470398,-0.01835295557975769,-0.017439233139157295,-0.0036878869868814945,0.09537467360496521,-0.003819230478256941,0.004262726753950119,0.010549762286245823,0.023334147408604622,0.0,0.0,0.0,0.023127835243940353,0.0184322502464056,-0.0,0.0,0.0,0.0,0.11052228510379791,-1.718125343322754,-2.87259060982592e-09,1495.0,1495.0,1495.0,1495.0,0.0,0.0,0.0,0.0,0.0,0.0,0.0,0.0,1495.0,1495.0,1495.0,1495.0,1.938798189163208,0.9837911224210028,0.9243928149408985,-2.636043043598754,-0.08608394116163254,0.08310091495513916,0.0
74,6,0.0006497761351056397,0.0007572234026156366,0.000664446153678,0.019458625465631485,-0.016617082059383392,-0.008456547744572163,-0.0036878869868814945,0.09537467360496521,-0.003819230478256941,0.004262726753950119,0.010549762286245823,0.023334147408604622,0.0,0.0,0.0,0.023127835243940353,0.0184322502464056,-0.0,0.0,0.0,0.0,0.11052228510379791,-1.718125343322754,-2.87259060982592e-09,1495.0,1495.0,1495.0,1495.0,0.0,0.0,0.0,0.0,0.0,0.0,0.0,0.0,1495.0,1495.0,1495.0,1495.0,1.938798189163208,0.9807733379753366,0.9246697517164897,-2.6349886469249,-0.08608394116163254,0.08310091495513916,0.0
79,5,0.0007151823956519365,0.0008226142963394523,0.0006506674108095467,0.015632202848792076,-0.014493737369775772,-0.0017291709082201123,-0.0036878869868814945,0.09537467360496521,-0.003819230478256941,0.004262726753950119,0.010549762286245823,0.023334147408604622,0.0,0.0,0.0,0.018954042345285416,0.016789017245173454,-0.0,0.0,0.0,0.0,0.11052228510379791,-1.718125343322754,-2.87259060982592e-09,1495.0,1495.0,1495.0,1495.0,0.0,0.0,0.0,0.0,0.0,0.0,0.0,0.0,1495.0,1495.0,1495.0,1495.0,1.8925848007202148,0.9787767429608328,0.9246211884144202,-2.6341147341608346,-0.07654804736375809,0.06648420542478561,0.0
85,5,0.0007530325092375278,0.0008692828705534339,0.0006317559164017439,0.010794893838465214,-0.011397726833820343,0.001577712595462799,-0.0036899293772876263,0.09548909962177277,-0.0035738900769501925,0.0066208988428115845,-0.041481468826532364,0.033176273107528687,0.0,0.0,0.0,0.018954042345285416,0.016789017245173454,-0.0,0.0,0.0,0.0,0.11069510877132416,-1.7188032865524292,8.008400165238072e-09,1495.0,1495.0,1495.0,1495.0,0.0,0.0,0.0,0.0,0.0,0.0,0.0,0.0,1495.0,1495.0,1495.0,1495.0,1.8925848007202148,0.9764120506117606,0.9243538947771935,-2.6324480798141714,-0.07654804736375809,0.06648420542478561,0.0
90,5,0.0007538458448834717,0.0009167949901893735,0.0006090404349379241,0.0044155605137348175,-0.010260539129376411,0.0033569440711289644,-0.0036899293772876263,0.09548909962177277,-0.0035738900769501925,0.0066208988428115845,-0.041481468826532364,0.033176273107528687,0.0,0.0,0.0,0.01425211876630783,0.010294538922607899,-0.0,0.0,0.0,0.0,0.11069510877132416,-1.7188032865524292,8.008400165238072e-09,1495.0,1495.0,1495.0,1495.0,0.0,0.0,0.0,0.0,0.0,0.0,0.0,0.0,1495.0,1495.0,1495.0,1495.0,1.7993663549423218,0.9710352726860991,0.9236935810759148,-2.6288238374839743,-0.04462997242808342,0.047531429678201675,-0.0
95,5,0.0007741969311609864,0.0009572351700626314,0.0006175003363750875,0.004208352882415056,-0.008957043290138245,0.0003275892813690007,-0.003724494483321905,0.09588675945997238,-0.003161107888445258,0.0035456132609397173,-0.03420479595661163,0.033716831356287,0.0,0.0,0.0,0.01425211876630783,0.010294538922607899,-0.0,0.0,0.0,0.0,0.1115119457244873,-1.7238432168960571,2.0749175710932377e-09,1495.0,1495.0,1495.0,1495.0,0.0,0.0,0.0,0.0,0.0,0.0,0.0,0.0,1495.0,1495.0,1495.0,1495.0,1.7993663549423218,0.9688251671851144,0.9234989727363045,-2.6274230609556395,-0.04462997242808342,0.047531429678201675,-0.0
100,5,0.0007819607271812856,0.0009897126583382487,0.0006303000263869762,0.0026149998884648085,-0.00748011190444231,-0.0014049282763153315,-0.003709109267219901,0.09604872763156891,-0.0028787206392735243,0.0037444275803864002,-0.012008492834866047,0.03468187898397446,0.0,0.0,0.0,0.012030534446239471,0.004774128552526236,-0.0,0.0,0.0,0.0,0.11127180606126785,-1.7288768291473389,1.44689882297655e-09,1495.0,1495.0,1495.0,1495.0,0.0,0.0,0.0,0.0,0.0,0.0,0.0,0.0,1495.0,1495.0,1495.0,1495.0,1.743011474609375,0.9650248793639304,0.9231991809007632,-2.6248920832806157,-0.020049944519996643,0.03886643424630165,-0.0
105,6,0.0007979850051924586,0.001027990016154945,0.0006553158164024353,0.0029689117800444365,-0.0075853317975997925,-0.0035638678818941116,-0.003709109267219901,0.09604872763156891,-0.0028787206392735243,0.0037444275803864002,-0.012008492834866047,0.03468187898397446,0.0,0.0,0.0,0.012030534446239471,0.004774128552526236,-0.0,0.0,0.0,0.0,0.11127180606126785,-1.7288768291473389,1.44689882297655e-09,1495.0,1495.0,1495.0,1495.0,0.0,0.0,0.0,0.0,0.0,0.0,0.0,0.0,1495.0,1495.0,1495.0,1495.0,1.743011474609375,0.9616096586380853,0.9231771837766485,-2.6220219323865237,-0.020049944519996643,0.03886643424630165,-0.0
110,5,0.0008165354374796152,0.0010588486911728978,0.0006762843113392591,0.0034136122558265924,-0.0067371646873652935,-0.003941767383366823,-0.003709109267219901,0.09604872763156891,-0.0028787206392735243,0.0037444275803864002,-0.012008492834866047,0.03468187898397446,0.0,0.0,0.0,0.01066118385642767,0.003734725061804056,-0.0,0.0,0.0,0.0,0.11127180606126785,-1.7288768291473389,1.44689882297655e-09,1495.0,1495.0,1495.0,1495.0,0.0,0.0,0.0,0.0,0.0,0.0,0.0,0.0,1495.0,1495.0,1495.0,1495.0,1.7264589071273804,0.9599540199801407,0.9232173561361158,-2.621529787878766,-0.015536067076027393,0.03411577641963959,0.0
116,5,0.0008450158638879657,0.0010717380791902542,0.0006697478820569813,0.004783099517226219,-0.004241598770022392,-0.00079233234282583,-0.0036301701329648495,0.09614415466785431,-0.0025249093305319548,0.003923456650227308,-0.008726701140403748,0.0253757294267416,0.0,0.0,0.0,0.01066118385642767,0.003734725061804056,-0.0,0.0,0.0,0.0,0.1096877008676529,-1.729943871498108,7.320641870478539e-10,1495.0,1495.0,1495.0,1495.0,0.0,0.0,0.0,0.0,0.0,0.0,0.0,0.0,1495.0,1495.0,1495.0,1495.0,1.7264589071273804,0.9590473437442774,0.9237548345425,-2.62148391155539,-0.015536067076027393,0.03411577641963959,0.0
121,5,0.0008508572936989367,0.0010998907964676619,0.0006614694721065462,0.0026142087299376726,-0.005074969492852688,0.0006764772697351873,-0.0036301701329648495,0.09614415466785431,-0.0025249093305319548,0.003923456650227308,-0.008726701140403748,0.0253757294267416,0.0,0.0,0.0,0.006883579306304455,0.005484320688992739,-0.0,0.0,0.0,0.0,0.1096877008676529,-1.729943871498108,7.320641870478539e-10,1495.0,1495.0,1495.0,1495.0,0.0,0.0,0.0,0.0,0.0,0.0,0.0,0.0,1495.0,1495.0,1495.0,1495.0,1.7102969884872437,0.9589368934219064,0.9239887974176042,-2.6211888811540613,-0.02260132133960724,0.021821679547429085,0.0
126,5,0.0008645226480439305,0.001126064802519977,0.0006510349339805543,0.0026855305768549442,-0.005170860327780247,0.0015227353433147073,-0.0035999270621687174,0.09624456614255905,-0.002390415407717228,-0.0016899567563086748,-0.0171807948499918,0.01293484028428793,0.0,0.0,0.0,0.006883579306304455,0.005484320688992739,-0.0,0.0,0.0,0.0,0.10799726098775864,-1.7324022054672241,4.5248113589302363e-10,1495.0,1495.0,1495.0,1495.0,0.0,0.0,0.0,0.0,0.0,0.0,0.0,0.0,1495.0,1495.0,1495.0,1495.0,1.7102969884872437,0.9585342961939871,0.9242788031501346,-2.621485564968544,-0.02260132133960724,0.021821679547429085,0.0
131,5,0.0008397040073759854,0.001134111313149333,0.0006346559966914356,-0.0019040298648178577,-0.003033926011994481,0.0025745630264282227,-0.0035999270621687174,0.09624456614255905,-0.002390415407717228,-0.0016899567563086748,-0.0171807948499918,0.01293484028428793,0.0,0.0,0.0,0.008101430721580982,0.0036127259954810143,-0.0,0.0,0.0,0.0,0.10799726098775864,-1.7324022054672241,4.5248113589302363e-10,1495.0,1495.0,1495.0,1495.0,0.0,0.0,0.0,0.0,0.0,0.0,0.0,0.0,1495.0,1495.0,1495.0,1495.0,1.7054659128189087,0.9608429948510019,0.924108935238784,-2.6230521729099885,-0.01484618242830038,0.025609713047742844,-0.0
136,5,0.0007943778182379901,0.0011500174878165126,0.0006270558224059641,-0.00620075361803174,-0.003122319234535098,0.0019418462179601192,-0.0036532937083393335,0.09652725607156754,-0.002308740047737956,-0.0038061479572206736,-0.03210645541548729,0.003390796948224306,0.0,0.0,0.0,0.008101430721580982,0.0036127259954810143,-0.0,0.0,0.0,0.0,0.11213654279708862,-1.7404396533966064,-8.12625522428334e-09,1495.0,1495.0,1495.0,1495.0,0.0,0.0,0.0,0.0,0.0,0.0,0.0,0.0,1495.0,1495.0,1495.0,1495.0,1.7054659128189087,0.960904122205312,0.9238759487988658,-2.6226181295065367,-0.01484618242830038,0.025609713047742844,-0.0
141,5,0.0007518514175899327,0.0011621547164395452,0.0006209639832377434,-0.0075834691524505615,-0.0027053970843553543,0.0015077602583914995,-0.0036532937083393335,0.09652725607156754,-0.002308740047737956,-0.0038061479572206736,-0.03210645541548729,0.003390796948224306,0.0,0.0,0.0,0.005745755974203348,-0.00461461441591382,-0.0,0.0,0.0,0.0,0.11213654279708862,-1.7404396533966064,-8.12625522428334e-09,1495.0,1495.0,1495.0,1495.0,0.0,0.0,0.0,0.0,0.0,0.0,0.0,0.0,1495.0,1495.0,1495.0,1495.0,1.6961455345153809,0.9616137858152032,0.92352566717259,-2.6232187322138603,0.018860001116991043,0.018064023926854134,-0.0
146,5,0.00071461230982095,0.0011633968679234385,0.0005977542605251074,-0.007502077147364616,-0.0012312069302424788,0.003388268407434225,-0.0037378629203885794,0.09669110178947449,-0.002350414637476206,-0.008620336651802063,-0.02275637723505497,-0.017990082502365112,0.0,0.0,0.0,0.005745755974203348,-0.00461461441591382,-0.0,0.0,0.0,0.0,0.11213654279708862,-1.7404396533966064,-8.12625522428334e-09,1495.0,1495.0,1495.0,1495.0,0.0,0.0,0.0,0.0,0.0,0.0,0.0,0.0,1495.0,1495.0,1495.0,1495.0,1.6961455345153809,0.9600150895249551,0.9235296664810475,-2.6223589669010394,0.018860001116991043,0.018064023926854134,-0.0
151,5,0.0006719586672261357,0.0011582918232306838,0.0005957309040240943,-0.00811927393078804,0.00012011321814497933,0.001598113332875073,-0.0037378629203885794,0.09669110178947449,-0.002350414637476206,-0.008620336651802063,-0.02275637723505497,-0.017990082502365112,0.0,0.0,0.0,0.003512354101985693,-0.005910907406359911,-0.0,0.0,0.0,0.0,0.11213654279708862,-1.7404396533966064,-8.12625522428334e-09,1495.0,1495.0,1495.0,1495.0,0.0,0.0,0.0,0.0,0.0,0.0,0.0,0.0,1495.0,1495.0,1495.0,1495.0,1.6973848342895508,0.9593116504189496,0.9229107615651145,-2.622021960966042,0.024175817146897316,0.011050592176616192,-0.0
156,5,0.0006428462802432477,0.001173949334770441,0.00059965078253299,-0.006741192191839218,-0.0018308445578441024,0.00016886088997125626,-0.0038193673826754093,0.09695900231599808,-0.0025637925136834383,-0.00376089452765882,-0.0282877366989851,-0.019147753715515137,0.0,0.0,0.0,0.003512354101985693,-0.005910907406359911,-0.0,0.0,0.0,0.0,0.11640414595603943,-1.7495695352554321,-8.786931182669377e-09,1495.0,1495.0,1495.0,1495.0,0.0,0.0,0.0,0.0,0.0,0.0,0.0,0.0,1495.0,1495.0,1495.0,1495.0,1.6973848342895508,0.9578799885204365,0.9230746091112197,-2.62086710012796,0.024175817146897316,0.011050592176616192,-0.0
161,5,-2.3273420333862305,-3.5852530002593994,0.4398128092288971,-0.006741192191839218,-0.0018308445578441024,0.00016886088997125626,-0.0038193673826754093,0.09695900231599808,-0.0025637925136834383,-0.00376089452765882,-0.0282877366989851,-0.019147753715515137,0.0,0.0,0.0,0.0042542824521660805,-0.005318250507116318,-0.0,0.0,0.0,0.0,0.11640414595603943,-1.7495695352554321,-8.786931182669377e-09,1495.0,1495.0,1495.0,1495.0,0.0,0.0,0.0,0.0,0.0,0.0,0.0,0.0,1495.0,1495.0,1495.0,1495.0,1.6944857835769653,0.9972141161194024,0.5534159884952717,-1.2076644006074384,0.02171464078128338,0.013361968100070953,-0.0
166,5,-2.323438882827759,-3.5817744731903076,0.4399081766605377,0.4656834304332733,-0.4181745946407318,-0.011378804221749306,-0.0038801098708063364,0.09719831496477127,-0.0026573247741907835,-0.0046456498093903065,-0.04386167600750923,-0.008119504898786545,0.0,0.0,0.0,0.0042542824521660805,-0.005318250507116318,-0.0,0.0,0.0,0.0,0.11711885035037994,-1.756256341934204,7.553786929292983e-09,1495.0,1495.0,1495.0,1495.0,0.0,0.0,0.0,0.0,0.0,0.0,0.0,0.0,1495.0,1495.0,1495.0,1495.0,1.6944857835769653,0.9751868405490935,0.547960662996203,-1.1475237112345857,0.02171464078128338,0.013361968100070953,-0.0
172,5,0.012833009473979473,0.024998338893055916,-0.01895458996295929,0.4656834304332733,-0.4181745946407318,-0.011378804221749306,-0.0038801098708063364,0.09719831496477127,-0.0026573247741907835,-0.0046456498093903065,-0.04386167600750923,-0.008119504898786545,0.0,0.0,0.0,-0.9384025931358337,-0.8134584426879883,-0.0,0.0,0.0,0.0,0.11711885035037994,-1.756256341934204,7.553786929292983e-09,1495.0,1495.0,1495.0,1495.0,0.0,0.0,0.0,0.0,0.0,0.0,0.0,0.0,1495.0,1495.0,1495.0,1495.0,5.165383338928223,2.646448125656431,1.217591580945551,0.5556678647678505,5.346067428588867,-10.03969955444336,4.755842685699463
177,5,0.012777169235050678,0.024993466213345528,-0.018920553848147392,0.17957253754138947,-0.1666850745677948,-0.008636009879410267,-0.0038801098708063364,0.09719831496477127,-0.0026573247741907835,-0.0046456498093903065,-0.04386167600750923,-0.008119504898786545,0.0,0.0,0.0,-0.9384025931358337,-0.8134584426879883,-0.0,0.0,0.0,0.0,0.11711885035037994,-1.756256341934204,7.553786929292983e-09,1495.0,1495.0,1495.0,1495.0,0.0,0.0,0.0,0.0,0.0,0.0,0.0,0.0,1495.0,1495.0,1495.0,1495.0,5.165383338928223,2.6454100652452643,1.2171669475871871,0.5561603617836848,5.346067428588867,-10.03969955444336,4.755842685699463
182,5,0.012746813707053661,0.024934489279985428,-0.01897658221423626,0.06818639487028122,-0.05959664285182953,0.0032691138330847025,-0.0038966508582234383,0.09781506657600403,-0.0027137529104948044,0.004248997196555138,-0.06808752566576004,-0.0011054706992581487,0.0,0.0,0.0,0.11702234297990799,0.08813703805208206,-0.0,0.0,0.0,0.0,0.11717423796653748,-1.7720328569412231,-1.693766127353058e-09,1495.0,1495.0,1495.0,1495.0,0.0,0.0,0.0,0.0,0.0,0.0,0.0,0.0,1495.0,1495.0,1495.0,1495.0,3.5305593013763428,2.642784213636408,1.2171466948581031,0.5581058447442855,-0.7437225580215454,0.7626330852508545,0.0
187,5,0.012725625187158585,0.025029301643371582,-0.018970254808664322,0.024731935933232307,-0.03521617501974106,0.0005484194844029844,-0.0038966508582234383,0.09781506657600403,-0.0027137529104948044,0.004248997196555138,-0.06808752566576004,-0.0011054706992581487,0.0,0.0,0.0,0.11702234297990799,0.08813703805208206,-0.0,0.0,0.0,0.0,0.11717423796653748,-1.7720328569412231,-1.693766127353058e-09,1495.0,1495.0,1495.0,1495.0,0.0,0.0,0.0,0.0,0.0,0.0,0.0,0.0,1495.0,1495.0,1495.0,1495.0,3.5305593013763428,2.63008396599402,1.2116100480949972,0.5740950688127058,-0.7437225580215454,0.7626330852508545,0.0
192,5,0.012699350714683533,0.02496199496090412,-0.019099650904536247,0.006739831529557705,-0.006009627133607864,0.015746889635920525,-0.0039058104157447815,0.09844627231359482,-0.0026969201862812042,7.712107617408037e-05,-0.09984433650970459,0.0034443901386111975,0.0,0.0,0.0,0.06079917773604393,0.028238769620656967,-0.0,0.0,0.0,0.0,0.11710643768310547,-1.786285400390625,4.65001459559744e-09,1495.0,1495.0,1495.0,1495.0,0.0,0.0,0.0,0.0,0.0,0.0,0.0,0.0,1495.0,1495.0,1495.0,1495.0,2.397829055786133,2.6286499150604175,1.214281254061058,0.57589917926203,-0.16283771395683289,0.2699218988418579,0.0
197,5,0.01264200359582901,0.02477094531059265,-0.019351834431290627,-0.004185759928077459,0.020522022619843483,0.03656074404716492,-0.0039058104157447815,0.09844627231359482,-0.0026969201862812042,7.712107617408037e-05,-0.09984433650970459,0.0034443901386111975,0.0,0.0,0.0,0.06079917773604393,0.028238769620656967,-0.0,0.0,0.0,0.0,0.11710643768310547,-1.786285400390625,4.65001459559744e-09,1495.0,1495.0,1495.0,1495.0,0.0,0.0,0.0,0.0,0.0,0.0,0.0,0.0,1495.0,1495.0,1495.0,1495.0,2.397829055786133,2.6350071591316455,1.2234882674549896,0.566628610744838,-0.16283771395683289,0.2699218988418579,0.0
202,5,-0.007047317922115326,0.014904224313795567,-0.003557022428140044,-0.004185759928077459,0.020522022619843483,0.03656074404716492,-0.003919562324881554,0.10052049160003662,-0.0025273216888308525,0.002596838166937232,-0.12683574855327606,0.008101429790258408,0.0,0.0,0.0,0.0016064204974099994,-0.012739117257297039,-0.0,0.0,0.0,0.0,0.11758450418710709,-1.8093688488006592,4.096553318788665e-09,1495.0,1495.0,1495.0,1495.0,0.0,0.0,0.0,0.0,0.0,0.0,0.0,0.0,1495.0,1495.0,1495.0,1495.0,1.7716765403747559,-0.08459679093033934,-0.26959279711882816,0.18716474270549943,0.05438302457332611,0.00527535704895854,0.0
207,5,-0.007195871789008379,0.014715254306793213,-0.003499105339869857,-0.01950080692768097,0.03088526614010334,0.007674228399991989,-0.003919562324881554,0.10052049160003662,-0.0025273216888308525,0.002596838166937232,-0.12683574855327606,0.008101429790258408,0.0,0.0,0.0,0.0016064204974099994,-0.012739117257297039,-0.0,0.0,0.0,0.0,0.11758450418710709,-1.8093688488006592,4.096553318788665e-09,1495.0,1495.0,1495.0,1495.0,0.0,0.0,0.0,0.0,0.0,0.0,0.0,0.0,1495.0,1495.0,1495.0,1495.0,1.7716765403747559,-0.0912358383642038,-0.26783205872043336,0.1918934093086377,0.05438302457332611,0.00527535704895854,0.0
212,5,-0.007382552605122328,0.014660555869340897,-0.003421622794121504,-0.030201995745301247,0.01891792006790638,-0.006228207144886255,-0.0039208075031638145,0.10195574909448624,-0.00244898977689445,-0.000884200562722981,-0.12937450408935547,0.0003895588160958141,0.0,0.0,0.0,0.0016064204974099994,-0.012739117257297039,-0.0,0.0,0.0,0.0,0.11735036969184875,-1.8263130187988281,3.7123077945011573e-09,1495.0,1495.0,1495.0,1495.0,0.0,0.0,0.0,0.0,0.0,0.0,0.0,0.0,1495.0,1495.0,1495.0,1495.0,1.7716765403747559,-0.0940696095175423,-0.2632504947984963,0.1903319229107368,0.05438302457332611,0.00527535704895854,0.0
217,5,-0.007607093080878258,0.014594553038477898,-0.003348284400999546,-0.03902566060423851,0.01548747904598713,-0.011291895061731339,-0.0039208075031638145,0.10195574909448624,-0.00244898977689445,-0.000884200562722981,-0.12937450408935547,0.0003895588160958141,0.0,0.0,0.0,0.0026677765417844057,-0.031541623175144196,-0.0,0.0,0.0,0.0,0.11735036969184875,-1.8263130187988281,3.7123077945011573e-09,1495.0,1495.0,1495.0,1495.0,0.0,0.0,0.0,0.0,0.0,0.0,0.0,0.0,1495.0,1495.0,1495.0,1495.0,2.0241496562957764,-0.09628675170253798,-0.2579953523569095,0.18881804664989865,0.15381723642349243,0.01000920683145523,0.0
222,5,-0.008195930160582066,0.01427376177161932,-0.0035506365820765495,-0.056991223245859146,0.02981555461883545,0.017803417518734932,-0.003944558557122946,0.10299469530582428,-0.0025093937292695045,-0.0055226958356797695,-0.13359281420707703,-0.018326694145798683,0.0,0.0,0.0,0.0026677765417844057,-0.031541623175144196,-0.0,0.0,0.0,0.0,0.11792885512113571,-1.8445844650268555,-9.21517617769041e-09,1495.0,1495.0,1495.0,1495.0,0.0,0.0,0.0,0.0,0.0,0.0,0.0,0.0,1495.0,1495.0,1495.0,1495.0,2.0241496562957764,-0.10228452823896378,-0.24422742632916541,0.18468845090939331,0.15381723642349243,0.01000920683145523,0.0
227,5,-0.008195930160582066,0.01427376177161932,-0.0035506365820765495,-0.056991223245859146,0.02981555461883545,0.017803417518734932,-0.003944558557122946,0.10299469530582428,-0.0025093937292695045,-0.0055226958356797695,-0.13359281420707703,-0.018326694145798683,0.0,0.0,0.0,-0.007806295994669199,-0.04721168801188469,-0.0,0.0,0.0,0.0,0.11792885512113571,-1.8445844650268555,-9.21517617769041e-09,1495.0,1495.0,1495.0,1495.0,0.0,0.0,0.0,0.0,0.0,0.0,0.0,0.0,1495.0,1495.0,1495.0,1495.0,2.275669574737549,-0.10228452823896378,-0.24422742632916541,0.18468845090939331,0.2587831914424896,-0.032927196472883224,0.0
232,5,-0.00845818780362606,0.014124598354101181,-0.0036806787829846144,-0.05426741763949394,0.029825802892446518,0.022726422175765038,-0.003947081509977579,0.10406402498483658,-0.0026938794180750847,-0.002757762325927615,-0.1347404569387436,-0.0325845442712307,0.0,0.0,0.0,-0.007806295994669199,-0.04721168801188469,-0.0,0.0,0.0,0.0,0.11842139065265656,-1.873152732849121,4.411658149905406e-09,1495.0,1495.0,1495.0,1495.0,0.0,0.0,0.0,0.0,0.0,0.0,0.0,0.0,1495.0,1495.0,1495.0,1495.0,2.275669574737549,-0.10439460320995714,-0.2386478111798044,0.18236306889969203,0.2587831914424896,-0.032927196472883224,0.0
237,5,-0.00887389574199915,0.013794642873108387,-0.0038789266254752874,-0.04186892509460449,0.030717380344867706,0.016737008467316628,-0.003947081509977579,0.10406402498483658,-0.0026938794180750847,-0.002757762325927615,-0.1347404569387436,-0.0325845442712307,0.0,0.0,0.0,-0.008065374568104744,-0.04600957781076431,-0.0,0.0,0.0,0.0,0.11842139065265656,-1.873152732849121,4.411658149905406e-09,1495.0,1495.0,1495.0,1495.0,0.0,0.0,0.0,0.0,0.0,0.0,0.0,0.0,1495.0,1495.0,1495.0,1495.0,2.256242036819458,-0.10269791759844812,-0.2274680926550454,0.17736217661267586,0.25004518032073975,-0.03372952714562416,0.0
242,5,-0.00887389574199915,0.013794642873108387,-0.0038789266254752874,-0.04186892509460449,0.030717380344867706,0.016737008467316628,-0.003947081509977579,0.10406402498483658,-0.0026938794180750847,-0.002757762325927615,-0.1347404569387436,-0.0325845442712307,0.0,0.0,0.0,-0.008065374568104744,-0.04600957781076431,-0.0,0.0,0.0,0.0,0.11799157410860062,-1.8929295539855957,-2.0524081989492515e-08,1495.0,1495.0,1495.0,1495.0,0.0,0.0,0.0,0.0,0.0,0.0,0.0,0.0,1495.0,1495.0,1495.0,1495.0,2.256242036819458,-0.10269791759844812,-0.2274680926550454,0.17736217661267586,0.25004518032073975,-0.03372952714562416,0.0
248,5,-0.009151516482234001,0.013493896462023258,-0.003998847678303719,-0.02935522049665451,0.030256355181336403,0.010482662357389927,-0.003947081509977579,0.10406402498483658,-0.0026938794180750847,-0.002757762325927615,-0.1347404569387436,-0.0325845442712307,0.0,0.0,0.0,-0.00971224531531334,-0.03961879014968872,-0.0,0.0,0.0,0.0,0.11799157410860062,-1.8929295539855957,-2.0524081989492515e-08,1495.0,1495.0,1495.0,1495.0,0.0,0.0,0.0,0.0,0.0,0.0,0.0,0.0,1495.0,1495.0,1495.0,1495.0,2.157147169113159,-0.09596513380860305,-0.21934300258255668,0.17186445746486448,0.20587271451950073,-0.038832519203424454,0.0
253,5,-0.009259081445634365,0.013385577127337456,-0.00395590253174305,-0.024649914354085922,0.025100884959101677,-0.0009603634825907648,-0.0038728113286197186,0.10713110119104385,-0.003824397921562195,-0.0029178913682699203,-0.1028531864285469,-0.05515601858496666,0.0,0.0,0.0,-0.00971224531531334,-0.03961879014968872,-0.0,0.0,0.0,0.0,0.11619824916124344,-1.9206067323684692,7.779057398238365e-10,1495.0,1495.0,1495.0,1495.0,0.0,0.0,0.0,0.0,0.0,0.0,0.0,0.0,1495.0,1495.0,1495.0,1495.0,2.157147169113159,-0.09219706330496696,-0.2154199266782604,0.16996646076863695,0.20587271451950073,-0.038832519203424454,0.0
258,5,-0.009307198226451874,0.013330688700079918,-0.003928367048501968,-0.01563391275703907,0.01662697270512581,-0.0036883733700960875,-0.0038728113286197186,0.10713110119104385,-0.003824397921562195,-0.0029178913682699203,-0.1028531864285469,-0.05515601858496666,0.0,0.0,0.0,-0.005382674280554056,-0.02975298836827278,-0.0,0.0,0.0,0.0,0.11619824916124344,-1.9206067323684692,7.779057398238365e-10,1495.0,1495.0,1495.0,1495.0,0.0,0.0,0.0,0.0,0.0,0.0,0.0,0.0,1495.0,1495.0,1495.0,1495.0,2.0012876987457275,-0.091127594322059,-0.21338165637217973,0.16822920042394235,0.14345698058605194,-0.019966980442404747,0.0
263,5,-0.009356972761452198,0.013280308805406094,-0.0039541879668831825,-0.012226562015712261,0.01269637979567051,0.0016231429763138294,-0.00383506971411407,0.10790005326271057,-0.004260499961674213,-0.0021737085189670324,-0.08246148377656937,-0.04994061961770058,0.0,0.0,0.0,-0.005382674280554056,-0.02975298836827278,-0.0,0.0,0.0,0.0,0.11562798172235489,-1.9356112480163574,-1.6878662023600555e-08,1495.0,1495.0,1495.0,1495.0,0.0,0.0,0.0,0.0,0.0,0.0,0.0,0.0,1495.0,1495.0,1495.0,1495.0,2.0012876987457275,-0.09052204846990446,-0.2116969297579645,0.1670918201925092,0.14345698058605194,-0.019966980442404747,0.0
268,5,-0.009398435242474079,0.013268694281578064,-0.003941432107239962,-0.009866118431091309,0.006472303066402674,-0.0008814458851702511,-0.00383506971411407,0.10790005326271057,-0.004260499961674213,-0.0021737085189670324,-0.08246148377656937,-0.04994061961770058,0.0,0.0,0.0,0.007424274459481239,-0.021386222913861275,-0.0,0.0,0.0,0.0,0.11562798172235489,-1.9356112480163574,-1.6878662023600555e-08,1495.0,1495.0,1495.0,1495.0,0.0,0.0,0.0,0.0,0.0,0.0,0.0,0.0,1495.0,1495.0,1495.0,1495.0,1.891122817993164,-0.09118520184073095,-0.21065934264926403,0.16584041443892555,0.09744524210691452,0.02602406032383442,0.0
273,5,-0.009450145997107029,0.013244452886283398,-0.003950883634388447,-0.010151686146855354,0.0054978542029857635,0.0007816415745764971,-0.0037810576613992453,0.10853736102581024,-0.004618603270500898,-0.009671487845480442,-0.0665319487452507,-0.03744069114327431,0.0,0.0,0.0,0.007424274459481239,-0.021386222913861275,-0.0,0.0,0.0,0.0,0.11343804001808167,-1.953671932220459,-1.7556232023707707e-08,1495.0,1495.0,1495.0,1495.0,0.0,0.0,0.0,0.0,0.0,0.0,0.0,0.0,1495.0,1495.0,1495.0,1495.0,1.891122817993164,-0.09022697189383853,-0.20982774140525634,0.165313835594303,0.09744524210691452,0.02602406032383442,0.0
278,5,-2.3223330974578857,-3.573875904083252,0.4456579089164734,-0.010151686146855354,0.0054978542029857635,0.0007816415745764971,-0.0037810576613992453,0.10853736102581024,-0.004618603270500898,-0.009671487845480442,-0.0665319487452507,-0.03744069114327431,0.0,0.0,0.0,0.015009752474725246,-0.01970200054347515,-0.0,0.0,0.0,0.0,0.11343804001808167,-1.953671932220459,-1.7556232023707707e-08,1495.0,1495.0,1495.0,1495.0,0.0,0.0,0.0,0.0,0.0,0.0,0.0,0.0,1495.0,1495.0,1495.0,1495.0,1.9006062746047974,1.920035619921032,0.6425626252149632,1.1711030683763304,0.09021471440792084,0.05287430062890053,0.0
283,5,0.0036715310998260975,0.009497164748609066,-0.008590989746153355,-0.010151686146855354,0.0054978542029857635,0.0007816415745764971,-0.0037810576613992453,0.10853736102581024,-0.004618603270500898,-0.009671487845480442,-0.0665319487452507,-0.03744069114327431,0.0,0.0,0.0,0.015009752474725246,-0.01970200054347515,-0.0,0.0,0.0,0.0,0.11343804001808167,-1.953671932220459,-1.7556232023707707e-08,1495.0,1495.0,1495.0,1495.0,0.0,0.0,0.0,0.0,0.0,0.0,0.0,0.0,1495.0,1495.0,1495.0,1495.0,1.9006062746047974,1.4348881865251832,0.4417295054764299,-1.4839765914799963,0.09021471440792084,0.05287430062890053,0.0
288,5,-0.00796737801283598,0.006151686422526836,0.002390149515122175,-0.010151686146855354,0.0054978542029857635,0.0007816415745764971,-0.003745648078620434,0.10943124443292618,-0.005090141203254461,-0.0010185479186475277,-0.07469980418682098,-0.03144242614507675,0.0,0.0,0.0,0.010102084837853909,-0.00433771125972271,-0.0,0.0,0.0,0.0,0.11325862258672714,-1.9640263319015503,-3.794611735941089e-09,1495.0,1495.0,1495.0,1495.0,0.0,0.0,0.0,0.0,0.0,0.0,0.0,0.0,1495.0,1495.0,1495.0,1495.0,1.7251465320587158,-1.3016738632187617,-0.09396025884042847,3.0787750808800878,0.01803080178797245,0.03230220451951027,0.0
293,5,-0.008003497496247292,0.006182784214615822,0.0023750748950988054,-0.008395042270421982,-0.001532561145722866,0.0021216156892478466,-0.003745648078620434,0.10943124443292618,-0.005090141203254461,-0.0010185479186475277,-0.07469980418682098,-0.03144242614507675,0.0,0.0,0.0,0.010102084837853909,-0.00433771125972271,-0.0,0.0,0.0,0.0,0.11325862258672714,-1.9640263319015503,-3.794611735941089e-09,1495.0,1495.0,1495.0,1495.0,0.0,0.0,0.0,0.0,0.0,0.0,0.0,0.0,1495.0,1495.0,1495.0,1495.0,1.7251465320587158,-1.3015014386165087,-0.09353183353612081,3.0786570741279196,0.01803080178797245,0.03230220451951027,0.0
298,5,-0.008033855818212032,0.006246007978916168,0.0024106530472636223,-0.0070009781047701836,-0.008199905976653099,-0.0034207419957965612,-0.0036980737932026386,0.1100556030869484,-0.0053822691552340984,-0.0010071347933262587,-0.07515472173690796,-0.027716822922229767,0.0,0.0,0.0,0.011782784946262836,-0.016955804079771042,-0.0,0.0,0.0,0.0,0.11094783991575241,-1.9810007810592651,-2.1803234773187796e-09,1495.0,1495.0,1495.0,1495.0,0.0,0.0,0.0,0.0,0.0,0.0,0.0,0.0,1495.0,1495.0,1495.0,1495.0,1.8527125120162964,-1.3026641772947278,-0.09363776038014113,3.0778663433240148,0.07568805664777756,0.04046190157532692,0.0
303,5,-0.00805033091455698,0.00625744741410017,0.0024290725123137236,-0.004777433350682259,-0.0046526906080543995,-0.0035786207299679518,-0.0036980737932026386,0.1100556030869484,-0.0053822691552340984,-0.0010071347933262587,-0.07515472173690796,-0.027716822922229767,0.0,0.0,0.0,0.011782784946262836,-0.016955804079771042,-0.0,0.0,0.0,0.0,0.11094783991575241,-1.9810007810592651,-2.1803234773187796e-09,1495.0,1495.0,1495.0,1495.0,0.0,0.0,0.0,0.0,0.0,0.0,0.0,0.0,1495.0,1495.0,1495.0,1495.0,1.8527125120162964,-1.3023290224918749,-0.09314345843789301,3.0786502735227437,0.07568805664777756,0.04046190157532692,0.0
308,5,-0.00807390920817852,0.0062724025920033455,0.0024225555825978518,-0.004740312695503235,-0.003655702108517289,-0.0006494062836281955,-0.003667159005999565,0.11088915914297104,-0.005706002004444599,-0.0024828820023685694,-0.04476179555058479,-0.024683233350515366,0.0,0.0,0.0,0.015407051891088486,-0.014063968323171139,-0.0,0.0,0.0,0.0,0.11031845957040787,-1.9918980598449707,-3.889102373477726e-09,1495.0,1495.0,1495.0,1495.0,0.0,0.0,0.0,0.0,0.0,0.0,0.0,0.0,1495.0,1495.0,1495.0,1495.0,1.8419289588928223,-1.3036275838589106,-0.09307849255684873,3.0781680226432178,0.06241181120276451,0.05259806290268898,0.0
314,5,-0.008102644234895706,0.006296450272202492,0.002446806523948908,-0.0053443447686731815,-0.004348007962107658,-0.0031698865350335836,-0.003667159005999565,0.11088915914297104,-0.005706002004444599,-0.0024828820023685694,-0.04476179555058479,-0.024683233350515366,0.0,0.0,0.0,0.015407051891088486,-0.014063968323171139,-0.0,0.0,0.0,0.0,0.11031845957040787,-1.9918980598449707,-3.889102373477726e-09,1495.0,1495.0,1495.0,1495.0,0.0,0.0,0.0,0.0,0.0,0.0,0.0,0.0,1495.0,1495.0,1495.0,1495.0,1.8419289588928223,-1.3046646085636664,-0.09309828254541964,3.077629865270263,0.06241181120276451,0.05259806290268898,0.0
319,5,-0.008112584240734577,0.006326115690171719,0.0024772791657596827,-0.0033306018449366093,-0.005299059674143791,-0.00492467824369669,-0.0036793118342757225,0.11118682473897934,-0.0058982581831514835,-0.0040933494456112385,-0.012091387994587421,-0.02038966864347458,0.0,0.0,0.0,0.0151146799325943,-0.014588241465389729,-0.0,0.0,0.0,0.0,0.11038020998239517,-2.0013628005981445,-2.4248558716521984e-09,1495.0,1495.0,1495.0,1495.0,0.0,0.0,0.0,0.0,0.0,0.0,0.0,0.0,1495.0,1495.0,1495.0,1495.0,1.8453247547149658,-1.3060171595980512,-0.09336719450384906,3.0770982835239673,0.0648578628897667,0.05169520527124405,0.0
324,5,-0.00811047200113535,0.006343037821352482,0.0024712129961699247,-0.00107870704960078,-0.00415027653798461,-0.0012419275008141994,-0.0036793118342757225,0.11118682473897934,-0.0058982581831514835,-0.0040933494456112385,-0.012091387994587421,-0.02038966864347458,0.0,0.0,0.0,0.0151146799325943,-0.014588241465389729,-0.0,0.0,0.0,0.0,0.11038020998239517,-2.0013628005981445,-2.4248558716521984e-09,1495.0,1495.0,1495.0,1495.0,0.0,0.0,0.0,0.0,0.0,0.0,0.0,0.0,1495.0,1495.0,1495.0,1495.0,1.8453247547149658,-1.3066367720091818,-0.09298354080655427,3.077252358251207,0.0648578628897667,0.05169520527124405,0.0
329,5,-0.00811741966754198,0.006392777897417545,0.002472079824656248,-0.0012652543373405933,-0.007628919091075659,-0.0006007918855175376,-0.0037864213809370995,0.11124411970376968,-0.006115699652582407,-0.009031216613948345,0.02581433206796646,-0.015575388446450233,0.0,0.0,0.0,0.015238294377923012,-0.011196745559573174,-0.0,0.0,0.0,0.0,0.11194092035293579,-2.0033071041107178,9.312705273600841e-09,1495.0,1495.0,1495.0,1495.0,0.0,0.0,0.0,0.0,0.0,0.0,0.0,0.0,1495.0,1495.0,1495.0,1495.0,1.814074158668518,-1.3089494163216286,-0.09250376350376344,3.0767452431309947,0.04893721267580986,0.05123531445860863,0.0
334,5,-0.0081070801243186,0.006432882975786924,0.0024388544261455536,0.0007346146740019321,-0.007864180020987988,0.0037467486690729856,-0.0037864213809370995,0.11124411970376968,-0.006115699652582407,-0.009031216613948345,0.02581433206796646,-0.015575388446450233,0.0,0.0,0.0,0.015238294377923012,-0.011196745559573174,-0.0,0.0,0.0,0.0,0.11194092035293579,-2.0033071041107178,9.312705273600841e-09,1495.0,1495.0,1495.0,1495.0,0.0,0.0,0.0,0.0,0.0,0.0,0.0,0.0,1495.0,1495.0,1495.0,1495.0,1.814074158668518,-1.3107760959700698,-0.09227205626002208,3.0764985762629435,0.04893721267580986,0.05123531445860863,0.0
339,5,-0.008096329867839813,0.006436817813664675,0.00236725527793169,0.0015838888939470053,-0.0036178305745124817,0.010090580210089684,-0.00377157935872674,0.11104440689086914,-0.0062173218466341496,-0.007270532194525003,0.04016868770122528,-0.010057687759399414,0.0,0.0,0.0,0.019336821511387825,-0.009546407498419285,-0.0,0.0,0.0,0.0,0.1131463274359703,-1.998799443244934,-3.3754499195737253e-09,1495.0,1495.0,1495.0,1495.0,0.0,0.0,0.0,0.0,0.0,0.0,0.0,0.0,1495.0,1495.0,1495.0,1495.0,1.8327536582946777,-1.3106346518598104,-0.09204446136823397,3.075922552154323,0.04215103015303612,0.06568233668804169,0.0
344,5,-0.0080850375816226,0.006453624460846186,0.0023471531458199024,0.0019886197987943888,-0.0034639223013073206,0.006448504514992237,-0.00377157935872674,0.11104440689086914,-0.0062173218466341496,-0.007270532194525003,0.04016868770122528,-0.010057687759399414,0.0,0.0,0.0,0.019336821511387825,-0.009546407498419285,-0.0,0.0,0.0,0.0,0.1131463274359703,-1.998799443244934,-3.3754499195737253e-09,1495.0,1495.0,1495.0,1495.0,0.0,0.0,0.0,0.0,0.0,0.0,0.0,0.0,1495.0,1495.0,1495.0,1495.0,1.8327536582946777,-1.3118484181791954,-0.09181016543099686,3.0755774772985593,0.04215103015303612,0.06568233668804169,0.0
349,5,-0.008068731985986233,0.006473723333328962,0.0023337500169873238,0.002752180676907301,-0.0037974370643496513,0.0041877711191773415,-0.0038545550778508186,0.11065215617418289,-0.006312157493084669,0.001928915735334158,0.03996181860566139,-0.007328602019697428,0.0,0.0,0.0,0.014860487543046474,-0.00865929014980793,-0.0,0.0,0.0,0.0,0.11637748777866364,-1.9884074926376343,6.806816887916511e-09,1495.0,1495.0,1495.0,1495.0,0.0,0.0,0.0,0.0,0.0,0.0,0.0,0.0,1495.0,1495.0,1495.0,1495.0,1.7906948328018188,-1.312788544620556,-0.09216598169750141,3.074884132897262,0.03735961765050888,0.049321260303258896,0.0
354,5,-0.008037799037992954,0.0064912415109574795,0.0023437838535755873,0.004812818486243486,-0.00362117076292634,0.0004710374341811985,-0.0038545550778508186,0.11065215617418289,-0.006312157493084669,0.001928915735334158,0.03996181860566139,-0.007328602019697428,0.0,0.0,0.0,0.014860487543046474,-0.00865929014980793,-0.0,0.0,0.0,0.0,0.11637748777866364,-1.9884074926376343,6.806816887916511e-09,1495.0,1495.0,1495.0,1495.0,0.0,0.0,0.0,0.0,0.0,0.0,0.0,0.0,1495.0,1495.0,1495.0,1495.0,1.7906948328018188,-1.3129202525645445,-0.09217476585740426,3.0749117928224123,0.03735961765050888,0.049321260303258896,0.0
359,5,-0.007996111176908016,0.006510384380817413,0.0023378897458314896,0.006927695591002703,-0.003745605004951358,0.0008957147947512567,-0.0038792656268924475,0.1104670912027359,-0.006376398727297783,-0.004110591020435095,0.03155093640089035,-0.007578903343528509,0.0,0.0,0.0,0.015222606249153614,-0.00619828887283802,-0.0,0.0,0.0,0.0,0.1162044033408165,-1.9841384887695312,-1.218882506037744e-08,1495.0,1495.0,1495.0,1495.0,0.0,0.0,0.0,0.0,0.0,0.0,0.0,0.0,1495.0,1495.0,1495.0,1495.0,1.777256727218628,-1.3139795582551494,-0.09209200443246897,3.0753084052975965,0.0265412125736475,0.05014380067586899,0.0
364,5,-0.007934728637337685,0.006537545006722212,0.0023718622978776693,0.010136915370821953,-0.004757545422762632,-0.0037184155080467463,-0.0038792656268924475,0.1104670912027359,-0.006376398727297783,-0.004110591020435095,0.03155093640089035,-0.007578903343528509,0.0,0.0,0.0,0.015222606249153614,-0.00619828887283802,-0.0,0.0,0.0,0.0,0.1162044033408165,-1.9841384887695312,-1.218882506037744e-08,1495.0,1495.0,1495.0,1495.0,0.0,0.0,0.0,0.0,0.0,0.0,0.0,0.0,1495.0,1495.0,1495.0,1495.0,1.777256727218628,-1.3148191882582034,-0.0917728761841647,3.0758283322488515,0.0265412125736475,0.05014380067586899,0.0
369,5,-0.007886525243520737,0.006575720384716988,0.002414296381175518,0.009839248843491077,-0.00648405821993947,-0.006579465698450804,-0.0038508453872054815,0.11007470637559891,-0.006403375882655382,0.003312688088044524,0.050619468092918396,0.002187771489843726,0.0,0.0,0.0,0.016643740236759186,-0.0014143027365207672,-0.0,0.0,0.0,0.0,0.11661899089813232,-1.9732537269592285,7.560283954433089e-09,1495.0,1495.0,1495.0,1495.0,0.0,0.0,0.0,0.0,0.0,0.0,0.0,0.0,1495.0,1495.0,1495.0,1495.0,1.7727736234664917,-1.3142642889623433,-0.09249442692539939,3.075359370554664,0.0060407002456486225,0.05468602478504181,0.0
374,5,-0.007828124798834324,0.006595930550247431,0.0024012094363570213,0.010943724773824215,-0.005018816329538822,-0.0010613466147333384,-0.0038508453872054815,0.11007470637559891,-0.006403375882655382,0.003312688088044524,0.050619468092918396,0.002187771489843726,0.0,0.0,0.0,0.016643740236759186,-0.0014143027365207672,-0.0,0.0,0.0,0.0,0.11661899089813232,-1.9732537269592285,7.560283954433089e-09,1495.0,1495.0,1495.0,1495.0,0.0,0.0,0.0,0.0,0.0,0.0,0.0,0.0,1495.0,1495.0,1495.0,1495.0,1.7727736234664917,-1.3145390874233296,-0.0924783831913259,3.0754866503680023,0.0060407002456486225,0.05468602478504181,0.0
379,5,-0.007771982811391354,0.006609050091356039,0.002412899862974882,0.011114505119621754,-0.0035818826872855425,-0.0018273844616487622,-0.0038873101584613323,0.1096251979470253,-0.006427259650081396,0.00032655851100571454,0.06802056729793549,0.0009473585523664951,0.0,0.0,0.0,0.017021313309669495,-0.0005751036806032062,-0.0,0.0,0.0,0.0,0.11622165888547897,-1.963693618774414,-3.5362084371826086e-09,1495.0,1495.0,1495.0,1495.0,0.0,0.0,0.0,0.0,0.0,0.0,0.0,0.0,1495.0,1495.0,1495.0,1495.0,1.7755283117294312,-1.3133691433082562,-0.09285428873513084,3.075943896627752,0.0024601563345640898,0.05601329356431961,0.0
384,5,-0.007725405972450972,0.006619689054787159,0.002376444637775421,0.010035013779997826,-0.002709446707740426,0.0036436698865145445,-0.0038873101584613323,0.1096251979470253,-0.006427259650081396,0.00032655851100571454,0.06802056729793549,0.0009473585523664951,0.0,0.0,0.0,0.017021313309669495,-0.0005751036806032062,-0.0,0.0,0.0,0.0,0.11622165888547897,-1.963693618774414,-3.5362084371826086e-09,1495.0,1495.0,1495.0,1495.0,0.0,0.0,0.0,0.0,0.0,0.0,0.0,0.0,1495.0,1495.0,1495.0,1495.0,1.7755283117294312,-1.314079216608976,-0.09320652080089993,3.0760439383804745,0.0024601563345640898,0.05601329356431961,0.0
389,5,-0.0076820505782961845,0.006601354107260704,0.0022797691635787487,0.009216662496328354,0.0011164415627717972,0.013058516196906567,-0.0038741999305784702,0.10878950357437134,-0.006281149107962847,0.000199857575353235,0.08266349881887436,0.019542962312698364,0.0,0.0,0.0,0.014616024680435658,-0.0012622657231986523,-0.0,0.0,0.0,0.0,0.11537815630435944,-1.9461722373962402,-1.2848582642277506e-08,1495.0,1495.0,1495.0,1495.0,0.0,0.0,0.0,0.0,0.0,0.0,0.0,0.0,1495.0,1495.0,1495.0,1495.0,1.7537922859191895,-1.313302717893462,-0.0941425238988386,3.0748582026916047,0.005333770532160997,0.047510311007499695,0.0
395,5,-0.00763137498870492,0.006606027949601412,0.002193122636526823,0.009767746552824974,-0.00011431304301368073,0.01562099065631628,-0.0038741999305784702,0.10878950357437134,-0.006281149107962847,0.000199857575353235,0.08266349881887436,0.019542962312698364,0.0,0.0,0.0,0.014616024680435658,-0.0012622657231986523,-0.0,0.0,0.0,0.0,0.11537815630435944,-1.9461722373962402,-1.2848582642277506e-08,1495.0,1495.0,1495.0,1495.0,0.0,0.0,0.0,0.0,0.0,0.0,0.0,0.0,1495.0,1495.0,1495.0,1495.0,1.7537922859191895,-1.3130494593460103,-0.09457801470051257,3.074621309962729,0.005333770532160997,0.047510311007499695,0.0
400,5,-0.007548635825514793,0.006666617467999458,0.002216566354036331,0.013835806399583817,-0.007316467352211475,0.0034351516515016556,-0.0038457687478512526,0.10812069475650787,-0.006110067944973707,0.0036195756401866674,0.09138666093349457,0.025906430557370186,0.0,0.0,0.0,0.011778052896261215,-0.0014046457363292575,-0.0,0.0,0.0,0.0,0.11471400409936905,-1.9335451126098633,-1.2674257199307704e-08,1495.0,1495.0,1495.0,1495.0,0.0,0.0,0.0,0.0,0.0,0.0,0.0,0.0,1495.0,1495.0,1495.0,1495.0,1.7283084392547607,-1.3131326994558126,-0.09455539959010384,3.0751279821262485,0.00584937771782279,0.03772984817624092,0.0
405,5,-0.007501508574932814,0.006679574027657509,0.0021633522119373083,0.011189576238393784,-0.004481354262679815,0.007759759668260813,-0.0038457687478512526,0.10812069475650787,-0.006110067944973707,0.0036195756401866674,0.09138666093349457,0.025906430557370186,0.0,0.0,0.0,0.011778052896261215,-0.0014046457363292575,-0.0,0.0,0.0,0.0,0.11471400409936905,-1.9335451126098633,-1.2674257199307704e-08,1495.0,1495.0,1495.0,1495.0,0.0,0.0,0.0,0.0,0.0,0.0,0.0,0.0,1495.0,1495.0,1495.0,1495.0,1.7283084392547607,-1.3130397638171487,-0.0956742287115664,3.0739661041557116,0.00584937771782279,0.03772984817624092,0.0
410,5,-0.007399950176477432,0.006708003580570221,0.00218877661973238,0.016662856563925743,-0.005204072222113609,5.297679308569059e-05,-0.0038152507040649652,0.10708154737949371,-0.005758534651249647,0.0011567678302526474,0.08944171667098999,0.03234988451004028,0.0,0.0,0.0,0.016610348597168922,3.9067068428266793e-05,-0.0,0.0,0.0,0.0,0.11356893181800842,-1.914597511291504,-2.0508792886175797e-08,1495.0,1495.0,1495.0,1495.0,0.0,0.0,0.0,0.0,0.0,0.0,0.0,0.0,1495.0,1495.0,1495.0,1495.0,1.771511435508728,-1.312022448251079,-0.09487228786379118,3.075662017020004,-0.00016674268408678472,0.05453747138381004,0.0
415,5,-2.3144443035125732,-3.553874969482422,0.4633869528770447,0.016662856563925743,-0.005204072222113609,5.297679308569059e-05,-0.0038152507040649652,0.10708154737949371,-0.005758534651249647,0.0011567678302526474,0.08944171667098999,0.03234988451004028,0.0,0.0,0.0,0.016610348597168922,3.9067068428266793e-05,-0.0,0.0,0.0,0.0,0.11356893181800842,-1.914597511291504,-2.0508792886175797e-08,1495.0,1495.0,1495.0,1495.0,0.0,0.0,0.0,0.0,0.0,0.0,0.0,0.0,1495.0,1495.0,1495.0,1495.0,1.771511435508728,0.0728303207523771,0.8676149327370118,-1.1451462520411717,-0.00016674268408678472,0.05453747138381004,0.0
420,5,-2.3183233737945557,-3.558102607727051,0.4610448479652405,-0.4588108956813812,0.5052387714385986,0.2810714542865753,-0.0037740636616945267,0.10517618060112,-0.005058939568698406,0.007453069556504488,0.11545374244451523,0.0374465174973011,0.0,0.0,0.0,-0.9164080619812012,-0.9983053803443909,-0.0,0.0,0.0,0.0,0.11331979185342789,-1.9007928371429443,-1.784859016140672e-08,1495.0,1495.0,1495.0,1495.0,0.0,0.0,0.0,0.0,0.0,0.0,0.0,0.0,1495.0,1495.0,1495.0,1495.0,6.106725215911865,0.040063442377875125,0.8579821749193056,-1.1249415559301994,8.008678436279297,-12.419776916503906,4.64849853515625
425,5,-2.319242000579834,-3.561445951461792,0.4615470767021179,-0.4588108956813812,0.5052387714385986,0.2810714542865753,-0.0037740636616945267,0.10517618060112,-0.005058939568698406,0.007453069556504488,0.11545374244451523,0.0374465174973011,0.0,0.0,0.0,-0.9164080619812012,-0.9983053803443909,-0.0,0.0,0.0,0.0,0.11331979185342789,-1.9007928371429443,-1.784859016140672e-08,1495.0,1495.0,1495.0,1495.0,0.0,0.0,0.0,0.0,0.0,0.0,0.0,0.0,1495.0,1495.0,1495.0,1495.0,6.106725215911865,0.1565630916832362,0.7821547384934555,-1.23894876073808,8.008678436279297,-12.419776916503906,4.64849853515625
430,5,-0.0035743697080761194,0.011224268935620785,0.007481645327061415,-0.4588108956813812,0.5052387714385986,0.2810714542865753,-0.0037528821267187595,0.10420428961515427,-0.004762446042150259,0.010108384303748608,0.13306878507137299,0.038173507899045944,0.0,0.0,0.0,-0.7279382348060608,-0.6752337217330933,-0.0,0.0,0.0,0.0,0.11259853839874268,-1.8756765127182007,-4.160190414381759e-08,1495.0,1495.0,1495.0,1495.0,0.0,0.0,0.0,0.0,0.0,0.0,0.0,0.0,1495.0,1495.0,1495.0,1495.0,6.106725215911865,-1.3030594397539972,-0.04517242475472727,3.115710188083099,10.886430740356445,-15.52139663696289,-3.7843000888824463
435,5,-0.0037500946782529354,0.010981200262904167,0.00705503486096859,-0.20461134612560272,0.23126378655433655,0.16362184286117554,-0.0037528821267187595,0.10420428961515427,-0.004762446042150259,0.010108384303748608,0.13306878507137299,0.038173507899045944,0.0,0.0,0.0,-0.7279382348060608,-0.6752337217330933,-0.0,0.0,0.0,0.0,0.11259853839874268,-1.8756765127182007,-4.160190414381759e-08,1495.0,1495.0,1495.0,1495.0,0.0,0.0,0.0,0.0,0.0,0.0,0.0,0.0,1495.0,1495.0,1495.0,1495.0,6.106725215911865,-1.3033406063106712,-0.048727904708980266,3.1124641525082835,10.886430740356445,-15.52139663696289,-3.7843000888824463
440,5,-0.004018021281808615,0.010590721853077412,0.006455881986767054,-0.11399573087692261,0.13936291635036469,0.13734708726406097,-0.003718935651704669,0.10266311466693878,-0.00434721726924181,0.006712171249091625,0.11841810494661331,0.03575466200709343,0.0,0.0,0.0,-0.12212719768285751,-0.09214849025011063,-0.0,0.0,0.0,0.0,0.11192739754915237,-1.8568131923675537,-3.420791472308338e-08,1495.0,1495.0,1495.0,1495.0,0.0,0.0,0.0,0.0,0.0,0.0,0.0,0.0,1495.0,1495.0,1495.0,1495.0,3.5802292823791504,-1.3013604664980012,-0.05182556632559459,3.110481645548241,0.7879330515861511,-0.8067986965179443,-0.0
445,5,-0.004468494560569525,0.010001040995121002,0.0055775027722120285,-0.09965509176254272,0.12650686502456665,0.16034437716007233,-0.003718935651704669,0.10266311466693878,-0.00434721726924181,0.006712171249091625,0.11841810494661331,0.03575466200709343,0.0,0.0,0.0,-0.12212719768285751,-0.09214849025011063,-0.0,0.0,0.0,0.0,0.11192739754915237,-1.8568131923675537,-3.420791472308338e-08,1495.0,1495.0,1495.0,1495.0,0.0,0.0,0.0,0.0,0.0,0.0,0.0,0.0,1495.0,1495.0,1495.0,1495.0,3.5802292823791504,-1.2995917543279645,-0.05786867153306173,3.105750530088251,0.7879330515861511,-0.8067986965179443,-0.0
450,5,-0.005109012126922607,0.009139344096183777,0.004363524727523327,-0.11672413349151611,0.15400633215904236,0.20981507003307343,-0.003718935651704669,0.10266311466693878,-0.00434721726924181,0.006712171249091625,0.11841810494661331,0.03575466200709343,0.0,0.0,0.0,-0.07793375104665756,-0.05704664811491966,-0.0,0.0,0.0,0.0,0.11192739754915237,-1.8568131923675537,-3.420791472308338e-08,1495.0,1495.0,1495.0,1495.0,0.0,0.0,0.0,0.0,0.0,0.0,0.0,0.0,1495.0,1495.0,1495.0,1495.0,2.9080491065979004,-1.2967816267348617,-0.06505406942426806,3.1001593688478435,0.3983161747455597,-0.4193110764026642,-0.0
455,5,-0.005650112871080637,0.008417331613600254,0.003341947216540575,-0.11162173748016357,0.1482440084218979,0.2065153419971466,-0.003743203356862068,0.1017201766371727,-0.004101750906556845,-0.008810694329440594,0.10656075924634933,0.024862991645932198,0.0,0.0,0.0,-0.07793375104665756,-0.05704664811491966,-0.0,0.0,0.0,0.0,0.11230327188968658,-1.8309637308120728,2.0162760350217468e-08,1495.0,1495.0,1495.0,1495.0,0.0,0.0,0.0,0.0,0.0,0.0,0.0,0.0,1495.0,1495.0,1495.0,1495.0,2.9080491065979004,-1.2952911823492252,-0.07201121938182044,3.094841943739245,0.3983161747455597,-0.4193110764026642,-0.0
460,5,-0.0060590957291424274,0.007872696965932846,0.002630906645208597,-0.09372667223215103,0.12465380132198334,0.16793102025985718,-0.003743203356862068,0.1017201766371727,-0.004101750906556845,-0.008810694329440594,0.10656075924634933,0.024862991645932198,0.0,0.0,0.0,-0.08968689292669296,-0.06102869659662247,-0.0,0.0,0.0,0.0,0.11230327188968658,-1.8309637308120728,2.0162760350217468e-08,1495.0,1495.0,1495.0,1495.0,0.0,0.0,0.0,0.0,0.0,0.0,0.0,0.0,1495.0,1495.0,1495.0,1495.0,3.072328805923462,-1.2948333712611797,-0.07868929399985082,3.089201904146984,0.4497126042842865,-0.509502112865448,-0.0
465,5,-0.006272361148148775,0.0074789016507565975,0.002199506852775812,-0.06308251619338989,0.09711693227291107,0.11894038319587708,-0.0038052713498473167,0.10051216185092926,-0.0038473873864859343,0.0020963551942259073,0.0714140236377716,0.017221083864569664,0.0,0.0,0.0,-0.08968689292669296,-0.06102869659662247,-0.0,0.0,0.0,0.0,0.11397240310907364,-1.8155579566955566,-9.516909038609356e-09,1495.0,1495.0,1495.0,1495.0,0.0,0.0,0.0,0.0,0.0,0.0,0.0,0.0,1495.0,1495.0,1495.0,1495.0,3.072328805923462,-1.2938822951687625,-0.0830867580366736,3.086522187404538,0.4497126042842865,-0.509502112865448,-0.0
470,5,-0.006411171518266201,0.007225148379802704,0.0019175317138433456,-0.0418902151286602,0.06929714232683182,0.0814131572842598,-0.0038052713498473167,0.10051216185092926,-0.0038473873864859343,0.0020963551942259073,0.0714140236377716,0.017221083864569664,0.0,0.0,0.0,-0.06661085784435272,-0.043075382709503174,-0.0,0.0,0.0,0.0,0.11397240310907364,-1.8155579566955566,-9.516909038609356e-09,1495.0,1495.0,1495.0,1495.0,0.0,0.0,0.0,0.0,0.0,0.0,0.0,0.0,1495.0,1495.0,1495.0,1495.0,2.618833065032959,-1.2954982502497974,-0.08791128597573324,3.081960280819739,0.2711379826068878,-0.322907030582428,-0.0
476,5,-0.0064249360002577305,0.007084880489856005,0.001841524732299149,-0.018407825380563736,0.0445510558784008,0.04168611019849777,-0.003848803462460637,0.09985038638114929,-0.0037392540834844112,0.0004340246377978474,0.0665837898850441,0.012543827295303345,0.0,0.0,0.0,-0.03365238383412361,-0.021147241815924644,-0.0,0.0,0.0,0.0,0.11546599864959717,-1.797307014465332,2.1248026949027832e-10,1495.0,1495.0,1495.0,1495.0,0.0,0.0,0.0,0.0,0.0,0.0,0.0,0.0,1495.0,1495.0,1495.0,1495.0,2.0515198707580566,-1.2957786944098062,-0.09142063636637258,3.080015484096273,0.10447275638580322,-0.12792375683784485,-0.0
481,5,-0.006428699474781752,0.006980125792324543,0.001781186438165605,-0.007814779877662659,0.030390935018658638,0.02391503006219864,-0.003848803462460637,0.09985038638114929,-0.0037392540834844112,0.0004340246377978474,0.0665837898850441,0.012543827295303345,0.0,0.0,0.0,-0.03365238383412361,-0.021147241815924644,-0.0,0.0,0.0,0.0,0.11546599864959717,-1.797307014465332,2.1248026949027832e-10,1495.0,1495.0,1495.0,1495.0,0.0,0.0,0.0,0.0,0.0,0.0,0.0,0.0,1495.0,1495.0,1495.0,1495.0,2.0515198707580566,-1.2974789894827379,-0.09429684381280264,3.0787750050749128,0.10447275638580322,-0.12792375683784485,-0.0
486,5,-0.006435954011976719,0.006897779647260904,0.0017195785185322165,-0.0039964597672224045,0.022037910297513008,0.01695896126329899,-0.0039264969527721405,0.09895838052034378,-0.0036736573092639446,-0.005640029441565275,0.0641847476363182,-0.004255291074514389,0.0,0.0,0.0,-0.03365238383412361,-0.021147241815924644,-0.0,0.0,0.0,0.0,0.11658307909965515,-1.7865879535675049,6.8381056372857074e-09,1495.0,1495.0,1495.0,1495.0,0.0,0.0,0.0,0.0,0.0,0.0,0.0,0.0,1495.0,1495.0,1495.0,1495.0,2.0515198707580566,-1.300360851178192,-0.09708000366973674,3.0766362249053714,0.10447275638580322,-0.12792375683784485,-0.0
491,5,-0.006415416486561298,0.006835835985839367,0.0017240244196727872,0.0008659472223371267,0.01624840311706066,0.006250087637454271,-0.0039264969527721405,0.09895838052034378,-0.0036736573092639446,-0.005640029441565275,0.0641847476363182,-0.004255291074514389,0.0,0.0,0.0,-0.013302559033036232,-0.011616645380854607,-0.0,0.0,0.0,0.0,0.11658307909965515,-1.7865879535675049,6.8381056372857074e-09,1495.0,1495.0,1495.0,1495.0,0.0,0.0,0.0,0.0,0.0,0.0,0.0,0.0,1495.0,1495.0,1495.0,1495.0,1.80488121509552,-1.3015930612152884,-0.0987951250982228,3.0757938373981237,0.05051647871732712,-0.044500932097435,-0.0
496,5,-0.006419769953936338,0.006776654161512852,0.0016986944247037172,-0.00017607577319722623,0.013601222075521946,0.00553962541744113,-0.003959270194172859,0.09849061071872711,-0.003696589730679989,0.0024083934258669615,0.03424350544810295,-0.006845319643616676,0.0,0.0,0.0,-0.013302559033036232,-0.011616645380854607,-0.0,0.0,0.0,0.0,0.11877787113189697,-1.7728310823440552,-3.985242358339747e-09,1495.0,1495.0,1495.0,1495.0,0.0,0.0,0.0,0.0,0.0,0.0,0.0,0.0,1495.0,1495.0,1495.0,1495.0,1.80488121509552,-1.3022540198297172,-0.10021776484239593,3.075147546002162,0.05051647871732712,-0.044500932097435,-0.0
501,5,-0.006430380512028933,0.006733069662004709,0.0016929249977692962,-0.0013436659937724471,0.010670585557818413,0.0029081928078085184,-0.003959270194172859,0.09849061071872711,-0.003696589730679989,0.0024083934258669615,0.03424350544810295,-0.006845319643616676,0.0,0.0,0.0,-0.004212476778775454,-0.008669967763125896,-0.0,0.0,0.0,0.0,0.11877787113189697,-1.7728310823440552,-3.985242358339747e-09,1495.0,1495.0,1495.0,1495.0,0.0,0.0,0.0,0.0,0.0,0.0,0.0,0.0,1495.0,1495.0,1495.0,1495.0,1.7292919158935547,-1.3031570021769434,-0.10112155714901133,3.074530757074692,0.03612670674920082,-0.013502433896064758,-0.0
506,5,-0.006412041839212179,0.006699174176901579,0.0016942658694460988,0.0016631847247481346,0.008335712365806103,0.0010023665381595492,-0.003985526040196419,0.09809262305498123,-0.0038006005343049765,-0.005478356499224901,0.018724974244832993,-0.005757402628660202,0.0,0.0,0.0,-0.004212476778775454,-0.008669967763125896,-0.0,0.0,0.0,0.0,0.12038981169462204,-1.7637410163879395,-7.840009752513311e-10,1495.0,1495.0,1495.0,1495.0,0.0,0.0,0.0,0.0,0.0,0.0,0.0,0.0,1495.0,1495.0,1495.0,1495.0,1.7292919158935547,-1.3034390307552746,-0.10155827340509063,3.074526470755885,0.03612670674920082,-0.013502433896064758,-0.0
511,5,-0.0064466302283108234,0.0066965301521122456,0.0016435098368674517,-0.003485331544652581,0.003651602193713188,0.0064916652627289295,-0.003985526040196419,0.09809262305498123,-0.0038006005343049765,-0.005478356499224901,0.018724974244832993,-0.005757402628660202,0.0,0.0,0.0,0.001848107436671853,-0.007106516044586897,-0.0,0.0,0.0,0.0,0.12038981169462204,-1.7637410163879395,-7.840009752513311e-10,1495.0,1495.0,1495.0,1495.0,0.0,0.0,0.0,0.0,0.0,0.0,0.0,0.0,1495.0,1495.0,1495.0,1495.0,1.7059499025344849,-1.3055323368215306,-0.10243659619529955,3.072900763760386,0.029212621971964836,0.005843884311616421,-0.0
516,5,-0.006408678367733955,0.006692923605442047,0.0016569399740546942,0.0031600603833794594,0.001893393462523818,0.0009850537171587348,-0.004012987017631531,0.09798562526702881,-0.003909990191459656,-0.0028833516407757998,-0.006002331152558327,-0.014349201694130898,0.0,0.0,0.0,0.001848107436671853,-0.007106516044586897,-0.0,0.0,0.0,0.0,0.12038981169462204,-1.7637410163879395,-7.840009752513311e-10,1495.0,1495.0,1495.0,1495.0,0.0,0.0,0.0,0.0,0.0,0.0,0.0,0.0,1495.0,1495.0,1495.0,1495.0,1.7059499025344849,-1.3051967056518667,-0.1022793912122868,3.073375190642627,0.029212621971964836,0.005843884311616421,-0.0
521,5,-0.006432868540287018,0.006689582951366901,0.0016421861946582794,-0.0016387616051360965,0.0011582697043195367,0.002164480509236455,-0.004012987017631531,0.09798562526702881,-0.003909990191459656,-0.0028833516407757998,-0.006002331152558327,-0.014349201694130898,0.0,0.0,0.0,0.009363574907183647,-0.0056687952019274235,-0.0,0.0,0.0,0.0,0.12038981169462204,-1.7637410163879395,-7.840009752513311e-10,1495.0,1495.0,1495.0,1495.0,0.0,0.0,0.0,0.0,0.0,0.0,0.0,0.0,1495.0,1495.0,1495.0,1495.0,1.7282629013061523,-1.3064961986996255,-0.10260040098090706,3.072386417926145,0.023606473580002785,0.02999497391283512,-0.0
