timestamp,dt,pos_x,pos_y,pos_z,vel_x,vel_y,vel_z,roll,pitch,yaw,agv_x,agv_y,agv_z,x_ref,y_ref,z_ref,roll_ref,pitch_ref,yaw_ref,x_vel_ref,y_vel_ref,z_vel_ref,x_torque,y_torque,z_torque,w0,w1,w2,w3,u0,u1,u2,u3,m0req,m1req,m2req,m3req,thrust0,thrust1,thrust2,thrust3,thrust_ref,roll_vicon,pitch_vicon,yaw_vicon,acc_x,acc_y,acc_z
5,5,0.0,0.0,0.0,0.003346529556438327,-0.001462831161916256,-0.0009201568318530917,0.011929669417440891,0.19089841842651367,-0.005589399021118879,0.0009677864145487547,-0.005318535957485437,0.0009807823225855827,0.0,0.0,0.0,0.0017798184417188168,0.003132087178528309,-0.0,0.0,0.0,0.0,-0.00303460075519979,-0.056303802877664566,-0.0005127427284605801,1495.0,1495.0,1495.0,1495.0,0.0,0.0,0.0,0.0,0.0,0.0,0.0,0.0,1495.0,1495.0,1495.0,1495.0,1.6628060340881348,0.021409160823336045,-0.19737572028321834,-0.08874980503865013,-0.012549486011266708,0.005485616624355316,0.0
45,40,0.0,0.0,0.0,0.003247750923037529,-0.0008253798587247729,0.005236743483692408,0.011929669417440891,0.19089841842651367,-0.005589399021118879,0.0009677864145487547,-0.005318535957485437,0.0009807823225855827,0.0,0.0,0.0,0.0017798184417188168,0.003132087178528309,-0.0,0.0,0.0,0.0,-0.00303460075519979,-0.056303802877664566,-0.0005127427284605801,1495.0,1495.0,1495.0,1495.0,0.0,0.0,0.0,0.0,0.0,0.0,0.0,0.0,1495.0,1495.0,1495.0,1495.0,1.6628060340881348,0.021148635536595448,-0.19968459687934584,-0.08763089887066716,-0.012549486011266708,0.005485616624355316,0.0
50,5,0.0,0.0,0.0,-0.0010412189876660705,-0.0009990304242819548,-0.0005333991139195859,0.01193141657859087,0.1908910721540451,-0.005582477897405624,-0.0009850861970335245,0.004229675512760878,0.0005746757960878313,0.0,0.0,0.0,0.0017798184417188168,0.003132087178528309,-0.0,0.0,0.0,0.0,-0.0029978533275425434,-0.05636470764875412,-0.0005977097316645086,1495.0,1495.0,1495.0,1495.0,0.0,0.0,0.0,0.0,0.0,0.0,0.0,0.0,1495.0,1495.0,1495.0,1495.0,1.6628060340881348,0.021659609696052615,-0.19909540410741103,-0.0878812470241932,-0.012549486011266708,0.005485616624355316,0.0
55,5,0.0,0.0,0.0,3.1987907277652994e-05,0.0032966448925435543,-0.0004339222505223006,0.01193141657859087,0.1908910721540451,-0.005582477897405624,-0.0009850861970335245,0.004229675512760878,0.0005746757960878313,0.0,0.0,0.0,0.001232098089531064,-0.000987792038358748,-0.0,0.0,0.0,0.0,-0.0029978533275425434,-0.05636470764875412,-0.0005977097316645086,1495.0,1495.0,1495.0,1495.0,0.0,0.0,0.0,0.0,0.0,0.0,0.0,0.0,1495.0,1495.0,1495.0,1495.0,1.6404248476028442,0.020229149390822775,-0.19953849326505513,-0.0878788385038196,0.0039045712910592556,0.0037463640328496695,0.0
60,5,0.0,0.0,0.0,0.0037167887203395367,9.967632649932057e-05,-0.0024567581713199615,0.011912211775779724,0.19088678061962128,-0.005601726472377777,-0.0056999726220965385,0.00228440435603261,-0.0009583232458680868,0.0,0.0,0.0,0.001232098089531064,-0.000987792038358748,-0.0,0.0,0.0,0.0,-0.003051875391975045,-0.05641543120145798,-0.0006207026890479028,1495.0,1495.0,1495.0,1495.0,0.0,0.0,0.0,0.0,0.0,0.0,0.0,0.0,1495.0,1495.0,1495.0,1495.0,1.6404248476028442,0.02121660459990089,-0.1995642063387232,-0.08734496866235301,-0.01393795758485794,-0.00037378622801043093,0.0
66,6,-3.738378654816188e-05,-2.439186573610641e-05,1.794859053916298e-05,-0.002999338787049055,0.0029668945353478193,-0.0031365342438220978,0.011912211775779724,0.19088678061962128,-0.005601726472377777,-0.0056999726220965385,0.00228440435603261,-0.0009583232458680868,0.0,0.0,0.0,-0.00012122709449613467,0.0034772271756082773,-0.0,0.0,0.0,0.0,-0.003051875391975045,-0.05641543120145798,-0.0006207026890479028,1495.0,1495.0,1495.0,1495.0,0.0,0.0,0.0,0.0,0.0,0.0,0.0,0.0,1495.0,1495.0,1495.0,1495.0,1.6634702682495117,0.021161129687729322,-0.200103632009879,-0.08764263899285742,-0.01393795758485794,-0.00037378622801043093,0.0
71,5,-4.388550951262005e-05,-3.0036837415536866e-05,2.5396162527613342e-05,-0.001979942200705409,0.0018641542410477996,-0.0021483220625668764,0.011912211775779724,0.19088678061962128,-0.005601726472377777,-0.0056999726220965385,0.00228440435603261,-0.0009583232458680868,0.0,0.0,0.0,-0.00012122709449613467,0.0034772271756082773,-0.0,0.0,0.0,0.0,-0.003051875391975045,-0.05641543120145798,-0.0006207026890479028,8731.0,17461.0,16803.0,8769.0,0.1584833264350891,0.699181079864502,0.6451399922370911,0.16000163555145264,0.0,0.0,0.0,0.0,1495.0,1495.0,1495.0,1495.0,1.6634702682495117,0.019602357993657032,-0.19957144725162024,-0.08830361569603991,-0.01393795758485794,-0.00037378622801043093,0.0
76,5,-7.975845619512256e-06,1.0107916068591294e-06,1.8050521248369478e-05,0.0035171827767044306,-0.0029800536576658487,2.2147911295178346e-05,0.011912211775779724,0.19088678061962128,-0.005601726472377777,-0.0056999726220965385,0.00228440435603261,-0.0009583232458680868,0.0,0.0,0.0,-0.00012122709449613467,0.0034772271756082773,-0.0,0.0,0.0,0.0,-0.003051875391975045,-0.05641543120145798,-0.0006207026890479028,8731.0,17461.0,16803.0,8769.0,0.1584833264350891,0.699181079864502,0.6451399922370911,0.16000163555145264,0.0,0.0,0.0,0.0,1495.0,1495.0,1495.0,1495.0,1.6634702682495117,0.020874025781239237,-0.19976685350729906,-0.08750511129367093,-0.013145539909601212,0.011180764064192772,-0.0
81,5,-1.1326669664413203e-05,-9.587874046701472e-06,2.2547466869582422e-05,0.001004774123430252,7.981839735293761e-05,-0.0005307742394506931,0.011910194531083107,0.19089294970035553,-0.005611954722553492,0.00040844938484951854,-0.003280437784269452,-2.8698788810288534e-05,0.0,0.0,0.0,0.003606833517551422,0.003262057201936841,-0.0,0.0,0.0,0.0,-0.0030750741716474295,-0.056530509144067764,-0.0005410093581303954,8731.0,17461.0,16803.0,8769.0,0.1584833264350891,0.699181079864502,0.6451399922370911,0.16000163555145264,0.0,0.0,0.0,0.0,8724.0,17469.0,16795.0,8777.0,1.672393798828125,0.020573723336104063,-0.19968556863387285,-0.08742227229141583,-0.013145539909601212,0.011180764064192772,-0.0
87,5,1.9704409623955144e-06,-1.6433406926807947e-05,-1.893305488920305e-05,0.0019975630566477776,0.0008533911895938218,0.004765353165566921,0.011910194531083107,0.19089294970035553,-0.005611954722553492,0.00040844938484951854,-0.003280437784269452,-2.8698788810288534e-05,0.0,0.0,0.0,-0.0010772838722914457,0.001889136154204607,-0.0,0.0,0.0,0.0,-0.0030750741716474295,-0.056530509144067764,-0.0005410093581303954,8731.0,17461.0,16803.0,8769.0,0.1584833264350891,0.699181079864502,0.6451399922370911,0.16000163555145264,0.0,0.0,0.0,0.0,8724.0,17469.0,16795.0,8777.0,1.647948980331421,0.021132149688994344,-0.1999011750090492,-0.08667073117271051,-0.007501678075641394,-0.0032906546257436275,0.0
92,5,-3.0559163860743865e-05,-2.09702666325029e-05,-2.0069281163159758e-05,-0.0031045274809002876,0.0008857797365635633,0.002042488195002079,0.011950145475566387,0.19091664254665375,-0.005610990338027477,0.002419103402644396,-0.0004275510145816952,0.0008417058852501214,0.0,0.0,0.0,-0.0010772838722914457,0.001889136154204607,-0.0,0.0,0.0,0.0,-0.003219720907509327,-0.05760740116238594,-0.0007471118005923927,8731.0,17524.0,16719.0,8821.0,0.1584758162498474,0.7045141458511353,0.6383803486824036,0.16209998726844788,0.0,0.0,0.0,0.0,8725.0,17467.0,16782.0,8803.0,1.647948980331421,0.021191217482693335,-0.19931025829901788,-0.08758267171701689,-0.007501678075641394,-0.0032906546257436275,0.0
97,5,-2.5379749786225148e-05,-2.1050869690952823e-05,-2.030711948464159e-05,-0.0006202812073752284,0.00036398423253558576,0.0008455359493382275,0.011950145475566387,0.19091664254665375,-0.005610990338027477,0.002419103402644396,-0.0004275510145816952,0.0008417058852501214,0.0,0.0,0.0,-0.0010772838722914457,0.001889136154204607,-0.0,0.0,0.0,0.0,-0.003219720907509327,-0.05760740116238594,-0.0007471118005923927,8731.0,17524.0,16719.0,8821.0,0.1584758162498474,0.7045141458511353,0.6383803486824036,0.16209998726844788,0.0,0.0,0.0,0.0,8725.0,17467.0,16782.0,8803.0,1.647948980331421,0.020748931045237912,-0.20058312198077596,-0.08721341043035698,-0.007501678075641394,-0.0032906546257436275,0.0
102,5,-1.4200937584973872e-05,3.862948688038159e-06,-9.877210686681792e-06,0.0010933448793366551,-0.0028440644964575768,-0.0009133747080340981,0.01195902656763792,0.19088970124721527,-0.005662662908434868,0.002235043328255415,-0.0068540810607373714,0.0024247574619948864,0.0,0.0,0.0,-0.0004890675190836191,-0.0006264183321036398,-0.0,0.0,0.0,0.0,-0.002524743787944317,-0.056483954191207886,-0.000589648843742907,8735.0,17465.0,16874.0,8852.0,0.15863268077373505,0.6995357275009155,0.6508727669715881,0.16335265338420868,0.0,0.0,0.0,0.0,8758.0,17510.0,16727.0,8808.0,1.6335530281066895,0.02088581619759693,-0.19988340937082835,-0.08757275071891002,0.002465752884745598,-0.0014808482956141233,0.0
107,5,-6.363746251736302e-06,7.921338692540303e-06,1.4445736269408371e-05,0.0013778008287772536,-0.0016246326267719269,-0.0032841034699231386,0.01195902656763792,0.19088970124721527,-0.005662662908434868,0.002235043328255415,-0.0068540810607373714,0.0024247574619948864,0.0,0.0,0.0,-0.0004890675190836191,-0.0006264183321036398,-0.0,0.0,0.0,0.0,-0.002524743787944317,-0.056483954191207886,-0.000589648843742907,8735.0,17465.0,16874.0,8852.0,0.15863268077373505,0.6995357275009155,0.6508727669715881,0.16335265338420868,0.0,0.0,0.0,0.0,8758.0,17510.0,16727.0,8808.0,1.6335530281066895,0.02201032294269782,-0.199648034760307,-0.08708562867799419,0.002465752884745598,-0.0014808482956141233,0.0
112,5,-4.300460568629205e-05,2.6441901354701258e-05,1.4010429367772304e-05,-0.0038457829505205154,-0.0028723205905407667,-0.0012614045990630984,0.011946609243750572,0.19094893336296082,-0.005669332575052977,-0.00022824853658676147,-0.008405937813222408,0.0006700751837342978,0.0,0.0,0.0,0.0020093675702810287,0.0012926977360621095,-0.0,0.0,0.0,0.0,-0.002482442185282707,-0.05664655193686485,-0.0006490851519629359,8660.0,17495.0,16750.0,8500.0,0.1556534618139267,0.7020479440689087,0.6409115791320801,0.14933596551418304,0.0,0.0,0.0,0.0,8713.0,17471.0,16760.0,8477.0,1.6474286317825317,0.02151406089361613,-0.19830578698413862,-0.08859231717343395,-0.0051316204480826855,0.006135839968919754,0.0
117,5,-5.8734331105370075e-05,1.0831829513335833e-06,1.8962888134410605e-05,-0.003425880102440715,0.001894117915071547,-0.001098856795579195,0.011946609243750572,0.19094893336296082,-0.005669332575052977,-0.00022824853658676147,-0.008405937813222408,0.0006700751837342978,0.0,0.0,0.0,-0.0022979537025094032,-0.003280343022197485,-0.0,0.0,0.0,0.0,-0.002482442185282707,-0.05664655193686485,-0.0006490851519629359,8660.0,17495.0,16750.0,8500.0,0.1556534618139267,0.7020479440689087,0.6409115791320801,0.14933596551418304,0.0,0.0,0.0,0.0,8713.0,17471.0,16760.0,8477.0,1.6662133932113647,0.01958039430283393,-0.1972367436575042,-0.08962354377115246,0.013170426711440086,-0.0070970808155834675,0.0
122,5,-6.767311424482614e-05,2.1361090603022603e-06,3.9452093915315345e-05,-0.0024430055636912584,0.0006312960758805275,-0.0028982472140341997,0.011926718056201935,0.1909371167421341,-0.005632312968373299,-0.002720668911933899,0.004539094865322113,0.004002375528216362,0.0,0.0,0.0,-0.0022979537025094032,-0.003280343022197485,-0.0,0.0,0.0,0.0,-0.003785153850913048,-0.05761906877160072,-0.0005956572713330388,8451.0,17488.0,16736.0,8384.0,0.1474672257900238,0.7014637589454651,0.639737069606781,0.14488497376441956,0.0,0.0,0.0,0.0,8491.0,17472.0,16742.0,8366.0,1.6662133932113647,0.020761282311097706,-0.1972491153899918,-0.08935248087702231,0.013170426711440086,-0.0070970808155834675,0.0
127,5,-7.236344390548766e-05,-2.0144818336120807e-05,2.201024653913919e-05,-0.0015400421107187867,0.0029262297321110964,0.0009337227093055844,0.011926718056201935,0.1909371167421341,-0.005632312968373299,-0.002720668911933899,0.004539094865322113,0.004002375528216362,0.0,0.0,0.0,-0.0022979537025094032,-0.003280343022197485,-0.0,0.0,0.0,0.0,-0.003785153850913048,-0.05761906877160072,-0.0005956572713330388,8451.0,17488.0,16736.0,8384.0,0.1474672257900238,0.7014637589454651,0.639737069606781,0.14488497376441956,0.0,0.0,0.0,0.0,8491.0,17472.0,16742.0,8366.0,1.6662133932113647,0.019862582169336257,-0.1971669715151702,-0.08964194262827467,0.013170426711440086,-0.0070970808155834675,0.0
132,5,-3.882297096424736e-05,-1.5521483874181286e-05,3.648674828582443e-05,0.003408839926123619,0.0006156917661428452,-0.0013636911753565073,0.011926718056201935,0.1909371167421341,-0.005632312968373299,-0.002720668911933899,0.004539094865322113,0.004002375528216362,0.0,0.0,0.0,-0.0036022206768393517,-0.001543362275697291,-0.0,0.0,0.0,0.0,-0.003785153850913048,-0.05761906877160072,-0.0005956572713330388,8451.0,17488.0,16736.0,8384.0,0.1474672257900238,0.7014637589454651,0.639737069606781,0.14488497376441956,0.0,0.0,0.0,0.0,8491.0,17472.0,16742.0,8366.0,1.660091757774353,0.020854235923754686,-0.19798716912454786,-0.08859501709734145,0.006173747591674328,-0.011084324680268764,-0.0
138,6,-6.414088420569897e-05,8.23107529868139e-06,1.989761585718952e-05,-0.0016746134497225285,-0.0026040305383503437,0.0014452192699536681,0.0119286784902215,0.190970778465271,-0.005639993119984865,0.0016879154136404395,-0.010507095605134964,0.005276742856949568,0.0,0.0,0.0,-0.0036022206768393517,-0.001543362275697291,-0.0,0.0,0.0,0.0,-0.002994509181007743,-0.057281337678432465,-0.0005724382936023176,8574.0,17441.0,16838.0,8508.0,0.1522562950849533,0.6975066065788269,0.6480000019073486,0.14966575801372528,0.0,0.0,0.0,0.0,8456.0,17485.0,16774.0,8664.0,1.660091757774353,0.020994653211404823,-0.19789034918069334,-0.0889985365659024,0.006173747591674328,-0.011084324680268764,-0.0
143,5,-4.6826127800159156e-05,5.962673185422318e-06,-7.276639735209756e-07,0.0014079251559451222,-0.0007694038795307279,0.0030531215015798807,0.01191191840916872,0.19100244343280792,-0.005611804313957691,0.0001763200998539105,-0.0027998900040984154,0.0020112183410674334,0.0,0.0,0.0,0.0031925495713949203,-0.001660546287894249,-0.0,0.0,0.0,0.0,-0.004239119589328766,-0.058707039803266525,-0.0005303533398546278,8657.0,17643.0,16887.0,8368.0,0.15551164746284485,0.7145295739173889,0.6519295573234558,0.14424264430999756,0.0,0.0,0.0,0.0,8720.0,17611.0,16926.0,8289.0,1.6578112840652466,0.02176943911598946,-0.1975869197855841,-0.08913572516270311,0.006633390672504902,0.009810247458517551,-0.0
148,5,-4.5069900806993246e-05,2.178661452489905e-05,2.8704729629680514e-05,0.0007739173015579581,-0.002206634497269988,-0.0023106385488063097,0.01191191840916872,0.19100244343280792,-0.005611804313957691,0.0001763200998539105,-0.0027998900040984154,0.0020112183410674334,0.0,0.0,0.0,0.0031925495713949203,-0.001660546287894249,-0.0,0.0,0.0,0.0,-0.004239119589328766,-0.058707039803266525,-0.0005303533398546278,8657.0,17643.0,16887.0,8368.0,0.15551164746284485,0.7145295739173889,0.6519295573234558,0.14424264430999756,0.0,0.0,0.0,0.0,8720.0,17611.0,16926.0,8289.0,1.6578112840652466,0.021009701860945366,-0.1983425522825089,-0.08864726459523065,0.006633390672504902,0.009810247458517551,-0.0
153,5,-3.9139918953878805e-05,3.035937697859481e-05,1.1272923075011931e-05,0.0010211645858362317,-0.0019113854505121708,0.0011675612768158317,0.01191191840916872,0.19100244343280792,-0.005611804313957691,0.0001763200998539105,-0.0027998900040984154,0.0020112183410674334,0.0,0.0,0.0,0.0027454555965960026,0.0006675150943920016,-0.0,0.0,0.0,0.0,-0.004239119589328766,-0.058707039803266525,-0.0005303533398546278,8657.0,17643.0,16887.0,8368.0,0.15551164746284485,0.7145295739173889,0.6519295573234558,0.14424264430999756,0.0,0.0,0.0,0.0,8720.0,17611.0,16926.0,8289.0,1.6496063470840454,0.021057399581427858,-0.19827386416578452,-0.08885350271459937,-0.002653332194313407,0.008394644595682621,0.0
158,5,-4.4997461372986436e-05,3.303273115307093e-05,-3.048076280265377e-07,-0.0002944394072983414,-0.0010853566927835345,0.0018563522025942802,0.011932420544326305,0.19099940359592438,-0.0055939615704119205,0.002944362349808216,0.005947317462414503,-0.002003137953579426,0.0,0.0,0.0,0.0014005281263962388,-0.0003427645133342594,-0.0,0.0,0.0,0.0,-0.0026348689571022987,-0.058137815445661545,-0.0006723692058585584,8683.0,17641.0,16773.0,8425.0,0.15654414892196655,0.7144157886505127,0.6426872611045837,0.14644449949264526,0.0,0.0,0.0,0.0,8477.0,17506.0,16910.0,8584.0,1.6378529071807861,0.021382136670617103,-0.19781489795989823,-0.08855398434804412,0.001352764549665153,0.004251821432262659,0.0
163,5,-5.043932469561696e-05,2.7758751457440667e-05,-5.982272341498174e-06,-0.0007707993499934673,0.00019873502606060356,0.0014238366857171059,0.011932420544326305,0.19099940359592438,-0.0055939615704119205,0.002944362349808216,0.005947317462414503,-0.002003137953579426,0.0,0.0,0.0,0.0014005281263962388,-0.0003427645133342594,-0.0,0.0,0.0,0.0,-0.0026348689571022987,-0.058137815445661545,-0.0006723692058585584,8683.0,17641.0,16773.0,8425.0,0.15654414892196655,0.7144157886505127,0.6426872611045837,0.14644449949264526,0.0,0.0,0.0,0.0,8477.0,17506.0,16910.0,8584.0,1.6378529071807861,0.021647009785874815,-0.19805032583648458,-0.08857498010059696,0.001352764549665153,0.004251821432262659,0.0
168,5,-4.176559377810918e-05,1.68204842339037e-05,2.1410372937680222e-05,0.0032562955748289824,0.00014761873171664774,-0.00132347596809268,0.01194035541266203,0.190961554646492,-0.005623405799269676,0.0014855389017611742,-0.003453531302511692,-0.0053476979956030846,0.0,0.0,0.0,0.0014005281263962388,-0.0003427645133342594,-0.0,0.0,0.0,0.0,-0.002842443995177746,-0.05735492333769798,-0.0004268478078301996,8346.0,17571.0,16862.0,8671.0,0.14342375099658966,0.70846027135849,0.6498622894287109,0.1560649424791336,0.0,0.0,0.0,0.0,8443.0,17530.0,16915.0,8554.0,1.6378529071807861,0.021438379598192312,-0.1977727247121838,-0.08869020830254273,0.001352764549665153,0.004251821432262659,0.0
173,5,-4.176559377810918e-05,1.68204842339037e-05,2.1410372937680222e-05,0.0032562955748289824,0.00014761873171664774,-0.00132347596809268,0.011961634270846844,0.1909545660018921,-0.005597809795290232,-0.003210950642824173,0.008386778645217419,0.0006681274971924722,0.0,0.0,0.0,-0.00014996936079114676,0.002998280106112361,-0.0,0.0,0.0,0.0,-0.0031886568758636713,-0.05810355022549629,-0.0004890274140052497,8575.0,17426.0,16850.0,8571.0,0.15228427946567535,0.6962818503379822,0.6489204168319702,0.1521197408437729,0.0,0.0,0.0,0.0,8341.0,17520.0,16799.0,8705.0,1.658203125,0.021438379598192312,-0.1977727247121838,-0.08869020830254273,-0.011980121023952961,-0.00046094469144009054,0.0
178,5,6.178798503242433e-05,-0.0002104027516907081,-0.00038740053423680365,0.013728947378695011,0.027325836941599846,0.04852791875600815,0.011961634270846844,0.1909545660018921,-0.005597809795290232,-0.003210950642824173,0.008386778645217419,0.0006681274971924722,0.0,0.0,0.0,-0.00014996936079114676,0.002998280106112361,-0.0,0.0,0.0,0.0,-0.0031886568758636713,-0.05810355022549629,-0.0004890274140052497,8575.0,17426.0,16850.0,8571.0,0.15228427946567535,0.6962818503379822,0.6489204168319702,0.1521197408437729,0.0,0.0,0.0,0.0,8341.0,17520.0,16799.0,8705.0,1.658203125,0.017190099439752738,-0.19324625243759364,-0.09266265078696546,-0.011980121023952961,-0.00046094469144009054,0.0
184,5,9.116721776081249e-05,-0.0001937696652021259,-0.00041456427425146103,0.01096764113754034,0.0035714071709662676,0.018961818888783455,0.011961634270846844,0.1909545660018921,-0.005597809795290232,-0.003210950642824173,0.008386778645217419,0.0006681274971924722,0.0,0.0,0.0,-0.028984371572732925,0.011151519604027271,-0.0,0.0,0.0,0.0,-0.0031886568758636713,-0.05810355022549629,-0.0004890274140052497,8575.0,17426.0,16850.0,8571.0,0.15228427946567535,0.6962818503379822,0.6489204168319702,0.1521197408437729,0.0,0.0,0.0,0.0,8341.0,17520.0,16799.0,8705.0,1.9294005632400513,0.018376582193875102,-0.1933470477207251,-0.09185602697932958,-0.05182232707738876,-0.10362973064184189,0.0
189,5,5.801179213449359e-05,-0.00020576892711687833,-0.00041015795432031155,0.0004084052052348852,0.002868474228307605,0.007055969908833504,0.011956647038459778,0.19100159406661987,-0.005628409329801798,0.012909634038805962,-0.00027888896875083447,-0.006483105011284351,0.0,0.0,0.0,-0.028984371572732925,0.011151519604027271,-0.0,0.0,0.0,0.0,-0.00333618582226336,-0.056838177144527435,-0.00013016474258620292,8410.0,17497.0,16782.0,8422.0,0.1458515226840973,0.7022090554237366,0.6434505581855774,0.14634177088737488,0.0,0.0,0.0,0.0,8401.0,17502.0,16771.0,8442.0,1.9294005632400513,0.01705630308232566,-0.19356987758282496,-0.09246155498882815,-0.05182232707738876,-0.10362973064184189,0.0
194,5,9.672371379565448e-05,-0.0002062869316432625,-0.0004511770966928452,0.004808792844414711,0.0012095511192455888,0.007744682487100363,0.011956647038459778,0.19100159406661987,-0.005628409329801798,0.012909634038805962,-0.00027888896875083447,-0.006483105011284351,0.0,0.0,0.0,-0.003868118394166231,0.00046290180762298405,-0.0,0.0,0.0,0.0,-0.00333618582226336,-0.056838177144527435,-0.00013016474258620292,8410.0,17497.0,16782.0,8422.0,0.1458515226840973,0.7022090554237366,0.6434505581855774,0.14634177088737488,0.0,0.0,0.0,0.0,8401.0,17502.0,16771.0,8442.0,1.6583266258239746,0.017155532551840203,-0.19316211256375454,-0.09200524497175526,-0.0018497267737984657,-0.011889850720763206,0.0
199,5,9.247578418580815e-05,-0.00016427361697424203,-0.0004301553126424551,0.0014137650141492486,-0.004557778127491474,0.0005752616561949253,0.011936481110751629,0.19100221991539001,-0.005569640547037125,-0.03245849534869194,0.003725352231413126,-0.010449973866343498,0.0,0.0,0.0,-0.003868118394166231,0.00046290180762298405,-0.0,0.0,0.0,0.0,-0.012533550150692463,-0.054613471031188965,-0.0005550984642468393,11363.0,18544.0,17112.0,9367.0,0.2812308967113495,0.7929153442382812,0.6703022718429565,0.18495209515094757,0.0,0.0,0.0,0.0,8365.0,17624.0,16635.0,9000.0,1.6583266258239746,0.017911866074087263,-0.19400791065323605,-0.09118697622325203,-0.0018497267737984657,-0.011889850720763206,0.0
204,5,9.247578418580815e-05,-0.00016427361697424203,-0.0004301553126424551,0.0014137650141492486,-0.004557778127491474,0.0005752616561949253,0.011936481110751629,0.19100221991539001,-0.005569640547037125,-0.03245849534869194,0.003725352231413126,-0.010449973866343498,0.0,0.0,0.0,0.005222076550126076,0.0014418167993426323,-0.0,0.0,0.0,0.0,-0.012533550150692463,-0.054613471031188965,-0.0005550984642468393,11363.0,18544.0,17112.0,9367.0,0.2812308967113495,0.7929153442382812,0.6703022718429565,0.18495209515094757,0.0,0.0,0.0,0.0,8365.0,17624.0,16635.0,9000.0,1.6722372770309448,0.017911866074087263,-0.19400791065323605,-0.09118697622325203,-0.0058097015134990215,0.016186244785785675,0.0
209,5,-4.806386641575955e-05,-0.00015795398212503642,-0.00018545413331594318,-0.017390459775924683,-0.002695922739803791,-0.029501521959900856,0.011899619363248348,0.19101397693157196,-0.005633259657770395,0.02260708063840866,-0.015536664053797722,0.01976833865046501,0.0,0.0,0.0,0.005222076550126076,0.0014418167993426323,-0.0,0.0,0.0,0.0,-0.012030724436044693,-0.054427266120910645,-0.0008141178986988962,8270.0,17792.0,16562.0,8886.0,0.14054369926452637,0.7272089719772339,0.6258569955825806,0.1647169291973114,0.0,0.0,0.0,0.0,11629.0,18350.0,17309.0,9050.0,1.6722372770309448,0.015293456318234018,-0.19648981040149235,-0.09264059121095906,-0.0058097015134990215,0.016186244785785675,0.0
214,5,8.927763701649383e-05,-0.0002254251012345776,-0.0004565681447274983,0.009524797089397907,0.007018165197223425,0.020733069628477097,0.011899619363248348,0.19101397693157196,-0.005633259657770395,0.02260708063840866,-0.015536664053797722,0.01976833865046501,0.0,0.0,0.0,0.0027663586661219597,-0.015082907862961292,-0.0,0.0,0.0,0.0,-0.012030724436044693,-0.054427266120910645,-0.0008141178986988962,8270.0,17792.0,16562.0,8886.0,0.14054369926452637,0.7272089719772339,0.6258569955825806,0.1647169291973114,0.0,0.0,0.0,0.0,11629.0,18350.0,17309.0,9050.0,1.801710605621338,0.015914865246156415,-0.1933443164834389,-0.09260977299188514,0.06547927856445312,0.009238491766154766,0.0
219,5,-8.864600386004895e-05,-0.00016815870185382664,-0.00014272805128712207,-0.01754091866314411,-0.004064701963216066,-0.029367581009864807,0.011854655109345913,0.19103731215000153,-0.005529926624149084,-0.018040979281067848,0.0002470889885444194,-0.027476394549012184,0.0,0.0,0.0,0.0027663586661219597,-0.015082907862961292,-0.0,0.0,0.0,0.0,-0.0016413256525993347,-0.05804174765944481,0.000257089122897014,8270.0,17792.0,16562.0,8886.0,0.14054369926452637,0.7272089719772339,0.6258569955825806,0.1647169291973114,0.0,0.0,0.0,0.0,8842.0,17542.0,16911.0,8135.0,1.801710605621338,0.014144657555395174,-0.1951407278822786,-0.09281667724663957,0.06547927856445312,0.009238491766154766,0.0
224,5,0.00011667004582704976,-0.0001899384515127167,-0.00044961986714042723,0.017621558159589767,0.0009876885451376438,0.025079984217882156,0.011854655109345913,0.19103731215000153,-0.005529926624149084,-0.018040979281067848,0.0002470889885444194,-0.027476394549012184,0.0,0.0,0.0,0.0042760735377669334,-0.01522773690521717,-0.0,0.0,0.0,0.0,-0.0016413256525993347,-0.05804174765944481,0.000257089122897014,8270.0,17792.0,16562.0,8886.0,0.14054369926452637,0.7272089719772339,0.6258569955825806,0.1647169291973114,0.0,0.0,0.0,0.0,8842.0,17542.0,16911.0,8135.0,1.8060545921325684,0.01793940505073159,-0.19405932816302476,-0.09147474214285989,0.06626701354980469,0.014314698986709118,0.0
230,5,7.722248847130686e-05,-0.00020272644178476185,-0.000373565562767908,0.002314916579052806,0.0019296342507004738,0.0009054766269400716,0.011722490191459656,0.19121088087558746,-0.005446620751172304,0.006988569162786007,0.002750739920884371,-0.011387375183403492,0.0,0.0,0.0,0.0042760735377669334,-0.01522773690521717,-0.0,0.0,0.0,0.0,-0.0019349269568920135,-0.05749068409204483,-0.0004151986795477569,9149.0,18043.0,17701.0,8713.0,0.1756337732076645,0.7488625049591064,0.7194885611534119,0.15772582590579987,0.0,0.0,0.0,0.0,8440.0,17561.0,16825.0,9030.0,1.8060545921325684,0.017248185758677134,-0.1944395796850286,-0.09132291175385054,0.06626701354980469,0.014314698986709118,0.0
235,5,0.00011553834337973967,-0.00022042338969185948,-0.000409882195526734,0.005523869302123785,0.002895487006753683,0.004720186814665794,0.011722490191459656,0.19121088087558746,-0.005446620751172304,0.006988569162786007,0.002750739920884371,-0.011387375183403492,0.0,0.0,0.0,-0.0027166572399437428,0.0022773388773202896,-0.0,0.0,0.0,0.0,-0.0019349269568920135,-0.05749068409204483,-0.0004151986795477569,9149.0,18043.0,17701.0,8713.0,0.1756337732076645,0.7488625049591064,0.7194885611534119,0.15772582590579987,0.0,0.0,0.0,0.0,8440.0,17561.0,16825.0,9030.0,1.6591991186141968,0.015546378017748759,-0.1946893335223286,-0.09088119422222676,-0.00910491868853569,-0.008354893885552883,0.0
240,5,0.00011278669990133494,-0.000218409753870219,-0.0003791894414462149,0.001879350165836513,0.0009165590745396912,-0.0017950544133782387,0.011770385317504406,0.19110356271266937,-0.005472626071423292,-0.0022092752624303102,0.006412465590983629,0.026812123134732246,0.0,0.0,0.0,-0.0027166572399437428,0.0022773388773202896,-0.0,0.0,0.0,0.0,-0.002245288109406829,-0.060739196836948395,-0.0009076191345229745,8588.0,18191.0,17260.0,9812.0,0.1528044193983078,0.7617707252502441,0.6824467182159424,0.20468877255916595,0.0,0.0,0.0,0.0,9458.0,17883.0,17833.0,8439.0,1.6591991186141968,0.017416996443282907,-0.19463028154127138,-0.09025719509751866,-0.00910491868853569,-0.008354893885552883,0.0
245,5,-9.220471838489175e-05,-0.0001424388465238735,-2.1120826204423793e-05,-0.023847229778766632,-0.00874988455325365,-0.04368625581264496,0.011770385317504406,0.19110356271266937,-0.005472626071423292,-0.0022092752624303102,0.006412465590983629,0.026812123134732246,0.0,0.0,0.0,-0.0015180502086877823,0.001928464276716113,-0.0,0.0,0.0,0.0,-0.002245288109406829,-0.060739196836948395,-0.0009076191345229745,8588.0,18191.0,17260.0,9812.0,0.1528044193983078,0.7617707252502441,0.6824467182159424,0.20468877255916595,0.0,0.0,0.0,0.0,9458.0,17883.0,17833.0,8439.0,1.6500362157821655,0.011209176444542735,-0.19196711088367088,-0.0930623546756427,-0.007667542435228825,-0.004642884247004986,0.0
250,5,8.784418605500832e-05,-0.00013276621757540852,-0.00023817495093680918,0.012066977098584175,-0.00466066924855113,0.008571992628276348,0.011514454148709774,0.19054214656352997,-0.005394932813942432,-0.08953060954809189,0.11458796262741089,-0.028831878677010536,0.0,0.0,0.0,-0.0015180502086877823,0.001928464276716113,-0.0,0.0,0.0,0.0,0.0009465665207244456,-0.05696621537208557,0.0010822617914527655,8588.0,18191.0,17260.0,9812.0,0.1528044193983078,0.7617707252502441,0.6824467182159424,0.20468877255916595,0.0,0.0,0.0,0.0,8741.0,17967.0,17461.0,9835.0,1.6500362157821655,0.01396334951433464,-0.18932938666856558,-0.09271078751774237,-0.007667542435228825,-0.004642884247004986,0.0
255,5,0.00016754747775848955,-0.00011339425691403449,-0.00024379444948863238,0.014391184784471989,-0.004188903141766787,0.00410313718020916,0.011514454148709774,0.19054214656352997,-0.005394932813942432,-0.08953060954809189,0.11458796262741089,-0.028831878677010536,0.0,0.0,0.0,0.005143581889569759,0.010808358900249004,-0.0,0.0,0.0,0.0,0.0009465665207244456,-0.05696621537208557,0.0010822617914527655,8588.0,18191.0,17260.0,9812.0,0.1528044193983078,0.7617707252502441,0.6824467182159424,0.20468877255916595,0.0,0.0,0.0,0.0,8741.0,17967.0,17461.0,9835.0,1.756079912185669,0.014280929551197603,-0.1858907447054587,-0.09143420395539582,-0.04573426768183708,0.016742296516895294,0.0
260,5,0.00019841757602989674,-0.00013670721091330051,-0.00022762181470170617,0.009460886009037495,0.0011219935258850455,-0.00029946150607429445,0.010283407755196095,0.18926671147346497,-0.005187229253351688,-0.18078096210956573,0.29579025506973267,0.0469135157763958,0.0,0.0,0.0,0.005143581889569759,0.010808358900249004,-0.0,0.0,0.0,0.0,-0.001405673916451633,-0.0409453809261322,-0.0017155006062239408,10604.0,16114.0,15941.0,10544.0,0.24229489266872406,0.5908764004707336,0.5775474905967712,0.2393174022436142,0.0,0.0,0.0,0.0,8606.0,17286.0,15746.0,10923.0,1.756079912185669,0.010990796237895886,-0.1806450066199986,-0.09218367288814121,-0.04573426768183708,0.016742296516895294,0.0
265,5,0.0002061424165731296,-0.00019126178813166916,-3.638402631622739e-05,0.0047113350592553616,0.0069953459315001965,-0.023068320006132126,0.010283407755196095,0.18926671147346497,-0.005187229253351688,-0.18078096210956573,0.29579025506973267,0.0469135157763958,0.0,0.0,0.0,-0.0015528836520388722,0.008798813447356224,-0.0,0.0,0.0,0.0,-0.001405673916451633,-0.0409453809261322,-0.0017155006062239408,10604.0,16114.0,15941.0,10544.0,0.24229489266872406,0.5908764004707336,0.5775474905967712,0.2393174022436142,0.0,0.0,0.0,0.0,8606.0,17286.0,15746.0,10923.0,1.7248777151107788,0.001904298519187829,-0.17795084299808248,-0.09581421603778453,-0.03657027333974838,-0.004964842461049557,0.0
270,5,0.0004466204554773867,-0.00017458791262470186,-0.0003630643477663398,0.030741900205612183,0.0007972726016305387,0.029974311590194702,0.008441067300736904,0.183305025100708,-0.0053684101440012455,-0.1273670792579651,0.7450494766235352,0.045307740569114685,0.0,0.0,0.0,-0.0015528836520388722,0.008798813447356224,-0.0,0.0,0.0,0.0,-0.0015808786265552044,-0.024565700441598892,-0.0017008220311254263,11300.0,15731.0,14247.0,12664.0,0.2779214084148407,0.5616970062255859,0.4556552767753601,0.354762464761734,0.0,0.0,0.0,0.0,11321.0,15647.0,15669.0,10929.0,1.7248777151107788,0.009250414044132335,-0.16558214166463786,-0.09384122121341984,-0.03657027333974838,-0.004964842461049557,0.0
275,5,0.0006752221961505711,-0.00014129748160485178,-0.00046050676610320807,0.03972896933555603,-0.0036759416107088327,0.023682814091444016,0.008441067300736904,0.183305025100708,-0.0053684101440012455,-0.1273670792579651,0.7450494766235352,0.045307740569114685,0.0,0.0,0.0,-0.0011035995557904243,0.025268224999308586,-0.0,0.0,0.0,0.0,-0.0015808786265552044,-0.024565700441598892,-0.0017008220311254263,11300.0,15731.0,14247.0,12664.0,0.2779214084148407,0.5616970062255859,0.4556552767753601,0.354762464761734,0.0,0.0,0.0,0.0,11321.0,15647.0,15669.0,10929.0,1.9339563846588135,0.0090091374484903,-0.15848522509608906,-0.09155399080865,-0.11774075776338577,-0.003956093918532133,0.0
280,5,0.0008371694711968303,-0.00021650976850651205,-0.000671482877805829,0.03532525897026062,0.007555097341537476,0.03479025885462761,0.008441067300736904,0.183305025100708,-0.0053684101440012455,-0.1273670792579651,0.7450494766235352,0.045307740569114685,0.0,0.0,0.0,-0.0011035995557904243,0.025268224999308586,-0.0,0.0,0.0,0.0,-0.0015808786265552044,-0.024565700441598892,-0.0017008220311254263,11300.0,15731.0,14247.0,12664.0,0.2779214084148407,0.5616970062255859,0.4556552767753601,0.354762464761734,0.0,0.0,0.0,0.0,11321.0,15647.0,15669.0,10929.0,1.9339563846588135,0.004227870226812783,-0.14880442525858587,-0.09171325973016588,-0.11774075776338577,-0.003956093918532133,0.0
286,5,0.0008840276277624071,-0.0003898739814758301,-0.0006919076549820602,0.01975307986140251,0.023825744166970253,0.016367077827453613,0.007014404982328415,0.15661898255348206,-0.005832554306834936,-0.023006470873951912,1.8796273469924927,-0.02769378200173378,0.0,0.0,0.0,-0.00800611637532711,0.02859318070113659,-0.0,0.0,0.0,0.0,-0.00032691002706997097,-0.0040612961165606976,-0.001303800498135388,13706.0,14304.0,13586.0,14380.0,0.4198026657104492,0.4595490097999573,0.4119778871536255,0.46475034952163696,0.0,0.0,0.0,0.0,11981.0,15753.0,13694.0,14291.0,1.9898970127105713,-0.001410786208753422,-0.13855702552931956,-0.09712455181112375,-0.13707929849624634,-0.029529264196753502,0.0
291,5,0.0011180747533217072,-0.0003491695679258555,-0.000978386728093028,0.03598688542842865,0.0046457694843411446,0.040924321860075,0.007014404982328415,0.15661898255348206,-0.005832554306834936,-0.023006470873951912,1.8796273469924927,-0.02769378200173378,0.0,0.0,0.0,-0.00800611637532711,0.02859318070113659,-0.0,0.0,0.0,0.0,-0.00032691002706997097,-0.0040612961165606976,-0.001303800498135388,13706.0,14304.0,13586.0,14380.0,0.4198026657104492,0.4595490097999573,0.4119778871536255,0.46475034952163696,0.0,0.0,0.0,0.0,11981.0,15753.0,13694.0,14291.0,1.9898970127105713,0.0053851091425632614,-0.12198411906609921,-0.09647458814151381,-0.13707929849624634,-0.029529264196753502,0.0
296,5,0.0012575683649629354,-0.00036306417314335704,-0.00103099609259516,0.031133994460105896,0.003525658743456006,0.022682851180434227,0.007020808756351471,0.14015033841133118,-0.00627259723842144,0.044575609266757965,2.2553789615631104,-0.11616967618465424,0.0,0.0,0.0,-0.0041933804750442505,0.026173267513513565,-0.0,0.0,0.0,0.0,-0.0031480048783123493,0.013396953232586384,-0.002680005505681038,13832.0,14405.0,10952.0,15849.0,0.4280162453651428,0.46643269062042236,0.2598017454147339,0.5706270337104797,0.0,0.0,0.0,0.0,13763.0,14370.0,12257.0,14977.0,1.9491000175476074,0.010051511153999776,-0.11198079233448953,-0.09638106983976198,-0.12291095405817032,-0.015149720944464207,0.0
301,5,0.0014536594972014427,-0.00037630810402333736,-0.001243201200850308,0.03598453477025032,0.002999535296112299,0.03453775867819786,0.007020808756351471,0.14015033841133118,-0.00627259723842144,0.044575609266757965,2.2553789615631104,-0.11616967618465424,0.0,0.0,0.0,-0.0041933804750442505,0.026173267513513565,-0.0,0.0,0.0,0.0,-0.0031480048783123493,0.013396953232586384,-0.002680005505681038,13832.0,14405.0,10952.0,15849.0,0.4280162453651428,0.46643269062042236,0.2598017454147339,0.5706270337104797,0.0,0.0,0.0,0.0,13763.0,14370.0,12257.0,14977.0,1.9491000175476074,0.012034060227595232,-0.10259288498500777,-0.0951777878871209,-0.12291095405817032,-0.015149720944464207,0.0
306,5,0.001587547012604773,-0.0004196253721602261,-0.0013489746488630772,0.030460311099886894,0.006397887133061886,0.026507917791604996,0.007683950010687113,0.11264493316411972,-0.0075640990398824215,0.039752595126628876,2.300907850265503,-0.11602869629859924,0.0,0.0,0.0,-0.007264553103595972,0.026122411713004112,-0.0,0.0,0.0,0.0,-0.0044475398026406765,0.02779761515557766,-0.004273510538041592,15487.0,14305.0,10388.0,17460.0,0.543466329574585,0.4596378803253174,0.23171021044254303,0.6991419792175293,0.0,0.0,0.0,0.0,16048.0,14344.0,10400.0,17585.0,1.9539028406143188,0.013884575756206262,-0.09188538646088483,-0.09540309043912258,-0.12297229468822479,-0.026309553533792496,0.0
311,5,0.0016677568200975657,-0.0004528772260528058,-0.0014467472210526466,0.021809302270412445,0.006549378857016563,0.02233586460351944,0.007683950010687113,0.11264493316411972,-0.0075640990398824215,0.039752595126628876,2.300907850265503,-0.11602869629859924,0.0,0.0,0.0,-0.007264553103595972,0.026122411713004112,-0.0,0.0,0.0,0.0,-0.0044475398026406765,0.02779761515557766,-0.004273510538041592,15487.0,14305.0,10388.0,17460.0,0.543466329574585,0.4596378803253174,0.23171021044254303,0.6991419792175293,0.0,0.0,0.0,0.0,16048.0,14344.0,10400.0,17585.0,1.9539028406143188,0.014997329625687856,-0.08361769563526508,-0.09518254084266817,-0.12297229468822479,-0.026309553533792496,0.0
316,5,0.0017531720222905278,-0.0004711167130153626,-0.001490950002335012,0.018973536789417267,0.00480848690494895,0.01423867978155613,0.008105856366455555,0.09486189484596252,-0.008106810972094536,0.011623907834291458,2.051581382751465,-0.03622278571128845,0.0,0.0,0.0,-0.006028983276337385,0.01816466823220253,-0.0,0.0,0.0,0.0,-0.005766147747635841,0.03251267597079277,-0.0023654112592339516,16427.0,13825.0,11391.0,17040.0,0.6152338981628418,0.42754268646240234,0.28272974491119385,0.6643906831741333,0.0,0.0,0.0,0.0,16301.0,13914.0,11660.0,16911.0,1.8464553356170654,0.01649640818018219,-0.07782548735254347,-0.0949033494957745,-0.08081395924091339,-0.020634153857827187,0.0
321,5,0.0018805478466674685,-0.0004047068359795958,-0.0016705745365470648,0.02287451922893524,-0.0060457889921963215,0.027250416576862335,0.008105856366455555,0.09486189484596252,-0.008106810972094536,0.011623907834291458,2.051581382751465,-0.03622278571128845,0.0,0.0,0.0,-0.006028983276337385,0.01816466823220253,-0.0,0.0,0.0,0.0,-0.005766147747635841,0.03251267597079277,-0.0023654112592339516,16427.0,13825.0,11391.0,17040.0,0.6152338981628418,0.42754268646240234,0.28272974491119385,0.6643906831741333,0.0,0.0,0.0,0.0,16301.0,13914.0,11660.0,16911.0,1.8464553356170654,0.02428775187716386,-0.06906725446661018,-0.09390387947392287,-0.08081395924091339,-0.020634153857827187,0.0
326,5,0.0019375340780243278,-0.00041084238910116255,-0.0017317901365458965,0.01598815806210041,-0.001682049478404224,0.018246039748191833,0.008096209727227688,0.07305337488651276,-0.00865117646753788,-0.04552236944437027,1.4910391569137573,-0.08126059919595718,0.0,0.0,0.0,0.001200346858240664,0.016163701191544533,-0.0,0.0,0.0,0.0,-0.003863224061205983,0.0243836622685194,-0.003060803050175309,15357.0,14464.0,11506.0,16934.0,0.5339537262916565,0.47046178579330444,0.28893473744392395,0.6557496786117554,0.0,0.0,0.0,0.0,14917.0,14844.0,12051.0,16626.0,1.8137379884719849,0.024422013354833932,-0.06504713291379033,-0.09338989263206969,-0.07063956558704376,0.004035428632050753,0.0
331,5,0.001905327313579619,-0.0004405172949191183,-0.00169570988509804,0.0025304469745606184,0.0028881700709462166,0.002968793734908104,0.008096209727227688,0.07305337488651276,-0.00865117646753788,-0.04552236944437027,1.4910391569137573,-0.08126059919595718,0.0,0.0,0.0,0.001200346858240664,0.016163701191544533,-0.0,0.0,0.0,0.0,-0.003863224061205983,0.0243836622685194,-0.003060803050175309,15357.0,14464.0,11506.0,16934.0,0.5339537262916565,0.47046178579330444,0.28893473744392395,0.6557496786117554,0.0,0.0,0.0,0.0,14917.0,14844.0,12051.0,16626.0,1.8137379884719849,0.022757135746673835,-0.062000245566651575,-0.0949050599498992,-0.07063956558704376,0.004035428632050753,0.0
336,5,0.0018466294277459383,-0.00042450116598047316,-0.0016574648907408118,-0.0060315681621432304,-0.0007666692254133523,-0.0034018869046121836,0.0075773210264742374,0.06407956033945084,-0.009231497533619404,-0.11088722944259644,0.7438585758209229,-0.08394718170166016,0.0,0.0,0.0,0.00017105680308304727,-0.003108076751232147,-0.0,0.0,0.0,0.0,-0.0010793544352054596,-0.006656683050096035,-0.003834228962659836,14287.0,15504.0,12768.0,16101.0,0.4583664536476135,0.5447278618812561,0.36098694801330566,0.5898215770721436,0.0,0.0,0.0,0.0,13612.0,16012.0,13029.0,15976.0,1.659416913986206,0.022576035859013806,-0.06123534877732083,-0.0940128124304019,0.01242792047560215,0.0005261437618173659,0.0
341,5,0.001706799608655274,-0.000495872984174639,-0.0013553756289184093,-0.019192205742001534,0.008257950656116009,-0.0376114584505558,0.0075773210264742374,0.06407956033945084,-0.009231497533619404,-0.11088722944259644,0.7438585758209229,-0.08394718170166016,0.0,0.0,0.0,0.00017105680308304727,-0.003108076751232147,-0.0,0.0,0.0,0.0,-0.0010793544352054596,-0.006656683050096035,-0.003834228962659836,14287.0,15504.0,12768.0,16101.0,0.4583664536476135,0.5447278618812561,0.36098694801330566,0.5898215770721436,0.0,0.0,0.0,0.0,13612.0,16012.0,13029.0,15976.0,1.659416913986206,0.014279526538693063,-0.06697721128560029,-0.09632705252555764,0.01242792047560215,0.0005261437618173659,0.0
347,5,0.001622179988771677,-0.0005285951192490757,-0.001395686180330813,-0.01783123053610325,0.0072298357263207436,-0.010207322426140308,0.005866712890565395,0.05853498354554176,-0.01045326329767704,-0.19186265766620636,0.09466598927974701,-0.1109200045466423,0.0,0.0,0.0,0.00017105680308304727,-0.003108076751232147,-0.0,0.0,0.0,0.0,0.003200291655957699,-0.021150555461645126,-0.003342949552461505,12166.0,16278.0,13444.0,15087.0,0.3256143033504486,0.6035853028297424,0.4029329717159271,0.5143226981163025,0.0,0.0,0.0,0.0,11673.0,16500.0,14098.0,14629.0,1.659416913986206,0.012470010100694592,-0.06729004330588033,-0.0978414747196205,0.01242792047560215,0.0005261437618173659,0.0
352,5,0.001475805533118546,-0.0004630059702321887,-0.001313112210482359,-0.024697426706552505,-0.00497876200824976,-0.013991809450089931,0.005866712890565395,0.05853498354554176,-0.01045326329767704,-0.19186265766620636,0.09466598927974701,-0.1109200045466423,0.0,0.0,0.0,-0.00900539942085743,-0.013355791568756104,-0.0,0.0,0.0,0.0,0.003200291655957699,-0.021150555461645126,-0.003342949552461505,12166.0,16278.0,13444.0,15087.0,0.3256143033504486,0.6035853028297424,0.4029329717159271,0.5143226981163025,0.0,0.0,0.0,0.0,11673.0,16500.0,14098.0,14629.0,1.7994029521942139,0.012745809048036027,-0.06828363417479306,-0.09763280525327735,0.05790545046329498,-0.030035115778446198,0.0
357,5,0.0013434257125481963,-0.00044558654190041125,-0.0013463222421705723,-0.025764554738998413,-0.00408183503895998,-0.0016115120379254222,0.004015434067696333,0.05985983461141586,-0.011205632239580154,-0.28161171078681946,-0.35454797744750977,-0.07762488722801208,0.0,0.0,0.0,-0.00900539942085743,-0.013355791568756104,-0.0,0.0,0.0,0.0,0.004073513671755791,-0.03327073156833649,-0.0036548238713294268,10878.0,16479.0,14763.0,14121.0,0.2559833526611328,0.6192898154258728,0.49127450585365295,0.44719040393829346,0.0,0.0,0.0,0.0,10338.0,16738.0,14866.0,14104.0,1.7994029521942139,0.010635427208048645,-0.06926919378705626,-0.09796366225000866,0.05790545046329498,-0.030035115778446198,0.0
362,5,0.00116088951472193,-0.0004042741493321955,-0.0013065700186416507,-0.032210156321525574,-0.0065902229398489,-0.00541487243026495,0.004015434067696333,0.05985983461141586,-0.011205632239580154,-0.28161171078681946,-0.35454797744750977,-0.07762488722801208,0.0,0.0,0.0,0.0037166280671954155,-0.01986107975244522,-0.0,0.0,0.0,0.0,0.004073513671755791,-0.03327073156833649,-0.0036548238713294268,10878.0,16479.0,14763.0,14121.0,0.2559833526611328,0.6192898154258728,0.49127450585365295,0.44719040393829346,0.0,0.0,0.0,0.0,10338.0,16738.0,14866.0,14104.0,1.8636444807052612,0.008972542098374588,-0.07078785659193054,-0.09894420812283834,0.08918385952711105,0.0128386365249753,0.0
367,5,0.0010753816459327936,-0.0003868899366352707,-0.00130701984744519,-0.023145010694861412,-0.004722194746136665,-0.0021119762677699327,0.0006922550383023918,0.0650283694267273,-0.012307857163250446,-0.29280829429626465,-0.5310975909233093,-0.08936712145805359,0.0,0.0,0.0,0.0037166280671954155,-0.01986107975244522,-0.0,0.0,0.0,0.0,0.0011511895572766662,-0.03729551285505295,-0.002140868455171585,10539.0,16901.0,15916.0,12269.0,0.2390543520450592,0.6530710458755493,0.575707733631134,0.3315698206424713,0.0,0.0,0.0,0.0,8944.0,16549.0,15202.0,12497.0,1.8636444807052612,0.0071349781211192025,-0.07305294821978409,-0.09831414810382773,0.08918385952711105,0.0128386365249753,0.0
372,5,0.0009170208941213787,-0.0003933871630579233,-0.0013215135550126433,-0.028261294588446617,-0.001109210541471839,0.000894459371920675,0.0006922550383023918,0.0650283694267273,-0.012307857163250446,-0.29280829429626465,-0.5310975909233093,-0.08936712145805359,0.0,0.0,0.0,0.00455374363809824,-0.018196118995547295,-0.0,0.0,0.0,0.0,0.0011511895572766662,-0.03729551285505295,-0.002140868455171585,10539.0,16901.0,15916.0,12269.0,0.2390543520450592,0.6530710458755493,0.575707733631134,0.3315698206424713,0.0,0.0,0.0,0.0,8944.0,16549.0,15202.0,12497.0,1.8436394929885864,0.002673376690869318,-0.07512950476152652,-0.09845762165036827,0.08083105087280273,0.015561462379992008,0.0
377,5,0.0007682114373892546,-0.00042114403913728893,-0.001177516533061862,-0.02916165627539158,0.00288714119233191,-0.016921866685152054,-0.0012494694674387574,0.06889885663986206,-0.012676114216446877,-0.19137687981128693,-0.4098412096500397,-0.015675386413931847,0.0,0.0,0.0,0.00455374363809824,-0.018196118995547295,-0.0,0.0,0.0,0.0,-0.0004245398158673197,-0.03085728920996189,-0.001931549166329205,10793.0,16955.0,15633.0,13400.0,0.2517269253730774,0.6574388146400452,0.5543591976165771,0.4001195430755615,0.0,0.0,0.0,0.0,10970.0,16709.0,15769.0,12355.0,1.8436394929885864,-0.0036443257923265762,-0.08067745993077675,-0.09997421691703844,0.08083105087280273,0.015561462379992008,0.0
382,5,0.0007929118582978845,-0.0003736237995326519,-0.0015181563794612885,-0.008700610138475895,-0.0045475708320736885,0.03410803899168968,-0.0012494694674387574,0.06889885663986206,-0.012676114216446877,-0.19137687981128693,-0.4098412096500397,-0.015675386413931847,0.0,0.0,0.0,-0.0037300637923181057,-0.022906795144081116,-0.0,0.0,0.0,0.0,-0.0004245398158673197,-0.03085728920996189,-0.001931549166329205,10793.0,16955.0,15633.0,13400.0,0.2517269253730774,0.6574388146400452,0.5543591976165771,0.4001195430755615,0.0,0.0,0.0,0.0,10970.0,16709.0,15769.0,12355.0,1.9039069414138794,0.0025845071210625122,-0.07540493184974958,-0.09905725703150686,0.10508021712303162,-0.013163418509066105,0.0
387,5,0.0007051681750454009,-0.000384079001378268,-0.0015518618747591972,-0.014009485021233559,-0.0005644059274345636,0.017687875777482986,-0.0012494694674387574,0.06889885663986206,-0.012676114216446877,-0.19137687981128693,-0.4098412096500397,-0.015675386413931847,0.0,0.0,0.0,-0.0037300637923181057,-0.022906795144081116,-0.0,0.0,0.0,0.0,-0.0004245398158673197,-0.03085728920996189,-0.001931549166329205,10793.0,16955.0,15633.0,13400.0,0.2517269253730774,0.6574388146400452,0.5543591976165771,0.4001195430755615,0.0,0.0,0.0,0.0,10970.0,16709.0,15769.0,12355.0,1.9039069414138794,0.005268042558638055,-0.07376532897976805,-0.09934602629217507,0.10508021712303162,-0.013163418509066105,0.0
392,5,0.0006185246747918427,-0.0004162874829489738,-0.001513750641606748,-0.016001012176275253,0.0036392544861882925,0.0025018060114234686,-0.0022654992062598467,0.07107489556074142,-0.01354616042226553,0.12469847500324249,0.32111865282058716,-0.06562020629644394,0.0,0.0,0.0,-5.409018740465399e-06,-0.011488161981105804,-0.0,0.0,0.0,0.0,0.0005582420853897929,-0.02235991135239601,-0.003354968735948205,11665.0,16531.0,14687.0,13964.0,0.29757940769195557,0.6233985424041748,0.48592931032180786,0.4367322325706482,0.0,0.0,0.0,0.0,10944.0,16991.0,15108.0,13834.0,1.7558107376098633,0.004294924682035368,-0.07360136320153444,-0.10000805569429363,0.0486038438975811,-1.7603731976123527e-05,0.0
397,5,0.0004827998345717788,-0.0005166524788364768,-0.0013997842324897647,-0.022687386721372604,0.013499499298632145,-0.012675250880420208,-0.0022654992062598467,0.07107489556074142,-0.01354616042226553,0.12469847500324249,0.32111865282058716,-0.06562020629644394,0.0,0.0,0.0,-5.409018740465399e-06,-0.011488161981105804,-0.0,0.0,0.0,0.0,0.0005582420853897929,-0.02235991135239601,-0.003354968735948205,11665.0,16531.0,14687.0,13964.0,0.29757940769195557,0.6233985424041748,0.48592931032180786,0.4367322325706482,0.0,0.0,0.0,0.0,10944.0,16991.0,15108.0,13834.0,1.7558107376098633,-0.0008247426592668979,-0.07491862960487129,-0.10249347513753608,0.0486038438975811,-1.7603731976123527e-05,0.0
402,5,0.0005437474464997649,-0.00043638679198920727,-0.001639751484617591,-0.0017612430965527892,-0.004232080653309822,0.023725975304841995,2.5058800019905902e-05,0.06536585092544556,-0.014629515819251537,0.23141612112522125,0.6392651796340942,-0.12020884454250336,0.0,0.0,0.0,-0.015314280986785889,-0.018142370507121086,-0.0,0.0,0.0,0.0,-0.001619687769562006,-0.01306704618036747,-0.0038708271458745003,12240.0,17051.0,13379.0,15026.0,0.32988476753234863,0.6652381420135498,0.3988145589828491,0.5099695324897766,0.0,0.0,0.0,0.0,11906.0,16485.0,14163.0,14354.0,1.884446144104004,0.008695211050231013,-0.06751312192559561,-0.10129950332926486,0.08236731588840485,-0.05348820984363556,0.0
407,5,0.0005125004099681973,-0.0004541697271633893,-0.0016624961281195283,-0.0044541386887431145,0.0004411214613355696,0.012219737283885479,2.5058800019905902e-05,0.06536585092544556,-0.014629515819251537,0.23141612112522125,0.6392651796340942,-0.12020884454250336,0.0,0.0,0.0,-0.015314280986785889,-0.018142370507121086,-0.0,0.0,0.0,0.0,-0.001619687769562006,-0.01306704618036747,-0.0038708271458745003,12240.0,17051.0,13379.0,15026.0,0.32988476753234863,0.6652381420135498,0.3988145589828491,0.5099695324897766,0.0,0.0,0.0,0.0,11906.0,16485.0,14163.0,14354.0,1.884446144104004,0.009682108831786706,-0.06362551352782626,-0.10210173687205105,0.08236731588840485,-0.05348820984363556,0.0
412,5,0.0004896190366707742,-0.00045872677583247423,-0.0016951541183516383,-0.004527423530817032,0.0007232954958453774,0.008806861005723476,0.0022086785174906254,0.05943866819143295,-0.015804078429937363,0.31892016530036926,0.8247590661048889,-0.16958753764629364,0.0,0.0,0.0,-0.0013053393922746181,-0.0033238090109080076,-0.0,0.0,0.0,0.0,-0.006835354957729578,-0.0062434920109808445,-0.0056795463897287846,11906.0,16483.0,11307.0,15535.0,0.3108891248703003,0.6196414828300476,0.2782459855079651,0.5470341444015503,0.0,0.0,0.0,0.0,12297.0,17084.0,12920.0,15338.0,1.7264596223831177,0.011902051186459319,-0.06060922019168527,-0.10170018231109555,0.013827485963702202,-0.004177228081971407,0.0
417,5,0.00043644433026202023,-0.0005168290808796883,-0.0017694439738988876,-0.008191934786736965,0.007261595688760281,0.012437528930604458,0.0022086785174906254,0.05943866819143295,-0.015804078429937363,0.31892016530036926,0.8247590661048889,-0.16958753764629364,0.0,0.0,0.0,-0.0013053393922746181,-0.0033238090109080076,-0.0,0.0,0.0,0.0,-0.006835354957729578,-0.0062434920109808445,-0.0056795463897287846,11906.0,16483.0,11307.0,15535.0,0.3108891248703003,0.6196414828300476,0.2782459855079651,0.5470341444015503,0.0,0.0,0.0,0.0,12297.0,17084.0,12920.0,15338.0,1.7264596223831177,0.01489009402528149,-0.05518101520883308,-0.1033676581668869,0.013827485963702202,-0.004177228081971407,0.0
422,5,0.00033502705628052354,-0.0006699043442495167,-0.0019010989926755428,-0.015446845442056656,0.021273666992783546,0.020773615688085556,0.006270838901400566,0.04897383600473404,-0.017733920365571976,0.32541966438293457,0.902138888835907,-0.1679590493440628,0.0,0.0,0.0,-0.009067763574421406,-0.006549100857228041,-0.0,0.0,0.0,0.0,-0.0071985479444265366,0.001457814360037446,-0.0060673970729112625,12359.0,16322.0,10607.0,15837.0,0.3367435038089752,0.6069933176040649,0.24241337180137634,0.5696605443954468,0.0,0.0,0.0,0.0,12243.0,16342.0,11108.0,15566.0,1.7909148931503296,0.012561132012432814,-0.04830005808736411,-0.1062953463312695,0.028261002153158188,-0.030100442469120026,0.0
427,5,0.0002851650060620159,-0.0006585476803593338,-0.0018861900316551328,-0.012162183411419392,0.0071466658264398575,0.006520366761833429,0.006270838901400566,0.04897383600473404,-0.017733920365571976,0.32541966438293457,0.902138888835907,-0.1679590493440628,0.0,0.0,0.0,-0.009067763574421406,-0.006549100857228041,-0.0,0.0,0.0,0.0,-0.0071985479444265366,0.001457814360037446,-0.0060673970729112625,12359.0,16322.0,10607.0,15837.0,0.3367435038089752,0.6069933176040649,0.24241337180137634,0.5696605443954468,0.0,0.0,0.0,0.0,12243.0,16342.0,11108.0,15566.0,1.7909148931503296,0.013342667599368467,-0.04461156052256974,-0.10663146597191703,0.028261002153158188,-0.030100442469120026,0.0
433,5,0.00026789034018293023,-0.0005562545266002417,-0.0020028569269925356,-0.006937834434211254,-0.009416508488357067,0.01660817116498947,0.008452994748950005,0.041965875774621964,-0.01888854429125786,0.20106135308742523,0.8241603970527649,-0.09943117201328278,0.0,0.0,0.0,-0.00905356090515852,-0.010058789514005184,-0.0,0.0,0.0,0.0,-0.011219524778425694,0.0020420332439243793,-0.005231439135968685,13547.0,16548.0,11801.0,15508.0,0.4095328152179718,0.6247997283935547,0.3050742745399475,0.5450393557548523,0.0,0.0,0.0,0.0,13025.0,17099.0,10871.0,16010.0,1.8146270513534546,0.024036998278063312,-0.03728392413438131,-0.10516369530442866,0.043980471789836884,-0.0304512120783329,0.0
438,5,0.00017895408382173628,-0.0005835142801515758,-0.0018900890136137605,-0.013447484001517296,-0.0004954315372742712,-0.006888883654028177,0.008452994748950005,0.041965875774621964,-0.01888854429125786,0.20106135308742523,0.8241603970527649,-0.09943117201328278,0.0,0.0,0.0,-0.00905356090515852,-0.010058789514005184,-0.0,0.0,0.0,0.0,-0.011219524778425694,0.0020420332439243793,-0.005231439135968685,13547.0,16548.0,11801.0,15508.0,0.4095328152179718,0.6247997283935547,0.3050742745399475,0.5450393557548523,0.0,0.0,0.0,0.0,13025.0,17099.0,10871.0,16010.0,1.8146270513534546,0.020853007506338853,-0.03864731488061032,-0.10609794957672657,0.043980471789836884,-0.0304512120783329,0.0
443,5,0.00018224156519863755,-0.0005213391268625855,-0.0020676401909440756,-0.004984494764357805,-0.007659190334379673,0.01855059526860714,0.010144444182515144,0.03270547091960907,-0.020177004858851433,0.06754206866025925,0.6932277083396912,-0.1425241231918335,0.0,0.0,0.0,-0.00040524263749830425,-0.011133615858852863,-0.0,0.0,0.0,0.0,-0.005240109283477068,0.005962026305496693,-0.005185986869037151,12380.0,15825.0,10620.0,15929.0,0.3379935622215271,0.5687464475631714,0.24306665360927582,0.5766529440879822,0.0,0.0,0.0,0.0,13056.0,15388.0,11253.0,15388.0,1.8407979011535645,0.02682185759495659,-0.032761952468987346,-0.10463778372598846,0.04938388243317604,-0.0013827057555317879,0.0
448,5,9.902780584525317e-05,-0.0005659857415594161,-0.0020276515278965235,-0.011979449540376663,0.0022939126938581467,0.002621598308905959,0.010144444182515144,0.03270547091960907,-0.020177004858851433,0.06754206866025925,0.6932277083396912,-0.1425241231918335,0.0,0.0,0.0,-0.00040524263749830425,-0.011133615858852863,-0.0,0.0,0.0,0.0,-0.005240109283477068,0.005962026305496693,-0.005185986869037151,12380.0,15825.0,10620.0,15929.0,0.3379935622215271,0.5687464475631714,0.24306665360927582,0.5766529440879822,0.0,0.0,0.0,0.0,13056.0,15388.0,11253.0,15388.0,1.8407979011535645,0.01931951503315865,-0.03493365560152601,-0.10566750750411502,0.04938388243317604,-0.0013827057555317879,0.0
453,5,5.0185462896479294e-05,-0.0006029597716405988,-0.0022055560257285833,-0.010652861557900906,0.005354449152946472,0.02239716611802578,0.010482274927198887,0.02788553386926651,-0.02094740979373455,0.0436779148876667,0.45527946949005127,-0.08023747056722641,0.0,0.0,0.0,-0.003414310049265623,-0.009907682426273823,-0.0,0.0,0.0,0.0,-0.006298562977463007,0.0018866858445107937,-0.004240110516548157,13020.0,15938.0,11927.0,15236.0,0.37637859582901,0.5773595571517944,0.31206464767456055,0.5251120924949646,0.0,0.0,0.0,0.0,12867.0,16095.0,11133.0,15780.0,1.8563754558563232,0.01753632310031541,-0.03247942650200984,-0.10627205677766104,0.044318001717329025,-0.011748320423066616,0.0
458,5,-0.0001149789386545308,-0.0005522792926058173,-0.0020143266301602125,-0.024080872535705566,-0.003939878661185503,-0.013988659717142582,0.010482274927198887,0.02788553386926651,-0.02094740979373455,0.0436779148876667,0.45527946949005127,-0.08023747056722641,0.0,0.0,0.0,-0.003414310049265623,-0.009907682426273823,-0.0,0.0,0.0,0.0,-0.006298562977463007,0.0018866858445107937,-0.004240110516548157,13020.0,15938.0,11927.0,15236.0,0.37637859582901,0.5773595571517944,0.31206464767456055,0.5251120924949646,0.0,0.0,0.0,0.0,12867.0,16095.0,11133.0,15780.0,1.8563754558563232,0.01934950573948459,-0.033493820027648426,-0.10716675179458723,0.044318001717329025,-0.011748320423066616,0.0
463,5,-0.0002496176748536527,-0.0006082574836909771,-0.0019202780677005649,-0.02578899636864662,0.005141434259712696,-0.016881287097930908,0.010909900069236755,0.023816177621483803,-0.02225276082754135,0.009365292266011238,0.18720047175884247,-0.1137203723192215,0.0,0.0,0.0,0.0033528537023812532,-0.020030643790960312,-0.0,0.0,0.0,0.0,-0.00653873709961772,-0.005117276217788458,-0.005833562929183245,11965.0,16837.0,11979.0,15407.0,0.3141936659812927,0.6478593349456787,0.31499582529067993,0.537578284740448,0.0,0.0,0.0,0.0,12588.0,16420.0,12003.0,15350.0,1.8829240798950195,0.013843597792413,-0.03744604079443158,-0.10842315141424151,0.0908757746219635,0.011701849289238453,0.0
468,5,-0.00027016931562684476,-0.0006674258620478213,-0.002087304135784507,-0.012781796976923943,0.009156778454780579,0.013290631584823132,0.010909900069236755,0.023816177621483803,-0.02225276082754135,0.009365292266011238,0.18720047175884247,-0.1137203723192215,0.0,0.0,0.0,0.0033528537023812532,-0.020030643790960312,-0.0,0.0,0.0,0.0,-0.00653873709961772,-0.005117276217788458,-0.005833562929183245,11965.0,16837.0,11979.0,15407.0,0.3141936659812927,0.6478593349456787,0.31499582529067993,0.537578284740448,0.0,0.0,0.0,0.0,12588.0,16420.0,12003.0,15350.0,1.8829240798950195,0.007583547719680437,-0.04045862616841752,-0.10969378656428158,0.0908757746219635,0.011701849289238453,0.0
473,5,-0.0004971633316017687,-0.0004658789257518947,-0.002253758255392313,-0.027995381504297256,-0.013085709884762764,0.010784231126308441,0.010774110443890095,0.02333865314722061,-0.023002371191978455,-0.06654836237430573,-0.09941791743040085,-0.13290879130363464,0.0,0.0,0.0,0.0033528537023812532,-0.020030643790960312,-0.0,0.0,0.0,0.0,-0.0029074435587972403,-0.011857084929943085,-0.00462059210985899,11306.0,17029.0,13041.0,15186.0,0.2782130837440491,0.6634606122970581,0.37766653299331665,0.5214576721191406,0.0,0.0,0.0,0.0,11932.0,16686.0,12879.0,15234.0,1.8829240798950195,0.02512689918081427,-0.0316838916601376,-0.10791697691335624,0.10765893757343292,0.04647228866815567,0.0
479,5,-0.0004971633316017687,-0.0004658789257518947,-0.002253758255392313,-0.027995381504297256,-0.013085709884762764,0.010784231126308441,0.010774110443890095,0.02333865314722061,-0.023002371191978455,-0.06654836237430573,-0.09941791743040085,-0.13290879130363464,0.0,0.0,0.0,0.012973427772521973,-0.02312174066901207,-0.0,0.0,0.0,0.0,-0.0029074435587972403,-0.011857084929943085,-0.00462059210985899,11306.0,17029.0,13041.0,15186.0,0.2782130837440491,0.6634606122970581,0.37766653299331665,0.5214576721191406,0.0,0.0,0.0,0.0,11932.0,16686.0,12879.0,15234.0,1.9326486587524414,0.02512689918081427,-0.0316838916601376,-0.10791697691335624,0.10765893757343292,0.04647228866815567,0.0
