timestamp,dt,pos_x,pos_y,pos_z,vel_x,vel_y,vel_z,roll,pitch,yaw,agv_x,agv_y,agv_z,x_ref,y_ref,z_ref,roll_ref,pitch_ref,yaw_ref,x_vel_ref,y_vel_ref,z_vel_ref,x_torque,y_torque,z_torque,w0,w1,w2,w3,u0,u1,u2,u3,m0req,m1req,m2req,m3req,thrust0,thrust1,thrust2,thrust3,thrust_ref,roll_vicon,pitch_vicon,yaw_vicon,acc_x,acc_y,acc_z
5,5,0.0,0.0,0.0,0.00012033971142955124,-0.0009042379097081721,-0.0017919420497491956,0.010691525414586067,0.3039287328720093,-0.009334891103208065,0.0022610065061599016,-0.0034534300211817026,0.002673281356692314,0.0,0.0,0.0,0.0011188703356310725,0.00011454147897893563,-0.0,0.0,0.0,0.0,-0.003167041577398777,-0.09109841287136078,-0.000961004407145083,1495.0,1495.0,1495.0,1495.0,0.0,0.0,0.0,0.0,0.0,0.0,0.0,0.0,1495.0,1495.0,1495.0,1495.0,1.6350303888320923,3.0595306369176662,0.5393749562404404,0.041925502403650124,-0.0004512739251367748,0.0033908921759575605,0.0
32,27,0.0,0.0,0.0,-0.00025712524075061083,0.0013417147565633059,0.00021479265706147999,0.010691525414586067,0.3039287328720093,-0.009334891103208065,0.0022610065061599016,-0.0034534300211817026,0.002673281356692314,0.0,0.0,0.0,0.0011188703356310725,0.00011454147897893563,-0.0,0.0,0.0,0.0,-0.003167041577398777,-0.09109841287136078,-0.000961004407145083,1495.0,1495.0,1495.0,1495.0,0.0,0.0,0.0,0.0,0.0,0.0,0.0,0.0,1495.0,1495.0,1495.0,1495.0,1.6350303888320923,3.0599279709795524,0.5391507288793741,0.04171970779252439,-0.0004512739251367748,0.0033908921759575605,0.0
37,5,0.0,0.0,0.0,-0.0001496537443017587,0.001154798548668623,0.0010472972644492984,0.010662027634680271,0.30390143394470215,-0.009356786496937275,-0.0006682209204882383,0.0005951601779088378,0.0009257963974960148,0.0,0.0,0.0,-0.0016555165639147162,-0.00024404784198850393,-0.0,0.0,0.0,0.0,-0.003188792848959565,-0.09115883708000183,-0.0008673295378684998,1495.0,1495.0,1495.0,1495.0,0.0,0.0,0.0,0.0,0.0,0.0,0.0,0.0,1495.0,1495.0,1495.0,1495.0,1.6396446228027344,3.059592145377642,0.5392239922815607,0.04190206045740038,0.0009642196819186211,-0.005031430162489414,0.0
42,5,0.0,0.0,0.0,-0.00010980317165376619,-0.0005750366253778338,-0.0018029349157586694,0.010642348788678646,0.30392327904701233,-0.009300915524363518,0.001988914329558611,-0.006703549530357122,0.006321121472865343,0.0,0.0,0.0,0.0007129785954020917,-0.00010472552821738645,-0.0,0.0,0.0,0.0,-0.002928051631897688,-0.091250479221344,-0.0007192356861196458,1495.0,1495.0,1495.0,1495.0,0.0,0.0,0.0,0.0,0.0,0.0,0.0,0.0,1495.0,1495.0,1495.0,1495.0,1.631705641746521,3.059418339697479,0.5394212681255557,0.041837332811651515,0.0004117618955206126,0.0021563873160630465,0.0
55,12,0.0,0.0,0.0,0.00023752692504785955,2.5695944714243524e-05,-0.00157950131688267,0.010642348788678646,0.30392327904701233,-0.009300915524363518,0.001988914329558611,-0.006703549530357122,0.006321121472865343,0.0,0.0,0.0,-3.19234786729794e-05,0.0002269943943247199,-0.0,0.0,0.0,0.0,-0.003719062078744173,-0.09128591418266296,-0.0009514373377896845,1495.0,1495.0,1495.0,1495.0,0.0,0.0,0.0,0.0,0.0,0.0,0.0,0.0,1495.0,19299.0,18494.0,1495.0,1.6284600496292114,3.0590931993782977,0.5392145947746216,0.04170216715928848,-0.0008907259907573462,-9.635979222366586e-05,0.0
62,7,0.0,0.0,0.0,0.0010832572588697076,-0.002079117577522993,-0.0024654013104736805,0.010642348788678646,0.30392327904701233,-0.009300915524363518,0.001988914329558611,-0.006703549530357122,0.006321121472865343,0.0,0.0,0.0,-3.19234786729794e-05,0.0002269943943247199,-0.0,0.0,0.0,0.0,-0.003719062078744173,-0.09128591418266296,-0.0009514373377896845,1495.0,1495.0,1495.0,1495.0,0.0,0.0,0.0,0.0,0.0,0.0,0.0,0.0,1495.0,19299.0,18494.0,1495.0,1.6284600496292114,3.058868632791819,0.5390086756958208,0.04199856185989208,-0.0008907259907573462,-9.635979222366586e-05,0.0
67,5,0.0,0.0,0.0,-9.804304863791913e-05,0.001869088620878756,0.003456603968515992,0.010658035054802895,0.30393218994140625,-0.009347181767225266,-0.00014172021474223584,0.00271681253798306,-0.006347936578094959,0.0,0.0,0.0,0.002549947937950492,0.0010219770483672619,-0.0,0.0,0.0,0.0,-0.0036957846023142338,-0.09125352650880814,-0.0010663117282092571,1495.0,19304.0,18432.0,2594.0,-0.020631924271583557,0.862217366695404,0.7829688191413879,0.007151346653699875,0.0,0.0,0.0,0.0,1495.0,19352.0,18435.0,2318.0,1.6495721340179443,3.059124082786485,0.5391823585815831,0.04191266097617555,-0.004062214866280556,0.007796690799295902,0.0
72,5,-7.392313364107395e-06,4.947791239828803e-06,2.1512745661311783e-05,-0.0009262948296964169,0.00015390045882668346,-0.0011988879414275289,0.010658035054802895,0.30393218994140625,-0.009347181767225266,-0.00014172021474223584,0.00271681253798306,-0.006347936578094959,0.0,0.0,0.0,0.002549947937950492,0.0010219770483672619,-0.0,0.0,0.0,0.0,-0.0036957846023142338,-0.09125352650880814,-0.0010663117282092571,1495.0,19304.0,18432.0,2594.0,-0.020631924271583557,0.862217366695404,0.7829688191413879,0.007151346653699875,0.0,0.0,0.0,0.0,1495.0,19352.0,18435.0,2318.0,1.6495721340179443,3.0592727480721202,0.5393008488375002,0.04180840095410556,-0.004062214866280556,0.007796690799295902,0.0
78,5,-8.07563992566429e-06,1.7478033953466365e-07,7.672140782233328e-06,-0.00045251718256622553,0.0006343215354718268,0.0011813173769041896,0.010659271851181984,0.30391573905944824,-0.00935156550258398,-0.0026488574221730232,0.0044539389200508595,0.0005573323578573763,0.0,0.0,0.0,-0.000785185256972909,-0.00044234207598492503,-0.0,0.0,0.0,0.0,-0.00320411310531199,-0.09099960327148438,-0.0008477004012092948,1495.0,19236.0,18462.0,1745.0,-0.014167722314596176,0.855903685092926,0.7856273651123047,0.0010967329144477844,0.0,0.0,0.0,0.0,1495.0,19317.0,18424.0,2667.0,1.6337456703186035,3.0595099474851364,0.5391504780498677,0.041747439474952096,0.0017413836903870106,-0.0023777438327670097,-0.0
83,5,3.492722044029506e-06,-8.377154472327675e-07,-6.269433015404502e-06,0.001207196619361639,0.00037522808997891843,0.0021455157548189163,0.010659271851181984,0.30391573905944824,-0.00935156550258398,-0.0026488574221730232,0.0044539389200508595,0.0005573323578573763,0.0,0.0,0.0,-0.000785185256972909,-0.00044234207598492503,-0.0,0.0,0.0,0.0,-0.00320411310531199,-0.09099960327148438,-0.0008477004012092948,1495.0,19236.0,18462.0,1745.0,-0.014167722314596176,0.855903685092926,0.7856273651123047,0.0010967329144477844,0.0,0.0,0.0,0.0,1495.0,19317.0,18424.0,2667.0,1.6337456703186035,3.059817819542619,0.5393288388553812,0.0417689374642373,0.0017413836903870106,-0.0023777438327670097,-0.0
88,5,-4.68413873022655e-06,7.871893103583716e-06,-4.91150103698601e-06,-0.0004983446560800076,-0.0008950617630034685,0.0006952545372769237,0.010664689354598522,0.3039082884788513,-0.00938370544463396,0.0016897887689992785,0.00029364830697886646,-0.0021911507938057184,0.0,0.0,0.0,0.0011209353106096387,-0.0004805081698577851,-0.0,0.0,0.0,0.0,-0.0024415054358541965,-0.09096397459506989,-0.0009913931135088205,1495.0,19293.0,18515.0,3167.0,-0.015250492841005325,0.8611887097358704,0.7903465628623962,0.013287361711263657,0.0,0.0,0.0,0.0,1495.0,19279.0,18414.0,2439.0,1.636308193206787,3.059670564069609,0.5395029590402615,0.041810721657599734,0.0018945998745039105,0.0033998051658272743,0.0
93,5,-9.16556382435374e-06,-4.360250386525877e-06,-1.2409404007485136e-05,-0.0007371089304797351,0.0011098325485363603,0.0011778500629588962,0.010664689354598522,0.3039082884788513,-0.00938370544463396,0.0016897887689992785,0.00029364830697886646,-0.0021911507938057184,0.0,0.0,0.0,0.0011209353106096387,-0.0004805081698577851,-0.0,0.0,0.0,0.0,-0.0024415054358541965,-0.09096397459506989,-0.0009913931135088205,1495.0,19293.0,18515.0,3167.0,-0.015250492841005325,0.8611887097358704,0.7903465628623962,0.013287361711263657,0.0,0.0,0.0,0.0,1495.0,19279.0,18414.0,2439.0,1.636308193206787,3.0598837898783318,0.5394165419639417,0.041695852907868244,0.0018945998745039105,0.0033998051658272743,0.0
98,5,-4.1331900320074055e-06,1.0499453310330864e-05,2.923822194134118e-06,0.00030904135201126337,-0.0013392315013334155,-0.0013688470935449004,0.010664689354598522,0.3039082884788513,-0.00938370544463396,0.0016897887689992785,0.00029364830697886646,-0.0021911507938057184,0.0,0.0,0.0,0.0011209353106096387,-0.0004805081698577851,-0.0,0.0,0.0,0.0,-0.0024415054358541965,-0.09096397459506989,-0.0009913931135088205,1495.0,19293.0,18515.0,3167.0,-0.015250492841005325,0.8611887097358704,0.7903465628623962,0.013287361711263657,0.0,0.0,0.0,0.0,1495.0,19279.0,18414.0,2439.0,1.636308193206787,3.0593656169330625,0.5389885614369604,0.04204725776472819,0.0018945998745039105,0.0033998051658272743,0.0
103,5,-6.570273853867548e-07,6.46067974230391e-06,7.721760084677953e-06,0.0005407560383901,-5.10397476318758e-05,-0.001123291440308094,0.010674725286662579,0.303902804851532,-0.009381196461617947,-0.0003663190873339772,0.005417301319539547,-0.004713637754321098,0.0,0.0,0.0,0.0016712471842765808,0.0002875156933441758,-0.0,0.0,0.0,0.0,-0.003465395886451006,-0.09132052212953568,-0.0009651692234911025,1495.0,19316.0,18437.0,2170.0,-0.016668714582920074,0.8633475303649902,0.7833943963050842,0.0036724545061588287,0.0,0.0,0.0,0.0,1495.0,19328.0,18423.0,2415.0,1.639867901802063,3.0592850146443946,0.5391451764169184,0.04187033203557737,-0.0011361134238541126,0.005079930182546377,0.0
108,5,-1.1289233952993527e-05,8.489783795084804e-06,1.4632589227403514e-05,-0.0010595624335110188,-0.00026390847051516175,-0.0012786160223186016,0.010660415515303612,0.303896427154541,-0.00942879170179367,-0.00034376553958281875,-0.0007884877850301564,-0.0019031316041946411,0.0,0.0,0.0,0.0003415665705688298,-0.0010230300249531865,-0.0,0.0,0.0,0.0,-0.002889910014346242,-0.0914841964840889,-0.0010251798667013645,1495.0,19307.0,18480.0,2492.0,-0.019655363634228706,0.8625121116638184,0.7872143983840942,0.006237028166651726,0.0,0.0,0.0,0.0,1495.0,19289.0,18499.0,2308.0,1.6370518207550049,3.059330917213027,0.5396477479873828,0.041866767052325275,0.004035548772662878,0.0010364451445639133,0.0
113,5,-8.157202501024585e-06,7.402622486551991e-06,5.12237602379173e-06,-4.798112786374986e-05,2.4896045943023637e-05,0.0006297791842371225,0.010660415515303612,0.303896427154541,-0.00942879170179367,-0.00034376553958281875,-0.0007884877850301564,-0.0019031316041946411,0.0,0.0,0.0,0.0003415665705688298,-0.0010230300249531865,-0.0,0.0,0.0,0.0,-0.002889910014346242,-0.0914841964840889,-0.0010251798667013645,1495.0,19307.0,18480.0,2492.0,-0.019655363634228706,0.8625121116638184,0.7872143983840942,0.006237028166651726,0.0,0.0,0.0,0.0,1495.0,19289.0,18499.0,2308.0,1.6370518207550049,3.0595632897611837,0.5388122564622796,0.04173996455553338,0.004035548772662878,0.0010364451445639133,0.0
118,5,-9.651738764659967e-06,-5.93249524172279e-07,1.3034287803748157e-05,-0.00019853688718285412,0.0009694630280137062,-0.0006975177675485611,0.010660415515303612,0.303896427154541,-0.00942879170179367,-0.00034376553958281875,-0.0007884877850301564,-0.0019031316041946411,0.0,0.0,0.0,0.0003415665705688298,-0.0010230300249531865,-0.0,0.0,0.0,0.0,-0.002889910014346242,-0.0914841964840889,-0.0010251798667013645,1495.0,19307.0,18480.0,2492.0,-0.019655363634228706,0.8625121116638184,0.7872143983840942,0.006237028166651726,0.0,0.0,0.0,0.0,1495.0,19289.0,18499.0,2308.0,1.6370518207550049,3.0592172517135583,0.5394996303542626,0.0418978678769707,0.004035548772662878,0.0010364451445639133,0.0
123,5,-9.131299520959146e-06,-8.191165079551865e-07,-1.1380307114450261e-05,-0.0002912389172706753,0.00014509496395476162,0.0018919716821983457,0.010668455623090267,0.303894579410553,-0.00944372359663248,0.00133942486718297,0.004029224161058664,-0.0002374186005908996,0.0,0.0,0.0,-0.001200017984956503,-0.0002023762499447912,-0.0,0.0,0.0,0.0,-0.002889910014346242,-0.0914841964840889,-0.0010251798667013645,1495.0,19299.0,18487.0,2379.0,-0.018627339974045753,0.8617547750473022,0.7879025340080261,0.005278227850794792,0.0,0.0,0.0,0.0,1495.0,19275.0,18506.0,2209.0,1.6358555555343628,3.059264927838453,0.5390292982473015,0.04183768493914756,0.0007977302884683013,-0.0036386565770953894,0.0
128,5,-9.131299520959146e-06,-8.191165079551865e-07,-1.1380307114450261e-05,-0.0002912389172706753,0.00014509496395476162,0.0018919716821983457,0.010668455623090267,0.303894579410553,-0.00944372359663248,0.00133942486718297,0.004029224161058664,-0.0002374186005908996,0.0,0.0,0.0,-0.001200017984956503,-0.0002023762499447912,-0.0,0.0,0.0,0.0,-0.002889910014346242,-0.0914841964840889,-0.0010251798667013645,1495.0,19299.0,18487.0,2379.0,-0.018627339974045753,0.8617547750473022,0.7879025340080261,0.005278227850794792,0.0,0.0,0.0,0.0,1495.0,19275.0,18506.0,2209.0,1.6358555555343628,3.059264927838453,0.5390292982473015,0.04183768493914756,0.0007977302884683013,-0.0036386565770953894,0.0
133,5,-4.863810318056494e-06,-2.972070433315821e-06,-3.0246337701100856e-05,0.0003956031578127295,0.0003163924557156861,0.0030207124073058367,0.010682668536901474,0.3038553297519684,-0.009435538202524185,0.0029118971433490515,0.007381458301097155,0.0017834050813689828,0.0,0.0,0.0,-0.0001816412404878065,-0.00029103548149578273,-0.0,0.0,0.0,0.0,-0.003153898287564516,-0.09161493927240372,-0.0009347236482426524,1495.0,19297.0,18505.0,1887.0,-0.015881583094596863,0.8616052865982056,0.7894707322120667,0.0018574073910713196,0.0,0.0,0.0,0.0,1495.0,19275.0,18506.0,2209.0,1.6291862726211548,3.059537472769347,0.5392434971158844,0.04170140244247188,0.001142532448284328,-0.0005485215806402266,0.0
138,5,-7.916560207377188e-06,1.2484186299843714e-05,1.7222337191924453e-05,-0.000795475672930479,-0.0014698647428303957,-0.004488848149776459,0.010682668536901474,0.3038553297519684,-0.009435538202524185,0.0029118971433490515,0.007381458301097155,0.0017834050813689828,0.0,0.0,0.0,-0.0001816412404878065,-0.00029103548149578273,-0.0,0.0,0.0,0.0,-0.003153898287564516,-0.09161493927240372,-0.0009347236482426524,1495.0,19297.0,18505.0,1887.0,-0.015881583094596863,0.8616052865982056,0.7894707322120667,0.0018574073910713196,0.0,0.0,0.0,0.0,1495.0,19275.0,18506.0,2209.0,1.6291862726211548,3.0599989382395494,0.5396094049959955,0.04160277361196048,0.001142532448284328,-0.0005485215806402266,0.0
144,5,-7.916560207377188e-06,1.2484186299843714e-05,1.7222337191924453e-05,-0.000795475672930479,-0.0014698647428303957,-0.004488848149776459,0.010687355883419514,0.30385762453079224,-0.009449015371501446,0.001931873383000493,0.0009118876769207418,-0.0010371966054663062,0.0,0.0,0.0,0.0018325652927160263,-0.0007645392906852067,-0.0,0.0,0.0,0.0,-0.0031052848789840937,-0.09177123755216599,-0.0009939329465851188,1495.0,19327.0,18494.0,2071.0,-0.018836960196495056,0.8643551468849182,0.7885417938232422,0.0029918625950813293,0.0,0.0,0.0,0.0,1495.0,19320.0,18504.0,1934.0,1.6429640054702759,3.0599989382395494,0.5396094049959955,0.04160277361196048,0.003026766935363412,0.0055807894095778465,0.0
149,5,-6.079152171878377e-06,8.656515092297923e-06,1.3221119843365159e-05,-0.00011518587416503578,-0.0006027137278579175,-0.0018772799521684647,0.010687355883419514,0.30385762453079224,-0.009449015371501446,0.001931873383000493,0.0009118876769207418,-0.0010371966054663062,0.0,0.0,0.0,0.0018325652927160263,-0.0007645392906852067,-0.0,0.0,0.0,0.0,-0.0031052848789840937,-0.09177123755216599,-0.0009939329465851188,1495.0,19327.0,18494.0,2071.0,-0.018836960196495056,0.8643551468849182,0.7885417938232422,0.0029918625950813293,0.0,0.0,0.0,0.0,1495.0,19320.0,18504.0,1934.0,1.6429640054702759,3.0592448115986697,0.5395177426428924,0.04182549364289685,0.003026766935363412,0.0055807894095778465,0.0
154,5,-3.426673629292054e-07,1.931050246639643e-05,2.537427826609928e-05,0.0006423037848435342,-0.001519563840702176,-0.0022092910949140787,0.01068145502358675,0.30386659502983093,-0.009457276202738285,0.001694843522273004,-0.000523335998877883,-0.0022138257045298815,0.0,0.0,0.0,0.0007628891034983099,-0.00011838603677460924,-0.0,0.0,0.0,0.0,-0.002707818290218711,-0.09195968508720398,-0.0009405246237292886,1495.0,19311.0,18451.0,1847.0,-0.01996365375816822,0.8628851175308228,0.7846344709396362,0.0016303826123476028,0.0,0.0,0.0,0.0,1495.0,19310.0,18459.0,1699.0,1.632137417793274,3.059345985626722,0.5390320203940928,0.04166482763155257,0.00046559571637772024,0.002307950984686613,0.0
159,5,1.0544412454294161e-08,1.02223548310576e-05,1.2231617802171968e-05,0.00029930693563073874,0.00048275210428982973,0.0006934028351679444,0.01068145502358675,0.30386659502983093,-0.009457276202738285,0.001694843522273004,-0.000523335998877883,-0.0022138257045298815,0.0,0.0,0.0,0.0007628891034983099,-0.00011838603677460924,-0.0,0.0,0.0,0.0,-0.002707818290218711,-0.09195968508720398,-0.0009405246237292886,1495.0,19311.0,18451.0,1847.0,-0.01996365375816822,0.8628851175308228,0.7846344709396362,0.0016303826123476028,0.0,0.0,0.0,0.0,1495.0,19310.0,18459.0,1699.0,1.632137417793274,3.059204356381235,0.5391485219949637,0.04167701481925447,0.00046559571637772024,0.002307950984686613,0.0
164,5,-3.859089702018537e-06,-2.6055336093122605e-06,-2.2082105715526268e-05,-0.0003446332993917167,0.0017324474174529314,0.004395008087158203,0.01068145502358675,0.30386659502983093,-0.009457276202738285,0.001694843522273004,-0.000523335998877883,-0.0022138257045298815,0.0,0.0,0.0,-0.0005800104117952287,0.00028548025875352323,-0.0,0.0,0.0,0.0,-0.002707818290218711,-0.09195968508720398,-0.0009405246237292886,1495.0,19311.0,18451.0,1847.0,-0.01996365375816822,0.8628851175308228,0.7846344709396362,0.0016303826123476028,0.0,0.0,0.0,0.0,1495.0,19421.0,18456.0,3063.0,1.6313984394073486,3.0591601353600932,0.5392560893315395,0.041854049121035235,-0.0011222456814721227,-0.0017538979882374406,-0.0
169,5,-2.535159865146852e-06,-4.0713487692300987e-07,1.790433634596411e-05,2.101824793498963e-05,0.0004291711375117302,-0.0030403700657188892,0.010684491135179996,0.3038906157016754,-0.009454228915274143,0.006510923150926828,-0.006364342290908098,-0.0007746460032649338,0.0,0.0,0.0,-0.0005800104117952287,0.00028548025875352323,-0.0,0.0,0.0,0.0,-0.0026809126138687134,-0.09186795353889465,0.000509280594997108,4386.0,18759.0,19102.0,1495.0,0.031810443848371506,0.8122697472572327,0.8435896039009094,-0.044705748558044434,0.0,0.0,0.0,0.0,1495.0,19421.0,18456.0,3063.0,1.6313984394073486,3.0594271439666105,0.5384671798566496,0.04220478253957894,-0.0011222456814721227,-0.0017538979882374406,-0.0
174,5,-5.443576469588152e-07,2.41010457102675e-06,1.2341718502284493e-05,0.00024730354198254645,-0.00016640029207337648,-0.0005486338050104678,0.010684491135179996,0.3038906157016754,-0.009454228915274143,0.006510923150926828,-0.006364342290908098,-0.0007746460032649338,0.0,0.0,0.0,-0.0005333141307346523,1.6459445760119706e-05,-0.0,0.0,0.0,0.0,-0.0026809126138687134,-0.09186795353889465,0.000509280594997108,4386.0,18759.0,19102.0,1495.0,0.031810443848371506,0.8122697472572327,0.8435896039009094,-0.044705748558044434,0.0,0.0,0.0,0.0,1495.0,19421.0,18456.0,3063.0,1.6301239728927612,3.059418869184317,0.5393402929174606,0.04188882758582585,-6.465284968726337e-05,-0.0016114329919219017,0.0
179,5,-5.443576469588152e-07,2.41010457102675e-06,1.2341718502284493e-05,0.00024730354198254645,-0.00016640029207337648,-0.0005486338050104678,0.010918150655925274,0.30389001965522766,-0.009750498458743095,0.005092137027531862,-0.023975003510713577,-0.014213482849299908,0.0,0.0,0.0,-0.0005333141307346523,1.6459445760119706e-05,-0.0,0.0,0.0,0.0,-0.003272240050137043,-0.09198816865682602,-0.002502330346032977,1495.0,19591.0,18215.0,3707.0,-0.04214075580239296,0.8891403079032898,0.7638246417045593,0.020574282854795456,0.0,0.0,0.0,0.0,1495.0,19144.0,18616.0,1495.0,1.6301239728927612,3.059418869184317,0.5393402929174606,0.04188882758582585,-6.465284968726337e-05,-0.0016114329919219017,0.0
184,5,-5.077168907519081e-07,-5.9337730817787815e-06,-4.828895271202782e-06,0.0005083436262793839,0.0011075970251113176,0.0019228910095989704,0.010918150655925274,0.30389001965522766,-0.009750498458743095,0.005092137027531862,-0.023975003510713577,-0.014213482849299908,0.0,0.0,0.0,0.00021114487026352435,0.0002354691969230771,-0.0,0.0,0.0,0.0,-0.003272240050137043,-0.09198816865682602,-0.002502330346032977,1495.0,19591.0,18215.0,3707.0,-0.04214075580239296,0.8891403079032898,0.7638246417045593,0.020574282854795456,0.0,0.0,0.0,0.0,1495.0,19144.0,18616.0,1495.0,1.6287933588027954,3.059818549218671,0.5394026329057551,0.042070151114712975,-0.0009241701918654144,0.0006374631193466485,0.0
189,5,-8.605702532804571e-06,-1.139877440436976e-06,4.032196557091083e-06,-0.0007684208103455603,-0.00013222866982687265,-0.00029417462064884603,0.010703286156058311,0.30394554138183594,-0.009475240483880043,0.00029258400900289416,0.02966678887605667,-0.06506534665822983,0.0,0.0,0.0,0.00021114487026352435,0.0002354691969230771,-0.0,0.0,0.0,0.0,-0.0030348089057952166,-0.09133787453174591,-0.0006940021412447095,1495.0,19479.0,18235.0,3835.0,-0.03534014895558357,0.878605306148529,0.7656241655349731,0.022509144619107246,0.0,0.0,0.0,0.0,2302.0,19057.0,18804.0,1495.0,1.6287933588027954,3.0595998764838765,0.5395999983149995,0.04183645563158774,-0.0009241701918654144,0.0006374631193466485,0.0
195,5,-1.4478933735517785e-05,1.224910647579236e-05,-3.4835716178349685e-06,-0.0010121561354026198,-0.001659569563344121,0.0007842223276384175,0.010703286156058311,0.30394554138183594,-0.009475240483880043,0.00029258400900289416,0.02966678887605667,-0.06506534665822983,0.0,0.0,0.0,0.00016173395852092654,-0.0007440310437232256,-0.0,0.0,0.0,0.0,-0.0030348089057952166,-0.09133787453174591,-0.0006940021412447095,1495.0,19479.0,18235.0,3835.0,-0.03534014895558357,0.878605306148529,0.7656241655349731,0.022509144619107246,0.0,0.0,0.0,0.0,2302.0,19057.0,18804.0,1495.0,1.633806824684143,3.0597002579332395,0.5393417619142058,0.04112606833707061,0.002929163631051779,0.0004897906328551471,0.0
200,5,2.3271779809874715e-06,2.6531909043114865e-06,1.4441357961914036e-05,0.0016118709463626146,0.00048768206033855677,-0.0018373026978224516,0.010703286156058311,0.30394554138183594,-0.009475240483880043,0.00029258400900289416,0.02966678887605667,-0.06506534665822983,0.0,0.0,0.0,0.00016173395852092654,-0.0007440310437232256,-0.0,0.0,0.0,0.0,-0.003347150282934308,-0.09241539239883423,0.0020543457940220833,6722.0,18101.0,19727.0,1495.0,0.0881306529045105,0.7539320588111877,0.9020465612411499,-0.1139853447675705,0.0,0.0,0.0,0.0,1495.0,20046.0,17604.0,6132.0,1.633806824684143,3.0598065407115853,0.5394277914155268,0.04225333138479527,0.002929163631051779,0.0004897906328551471,0.0
205,5,1.5356655467257951e-06,5.85035513722687e-06,-7.038173635010025e-07,0.0005497668753378093,-0.00018858691328205168,0.0010824999772012234,0.010703286156058311,0.30394554138183594,-0.009475240483880043,0.00029258400900289416,0.02966678887605667,-0.06506534665822983,0.0,0.0,0.0,-0.0005956900422461331,0.001530035980977118,-0.0,0.0,0.0,0.0,-0.003347150282934308,-0.09241539239883423,0.0020543457940220833,6722.0,18101.0,19727.0,1495.0,0.0881306529045105,0.7539320588111877,0.9020465612411499,-0.1139853447675705,0.0,0.0,0.0,0.0,1495.0,20046.0,17604.0,6132.0,1.6428929567337036,3.0598550474722868,0.5393516016459594,0.04113347253465817,-0.0060570696368813515,-0.0018140034517273307,0.0
210,5,1.4361838111653924e-05,3.5824002679873956e-06,-1.093279934138991e-05,0.0017590475035831332,0.00019671984773594886,0.0016604778356850147,0.010828535072505474,0.3037435710430145,-0.009745831601321697,0.02110980823636055,0.03899586945772171,0.01936051808297634,0.0,0.0,0.0,-0.0005956900422461331,0.001530035980977118,-0.0,0.0,0.0,0.0,-0.003449697047472,-0.09083812683820724,-0.004895943216979504,1495.0,19762.0,17880.0,5238.0,-0.06053490564227104,0.905400812625885,0.7347468733787537,0.04918063059449196,0.0,0.0,0.0,0.0,5401.0,18433.0,19363.0,1495.0,1.6428929567337036,3.0596289411877997,0.5389619086070272,0.041399358931205006,-0.0060570696368813515,-0.0018140034517273307,0.0
215,5,2.3562372007290833e-05,5.28480904904427e-06,2.2037937014829367e-05,0.0018076830310747027,-0.0001256011164514348,-0.0032922972459346056,0.010828535072505474,0.3037435710430145,-0.009745831601321697,0.02110980823636055,0.03899586945772171,0.01936051808297634,0.0,0.0,0.0,-0.0002355532778892666,0.0016850983956828713,-0.0,0.0,0.0,0.0,-0.003449697047472,-0.09083812683820724,-0.004895943216979504,1495.0,19762.0,17880.0,5238.0,-0.06053490564227104,0.905400812625885,0.7347468733787537,0.04918063059449196,0.0,0.0,0.0,0.0,5401.0,18433.0,19363.0,1495.0,1.6439507007598877,3.0599056924397865,0.5376412431859127,0.04178920233013134,-0.006675222422927618,-0.0007177719380706549,0.0
220,5,3.0425037039094605e-05,9.154082363238558e-06,1.2924880138598382e-05,0.0015465929172933102,-0.0005145532777532935,-0.0002233521081507206,0.010607046075165272,0.3035833537578583,-0.009327087551355362,0.010408648289740086,0.07094385474920273,-0.17118698358535767,0.0,0.0,0.0,-0.0002355532778892666,0.0016850983956828713,-0.0,0.0,0.0,0.0,-0.002944724867120385,-0.09117795526981354,-0.0030758066568523645,1495.0,20206.0,17396.0,6982.0,-0.10433673113584518,0.9482359886169434,0.6938154101371765,0.09609220921993256,0.0,0.0,0.0,0.0,6571.0,18195.0,19563.0,1495.0,1.6439507007598877,3.059914755031938,0.538050317860926,0.04104575081877197,-0.006675222422927618,-0.0007177719380706549,0.0
225,5,6.086526263970882e-05,1.4070367797103245e-05,5.142516965861432e-05,0.0042714644223451614,-0.0007957755005918443,-0.004709375556558371,0.010607046075165272,0.3035833537578583,-0.009327087551355362,0.010408648289740086,0.07094385474920273,-0.17118698358535767,0.0,0.0,0.0,-0.0002355532778892666,0.0016850983956828713,-0.0,0.0,0.0,0.0,-0.002944724867120385,-0.09117795526981354,-0.0030758066568523645,1495.0,20206.0,17396.0,6982.0,-0.10433673113584518,0.9482359886169434,0.6938154101371765,0.09609220921993256,0.0,0.0,0.0,0.0,6571.0,18195.0,19563.0,1495.0,1.6439507007598877,3.0588037611245005,0.5369331378529526,0.041891910689335954,-0.016352660953998566,0.003061801427975297,0.0
230,5,0.00011037201329600066,1.6411151591455564e-05,6.69180735712871e-05,0.007649395614862442,-0.0005992042715661228,-0.003742898814380169,0.010575265623629093,0.3023446202278137,-0.009120234288275242,-0.04154706746339798,0.12361832708120346,0.06430918723344803,0.0,0.0,0.0,0.000988700077868998,0.004061943851411343,-0.0,0.0,0.0,0.0,-0.0030730145517736673,-0.08869016170501709,0.002186296507716179,5732.0,18457.0,19076.0,1495.0,0.060910098254680634,0.7852475643157959,0.8411625027656555,-0.04442725330591202,0.0,0.0,0.0,0.0,1495.0,20058.0,17425.0,6787.0,1.6707212924957275,3.058328486791138,0.5360404323596428,0.04216510972775139,-0.016352660953998566,0.003061801427975297,0.0
235,5,0.00020892424799967557,3.2249681680696085e-05,0.00011684666242217645,0.014886027202010155,-0.0021403052378445864,-0.007488589733839035,0.010575265623629093,0.3023446202278137,-0.009120234288275242,-0.04154706746339798,0.12361832708120346,0.06430918723344803,0.0,0.0,0.0,0.000988700077868998,0.004061943851411343,-0.0,0.0,0.0,0.0,-0.0030730145517736673,-0.08869016170501709,0.002186296507716179,5732.0,18457.0,19076.0,1495.0,0.060910098254680634,0.7852475643157959,0.8411625027656555,-0.04442725330591202,0.0,0.0,0.0,0.0,1495.0,20058.0,17425.0,6787.0,1.6707212924957275,3.058616137492333,0.5321981320975491,0.041307137737622644,-0.016352660953998566,0.003061801427975297,0.0
240,5,0.00034936919109895825,5.654975029756315e-05,0.00015116119175218046,0.022807803004980087,-0.003772130236029625,-0.007113178726285696,0.010830129496753216,0.2996176481246948,-0.0095334742218256,0.009481331333518028,0.5346066355705261,0.09911394864320755,0.0,0.0,0.0,0.0024874473456293344,0.01328826043754816,-0.0,0.0,0.0,0.0,-0.0037815412506461143,-0.07926950603723526,-0.0008991545182652771,6611.0,18262.0,18232.0,4038.0,0.08484126627445221,0.7680050134658813,0.7653471231460571,0.025757329538464546,0.0,0.0,0.0,0.0,1495.0,19285.0,18040.0,5243.0,1.7793363332748413,3.0581995885573665,0.5281758512787902,0.04110898796260313,-0.05697232857346535,0.00820388738065958,0.0
245,5,0.0005526199820451438,8.000022353371605e-05,0.00016951205907389522,0.03351321443915367,-0.004322908818721771,-0.005047377198934555,0.010830129496753216,0.2996176481246948,-0.0095334742218256,0.009481331333518028,0.5346066355705261,0.09911394864320755,0.0,0.0,0.0,0.0024874473456293344,0.01328826043754816,-0.0,0.0,0.0,0.0,-0.0037815412506461143,-0.07926950603723526,-0.0008991545182652771,6611.0,18262.0,18232.0,4038.0,0.08484126627445221,0.7680050134658813,0.7653471231460571,0.025757329538464546,0.0,0.0,0.0,0.0,1495.0,19285.0,18040.0,5243.0,1.7793363332748413,3.0576479807179022,0.5212164476070396,0.040773494262741475,-0.05697232857346535,0.00820388738065958,0.0
250,5,0.000822050089482218,7.554265903308988e-05,0.00016493830480612814,0.045736901462078094,-0.001194255892187357,-0.0014700990868732333,0.01057089027017355,0.28831207752227783,-0.009420275688171387,-0.012228288687765598,1.3275279998779297,-0.09381639212369919,0.0,0.0,0.0,0.004574211314320564,0.027202431112527847,-0.0,0.0,0.0,0.0,-0.002999301068484783,-0.059999968856573105,-0.002538905944675207,6430.0,18286.0,15933.0,10087.0,0.07960029691457748,0.7700559496879578,0.5769367814064026,0.21735769510269165,0.0,0.0,0.0,0.0,9376.0,17197.0,16272.0,9818.0,1.9639610052108765,3.058964713852974,0.5130782331761579,0.04017547027389737,-0.12871654331684113,0.016651557758450508,0.0
255,5,0.0011541804997250438,0.00011281284969300032,0.00018731561431195587,0.05815041437745094,-0.004950125701725483,-0.0032733178231865168,0.01057089027017355,0.28831207752227783,-0.009420275688171387,-0.012228288687765598,1.3275279998779297,-0.09381639212369919,0.0,0.0,0.0,0.004574211314320564,0.027202431112527847,-0.0,0.0,0.0,0.0,-0.002999301068484783,-0.059999968856573105,-0.002538905944675207,6430.0,18286.0,15933.0,10087.0,0.07960029691457748,0.7700559496879578,0.5769367814064026,0.21735769510269165,0.0,0.0,0.0,0.0,9376.0,17197.0,16272.0,9818.0,1.9639610052108765,3.058215123989847,0.5015365369751775,0.039715488350021554,-0.12871654331684113,0.016651557758450508,0.0
260,5,0.0015497362473979592,0.00010769179789349437,0.00013926569954492152,0.07072684168815613,-0.001365523785352707,0.004456663504242897,0.010452752001583576,0.27358531951904297,-0.00887114554643631,-0.042873237282037735,2.241372585296631,0.034394677728414536,0.0,0.0,0.0,0.004717630799859762,0.04246408864855766,-0.0,0.0,0.0,0.0,-0.0021778156515210867,-0.029234396293759346,0.00035350245889276266,11815.0,15531.0,15268.0,11540.0,0.3058086335659027,0.5467485189437866,0.5274037718772888,0.29076042771339417,0.0,0.0,0.0,0.0,9376.0,17197.0,16272.0,9818.0,2.1939191818237305,3.061788505015827,0.4872172644787574,0.03694699303651568,-0.22441865503787994,0.01918448694050312,0.0
265,5,0.00202382355928421,0.00015023267769720405,5.7399680372327566e-05,0.08518122136592865,-0.005651115905493498,0.01160658709704876,0.010452752001583576,0.27358531951904297,-0.00887114554643631,-0.042873237282037735,2.241372585296631,0.034394677728414536,0.0,0.0,0.0,0.004717630799859762,0.04246408864855766,-0.0,0.0,0.0,0.0,-0.0021778156515210867,-0.029234396293759346,0.00035350245889276266,11815.0,15531.0,15268.0,11540.0,0.3058086335659027,0.5467485189437866,0.5274037718772888,0.29076042771339417,0.0,0.0,0.0,0.0,9376.0,17197.0,16272.0,9818.0,2.1939191818237305,3.064363024654862,0.46878100304202763,0.034451138993907525,-0.22441865503787994,0.01918448694050312,0.0
270,5,0.0026296512223780155,0.00018178991740569472,1.3600575584860053e-05,0.10677181929349899,-0.006047313567250967,0.009898527525365353,0.010278085246682167,0.23765571415424347,-0.009098278358578682,0.017176169902086258,3.5637166500091553,0.0055738636292517185,0.0,0.0,0.0,0.004887505900114775,0.05647260695695877,-0.0,0.0,0.0,0.0,-0.0022378149442374706,0.014375685714185238,-0.0017399013740941882,15595.0,14144.0,13011.0,16076.0,0.5515046715736389,0.4487229287624359,0.3757798969745636,0.5879535675048828,0.0,0.0,0.0,0.0,13160.0,16348.0,14017.0,15299.0,2.4306106567382812,3.06469035740651,0.44991860917989723,0.03300035479949645,-0.33057430386543274,0.022019533440470695,-0.0
276,5,0.0033369180746376514,0.00021910863870289177,-5.7693181588547304e-05,0.12758073210716248,-0.006897172890603542,0.012514661997556686,0.010278085246682167,0.23765571415424347,-0.009098278358578682,0.017176169902086258,3.5637166500091553,0.0055738636292517185,0.0,0.0,0.0,0.004887505900114775,0.05647260695695877,-0.0,0.0,0.0,0.0,-0.0022378149442374706,0.014375685714185238,-0.0017399013740941882,15595.0,14144.0,13011.0,16076.0,0.5515046715736389,0.4487229287624359,0.3757798969745636,0.5879535675048828,0.0,0.0,0.0,0.0,13160.0,16348.0,14017.0,15299.0,2.4306106567382812,3.064287960015295,0.4310847419022617,0.03190338109742845,-0.33057430386543274,0.022019533440470695,-0.0
281,5,0.003995153121650219,0.00025119405472651124,-0.00018825699225999415,0.13002052903175354,-0.006609119009226561,0.020673520863056183,0.010080396197736263,0.20458167791366577,-0.009146424010396004,-0.05025865510106087,4.516930103302002,-0.05773971974849701,0.0,0.0,0.0,0.005289087537676096,0.0747331827878952,-0.0,0.0,0.0,0.0,-0.0015462730079889297,0.060033056885004044,-0.0028038346208631992,18385.0,12256.0,9687.0,19549.0,0.7788639664649963,0.33078533411026,0.19903133809566498,0.8852385878562927,0.0,0.0,0.0,0.0,20068.0,11593.0,9847.0,20687.0,2.7614171504974365,3.0651139631154822,0.4104193063028338,0.02892209943484992,-0.49680617451667786,0.02707183174788952,0.0
286,5,0.004797984380275011,0.00026835608878172934,-0.00031060646870173514,0.14834795892238617,-0.004703092854470015,0.02295134775340557,0.010080396197736263,0.20458167791366577,-0.009146424010396004,-0.05025865510106087,4.516930103302002,-0.05773971974849701,0.0,0.0,0.0,0.005289087537676096,0.0747331827878952,-0.0,0.0,0.0,0.0,-0.0015462730079889297,0.060033056885004044,-0.0028038346208631992,18385.0,12256.0,9687.0,19549.0,0.7788639664649963,0.33078533411026,0.19903133809566498,0.8852385878562927,0.0,0.0,0.0,0.0,20068.0,11593.0,9847.0,20687.0,2.7614171504974365,3.0693602940876112,0.3802012546515725,0.025630737551747433,-0.49680617451667786,0.02707183174788952,0.0
291,5,0.005536416079849005,0.0003304244892206043,-0.0005076202214695513,0.14795097708702087,-0.009329443797469139,0.03282218798995018,0.009743202477693558,0.14368732273578644,-0.008715081959962845,-0.06473085284233093,5.485787868499756,-0.03577772527933121,0.0,0.0,0.0,0.003541045356541872,0.08313198387622833,-0.0,0.0,0.0,0.0,-0.0009613123256713152,0.09818974137306213,-0.0009989379905164242,21093.0,9402.0,7576.0,21625.0,1.0367958545684814,0.1864478439092636,0.11557100713253021,1.0917961597442627,0.0,0.0,0.0,0.0,21217.0,9177.0,3571.0,22503.0,2.9124255180358887,3.0706353563918345,0.35511648147534963,0.021299505043122384,-0.5827359557151794,0.019115833565592766,0.0
296,5,0.00646766135469079,0.00040663874824531376,-0.0007342076278291643,0.17092981934547424,-0.012877488508820534,0.04031936451792717,0.009743202477693558,0.14368732273578644,-0.008715081959962845,-0.06473085284233093,5.485787868499756,-0.03577772527933121,0.0,0.0,0.0,0.003541045356541872,0.08313198387622833,-0.0,0.0,0.0,0.0,-0.0009613123256713152,0.09818974137306213,-0.0009989379905164242,21093.0,9402.0,7576.0,21625.0,1.0367958545684814,0.1864478439092636,0.11557100713253021,1.0917961597442627,0.0,0.0,0.0,0.0,21217.0,9177.0,3571.0,22503.0,2.9124255180358887,3.070247429720338,0.327620323686286,0.020040526601063445,-0.5827359557151794,0.019115833565592766,0.0
301,5,0.007275854237377644,0.0004524703836068511,-0.0009840556886047125,0.16535507142543793,-0.01065079215914011,0.046109508723020554,0.009253944270312786,0.09726908057928085,-0.008437713608145714,-0.027533801272511482,6.064791679382324,0.036586277186870575,0.0,0.0,0.0,0.008892787620425224,0.09172612428665161,-0.0,0.0,0.0,0.0,-0.0004740878939628601,0.1411346048116684,-0.0005112207145430148,23883.0,4895.0,4914.0,23843.0,1.3410658836364746,0.04174487665295601,0.04215304180979729,1.3364533185958862,0.0,0.0,0.0,0.0,24040.0,4236.0,1495.0,24512.0,3.065692663192749,3.068739103999711,0.3009436137442316,0.015845817283580768,-0.6766237616539001,0.050531793385744095,0.0
306,5,0.008101437240839005,0.0004571551689878106,-0.001031968160532415,0.1652119904756546,-0.004822490271180868,0.024193301796913147,0.009253944270312786,0.09726908057928085,-0.008437713608145714,-0.027533801272511482,6.064791679382324,0.036586277186870575,0.0,0.0,0.0,0.008892787620425224,0.09172612428665161,-0.0,0.0,0.0,0.0,-0.0004740878939628601,0.1411346048116684,-0.0005112207145430148,23883.0,4895.0,4914.0,23843.0,1.3410658836364746,0.04174487665295601,0.04215304180979729,1.3364533185958862,0.0,0.0,0.0,0.0,24040.0,4236.0,1495.0,24512.0,3.065692663192749,3.063509226928765,0.2715294176480256,0.015295147013117232,-0.6766237616539001,0.050531793385744095,0.0
311,5,0.008870856836438179,0.0005687146331183612,-0.0012765692081302404,0.15841510891914368,-0.01531613152474165,0.039029449224472046,0.008719761855900288,0.02232799492776394,-0.008414015173912048,-0.04482999071478844,6.386885166168213,-0.06645021587610245,0.0,0.0,0.0,0.003651670878753066,0.09067101776599884,-0.0,0.0,0.0,0.0,-0.0001177799713332206,0.19240975379943848,-0.002306192647665739,24698.0,4565.0,1495.0,25587.0,1.4372860193252563,0.03516193851828575,-0.10613246262073517,1.546109914779663,0.0,0.0,0.0,0.0,25106.0,1495.0,1495.0,25748.0,3.044205665588379,3.059765382131928,0.24601615637344276,0.012732195345334254,-0.6641960144042969,0.020604990422725677,0.0
316,5,0.009784053079783916,0.0006120275356806815,-0.0014644712209701538,0.1729496568441391,-0.011324002407491207,0.038160018622875214,0.008719761855900288,0.02232799492776394,-0.008414015173912048,-0.04482999071478844,6.386885166168213,-0.06645021587610245,0.0,0.0,0.0,0.003651670878753066,0.09067101776599884,-0.0,0.0,0.0,0.0,-0.0001177799713332206,0.19240975379943848,-0.002306192647665739,24698.0,4565.0,1495.0,25587.0,1.4372860193252563,0.03516193851828575,-0.10613246262073517,1.546109914779663,0.0,0.0,0.0,0.0,25106.0,1495.0,1495.0,25748.0,3.044205665588379,3.063446519661844,0.20991566030242123,0.010788453457041014,-0.6641960144042969,0.020604990422725677,0.0
321,5,0.010541456751525402,0.0006575355655513704,-0.0017613556701689959,0.16006828844547272,-0.009990562684834003,0.05089014396071434,0.00841349083930254,-0.028451599180698395,-0.007976030930876732,-0.04610156640410423,6.327846050262451,-0.11954689770936966,0.0,0.0,0.0,0.00796782411634922,0.0940694510936737,-0.0,0.0,0.0,0.0,-0.0001177799713332206,0.19240975379943848,-0.002306192647665739,25603.0,1495.0,1495.0,27026.0,1.5480703115463257,-0.006609305739402771,-0.20628094673156738,1.7305126190185547,0.0,0.0,0.0,0.0,25862.0,1495.0,1495.0,27182.0,3.103851318359375,3.059555730838607,0.18472955080894454,0.0077554738620853785,-0.7025009393692017,0.04583960026502609,0.0
326,5,0.011341013014316559,0.0006531324470415711,-0.0020665533374994993,0.15997406840324402,-0.0034678541123867035,0.05697978287935257,0.00841349083930254,-0.028451599180698395,-0.007976030930876732,-0.04610156640410423,6.327846050262451,-0.11954689770936966,0.0,0.0,0.0,0.00796782411634922,0.0940694510936737,-0.0,0.0,0.0,0.0,-0.0001177799713332206,0.19240975379943848,-0.002306192647665739,25603.0,1495.0,1495.0,27026.0,1.5480703115463257,-0.006609305739402771,-0.20628094673156738,1.7305126190185547,0.0,0.0,0.0,0.0,25862.0,1495.0,1495.0,27182.0,3.103851318359375,3.060357160589915,0.15516983131596152,0.003726405913585589,-0.7025009393692017,0.04583960026502609,0.0
331,5,0.012063651345670223,0.0007145332056097686,-0.002437943359836936,0.15070617198944092,-0.008755232207477093,0.06735871732234955,0.007710078731179237,-0.1018620952963829,-0.007840439677238464,-0.06177276372909546,6.012059688568115,-0.04554081708192825,0.0,0.0,0.0,0.0029459947254508734,0.09051713347434998,-0.0,0.0,0.0,0.0,-0.00029704265762120485,0.20000000298023224,-0.0005661519826389849,26324.0,1495.0,1495.0,26776.0,1.6392492055892944,-0.11142972856760025,-0.18141424655914307,1.6978005170822144,0.0,0.0,0.0,0.0,26140.0,1495.0,1495.0,26980.0,3.041322708129883,3.055160757119746,0.12930519089526363,-0.0004886346195839807,-0.6624454259872437,0.016607409343123436,0.0
337,5,0.012807830236852169,0.0007938255439512432,-0.0026764136273413897,0.14958395063877106,-0.013017171062529087,0.0555599145591259,0.007710078731179237,-0.1018620952963829,-0.007840439677238464,-0.06177276372909546,6.012059688568115,-0.04554081708192825,0.0,0.0,0.0,0.0029459947254508734,0.09051713347434998,-0.0,0.0,0.0,0.0,-0.00029704265762120485,0.20000000298023224,-0.0005661519826389849,26324.0,1495.0,1495.0,26776.0,1.6392492055892944,-0.11142972856760025,-0.18141424655914307,1.6978005170822144,0.0,0.0,0.0,0.0,26140.0,1495.0,1495.0,26980.0,3.041322708129883,3.0534537445761014,0.10697482919637145,-0.0003664007063322781,-0.6624454259872437,0.016607409343123436,0.0
342,5,0.004041616804897785,-0.006308276671916246,-0.004675775766372681,0.14958395063877106,-0.013017171062529087,0.0555599145591259,0.007382010575383902,-0.14779523015022278,-0.007809801027178764,-0.03786448389291763,5.592297077178955,-0.0522468127310276,0.0,0.0,0.0,0.009579066187143326,0.08760315179824829,-0.0,0.0,0.0,0.0,0.00013027494424022734,0.20000000298023224,-0.0017665093764662743,26266.0,1495.0,1495.0,27084.0,1.6318724155426025,-0.08022104203701019,-0.1860351413488388,1.7382349967956543,0.0,0.0,0.0,0.0,26176.0,1495.0,1495.0,27171.0,2.996004581451416,2.7526158261068767,-0.3566327523539045,1.4671627328259527,-0.6315948367118835,0.05319393798708916,0.0
347,5,0.006457225419580936,-0.006984979845583439,-0.016166500747203827,0.14958395063877106,-0.013017171062529087,0.0555599145591259,0.007382010575383902,-0.14779523015022278,-0.007809801027178764,-0.03786448389291763,5.592297077178955,-0.0522468127310276,0.0,0.0,0.0,0.009579066187143326,0.08760315179824829,-0.0,0.0,0.0,0.0,0.00013027494424022734,0.20000000298023224,-0.0017665093764662743,26266.0,1495.0,1495.0,27084.0,1.6318724155426025,-0.08022104203701019,-0.1860351413488388,1.7382349967956543,0.0,0.0,0.0,0.0,26176.0,1495.0,1495.0,27171.0,2.996004581451416,0.273186434135143,0.11913108855078604,-1.4975802474140787,-0.6315948367118835,0.05319393798708916,0.0
352,5,0.007099425885826349,-0.006947766989469528,-0.01698547787964344,0.13689762353897095,-0.009672392159700394,0.12050121277570724,0.006680130958557129,-0.21075521409511566,-0.008144507184624672,-0.04632608965039253,5.003198146820068,-0.0671144500374794,0.0,0.0,0.0,0.0019088288536295295,0.0844573825597763,-0.0,0.0,0.0,0.0,0.000551257748156786,0.20000000298023224,-0.0038891201838850975,26107.0,1495.0,1495.0,27001.0,1.611581563949585,-0.08004675805568695,-0.21747373044490814,1.7272615432739258,0.0,0.0,0.0,0.0,26076.0,1495.0,1495.0,27031.0,2.935457468032837,0.2652622281662011,0.10304687899100363,-1.4956203468776885,-0.5966891050338745,0.010386060923337936,0.0
357,5,0.007142229471355677,-0.006836894433945417,-0.016815457493066788,0.059895507991313934,-0.017173636704683304,0.027798181399703026,0.006680130958557129,-0.21075521409511566,-0.008144507184624672,-0.04632608965039253,5.003198146820068,-0.0671144500374794,0.0,0.0,0.0,0.0019088288536295295,0.0844573825597763,-0.0,0.0,0.0,0.0,0.000551257748156786,0.20000000298023224,-0.0038891201838850975,26107.0,1495.0,1495.0,27001.0,1.611581563949585,-0.08004675805568695,-0.21747373044490814,1.7272615432739258,0.0,0.0,0.0,0.0,26076.0,1495.0,1495.0,27031.0,2.935457468032837,0.2783047730528125,0.1428530462845802,-1.5067173980025967,-0.5966891050338745,0.010386060923337936,0.0
362,5,0.006251442711800337,-0.006726720370352268,-0.004279996734112501,0.059895507991313934,-0.017173636704683304,0.027798181399703026,0.006680130958557129,-0.21075521409511566,-0.008144507184624672,-0.04632608965039253,5.003198146820068,-0.0671144500374794,0.0,0.0,0.0,0.006315937731415033,0.04797053337097168,-0.0,0.0,0.0,0.0,0.000551257748156786,0.20000000298023224,-0.0038891201838850975,26107.0,1495.0,1495.0,27001.0,1.611581563949585,-0.08004675805568695,-0.21747373044490814,1.7272615432739258,0.0,0.0,0.0,0.0,26076.0,1495.0,1495.0,27031.0,2.286121368408203,2.7265548016514045,-0.41681449562870126,1.4619595406721202,-0.264149934053421,0.026763347908854485,0.0
367,5,0.006594894453883171,-0.006683926098048687,-0.004463595803827047,0.06517238914966583,-0.012004761956632137,0.03315117582678795,0.006092828698456287,-0.24774572253227234,-0.008805081248283386,-0.050283920019865036,4.3879547119140625,-0.1105567216873169,0.0,0.0,0.0,0.006315937731415033,0.04797053337097168,-0.0,0.0,0.0,0.0,-0.0013628569431602955,0.19710129499435425,-0.003981861751526594,25401.0,1495.0,1495.0,26862.0,1.5230214595794678,-0.042323172092437744,-0.25424569845199585,1.7090048789978027,0.0,0.0,0.0,0.0,25863.0,1495.0,1495.0,27064.0,2.286121368408203,2.7193245327273114,-0.4378392892746645,1.4533274724699674,-0.264149934053421,0.026763347908854485,0.0
372,5,0.006825851276516914,-0.006723306141793728,-0.004214023239910603,0.05378377437591553,-7.630009349668398e-05,-0.016688229516148567,0.006092828698456287,-0.24774572253227234,-0.008805081248283386,-0.050283920019865036,4.3879547119140625,-0.1105567216873169,0.0,0.0,0.0,0.00190558354370296,0.05025629326701164,-0.0,0.0,0.0,0.0,-0.0013628569431602955,0.19710129499435425,-0.003981861751526594,25401.0,1495.0,1495.0,26862.0,1.5230214595794678,-0.042323172092437744,-0.25424569845199585,1.7090048789978027,0.0,0.0,0.0,0.0,25863.0,1495.0,1495.0,27064.0,2.3209822177886963,2.7214008431534857,-0.44596539457915274,1.4531649973122327,-0.28095099329948425,0.008197999559342861,0.0
377,5,0.00698232464492321,-0.006774266250431538,-0.00448549585416913,0.040290314704179764,0.006084695924073458,0.025901367887854576,0.004594591446220875,-0.31121280789375305,-0.010202516801655293,-0.04280462488532066,1.8088433742523193,-0.048290565609931946,0.0,0.0,0.0,0.00190558354370296,0.05025629326701164,-0.0,0.0,0.0,0.0,-0.000233682498219423,0.16833390295505524,-0.002850073389708996,22755.0,1495.0,1495.0,23940.0,1.213387370109558,-0.07998106628656387,-0.1950017809867859,1.3477168083190918,0.0,0.0,0.0,0.0,25238.0,1495.0,1495.0,26555.0,2.3209822177886963,2.716140336456435,-0.4681459889564425,1.4469365977869646,-0.28095099329948425,0.008197999559342861,0.0
382,5,0.0072318315505981445,-0.006495656445622444,-0.00389794516377151,0.046056944876909256,-0.030999328941106796,-0.060145508497953415,0.004594591446220875,-0.31121280789375305,-0.010202516801655293,-0.04280462488532066,1.8088433742523193,-0.048290565609931946,0.0,0.0,0.0,-0.015219399705529213,0.0369463786482811,-0.0,0.0,0.0,0.0,-0.000233682498219423,0.16833390295505524,-0.002850073389708996,22755.0,1495.0,1495.0,23940.0,1.213387370109558,-0.07998106628656387,-0.1950017809867859,1.3477168083190918,0.0,0.0,0.0,0.0,25238.0,1495.0,1495.0,26555.0,2.1326427459716797,2.7305394500612525,-0.4416559711219508,1.4483836719657774,-0.1897985190153122,-0.06015804782509804,0.0
387,5,0.007217384409159422,-0.006457233335822821,-0.00405584741383791,0.016689132899045944,-0.017010491341352463,-0.0051099397242069244,0.004595975857228041,-0.31900039315223694,-0.010725474916398525,0.004038779530674219,-0.029473010450601578,-0.04380182549357414,0.0,0.0,0.0,-0.015219399705529213,0.0369463786482811,-0.0,0.0,0.0,0.0,5.391975355450995e-05,0.11784393340349197,-0.0023765680380165577,21184.0,7807.0,1711.0,22177.0,1.0460776090621948,0.12361069023609161,0.0009281300008296967,1.1503657102584839,0.0,0.0,0.0,0.0,22170.0,1495.0,1495.0,23451.0,2.1326427459716797,2.728022887441445,-0.4473293865421083,1.4452585921972547,-0.1897985190153122,-0.06015804782509804,0.0
392,5,0.007120060734450817,-0.0065255602821707726,-0.00422904035076499,-0.005003162194043398,0.0013950206339359283,0.018739204853773117,0.004595975857228041,-0.31900039315223694,-0.010725474916398525,0.004038779530674219,-0.029473010450601578,-0.04380182549357414,0.0,0.0,0.0,0.007977066561579704,0.022353921085596085,-0.0,0.0,0.0,0.0,5.391975355450995e-05,0.11784393340349197,-0.0023765680380165577,21184.0,7807.0,1711.0,22177.0,1.0460776090621948,0.12361069023609161,0.0009281300008296967,1.1503657102584839,0.0,0.0,0.0,0.0,22170.0,1495.0,1495.0,23451.0,1.9052115678787231,2.724274661101832,-0.4559956001213174,1.445975276329209,-0.10261216759681702,0.028169983997941017,0.0
397,5,0.007076128385961056,-0.006453047972172499,-0.004171173088252544,-0.0072731394320726395,-0.008143442682921886,0.0005515704397112131,0.004606261383742094,-0.3095893859863281,-0.011295253410935402,0.046712618321180344,-1.6152161359786987,-0.03659737482666969,0.0,0.0,0.0,0.007977066561579704,0.022353921085596085,-0.0,0.0,0.0,0.0,-0.0014038681983947754,0.07592839002609253,-0.001956532709300518,19262.0,11975.0,9771.0,20173.0,0.8583519458770752,0.3147910237312317,0.20284545421600342,0.9449938535690308,0.0,0.0,0.0,0.0,20614.0,9246.0,6061.0,21544.0,1.9052115678787231,2.732201730393856,-0.44524830392362535,1.4492825881886584,-0.10261216759681702,0.028169983997941017,0.0
402,5,0.006946993060410023,-0.006314443424344063,-0.004099280573427677,-0.018405528739094734,-0.01988995634019375,-0.00840645283460617,0.004606261383742094,-0.3095893859863281,-0.011295253410935402,0.046712618321180344,-1.6152161359786987,-0.03659737482666969,0.0,0.0,0.0,-0.0016503185033798218,0.0029985455330461264,-0.0,0.0,0.0,0.0,-0.0014038681983947754,0.07592839002609253,-0.001956532709300518,19262.0,11975.0,9771.0,20173.0,0.8583519458770752,0.3147910237312317,0.20284545421600342,0.9449938535690308,0.0,0.0,0.0,0.0,20614.0,9246.0,6061.0,21544.0,1.6610184907913208,2.7363587953612845,-0.4302782790344927,1.4515713731508726,-0.012001506984233856,-0.00508101424202323,0.0
407,5,0.006686479784548283,-0.00610997574403882,-0.0039014334324747324,-0.03862377256155014,-0.03249206766486168,-0.027104251086711884,0.004343290347605944,-0.29217642545700073,-0.011770501732826233,-0.19618242979049683,-2.834264039993286,0.005671743303537369,0.0,0.0,0.0,-0.0016503185033798218,0.0029985455330461264,-0.0,0.0,0.0,0.0,-0.004086463712155819,0.033385541290044785,-0.001799622317776084,16908.0,14054.0,12523.0,17350.0,0.6536142826080322,0.44267892837524414,0.34637582302093506,0.6899737119674683,0.0,0.0,0.0,0.0,18123.0,12843.0,9465.0,18867.0,1.6610184907913208,2.738360863462963,-0.40922565814819545,1.4550402656030297,-0.012001506984233856,-0.00508101424202323,0.0
413,5,0.0063972133211791515,-0.005951492115855217,-0.003747377311810851,-0.05016152560710907,-0.0320148766040802,-0.02932843752205372,0.004343290347605944,-0.29217642545700073,-0.011770501732826233,-0.19618242979049683,-2.834264039993286,0.005671743303537369,0.0,0.0,0.0,0.023917773738503456,-0.02249441109597683,-0.0,0.0,0.0,0.0,-0.004086463712155819,0.033385541290044785,-0.001799622317776084,16908.0,14054.0,12523.0,17350.0,0.6536142826080322,0.44267892837524414,0.34637582302093506,0.6899737119674683,0.0,0.0,0.0,0.0,18123.0,12843.0,9465.0,18867.0,1.987383246421814,2.7425102947520825,-0.3892554072189431,1.4629343021427235,0.10768303275108337,0.08809184283018112,0.0
418,5,0.006123995408415794,-0.005928302649408579,-0.0036608604714274406,-0.05285075679421425,-0.015588688664138317,-0.022113382816314697,-0.0002464889839757234,-0.25412362813949585,-0.01262601837515831,-0.5626753568649292,-3.5936477184295654,-0.10109604150056839,0.0,0.0,0.0,0.023917773738503456,-0.02249441109597683,-0.0,0.0,0.0,0.0,0.010940298438072205,0.00023403714294545352,-0.004873182624578476,11419.0,15772.0,13956.0,16489.0,0.28424373269081116,0.5647383332252502,0.4361649751663208,0.6200644969940186,0.0,0.0,0.0,0.0,14689.0,13627.0,13433.0,16261.0,1.987383246421814,2.7472368723845064,-0.3736035621070407,1.4696973731129512,0.10768303275108337,0.08809184283018112,0.0
423,5,0.005754877347499132,-0.0057731871493160725,-0.0035238752607256174,-0.06543442606925964,-0.02484932355582714,-0.025283580645918846,-0.0002464889839757234,-0.25412362813949585,-0.01262601837515831,-0.5626753568649292,-3.5936477184295654,-0.10109604150056839,0.0,0.0,0.0,0.006747981533408165,-0.033174194395542145,-0.0,0.0,0.0,0.0,0.010940298438072205,0.00023403714294545352,-0.004873182624578476,11419.0,15772.0,13956.0,16489.0,0.28424373269081116,0.5647383332252502,0.4361649751663208,0.6200644969940186,0.0,0.0,0.0,0.0,14689.0,13627.0,13433.0,16261.0,2.053349733352661,2.7463184956300313,-0.35304893013632876,1.4745686692014932,0.16410645842552185,0.02568262256681919,0.0
428,5,0.005453015211969614,-0.005622619763016701,-0.00342404842376709,-0.06239723786711693,-0.02800782583653927,-0.02209264412522316,-0.006286985706537962,-0.2241949439048767,-0.013101430609822273,-1.0038732290267944,-3.808773994445801,-0.048641376197338104,0.0,0.0,0.0,0.006747981533408165,-0.033174194395542145,-0.0,0.0,0.0,0.0,0.01688612438738346,-0.026798808947205544,-0.003608961822465062,8377.0,15382.0,15430.0,14035.0,0.14459678530693054,0.5357666015625,0.5392570495605469,0.441398024559021,0.0,0.0,0.0,0.0,7568.0,16684.0,17486.0,15374.0,2.053349733352661,2.741250753835154,-0.3345705446005302,1.4816126722365428,0.16410645842552185,0.02568262256681919,0.0
433,5,0.005181881133466959,-0.005505951587110758,-0.0032049494329839945,-0.05749502032995224,-0.02520330809056759,-0.03512894734740257,-0.006286985706537962,-0.2241949439048767,-0.013101430609822273,-1.0038732290267944,-3.808773994445801,-0.048641376197338104,0.0,0.0,0.0,0.01834600791335106,-0.03888006880879402,-0.0,0.0,0.0,0.0,0.01688612438738346,-0.026798808947205544,-0.003608961822465062,8377.0,15382.0,15430.0,14035.0,0.14459678530693054,0.5357666015625,0.5392570495605469,0.441398024559021,0.0,0.0,0.0,0.0,7568.0,16684.0,17486.0,15374.0,2.1738641262054443,2.743760100146907,-0.31552967831362094,1.4890367281149286,0.20357705652713776,0.07391596585512161,0.0
438,5,0.004818598739802837,-0.005265355110168457,-0.003101373091340065,-0.06659185886383057,-0.038952916860580444,-0.02648073621094227,-0.01989911124110222,-0.180123969912529,-0.013248210772871971,-1.3179811239242554,-3.4345927238464355,-0.03691140562295914,0.0,0.0,0.0,0.01834600791335106,-0.03888006880879402,-0.0,0.0,0.0,0.0,0.03248458355665207,-0.036700598895549774,-0.0026523894630372524,7363.0,16097.0,18226.0,15231.0,0.10836844146251678,0.5895178318023682,0.7647796869277954,0.5247173309326172,0.0,0.0,0.0,0.0,7568.0,16684.0,17486.0,15374.0,2.1738641262054443,2.7383243576470133,-0.2989107273097665,1.4936511051016075,0.20357705652713776,0.07391596585512161,0.0
443,5,0.004490178544074297,-0.005026011727750301,-0.0029086058493703604,-0.06604720652103424,-0.04430236667394638,-0.03372437506914139,-0.01989911124110222,-0.180123969912529,-0.013248210772871971,-1.3179811239242554,-3.4345927238464355,-0.03691140562295914,0.0,0.0,0.0,0.027976900339126587,-0.041028063744306564,-0.0,0.0,0.0,0.0,0.03248458355665207,-0.036700598895549774,-0.0026523894630372524,7363.0,16097.0,18226.0,15231.0,0.10836844146251678,0.5895178318023682,0.7647796869277954,0.5247173309326172,0.0,0.0,0.0,0.0,7568.0,16684.0,17486.0,15374.0,2.2549335956573486,2.7400664442418554,-0.2862837867358452,1.4996719595803751,0.2227793186903,0.11690658330917358,0.0
448,5,0.0042252931743860245,-0.004863823764026165,-0.0026223536115139723,-0.05820512771606445,-0.0371834971010685,-0.04784001037478447,-0.03087654523551464,-0.15551021695137024,-0.014016996137797832,-1.3571066856384277,-2.5503993034362793,-0.2778294086456299,0.0,0.0,0.0,0.027976900339126587,-0.041028063744306564,-0.0,0.0,0.0,0.0,0.035811152309179306,-0.03147129714488983,-0.010273770429193974,1495.0,17887.0,15619.0,18390.0,-0.014650210738182068,0.7353790998458862,0.5533175468444824,0.7793033123016357,0.0,0.0,0.0,0.0,7876.0,16204.0,16848.0,17239.0,2.2549335956573486,2.7421030942726747,-0.26954987412909304,1.5034133044182814,0.2227793186903,0.11690658330917358,0.0
453,5,0.0041376687586307526,-0.00479872478172183,-0.0025792422238737345,-0.03379695117473602,-0.022685296833515167,-0.02430935576558113,-0.03087654523551464,-0.15551021695137024,-0.014016996137797832,-1.3571066856384277,-2.5503993034362793,-0.2778294086456299,0.0,0.0,0.0,0.027976900339126587,-0.041028063744306564,-0.0,0.0,0.0,0.0,0.035811152309179306,-0.03147129714488983,-0.010273770429193974,1495.0,17887.0,15619.0,18390.0,-0.014650210738182068,0.7353790998458862,0.5533175468444824,0.7793033123016357,0.0,0.0,0.0,0.0,7876.0,16204.0,16848.0,17239.0,2.2549335956573486,2.7416679775654798,-0.2596752593140781,1.5059591938475725,0.2227793186903,0.11690658330917358,0.0
458,5,0.004174330271780491,-0.004695954266935587,-0.002557464176788926,-0.009119383059442043,-0.021406562998890877,-0.012337123975157738,-0.03087654523551464,-0.15551021695137024,-0.014016996137797832,-1.3571066856384277,-2.5503993034362793,-0.2778294086456299,0.0,0.0,0.0,0.01628357358276844,-0.0221882201731205,-0.0,0.0,0.0,0.0,0.035811152309179306,-0.03147129714488983,-0.010273770429193974,1495.0,17887.0,15619.0,18390.0,-0.014650210738182068,0.7353790998458862,0.5533175468444824,0.7793033123016357,0.0,0.0,0.0,0.0,7876.0,16204.0,16848.0,17239.0,1.9367833137512207,2.7373144265244265,-0.25525035355442677,1.5099296534898725,0.10352904349565506,0.058452680706977844,0.0
463,5,0.0043731448240578175,-0.004672460723668337,-0.0026599676348268986,0.020209956914186478,-0.01138183381408453,0.0073655820451676846,-0.04517148435115814,-0.13113589584827423,-0.014141583815217018,-0.9100103378295898,-1.267316222190857,-0.2514050006866455,0.0,0.0,0.0,0.01628357358276844,-0.0221882201731205,-0.0,0.0,0.0,0.0,0.03471633791923523,-0.009723360650241375,-0.00159841391723603,10569.0,15465.0,16442.0,18342.0,0.24056124687194824,0.5418599843978882,0.6164156198501587,0.7750272750854492,0.0,0.0,0.0,0.0,7513.0,17420.0,12478.0,20937.0,1.9367833137512207,2.730946009077559,-0.2563880351078888,1.5094825405955272,0.10352904349565506,0.058452680706977844,0.0
468,5,0.004542035516351461,-0.004616675432771444,-0.002579194027930498,0.028350884094834328,-0.011246953159570694,-0.006746614817529917,-0.04517148435115814,-0.13113589584827423,-0.014141583815217018,-0.9100103378295898,-1.267316222190857,-0.2514050006866455,0.0,0.0,0.0,0.004771098494529724,0.02198956161737442,-0.0,0.0,0.0,0.0,0.03471633791923523,-0.009723360650241375,-0.00159841391723603,10569.0,15465.0,16442.0,18342.0,0.24056124687194824,0.5418599843978882,0.6164156198501587,0.7750272750854492,0.0,0.0,0.0,0.0,7513.0,17420.0,12478.0,20937.0,1.8932324647903442,2.7316976375110427,-0.25723097331353223,1.5076923357037235,-0.10030728578567505,0.01674279198050499,0.0
474,5,0.004861190915107727,-0.004639131017029285,-0.002764241537079215,0.049638982862234116,-0.001804145984351635,0.01950705796480179,-0.05001416057348251,-0.12632229924201965,-0.015855610370635986,-0.2582290470600128,0.15195965766906738,0.28171637654304504,0.0,0.0,0.0,-0.004729344975203276,0.040851421654224396,-0.0,0.0,0.0,0.0,0.02126799337565899,0.062663733959198,-0.0074797263368964195,17044.0,10096.0,17177.0,17432.0,0.6646957993507385,0.21782425045967102,0.6756150126457214,0.6967985033988953,0.0,0.0,0.0,0.0,18023.0,8476.0,16898.0,17549.0,2.1681764125823975,2.7238389009957333,-0.2666704502555927,1.5062523354523847,-0.21336740255355835,-0.019006460905075073,0.0
479,5,0.005163077265024185,-0.0046270983293652534,-0.002712140791118145,0.056081946939229965,-0.0021655778400599957,0.0015507207717746496,-0.05001416057348251,-0.12632229924201965,-0.015855610370635986,-0.2582290470600128,0.15195965766906738,0.28171637654304504,0.0,0.0,0.0,-0.004729344975203276,0.040851421654224396,-0.0,0.0,0.0,0.0,0.02126799337565899,0.062663733959198,-0.0074797263368964195,17044.0,10096.0,17177.0,17432.0,0.6646957993507385,0.21782425045967102,0.6756150126457214,0.6967985033988953,0.0,0.0,0.0,0.0,18023.0,8476.0,16898.0,17549.0,2.1681764125823975,2.7239082531370578,-0.2743121056354998,1.5047410550300009,-0.21336740255355835,-0.019006460905075073,0.0
