timestamp,dt,pos_x,pos_y,pos_z,vel_x,vel_y,vel_z,roll,pitch,yaw,agv_x,agv_y,agv_z,x_ref,y_ref,z_ref,roll_ref,pitch_ref,yaw_ref,x_vel_ref,y_vel_ref,z_vel_ref,x_torque,y_torque,z_torque,w0,w1,w2,w3,u0,u1,u2,u3,m0req,m1req,m2req,m3req,thrust0,thrust1,thrust2,thrust3,thrust_ref,roll_vicon,pitch_vicon,yaw_vicon,acc_x,acc_y,acc_z
5,5,0.0,0.0,0.0,-0.0009025242179632187,-0.001023220713250339,-0.0005185061017982662,-0.004553783684968948,0.003231088863685727,0.0052894968539476395,0.0014697113074362278,0.0018633421277627349,0.00022125814575701952,0.0,0.0,0.0,0.001262546400539577,-0.0008566309115849435,-0.0,0.0,0.0,0.0,0.0013782400637865067,-0.0009654196910560131,0.0005229593953117728,1495.0,1495.0,1495.0,1495.0,0.0,0.0,0.0,0.0,0.0,0.0,0.0,0.0,1495.0,1495.0,1495.0,1495.0,1.639626383781433,-0.05980394095560137,0.11050244303524383,-0.0013280284405215376,0.00338446581736207,0.003837077645584941,0.0
30,25,0.0,0.0,0.0,-6.67790009174496e-05,0.0017856558552011847,0.0009122510091401637,-0.004553783684968948,0.003231088863685727,0.0052894968539476395,0.0014697113074362278,0.0018633421277627349,0.00022125814575701952,0.0,0.0,0.0,0.001262546400539577,-0.0008566309115849435,-0.0,0.0,0.0,0.0,0.0013782400637865067,-0.0009654196910560131,0.0005229593953117728,1495.0,1495.0,1495.0,1495.0,0.0,0.0,0.0,0.0,0.0,0.0,0.0,0.0,1495.0,1495.0,1495.0,1495.0,1.639626383781433,-0.05951510522739422,0.1096061807721233,-0.0008787436844594768,0.00338446581736207,0.003837077645584941,0.0
35,5,0.0,0.0,0.0,-0.00047434281441383064,0.00042587812640704215,0.0005603684112429619,-0.004563727881759405,0.0032406076788902283,0.005313024390488863,-4.356207500677556e-05,-0.0021434342488646507,0.002531495178118348,0.0,0.0,0.0,-0.002197561552748084,-6.32179289823398e-05,-0.0,0.0,0.0,0.0,0.0017643203027546406,-0.0011367115657776594,0.0005375840119086206,1495.0,1495.0,1495.0,1495.0,0.0,0.0,0.0,0.0,0.0,0.0,0.0,0.0,1495.0,1495.0,1495.0,1495.0,1.6439176797866821,-0.05978118888585932,0.10991802087476503,-0.0009497807750111265,0.0002504212607163936,-0.0066962093114852905,0.0
41,5,0.0,0.0,0.0,0.00013114395551383495,0.0005723802023567259,-0.0032647522166371346,-0.004563727881759405,0.0032406076788902283,0.005313024390488863,-4.356207500677556e-05,-0.0021434342488646507,0.002531495178118348,0.0,0.0,0.0,-0.002197561552748084,-6.32179289823398e-05,-0.0,0.0,0.0,0.0,0.0017643203027546406,-0.0011367115657776594,0.0005375840119086206,1495.0,1495.0,1495.0,1495.0,0.0,0.0,0.0,0.0,0.0,0.0,0.0,0.0,1495.0,1495.0,1495.0,1495.0,1.6439176797866821,-0.05954657503406357,0.1100574439232773,-0.0010897425159857054,0.0002504212607163936,-0.0066962093114852905,0.0
53,12,0.0,0.0,0.0,0.00013114395551383495,0.0005723802023567259,-0.0032647522166371346,-0.004576442297548056,0.0032425816170871258,0.005336349830031395,0.0006543535273522139,0.006848543882369995,0.0019706287421286106,0.0,0.0,0.0,-0.002197561552748084,-6.32179289823398e-05,-0.0,0.0,0.0,0.0,0.0017643203027546406,-0.0011367115657776594,0.0005375840119086206,1495.0,1495.0,1495.0,1495.0,0.0,0.0,0.0,0.0,0.0,0.0,0.0,0.0,1495.0,1495.0,1495.0,1495.0,1.6439176797866821,-0.05954657503406357,0.1100574439232773,-0.0010897425159857054,0.0002504212607163936,-0.0066962093114852905,0.0
58,5,-1.1962116332142614e-05,3.3701579127409786e-07,-6.679474608972669e-05,-0.0007656682864762843,-0.0012485590996220708,0.003454489866271615,-0.004576442297548056,0.0032425816170871258,0.005336349830031395,0.0006543535273522139,0.006848543882369995,0.0019706287421286106,0.0,0.0,0.0,0.0015401517739519477,-0.0007428912213072181,-0.0,0.0,0.0,0.0,0.0007357886643148959,-0.0009268501889891922,0.0003656017652247101,1495.0,1495.0,1495.0,1495.0,0.0,0.0,0.0,0.0,0.0,0.0,0.0,0.0,1495.0,1495.0,1495.0,1495.0,1.6407432556152344,-0.059981707329174495,0.11050358795359268,-0.001180166364377585,0.002937089651823044,0.004683951381593943,0.0
66,8,-1.4839551113254856e-05,1.1459962479420938e-05,-3.9712194848107174e-05,-0.00032142893178388476,-0.0003162540670018643,-0.00011971771164098755,-0.004576442297548056,0.0032425816170871258,0.005336349830031395,0.0006543535273522139,0.006848543882369995,0.0019706287421286106,0.0,0.0,0.0,0.0015401517739519477,-0.0007428912213072181,-0.0,0.0,0.0,0.0,0.0007357886643148959,-0.0009268501889891922,0.0003656017652247101,1495.0,1495.0,1495.0,1495.0,0.0,0.0,0.0,0.0,0.0,0.0,0.0,0.0,1495.0,1495.0,1495.0,1495.0,1.6407432556152344,-0.05992741981035462,0.11106430082804833,-0.0013296081846629428,0.002937089651823044,0.004683951381593943,0.0
71,5,-4.471510237635812e-06,1.3504405615094583e-05,-7.484022290782377e-09,0.0011155933607369661,-0.0003718347870744765,-0.0048124524764716625,-0.004575630649924278,0.003236995544284582,0.00532092060893774,-0.001344138290733099,0.0025779330171644688,-0.003455875674262643,0.0,0.0,0.0,0.0015401517739519477,-0.0007428912213072181,-0.0,0.0,0.0,0.0,0.0007437731837853789,-0.0009320628014393151,0.0005402601673267782,13656.0,13383.0,13889.0,13345.0,0.41651451587677,0.39904075860977173,0.4317343235015869,0.39662808179855347,0.0,0.0,0.0,0.0,13667.0,13374.0,13894.0,13337.0,1.6407432556152344,-0.059723916200164553,0.11022428264705167,-0.0011873509626776119,0.002937089651823044,0.004683951381593943,0.0
76,5,-1.1509433534229174e-05,6.3100646912062075e-06,-3.0842842534184456e-05,-0.0003983134520240128,0.0007145869894884527,0.0017752620624378324,-0.004575630649924278,0.003236995544284582,0.00532092060893774,-0.001344138290733099,0.0025779330171644688,-0.003455875674262643,0.0,0.0,0.0,0.00048382426030002534,0.0010538551723584533,-0.0,0.0,0.0,0.0,0.0007437731837853789,-0.0009320628014393151,0.0005402601673267782,13656.0,13383.0,13889.0,13345.0,0.41651451587677,0.39904075860977173,0.4317343235015869,0.39662808179855347,0.0,0.0,0.0,0.0,13667.0,13374.0,13894.0,13337.0,1.6377133131027222,-0.05998308874535528,0.11098494744111974,-0.0012218454698990988,-0.0041588242165744305,0.0014687031507492065,0.0
81,5,-6.804702934459783e-06,7.648747669009026e-06,-3.644913886091672e-05,0.0004052422591485083,0.00012519281881395727,0.001382860355079174,-0.004583797417581081,0.0032734042033553123,0.0053378622978925705,0.0005248914239928126,-0.0027499652933329344,-0.00030701913055963814,0.0,0.0,0.0,0.00048382426030002534,0.0010538551723584533,-0.0,0.0,0.0,0.0,0.0006921733147464693,-0.0010914148297160864,0.0006128609529696405,13667.0,13377.0,13909.0,13317.0,0.41726458072662354,0.39867347478866577,0.4330938458442688,0.394885778427124,0.0,0.0,0.0,0.0,13650.0,13393.0,13883.0,13347.0,1.6377133131027222,-0.059966363678639265,0.1102085627945841,-0.0011474360549317462,-0.0041588242165744305,0.0014687031507492065,0.0
86,5,-3.7576842260023113e-06,7.144325081753777e-06,-3.523650229908526e-05,0.0005277391755953431,0.0001106078561861068,0.0004076276090927422,-0.004583797417581081,0.0032734042033553123,0.0053378622978925705,0.0005248914239928126,-0.0027499652933329344,-0.00030701913055963814,0.0,0.0,0.0,-0.00014144406304694712,0.0003773729840759188,-0.0,0.0,0.0,0.0,0.0006921733147464693,-0.0010914148297160864,0.0006128609529696405,13667.0,13377.0,13909.0,13317.0,0.41726458072662354,0.39867347478866577,0.4330938458442688,0.394885778427124,0.0,0.0,0.0,0.0,13650.0,13393.0,13883.0,13347.0,1.6299333572387695,-0.05977101846657298,0.11036628543603204,-0.0010614290401127979,-0.0014821512158960104,-0.00042732973815873265,0.0
91,5,-6.621467946388293e-06,1.2738882105622906e-05,-1.6467518435092643e-05,-0.00013255837257020175,-0.0006271037273108959,-0.0020892268512398005,-0.004581214394420385,0.0032792361453175545,0.005300568882375956,-0.003498914884403348,0.003889648476615548,-0.00476766936480999,0.0,0.0,0.0,-0.00014144406304694712,0.0003773729840759188,-0.0,0.0,0.0,0.0,0.0011697873705998063,-0.0008509745239280164,0.00041852722642943263,13536.0,13347.0,13815.0,13386.0,0.4088191092014313,0.3967359960079193,0.4269094169139862,0.3992592394351959,0.0,0.0,0.0,0.0,13530.0,13326.0,13939.0,13427.0,1.6299333572387695,-0.05962864221641178,0.10937532573382061,-0.0009629461791520472,-0.0014821512158960104,-0.00042732973815873265,0.0
96,5,-3.4449419672455406e-07,1.621374030946754e-05,-7.771694072289392e-06,0.0007002134807407856,-0.0006678244099020958,-0.0018791896291077137,-0.004581214394420385,0.0032792361453175545,0.005300568882375956,-0.003498914884403348,0.003889648476615548,-0.00476766936480999,0.0,0.0,0.0,0.0008003622060641646,-0.00013565323024522513,-0.0,0.0,0.0,0.0,0.0011697873705998063,-0.0008509745239280164,0.00041852722642943263,13536.0,13347.0,13815.0,13386.0,0.4088191092014313,0.3967359960079193,0.4269094169139862,0.3992592394351959,0.0,0.0,0.0,0.0,13530.0,13326.0,13939.0,13427.0,1.632477879524231,-0.05982297974180024,0.1097358854180043,-0.0009461113797208929,0.0005336164613254368,0.0024218226317316294,0.0
101,5,-8.196676617444609e-07,8.041465662245173e-06,-3.3142787287943065e-05,0.0002230645768577233,0.0007135432097129524,0.0022928554099053144,-0.0046002850867807865,0.0032608185429126024,0.005285801365971565,-0.004999169148504734,0.010512200184166431,-0.0008699907339178026,0.0,0.0,0.0,-0.0008692225092090666,0.0002113770751748234,-0.0,0.0,0.0,0.0,0.0015612517017871141,-0.0007467502146027982,0.0005901092663407326,13556.0,13299.0,13944.0,13423.0,0.410074919462204,0.39375433325767517,0.4353571832180023,0.4015568196773529,0.0,0.0,0.0,0.0,13611.0,13266.0,13883.0,13415.0,1.6332372426986694,-0.05967754600007046,0.11049219754957666,-0.0012169414350482726,-0.0008318765903823078,-0.0026314109563827515,0.0
108,7,3.5365431472200726e-07,2.1683863451471552e-05,-9.89967338682618e-06,0.0002300244668731466,-0.0013516705948859453,-0.001872031600214541,-0.0046002850867807865,0.0032608185429126024,0.005285801365971565,-0.004999169148504734,0.010512200184166431,-0.0008699907339178026,0.0,0.0,0.0,-0.0008692225092090666,0.0002113770751748234,-0.0,0.0,0.0,0.0,0.0015612517017871141,-0.0007467502146027982,0.0005901092663407326,13556.0,13299.0,13944.0,13423.0,0.410074919462204,0.39375433325767517,0.4353571832180023,0.4015568196773529,0.0,0.0,0.0,0.0,13611.0,13266.0,13883.0,13415.0,1.6332372426986694,-0.05936528876333539,0.10963928183397717,-0.0009153812866559072,-0.0008318765903823078,-0.0026314109563827515,0.0
113,5,-1.0988193935190793e-05,1.5749646991025656e-05,-3.4822685847757384e-05,-0.0011456389911472797,-0.0005123265436850488,0.00014161822036840022,-0.004627654794603586,0.0032887340057641268,0.005294951610267162,-0.004210962913930416,0.002683954546228051,0.0007142086396925151,0.0,0.0,0.0,-0.0008692225092090666,0.0002113770751748234,-0.0,0.0,0.0,0.0,0.0013610012829303741,-0.0007894671871326864,0.000554508762434125,13585.0,13257.0,13880.0,13331.0,0.4119226634502411,0.39108172059059143,0.43114885687828064,0.39578011631965637,0.0,0.0,0.0,0.0,13561.0,13287.0,13869.0,13337.0,1.6332372426986694,-0.059652803533502004,0.10992662808413556,-0.0010331313037669875,-0.0008318765903823078,-0.0026314109563827515,0.0
118,5,-1.0988193935190793e-05,1.5749646991025656e-05,-3.4822685847757384e-05,-0.0011456389911472797,-0.0005123265436850488,0.00014161822036840022,-0.004627654794603586,0.0032887340057641268,0.005294951610267162,-0.004210962913930416,0.002683954546228051,0.0007142086396925151,0.0,0.0,0.0,0.0006610746495425701,-0.0011032982729375362,-0.0,0.0,0.0,0.0,0.0013610012829303741,-0.0007894671871326864,0.000554508762434125,13585.0,13257.0,13880.0,13331.0,0.4119226634502411,0.39108172059059143,0.43114885687828064,0.39578011631965637,0.0,0.0,0.0,0.0,13561.0,13287.0,13869.0,13337.0,1.6387611627578735,-0.059652803533502004,0.10992662808413556,-0.0010331313037669875,0.0043567270040512085,0.0020080506801605225,0.0
123,5,-1.4084628219279693e-06,1.4658431268799177e-07,-3.604216544772498e-05,0.0006913120741955936,0.0016674367943778634,0.00020298469462431967,-0.004646528512239456,0.0033223654609173536,0.005286016035825014,0.0009141885675489902,0.0031033996492624283,0.0005612179520539939,0.0,0.0,0.0,0.0006610746495425701,-0.0011032982729375362,-0.0,0.0,0.0,0.0,0.0016258509131148458,-0.0010571436723694205,0.0005406076670624316,13550.0,13280.0,13907.0,13356.0,0.4097047448158264,0.3925483822822571,0.4329174757003784,0.39730727672576904,0.0,0.0,0.0,0.0,13593.0,13237.0,13931.0,13329.0,1.6387611627578735,-0.05991652764029787,0.11016360225337016,-0.0011398637890542636,0.0043567270040512085,0.0020080506801605225,0.0
128,5,-8.289851393783465e-06,1.641324706724845e-05,-1.5860267012612894e-05,-0.0005492417840287089,-0.0012850246857851744,-0.0023406336549669504,-0.004646528512239456,0.0033223654609173536,0.005286016035825014,0.0009141885675489902,0.0031033996492624283,0.0005612179520539939,0.0,0.0,0.0,-0.002051524119451642,0.0006523844203911722,-0.0,0.0,0.0,0.0,0.0016258509131148458,-0.0010571436723694205,0.0005406076670624316,13550.0,13280.0,13907.0,13356.0,0.4097047448158264,0.3925483822822571,0.4329174757003784,0.39730727672576904,0.0,0.0,0.0,0.0,13593.0,13237.0,13931.0,13329.0,1.644091010093689,-0.06039929010399002,0.1103495265487076,-0.001201684125497041,-0.002584523055702448,-0.00625187810510397,0.0
133,5,-1.1882792023243383e-05,3.3398075629520463e-06,-3.952631595893763e-05,-0.0006508496589958668,0.0010548027930781245,0.0019036723533645272,-0.004646528512239456,0.0033223654609173536,0.005286016035825014,0.0009141885675489902,0.0031033996492624283,0.0005612179520539939,0.0,0.0,0.0,-0.002051524119451642,0.0006523844203911722,-0.0,0.0,0.0,0.0,0.0016258509131148458,-0.0010571436723694205,0.0005406076670624316,13550.0,13280.0,13907.0,13356.0,0.4097047448158264,0.3925483822822571,0.4329174757003784,0.39730727672576904,0.0,0.0,0.0,0.0,13593.0,13237.0,13931.0,13329.0,1.644091010093689,-0.060246251866148556,0.1111811049883137,-0.0014662817626486255,-0.002584523055702448,-0.00625187810510397,0.0
138,5,-1.1447719771240372e-05,2.6449308734299848e-06,-3.4893197152996436e-05,-0.00020813115406781435,0.0005053062923252583,0.00020549472537823021,-0.004632918629795313,0.0032932416070252657,0.005289070773869753,0.002130124717950821,0.007214177865535021,-0.0029359932523220778,0.0,0.0,0.0,-0.0012963633053004742,-0.0006348160095512867,-0.0,0.0,0.0,0.0,0.0016423978377133608,-0.001340333605185151,0.00047095250920392573,13583.0,13322.0,13838.0,13364.0,0.4118301570415497,0.39519622921943665,0.4283888041973114,0.3978220522403717,0.0,0.0,0.0,0.0,13568.0,13340.0,13818.0,13382.0,1.6384086608886719,-0.060197401441450145,0.11052154195225311,-0.0011425125289221598,0.002506233984604478,-0.003936926368623972,0.0
144,6,7.238855687319301e-06,2.2630521925748326e-05,1.4020216440258082e-05,0.00166787370108068,-0.0016763854073360562,-0.004387840162962675,-0.004632918629795313,0.0032932416070252657,0.005289070773869753,0.002130124717950821,0.007214177865535021,-0.0029359932523220778,0.0,0.0,0.0,-0.0012963633053004742,-0.0006348160095512867,-0.0,0.0,0.0,0.0,0.0016423978377133608,-0.001340333605185151,0.00047095250920392573,13583.0,13322.0,13838.0,13364.0,0.4118301570415497,0.39519622921943665,0.4283888041973114,0.3978220522403717,0.0,0.0,0.0,0.0,13568.0,13340.0,13818.0,13382.0,1.6384086608886719,-0.05942110487735271,0.10866977421095834,-0.0008495821408655425,0.002506233984604478,-0.003936926368623972,0.0
149,5,-1.2847182233599597e-06,-8.468941814498976e-06,-4.905836976831779e-05,-0.0003556793963070959,0.0030613814014941454,0.005814294330775738,-0.004631053656339645,0.0032971694599837065,0.005251307040452957,-0.0012500141747295856,-0.003543365513905883,-0.0015130045358091593,0.0,0.0,0.0,0.0020961554255336523,0.0015829948242753744,-0.0,0.0,0.0,0.0,0.0007574970950372517,-0.0008156312978826463,0.0005752912838943303,13525.0,13354.0,13934.0,13378.0,0.4080861806869507,0.3972294330596924,0.4347105026245117,0.39873504638671875,0.0,0.0,0.0,0.0,13566.0,13320.0,13977.0,13327.0,1.6500929594039917,-0.05846298447403129,0.10987855139725569,-0.001014862853914528,-0.006294173188507557,0.006411207839846611,0.0
154,5,-3.3022922707459657e-06,-3.841427769657457e-06,-3.7371784856077284e-05,-0.0003843806334771216,0.0006692509050481021,0.0009233275195583701,-0.004631053656339645,0.0032971694599837065,0.005251307040452957,-0.0012500141747295856,-0.003543365513905883,-0.0015130045358091593,0.0,0.0,0.0,0.0020961554255336523,0.0015829948242753744,-0.0,0.0,0.0,0.0,0.0007574970950372517,-0.0008156312978826463,0.0005752912838943303,13525.0,13354.0,13934.0,13378.0,0.4080861806869507,0.3972294330596924,0.4347105026245117,0.39873504638671875,0.0,0.0,0.0,0.0,13566.0,13320.0,13977.0,13327.0,1.6500929594039917,-0.05971584080402296,0.10954724414011087,-0.0010820752386978894,-0.006294173188507557,0.006411207839846611,0.0
160,5,2.075066186080221e-05,3.0317371056298725e-05,2.9662780434591696e-05,0.0027326021809130907,-0.0038313555996865034,-0.007674816995859146,-0.004612683784216642,0.0033428899478167295,0.005267489701509476,-0.001045525772497058,0.0002018258674070239,0.003135597798973322,0.0,0.0,0.0,-0.0008356771431863308,-0.00037082278868183494,-0.0,0.0,0.0,0.0,0.0011301946360617876,-0.0010033500147983432,0.0011435779742896557,13916.0,13013.0,14200.0,13022.0,0.4335317611694336,0.37592190504074097,0.4524983763694763,0.376456618309021,0.0,0.0,0.0,0.0,13714.0,13318.0,13934.0,13306.0,1.6336756944656372,-0.059346821640007597,0.10793713281380016,-0.00069128087992545,0.001459768507629633,-0.0025305377785116434,0.0
165,5,-2.2841118152427953e-06,-1.9857312508975156e-05,1.6560554286115803e-05,-0.0016711319331079721,0.004488419741392136,-0.0014976594829931855,-0.004612683784216642,0.0033428899478167295,0.005267489701509476,-0.001045525772497058,0.0002018258674070239,0.003135597798973322,0.0,0.0,0.0,-0.0008356771431863308,-0.00037082278868183494,-0.0,0.0,0.0,0.0,0.0011301946360617876,-0.0010033500147983432,0.0011435779742896557,13916.0,13013.0,14200.0,13022.0,0.4335317611694336,0.37592190504074097,0.4524983763694763,0.376456618309021,0.0,0.0,0.0,0.0,13714.0,13318.0,13934.0,13306.0,1.6336756944656372,-0.061687601048426924,0.10878996286690348,-0.002462373999259454,0.001459768507629633,-0.0025305377785116434,0.0
170,5,1.9750083083636127e-05,4.032071228721179e-05,2.8273883799556643e-05,0.0019756504334509373,-0.0054259952157735825,-0.002004663459956646,-0.004660370759665966,0.003335963236168027,0.0054433210752904415,-0.0055479975417256355,0.004990986082702875,0.036230847239494324,0.0,0.0,0.0,-0.0008356771431863308,-0.00037082278868183494,-0.0,0.0,0.0,0.0,0.002201174618676305,-0.0005271275877021253,-0.001526164123788476,13032.0,13830.0,13443.0,14048.0,0.3770831525325775,0.4278760850429535,0.4028441607952118,0.4422895610332489,0.0,0.0,0.0,0.0,13821.0,13126.0,14124.0,13092.0,1.6336756944656372,-0.05902846738235486,0.10804584117494023,-0.0009500233409586045,0.001459768507629633,-0.0025305377785116434,0.0
175,5,1.2046754818584304e-05,2.744122321018949e-05,1.9722856450243853e-05,-0.00013413904525805265,-0.0006248592981137335,0.00022425797942560166,-0.004660370759665966,0.003335963236168027,0.0054433210752904415,-0.0055479975417256355,0.004990986082702875,0.036230847239494324,0.0,0.0,0.0,0.006586562842130661,0.0018516059499233961,-0.0,0.0,0.0,0.0,0.002201174618676305,-0.0005271275877021253,-0.001526164123788476,13032.0,13830.0,13443.0,14048.0,0.3770831525325775,0.4278760850429535,0.4028441607952118,0.4422895610332489,0.0,0.0,0.0,0.0,13821.0,13126.0,14124.0,13092.0,1.6848667860031128,-0.05909331181010452,0.10796144266276579,-0.0006948174370521085,-0.007517205085605383,0.02056966722011566,0.0
180,5,1.578353112563491e-05,1.314428482146468e-05,6.979458703426644e-06,0.00039475760422647,0.0014656889252364635,0.0016189109301194549,-0.0046333493664860725,0.003356852801516652,0.005091818515211344,-0.025439050048589706,-0.009285546839237213,-0.020878663286566734,0.0,0.0,0.0,0.006586562842130661,0.0018516059499233961,-0.0,0.0,0.0,0.0,0.0013881485210731626,-1.9408642401685938e-05,0.0009421263821423054,13301.0,13687.0,13407.0,13720.0,0.39385080337524414,0.41855043172836304,0.4005616307258606,0.42071282863616943,0.0,0.0,0.0,0.0,14086.0,12735.0,14542.0,12923.0,1.6848667860031128,-0.05913390519582034,0.10877938688670126,-0.0012779459968647246,-0.0015670962166041136,-0.005423571914434433,0.0
185,5,1.4252444088924676e-05,1.9281020286143757e-05,8.009569864952937e-05,-2.5827512217801996e-05,-0.00015013260417617857,-0.00812638457864523,-0.0046333493664860725,0.003356852801516652,0.005091818515211344,-0.025439050048589706,-0.009285546839237213,-0.020878663286566734,0.0,0.0,0.0,-0.0017830062424764037,0.00039629635284654796,-0.0,0.0,0.0,0.0,0.0013881485210731626,-1.9408642401685938e-05,0.0009421263821423054,13301.0,13687.0,13407.0,13720.0,0.39385080337524414,0.41855043172836304,0.4005616307258606,0.42071282863616943,0.0,0.0,0.0,0.0,14086.0,12735.0,14542.0,12923.0,1.6410597562789917,-0.060170378171525,0.10613276360436717,-0.00129046337869506,-0.0015670962166041136,-0.005423571914434433,0.0
190,5,6.104601652623387e-06,1.7621126971789636e-05,-2.742103561104159e-06,-0.0009880721336230636,0.00013913417933508754,0.0066899824887514114,-0.004484046716243029,0.0033839894458651543,0.0054283286444842815,0.027167849242687225,0.04456685483455658,-0.088790163397789,0.0,0.0,0.0,-0.0017830062424764037,0.00039629635284654796,-0.0,0.0,0.0,0.0,0.0038473729509860277,-0.0012960258172824979,0.0027682888321578503,14417.0,12493.0,15038.0,12788.0,0.4672609865665436,0.3445967137813568,0.5107781887054443,0.36223092675209045,0.0,0.0,0.0,0.0,12391.0,14433.0,12565.0,14570.0,1.6410597562789917,-0.05954172026979719,0.1089789361377471,-0.001226315625811071,-0.0015670962166041136,-0.005423571914434433,0.0
195,5,-1.703035923128482e-05,-1.0067038601846434e-05,-6.280632806010544e-05,-0.003171424148604274,0.0033782334066927433,0.0098836999386549,-0.004484046716243029,0.0033839894458651543,0.0054283286444842815,0.027167849242687225,0.04456685483455658,-0.088790163397789,0.0,0.0,0.0,-0.00013994189794175327,-0.0009315253118984401,-0.0,0.0,0.0,0.0,0.0038473729509860277,-0.0012960258172824979,0.0027682888321578503,14417.0,12493.0,15038.0,12788.0,0.4672609865665436,0.3445967137813568,0.5107781887054443,0.36223092675209045,0.0,0.0,0.0,0.0,12391.0,14433.0,12565.0,14570.0,1.6357766389846802,-0.060563704106335874,0.11250248915251211,-0.0017393667911284277,0.0036717280745506287,-0.0004243071307428181,0.0
200,5,1.3739124369749334e-05,-3.496223143883981e-05,-1.225917640113039e-05,0.0024237683974206448,0.00433871615678072,-0.0021121783647686243,-0.004525465425103903,0.0032739853486418724,0.0049970331601798534,-0.019262054935097694,0.008084326051175594,-0.010905840434134007,0.0,0.0,0.0,-0.00013994189794175327,-0.0009315253118984401,-0.0,0.0,0.0,0.0,0.0034293208736926317,0.0003396503161638975,-0.0007204368594102561,13371.0,13603.0,13562.0,13697.0,0.39826419949531555,0.41309860348701477,0.4104759395122528,0.41922101378440857,0.0,0.0,0.0,0.0,13646.0,13450.0,14124.0,13683.0,1.6357766389846802,-0.061808869069383696,0.10851862430494144,-0.0025836216656531107,0.0036717280745506287,-0.0004243071307428181,0.0
205,5,-9.545578905090224e-06,-3.7047277601232054e-06,-2.9054661354166456e-05,-0.0018246570834890008,-0.0020154137164354324,0.0011705867946147919,-0.004525465425103903,0.0032739853486418724,0.0049970331601798534,-0.019262054935097694,0.008084326051175594,-0.010905840434134007,0.0,0.0,0.0,-0.005297073163092136,0.002268452662974596,-0.0,0.0,0.0,0.0,0.0034293208736926317,0.0003396503161638975,-0.0007204368594102561,13371.0,13603.0,13562.0,13697.0,0.39826419949531555,0.41309860348701477,0.4104759395122528,0.41922101378440857,0.0,0.0,0.0,0.0,13646.0,13450.0,14124.0,13683.0,1.6766546964645386,-0.059827946653476606,0.11049374545353884,-0.0018590956561218342,-0.009164711460471153,-0.016462070867419243,0.0
210,5,-2.459135248500388e-05,-1.9257715393905528e-05,-4.484337114263326e-05,-0.0025353555101901293,0.0010601930553093553,0.0023628801573067904,-0.004630968905985355,0.00344063644297421,0.004947833716869354,0.008179141208529472,-0.02073606662452221,-0.03228277713060379,0.0,0.0,0.0,-0.005297073163092136,0.002268452662974596,-0.0,0.0,0.0,0.0,0.0008728603716008365,-0.001576758804731071,-0.0003966744989156723,13226.0,13780.0,13554.0,13669.0,0.3891255557537079,0.424611896276474,0.4099799692630768,0.41734233498573303,0.0,0.0,0.0,0.0,13717.0,13238.0,14038.0,13224.0,1.6766546964645386,-0.05973406681874722,0.1111531147744824,-0.0016355809759868289,-0.009164711460471153,-0.016462070867419243,0.0
215,5,-2.45488354266854e-05,-1.890542625915259e-05,-3.678829671116546e-05,-0.0010090403957292438,0.0003818024997599423,-2.145706457667984e-05,-0.004630968905985355,0.00344063644297421,0.004947833716869354,0.008179141208529472,-0.02073606662452221,-0.03228277713060379,0.0,0.0,0.0,-0.0013311487855389714,-0.0024193190038204193,-0.0,0.0,0.0,0.0,0.0008728603716008365,-0.001576758804731071,-0.0003966744989156723,13226.0,13780.0,13554.0,13669.0,0.3891255557537079,0.424611896276474,0.4099799692630768,0.41734233498573303,0.0,0.0,0.0,0.0,13717.0,13238.0,14038.0,13224.0,1.6541075706481934,-0.060128468156372086,0.11095658185142089,-0.0017792309948649336,0.009642906486988068,-0.004081301391124725,0.0
220,5,-4.215459557599388e-05,-4.113579780096188e-05,2.2997677660896443e-05,-0.0025163074024021626,0.002820365596562624,-0.007182899862527847,-0.004635060206055641,0.003604214172810316,0.004766993224620819,-0.01242926623672247,-0.016803614795207977,-0.04157145321369171,0.0,0.0,0.0,-0.0013311487855389714,-0.0024193190038204193,-0.0,0.0,0.0,0.0,0.0014926788862794638,-0.001710371463559568,-7.945802644826472e-05,13144.0,13716.0,13605.0,13681.0,0.3840155601501465,0.42042237520217896,0.41321003437042236,0.4181286692619324,0.0,0.0,0.0,0.0,13436.0,13470.0,13831.0,13412.0,1.6541075706481934,-0.061853890306353305,0.10898163338621959,-0.002908355883845024,0.009642906486988068,-0.004081301391124725,0.0
226,5,-5.3531519370153546e-05,-4.806831930181943e-05,-6.06327648711158e-06,-0.0023717537987977266,0.0019600489176809788,0.0006141545600257814,-0.004635060206055641,0.003604214172810316,0.004766993224620819,-0.01242926623672247,-0.016803614795207977,-0.04157145321369171,0.0,0.0,0.0,-0.0035003265365958214,-0.0024098618887364864,-0.0,0.0,0.0,0.0,0.0014926788862794638,-0.001710371463559568,-7.945802644826472e-05,13144.0,13716.0,13605.0,13681.0,0.3840155601501465,0.42042237520217896,0.41321003437042236,0.4181286692619324,0.0,0.0,0.0,0.0,13436.0,13470.0,13831.0,13412.0,1.6649670600891113,-0.06127579956701951,0.11001322893757709,-0.0027135882866708523,0.009668221697211266,-0.01080242171883583,0.0
231,5,-5.4312582506099716e-05,-3.344933065818623e-05,-3.354365981067531e-05,-0.001042428775690496,-0.0009702592506073415,0.0035433080047369003,-0.00446716696023941,0.004011066164821386,0.004690020345151424,0.027040274813771248,-0.06441876292228699,-0.028767326846718788,0.0,0.0,0.0,-0.0035003265365958214,-0.0024098618887364864,-0.0,0.0,0.0,0.0,-0.0008901958353817463,-0.002388671040534973,9.627323743188754e-05,13543.0,13954.0,13747.0,13538.0,0.4092537462711334,0.43607649207115173,0.4224238693714142,0.40890058875083923,0.0,0.0,0.0,0.0,13536.0,13872.0,13680.0,13696.0,1.6649670600891113,-0.06041616330858985,0.11048999491117964,-0.002118481888255721,0.009668221697211266,-0.01080242171883583,0.0
236,5,-7.335824193432927e-05,-3.19539503834676e-05,-1.0256807399855461e-05,-0.002702451078221202,-0.0005675493739545345,-0.0013770991936326027,-0.00446716696023941,0.004011066164821386,0.004690020345151424,0.027040274813771248,-0.06441876292228699,-0.028767326846718788,0.0,0.0,0.0,0.0011360739590600133,-0.0010645553702488542,-0.0,0.0,0.0,0.0,-0.0008901958353817463,-0.002388671040534973,9.627323743188754e-05,13543.0,13954.0,13747.0,13538.0,0.4092537462711334,0.43607649207115173,0.4224238693714142,0.40890058875083923,0.0,0.0,0.0,0.0,13536.0,13872.0,13680.0,13696.0,1.6405152082443237,-0.06030802181631961,0.10957413771143298,-0.00227876029027385,0.004208235535770655,0.003454579971730709,0.0
241,5,-9.25467029446736e-05,-5.219142622081563e-05,7.572009053546935e-05,-0.003383595496416092,0.0022014775313436985,-0.010868067853152752,-0.004420386161655188,0.005045660305768251,0.004510104190558195,0.042393092066049576,-0.10271197557449341,-0.004905724432319403,0.0,0.0,0.0,0.0011360739590600133,-0.0010645553702488542,-0.0,0.0,0.0,0.0,0.0007860470796003938,-0.0045005688443779945,-2.1754431145382114e-05,13276.0,13879.0,13980.0,13286.0,0.39229628443717957,0.431117445230484,0.43775084614753723,0.39294299483299255,0.0,0.0,0.0,0.0,13244.0,13831.0,13943.0,13407.0,1.6405152082443237,-0.06230091524367802,0.1077393955992448,-0.003182760099660021,0.004208235535770655,0.003454579971730709,0.0
246,5,-8.782672375673428e-05,-1.3549488357966766e-05,0.00015673052985221148,-0.000787040451541543,-0.00375644164159894,-0.014068479649722576,-0.004420386161655188,0.005045660305768251,0.004510104190558195,0.042393092066049576,-0.10271197557449341,-0.004905724432319403,0.0,0.0,0.0,-0.0027626333758234978,-0.0032832336146384478,-0.0,0.0,0.0,0.0,0.0007860470796003938,-0.0045005688443779945,-2.1754431145382114e-05,13276.0,13879.0,13980.0,13286.0,0.39229628443717957,0.431117445230484,0.43775084614753723,0.39294299483299255,0.0,0.0,0.0,0.0,13244.0,13831.0,13943.0,13407.0,1.6682617664337158,-0.060875721961756675,0.10511606509650889,-0.0022975436704697517,0.013198222033679485,-0.008542696945369244,0.0
251,5,-0.00015418125258293003,-5.49208270967938e-05,0.00011821374209830537,-0.008277359418570995,0.003461984219029546,-0.0010053770383819938,-0.004321602638810873,0.005966990254819393,0.004563059192150831,-0.02206050045788288,-0.10230618715286255,-0.013878312893211842,0.0,0.0,0.0,-0.0027626333758234978,-0.0032832336146384478,-0.0,0.0,0.0,0.0,0.0005134675884619355,-0.005216762889176607,-0.000490149948745966,13072.0,14126.0,13900.0,13483.0,0.37957483530044556,0.44751596450805664,0.4324706792831421,0.40540558099746704,0.0,0.0,0.0,0.0,13727.0,13608.0,14431.0,12787.0,1.6682617664337158,-0.061571210041952956,0.10694283235045335,-0.0028611421964299865,0.013198222033679485,-0.008542696945369244,0.0
256,5,-0.00015336458454839885,-8.241897739935666e-05,7.463723886758089e-05,-0.0032129439059644938,0.0046845716424286366,0.004827029537409544,-0.004321602638810873,0.005966990254819393,0.004563059192150831,-0.02206050045788288,-0.10230618715286255,-0.013878312893211842,0.0,0.0,0.0,-0.004170330241322517,-0.007700584828853607,-0.0,0.0,0.0,0.0,0.0005134675884619355,-0.005216762889176607,-0.000490149948745966,13072.0,14126.0,13900.0,13483.0,0.37957483530044556,0.44751596450805664,0.4324706792831421,0.40540558099746704,0.0,0.0,0.0,0.0,13727.0,13608.0,14431.0,12787.0,1.718614101409912,-0.0617510316506351,0.10563065492356724,-0.0028795654806417588,0.03188936784863472,-0.013284801505506039,0.0
261,5,-0.00018322101095691323,-0.00011047428415622562,9.875067917164415e-05,-0.004867949523031712,0.005240465048700571,-0.0009628012776374817,-0.004233264829963446,0.006852146703749895,0.004760667681694031,0.03704235330224037,-0.024538768455386162,0.006994913797825575,0.0,0.0,0.0,-0.004170330241322517,-0.007700584828853607,-0.0,0.0,0.0,0.0,0.0012836911482736468,-0.0036861631087958813,0.00042252603452652693,13483.0,13482.0,14076.0,13170.0,0.40538451075553894,0.40532025694847107,0.4441783130168915,0.38563212752342224,0.0,0.0,0.0,0.0,13577.0,13765.0,14067.0,13233.0,1.718614101409912,-0.06425025660553152,0.104793387710583,-0.002919691935283736,0.03188936784863472,-0.013284801505506039,0.0
266,5,-0.0001740812003845349,-8.24032977106981e-05,0.00012003505253233016,-0.000850402342621237,-0.0012723322724923491,-0.0029392451979219913,-0.004233264829963446,0.006852146703749895,0.004760667681694031,0.03704235330224037,-0.024538768455386162,0.006994913797825575,0.0,0.0,0.0,-0.006425624713301659,-0.004699951037764549,-0.0,0.0,0.0,0.0,0.0012836911482736468,-0.0036861631087958813,0.00042252603452652693,13483.0,13482.0,14076.0,13170.0,0.40538451075553894,0.40532025694847107,0.4441783130168915,0.38563212752342224,0.0,0.0,0.0,0.0,13577.0,13765.0,14067.0,13233.0,1.7010681629180908,-0.06288540070236644,0.10347708072401023,-0.0019686005880462723,0.01926443912088871,-0.020260034129023552,0.0
271,5,-0.000232209189562127,-0.00011199416621821001,0.00015883840387687087,-0.0073155188001692295,0.0030419714748859406,-0.005832099821418524,-0.004184062127023935,0.00687598530203104,0.004850335419178009,0.01530876848846674,0.01883404515683651,0.029927967116236687,0.0,0.0,0.0,-0.006425624713301659,-0.004699951037764549,-0.0,0.0,0.0,0.0,0.0005389942089095712,-0.0029124722350388765,0.001324799028225243,13950.0,13323.0,14378.0,12960.0,0.4358125329017639,0.39523065090179443,0.4645581841468811,0.37266039848327637,0.0,0.0,0.0,0.0,13964.0,13754.0,14463.0,13217.0,1.7010681629180908,-0.06364685180694152,0.1058233221348559,-0.0034599199239776883,0.01926443912088871,-0.020260034129023552,0.0
276,5,-0.0002005082496907562,-8.663458720548078e-05,0.00013210921315476298,0.0008779053459875286,-0.0018263610545545816,0.000874663470312953,-0.004184062127023935,0.00687598530203104,0.004850335419178009,0.01530876848846674,0.01883404515683651,0.029927967116236687,0.0,0.0,0.0,-0.0037947564851492643,-0.006970441434532404,-0.0,0.0,0.0,0.0,0.0005389942089095712,-0.0029124722350388765,0.001324799028225243,13950.0,13323.0,14378.0,12960.0,0.4358125329017639,0.39523065090179443,0.4645581841468811,0.37266039848327637,0.0,0.0,0.0,0.0,13964.0,13754.0,14463.0,13217.0,1.7095197439193726,-0.06367919127270613,0.10209884678450717,-0.0019516186424799525,0.02871307171881199,-0.012024435214698315,0.0
281,5,-0.0002736046735662967,-0.00011458928929641843,0.00014316233864519745,-0.008420409634709358,0.0026240197475999594,-0.0009765102295204997,-0.004238966852426529,0.006641381420195103,0.00517281936481595,-0.012530220672488213,-0.004571175202727318,0.05497642606496811,0.0,0.0,0.0,-0.0037947564851492643,-0.006970441434532404,-0.0,0.0,0.0,0.0,6.093858610256575e-05,-0.003990788944065571,0.0014126729220151901,14198.0,13481.0,14791.0,12880.0,0.45233917236328125,0.4052531123161316,0.4932318925857544,0.3677899241447449,0.0,0.0,0.0,0.0,14272.0,13361.0,14649.0,12797.0,1.7095197439193726,-0.0635478984490755,0.10511852883304734,-0.002631819782652193,0.02871307171881199,-0.012024435214698315,0.0
287,5,-0.00026039700605906546,-0.000153775152284652,5.578159471042454e-05,-0.0017832432640716434,0.005751911085098982,0.010095085017383099,-0.004238966852426529,0.006641381420195103,0.00517281936481595,-0.012530220672488213,-0.004571175202727318,0.05497642606496811,0.0,0.0,0.0,-0.0032864778768271208,-0.007987366989254951,-0.0,0.0,0.0,0.0,6.093858610256575e-05,-0.003990788944065571,0.0014126729220151901,14198.0,13481.0,14791.0,12880.0,0.45233917236328125,0.4052531123161316,0.4932318925857544,0.3677899241447449,0.0,0.0,0.0,0.0,14272.0,13361.0,14649.0,12797.0,1.7190287113189697,-0.06396379395379284,0.10407026136641516,-0.0017565801624082192,0.03308504447340965,-0.01047179102897644,0.0
292,5,-0.0002619958540890366,-0.00022615132911596447,5.217765283305198e-05,-0.0009051603847183287,0.0109859062358737,0.0044705066829919815,-0.004267498385161161,0.006584921386092901,0.005450001917779446,-0.013704829849302769,-0.007521334104239941,0.023885147646069527,0.0,0.0,0.0,-0.0032864778768271208,-0.007987366989254951,-0.0,0.0,0.0,0.0,-0.0007325922488234937,-0.003269375301897526,0.0010056557366624475,13960.0,13698.0,14356.0,13116.0,0.43644723296165466,0.4192397892475128,0.46305474638938904,0.3823263943195343,0.0,0.0,0.0,0.0,14102.0,13499.0,14692.0,12930.0,1.7190287113189697,-0.06702636855359444,0.10157795609934225,-0.0020021467727557004,0.03308504447340965,-0.01047179102897644,0.0
297,5,-0.0002651644463185221,-0.00015756991342641413,0.00010910739365499467,-0.0007422944181598723,-0.003835407318547368,-0.005043365992605686,-0.004267498385161161,0.006584921386092901,0.005450001917779446,-0.013704829849302769,-0.007521334104239941,0.023885147646069527,0.0,0.0,0.0,-0.013157977722585201,-0.001154226716607809,-0.0,0.0,0.0,0.0,-0.0007325922488234937,-0.003269375301897526,0.0010056557366624475,13960.0,13698.0,14356.0,13116.0,0.43644723296165466,0.4192397892475128,0.46305474638938904,0.3823263943195343,0.0,0.0,0.0,0.0,14102.0,13499.0,14692.0,12930.0,1.7403383255004883,-0.06339068461488971,0.10051440791834332,-0.0007809186012706478,0.004839929286390543,-0.04244324937462807,-0.0
302,5,-0.00028871255926787853,-0.00025886204093694687,2.0279718228266574e-05,-0.0031226924620568752,0.01062089204788208,0.008641975000500679,-0.004267498385161161,0.006584921386092901,0.005450001917779446,-0.013704829849302769,-0.007521334104239941,0.023885147646069527,0.0,0.0,0.0,-0.013157977722585201,-0.001154226716607809,-0.0,0.0,0.0,0.0,-0.0007325922488234937,-0.003269375301897526,0.0010056557366624475,13960.0,13698.0,14356.0,13116.0,0.43644723296165466,0.4192397892475128,0.46305474638938904,0.3823263943195343,0.0,0.0,0.0,0.0,14102.0,13499.0,14692.0,12930.0,1.7403383255004883,-0.06709945028178987,0.1026707737227221,-0.0021036842662821528,0.004839929286390543,-0.04244324937462807,-0.0
307,5,-0.00030427341698668897,-0.00024888842017389834,-4.652561983675696e-05,-0.0031163785606622696,0.0030515212565660477,0.011473430320620537,-0.004289484582841396,0.00678406935185194,0.005665758159011602,-0.009734309278428555,-0.02123679593205452,-0.017380723729729652,0.0,0.0,0.0,-0.012777463532984257,-0.0031696169171482325,-0.0,0.0,0.0,0.0,0.000301061401842162,-0.004442884121090174,0.0007750960648991168,13642.0,13964.0,14306.0,13359.0,0.4156401455402374,0.4367183744907379,0.4596542418003082,0.397506982088089,0.0,0.0,0.0,0.0,13601.0,14050.0,14289.0,13478.0,1.7419977188110352,-0.06677376590866947,0.10083579685916431,-0.0006228184685950358,0.013303627260029316,-0.04125525802373886,-0.0
312,5,-0.0003301379329059273,-0.0002418108779238537,-1.030425300996285e-05,-0.0043502929620444775,0.0003713049809448421,0.00024280822253786027,-0.004289484582841396,0.00678406935185194,0.005665758159011602,-0.009734309278428555,-0.02123679593205452,-0.017380723729729652,0.0,0.0,0.0,-0.012777463532984257,-0.0031696169171482325,-0.0,0.0,0.0,0.0,0.000301061401842162,-0.004442884121090174,0.0007750960648991168,13642.0,13964.0,14306.0,13359.0,0.4156401455402374,0.4367183744907379,0.4596542418003082,0.397506982088089,0.0,0.0,0.0,0.0,13601.0,14050.0,14289.0,13478.0,1.7419977188110352,-0.06662990137772083,0.10191021957173622,-0.001073913739274546,0.013303627260029316,-0.04125525802373886,-0.0
317,5,-0.000323225132888183,-0.00022820588492322713,3.9362330426229164e-05,-0.0009105801582336426,-0.001484076725319028,-0.005862866528332233,-0.00427264953032136,0.006848244462162256,0.005700378678739071,0.014624923467636108,-0.002435642294585705,0.010511129163205624,0.0,0.0,0.0,-0.0008779798517934978,-0.0044926428236067295,-0.0,0.0,0.0,0.0,0.0003121497866231948,-0.004255619365721941,0.0011439345544204116,13966.0,13728.0,14554.0,13148.0,0.43685677647590637,0.42122092843055725,0.476680725812912,0.3842702805995941,0.0,0.0,0.0,0.0,13683.0,14008.0,14346.0,13378.0,1.675298810005188,-0.06672952552132907,0.09760138687774379,-0.00042002520579708877,0.018136123195290565,-0.002726373029872775,0.0
322,5,-0.0003687261778395623,-0.0002765169774647802,1.1585611900954973e-05,-0.005824360065162182,0.005203699693083763,0.0009880593279376626,-0.00427264953032136,0.006848244462162256,0.005700378678739071,0.014624923467636108,-0.002435642294585705,0.010511129163205624,0.0,0.0,0.0,-0.0008779798517934978,-0.0044926428236067295,-0.0,0.0,0.0,0.0,0.0003121497866231948,-0.004255619365721941,0.0011439345544204116,13966.0,13728.0,14554.0,13148.0,0.43685677647590637,0.42122092843055725,0.476680725812912,0.3842702805995941,0.0,0.0,0.0,0.0,13683.0,14008.0,14346.0,13378.0,1.675298810005188,-0.06771827623481208,0.10014588262754627,-0.0010218343856341786,0.018136123195290565,-0.002726373029872775,0.0
327,5,-0.0003626098914537579,-0.00034328384208492935,-2.3955837605171837e-05,-0.0015957877039909363,0.01009350549429655,0.004660197999328375,-0.0042467196471989155,0.00674805510789156,0.0057353368028998375,0.0055923317559063435,0.014119193889200687,0.025878416374325752,0.0,0.0,0.0,-0.00663269218057394,-0.005790287163108587,-0.0,0.0,0.0,0.0,-0.002361384453251958,-0.001942367060109973,0.0007900134660303593,14374.0,13829.0,14293.0,13230.0,0.464339941740036,0.42782214283943176,0.458775132894516,0.3894011080265045,0.0,0.0,0.0,0.0,14436.0,13834.0,14398.0,13073.0,1.7113821506500244,-0.07024465352441023,0.09909471571107847,-0.0017175354016558718,0.023877400904893875,-0.021039703860878944,-0.0
332,5,-0.0003782945277635008,-0.00030656045419164,4.9040418161894195e-06,-0.0025204711128026247,-0.0003694068582262844,-0.0015991064719855785,-0.0042467196471989155,0.00674805510789156,0.0057353368028998375,0.0055923317559063435,0.014119193889200687,0.025878416374325752,0.0,0.0,0.0,-0.00663269218057394,-0.005790287163108587,-0.0,0.0,0.0,0.0,-0.002361384453251958,-0.001942367060109973,0.0007900134660303593,14374.0,13829.0,14293.0,13230.0,0.464339941740036,0.42782214283943176,0.458775132894516,0.3894011080265045,0.0,0.0,0.0,0.0,14436.0,13834.0,14398.0,13073.0,1.7113821506500244,-0.06735847786583632,0.10002537515335531,-0.0005824161913614063,0.023877400904893875,-0.021039703860878944,-0.0
337,5,-0.0004082366358488798,-0.0003243532555643469,6.661457155132666e-05,-0.004601242486387491,0.001987375319004059,-0.008044905960559845,-0.004192817024886608,0.0068000927567481995,0.005798406898975372,0.0025016230065375566,0.012607277370989323,-0.009229235351085663,0.0,0.0,0.0,-9.991187107516453e-05,-0.00289065670222044,-0.0,0.0,0.0,0.0,-0.002533014165237546,-0.0031261511612683535,0.00028938709874637425,14014.0,14209.0,14072.0,13476.0,0.44006314873695374,0.45307430624961853,0.4438987076282501,0.40496155619621277,0.0,0.0,0.0,0.0,14114.0,14109.0,14180.0,13362.0,1.6570078134536743,-0.06855959162417866,0.09929297704147948,-0.0010378097931170794,0.011541767977178097,-0.0003068670048378408,0.0
342,5,-0.0003708766307681799,-0.0003136828599963337,0.00012944455374963582,0.002642702544108033,-0.00048549671191722155,-0.010757559910416603,-0.004192817024886608,0.0068000927567481995,0.005798406898975372,0.0025016230065375566,0.012607277370989323,-0.009229235351085663,0.0,0.0,0.0,-9.991187107516453e-05,-0.00289065670222044,-0.0,0.0,0.0,0.0,-0.002533014165237546,-0.0031261511612683535,0.00028938709874637425,14014.0,14209.0,14072.0,13476.0,0.44006314873695374,0.45307430624961853,0.4438987076282501,0.40496155619621277,0.0,0.0,0.0,0.0,14114.0,14109.0,14180.0,13362.0,1.6570078134536743,-0.06804941004775865,0.09647316143208393,-0.00058124878424664,0.011541767977178097,-0.0003068670048378408,0.0
348,5,-0.00040553283179178834,-0.0003295629285275936,4.6964203647803515e-05,-0.0031016606371849775,0.0017114094225689769,0.005594617687165737,-0.004104081075638533,0.0068279351107776165,0.005677074659615755,0.02044084295630455,-0.005311327520757914,-0.02981196902692318,0.0,0.0,0.0,2.8889955501654185e-05,0.0019803564064204693,-0.0,0.0,0.0,0.0,0.0008523413562215865,-0.003974737133830786,0.00025531198480166495,13366.0,13912.0,14004.0,13472.0,0.39795324206352234,0.4332731068134308,0.43934980034828186,0.404722660779953,0.0,0.0,0.0,0.0,13353.0,13937.0,13938.0,13527.0,1.6470520496368408,-0.06710251894058761,0.10064114319771367,-0.0008319735717269471,-0.00785963423550129,8.819881622912362e-05,0.0
353,5,-0.00042516636312939227,-0.00033996356069110334,4.432230343809351e-05,-0.003596690483391285,0.0019326374167576432,0.002554875100031495,-0.004104081075638533,0.0068279351107776165,0.005677074659615755,0.02044084295630455,-0.005311327520757914,-0.02981196902692318,0.0,0.0,0.0,2.8889955501654185e-05,0.0019803564064204693,-0.0,0.0,0.0,0.0,0.0008523413562215865,-0.003974737133830786,0.00025531198480166495,13366.0,13912.0,14004.0,13472.0,0.39795324206352234,0.4332731068134308,0.43934980034828186,0.404722660779953,0.0,0.0,0.0,0.0,13353.0,13937.0,13938.0,13527.0,1.6470520496368408,-0.06780103214927491,0.10062191224982356,-0.001119671517538992,-0.00785963423550129,8.819881622912362e-05,0.0
358,5,-0.0004209383623674512,-0.0003335051005706191,1.6864167264429852e-05,-0.0009313166374340653,-1.959023620656808e-06,0.004316926468163729,-0.004008800722658634,0.007018915843218565,0.00560639938339591,-0.0016374447150155902,-0.010193419642746449,0.003954493440687656,0.0,0.0,0.0,-0.002939006080850959,-0.003923788201063871,-0.0,0.0,0.0,0.0,0.0010190251050516963,-0.0032203274313360453,0.00043301607365719974,13856.0,13910.0,14323.0,13205.0,0.4295802414417267,0.4331267774105072,0.4608120620250702,0.38786306977272034,0.0,0.0,0.0,0.0,13742.0,14016.0,14136.0,13412.0,1.675137996673584,-0.06793637046590054,0.10012361322237558,-0.0010927919155060595,0.015838172286748886,-0.009125538170337677,-0.0
363,5,-0.0004192073247395456,-0.00029884761897847056,4.647969035431743e-05,-0.00016480205522384495,-0.004159681033343077,-0.0018270923756062984,-0.004008800722658634,0.007018915843218565,0.00560639938339591,-0.0016374447150155902,-0.010193419642746449,0.003954493440687656,0.0,0.0,0.0,-0.002939006080850959,-0.003923788201063871,-0.0,0.0,0.0,0.0,0.0010190251050516963,-0.0032203274313360453,0.00043301607365719974,13856.0,13910.0,14323.0,13205.0,0.4295802414417267,0.4331267774105072,0.4608120620250702,0.38786306977272034,0.0,0.0,0.0,0.0,13742.0,14016.0,14136.0,13412.0,1.675137996673584,-0.06653646918737448,0.09947276080860534,-0.0008008327140650553,0.015838172286748886,-0.009125538170337677,-0.0
368,5,-0.00041560488170944154,-0.00031398696592077613,1.8808905224432237e-05,0.0003663726383820176,0.0001528474094811827,0.002589657437056303,-0.0039261700585484505,0.00706486264243722,0.005525460932403803,0.007530047558248043,-0.021213438361883163,0.0028187695425003767,0.0,0.0,0.0,0.0045206621289253235,-0.0007324269972741604,-0.0,0.0,0.0,0.0,0.0011733326828107238,-0.0015539294108748436,0.0003017475828528404,13467.0,13533.0,13849.0,13475.0,0.40441304445266724,0.4086074233055115,0.4291236996650696,0.40490788221359253,0.0,0.0,0.0,0.0,13534.0,13564.0,14120.0,13250.0,1.6643089056015015,-0.06669413971811568,0.0976759724736553,-0.0008404396630436172,0.0029372824355959892,0.0139457480981946,0.0
373,5,-0.0004361231403890997,-0.0003151356941089034,-3.2086074497783557e-05,-0.002315639751031995,0.0001989884622162208,0.007143260445445776,-0.0039261700585484505,0.00706486264243722,0.005525460932403803,0.007530047558248043,-0.021213438361883163,0.0028187695425003767,0.0,0.0,0.0,0.0045206621289253235,-0.0007324269972741604,-0.0,0.0,0.0,0.0,0.0011733326828107238,-0.0015539294108748436,0.0003017475828528404,13467.0,13533.0,13849.0,13475.0,0.40441304445266724,0.4086074233055115,0.4291236996650696,0.40490788221359253,0.0,0.0,0.0,0.0,13534.0,13564.0,14120.0,13250.0,1.6643089056015015,-0.06705831540717218,0.10076967485166301,-0.0011110650281353754,0.0029372824355959892,0.0139457480981946,0.0
378,5,-0.0004348057263996452,-0.00031280770781449974,-2.1697356714867055e-05,-0.0007681655115447938,-0.0001997656945604831,0.0016106580151244998,-0.0038230179343372583,0.0070762597024440765,0.005488554947078228,-0.007504201028496027,-0.00800975039601326,-0.010805697180330753,0.0,0.0,0.0,-0.0008109228801913559,-0.0027801666874438524,-0.0,0.0,0.0,0.0,0.0003716975334100425,-0.003765478963032365,0.0003179457853548229,13435.0,13890.0,13990.0,13438.0,0.4023454189300537,0.43182772397994995,0.4384104609489441,0.40255439281463623,0.0,0.0,0.0,0.0,13518.0,13462.0,13939.0,13403.0,1.6565426588058472,-0.06750602147150267,0.10031513787022545,-0.0010545318372121417,0.011097487062215805,-0.00248995004221797,0.0
383,5,-0.00043993841973133385,-0.0002882102271541953,1.5613708455930464e-05,-0.000923190382309258,-0.003031603991985321,-0.003833064343780279,-0.0038230179343372583,0.0070762597024440765,0.005488554947078228,-0.007504201028496027,-0.00800975039601326,-0.010805697180330753,0.0,0.0,0.0,-0.0008109228801913559,-0.0027801666874438524,-0.0,0.0,0.0,0.0,0.0003716975334100425,-0.003765478963032365,0.0003179457853548229,13435.0,13890.0,13990.0,13438.0,0.4023454189300537,0.43182772397994995,0.4384104609489441,0.40255439281463623,0.0,0.0,0.0,0.0,13518.0,13462.0,13939.0,13403.0,1.6565426588058472,-0.06697295422876019,0.10019082031707337,-0.0013194591288182545,0.011097487062215805,-0.00248995004221797,0.0
388,5,-0.00042884182767011225,-0.000268251373199746,6.703837425448e-05,0.0009623128571547568,-0.0036077036056667566,-0.007704186253249645,-0.0038787932135164738,0.00726554449647665,0.005389545578509569,-0.0055784606374800205,-0.010283371433615685,-0.021464871242642403,0.0,0.0,0.0,0.003182273590937257,-0.001477566547691822,-0.0,0.0,0.0,0.0,0.0027485215105116367,-0.002444949932396412,0.0005487702437676489,13481.0,13453.0,14147.0,13502.0,0.40527504682540894,0.40349316596984863,0.4489218592643738,0.4066188335418701,0.0,0.0,0.0,0.0,13486.0,13851.0,14056.0,13358.0,1.6566554307937622,-0.06720993647881279,0.09658781631024142,-0.0007805339488519442,0.0058983261696994305,0.009771852754056454,0.0
393,5,-0.00045205868082121015,-0.00029793663998134434,6.174279292281426e-07,-0.002401095349341631,0.002119152108207345,0.004888839554041624,-0.0038787932135164738,0.00726554449647665,0.005389545578509569,-0.0055784606374800205,-0.010283371433615685,-0.021464871242642403,0.0,0.0,0.0,0.003182273590937257,-0.001477566547691822,-0.0,0.0,0.0,0.0,0.0027485215105116367,-0.002444949932396412,0.0005487702437676489,13481.0,13453.0,14147.0,13502.0,0.40527504682540894,0.40349316596984863,0.4489218592643738,0.4066188335418701,0.0,0.0,0.0,0.0,13486.0,13851.0,14056.0,13358.0,1.6566554307937622,-0.06733378143093742,0.0995026747618053,-0.000910554773539156,0.0058983261696994305,0.009771852754056454,0.0
398,5,-0.0004529522848315537,-0.0003220670623704791,-5.105766103952192e-05,-0.0010676705278456211,0.003743312321603298,0.008156546391546726,-0.003935037646442652,0.007316522300243378,0.005294698756188154,-0.004304169677197933,0.011839319951832294,-0.0065794228576123714,0.0,0.0,0.0,0.003182273590937257,-0.001477566547691822,-0.0,0.0,0.0,0.0,0.0008394973119720817,-0.002942750696092844,0.0005638767615891993,13587.0,13557.0,14083.0,13234.0,0.4121043384075165,0.4101521670818329,0.4446646273136139,0.3896215260028839,0.0,0.0,0.0,0.0,13537.0,13428.0,14215.0,13399.0,1.6566554307937622,-0.06717891600200844,0.0992559148294775,-0.0010544127594639587,0.006513288244605064,-0.015821423381567,0.0
403,5,-0.00045191976823844016,-0.0003056436835322529,-1.5565863577648997e-05,-0.000303167529636994,-0.00047348320367746055,-0.0009963969932869077,-0.003935037646442652,0.007316522300243378,0.005294698756188154,-0.004304169677197933,0.011839319951832294,-0.0065794228576123714,0.0,0.0,0.0,-0.005105094984173775,-0.001616656081750989,-0.0,0.0,0.0,0.0,0.0008394973119720817,-0.002942750696092844,0.0005638767615891993,13587.0,13557.0,14083.0,13234.0,0.4121043384075165,0.4101521670818329,0.4446646273136139,0.3896215260028839,0.0,0.0,0.0,0.0,13537.0,13428.0,14215.0,13399.0,1.6720012426376343,-0.06663116062186229,0.09837884428046535,-0.0006015460119620406,0.006513288244605064,-0.015821423381567,0.0
408,5,-0.00045667134691029787,-0.0002854969061445445,1.965508818102535e-05,-0.0006914575351402164,-0.002607004251331091,-0.004625073168426752,-0.0037947369273751974,0.007130774669349194,0.00519498810172081,0.008352793753147125,0.005229542497545481,-0.01754648983478546,0.0,0.0,0.0,-0.005105094984173775,-0.001616656081750989,-0.0,0.0,0.0,0.0,0.002013284480199218,-0.002199789509177208,0.00034432660322636366,13431.0,13547.0,14030.0,13461.0,0.4020909368991852,0.4094855487346649,0.44106820225715637,0.40401074290275574,0.0,0.0,0.0,0.0,13613.0,13540.0,14076.0,13234.0,1.6720012426376343,-0.06597597939136104,0.09625020748468248,-0.0005288989653897167,0.006513288244605064,-0.015821423381567,0.0
413,5,-0.0004750379885081202,-0.00031791787478141487,-7.530045695602894e-05,-0.0024805793073028326,0.0028477145824581385,0.009544636122882366,-0.0037947369273751974,0.007130774669349194,0.00519498810172081,0.008352793753147125,0.005229542497545481,-0.01754648983478546,0.0,0.0,0.0,0.0026755467988550663,-0.0012874010717496276,-0.0,0.0,0.0,0.0,0.002013284480199218,-0.002199789509177208,0.00034432660322636366,13431.0,13547.0,14030.0,13461.0,0.4020909368991852,0.4094855487346649,0.44106820225715637,0.40401074290275574,0.0,0.0,0.0,0.0,13613.0,13540.0,14076.0,13234.0,1.6519275903701782,-0.06730136187817298,0.09926572206262614,-0.0010456550216635296,0.005124542396515608,0.008192400448024273,0.0
418,5,-0.00047419575275853276,-0.0003129833494313061,-7.071936852298677e-05,-0.0008911609183996916,0.0005469403695315123,0.0032681238371878862,-0.0037673774641007185,0.007204347290098667,0.005118920002132654,0.004675753880292177,-0.014973421581089497,-0.001796576427295804,0.0,0.0,0.0,0.0026755467988550663,-0.0012874010717496276,-0.0,0.0,0.0,0.0,0.0021052241791039705,-0.0028806841000914574,0.0005579208955168724,13513.0,13450.0,14192.0,13305.0,0.40731996297836304,0.4032799005508423,0.4519622325897217,0.3940933346748352,0.0,0.0,0.0,0.0,13341.0,13592.0,13974.0,13562.0,1.6519275903701782,-0.06690333793509824,0.09858390003973963,-0.0010525262560167976,0.005124542396515608,0.008192400448024273,0.0
424,5,-0.0004493411397561431,-0.0002823402173817158,-3.1944873626343906e-05,0.0026260882150381804,-0.0034583962988108397,-0.0033456897363066673,-0.0037673774641007185,0.007204347290098667,0.005118920002132654,0.004675753880292177,-0.014973421581089497,-0.001796576427295804,0.0,0.0,0.0,-0.0012421132996678352,-0.0015065576881170273,-0.0,0.0,0.0,0.0,0.0021052241791039705,-0.0028806841000914574,0.0005579208955168724,13513.0,13450.0,14192.0,13305.0,0.40731996297836304,0.4032799005508423,0.4519622325897217,0.3940933346748352,0.0,0.0,0.0,0.0,13341.0,13592.0,13974.0,13562.0,1.644918441772461,-0.06621542441819134,0.09679316597826586,-0.0007708342020834424,0.005971474107354879,-0.0037871624808758497,0.0
429,5,-0.00046068403753452003,-0.0002915225049946457,-3.805877349805087e-05,-0.0003107117663603276,-0.00028148479759693146,-0.0006046079215593636,-0.0037673774641007185,0.007204347290098667,0.005118920002132654,0.004675753880292177,-0.014973421581089497,-0.001796576427295804,0.0,0.0,0.0,-0.0012421132996678352,-0.0015065576881170273,-0.0,0.0,0.0,0.0,0.0021052241791039705,-0.0028806841000914574,0.0005579208955168724,13513.0,13450.0,14192.0,13305.0,0.40731996297836304,0.4032799005508423,0.4519622325897217,0.3940933346748352,0.0,0.0,0.0,0.0,13341.0,13592.0,13974.0,13562.0,1.644918441772461,-0.06708251726399592,0.09854226773970572,-0.0012229153055590125,0.005971474107354879,-0.0037871624808758497,0.0
434,5,-0.0004558533546514809,-0.0002956624375656247,-7.180674583651125e-05,0.0015129982493817806,0.0007068796548992395,0.004001356195658445,-0.0038217129185795784,0.007211356423795223,0.0051004309207201,0.0010906211100518703,-0.008627948351204395,0.014784317463636398,0.0,0.0,0.0,-0.00018584614736028016,-0.0009441947913728654,-0.0,0.0,0.0,0.0,-0.0002841439563781023,-0.002800770802423358,0.0005726180388592184,13805.0,13592.0,14149.0,13149.0,0.4262315630912781,0.41238754987716675,0.4490334391593933,0.38434869050979614,0.0,0.0,0.0,0.0,13520.0,13871.0,13877.0,13440.0,1.6359620094299316,-0.06697607053847887,0.09794054048661517,-0.0009858917775198714,0.0037220879457890987,-0.0005635537090711296,0.0
439,5,-0.00044275246909819543,-0.00025797050329856575,2.0742747437907383e-05,0.0021773057524114847,-0.004240282811224461,-0.009505396708846092,-0.0038217129185795784,0.007211356423795223,0.0051004309207201,0.0010906211100518703,-0.008627948351204395,0.014784317463636398,0.0,0.0,0.0,-0.00018584614736028016,-0.0009441947913728654,-0.0,0.0,0.0,0.0,-0.0002841439563781023,-0.002800770802423358,0.0005726180388592184,13805.0,13592.0,14149.0,13149.0,0.4262315630912781,0.41238754987716675,0.4490334391593933,0.38434869050979614,0.0,0.0,0.0,0.0,13520.0,13871.0,13877.0,13440.0,1.6359620094299316,-0.0672008912364843,0.09523701714880181,-0.0009607604278890049,0.0037220879457890987,-0.0005635537090711296,0.0
444,5,-0.0004604497516993433,-0.00028927624225616455,-4.8671270633349195e-05,-0.0012527510989457369,0.00206057564355433,0.004527523182332516,-0.003863423364236951,0.007277315016835928,0.005074095446616411,-0.011537079699337482,0.014067876152694225,0.005044600460678339,0.0,0.0,0.0,0.004679342266172171,0.001419604872353375,-0.0,0.0,0.0,0.0,0.0020664436742663383,-0.0026662047021090984,0.00012116205471102148,13400.0,13514.0,14029.0,13451.0,0.40010905265808105,0.4073924422264099,0.441042423248291,0.40338367223739624,0.0,0.0,0.0,0.0,13435.0,13512.0,14113.0,13330.0,1.667804479598999,-0.06712615673244153,0.09859392672905351,-0.0014594652891492172,-0.005705052055418491,0.01446557231247425,0.0
449,5,-0.0004556124040391296,-0.0003012153320014477,-7.957909110700712e-05,7.938144699437544e-05,0.002256922423839569,0.005519948434084654,-0.003863423364236951,0.007277315016835928,0.005074095446616411,-0.011537079699337482,0.014067876152694225,0.005044600460678339,0.0,0.0,0.0,0.004679342266172171,0.001419604872353375,-0.0,0.0,0.0,0.0,0.0020664436742663383,-0.0026662047021090984,0.00012116205471102148,13400.0,13514.0,14029.0,13451.0,0.40010905265808105,0.4073924422264099,0.441042423248291,0.40338367223739624,0.0,0.0,0.0,0.0,13435.0,13512.0,14113.0,13330.0,1.667804479598999,-0.06672671407068476,0.0984890829947652,-0.0014196678768969024,-0.005705052055418491,0.01446557231247425,0.0
454,5,-0.0004760532174259424,-0.0002671207475941628,-1.4200003533915151e-05,-0.002421146724373102,-0.0031885814387351274,-0.005637511610984802,-0.003910877276211977,0.007117393426597118,0.005020819138735533,-0.008170855231583118,0.01939370296895504,-0.01675179786980152,0.0,0.0,0.0,-0.003307027742266655,-0.0005606964114122093,-0.0,0.0,0.0,0.0,0.0008070567273534834,-0.0020271078683435917,0.0003053102409467101,13370.0,13657.0,13798.0,13466.0,0.3982465863227844,0.4166257977485657,0.4257471561431885,0.40429890155792236,0.0,0.0,0.0,0.0,13683.0,13350.0,14121.0,13120.0,1.6538680791854858,-0.06603817060513854,0.09946379244199717,-0.0015616264439862915,0.002234488492831588,-0.010137848556041718,0.0
459,5,-0.00045461859554052353,-0.0002538947737775743,2.7895037419511937e-05,0.0016036955639719963,-0.002862547989934683,-0.0073064095340669155,-0.003910877276211977,0.007117393426597118,0.005020819138735533,-0.008170855231583118,0.01939370296895504,-0.01675179786980152,0.0,0.0,0.0,-0.003307027742266655,-0.0005606964114122093,-0.0,0.0,0.0,0.0,0.0008070567273534834,-0.0020271078683435917,0.0003053102409467101,13370.0,13657.0,13798.0,13466.0,0.3982465863227844,0.4166257977485657,0.4257471561431885,0.40429890155792236,0.0,0.0,0.0,0.0,13683.0,13350.0,14121.0,13120.0,1.6538680791854858,-0.0657423218723348,0.09664535124744568,-0.0005212367837067356,0.002234488492831588,-0.010137848556041718,0.0
464,5,-0.0004325052141211927,-0.0002864227571990341,2.6400615752208978e-05,0.0032950856257230043,0.002758338814601302,-0.0027432332281023264,-0.003974150866270065,0.007029272150248289,0.005051726475358009,-0.0013489056145772338,7.027079846011475e-05,-0.011570376344025135,0.0,0.0,0.0,0.0030422317795455456,0.0008752424619160593,-0.0,0.0,0.0,0.0,0.0011660928139463067,-0.0023457638453692198,0.0010505642276257277,13540.0,13382.0,14039.0,13179.0,0.40906134247779846,0.3989928662776947,0.4416702091693878,0.38623759150505066,0.0,0.0,0.0,0.0,13637.0,13275.0,14086.0,13138.0,1.6527031660079956,-0.06587256094355948,0.09649994694662284,-0.0006127104553127233,-0.0034855641424655914,0.009319540113210678,0.0
469,5,-0.00037438535946421325,-0.00037787517067044973,-0.00011324592196615413,0.008292417041957378,0.01207762397825718,0.01566029153764248,-0.003974150866270065,0.007029272150248289,0.005051726475358009,-0.0013489056145772338,7.027079846011475e-05,-0.011570376344025135,0.0,0.0,0.0,0.0030422317795455456,0.0008752424619160593,-0.0,0.0,0.0,0.0,0.0011660928139463067,-0.0023457638453692198,0.0010505642276257277,13540.0,13382.0,14039.0,13179.0,0.40906134247779846,0.3989928662776947,0.4416702091693878,0.38623759150505066,0.0,0.0,0.0,0.0,13637.0,13275.0,14086.0,13138.0,1.6527031660079956,-0.06947598972989255,0.093110826711143,-0.0004028763555533883,-0.0034855641424655914,0.009319540113210678,0.0
