timestamp,dt,pos_x,pos_y,pos_z,vel_x,vel_y,vel_z,roll,pitch,yaw,agv_x,agv_y,agv_z,x_ref,y_ref,z_ref,roll_ref,pitch_ref,yaw_ref,x_vel_ref,y_vel_ref,z_vel_ref,x_torque,y_torque,z_torque,w0,w1,w2,w3,u0,u1,u2,u3,m0req,m1req,m2req,m3req,thrust0,thrust1,thrust2,thrust3,thrust_ref,roll_vicon,pitch_vicon,yaw_vicon,acc_x,acc_y,acc_z
5,5,0.0,0.0,0.0,-0.0010461569763720036,-0.00015446780889760703,0.000577440659981221,-0.006017009261995554,-0.0770108699798584,-0.0012931720120832324,0.002197827445343137,-1.692321711743716e-05,0.004767477512359619,0.0,0.0,0.0,0.0001909601705847308,-0.0009948518127202988,-0.0,0.0,0.0,0.0,0.0,0.0,0.0,1495.0,1495.0,1495.0,1495.0,0.0,0.0,0.0,0.0,0.0,0.0,0.0,0.0,1495.0,1495.0,1495.0,1495.0,1.636507272720337,-0.11271361977767774,0.1704540134211712,0.10165985094028497,0.003923088777810335,0.0005792542942799628,0.0
33,28,0.0,0.0,0.0,0.0007992529426701367,-0.0001819952012738213,0.00018703976820688695,-0.006017009261995554,-0.0770108699798584,-0.0012931720120832324,0.002197827445343137,-1.692321711743716e-05,0.004767477512359619,0.0,0.0,0.0,0.0001909601705847308,-0.0009948518127202988,-0.0,0.0,0.0,0.0,0.0,0.0,0.0,1495.0,1495.0,1495.0,1495.0,0.0,0.0,0.0,0.0,0.0,0.0,0.0,0.0,1495.0,1495.0,1495.0,1495.0,1.636507272720337,-0.1136046497531002,0.16958385849886273,0.10139184078806521,0.003923088777810335,0.0005792542942799628,0.0
41,8,0.0,0.0,0.0,-0.001548896194435656,0.0002320137427886948,0.0008784572710283101,-0.006017009261995554,-0.0770108699798584,-0.0012931720120832324,0.002197827445343137,-1.692321711743716e-05,0.004767477512359619,0.0,0.0,0.0,0.00022532371804118156,0.0007611809414811432,-0.0,0.0,0.0,0.0,0.0,0.0,0.0,1495.0,1495.0,1495.0,1495.0,0.0,0.0,0.0,0.0,0.0,0.0,0.0,0.0,1495.0,1495.0,1495.0,1495.0,1.6340892314910889,-0.11267757841599971,0.17014091985938823,0.10136394133257928,-0.0029971986077725887,0.0006824820302426815,0.0
46,5,0.0,0.0,0.0,-0.001548896194435656,0.0002320137427886948,0.0008784572710283101,-0.006017009261995554,-0.0770108699798584,-0.0012931720120832324,0.002197827445343137,-1.692321711743716e-05,0.004767477512359619,0.0,0.0,0.0,0.00022532371804118156,0.0007611809414811432,-0.0,0.0,0.0,0.0,0.0,0.0,0.0,1495.0,1495.0,1495.0,1495.0,0.0,0.0,0.0,0.0,0.0,0.0,0.0,0.0,1495.0,1495.0,1495.0,1495.0,1.6340892314910889,-0.11267757841599971,0.17014091985938823,0.10136394133257928,-0.0029971986077725887,0.0006824820302426815,0.0
51,5,0.0,0.0,0.0,-0.001548896194435656,0.0002320137427886948,0.0008784572710283101,-0.005992405116558075,-0.07700739800930023,-0.0012646507238969207,0.0013792666140943766,-0.0021701082587242126,0.0011162660084664822,0.0,0.0,0.0,-0.000285923044430092,-0.001468299189582467,-0.0,0.0,0.0,0.0,0.0,0.0,0.0,1495.0,1495.0,1495.0,1495.0,0.0,0.0,0.0,0.0,0.0,0.0,0.0,0.0,1495.0,1495.0,1495.0,1495.0,1.641675353050232,-0.11267757841599971,0.17014091985938823,0.10136394133257928,0.0058083608746528625,-0.0008700515609234571,0.0
56,5,-2.818628445311333e-06,-1.022957258101087e-05,-1.8040371969618718e-06,-0.0010688670445233583,0.0008798970957286656,0.00019063474610447884,-0.005992405116558075,-0.07700739800930023,-0.0012646507238969207,0.0013792666140943766,-0.0021701082587242126,0.0011162660084664822,0.0,0.0,0.0,-0.000285923044430092,-0.001468299189582467,-0.0,0.0,0.0,0.0,0.0,0.0,0.0,1495.0,1495.0,1495.0,1495.0,0.0,0.0,0.0,0.0,0.0,0.0,0.0,0.0,1495.0,1495.0,1495.0,1495.0,1.641675353050232,-0.11278295630297017,0.17040487597244458,0.10172260027699681,0.0058083608746528625,-0.0008700515609234571,0.0
61,5,6.207615570019698e-06,-5.25020277564181e-06,-9.11206461751135e-06,0.0006556024891324341,-0.0002455655485391617,0.0009532172116450965,-0.005995140876621008,-0.07701338082551956,-0.001280341879464686,-0.0026971446350216866,0.00013776528066955507,-0.003208231646567583,0.0,0.0,0.0,-0.0011039999080821872,-0.001018234295770526,-0.0,0.0,0.0,0.0,0.0,0.0,0.0,1495.0,1495.0,1495.0,1495.0,0.0,0.0,0.0,0.0,0.0,0.0,0.0,0.0,1495.0,1495.0,1495.0,1495.0,1.6399598121643066,-0.11289669941798491,0.1703795204241999,0.101844138771978,0.004023763816803694,-0.0033559126313775778,0.0
66,5,1.565910679346416e-05,-5.247607987257652e-06,-6.465606020356063e-06,0.0013964198296889663,-9.853758820099756e-05,6.371182098519057e-05,-0.005995140876621008,-0.07701338082551956,-0.001280341879464686,-0.0026971446350216866,0.00013776528066955507,-0.003208231646567583,0.0,0.0,0.0,-0.0011039999080821872,-0.001018234295770526,-0.0,0.0,0.0,0.0,0.0,0.0,0.0,1495.0,1495.0,1495.0,1495.0,0.0,0.0,0.0,0.0,0.0,0.0,0.0,0.0,1495.0,1495.0,1495.0,1495.0,1.6399598121643066,-0.1126256830133151,0.1699710482423147,0.10157099202172103,0.004023763816803694,-0.0033559126313775778,0.0
71,5,1.5068279026309028e-05,-2.856088485714281e-06,-8.194328074750956e-06,0.00048766867257654667,-0.0003263973630964756,0.00023293144477065653,-0.005988911259919405,-0.0770207941532135,-0.0012785239377990365,-0.0015778925735503435,-0.00015180438640527427,0.00039229411049745977,0.0,0.0,0.0,0.00011203028407180682,0.0013467385433614254,-0.0,0.0,0.0,0.0,0.0,0.0,0.0,1495.0,1495.0,1495.0,1495.0,0.0,0.0,0.0,0.0,0.0,0.0,0.0,0.0,1495.0,1495.0,1495.0,1495.0,1.640214204788208,-0.1128693805695318,0.16978388364943567,0.10147532406648332,-0.005322744604200125,0.0003405999450478703,0.0
77,5,2.1945617845631205e-05,-3.6264686968934257e-06,-3.984498562203953e-06,0.0010203481651842594,-3.811333590419963e-05,-0.0004120070079807192,-0.005988911259919405,-0.0770207941532135,-0.0012785239377990365,-0.0015778925735503435,-0.00015180438640527427,0.00039229411049745977,0.0,0.0,0.0,0.00011203028407180682,0.0013467385433614254,-0.0,0.0,0.0,0.0,0.0,0.0,0.0,1495.0,1495.0,1495.0,1495.0,0.0,0.0,0.0,0.0,0.0,0.0,0.0,0.0,1495.0,1495.0,1495.0,1495.0,1.640214204788208,-0.11290174091847027,0.16986891426069745,0.10152996801803338,-0.005322744604200125,0.0003405999450478703,0.0
82,5,2.3767368475091644e-05,9.288624482906016e-07,5.428756594483275e-06,0.0006267493590712547,-0.0005618850700557232,-0.0012943934416398406,-0.006013897247612476,-0.07703676074743271,-0.0012849996564909816,-0.0014014672487974167,0.0012237663613632321,-0.0024958348367363214,0.0,0.0,0.0,4.052114672958851e-05,0.0010009753750637174,-0.0,0.0,0.0,0.0,0.0,0.0,0.0,1495.0,1495.0,1495.0,1495.0,0.0,0.0,0.0,0.0,0.0,0.0,0.0,0.0,1495.0,1495.0,1495.0,1495.0,1.6364623308181763,-0.11291906529122987,0.16971842602352358,0.1013626144218929,-0.00394712807610631,0.00012291256280150265,0.0
87,5,2.5591652956791222e-05,1.1849161637655925e-05,-4.849581728194607e-06,0.0004696139076258987,-0.00153518992010504,0.0007156432257033885,-0.006013897247612476,-0.07703676074743271,-0.0012849996564909816,-0.0014014672487974167,0.0012237663613632321,-0.0024958348367363214,0.0,0.0,0.0,4.052114672958851e-05,0.0010009753750637174,-0.0,0.0,0.0,0.0,0.0,0.0,0.0,1495.0,1495.0,1495.0,1495.0,0.0,0.0,0.0,0.0,0.0,0.0,0.0,0.0,1495.0,1495.0,1495.0,1495.0,1.6364623308181763,-0.11341988658285612,0.1698034246332235,0.101474011611353,-0.00394712807610631,0.00012291256280150265,0.0
92,5,2.3217577108880505e-05,5.470540600072127e-06,-1.4379199910763418e-06,-9.704369585961103e-05,0.00015135860303416848,-0.00012314211926423013,-0.006011592224240303,-0.0770234689116478,-0.001320832991041243,-0.00047136592911556363,-0.004027015995234251,-0.004347385838627815,0.0,0.0,0.0,0.0019125123508274555,0.0004806130309589207,-0.0,0.0,0.0,0.0,0.0,0.0,0.0,1495.0,1495.0,1495.0,1495.0,0.0,0.0,0.0,0.0,0.0,0.0,0.0,0.0,1495.0,1495.0,1495.0,1495.0,1.6423581838607788,-0.11293061568819265,0.16984810721719218,0.10140913392011483,-0.0019020175095647573,0.005822107195854187,0.0
101,9,6.40557436781819e-06,3.068496212677019e-08,-3.8703333302692045e-06,-0.0018120665336027741,0.00046467443462461233,-7.298801938304678e-05,-0.006011592224240303,-0.0770234689116478,-0.001320832991041243,-0.00047136592911556363,-0.004027015995234251,-0.004347385838627815,0.0,0.0,0.0,-0.00017807517724577338,-6.012349695083685e-05,-0.0,0.0,0.0,0.0,0.0,0.0,0.0,1495.0,1495.0,1495.0,1495.0,0.0,0.0,0.0,0.0,0.0,0.0,0.0,0.0,1495.0,1495.0,1495.0,1495.0,1.6284600496292114,-0.11298495627533178,0.16995184014572548,0.10165046938168133,0.00023592459911014885,-0.0005375130567699671,0.0
106,5,3.7252273159538163e-06,-3.121794406979461e-06,-3.2520058539375896e-06,-0.0010464682709425688,0.0005641673342324793,-0.00010339450091123581,-0.006003410089761019,-0.07704244554042816,-0.0013353679096326232,0.004123700316995382,-0.0024102062452584505,0.0024586354847997427,0.0,0.0,0.0,-0.0007025540107861161,-0.000989084248431027,-0.0,0.0,0.0,0.0,0.0,0.0,0.0,1495.0,1495.0,1495.0,1495.0,0.0,0.0,0.0,0.0,0.0,0.0,0.0,0.0,1495.0,1495.0,1495.0,1495.0,1.637815237045288,-0.11262277172475477,0.17034346143306606,0.10161282821053907,0.0039034616202116013,-0.002132814610376954,0.0
111,6,3.2698326322133653e-06,-1.2880714166385587e-05,2.05203232326312e-05,-0.0004732346860691905,0.0013967372942715883,-0.002894037403166294,-0.006003410089761019,-0.07704244554042816,-0.0013353679096326232,0.004123700316995382,-0.0024102062452584505,0.0024586354847997427,0.0,0.0,0.0,-0.0007025540107861161,-0.000989084248431027,-0.0,0.0,0.0,0.0,0.0,0.0,0.0,1495.0,1495.0,1495.0,1495.0,0.0,0.0,0.0,0.0,0.0,0.0,0.0,0.0,1495.0,1495.0,1495.0,1495.0,1.637815237045288,-0.11250976212768016,0.17033481943101686,0.10174049276314642,0.0039034616202116013,-0.002132814610376954,0.0
125,13,1.9130216969642788e-05,-1.9339033769938396e-06,-2.6710015390563058e-06,0.0014726329827681184,-0.0006928798975422978,0.0018818798707798123,-0.005963797215372324,-0.07704582810401917,-0.0013426137156784534,-0.001446933951228857,2.3814180167391896e-05,-0.00016079081979114562,0.0,0.0,0.0,-0.0017453873297199607,-0.00044419002369977534,-0.0,0.0,0.0,0.0,0.0,0.0,0.0,1495.0,1495.0,1495.0,1495.0,0.0,0.0,0.0,0.0,0.0,0.0,0.0,0.0,1495.0,1495.0,1495.0,1495.0,1.6409140825271606,-0.11328067137317155,0.1699680102338666,0.1019162610267325,0.0017563289729878306,-0.005308670923113823,0.0
130,5,2.5804982215049677e-05,4.381316102808341e-06,-6.2780541156826075e-06,0.0013900251360610127,-0.001034978311508894,0.0011855982011184096,-0.0059487298130989075,-0.07706313580274582,-0.0013527723494917154,0.003053370863199234,0.003385246964171529,5.9155685448786244e-05,0.0,0.0,0.0,0.0012817686656489968,0.0013519944623112679,-0.0,0.0,0.0,0.0,0.0,0.0,0.0,1495.0,1495.0,1495.0,1495.0,0.0,0.0,0.0,0.0,0.0,0.0,0.0,0.0,1495.0,1495.0,1495.0,1495.0,1.6437183618545532,-0.1127662723238517,0.1698696653540474,0.1017415360650404,-0.0053549292497336864,0.0039052190259099007,0.0
137,7,2.7243631848250516e-05,1.5291176168830134e-05,2.0042414234922035e-06,1.5002390682639088e-05,-0.0009643926750868559,-0.00022816353884991258,-0.0059487298130989075,-0.07706313580274582,-0.0013527723494917154,0.003053370863199234,0.003385246964171529,5.9155685448786244e-05,0.0,0.0,0.0,0.0012817686656489968,0.0013519944623112679,-0.0,0.0,0.0,0.0,0.0,0.0,0.0,1495.0,1495.0,1495.0,1495.0,0.0,0.0,0.0,0.0,0.0,0.0,0.0,0.0,1495.0,1495.0,1495.0,1495.0,1.6437183618545532,-0.11313938256682855,0.16964417330992498,0.10141437426472667,-0.0053549292497336864,0.0039052190259099007,0.0
142,5,2.4199758627219126e-05,2.0940583453921136e-06,1.6637099179206416e-05,-0.0003592638822738081,0.001197897014208138,-0.0018472084775567055,-0.0059487298130989075,-0.07706313580274582,-0.0013527723494917154,0.003053370863199234,0.003385246964171529,5.9155685448786244e-05,0.0,0.0,0.0,0.0012817686656489968,0.0013519944623112679,-0.0,0.0,0.0,0.0,0.0,0.0,0.0,1495.0,1495.0,1495.0,1495.0,0.0,0.0,0.0,0.0,0.0,0.0,0.0,0.0,1495.0,1495.0,1495.0,1495.0,1.6437183618545532,-0.11269351630689872,0.17002959771960904,0.10149102491549258,-0.0053549292497336864,0.0039052190259099007,0.0
147,5,2.094136470986996e-05,4.805915068573086e-06,-1.0499355084903073e-05,-0.0005347128608264029,0.00015373599308077246,0.0025174913462251425,-0.0059408205561339855,-0.07707115262746811,-0.0013583049876615405,0.001184617867693305,-0.004370047245174646,-0.0006020689615979791,0.0,0.0,0.0,-0.00147545849904418,-0.00030742358649149537,-0.0,0.0,0.0,0.0,0.0,0.0,0.0,1495.0,1495.0,1495.0,1495.0,0.0,0.0,0.0,0.0,0.0,0.0,0.0,0.0,1495.0,1495.0,1495.0,1495.0,1.6383414268493652,-0.1128144738469081,0.16996171899353898,0.10142644200423263,0.001213648822158575,-0.004480636212974787,0.0
152,5,1.9699466065503657e-05,-4.79684786114376e-06,8.385546607314609e-06,-0.0003629129205364734,0.0012138258898630738,-0.001259191776625812,-0.0059408205561339855,-0.07707115262746811,-0.0013583049876615405,0.001184617867693305,-0.004370047245174646,-0.0006020689615979791,0.0,0.0,0.0,-0.00147545849904418,-0.00030742358649149537,-0.0,0.0,0.0,0.0,0.0,0.0,0.0,1495.0,1495.0,1495.0,1495.0,0.0,0.0,0.0,0.0,0.0,0.0,0.0,0.0,1495.0,1495.0,1495.0,1495.0,1.6383414268493652,-0.11284713260864004,0.1700958496826446,0.10143900740056482,0.001213648822158575,-0.004480636212974787,0.0
157,5,1.2548268387035932e-05,-7.0797905209474266e-06,2.075369820886408e-06,-0.0010033089201897383,0.0007594835478812456,0.00025354453828185797,-0.0059408205561339855,-0.07707115262746811,-0.0013583049876615405,0.001184617867693305,-0.004370047245174646,-0.0006020689615979791,0.0,0.0,0.0,-0.001507354318164289,-0.00031708733877167106,-0.0,0.0,0.0,0.0,0.0,0.0,0.0,1495.0,1495.0,1495.0,1495.0,0.0,0.0,0.0,0.0,0.0,0.0,0.0,0.0,1495.0,1495.0,1495.0,1495.0,1.6386240720748901,-0.11308683984741309,0.17002030148027367,0.10149330087131195,0.0012520153541117907,-0.004578286316245794,0.0
162,5,1.0458100405230653e-05,1.2702799949693144e-06,1.0076838407258037e-05,-0.000652143731713295,-0.0006982150953263044,-0.0008587584597989917,-0.005931622814387083,-0.07706685364246368,-0.0013497286709025502,0.0009307662840001285,-0.003686469281092286,0.002956478390842676,0.0,0.0,0.0,-0.001507354318164289,-0.00031708733877167106,-0.0,0.0,0.0,0.0,0.0,0.0,0.0,1495.0,1495.0,1495.0,1495.0,0.0,0.0,0.0,0.0,0.0,0.0,0.0,0.0,1495.0,1495.0,1495.0,1495.0,1.6386240720748901,-0.11261195233249958,0.1701528327628189,0.10152961806664615,0.0012520153541117907,-0.004578286316245794,0.0
167,5,1.2181550118839368e-05,5.353763754101237e-06,3.477402060525492e-06,-5.404345574788749e-05,-0.0007693041115999222,0.0004484289966057986,-0.005931622814387083,-0.07706685364246368,-0.0013497286709025502,0.0009307662840001285,-0.003686469281092286,0.002956478390842676,0.0,0.0,0.0,0.0008660500752739608,-0.0006058424478396773,-0.0,0.0,0.0,0.0,0.0,0.0,0.0,1495.0,1495.0,1495.0,1495.0,0.0,0.0,0.0,0.0,0.0,0.0,0.0,0.0,1495.0,1495.0,1495.0,1495.0,1.6353764533996582,-0.11285898566669672,0.16984503445686283,0.10165597003910597,0.00238742190413177,0.0026252411771565676,0.0
172,5,2.787148696370423e-05,8.065987458394375e-06,-1.2018850611639209e-05,0.0018611750565469265,-0.0006331884651444852,0.0020389219280332327,-0.005930040031671524,-0.07707316428422928,-0.0013434027787297964,0.0020429915748536587,-0.002599696395918727,0.002236558124423027,0.0,0.0,0.0,0.0008660500752739608,-0.0006058424478396773,-0.0,0.0,0.0,0.0,0.0,0.0,0.0,1495.0,1495.0,1495.0,1495.0,0.0,0.0,0.0,0.0,0.0,0.0,0.0,0.0,1495.0,1495.0,1495.0,1495.0,1.6353764533996582,-0.11303063496528862,0.16985184683359056,0.10150503649929149,0.00238742190413177,0.0026252411771565676,0.0
177,5,3.0345509003382176e-05,9.305337698606309e-06,-7.836473741917871e-06,0.001041352516040206,-0.00040199741488322616,0.0003136835293844342,-0.005930040031671524,-0.07707316428422928,-0.0013434027787297964,0.0020429915748536587,-0.002599696395918727,0.002236558124423027,0.0,0.0,0.0,0.0007927152910269797,0.00179833744186908,-0.0,0.0,0.0,0.0,0.0,0.0,0.0,1495.0,1495.0,1495.0,1495.0,0.0,0.0,0.0,0.0,0.0,0.0,0.0,0.0,1495.0,1495.0,1495.0,1495.0,1.6461657285690308,-0.11295551987681327,0.1697735793234418,0.1012931645583059,-0.007133394945412874,0.0024187960661947727,0.0
182,5,2.335171666345559e-05,1.1374204405001365e-05,-8.077259735728148e-06,-0.0004227139288559556,-0.0004090630100108683,0.00015436777903232723,-0.0059381695464253426,-0.07708097249269485,-0.0013361594174057245,0.0004951170412823558,0.0011131216306239367,-0.00027275612228550017,0.0,0.0,0.0,0.0007927152910269797,0.00179833744186908,-0.0,0.0,0.0,0.0,0.0,0.0,0.0,1495.0,1495.0,1495.0,1495.0,0.0,0.0,0.0,0.0,0.0,0.0,0.0,0.0,1495.0,1495.0,1495.0,1495.0,1.6461657285690308,-0.1131820346990353,0.16984216894910642,0.10142273252678485,-0.007133394945412874,0.0024187960661947727,0.0
187,5,1.5834191799513064e-05,9.801804480957799e-06,-2.2074798835092224e-05,-0.001071188598871231,2.5062772692763247e-05,0.0017414517933502793,-0.0059381695464253426,-0.07708097249269485,-0.0013361594174057245,0.0004951170412823558,0.0011131216306239367,-0.00027275612228550017,0.0,0.0,0.0,0.0005279102479107678,-0.000370324618415907,-0.0,0.0,0.0,0.0,0.0,0.0,0.0,1495.0,1495.0,1495.0,1495.0,0.0,0.0,0.0,0.0,0.0,0.0,0.0,0.0,1495.0,1495.0,1495.0,1495.0,1.6316115856170654,-0.11244366964634997,0.17042895962195093,0.10140852086430552,0.001455965917557478,0.0015965604688972235,0.0
193,5,1.1237473700020928e-05,3.638514272097382e-07,-1.1017154065484647e-05,-0.0009800817351788282,0.001142579480074346,-0.0006303366390056908,-0.005938393995165825,-0.07709378004074097,-0.001342571689747274,-0.0005049059982411563,-0.001726112561300397,-0.0016550198197364807,0.0,0.0,0.0,0.0005279102479107678,-0.000370324618415907,-0.0,0.0,0.0,0.0,0.0,0.0,0.0,1495.0,1495.0,1495.0,1495.0,0.0,0.0,0.0,0.0,0.0,0.0,0.0,0.0,1495.0,1495.0,1495.0,1495.0,1.6316115856170654,-0.1132641655996409,0.17010111681396578,0.1016482786521694,0.001455965917557478,0.0015965604688972235,0.0
198,5,1.1681286196107976e-05,2.1562632923632918e-07,-5.16931459060288e-06,-0.00033877507667057216,0.0004748188075609505,-0.000953875423874706,-0.005938393995165825,-0.07709378004074097,-0.001342571689747274,-0.0005049059982411563,-0.001726112561300397,-0.0016550198197364807,0.0,0.0,0.0,-0.0014080267865210772,-0.0009136603330262005,-0.0,0.0,0.0,0.0,0.0,0.0,0.0,1495.0,1495.0,1495.0,1495.0,0.0,0.0,0.0,0.0,0.0,0.0,0.0,0.0,1495.0,1495.0,1495.0,1495.0,1.640944242477417,-0.11316802685784096,0.16997621291426118,0.10185387857975875,0.0036126840859651566,-0.004282654263079166,0.0
203,5,1.8004124285653234e-05,1.4597805630955918e-08,-7.48854790799669e-06,0.0006232305895537138,0.00021405094594229013,-0.00010324212780687958,-0.0059497724287211895,-0.07711566239595413,-0.001374793704599142,-0.00027337693609297276,-0.0008765659295022488,0.0026163398288190365,0.0,0.0,0.0,-0.0014080267865210772,-0.0009136603330262005,-0.0,0.0,0.0,0.0,0.0,0.0,0.0,1495.0,1495.0,1495.0,1495.0,0.0,0.0,0.0,0.0,0.0,0.0,0.0,0.0,1495.0,1495.0,1495.0,1495.0,1.640944242477417,-0.1128809361845057,0.17044204181774134,0.1016746938078208,0.0036126840859651566,-0.004282654263079166,0.0
208,5,9.28133067645831e-06,-2.4844905510690296e-07,1.0262554496875964e-05,-0.0007974430918693542,0.00011718600580934435,-0.002171429106965661,-0.0059497724287211895,-0.07711566239595413,-0.001374793704599142,-0.00027337693609297276,-0.0008765659295022488,0.0026163398288190365,0.0,0.0,0.0,-0.0002652026014402509,0.0006194373709149659,-0.0,0.0,0.0,0.0,0.0,0.0,0.0,1495.0,1495.0,1495.0,1495.0,0.0,0.0,0.0,0.0,0.0,0.0,0.0,0.0,1495.0,1495.0,1495.0,1495.0,1.6327106952667236,-0.11271502298471738,0.17019636076302425,0.10153451421555316,-0.0024370166938751936,-0.0008025933057069778,0.0
213,5,1.7210908481501974e-05,-5.801754923595581e-06,7.566984550066991e-06,0.0006325721042230725,0.0007132710888981819,-0.0005451032193377614,-0.0059472001157701015,-0.07708461582660675,-0.0013649119064211845,0.0018423476722091436,-0.005713322665542364,0.0021945599000900984,0.0,0.0,0.0,-0.0002652026014402509,0.0006194373709149659,-0.0,0.0,0.0,0.0,0.0,0.0,0.0,1495.0,1495.0,1495.0,1495.0,0.0,0.0,0.0,0.0,0.0,0.0,0.0,0.0,1495.0,1495.0,1495.0,1495.0,1.6327106952667236,-0.11286470761216691,0.16998402461476173,0.10155911839893146,-0.0024370166938751936,-0.0008025933057069778,0.0
218,5,9.987659723265097e-06,-1.5012788026069757e-06,3.511784962029196e-05,-0.0006137609016150236,-0.00023074868659023196,-0.0035241448786109686,-0.0059472001157701015,-0.07708461582660675,-0.0013649119064211845,0.0018423476722091436,-0.005713322665542364,0.0021945599000900984,0.0,0.0,0.0,-0.0008927467279136181,0.0006261069793254137,-0.0,0.0,0.0,0.0,0.0,0.0,0.0,1495.0,1495.0,1495.0,1495.0,0.0,0.0,0.0,0.0,0.0,0.0,0.0,0.0,1495.0,1495.0,1495.0,1495.0,1.6356863975524902,-0.1130367504845926,0.16988473786774985,0.10152033717536356,-0.0024677449837327003,-0.0027066790498793125,0.0
223,5,1.2975552635907661e-05,-5.796733603347093e-06,2.699392643989995e-05,0.0001130427117459476,0.0004231551138218492,-0.000434787361882627,-0.005926043260842562,-0.07708827406167984,-0.0013544525718316436,0.00237799109891057,-0.003174856072291732,-0.0006451585795730352,0.0,0.0,0.0,-0.0008927467279136181,0.0006261069793254137,-0.0,0.0,0.0,0.0,0.0,0.0,0.0,1495.0,1495.0,1495.0,1495.0,0.0,0.0,0.0,0.0,0.0,0.0,0.0,0.0,1495.0,1495.0,1495.0,1495.0,1.6356863975524902,-0.11309505949011517,0.16983477550721632,0.10144478581451594,-0.0024677449837327003,-0.0027066790498793125,0.0
228,5,1.38505802169675e-05,-4.431310571817448e-06,7.52582172935945e-06,0.00015022041043266654,5.411253368947655e-06,0.0021622576750814915,-0.005926043260842562,-0.07708827406167984,-0.0013544525718316436,0.00237799109891057,-0.003174856072291732,-0.0006451585795730352,0.0,0.0,0.0,-0.0005356597248464823,0.00012632206198759377,-0.0,0.0,0.0,0.0,0.0,0.0,0.0,1495.0,1495.0,1495.0,1495.0,0.0,0.0,0.0,0.0,0.0,0.0,0.0,0.0,1495.0,1495.0,1495.0,1495.0,1.6303422451019287,-0.11346783710307523,0.16997509579177666,0.10171449322998323,-0.0004962606471963227,-0.0016187368892133236,0.0
233,5,2.15004947676789e-05,5.48738898942247e-06,4.5338579184317496e-06,0.0009780777618288994,-0.001188079360872507,0.001223938656039536,-0.005935965105891228,-0.07709124684333801,-0.0013543644454330206,-0.00198265234939754,0.001194793381728232,0.0021664402447640896,0.0,0.0,0.0,-0.0005356597248464823,0.00012632206198759377,-0.0,0.0,0.0,0.0,0.0,0.0,0.0,1495.0,1495.0,1495.0,1495.0,0.0,0.0,0.0,0.0,0.0,0.0,0.0,0.0,1495.0,1495.0,1495.0,1495.0,1.6303422451019287,-0.113396321885892,0.1696254467160503,0.10134784799085574,-0.0004962606471963227,-0.0016187368892133236,0.0
238,5,1.884357516246382e-05,5.209634764469229e-06,4.53769007435767e-06,7.240083505166695e-05,-0.00044190126936882734,0.0004891156568191946,-0.005935965105891228,-0.07709124684333801,-0.0013543644454330206,-0.00198265234939754,0.001194793381728232,0.0021664402447640896,0.0,0.0,0.0,0.0014740581391379237,0.0009573493152856827,-0.0,0.0,0.0,0.0,0.0,0.0,0.0,1495.0,1495.0,1495.0,1495.0,0.0,0.0,0.0,0.0,0.0,0.0,0.0,0.0,1495.0,1495.0,1495.0,1495.0,1.641668677330017,-0.11278108262004227,0.16990286264772697,0.1015677617671075,-0.00378710450604558,0.004485474433749914,-0.0
243,5,1.6951549696386792e-05,-3.5385377827878983e-07,-2.918756945291534e-05,-0.00019808273646049201,0.0004908581031486392,0.004242677241563797,-0.005938165821135044,-0.07711765170097351,-0.0013526390539482236,0.002537948079407215,-0.00816177949309349,-0.0010701324790716171,0.0,0.0,0.0,0.0014740581391379237,0.0009573493152856827,-0.0,0.0,0.0,0.0,0.0,0.0,0.0,1495.0,1495.0,1495.0,1495.0,0.0,0.0,0.0,0.0,0.0,0.0,0.0,0.0,1495.0,1495.0,1495.0,1495.0,1.641668677330017,-0.11252932545300696,0.17010027982957804,0.10142705754398085,-0.00378710450604558,0.004485474433749914,-0.0
248,5,1.7878666767501272e-05,-4.337748862326407e-07,-5.430018063634634e-06,3.202098378096707e-05,0.00020593377121258527,-0.001153835211880505,-0.005938165821135044,-0.07711765170097351,-0.0013526390539482236,0.002537948079407215,-0.00816177949309349,-0.0010701324790716171,0.0,0.0,0.0,-0.0006094974814914167,-0.00016499187040608376,-0.0,0.0,0.0,0.0,0.0,0.0,0.0,1495.0,1495.0,1495.0,1495.0,0.0,0.0,0.0,0.0,0.0,0.0,0.0,0.0,1495.0,1495.0,1495.0,1495.0,1.6310489177703857,-0.11330380538028359,0.16985573633488063,0.10155431375578358,0.0006484572659246624,-0.0018426693277433515,0.0
253,5,1.46108823173563e-05,-1.3797789506497793e-06,1.2003865776932798e-05,-0.00037932576378807425,0.00019589399744290859,-0.0025536001194268465,-0.005942068994045258,-0.07707329839468002,-0.0013233020436018705,-0.0017050387104973197,-0.002672751434147358,0.0014786558458581567,0.0,0.0,0.0,-0.0006094974814914167,-0.00016499187040608376,-0.0,0.0,0.0,0.0,0.0,0.0,0.0,1495.0,1495.0,1495.0,1495.0,0.0,0.0,0.0,0.0,0.0,0.0,0.0,0.0,1495.0,1495.0,1495.0,1495.0,1.6310489177703857,-0.11297409422994625,0.17004160390269624,0.10180093533076989,0.0006484572659246624,-0.0018426693277433515,0.0
259,5,1.064784373738803e-05,-1.1989337508566678e-05,1.579882336955052e-05,-0.0006272949394769967,0.0013515045866370201,-0.0014768351102247834,-0.005942068994045258,-0.07707329839468002,-0.0013233020436018705,-0.0017050387104973197,-0.002672751434147358,0.0014786558458581567,0.0,0.0,0.0,-0.0002456690708640963,-0.00034142486401833594,-0.0,0.0,0.0,0.0,0.0,0.0,0.0,1495.0,1495.0,1495.0,1495.0,0.0,0.0,0.0,0.0,0.0,0.0,0.0,0.0,1495.0,1495.0,1495.0,1495.0,1.6299065351486206,-0.11283053889553596,0.17033884564982602,0.10195028607564674,0.0013409411767497659,-0.0007422012859024107,0.0
264,5,1.1822388842119835e-05,-4.521158189163543e-06,2.428079278615769e-05,-0.00010997249046340585,-0.00035557965748012066,-0.0016085702227428555,-0.0059593841433525085,-0.07708056271076202,-0.0013342114398255944,-0.001397620071657002,-0.0022159453947097063,0.001055890112183988,0.0,0.0,0.0,-0.0002456690708640963,-0.00034142486401833594,-0.0,0.0,0.0,0.0,0.0,0.0,0.0,1495.0,1495.0,1495.0,1495.0,0.0,0.0,0.0,0.0,0.0,0.0,0.0,0.0,1495.0,1495.0,1495.0,1495.0,1.6299065351486206,-0.1130747153141766,0.17009442010084325,0.10164841271585338,0.0013409411767497659,-0.0007422012859024107,0.0
269,5,3.1383681289298693e-06,-2.5149963676085463e-06,2.367498200328555e-05,-0.001086071482859552,-0.0003829713095910847,-0.0005707309464924037,-0.0059593841433525085,-0.07708056271076202,-0.0013342114398255944,-0.001397620071657002,-0.0022159453947097063,0.001055890112183988,0.0,0.0,0.0,0.0004332539683673531,-8.816455374471843e-05,-0.0,0.0,0.0,0.0,0.0,0.0,0.0,1495.0,1495.0,1495.0,1495.0,0.0,0.0,0.0,0.0,0.0,0.0,0.0,0.0,1495.0,1495.0,1495.0,1495.0,1.629420280456543,-0.11286779949392473,0.1699719508592081,0.10166526758426923,0.0003461616870481521,0.0013085315003991127,0.0
274,5,-4.818149136553984e-06,9.817717000260018e-06,2.989750646520406e-05,-0.0013892106944695115,-0.00163311418145895,-0.000974995200522244,-0.0059556541964411736,-0.07707963138818741,-0.0013470457633957267,-0.0015542438486590981,-0.0015898788115009665,-0.001373069710098207,0.0,0.0,0.0,0.0004332539683673531,-8.816455374471843e-05,-0.0,0.0,0.0,0.0,0.0,0.0,0.0,1495.0,1495.0,1495.0,1495.0,0.0,0.0,0.0,0.0,0.0,0.0,0.0,0.0,1495.0,1495.0,1495.0,1495.0,1.629420280456543,-0.11278962289345676,0.17060345680828606,0.10157601741790094,0.0003461616870481521,0.0013085315003991127,0.0
279,5,-4.774015906150453e-06,4.612936209014151e-06,5.600965323537821e-06,-0.0005503883003257215,-2.8671902327914722e-05,0.0025255868677049875,-0.0059556541964411736,-0.07707963138818741,-0.0013470457633957267,-0.0015542438486590981,-0.0015898788115009665,-0.001373069710098207,0.0,0.0,0.0,0.002022906206548214,-0.0013184869894757867,-0.0,0.0,0.0,0.0,0.0,0.0,0.0,1495.0,1495.0,1495.0,1495.0,0.0,0.0,0.0,0.0,0.0,0.0,0.0,0.0,1495.0,1495.0,1495.0,1495.0,1.6476960182189941,-0.11306046744217511,0.17011879664652124,0.10149023513577753,0.005234844982624054,0.006178183946758509,0.0
284,5,1.812905310316637e-07,6.490125088021159e-06,-8.036092367547099e-06,0.0003744814603123814,-0.0002367314591538161,0.002646681619808078,-0.005965467542409897,-0.07707390189170837,-0.0013220487162470818,0.0009620139608159661,-0.001178334467113018,0.005727401468902826,0.0,0.0,0.0,0.002022906206548214,-0.0013184869894757867,-0.0,0.0,0.0,0.0,0.0,0.0,0.0,1495.0,1495.0,1495.0,1495.0,0.0,0.0,0.0,0.0,0.0,0.0,0.0,0.0,1495.0,1495.0,1495.0,1495.0,1.6476960182189941,-0.11344017306219394,0.16976413681152014,0.1016748214851282,0.005234844982624054,0.006178183946758509,0.0
289,5,1.5213542610581499e-05,1.1079561772930901e-05,-2.272878191433847e-05,0.0019536628387868404,-0.0006454249378293753,0.0028217954095453024,-0.005965467542409897,-0.07707390189170837,-0.0013220487162470818,0.0009620139608159661,-0.001178334467113018,0.005727401468902826,0.0,0.0,0.0,0.0003055927518289536,0.00035802737693302333,-0.0,0.0,0.0,0.0,0.0,0.0,0.0,1495.0,1495.0,1495.0,1495.0,0.0,0.0,0.0,0.0,0.0,0.0,0.0,0.0,1495.0,1495.0,1495.0,1495.0,1.630313515663147,-0.11250758283227477,0.17044112828655972,0.10144355134592595,-0.0014064983697608113,0.0009234698954969645,0.0
294,5,1.603073178557679e-05,1.1250400348217227e-05,-1.7791737263905816e-05,0.0008795278845354915,-0.0002786706027109176,0.0005362728261388838,-0.005959449335932732,-0.07711472362279892,-0.001319232047535479,-0.0021985210478305817,-0.0007594318594783545,-3.619380004238337e-05,0.0,0.0,0.0,0.0003055927518289536,0.00035802737693302333,-0.0,0.0,0.0,0.0,0.0,0.0,0.0,1495.0,1495.0,1495.0,1495.0,0.0,0.0,0.0,0.0,0.0,0.0,0.0,0.0,1495.0,1495.0,1495.0,1495.0,1.630313515663147,-0.11293567567546949,0.1697824452774289,0.10144808596179922,-0.0014064983697608113,0.0009234698954969645,0.0
299,5,2.836340900103096e-05,4.019321295345435e-06,-3.061772440560162e-05,0.0018317323410883546,0.0007562611717730761,0.0017536276718601584,-0.005959449335932732,-0.07711472362279892,-0.001319232047535479,-0.0021985210478305817,-0.0007594318594783545,-3.619380004238337e-05,0.0,0.0,0.0,0.00036517041735351086,0.0008596426923759282,-0.0,0.0,0.0,0.0,0.0,0.0,0.0,1495.0,1495.0,1495.0,1495.0,0.0,0.0,0.0,0.0,0.0,0.0,0.0,0.0,1495.0,1495.0,1495.0,1495.0,1.635418176651001,-0.11274763730569659,0.17000694736142902,0.1011094241459855,-0.0033876504749059677,0.0011069625616073608,0.0
304,5,3.696394560392946e-05,2.957323431473924e-06,-4.367163001006702e-06,0.001764757209457457,0.00042994425166398287,-0.0024486163165420294,-0.0059315902180969715,-0.07715241611003876,-0.0013518925989046693,0.0034483603667467833,-0.0004560162196867168,-0.001382861752063036,0.0,0.0,0.0,0.00036517041735351086,0.0008596426923759282,-0.0,0.0,0.0,0.0,0.0,0.0,0.0,1495.0,1495.0,1495.0,1495.0,0.0,0.0,0.0,0.0,0.0,0.0,0.0,0.0,1495.0,1495.0,1495.0,1495.0,1.635418176651001,-0.1132690556635074,0.16963573160598994,0.10142873563930621,-0.0033876504749059677,0.0011069625616073608,0.0
310,5,2.5093244403251447e-05,-2.606850785014103e-06,1.0535966794122942e-05,-0.0007185811991803348,0.0008396785706281662,-0.002767822239547968,-0.0059315902180969715,-0.07715241611003876,-0.0013518925989046693,0.0034483603667467833,-0.0004560162196867168,-0.001382861752063036,0.0,0.0,0.0,-0.0005234932759776711,0.001721452921628952,-0.0,0.0,0.0,0.0,0.0,0.0,0.0,1495.0,1495.0,1495.0,1495.0,0.0,0.0,0.0,0.0,0.0,0.0,0.0,0.0,1495.0,1495.0,1495.0,1495.0,1.6447436809539795,-0.11294636479311344,0.16937465197058157,0.10163506119892958,-0.006822522729635239,-0.0015959447482600808,0.0
315,5,1.2916546438646037e-05,-6.37740242837026e-07,1.4475875104835723e-05,-0.001748636132106185,9.957817383110523e-05,-0.0015799178509041667,-0.005944657139480114,-0.07713600248098373,-0.0013636293588206172,-0.0026039211079478264,-0.0023115931544452906,-0.001954643754288554,0.0,0.0,0.0,-0.0005234932759776711,0.001721452921628952,-0.0,0.0,0.0,0.0,0.0,0.0,0.0,1495.0,1495.0,1495.0,1495.0,0.0,0.0,0.0,0.0,0.0,0.0,0.0,0.0,1495.0,1495.0,1495.0,1495.0,1.6447436809539795,-0.11250549219845801,0.1706345730717035,0.10149618089954761,-0.006822522729635239,-0.0015959447482600808,0.0
320,5,3.9572323657921515e-06,-4.7253884076781105e-06,2.7360440071788616e-05,-0.001774572185240686,0.0005303490324877203,-0.002178114838898182,-0.005944657139480114,-0.07713600248098373,-0.0013636293588206172,-0.0026039211079478264,-0.0023115931544452906,-0.001954643754288554,0.0,0.0,0.0,-0.0005234932759776711,0.001721452921628952,-0.0,0.0,0.0,0.0,0.0,0.0,0.0,1495.0,1495.0,1495.0,1495.0,0.0,0.0,0.0,0.0,0.0,0.0,0.0,0.0,1495.0,1495.0,1495.0,1495.0,1.6447436809539795,-0.11255840622422111,0.17008374334122145,0.10160674959443664,-0.006822522729635239,-0.0015959447482600808,0.0
325,5,-4.787681518791942e-06,-5.19825198352919e-06,1.3082039913570043e-05,-0.0005260944017209113,0.0002391468151472509,0.000607213587500155,-0.005950324237346649,-0.0771481990814209,-0.0013689713086932898,0.002379179699346423,-0.0020079961977899075,-0.002083385130390525,0.0,0.0,0.0,-0.000660944904666394,-0.0016734596574679017,-0.0,0.0,0.0,0.0,0.0,0.0,0.0,1495.0,1495.0,1495.0,1495.0,0.0,0.0,0.0,0.0,0.0,0.0,0.0,0.0,1495.0,1495.0,1495.0,1495.0,1.6445382833480835,-0.11274644085076937,0.1703558154114678,0.10176542452506061,0.006631485652178526,-0.002014734083786607,0.0
330,5,-7.2864572757680435e-06,-3.6710937365569407e-06,9.299189514422324e-06,-0.0005102908471599221,-8.760025230003521e-05,0.0006968274246901274,-0.005950324237346649,-0.0771481990814209,-0.0013689713086932898,0.002379179699346423,-0.0020079961977899075,-0.002083385130390525,0.0,0.0,0.0,-0.000660944904666394,-0.0016734596574679017,-0.0,0.0,0.0,0.0,0.0,0.0,0.0,1495.0,1495.0,1495.0,1495.0,0.0,0.0,0.0,0.0,0.0,0.0,0.0,0.0,1495.0,1495.0,1495.0,1495.0,1.6311113834381104,-0.11198801635633988,0.17100203460983554,0.10154110000350648,0.0019522965885698795,0.00030836148653179407,-0.0
335,5,-7.2864572757680435e-06,-3.6710937365569407e-06,9.299189514422324e-06,-0.0005102908471599221,-8.760025230003521e-05,0.0006968274246901274,-0.005950324237346649,-0.0771481990814209,-0.0013689713086932898,0.002379179699346423,-0.0020079961977899075,-0.002083385130390525,0.0,0.0,0.0,0.00010199243115494028,-0.0004967184504494071,-0.0,0.0,0.0,0.0,0.0,0.0,0.0,1495.0,1495.0,1495.0,1495.0,0.0,0.0,0.0,0.0,0.0,0.0,0.0,0.0,1495.0,1495.0,1495.0,1495.0,1.6311113834381104,-0.11198801635633988,0.17100203460983554,0.10154110000350648,0.0019522965885698795,0.00030836148653179407,-0.0
340,5,2.5101129722315818e-05,3.2846423891896848e-06,5.073680767964106e-06,0.002965920837596059,-0.00033751470618881285,0.0005186400376260281,-0.005973354447633028,-0.07713215053081512,-0.001369999023154378,-0.0036650332622230053,-0.0004046853573527187,-0.0016236009541898966,0.0,0.0,0.0,0.00010199243115494028,-0.0004967184504494071,-0.0,0.0,0.0,0.0,0.0,0.0,0.0,1495.0,1495.0,1495.0,1495.0,0.0,0.0,0.0,0.0,0.0,0.0,0.0,0.0,1495.0,1495.0,1495.0,1495.0,1.6311113834381104,-0.11291462837913752,0.16996695212652754,0.10146907530517889,0.0019522965885698795,0.00030836148653179407,-0.0
345,5,2.1942143575870432e-05,4.729175088868942e-06,2.5016888685058802e-06,0.0008072900818660855,-0.0003083498449996114,0.0005160950822755694,-0.005973354447633028,-0.07713215053081512,-0.001369999023154378,-0.0036650332622230053,-0.0004046853573527187,-0.0016236009541898966,0.0,0.0,0.0,0.0004181350814178586,0.0028214873746037483,-0.0,0.0,0.0,0.0,0.0,0.0,0.0,1495.0,1495.0,1495.0,1495.0,0.0,0.0,0.0,0.0,0.0,0.0,0.0,0.0,1495.0,1495.0,1495.0,1495.0,1.6564379930496216,-0.1131557096117843,0.16984818635282262,0.10152916858816642,-0.011261716485023499,0.001283808727748692,-0.0
350,5,2.1942143575870432e-05,4.729175088868942e-06,2.5016888685058802e-06,0.0008072900818660855,-0.0003083498449996114,0.0005160950822755694,-0.005996692925691605,-0.07715683430433273,-0.0013822638429701328,-0.001332780346274376,-0.004965327214449644,0.0009163238573819399,0.0,0.0,0.0,0.0004181350814178586,0.0028214873746037483,-0.0,0.0,0.0,0.0,0.0,0.0,0.0,1495.0,1495.0,1495.0,1495.0,0.0,0.0,0.0,0.0,0.0,0.0,0.0,0.0,1495.0,1495.0,1495.0,1495.0,1.6564379930496216,-0.1131557096117843,0.16984818635282262,0.10152916858816642,-0.011261716485023499,0.001283808727748692,-0.0
355,5,3.16821679007262e-05,4.921002528135432e-06,-7.0874448283575475e-06,0.0014917190419510007,-0.00014635923434980214,0.0013571340823546052,-0.005996692925691605,-0.07715683430433273,-0.0013822638429701328,-0.001332780346274376,-0.004965327214449644,0.0009163238573819399,0.0,0.0,0.0,0.0003901860036421567,0.0007994885672815144,-0.0,0.0,0.0,0.0,0.0,0.0,0.0,1495.0,1495.0,1495.0,1495.0,0.0,0.0,0.0,0.0,0.0,0.0,0.0,0.0,1495.0,1495.0,1495.0,1495.0,1.6348764896392822,-0.11297599558171201,0.16958046590470555,0.10137435692627764,-0.0031495539005845785,0.0011824020184576511,-0.0
360,5,2.3812339350115508e-05,-6.109339210524922e-06,-1.126636902881728e-06,-0.0003476918791420758,0.0012650974094867706,-0.0001724433241179213,-0.006007367745041847,-0.07716235518455505,-0.0013422360643744469,0.0007538139470852911,-0.00391395902261138,0.0030423172283917665,0.0,0.0,0.0,0.0003901860036421567,0.0007994885672815144,-0.0,0.0,0.0,0.0,0.0,0.0,0.0,1495.0,1495.0,1495.0,1495.0,0.0,0.0,0.0,0.0,0.0,0.0,0.0,0.0,1495.0,1495.0,1495.0,1495.0,1.6348764896392822,-0.11258282542471477,0.16994232555809916,0.10161490821918279,-0.0031495539005845785,0.0011824020184576511,-0.0
365,5,2.3005464754533023e-05,3.1259014576789923e-06,8.582760528952349e-06,-0.00023590183991473168,-0.0006021899753250182,-0.0012341049732640386,-0.006007367745041847,-0.07716235518455505,-0.0013422360643744469,0.0007538139470852911,-0.00391395902261138,0.0030423172283917665,0.0,0.0,0.0,-0.0015725464327260852,-0.0002965502208098769,-0.0,0.0,0.0,0.0,0.0,0.0,0.0,1495.0,1495.0,1495.0,1495.0,0.0,0.0,0.0,0.0,0.0,0.0,0.0,0.0,1495.0,1495.0,1495.0,1495.0,1.639092206954956,-0.11296523304857507,0.16955733086573216,0.10155642752301976,0.0011712590930983424,-0.004777658265084028,0.0
370,5,1.3730787941312883e-05,-2.303799647052074e-06,1.1829694813059177e-05,-0.0012073218822479248,0.0004106881679035723,-0.0008832740713842213,-0.006000084802508354,-0.07718852907419205,-0.0013368644285947084,0.0009045891929417849,0.004496812354773283,0.0027578575536608696,0.0,0.0,0.0,-0.0015725464327260852,-0.0002965502208098769,-0.0,0.0,0.0,0.0,0.0,0.0,0.0,1495.0,1495.0,1495.0,1495.0,0.0,0.0,0.0,0.0,0.0,0.0,0.0,0.0,1495.0,1495.0,1495.0,1495.0,1.639092206954956,-0.11254531691871446,0.17028870376847496,0.10155835250284065,0.0011712590930983424,-0.004777658265084028,0.0
376,5,5.889417479920667e-06,-8.108273505058605e-06,7.867833460295515e-07,-0.001423893147148192,0.0008608122006990016,0.000971839705016464,-0.006000084802508354,-0.07718852907419205,-0.0013368644285947084,0.0009045891929417849,0.004496812354773283,0.0027578575536608696,0.0,0.0,0.0,-0.0005112389917485416,-0.001127143856137991,-0.0,0.0,0.0,0.0,0.0,0.0,0.0,1495.0,1495.0,1495.0,1495.0,0.0,0.0,0.0,0.0,0.0,0.0,0.0,0.0,1495.0,1495.0,1495.0,1495.0,1.6385339498519897,-0.11273008448749952,0.170243102950706,0.10169491012216333,0.004450271837413311,-0.0015527013456448913,0.0
381,5,7.967150850163307e-06,-1.5078667274792679e-06,-1.5230845747282729e-05,-0.0003866159822791815,-1.378177785227308e-05,0.0009404972661286592,-0.006011405494064093,-0.07718214392662048,-0.0013445776421576738,0.0013552320888265967,-0.0007318808929994702,-0.0012401648564264178,0.0,0.0,0.0,-0.0005112389917485416,-0.001127143856137991,-0.0,0.0,0.0,0.0,0.0,0.0,0.0,1495.0,1495.0,1495.0,1495.0,0.0,0.0,0.0,0.0,0.0,0.0,0.0,0.0,1495.0,1495.0,1495.0,1495.0,1.6385339498519897,-0.11308544641967115,0.17017653058834145,0.10165513294325466,0.004450271837413311,-0.0015527013456448913,0.0
386,5,9.035565199155826e-06,-4.181250119472679e-07,-9.49869445321383e-06,-2.6436677217134275e-05,-0.00013628171291202307,-0.000311659270664677,-0.006011405494064093,-0.07718214392662048,-0.0013445776421576738,0.0013552320888265967,-0.0007318808929994702,-0.0012401648564264178,0.0,0.0,0.0,1.4379504136741161e-05,-0.0003576323506422341,-0.0,0.0,0.0,0.0,0.0,0.0,0.0,1495.0,1495.0,1495.0,1495.0,0.0,0.0,0.0,0.0,0.0,0.0,0.0,0.0,1495.0,1495.0,1495.0,1495.0,1.6295597553253174,-0.11277208634037095,0.17018162723229271,0.1015538400651363,0.0014042970724403858,4.343329419498332e-05,0.0
391,5,1.186769350169925e-05,-4.181111762591172e-06,-1.0630975339154247e-05,0.0003292806795798242,0.00039704571827314794,1.1210016054974403e-05,-0.006004908122122288,-0.07722514122724533,-0.0013138052308931947,0.0015414250083267689,0.00038197438698261976,0.001253953785635531,0.0,0.0,0.0,1.4379504136741161e-05,-0.0003576323506422341,-0.0,0.0,0.0,0.0,0.0,0.0,0.0,1495.0,1495.0,1495.0,1495.0,0.0,0.0,0.0,0.0,0.0,0.0,0.0,0.0,1495.0,1495.0,1495.0,1495.0,1.6295597553253174,-0.11306704477758588,0.16986554180242883,0.10164918238769205,0.0014042970724403858,4.343329419498332e-05,0.0
396,5,1.091289595933631e-05,-4.285181603336241e-06,1.4859097063890658e-05,1.713657366053667e-05,0.00017130668857134879,-0.003054324770346284,-0.006004908122122288,-0.07722514122724533,-0.0013138052308931947,0.0015414250083267689,0.00038197438698261976,0.001253953785635531,0.0,0.0,0.0,-0.0005000504315830767,0.000331206334521994,-0.0,0.0,0.0,0.0,0.0,0.0,0.0,1495.0,1495.0,1495.0,1495.0,0.0,0.0,0.0,0.0,0.0,0.0,0.0,0.0,1495.0,1495.0,1495.0,1495.0,1.6311620473861694,-0.11293489005674494,0.17034058635125549,0.1014192376507805,-0.0013018099125474691,-0.0015118872979655862,0.0
401,5,1.8566177459433675e-05,-4.7362431132569327e-07,1.338816036877688e-05,0.0009252484887838364,-0.0003888642240781337,-0.0010452173883095384,-0.006018195301294327,-0.0772472396492958,-0.0013053154107183218,-0.0021911568474024534,-0.0009237566264346242,0.0023312282282859087,0.0,0.0,0.0,-0.0005000504315830767,0.000331206334521994,-0.0,0.0,0.0,0.0,0.0,0.0,0.0,1495.0,1495.0,1495.0,1495.0,0.0,0.0,0.0,0.0,0.0,0.0,0.0,0.0,1495.0,1495.0,1495.0,1495.0,1.6311620473861694,-0.11341170564704744,0.16960493450256073,0.10160244662704918,-0.0013018099125474691,-0.0015118872979655862,0.0
406,5,1.2001651157333981e-05,-5.9579729168035556e-06,6.610365744563751e-06,-0.0004176438378635794,0.000502576120197773,0.00039524835301563144,-0.006018195301294327,-0.0772472396492958,-0.0013053154107183218,-0.0021911568474024534,-0.0009237566264346242,0.0023312282282859087,0.0,0.0,0.0,0.000479967420687899,0.0009063847828656435,-0.0,0.0,0.0,0.0,0.0,0.0,0.0,1495.0,1495.0,1495.0,1495.0,0.0,0.0,0.0,0.0,0.0,0.0,0.0,0.0,1495.0,1495.0,1495.0,1495.0,1.636217474937439,-0.11280996061838512,0.1701544996419977,0.1014284321867092,-0.003573595779016614,0.001455664518289268,0.0
411,5,2.0675084670074284e-05,7.162839210650418e-07,1.1588646202653763e-06,0.0008737545576877892,-0.0005998803535476327,0.0008122794679366052,-0.006035964470356703,-0.07732105255126953,-0.0013027508975937963,-0.00231302622705698,0.006803698372095823,-0.0036893372889608145,0.0,0.0,0.0,0.000479967420687899,0.0009063847828656435,-0.0,0.0,0.0,0.0,0.0,0.0,0.0,1495.0,1495.0,1495.0,1495.0,0.0,0.0,0.0,0.0,0.0,0.0,0.0,0.0,1495.0,1495.0,1495.0,1495.0,1.636217474937439,-0.11280692798276792,0.17014610812407205,0.10165795958972579,-0.003573595779016614,0.001455664518289268,0.0
416,5,1.101289308280684e-05,1.42987403251027e-07,1.3352837413549423e-07,-0.0008099612896330655,-0.00017115655646193773,0.000447952130343765,-0.006035964470356703,-0.07732105255126953,-0.0013027508975937963,-0.00231302622705698,0.006803698372095823,-0.0036893372889608145,0.0,0.0,0.0,0.0007427770178765059,0.000860063242726028,-0.0,0.0,0.0,0.0,0.0,0.0,0.0,1495.0,1495.0,1495.0,1495.0,0.0,0.0,0.0,0.0,0.0,0.0,0.0,0.0,1495.0,1495.0,1495.0,1495.0,1.6367970705032349,-0.11238626526105115,0.17050470229968787,0.10170249093947469,-0.0033921650610864162,0.0022535219322890043,-0.0
421,5,7.724113856966142e-06,-1.505701447968022e-06,-8.175478797056712e-06,-0.0007186380098573864,0.00012938003055751324,0.0011762618087232113,-0.006035964470356703,-0.07732105255126953,-0.0013027508975937963,-0.00231302622705698,0.006803698372095823,-0.0036893372889608145,0.0,0.0,0.0,0.0007427770178765059,0.000860063242726028,-0.0,0.0,0.0,0.0,0.0,0.0,0.0,1495.0,1495.0,1495.0,1495.0,0.0,0.0,0.0,0.0,0.0,0.0,0.0,0.0,1495.0,1495.0,1495.0,1495.0,1.6367970705032349,-0.11313485303521485,0.16984221284488807,0.10161400500363002,-0.0033921650610864162,0.0022535219322890043,-0.0
427,5,1.5154182619880885e-05,-1.971262690858566e-06,-7.094665761542274e-06,0.0006041530868969858,0.00010761937301140279,0.00034080707700923085,-0.006043456494808197,-0.07736900448799133,-0.0013382290489971638,-1.930347571033053e-05,0.0010743183083832264,0.0003964393981732428,0.0,0.0,0.0,-0.00016301003051921725,-0.0006735571078024805,-0.0,0.0,0.0,0.0,0.0,0.0,0.0,1495.0,1495.0,1495.0,1495.0,0.0,0.0,0.0,0.0,0.0,0.0,0.0,0.0,1495.0,1495.0,1495.0,1495.0,1.6330641508102417,-0.11321246337495329,0.16977960091700958,0.10151668338646201,0.0026505105197429657,-0.0004934306489303708,0.0
432,5,1.0722073056967929e-05,-6.559679150086595e-06,-1.2407510439516045e-05,-0.0002901919942814857,0.0005936577217653394,0.000773864216171205,-0.006043456494808197,-0.07736900448799133,-0.0013382290489971638,-1.930347571033053e-05,0.0010743183083832264,0.0003964393981732428,0.0,0.0,0.0,-0.00016301003051921725,-0.0006735571078024805,-0.0,0.0,0.0,0.0,0.0,0.0,0.0,1495.0,1495.0,1495.0,1495.0,0.0,0.0,0.0,0.0,0.0,0.0,0.0,0.0,1495.0,1495.0,1495.0,1495.0,1.6330641508102417,-0.11310692025006067,0.17010123522470283,0.10151907006065314,0.0026505105197429657,-0.0004934306489303708,0.0
437,5,9.145965123025235e-06,-1.0813248536578612e-06,9.128995657192718e-07,-0.00030520965810865164,-0.0004199394315946847,-0.001288903527893126,-0.006038866005837917,-0.07737220823764801,-0.0013281174469739199,0.00019428438099566847,-0.004039658233523369,0.0004411785048432648,0.0,0.0,0.0,-0.00016301003051921725,-0.0006735571078024805,-0.0,0.0,0.0,0.0,0.0,0.0,0.0,1495.0,1495.0,1495.0,1495.0,0.0,0.0,0.0,0.0,0.0,0.0,0.0,0.0,1495.0,1495.0,1495.0,1495.0,1.6330641508102417,-0.11256589543347353,0.17035559079786491,0.10155274328391965,0.0026505105197429657,-0.0004934306489303708,0.0
442,5,1.3031002708885353e-05,5.18525553161453e-07,1.0068612937175203e-05,0.0003441206063143909,-0.0003599578340072185,-0.0016142469830811024,-0.006038866005837917,-0.07737220823764801,-0.0013281174469739199,0.00019428438099566847,-0.004039658233523369,0.0004411785048432648,0.0,0.0,0.0,0.0005189619259908795,-0.00027794193010777235,-0.0,0.0,0.0,0.0,0.0,0.0,0.0,1495.0,1495.0,1495.0,1495.0,0.0,0.0,0.0,0.0,0.0,0.0,0.0,0.0,1495.0,1495.0,1495.0,1495.0,1.630935549736023,-0.11238715596811885,0.17052154269924,0.10148953295620874,0.0010923019144684076,0.0015688476851209998,0.0
447,5,1.4902730072208215e-05,5.320843683875864e-06,-6.083041625970509e-06,0.00036225555231794715,-0.0007202613051049411,0.0012924997135996819,-0.006032745353877544,-0.07740071415901184,-0.0013130914885550737,-0.00012135638826293871,0.004401082638651133,0.003193308599293232,0.0,0.0,0.0,0.0005189619259908795,-0.00027794193010777235,-0.0,0.0,0.0,0.0,0.0,0.0,0.0,1495.0,1495.0,1495.0,1495.0,0.0,0.0,0.0,0.0,0.0,0.0,0.0,0.0,1495.0,1495.0,1495.0,1495.0,1.630935549736023,-0.11324463032773531,0.1698112509407756,0.10155551669640958,0.0010923019144684076,0.0015688476851209998,0.0
452,5,1.4851932974124793e-05,-1.5089266298673465e-06,3.2815730719448766e-06,0.00013880649930797517,0.0005314679001457989,-0.0006067538633942604,-0.006032745353877544,-0.07740071415901184,-0.0013130914885550737,-0.00012135638826293871,0.004401082638651133,0.003193308599293232,0.0,0.0,0.0,0.0009013919625431299,0.0003663112292997539,-0.0,0.0,0.0,0.0,0.0,0.0,0.0,1495.0,1495.0,1495.0,1495.0,0.0,0.0,0.0,0.0,0.0,0.0,0.0,0.0,1495.0,1495.0,1495.0,1495.0,1.6341272592544556,-0.11271522567022585,0.17019319324319038,0.1017947060963956,-0.0014424070250242949,0.002730285283178091,0.0
457,5,2.340906939934939e-05,3.869745796691859e-06,1.2832644642912783e-05,0.0010823789052665234,-0.0004328535287640989,-0.0013888301327824593,-0.006045433226972818,-0.07742021232843399,-0.0013109003193676472,0.001997990533709526,-0.006169864907860756,0.0020727531518787146,0.0,0.0,0.0,0.0009013919625431299,0.0003663112292997539,-0.0,0.0,0.0,0.0,0.0,0.0,0.0,1495.0,1495.0,1495.0,1495.0,0.0,0.0,0.0,0.0,0.0,0.0,0.0,0.0,1495.0,1495.0,1495.0,1495.0,1.6341272592544556,-0.11322842112685368,0.16977017597856353,0.10149914474723416,-0.0014424070250242949,0.002730285283178091,0.0
462,5,1.793627961887978e-05,7.919245035736822e-06,8.816926310828421e-06,-0.00022378320863936096,-0.0006590812699869275,-7.364590419456363e-05,-0.006045433226972818,-0.07742021232843399,-0.0013109003193676472,0.001997990533709526,-0.006169864907860756,0.0020727531518787146,0.0,0.0,0.0,0.0005416674539446831,0.0010615295032039285,-0.0,0.0,0.0,0.0,0.0,0.0,0.0,1495.0,1495.0,1495.0,1495.0,0.0,0.0,0.0,0.0,0.0,0.0,0.0,0.0,1495.0,1495.0,1495.0,1495.0,1.637958288192749,-0.11289960570162676,0.169966247333064,0.10165248394721406,-0.00418973620980978,0.0016445385990664363,0.0
467,5,2.599558501970023e-05,5.983638857287588e-06,1.0595786989142653e-05,0.0008776033064350486,-3.1359802960650995e-05,-0.00024292164016515017,-0.006040434818714857,-0.07743314653635025,-0.0013012656709179282,-0.0010128942085430026,0.0017008301801979542,0.000778661691583693,0.0,0.0,0.0,0.0005416674539446831,0.0010615295032039285,-0.0,0.0,0.0,0.0,0.0,0.0,0.0,1495.0,1495.0,1495.0,1495.0,0.0,0.0,0.0,0.0,0.0,0.0,0.0,0.0,1495.0,1495.0,1495.0,1495.0,1.637958288192749,-0.11349661907531466,0.16944888580101436,0.10151517030262756,-0.00418973620980978,0.0016445385990664363,0.0
472,5,1.3466525160765741e-05,-2.270390268677147e-06,3.423159569138079e-06,-0.0011524457950145006,0.0009779395768418908,0.0007635466754436493,-0.006040434818714857,-0.07743314653635025,-0.0013012656709179282,-0.0010128942085430026,0.0017008301801979542,0.000778661691583693,0.0,0.0,0.0,4.9685811973176897e-05,0.0008721284102648497,-0.0,0.0,0.0,0.0,0.0,0.0,0.0,1495.0,1495.0,1495.0,1495.0,0.0,0.0,0.0,0.0,0.0,0.0,0.0,0.0,1495.0,1495.0,1495.0,1495.0,1.6350805759429932,-0.11254405745960036,0.17022527075921676,0.10162064120709999,-0.0034361446741968393,0.00015058444114401937,0.0
478,5,1.8401437046122737e-05,-5.691144906450063e-06,-2.0847783162025735e-06,0.00013121109805069864,0.0008016664069145918,0.0009663712116889656,-0.006047697737812996,-0.07746917754411697,-0.0013067149557173252,-0.0017408480634912848,-0.00031605613185092807,-0.00025850351084955037,0.0,0.0,0.0,4.9685811973176897e-05,0.0008721284102648497,-0.0,0.0,0.0,0.0,0.0,0.0,0.0,1495.0,1495.0,1495.0,1495.0,0.0,0.0,0.0,0.0,0.0,0.0,0.0,0.0,1495.0,1495.0,1495.0,1495.0,1.6350805759429932,-0.11340392379374747,0.17008259551935134,0.10154406238133455,-0.0034361446741968393,0.00015058444114401937,0.0
483,5,2.9139354751350766e-07,-1.254457856703084e-05,2.238273964394466e-06,-0.002120720688253641,0.0011430785525590181,-0.0001322177704423666,-0.006047697737812996,-0.07746917754411697,-0.0013067149557173252,-0.0017408480634912848,-0.00031605613185092807,-0.00025850351084955037,0.0,0.0,0.0,-0.0010028036776930094,0.00015122280456125736,-0.0,0.0,0.0,0.0,0.0,0.0,0.0,1495.0,1495.0,1495.0,1495.0,0.0,0.0,0.0,0.0,0.0,0.0,0.0,0.0,1495.0,1495.0,1495.0,1495.0,1.6341475248336792,-0.11262913301126962,0.17015442037746198,0.101534347539573,-0.0005954704829491675,-0.0030374950729310513,0.0
488,5,4.262246420694282e-06,-9.764759852259886e-06,1.0794891522891703e-06,-0.0003717859508469701,0.0001236531970789656,8.61670559970662e-05,-0.006048297043889761,-0.07747011631727219,-0.0013166347052901983,-0.0010694041848182678,-0.00025200843811035156,0.001755670877173543,0.0,0.0,0.0,-0.0010028036776930094,0.00015122280456125736,-0.0,0.0,0.0,0.0,0.0,0.0,0.0,1495.0,1495.0,1495.0,1495.0,0.0,0.0,0.0,0.0,0.0,0.0,0.0,0.0,1495.0,1495.0,1495.0,1495.0,1.6341475248336792,-0.11260142324923299,0.1699094309520135,0.10165272595383991,-0.0005954704829491675,-0.0030374950729310513,0.0
493,5,1.7901040337164886e-05,6.671995151918964e-07,2.2877377432450885e-06,0.0014879410155117512,-0.0012023738818243146,-0.00011052301124436781,-0.006048297043889761,-0.07747011631727219,-0.0013166347052901983,-0.0010694041848182678,-0.00025200843811035156,0.001755670877173543,0.0,0.0,0.0,-0.00017127447063103318,-0.0003484870248939842,-0.0,0.0,0.0,0.0,0.0,0.0,0.0,1495.0,1495.0,1495.0,1495.0,0.0,0.0,0.0,0.0,0.0,0.0,0.0,0.0,1495.0,1495.0,1495.0,1495.0,1.6297175884246826,-0.11288433996921715,0.17012105756418983,0.10141531289335012,0.0013685190351679921,-0.0005173846147954464,-0.0
498,5,1.616820736671798e-05,3.500483671814436e-06,1.3806369679514319e-05,0.0003872364468406886,-0.0008209436200559139,-0.0014264449710026383,-0.006042457185685635,-0.07744530588388443,-0.001294374349527061,0.003246440552175045,-0.0034360806457698345,0.0017503773560747504,0.0,0.0,0.0,-0.00017127447063103318,-0.0003484870248939842,-0.0,0.0,0.0,0.0,0.0,0.0,0.0,1495.0,1495.0,1495.0,1495.0,0.0,0.0,0.0,0.0,0.0,0.0,0.0,0.0,1495.0,1495.0,1495.0,1495.0,1.6297175884246826,-0.11323096978363799,0.169706916073359,0.10156860816875121,0.0013685190351679921,-0.0005173846147954464,-0.0
503,5,1.8228369299322367e-05,9.567188499204349e-06,8.632887329440564e-06,0.00040211385930888355,-0.001056381966918707,5.0239894335391e-05,-0.006042457185685635,-0.07744530588388443,-0.001294374349527061,0.003246440552175045,-0.0034360806457698345,0.0017503773560747504,0.0,0.0,0.0,0.0010221005650237203,0.00039170507807284594,-0.0,0.0,0.0,0.0,0.0,0.0,0.0,1495.0,1495.0,1495.0,1495.0,0.0,0.0,0.0,0.0,0.0,0.0,0.0,0.0,1495.0,1495.0,1495.0,1495.0,1.6351393461227417,-0.11300981047795963,0.17004934569404864,0.10157037123044077,-0.0015433542430400848,0.0030978245195001364,0.0
508,5,1.2934017831867095e-05,4.784026714332867e-06,1.6981062799459323e-05,-0.00047447654651477933,0.00015142656047828496,-0.0009816850069910288,-0.006008225493133068,-0.07747131586074829,-0.0012877098051831126,-0.0006275668274611235,-0.004241349175572395,-0.0028796731494367123,0.0,0.0,0.0,0.0010221005650237203,0.00039170507807284594,-0.0,0.0,0.0,0.0,0.0,0.0,0.0,1495.0,1495.0,1495.0,1495.0,0.0,0.0,0.0,0.0,0.0,0.0,0.0,0.0,1495.0,1495.0,1495.0,1495.0,1.6351393461227417,-0.11304735985429087,0.1697383474452057,0.10161839648681718,-0.0015433542430400848,0.0030978245195001364,0.0
513,5,1.0419134014227893e-05,7.322632427531062e-06,2.526131765989703e-06,-0.0004915767349302769,-0.00024406204465776682,0.0013419176684692502,-0.006008225493133068,-0.07747131586074829,-0.0012877098051831126,-0.0006275668274611235,-0.004241349175572395,-0.0028796731494367123,0.0,0.0,0.0,-0.00017915594798978418,-0.0004341409367043525,-0.0,0.0,0.0,0.0,0.0,0.0,0.0,1495.0,1495.0,1495.0,1495.0,0.0,0.0,0.0,0.0,0.0,0.0,0.0,0.0,1495.0,1495.0,1495.0,1495.0,1.6306043863296509,-0.1125928496847907,0.17020419833853515,0.10138212278689182,0.0017058121738955379,-0.0005414874176494777,0.0
518,5,1.7658985598245636e-05,2.3598349798703566e-06,-1.7851562006399035e-05,0.000672151567414403,0.0004979108925908804,0.002982090227305889,-0.006000155117362738,-0.07748273015022278,-0.0012896549887955189,0.0006558409077115357,0.002211111830547452,-0.003641319926828146,0.0,0.0,0.0,-0.00017915594798978418,-0.0004341409367043525,-0.0,0.0,0.0,0.0,0.0,0.0,0.0,1495.0,1495.0,1495.0,1495.0,0.0,0.0,0.0,0.0,0.0,0.0,0.0,0.0,1495.0,1495.0,1495.0,1495.0,1.6306043863296509,-0.11307903613713419,0.16977387514930828,0.10132697845607251,0.0017058121738955379,-0.0005414874176494777,0.0
523,5,1.101718680729391e-06,-3.960556114179781e-06,-1.750229421304539e-05,-0.0017180114518851042,0.0009576112497597933,0.001150923897512257,-0.006000155117362738,-0.07748273015022278,-0.0012896549887955189,0.0006558409077115357,0.002211111830547452,-0.003641319926828146,0.0,0.0,0.0,-0.0006120087346062064,0.0006652595475316048,-0.0,0.0,0.0,0.0,0.0,0.0,0.0,1495.0,1495.0,1495.0,1495.0,0.0,0.0,0.0,0.0,0.0,0.0,0.0,0.0,1495.0,1495.0,1495.0,1495.0,1.6344578266143799,-0.1127606677798519,0.17021671187406398,0.10144134173154451,-0.002620092360302806,-0.0018541284371167421,0.0
528,5,-5.745798716816353e-07,1.8555810754605773e-07,-1.3300147656991612e-05,-0.0008883604314178228,-0.00011448919394752011,-4.3887961510336027e-05,-0.00601144228130579,-0.07749442756175995,-0.00128328672144562,-0.0020417505875229836,-0.00879654660820961,0.002517597982659936,0.0,0.0,0.0,-0.0006120087346062064,0.0006652595475316048,-0.0,0.0,0.0,0.0,0.0,0.0,0.0,1495.0,1495.0,1495.0,1495.0,0.0,0.0,0.0,0.0,0.0,0.0,0.0,0.0,1495.0,1495.0,1495.0,1495.0,1.6344578266143799,-0.11270338013815402,0.17027638107912182,0.10142995588244316,-0.002620092360302806,-0.0018541284371167421,0.0
533,5,-2.768020124221948e-07,-2.2105831476437743e-07,6.7228606894786935e-06,-0.0003196108154952526,2.9982932119310135e-06,-0.002420316217467189,-0.00601144228130579,-0.07749442756175995,-0.00128328672144562,-0.0020417505875229836,-0.00879654660820961,0.002517597982659936,0.0,0.0,0.0,-0.0006120087346062064,0.0006652595475316048,-0.0,0.0,0.0,0.0,0.0,0.0,0.0,1495.0,1495.0,1495.0,1495.0,0.0,0.0,0.0,0.0,0.0,0.0,0.0,0.0,1495.0,1495.0,1495.0,1495.0,1.6344578266143799,-0.11310091213417167,0.16986166702171898,0.10169323245574007,-0.002620092360302806,-0.0018541284371167421,0.0
539,5,-3.6368555811350234e-06,-1.3415018656814937e-05,-3.592311941247317e-07,-0.000531050784047693,0.0015844745794311166,-0.00011827542039100081,-0.00601144228130579,-0.07749442756175995,-0.00128328672144562,-0.0020417505875229836,-0.00879654660820961,0.002517597982659936,0.0,0.0,0.0,-4.107318090973422e-06,-0.0003051145758945495,-0.0,0.0,0.0,0.0,0.0,0.0,0.0,1495.0,1495.0,1495.0,1495.0,0.0,0.0,0.0,0.0,0.0,0.0,0.0,0.0,1495.0,1495.0,1495.0,1495.0,1.6289970874786377,-0.11274556250895544,0.17044633647708368,0.10184925873567106,0.0011976644163951278,-1.240186975337565e-05,0.0
544,5,2.067445711873006e-05,-3.2885964174056426e-06,-3.480040504655335e-07,0.002704937243834138,-0.0005813808529637754,-4.8657424486009404e-05,-0.006001594942063093,-0.0774337574839592,-0.0012758121592923999,0.002542122034355998,-0.005590175278484821,0.000798059452790767,0.0,0.0,0.0,-4.107318090973422e-06,-0.0003051145758945495,-0.0,0.0,0.0,0.0,0.0,0.0,0.0,1495.0,1495.0,1495.0,1495.0,0.0,0.0,0.0,0.0,0.0,0.0,0.0,0.0,1495.0,1495.0,1495.0,1495.0,1.6289970874786377,-0.11298727748050366,0.16991837036432375,0.10162826909111271,0.0011976644163951278,-1.240186975337565e-05,0.0
549,5,2.4618040697532706e-05,1.889762870632694e-06,8.103581421892159e-06,0.0015552048571407795,-0.0008539554546587169,-0.0010336532723158598,-0.006001594942063093,-0.0774337574839592,-0.0012758121592923999,0.002542122034355998,-0.005590175278484821,0.000798059452790767,0.0,0.0,0.0,0.0007051819120533764,0.0025740063283592463,-0.0,0.0,0.0,0.0,0.0,0.0,0.0,1495.0,1495.0,1495.0,1495.0,0.0,0.0,0.0,0.0,0.0,0.0,0.0,0.0,1495.0,1495.0,1495.0,1495.0,1.6541448831558228,-0.11298410958144563,0.16959542608253392,0.10169465502081164,-0.01025969535112381,0.0021621370688080788,0.0
554,5,1.4133769582258537e-05,1.5067745380292763e-06,-2.6024695216619875e-06,-0.0006360305123962462,-0.000295623583951965,0.0008712648414075375,-0.005993450991809368,-0.0774397924542427,-0.0012544486671686172,-0.00023894700279925019,0.00044054733007214963,-0.003367486409842968,0.0,0.0,0.0,0.0007051819120533764,0.0025740063283592463,-0.0,0.0,0.0,0.0,0.0,0.0,0.0,1495.0,1495.0,1495.0,1495.0,0.0,0.0,0.0,0.0,0.0,0.0,0.0,0.0,1495.0,1495.0,1495.0,1495.0,1.6541448831558228,-0.11291137684666562,0.16971214259719897,0.10160725092666734,-0.01025969535112381,0.0021621370688080788,0.0
559,5,2.657941513461992e-05,5.244019575911807e-06,8.27430994831957e-06,0.0012390651972964406,-0.0005667188088409603,-0.0009567076340317726,-0.005993450991809368,-0.0774397924542427,-0.0012544486671686172,-0.00023894700279925019,0.00044054733007214963,-0.003367486409842968,0.0,0.0,0.0,0.0003690713201649487,-0.0005858499789610505,-0.0,0.0,0.0,0.0,0.0,0.0,0.0,1495.0,1495.0,1495.0,1495.0,0.0,0.0,0.0,0.0,0.0,0.0,0.0,0.0,1495.0,1495.0,1495.0,1495.0,1.6326982975006104,-0.11330186926915714,0.16999816795036923,0.10146883626560792,0.0023048582952469587,0.0011169270146638155,0.0
564,5,1.3828660485160071e-05,4.532589628070127e-06,1.3908220353187062e-05,-0.001034464337863028,-0.00014131593343336135,-0.0010587522992864251,-0.006011767778545618,-0.07747768610715866,-0.0012860764982178807,0.0016701078275218606,0.000512070779222995,0.0009809705661609769,0.0,0.0,0.0,0.0003690713201649487,-0.0005858499789610505,-0.0,0.0,0.0,0.0,0.0,0.0,0.0,1495.0,1495.0,1495.0,1495.0,0.0,0.0,0.0,0.0,0.0,0.0,0.0,0.0,1495.0,1495.0,1495.0,1495.0,1.6326982975006104,-0.11289055860120319,0.16991105109031077,0.10165425513250907,0.0023048582952469587,0.0011169270146638155,0.0
569,5,9.429504643776454e-06,3.5224879866291303e-06,-4.522389929206838e-07,-0.0009416844695806503,6.468580977525562e-05,0.0012997542507946491,-0.006011767778545618,-0.07747768610715866,-0.0012860764982178807,0.0016701078275218606,0.000512070779222995,0.0009809705661609769,0.0,0.0,0.0,0.0001829794782679528,-0.0009639928466640413,-0.0,0.0,0.0,0.0,0.0,0.0,0.0,1495.0,1495.0,1495.0,1495.0,0.0,0.0,0.0,0.0,0.0,0.0,0.0,0.0,1495.0,1495.0,1495.0,1495.0,1.636169195175171,-0.11297001888658904,0.16991298309594263,0.10145348962022438,0.0038006147369742393,0.000554931175429374,0.0
