timestamp,dt,pos_x,pos_y,pos_z,vel_x,vel_y,vel_z,roll,pitch,yaw,agv_x,agv_y,agv_z,x_ref,y_ref,z_ref,roll_ref,pitch_ref,yaw_ref,x_vel_ref,y_vel_ref,z_vel_ref,x_torque,y_torque,z_torque,w0,w1,w2,w3,u0,u1,u2,u3,m0req,m1req,m2req,m3req,thrust0,thrust1,thrust2,thrust3,thrust_ref,roll_vicon,pitch_vicon,yaw_vicon,acc_x,acc_y,acc_z
5,5,0.0,0.0,0.0,-0.000293380202492699,-0.002966267755255103,-0.0050977664068341255,-0.013453291729092598,0.049317408353090286,0.0004027797549497336,-0.0005281720077618957,0.0017929166788235307,0.00023599447740707546,0.0,0.0,0.0,0.00362384389154613,-0.0002757069596555084,-0.0,0.0,0.0,0.0,0.20000000298023224,-0.20000000298023224,0.020488345995545387,1495.0,1495.0,1495.0,1495.0,0.0,0.0,0.0,0.0,0.0,0.0,0.0,0.0,1495.0,1495.0,1495.0,1495.0,1.6560190916061401,-0.11653441981008639,0.09123924138720378,0.02049814116964475,0.0011001757811754942,0.011123504489660263,0.0
28,23,0.0,0.0,0.0,-0.0002130681968992576,0.0011721038026735187,0.0017389594577252865,-0.013453291729092598,0.049317408353090286,0.0004027797549497336,-0.0005281720077618957,0.0017929166788235307,0.00023599447740707546,0.0,0.0,0.0,0.00362384389154613,-0.0002757069596555084,-0.0,0.0,0.0,0.0,0.20000000298023224,-0.20000000298023224,0.020488345995545387,1495.0,1495.0,1495.0,1495.0,0.0,0.0,0.0,0.0,0.0,0.0,0.0,0.0,1495.0,1495.0,1495.0,1495.0,1.6560190916061401,-0.11707782051678615,0.09086707164564521,0.020810993389692684,0.0011001757811754942,0.011123504489660263,0.0
37,9,0.0,0.0,0.0,0.00027375269564799964,-0.0012921257875859737,-0.002710398519411683,-0.013457277789711952,0.049298256635665894,0.0004015809972770512,-0.0011493000201880932,-0.0007566977292299271,0.006370173767209053,0.0,0.0,0.0,-0.0014478053199127316,-0.00020245081395842135,-0.0,0.0,0.0,0.0,0.20000000298023224,-0.20000000298023224,0.04197865352034569,1495.0,1495.0,1495.0,1495.0,0.0,0.0,0.0,0.0,0.0,0.0,0.0,0.0,1495.0,1495.0,1495.0,1495.0,1.637868046760559,-0.11722002024789144,0.09088553258185084,0.020475043879291645,0.0007990057347342372,-0.004395389463752508,0.0
42,5,0.0,0.0,0.0,0.0008612509700469673,0.0030572162941098213,0.005761691369116306,-0.013457277789711952,0.049298256635665894,0.0004015809972770512,-0.0011493000201880932,-0.0007566977292299271,0.006370173767209053,0.0,0.0,0.0,-0.0014478053199127316,-0.00020245081395842135,-0.0,0.0,0.0,0.0,0.20000000298023224,-0.20000000298023224,0.04197865352034569,1495.0,1495.0,1495.0,1495.0,0.0,0.0,0.0,0.0,0.0,0.0,0.0,0.0,1495.0,1495.0,1495.0,1495.0,1.637868046760559,-0.11707234228185086,0.08972319169515186,0.02120304684666661,0.0007990057347342372,-0.004395389463752508,0.0
53,11,0.0,0.0,0.0,0.0012313673505559564,0.0009359355899505317,-0.0009105422650463879,-0.013457277789711952,0.049298256635665894,0.0004015809972770512,-0.0011493000201880932,-0.0007566977292299271,0.006370173767209053,0.0,0.0,0.0,-0.0011535431258380413,0.0011674340348690748,-0.0,0.0,0.0,0.0,0.20000000298023224,-0.20000000298023224,0.016170645132660866,1495.0,1495.0,1495.0,1495.0,0.0,0.0,0.0,0.0,0.0,0.0,0.0,0.0,1495.0,1495.0,1495.0,1495.0,1.6414779424667358,-0.11695738706389702,0.08995210472992432,0.021264190977031694,-0.004617627710103989,-0.0035097585059702396,0.0
58,5,0.0,0.0,0.0,5.531828719540499e-05,-0.004030255600810051,-0.002080106409266591,-0.013457277789711952,0.049298256635665894,0.0004015809972770512,-0.0011493000201880932,-0.0007566977292299271,0.006370173767209053,0.0,0.0,0.0,-0.0011535431258380413,0.0011674340348690748,-0.0,0.0,0.0,0.0,0.20000000298023224,-0.20000000298023224,0.016170645132660866,1495.0,1495.0,1495.0,1495.0,0.0,0.0,0.0,0.0,0.0,0.0,0.0,0.0,1495.0,1495.0,1495.0,1495.0,1.6414779424667358,-0.11706874630131969,0.0908917682984272,0.020618944428225566,-0.004617627710103989,-0.0035097585059702396,0.0
63,5,-3.184206661899225e-06,-2.4395660148002207e-05,-3.377083339728415e-05,-0.0003599774790927768,0.0013153769541531801,0.0032204575836658478,-0.013479283079504967,0.049350108951330185,0.0004237320099491626,0.002397245727479458,-0.004010598175227642,0.0003859278804156929,0.0,0.0,0.0,-0.0011535431258380413,0.0011674340348690748,-0.0,0.0,0.0,0.0,0.20000000298023224,-0.20000000298023224,0.00573473796248436,1495.0,1495.0,1495.0,1495.0,0.0,0.0,0.0,0.0,0.0,0.0,0.0,0.0,1495.0,1495.0,1495.0,1495.0,1.6414779424667358,-0.11690120148936023,0.0896804397557237,0.021159228444439532,-0.004617627710103989,-0.0035097585059702396,0.0
68,5,-1.795118259906303e-05,1.470560619054595e-05,2.9199312848504633e-05,-0.0019160279771313071,-0.004166001453995705,-0.006268234457820654,-0.013479283079504967,0.049350108951330185,0.0004237320099491626,0.002397245727479458,-0.004010598175227642,0.0003859278804156929,0.0,0.0,0.0,-0.0016668508760631084,-0.00034603290259838104,-0.0,0.0,0.0,0.0,0.20000000298023224,-0.20000000298023224,0.00573473796248436,1495.0,1495.0,1495.0,1495.0,0.0,0.0,0.0,0.0,0.0,0.0,0.0,0.0,1495.0,1495.0,1495.0,1495.0,1.6399837732315063,-0.11629957937220016,0.091970444856532,0.020044985946979836,0.0013674398651346564,-0.005066925194114447,0.0
73,5,-1.0925009519269224e-05,-2.000952918024268e-05,-2.715471237024758e-05,7.672949141124263e-05,0.002499415772035718,0.004255189094692469,-0.013461693190038204,0.049337904900312424,0.00040262402035295963,-0.0005047843442298472,0.002264792798087001,-0.0038279653526842594,0.0,0.0,0.0,-0.0016668508760631084,-0.00034603290259838104,-0.0,0.0,0.0,0.0,0.20000000298023224,-0.20000000298023224,-0.012180279940366745,1495.0,1495.0,1495.0,1495.0,0.0,0.0,0.0,0.0,0.0,0.0,0.0,0.0,1495.0,1495.0,1495.0,1495.0,1.6399837732315063,-0.11579314516879459,0.09080971648065939,0.020784605796451375,0.0013674398651346564,-0.005066925194114447,0.0
78,5,-1.6890853657969274e-05,-2.128455162164755e-05,-1.4172668670653366e-05,-0.0006852094666101038,0.0011527689639478922,0.00014423037646338344,-0.013461693190038204,0.049337904900312424,0.00040262402035295963,-0.0005047843442298472,0.002264792798087001,-0.0038279653526842594,0.0,0.0,0.0,-0.003097947221249342,5.71945529372897e-05,-0.0,0.0,0.0,0.0,0.20000000298023224,-0.20000000298023224,-0.012180279940366745,1495.0,1495.0,1495.0,1495.0,0.0,0.0,0.0,0.0,0.0,0.0,0.0,0.0,1495.0,1495.0,1495.0,1495.0,1.651449203491211,-0.1168527950351215,0.09096951833062382,0.020839600060682643,-0.00022759866260457784,-0.009483017027378082,0.0
83,5,-1.1545554116310086e-05,-1.743462598824408e-05,1.1732294296962209e-05,0.000367352127796039,-8.83444556620816e-07,-0.0030509033240377903,-0.01345914974808693,0.04929441213607788,0.00038664540625177324,-0.00047261075815185905,-0.0023202206939458847,0.003330572973936796,0.0,0.0,0.0,-0.003097947221249342,5.71945529372897e-05,-0.0,0.0,0.0,0.0,0.20000000298023224,-0.20000000298023224,0.009519804269075394,1495.0,1495.0,1495.0,1495.0,0.0,0.0,0.0,0.0,0.0,0.0,0.0,0.0,1495.0,1495.0,1495.0,1495.0,1.651449203491211,-0.11676219646601191,0.09098222091271563,0.020632764403824232,-0.00022759866260457784,-0.009483017027378082,0.0
88,5,-7.750808208584203e-07,-2.333644442842342e-05,1.2119637176510878e-05,0.0014393975725397468,0.0007078648195602,-0.0012668424751609564,-0.01345914974808693,0.04929441213607788,0.00038664540625177324,-0.00047261075815185905,-0.0023202206939458847,0.003330572973936796,0.0,0.0,0.0,-3.072588151553646e-05,0.00033468022593297064,-0.0,0.0,0.0,0.0,0.20000000298023224,-0.20000000298023224,0.009519804269075394,1495.0,1495.0,1495.0,1495.0,0.0,0.0,0.0,0.0,0.0,0.0,0.0,0.0,1495.0,1495.0,1495.0,1495.0,1.629321575164795,-0.11676664932692722,0.09093231307215971,0.020579341558192583,-0.0013139800867065787,-9.279396181227639e-05,0.0
94,5,3.5270584248792147e-06,-1.7984017176786438e-05,7.272665698110359e-06,0.001092015765607357,-0.00035914540058001876,7.489958079531789e-05,-0.013464315794408321,0.049300938844680786,0.00040325874579139054,-0.0001462068612454459,-0.001966481562703848,5.301684359437786e-05,0.0,0.0,0.0,0.00041106471326202154,0.0010427848901599646,-0.0,0.0,0.0,0.0,0.20000000298023224,-0.20000000298023224,0.009519804269075394,1495.0,1495.0,1495.0,1495.0,0.0,0.0,0.0,0.0,0.0,0.0,0.0,0.0,1495.0,1495.0,1495.0,1495.0,1.6374119520187378,-0.11672598176067177,0.09045239319505638,0.020550406079007558,-0.004114380571991205,0.001247603795491159,0.0
101,8,1.1887636901519727e-05,-2.6216790502076037e-05,-2.019568273681216e-05,0.0014400756917893887,0.0008442746475338936,0.0033261615317314863,-0.013464315794408321,0.049300938844680786,0.00040325874579139054,-0.0001462068612454459,-0.001966481562703848,5.301684359437786e-05,0.0,0.0,0.0,0.00041106471326202154,0.0010427848901599646,-0.0,0.0,0.0,0.0,0.20000000298023224,-0.20000000298023224,0.009519804269075394,1495.0,1495.0,1495.0,1495.0,0.0,0.0,0.0,0.0,0.0,0.0,0.0,0.0,1495.0,1495.0,1495.0,1495.0,1.6374119520187378,-0.11698528378093632,0.09004092421564504,0.020760338724828215,-0.004114380571991205,0.001247603795491159,0.0
106,5,2.388099801464705e-06,-3.495219425531104e-05,-3.288757579866797e-05,-0.0005639141891151667,0.001385958050377667,0.002853491809219122,-0.013480382971465588,0.04929402843117714,0.00039146520430222154,0.0015420325798913836,-0.003869868814945221,-0.003352333325892687,0.0,0.0,0.0,0.00041106471326202154,0.0010427848901599646,-0.0,0.0,0.0,0.0,0.20000000298023224,-0.20000000298023224,-0.004803907126188278,1495.0,1495.0,1495.0,1495.0,0.0,0.0,0.0,0.0,0.0,0.0,0.0,0.0,1495.0,1495.0,1495.0,1495.0,1.6374119520187378,-0.11726076962370727,0.08997908511502516,0.02093446825663011,-0.004114380571991205,0.001247603795491159,0.0
111,5,1.090003024728503e-06,-2.384621802775655e-05,-2.397945718257688e-05,-0.00038133730413392186,-0.0007783336332067847,7.242252468131483e-05,-0.013444050215184689,0.04930891841650009,0.0003622697840910405,0.0024840831756591797,-0.00363932061009109,-0.0011006036074832082,0.0,0.0,0.0,-0.0017715547000989318,-0.000531345431227237,-0.0,0.0,0.0,0.0,0.20000000298023224,-0.20000000298023224,-0.00029731978429481387,1495.0,1495.0,1495.0,1495.0,0.0,0.0,0.0,0.0,0.0,0.0,0.0,0.0,1495.0,1495.0,1495.0,1495.0,1.6414382457733154,-0.11686731068398068,0.09034206719468603,0.02091166549171106,0.0021016127429902554,-0.005389981437474489,0.0
117,5,5.616743692371529e-06,-2.4905357349780388e-05,-3.876152914017439e-05,0.0003906739584635943,-0.00018423680739942938,0.0018028178019449115,-0.013444050215184689,0.04930891841650009,0.0003622697840910405,0.0024840831756591797,-0.00363932061009109,-0.0011006036074832082,0.0,0.0,0.0,-0.0017715547000989318,-0.000531345431227237,-0.0,0.0,0.0,0.0,0.20000000298023224,-0.20000000298023224,-0.00029731978429481387,1495.0,1495.0,1495.0,1495.0,0.0,0.0,0.0,0.0,0.0,0.0,0.0,0.0,1495.0,1495.0,1495.0,1495.0,1.6414382457733154,-0.1174534914180139,0.0900433583496273,0.02118705567298386,0.0021016127429902554,-0.005389981437474489,0.0
122,5,1.8449318304192275e-06,-1.6110641809063964e-05,-2.2962678485782817e-05,-0.0002963478327728808,-0.0011290606344118714,-0.001174735021777451,-0.013444050215184689,0.04930891841650009,0.0003622697840910405,0.0024840831756591797,-0.00363932061009109,-0.0011006036074832082,0.0,0.0,0.0,0.0001831632253015414,0.0003808326437138021,-0.0,0.0,0.0,0.0,0.20000000298023224,-0.20000000298023224,-0.00029731978429481387,1495.0,1495.0,1495.0,1495.0,0.0,0.0,0.0,0.0,0.0,0.0,0.0,0.0,1495.0,1495.0,1495.0,1495.0,1.6300756931304932,-0.11637885169597142,0.09071453775162992,0.020955627283758032,-0.0014958699466660619,0.000553419697098434,0.0
127,5,-4.881639142695349e-06,-1.2930447155667935e-05,-1.1742628885258455e-05,-0.0009799329563975334,-5.8908779465127736e-05,-0.0011618802091106772,-0.013441472314298153,0.04926594719290733,0.0003508507215883583,2.1752432076027617e-05,-0.0010427698725834489,-0.0034077921882271767,0.0,0.0,0.0,0.0001831632253015414,0.0003808326437138021,-0.0,0.0,0.0,0.0,0.20000000298023224,-0.20000000298023224,-0.014390950091183186,1495.0,1495.0,1495.0,1495.0,0.0,0.0,0.0,0.0,0.0,0.0,0.0,0.0,1495.0,1495.0,1495.0,1495.0,1.6300756931304932,-0.1170773216407238,0.09054657087336737,0.02104600624420768,-0.0014958699466660619,0.000553419697098434,0.0
132,5,-2.5042272682185285e-06,-1.1273100426478777e-05,3.002083985848003e-06,-0.0001066837357939221,-0.00022244507272262126,-0.002234117593616247,-0.013441472314298153,0.04926594719290733,0.0003508507215883583,2.1752432076027617e-05,-0.0010427698725834489,-0.0034077921882271767,0.0,0.0,0.0,4.922594234813005e-05,-0.0009391068597324193,-0.0,0.0,0.0,0.0,0.20000000298023224,-0.20000000298023224,-0.014390950091183186,1495.0,1495.0,1495.0,1495.0,0.0,0.0,0.0,0.0,0.0,0.0,0.0,0.0,1495.0,1495.0,1495.0,1495.0,1.635799765586853,-0.11610984494341516,0.09109387019984708,0.02065238860416668,0.0037016640417277813,0.00014925631694495678,0.0
137,5,-9.133038929576287e-07,-1.3087346815154888e-05,1.7742730051395483e-05,0.00014823730452917516,0.00012873148079961538,-0.0026625245809555054,-0.013432945124804974,0.049282506108284,0.00034191395388916135,-0.0027799145318567753,0.0019678515382111073,-0.005103109870105982,0.0,0.0,0.0,4.922594234813005e-05,-0.0009391068597324193,-0.0,0.0,0.0,0.0,0.20000000298023224,-0.20000000298023224,0.035755455493927,1495.0,1495.0,1495.0,1495.0,0.0,0.0,0.0,0.0,0.0,0.0,0.0,0.0,1495.0,1495.0,1495.0,1495.0,1.635799765586853,-0.1165115527854844,0.09125087507203113,0.020358204446127945,0.0037016640417277813,0.00014925631694495678,0.0
142,5,1.8078594621329103e-06,-1.619162139832042e-05,-1.0358343160987715e-06,0.0003858345153275877,0.0004240057023707777,0.001188417780213058,-0.013432945124804974,0.049282506108284,0.00034191395388916135,-0.0027799145318567753,0.0019678515382111073,-0.005103109870105982,0.0,0.0,0.0,-0.00018396902305539697,0.00014036621723789722,-0.0,0.0,0.0,0.0,0.20000000298023224,-0.20000000298023224,0.035755455493927,1495.0,1495.0,1495.0,1495.0,0.0,0.0,0.0,0.0,0.0,0.0,0.0,0.0,1495.0,1495.0,1495.0,1495.0,1.6284600496292114,-0.1173412856707377,0.09061929444342134,0.02040990733947772,-0.0005507970345206559,-0.0005553034134209156,0.0
147,5,1.8078594621329103e-06,-1.619162139832042e-05,-1.0358343160987715e-06,0.0003858345153275877,0.0004240057023707777,0.001188417780213058,-0.013438171707093716,0.04924921691417694,0.00038226961623877287,0.00036751155857928097,0.0007930226856842637,0.0009681116789579391,0.0,0.0,0.0,-0.00018396902305539697,0.00014036621723789722,-0.0,0.0,0.0,0.0,0.20000000298023224,-0.20000000298023224,0.012612237595021725,1495.0,1495.0,1495.0,1495.0,0.0,0.0,0.0,0.0,0.0,0.0,0.0,0.0,1495.0,1495.0,1495.0,1495.0,1.6284600496292114,-0.1173412856707377,0.09061929444342134,0.02040990733947772,-0.0005507970345206559,-0.0005553034134209156,0.0
152,5,-8.891599350135948e-07,-1.6285196124954382e-06,4.612285556504503e-05,-0.00040956996963359416,-0.0014917586231604218,-0.00441886018961668,-0.013438171707093716,0.04924921691417694,0.00038226961623877287,0.00036751155857928097,0.0007930226856842637,0.0009681116789579391,0.0,0.0,0.0,-0.0005553467781282961,0.00037048780359327793,-0.0,0.0,0.0,0.0,0.20000000298023224,-0.20000000298023224,0.012612237595021725,1495.0,1495.0,1495.0,1495.0,0.0,0.0,0.0,0.0,0.0,0.0,0.0,0.0,1495.0,1495.0,1495.0,1495.0,1.6317816972732544,-0.11771662714471552,0.0914018626093084,0.020461330189153415,-0.0014567592879757285,-0.001679711975157261,0.0
157,5,2.8049973934685113e-06,-2.1323465261957608e-05,-2.531297923269449e-06,0.00027947089984081686,0.0017666900530457497,0.004070954397320747,-0.013418441638350487,0.04917231947183609,0.0003904595214407891,0.0040163034573197365,0.00449623866006732,0.002396219177171588,0.0,0.0,0.0,-0.0005553467781282961,0.00037048780359327793,-0.0,0.0,0.0,0.0,0.20000000298023224,-0.20000000298023224,0.0453750416636467,1495.0,1495.0,1495.0,1495.0,0.0,0.0,0.0,0.0,0.0,0.0,0.0,0.0,1495.0,1495.0,1495.0,1495.0,1.6317816972732544,-0.11694668237442023,0.09064124878019268,0.0209258057453984,-0.0014567592879757285,-0.001679711975157261,0.0
162,5,-3.142742798445397e-06,-1.6207095541176386e-05,-1.4566962818207685e-05,-0.0006019404390826821,9.271164162782952e-05,0.003072661580517888,-0.013418441638350487,0.04917231947183609,0.0003904595214407891,0.0040163034573197365,0.00449623866006732,0.002396219177171588,0.0,0.0,0.0,-0.0022124857641756535,0.00026839342899620533,-0.0,0.0,0.0,0.0,0.20000000298023224,-0.20000000298023224,0.0453750416636467,1495.0,1495.0,1495.0,1495.0,0.0,0.0,0.0,0.0,0.0,0.0,0.0,0.0,1495.0,1495.0,1495.0,1495.0,1.6442573070526123,-0.11674259945583552,0.0904873073744658,0.020917163504575707,-0.0010633898200467229,-0.0067430781200528145,0.0
167,5,2.80109793493466e-06,-8.139118108374532e-06,-1.0273210136801936e-05,0.00047248470946215093,-0.0009310726309195161,0.0007138142827898264,-0.013416992500424385,0.049160636961460114,0.00042946022585965693,-0.0009049205109477043,0.0008464066777378321,0.0022294034715741873,0.0,0.0,0.0,-0.0022124857641756535,0.00026839342899620533,-0.0,0.0,0.0,0.0,0.20000000298023224,-0.20000000298023224,0.009273880161345005,1495.0,1495.0,1495.0,1495.0,0.0,0.0,0.0,0.0,0.0,0.0,0.0,0.0,1495.0,1495.0,1495.0,1495.0,1.6442573070526123,-0.11715692611973826,0.09097079681662695,0.020672623931111845,-0.0010633898200467229,-0.0067430781200528145,0.0
172,5,6.201267297001323e-06,-1.975979103008285e-05,-4.683959559770301e-05,0.0005970141501165926,0.001022051670588553,0.0046734921634197235,-0.013416992500424385,0.049160636961460114,0.00042946022585965693,-0.0009049205109477043,0.0008464066777378321,0.0022294034715741873,0.0,0.0,0.0,0.0011361908400431275,0.0004532719904091209,-0.0,0.0,0.0,0.0,0.20000000298023224,-0.20000000298023224,0.009273880161345005,1495.0,1495.0,1495.0,1495.0,0.0,0.0,0.0,0.0,0.0,0.0,0.0,0.0,1495.0,1495.0,1495.0,1495.0,1.6362806558609009,-0.11696185577761885,0.09044525748129753,0.02077763815010292,-0.001787179964594543,0.0034460173919796944,0.0
177,5,6.364914497680729e-06,-2.1058334823464975e-05,-3.060378730879165e-05,0.0002584433532319963,0.0005646459758281708,-7.890011329436675e-05,-0.013434091582894325,0.04919302836060524,0.0004196687659714371,-0.003900369396433234,-0.006301982793956995,-7.908139377832413e-05,0.0,0.0,0.0,0.0011361908400431275,0.0004532719904091209,-0.0,0.0,0.0,0.0,0.20000000298023224,-0.20000000298023224,-0.029461003839969635,1495.0,1495.0,1495.0,1495.0,0.0,0.0,0.0,0.0,0.0,0.0,0.0,0.0,1495.0,1495.0,1495.0,1495.0,1.6362806558609009,-0.11673679405710813,0.0905085487207246,0.0209490686588599,-0.001787179964594543,0.0034460173919796944,0.0
183,5,1.2046583833580371e-05,-2.739009323704522e-05,-2.908231908804737e-05,0.0007851776899769902,0.0009856693213805556,-0.00021413642389234155,-0.013434091582894325,0.04919302836060524,0.0004196687659714371,-0.003900369396433234,-0.006301982793956995,-7.908139377832413e-05,0.0,0.0,0.0,-0.0007383468910120428,0.00025528235710226,-0.0,0.0,0.0,0.0,0.20000000298023224,-0.20000000298023224,-0.029461003839969635,1495.0,1495.0,1495.0,1495.0,0.0,0.0,0.0,0.0,0.0,0.0,0.0,0.0,1495.0,1495.0,1495.0,1495.0,1.6323949098587036,-0.11675077600011495,0.08992504297316821,0.021070329640837764,-0.0010041481582447886,-0.00223405659198761,0.0
188,5,1.5576353689539246e-05,-2.648985719133634e-05,1.8330839566260693e-06,0.0007376435678452253,0.00028623943217098713,-0.0037955029401928186,-0.013457062654197216,0.04915931820869446,0.0003907450591214001,-0.0006998503813520074,0.00048268225509673357,-0.0005893642664887011,0.0,0.0,0.0,-0.0007383468910120428,0.00025528235710226,-0.0,0.0,0.0,0.0,0.20000000298023224,-0.20000000298023224,-0.007764134090393782,1495.0,1495.0,1495.0,1495.0,0.0,0.0,0.0,0.0,0.0,0.0,0.0,0.0,1495.0,1495.0,1495.0,1495.0,1.6323949098587036,-0.11671489155834594,0.09036112602536338,0.02089253438025784,-0.0010041481582447886,-0.00223405659198761,0.0
193,5,2.122512523783371e-05,-3.113651473540813e-05,-9.610932465875521e-06,0.000972909911070019,0.0006720945239067078,-0.00014491916226688772,-0.013457062654197216,0.04915931820869446,0.0003907450591214001,-0.0006998503813520074,0.00048268225509673357,-0.0005893642664887011,0.0,0.0,0.0,-0.00040276782237924635,0.000724238227121532,-0.0,0.0,0.0,0.0,0.20000000298023224,-0.20000000298023224,-0.007764134090393782,1495.0,1495.0,1495.0,1495.0,0.0,0.0,0.0,0.0,0.0,0.0,0.0,0.0,1495.0,1495.0,1495.0,1495.0,1.6341650485992432,-0.11650976736271117,0.09090047017164953,0.020899070713593575,-0.0028518664184957743,-0.001219998230226338,0.0
198,5,1.0847568773897365e-05,-3.397123873583041e-05,-1.7146407117252238e-05,-0.0008561428403481841,0.0006090050446800888,0.0008462893310934305,-0.013457062654197216,0.04915931820869446,0.0003907450591214001,-0.0006998503813520074,0.00048268225509673357,-0.0005893642664887011,0.0,0.0,0.0,-0.00040276782237924635,0.000724238227121532,-0.0,0.0,0.0,0.0,0.20000000298023224,-0.20000000298023224,-0.016072113066911697,1495.0,1495.0,1495.0,1495.0,0.0,0.0,0.0,0.0,0.0,0.0,0.0,0.0,1495.0,1495.0,1495.0,1495.0,1.6341650485992432,-0.1162307336060355,0.09025925590874341,0.02104682362867385,-0.0028518664184957743,-0.001219998230226338,0.0
203,5,6.5301692302455194e-06,-1.5696045011281967e-05,1.9738841672278795e-07,-0.0008605450857430696,-0.001949421362951398,-0.0017427398124709725,-0.013447613455355167,0.0491594597697258,0.0003892935928888619,-5.2395876991795376e-05,-0.0010757286800071597,-0.00023727967345621437,0.0,0.0,0.0,-0.0008147605694830418,-0.0007989572477526963,-0.0,0.0,0.0,0.0,0.20000000298023224,-0.20000000298023224,-0.016072113066911697,1495.0,1495.0,1495.0,1495.0,0.0,0.0,0.0,0.0,0.0,0.0,0.0,0.0,1495.0,1495.0,1495.0,1495.0,1.6366130113601685,-0.11663309243727374,0.0913005845265888,0.020644420271041835,0.0031508030369877815,-0.0024716358166188,0.0
208,5,1.2995347788091749e-05,-3.443568857619539e-05,-5.609630898106843e-05,0.0004316034319344908,0.0014689884847030044,0.006058147642761469,-0.013473903760313988,0.04918549209833145,0.0003782431303989142,-6.441736331908032e-05,-0.00039183153421618044,-0.0015082729514688253,0.0,0.0,0.0,-0.0008147605694830418,-0.0007989572477526963,-0.0,0.0,0.0,0.0,0.20000000298023224,-0.20000000298023224,-0.0015929483342915773,1495.0,1495.0,1495.0,1495.0,0.0,0.0,0.0,0.0,0.0,0.0,0.0,0.0,1495.0,1495.0,1495.0,1495.0,1.6366130113601685,-0.11692034957780291,0.09015877952129554,0.020945755718173538,0.0031508030369877815,-0.0024716358166188,0.0
213,5,2.5471354092587717e-06,-1.2001184586551972e-05,-2.775784014374949e-05,-0.001081144087947905,-0.002104545012116432,-0.0009773571509867907,-0.013473903760313988,0.04918549209833145,0.0003782431303989142,-6.441736331908032e-05,-0.00039183153421618044,-0.0015082729514688253,0.0,0.0,0.0,-0.001872711000032723,0.0004271923971828073,-0.0,0.0,0.0,0.0,0.20000000298023224,-0.20000000298023224,-0.0015929483342915773,1495.0,1495.0,1495.0,1495.0,0.0,0.0,0.0,0.0,0.0,0.0,0.0,0.0,1495.0,1495.0,1495.0,1495.0,1.6418699026107788,-0.1173622881786487,0.09023710706221076,0.020758066327941062,-0.0016901037888601422,-0.005699248518794775,0.0
218,5,-3.0782139219809324e-06,-7.095919045241317e-06,-1.3592372852144763e-05,-0.0011074995854869485,-0.0014304497744888067,-0.0020907989237457514,-0.013473903760313988,0.04918549209833145,0.0003782431303989142,-6.441736331908032e-05,-0.00039183153421618044,-0.0015082729514688253,0.0,0.0,0.0,-0.001872711000032723,0.0004271923971828073,-0.0,0.0,0.0,0.0,0.20000000298023224,-0.20000000298023224,-0.0015929483342915773,1495.0,1495.0,1495.0,1495.0,0.0,0.0,0.0,0.0,0.0,0.0,0.0,0.0,1495.0,1495.0,1495.0,1495.0,1.6418699026107788,-0.11742143079552607,0.09063500510995828,0.020473914132132537,-0.0016901037888601422,-0.005699248518794775,0.0
223,5,4.360382718004985e-06,-5.283541213429999e-06,3.134055759801413e-06,0.00044963177060708404,-0.0007896652678027749,-0.0028434910345822573,-0.013493933714926243,0.04914001002907753,0.0003734731872100383,0.0005600709700956941,0.004320323001593351,-0.0009968429803848267,0.0,0.0,0.0,-0.001872711000032723,0.0004271923971828073,-0.0,0.0,0.0,0.0,0.20000000298023224,-0.20000000298023224,-0.001846082042902708,1495.0,1495.0,1495.0,1495.0,0.0,0.0,0.0,0.0,0.0,0.0,0.0,0.0,1495.0,1495.0,1495.0,1495.0,1.6418699026107788,-0.11670636477904614,0.09092810893777012,0.02079810691356779,-0.0016901037888601422,-0.005699248518794775,0.0
228,5,9.007021617435385e-06,-2.683253842405975e-05,-2.6014562536147423e-05,0.0007374494452960789,0.0022700135596096516,0.0023604377638548613,-0.013493933714926243,0.04914001002907753,0.0003734731872100383,0.0005600709700956941,0.004320323001593351,-0.0009968429803848267,0.0,0.0,0.0,0.0009671734878793359,0.00043410764192231,-0.0,0.0,0.0,0.0,0.20000000298023224,-0.20000000298023224,-0.001846082042902708,1495.0,1495.0,1495.0,1495.0,0.0,0.0,0.0,0.0,0.0,0.0,0.0,0.0,1495.0,1495.0,1495.0,1495.0,1.6349562406539917,-0.11737191124339699,0.08993136824688791,0.0210638968162896,-0.0017102329293265939,0.0029310211539268494,0.0
233,5,1.2434866221155971e-05,-2.2749371055397205e-05,-1.0444304280099459e-05,0.0007063210941851139,0.0004180253599770367,-0.000924255873542279,-0.01350991427898407,0.04911375790834427,0.0003822476719506085,-0.004240091890096664,-0.002582492306828499,0.0030151240061968565,0.0,0.0,0.0,0.0009671734878793359,0.00043410764192231,-0.0,0.0,0.0,0.0,0.20000000298023224,-0.20000000298023224,0.0196189247071743,1495.0,1495.0,1495.0,1495.0,0.0,0.0,0.0,0.0,0.0,0.0,0.0,0.0,1495.0,1495.0,1495.0,1495.0,1.6349562406539917,-0.1173608511972229,0.09041889355852158,0.020991530390318962,-0.0017102329293265939,0.0029310211539268494,0.0
238,5,8.065905603871215e-06,-2.5169862055918202e-05,-2.1091576854814775e-05,-0.00024174692225642502,0.00045766905532218516,0.0009079704177565873,-0.01350991427898407,0.04911375790834427,0.0003822476719506085,-0.004240091890096664,-0.002582492306828499,0.0030151240061968565,0.0,0.0,0.0,-0.0005591477383859456,0.0006899427389726043,-0.0,0.0,0.0,0.0,0.20000000298023224,-0.20000000298023224,0.0196189247071743,1495.0,1495.0,1495.0,1495.0,0.0,0.0,0.0,0.0,0.0,0.0,0.0,0.0,1495.0,1495.0,1495.0,1495.0,1.634436845779419,-0.11740045191418903,0.09010041756645189,0.021158475002373667,-0.002717271214351058,-0.001693960279226303,0.0
243,5,9.201805823977338e-07,-2.761644464044366e-05,-1.0365588423155714e-05,-0.0009541857289150357,0.00047665738384239376,-0.0009239304927177727,-0.013531439006328583,0.049124304205179214,0.0003720758541021496,-0.003476679092273116,0.004951180424541235,-0.0014204428298398852,0.0,0.0,0.0,-0.0005591477383859456,0.0006899427389726043,-0.0,0.0,0.0,0.0,0.20000000298023224,-0.20000000298023224,-0.00012068254727637395,1495.0,1495.0,1495.0,1495.0,0.0,0.0,0.0,0.0,0.0,0.0,0.0,0.0,1495.0,1495.0,1495.0,1495.0,1.634436845779419,-0.1168279069019066,0.09074308851775843,0.020712085870410468,-0.002717271214351058,-0.001693960279226303,0.0
249,5,-1.0508977510426121e-07,-2.592624514363706e-05,4.813644409296103e-06,-0.0005047067534178495,-1.2160862752352841e-05,-0.0021910802461206913,-0.013531439006328583,0.049124304205179214,0.0003720758541021496,-0.003476679092273116,0.004951180424541235,-0.0014204428298398852,0.0,0.0,0.0,-0.0006396742537617683,-0.0009059116709977388,-0.0,0.0,0.0,0.0,0.20000000298023224,-0.20000000298023224,-0.00012068254727637395,1495.0,1495.0,1495.0,1495.0,0.0,0.0,0.0,0.0,0.0,0.0,0.0,0.0,1495.0,1495.0,1495.0,1495.0,1.6367794275283813,-0.11696317689313665,0.091012124011257,0.02059577076835772,0.0035729568917304277,-0.0019406960345804691,0.0
254,5,-4.869069698543171e-07,-2.8176309569971636e-05,-1.485145912738517e-05,-0.00024770075106061995,0.0002651434624567628,0.0014833803288638592,-0.013542965054512024,0.049075398594141006,0.00037809120840393007,-0.0008464988204650581,0.00576202105730772,0.0013056333409622312,0.0,0.0,0.0,-0.0006396742537617683,-0.0009059116709977388,-0.0,0.0,0.0,0.0,0.20000000298023224,-0.20000000298023224,0.00919909868389368,1495.0,1495.0,1495.0,1495.0,0.0,0.0,0.0,0.0,0.0,0.0,0.0,0.0,1495.0,1495.0,1495.0,1495.0,1.6367794275283813,-0.1170030777714574,0.09066251595962718,0.020790629103041684,0.0035729568917304277,-0.0019406960345804691,0.0
259,5,-1.1100919437012635e-06,-2.829026198014617e-05,-2.553186277509667e-05,-0.00017386249965056777,0.00011973154323641211,0.0018750005401670933,-0.013542965054512024,0.049075398594141006,0.00037809120840393007,-0.0008464988204650581,0.00576202105730772,0.0013056333409622312,0.0,0.0,0.0,-0.0003809144254773855,-0.00023716450959909707,-0.0,0.0,0.0,0.0,0.20000000298023224,-0.20000000298023224,0.00919909868389368,1495.0,1495.0,1495.0,1495.0,0.0,0.0,0.0,0.0,0.0,0.0,0.0,0.0,1495.0,1495.0,1495.0,1495.0,1.6297646760940552,-0.11646641019156172,0.09028079363359393,0.0211532419289647,0.0009313790360465646,-0.001150696654804051,0.0
264,5,-9.941857570083812e-06,-1.3106260666972958e-05,1.9758119378820993e-05,-0.0011293567949905992,-0.001774187432602048,-0.004684797488152981,-0.013548498041927814,0.049046583473682404,0.00040429571527056396,-0.0009705819538794458,-0.002467104233801365,0.0037568858824670315,0.0,0.0,0.0,-0.0003809144254773855,-0.00023716450959909707,-0.0,0.0,0.0,0.0,0.20000000298023224,-0.20000000298023224,0.019355589523911476,1495.0,1495.0,1495.0,1495.0,0.0,0.0,0.0,0.0,0.0,0.0,0.0,0.0,1495.0,1495.0,1495.0,1495.0,1.6297646760940552,-0.11712282865280849,0.09084760683462592,0.020754580619799613,0.0009313790360465646,-0.001150696654804051,0.0
269,5,1.4471922895609168e-06,-2.5143042876152322e-05,-2.112273796228692e-05,0.0009149432298727334,0.0007347388891503215,0.003031783737242222,-0.013548498041927814,0.049046583473682404,0.00040429571527056396,-0.0009705819538794458,-0.002467104233801365,0.0037568858824670315,0.0,0.0,0.0,0.002155212452635169,-0.0010808487422764301,-0.0,0.0,0.0,0.0,0.20000000298023224,-0.20000000298023224,0.019355589523911476,1495.0,1495.0,1495.0,1495.0,0.0,0.0,0.0,0.0,0.0,0.0,0.0,0.0,1495.0,1495.0,1495.0,1495.0,1.6470383405685425,-0.11742487208210241,0.09063130310379984,0.020884475096057245,0.004289626143872738,0.006579633802175522,0.0
274,5,-1.145196620200295e-05,-1.7217245840583928e-05,-6.980827038205462e-06,-0.001181921805255115,-0.000657200173009187,-0.00048431576578877866,-0.013560054823756218,0.04907234385609627,0.00040978824836201966,-0.0008041092660278082,0.0009835368255153298,0.0035693745594471693,0.0,0.0,0.0,0.002155212452635169,-0.0010808487422764301,-0.0,0.0,0.0,0.0,0.20000000298023224,-0.20000000298023224,-0.03311993181705475,1495.0,1495.0,1495.0,1495.0,0.0,0.0,0.0,0.0,0.0,0.0,0.0,0.0,1495.0,1495.0,1495.0,1495.0,1.6470383405685425,-0.11731790510772433,0.09039310002039243,0.021124348412901964,0.004289626143872738,0.006579633802175522,0.0
279,5,1.9969343156844843e-06,-3.120572273473954e-06,-1.871911808848381e-05,0.0011410993756726384,-0.0019544807728379965,0.0012148686219006777,-0.013560054823756218,0.04907234385609627,0.00040978824836201966,-0.0008041092660278082,0.0009835368255153298,0.0035693745594471693,0.0,0.0,0.0,0.0007792948163114488,-0.001137804239988327,-0.0,0.0,0.0,0.0,0.20000000298023224,-0.20000000298023224,-0.03311993181705475,1495.0,1495.0,1495.0,1495.0,0.0,0.0,0.0,0.0,0.0,0.0,0.0,0.0,1495.0,1495.0,1495.0,1495.0,1.6395295858383179,-0.11689151917594574,0.09103008754022382,0.020552215659142076,0.004495090804994106,0.0023682606406509876,0.0
284,5,1.9393435195524944e-06,-2.5969204216380604e-05,-5.919366594753228e-05,0.000449528859462589,0.0019600435625761747,0.005342893302440643,-0.01355996634811163,0.04907757416367531,0.00039111365913413465,0.0004929580609314144,0.0015578952152282,-0.0038435973692685366,0.0,0.0,0.0,0.0007792948163114488,-0.001137804239988327,-0.0,0.0,0.0,0.0,0.20000000298023224,-0.20000000298023224,0.02411341480910778,1495.0,1495.0,1495.0,1495.0,0.0,0.0,0.0,0.0,0.0,0.0,0.0,0.0,1495.0,1495.0,1495.0,1495.0,1.6395295858383179,-0.11694661571834465,0.08970601950930492,0.021300505014870914,0.004495090804994106,0.0023682606406509876,0.0
289,5,-9.687165629657102e-07,-2.4068771381280385e-05,-4.926016481476836e-05,-0.00016915565356612206,0.0005559653509408236,0.0009451369405724108,-0.01355996634811163,0.04907757416367531,0.00039111365913413465,0.0004929580609314144,0.0015578952152282,-0.0038435973692685366,0.0,0.0,0.0,-0.0024556133430451155,0.00042758550262078643,-0.0,0.0,0.0,0.0,0.20000000298023224,-0.20000000298023224,0.02411341480910778,1495.0,1495.0,1495.0,1495.0,0.0,0.0,0.0,0.0,0.0,0.0,0.0,0.0,1495.0,1495.0,1495.0,1495.0,1.6465784311294556,-0.117146534884752,0.09006173162455877,0.020830477808308608,-0.0016965082613751292,-0.007494629826396704,0.0
294,5,-7.998640285222791e-06,-1.0055697202915326e-05,1.0488957741472404e-05,-0.0009112530970014632,-0.0014591827057301998,-0.006791839841753244,-0.01355996634811163,0.04907757416367531,0.00039111365913413465,0.0004929580609314144,0.0015578952152282,-0.0038435973692685366,0.0,0.0,0.0,-0.0024556133430451155,0.00042758550262078643,-0.0,0.0,0.0,0.0,0.20000000298023224,-0.20000000298023224,0.02411341480910778,1495.0,1495.0,1495.0,1495.0,0.0,0.0,0.0,0.0,0.0,0.0,0.0,0.0,1495.0,1495.0,1495.0,1495.0,1.6465784311294556,-0.11719331022783915,0.0908785071724911,0.020630534696163234,-0.0016965082613751292,-0.007494629826396704,0.0
299,5,-3.5544146612664917e-06,-9.799166946322657e-06,-5.34671153218369e-06,0.0001688058109721169,-0.0006144566577859223,-0.0008164555765688419,-0.013550376519560814,0.0490749217569828,0.00038700347067788243,0.00030018569668754935,-0.007011952344328165,-0.002263016998767853,0.0,0.0,0.0,0.001777883036993444,-0.0008741392521187663,-0.0,0.0,0.0,0.0,0.20000000298023224,-0.20000000298023224,-0.017385974526405334,1495.0,1495.0,1495.0,1495.0,0.0,0.0,0.0,0.0,0.0,0.0,0.0,0.0,1495.0,1495.0,1495.0,1495.0,1.643174648284912,-0.11711716786886707,0.0908373347020627,0.02078658397614614,0.0034611108712852,0.005414957646280527,0.0
305,5,-3.391127393115312e-06,-2.5087583708227612e-05,-4.714302122010849e-06,8.711681584827602e-05,0.0015888272318989038,-0.0004024713416583836,-0.013550376519560814,0.0490749217569828,0.00038700347067788243,0.00030018569668754935,-0.007011952344328165,-0.002263016998767853,0.0,0.0,0.0,0.001777883036993444,-0.0008741392521187663,-0.0,0.0,0.0,0.0,0.20000000298023224,-0.20000000298023224,-0.017385974526405334,1495.0,1495.0,1495.0,1495.0,0.0,0.0,0.0,0.0,0.0,0.0,0.0,0.0,1495.0,1495.0,1495.0,1495.0,1.643174648284912,-0.11693904951129275,0.09046394260555414,0.021172558795565607,0.0034611108712852,0.005414957646280527,0.0
310,5,-7.061315500322962e-06,-1.7228729120688513e-05,2.899844002968166e-05,-0.00040557587635703385,-0.0003075316781178117,-0.004206517711281776,-0.013550376519560814,0.0490749217569828,0.00038700347067788243,0.00030018569668754935,-0.007011952344328165,-0.002263016998767853,0.0,0.0,0.0,-0.0020031528547406197,7.785644993418828e-05,-0.0,0.0,0.0,0.0,0.20000000298023224,-0.20000000298023224,-0.001208210363984108,1495.0,1495.0,1495.0,1495.0,0.0,0.0,0.0,0.0,0.0,0.0,0.0,0.0,1495.0,1495.0,1495.0,1495.0,1.6423060894012451,-0.11709194291705935,0.09115848083941054,0.020696063148044622,-0.00030810569296590984,-0.006097842939198017,0.0
315,5,-4.627544058166677e-06,-2.7965974368271418e-05,-4.570825694827363e-06,0.00012982224870938808,0.0011654568370431662,0.0023457047063857317,-0.013550376519560814,0.0490749217569828,0.00038700347067788243,0.00030018569668754935,-0.007011952344328165,-0.002263016998767853,0.0,0.0,0.0,-0.0020031528547406197,7.785644993418828e-05,-0.0,0.0,0.0,0.0,0.20000000298023224,-0.20000000298023224,-0.001208210363984108,1495.0,1495.0,1495.0,1495.0,0.0,0.0,0.0,0.0,0.0,0.0,0.0,0.0,1495.0,1495.0,1495.0,1495.0,1.6423060894012451,-0.1172978641125081,0.09053736747711144,0.02074872030281176,-0.00030810569296590984,-0.006097842939198017,0.0
320,5,-4.408149379742099e-06,-1.9040484403376468e-05,-2.3209297523862915e-06,7.825627835700288e-05,-0.000604876026045531,0.0006682943785563111,-0.013578989543020725,0.04910968616604805,0.0003857772971969098,-0.002466130070388317,-0.001178587437607348,0.0002620433224365115,0.0,0.0,0.0,-0.0014906683936715126,0.00011690167593769729,-0.0,0.0,0.0,0.0,0.20000000298023224,-0.20000000298023224,0.00548557611182332,1495.0,1495.0,1495.0,1495.0,0.0,0.0,0.0,0.0,0.0,0.0,0.0,0.0,1495.0,1495.0,1495.0,1495.0,1.6380908489227295,-0.11636357424975459,0.090886656727226,0.02048529649408611,-0.0004614345671143383,-0.004526132717728615,0.0
325,5,2.496697334208875e-06,-2.26801657845499e-05,-1.9623295884230174e-05,0.0008598840795457363,0.00019481120398268104,0.00234360178001225,-0.013578989543020725,0.04910968616604805,0.0003857772971969098,-0.002466130070388317,-0.001178587437607348,0.0002620433224365115,0.0,0.0,0.0,-0.0014906683936715126,0.00011690167593769729,-0.0,0.0,0.0,0.0,0.20000000298023224,-0.20000000298023224,0.00548557611182332,1495.0,1495.0,1495.0,1495.0,0.0,0.0,0.0,0.0,0.0,0.0,0.0,0.0,1495.0,1495.0,1495.0,1495.0,1.6380908489227295,-0.11667317945562866,0.09101621060604399,0.020713324417565033,-0.0004614345671143383,-0.004526132717728615,0.0
330,5,-1.0302948794560507e-05,-2.1717423805966973e-05,-1.7092028429033235e-05,-0.001192003837786615,-3.7604477256536484e-05,0.0006336887017823756,-0.013583115302026272,0.04913308843970299,0.00038067856803536415,-0.0009428029879927635,0.0018900386057794094,-0.0011674693087115884,0.0,0.0,0.0,-0.0002828841970767826,0.0008220503805205226,-0.0,0.0,0.0,0.0,0.20000000298023224,-0.20000000298023224,0.017834482714533806,1495.0,1495.0,1495.0,1495.0,0.0,0.0,0.0,0.0,0.0,0.0,0.0,0.0,1495.0,1495.0,1495.0,1495.0,1.6348377466201782,-0.11616655616965438,0.09062920560559194,0.020857348618603937,-0.003238358534872532,-0.000857219158206135,0.0
335,5,1.0647579529177165e-06,-2.1768160877400078e-05,-1.2308235454838723e-05,0.0008873232291080058,-8.953323231253307e-06,-0.0003205797984264791,-0.013583115302026272,0.04913308843970299,0.00038067856803536415,-0.0009428029879927635,0.0018900386057794094,-0.0011674693087115884,0.0,0.0,0.0,-0.0002828841970767826,0.0008220503805205226,-0.0,0.0,0.0,0.0,0.20000000298023224,-0.20000000298023224,0.017834482714533806,1495.0,1495.0,1495.0,1495.0,0.0,0.0,0.0,0.0,0.0,0.0,0.0,0.0,1495.0,1495.0,1495.0,1495.0,1.6348377466201782,-0.11662937218184488,0.09117269648128438,0.020938241334358197,-0.003238358534872532,-0.000857219158206135,0.0
340,5,3.0204960239643697e-06,-2.564338683441747e-05,-1.6259224139503203e-05,0.0005896178772673011,0.0004614458594005555,0.00034588671405799687,-0.013577824458479881,0.0491732582449913,0.00039717613253742456,-0.0009490566444583237,-0.004369212314486504,0.00042019892134703696,0.0,0.0,0.0,-2.9094515411998145e-05,0.0008461938123218715,-0.0,0.0,0.0,0.0,0.20000000298023224,-0.20000000298023224,0.02369580790400505,1495.0,1495.0,1495.0,1495.0,0.0,0.0,0.0,0.0,0.0,0.0,0.0,0.0,1495.0,1495.0,1495.0,1495.0,1.6347960233688354,-0.11705671276210443,0.09063305819774839,0.02099050244043611,-0.003333383472636342,-8.816237095743418e-05,0.0
345,5,-3.3486910524516134e-06,-1.3886530723539181e-05,-2.320919156773016e-05,-0.0005284553044475615,-0.001226244494318962,0.0009723507682792842,-0.013577824458479881,0.0491732582449913,0.00039717613253742456,-0.0009490566444583237,-0.004369212314486504,0.00042019892134703696,0.0,0.0,0.0,-2.9094515411998145e-05,0.0008461938123218715,-0.0,0.0,0.0,0.0,0.20000000298023224,-0.20000000298023224,0.02369580790400505,1495.0,1495.0,1495.0,1495.0,0.0,0.0,0.0,0.0,0.0,0.0,0.0,0.0,1495.0,1495.0,1495.0,1495.0,1.6347960233688354,-0.11715982663065279,0.09015767884995726,0.021082975589656702,-0.003333383472636342,-8.816237095743418e-05,0.0
350,5,4.445934791874606e-06,-3.582191129680723e-05,-4.4406526285456493e-05,0.0007239729748107493,0.0021417478565126657,0.0029326207004487514,-0.013585238717496395,0.04921590909361839,0.00040756582166068256,-0.0006095917196944356,-0.003621166106313467,0.0036616441793739796,0.0,0.0,0.0,0.0014876746572554111,-0.0005063769058324397,-0.0,0.0,0.0,0.0,0.20000000298023224,-0.20000000298023224,0.010966506786644459,1495.0,1495.0,1495.0,1495.0,0.0,0.0,0.0,0.0,0.0,0.0,0.0,0.0,1495.0,1495.0,1495.0,1495.0,1.6391559839248657,-0.11672378898593115,0.08941616611031855,0.021460914764220736,0.002000071806833148,0.004519979935139418,0.0
355,5,-3.1330732781498227e-06,-2.921235136454925e-05,-4.425299630383961e-05,-0.0006198917399160564,6.355202640406787e-05,0.001154624274931848,-0.013585238717496395,0.04921590909361839,0.00040756582166068256,-0.0006095917196944356,-0.003621166106313467,0.0036616441793739796,0.0,0.0,0.0,0.0014876746572554111,-0.0005063769058324397,-0.0,0.0,0.0,0.0,0.20000000298023224,-0.20000000298023224,0.010966506786644459,1495.0,1495.0,1495.0,1495.0,0.0,0.0,0.0,0.0,0.0,0.0,0.0,0.0,1495.0,1495.0,1495.0,1495.0,1.6391559839248657,-0.11704662700248415,0.08998680570035693,0.020993826755805665,0.002000071806833148,0.004519979935139418,0.0
360,5,-1.4888701116433367e-05,-8.509275062351662e-07,1.6880960174603388e-05,-0.0016586320707574487,-0.0033779500517994165,-0.006874225102365017,-0.013590206392109394,0.04920235648751259,0.00037769769551232457,0.0012457737466320395,0.003938137553632259,-0.004049383569508791,0.0,0.0,0.0,-0.00013259511615615338,-0.0005954190855845809,-0.0,0.0,0.0,0.0,0.20000000298023224,-0.20000000298023224,-0.039205316454172134,1495.0,1495.0,1495.0,1495.0,0.0,0.0,0.0,0.0,0.0,0.0,0.0,0.0,1495.0,1495.0,1495.0,1495.0,1.6321953535079956,-0.11689625600325441,0.09106146369403313,0.020449775600624075,0.002341783605515957,-0.00040115133742801845,0.0
365,5,-4.497505415201886e-06,-3.549452594597824e-05,-3.3797346986830235e-05,0.0005834906478412449,0.002806051867082715,0.0033317068591713905,-0.013590206392109394,0.04920235648751259,0.00037769769551232457,0.0012457737466320395,0.003938137553632259,-0.004049383569508791,0.0,0.0,0.0,-0.00013259511615615338,-0.0005954190855845809,-0.0,0.0,0.0,0.0,0.20000000298023224,-0.20000000298023224,-0.039205316454172134,1495.0,1495.0,1495.0,1495.0,0.0,0.0,0.0,0.0,0.0,0.0,0.0,0.0,1495.0,1495.0,1495.0,1495.0,1.6321953535079956,-0.11690761671025589,0.09032264270484366,0.02088186958198061,0.002341783605515957,-0.00040115133742801845,0.0
370,5,-7.774983714625705e-06,-1.806613727239892e-05,1.2896919542981777e-05,-0.0001599011739017442,-0.0009689860744401813,-0.004270629025995731,-0.013571314513683319,0.049176234751939774,0.0003743467968888581,-5.8342262491350994e-05,-0.0015645417151972651,0.0010450060945004225,0.0,0.0,0.0,-0.00349382939748466,0.0005423621041700244,-0.0,0.0,0.0,0.0,0.20000000298023224,-0.20000000298023224,0.029072456061840057,1495.0,1495.0,1495.0,1495.0,0.0,0.0,0.0,0.0,0.0,0.0,0.0,0.0,1495.0,1495.0,1495.0,1495.0,1.6553670167922974,-0.11686713158705477,0.09117457584710643,0.02050384818691173,-0.0021633803844451904,-0.010720201767981052,0.0
375,5,-4.084711235918803e-06,-1.52980846905848e-05,3.4718861570581794e-05,0.000378872238798067,-0.0007197607192210853,-0.004326884634792805,-0.013571314513683319,0.049176234751939774,0.0003743467968888581,-5.8342262491350994e-05,-0.0015645417151972651,0.0010450060945004225,0.0,0.0,0.0,-0.00349382939748466,0.0005423621041700244,-0.0,0.0,0.0,0.0,0.20000000298023224,-0.20000000298023224,0.029072456061840057,1495.0,1495.0,1495.0,1495.0,0.0,0.0,0.0,0.0,0.0,0.0,0.0,0.0,1495.0,1495.0,1495.0,1495.0,1.6553670167922974,-0.11738097062788225,0.0911552241030239,0.020721624314229883,-0.0021633803844451904,-0.010720201767981052,0.0
381,5,2.900753088397323e-06,-2.6266072381986305e-05,-6.55236681268434e-06,0.000989804626442492,0.0010282543953508139,0.00322179333306849,-0.013578083366155624,0.04917355254292488,0.0003689157892949879,-0.0026326491497457027,-0.0012856493704020977,1.2355678791209357e-06,0.0,0.0,0.0,0.0008627244387753308,0.0003551877452991903,-0.0,0.0,0.0,0.0,0.20000000298023224,-0.20000000298023224,-0.01169857382774353,1495.0,1495.0,1495.0,1495.0,0.0,0.0,0.0,0.0,0.0,0.0,0.0,0.0,1495.0,1495.0,1495.0,1495.0,1.633789300918579,-0.11722046006178942,0.09092051060586058,0.02095694929070677,-0.0013983173994347453,0.002612622221931815,0.0
386,5,2.356263166802819e-06,-3.336324152769521e-05,-2.9935003112768754e-05,0.00033058307599276304,0.0012629618868231773,0.004094633739441633,-0.013578083366155624,0.04917355254292488,0.0003689157892949879,-0.0026326491497457027,-0.0012856493704020977,1.2355678791209357e-06,0.0,0.0,0.0,0.0008627244387753308,0.0003551877452991903,-0.0,0.0,0.0,0.0,0.20000000298023224,-0.20000000298023224,-0.01169857382774353,1495.0,1495.0,1495.0,1495.0,0.0,0.0,0.0,0.0,0.0,0.0,0.0,0.0,1495.0,1495.0,1495.0,1495.0,1.633789300918579,-0.11740378457390571,0.09003275084048347,0.021215013109722996,-0.0013983173994347453,0.002612622221931815,0.0
391,5,2.2528467980009736e-06,-2.9395234378171153e-05,-2.284644688188564e-05,0.00011982324940618128,2.9024029572610743e-05,0.0007872268906794488,-0.013600284233689308,0.049181897193193436,0.00037055808934383094,-0.0015292060561478138,-0.0008336302707903087,0.0033216604497283697,0.0,0.0,0.0,-0.0016196486540138721,0.000317077967338264,-0.0,0.0,0.0,0.0,0.20000000298023224,-0.20000000298023224,0.021538736298680305,1495.0,1495.0,1495.0,1495.0,0.0,0.0,0.0,0.0,0.0,0.0,0.0,0.0,1495.0,1495.0,1495.0,1495.0,1.639525294303894,-0.11747427846559508,0.09012182883514498,0.020966781752507782,-0.0012526665814220905,-0.004922062624245882,0.0
396,5,2.6247867026540916e-06,-3.136026134598069e-05,-3.868421845254488e-05,9.256207704311237e-05,0.00024741285596974194,0.0022154233884066343,-0.013600284233689308,0.049181897193193436,0.00037055808934383094,-0.0015292060561478138,-0.0008336302707903087,0.0033216604497283697,0.0,0.0,0.0,-0.0016196486540138721,0.000317077967338264,-0.0,0.0,0.0,0.0,0.20000000298023224,-0.20000000298023224,0.021538736298680305,1495.0,1495.0,1495.0,1495.0,0.0,0.0,0.0,0.0,0.0,0.0,0.0,0.0,1495.0,1495.0,1495.0,1495.0,1.639525294303894,-0.11735025976867616,0.08978794895845497,0.021169716702517553,-0.0012526665814220905,-0.004922062624245882,0.0
401,5,-3.627461410360411e-06,-2.4223023501690477e-05,-4.797707879333757e-05,-0.0007132448954507709,-0.0007575034978799522,0.0020013125613331795,-0.013600284233689308,0.049181897193193436,0.00037055808934383094,-0.0015292060561478138,-0.0008336302707903087,0.0033216604497283697,0.0,0.0,0.0,-0.0003652694867923856,9.211954602506012e-05,-0.0,0.0,0.0,0.0,0.20000000298023224,-0.20000000298023224,0.021538736298680305,1495.0,1495.0,1495.0,1495.0,0.0,0.0,0.0,0.0,0.0,0.0,0.0,0.0,1495.0,1495.0,1495.0,1495.0,1.6288962364196777,-0.1171267251843453,0.0899180674033485,0.02105430647370541,-0.00036157391150482,-0.0011028472799807787,0.0
406,5,-5.174584885025979e-07,-1.8527058273321018e-05,-8.88556405698182e-06,8.790237188804895e-05,-0.0009865171741694212,-0.0038904568646103144,-0.013589377515017986,0.049128662794828415,0.00038363004568964243,0.003837749594822526,0.0027459904085844755,0.002252867678180337,0.0,0.0,0.0,-0.0003652694867923856,9.211954602506012e-05,-0.0,0.0,0.0,0.0,0.20000000298023224,-0.20000000298023224,0.017047395929694176,1495.0,1495.0,1495.0,1495.0,0.0,0.0,0.0,0.0,0.0,0.0,0.0,0.0,1495.0,1495.0,1495.0,1495.0,1.6288962364196777,-0.11710569742683902,0.09102317779072293,0.020971488611474416,-0.00036157391150482,-0.0011028472799807787,0.0
411,5,-4.041653028252767e-06,-2.077613135043066e-05,-1.3440774637274444e-05,-0.00038774238782934844,-0.00012471807713154703,-0.001009557512588799,-0.013589377515017986,0.049128662794828415,0.00038363004568964243,0.003837749594822526,0.0027459904085844755,0.002252867678180337,0.0,0.0,0.0,0.001185816596262157,8.292579150293022e-05,-0.0,0.0,0.0,0.0,0.20000000298023224,-0.20000000298023224,0.017047395929694176,1495.0,1495.0,1495.0,1495.0,0.0,0.0,0.0,0.0,0.0,0.0,0.0,0.0,1495.0,1495.0,1495.0,1495.0,1.6355427503585815,-0.11693561716757585,0.09064921183107702,0.020967928766207383,-0.00032681587617844343,0.0035949081648141146,0.0
416,5,-1.27674400118849e-06,3.835584720945917e-06,3.741743421414867e-05,0.00017669213411863893,-0.0030032931827008724,-0.00650680810213089,-0.013588164001703262,0.04911625012755394,0.0003776944649871439,-0.0022181165404617786,0.0007373312837444246,-0.0024577651638537645,0.0,0.0,0.0,0.001185816596262157,8.292579150293022e-05,-0.0,0.0,0.0,0.0,0.20000000298023224,-0.20000000298023224,0.023538989946246147,1495.0,1495.0,1495.0,1495.0,0.0,0.0,0.0,0.0,0.0,0.0,0.0,0.0,1495.0,1495.0,1495.0,1495.0,1.6355427503585815,-0.11749449903476504,0.09161979177282815,0.02042063472934038,-0.00032681587617844343,0.0035949081648141146,0.0
421,5,1.2580227121361531e-05,-1.8477578123565763e-05,-6.453567948483396e-06,0.0013699354603886604,0.0003961665788665414,0.0018037421396002173,-0.013588164001703262,0.04911625012755394,0.0003776944649871439,-0.0022181165404617786,0.0007373312837444246,-0.0024577651638537645,0.0,0.0,0.0,0.0036743658129125834,0.00016426166985183954,-0.0,0.0,0.0,0.0,0.20000000298023224,-0.20000000298023224,0.023538989946246147,1495.0,1495.0,1495.0,1495.0,0.0,0.0,0.0,0.0,0.0,0.0,0.0,0.0,1495.0,1495.0,1495.0,1495.0,1.6563485860824585,-0.11730316151376612,0.0906004245001211,0.02084016749384899,-0.0006555969594046474,0.011280826292932034,0.0
426,5,1.2580227121361531e-05,-1.8477578123565763e-05,-6.453567948483396e-06,0.0013699354603886604,0.0003961665788665414,0.0018037421396002173,-0.013601508922874928,0.04911205545067787,0.0003945827775169164,-0.0027218072209507227,-0.0017107462044805288,-0.0010383013868704438,0.0,0.0,0.0,0.0036743658129125834,0.00016426166985183954,-0.0,0.0,0.0,0.0,0.20000000298023224,-0.20000000298023224,0.023538989946246147,1495.0,1495.0,1495.0,1495.0,0.0,0.0,0.0,0.0,0.0,0.0,0.0,0.0,1495.0,1495.0,1495.0,1495.0,1.6563485860824585,-0.11730316151376612,0.0906004245001211,0.02084016749384899,-0.0006555969594046474,0.011280826292932034,0.0
432,5,1.3026568012719508e-05,-3.45872322213836e-05,-3.956522050430067e-05,5.619439616566524e-05,0.00030077892006374896,-0.00010868761455640197,-0.013601508922874928,0.04911205545067787,0.0003945827775169164,-0.0027218072209507227,-0.0017107462044805288,-0.0010383013868704438,0.0,0.0,0.0,-0.0005228669615462422,0.0013170914025977254,-0.0,0.0,0.0,0.0,0.20000000298023224,-0.20000000298023224,0.023538989946246147,1495.0,1495.0,1495.0,1495.0,0.0,0.0,0.0,0.0,0.0,0.0,0.0,0.0,1495.0,1495.0,1495.0,1495.0,1.6405129432678223,-0.11656569212604614,0.08987201663599353,0.021182273841152698,-0.005206516943871975,-0.001589935040101409,0.0
437,5,1.4155436474538874e-05,-9.057021088665351e-06,-8.808000529825222e-06,0.00015794199134688824,-0.002943313680589199,-0.0037343415897339582,-0.013623724691569805,0.04905332997441292,0.0003845010360237211,-0.00017328874673694372,0.0061690835282206535,-0.000498321489430964,0.0,0.0,0.0,-0.0005228669615462422,0.0013170914025977254,-0.0,0.0,0.0,0.0,0.20000000298023224,-0.20000000298023224,0.021167460829019547,1495.0,1495.0,1495.0,1495.0,0.0,0.0,0.0,0.0,0.0,0.0,0.0,0.0,1495.0,1495.0,1495.0,1495.0,1.6405129432678223,-0.11639915026116933,0.09071107889781138,0.020545571712015733,-0.005206516943871975,-0.001589935040101409,0.0
442,5,1.4155436474538874e-05,-9.057021088665351e-06,-8.808000529825222e-06,0.00015794199134688824,-0.002943313680589199,-0.0037343415897339582,-0.013623724691569805,0.04905332997441292,0.0003845010360237211,-0.00017328874673694372,0.0061690835282206535,-0.000498321489430964,0.0,0.0,0.0,0.003579694079235196,0.0001680147397564724,-0.0,0.0,0.0,0.0,0.20000000298023224,-0.20000000298023224,0.021167460829019547,1495.0,1495.0,1495.0,1495.0,0.0,0.0,0.0,0.0,0.0,0.0,0.0,0.0,1495.0,1495.0,1495.0,1495.0,1.6555534601211548,-0.11639915026116933,0.09071107889781138,0.020545571712015733,-0.0006702544633299112,0.01098489761352539,0.0
447,5,8.82558015291579e-06,-2.025804133154452e-05,-2.2100171918282285e-05,-0.0005764059606008232,0.00016679686086717993,0.00010132406168850139,-0.013622059486806393,0.04904673993587494,0.00041470269206911325,-0.0008090244373306632,-0.0027731137815862894,-0.0028894669376313686,0.0,0.0,0.0,0.003579694079235196,0.0001680147397564724,-0.0,0.0,0.0,0.0,0.20000000298023224,-0.20000000298023224,-0.0004777839931193739,1495.0,1495.0,1495.0,1495.0,0.0,0.0,0.0,0.0,0.0,0.0,0.0,0.0,1495.0,1495.0,1495.0,1495.0,1.6555534601211548,-0.11680726569392515,0.0904530179345228,0.021020937586448192,-0.0006702544633299112,0.01098489761352539,0.0
452,5,2.197373760282062e-06,-1.5770696109029814e-06,2.2080648705014028e-05,-0.0003830669156741351,-0.0015828205505385995,-0.003354306798428297,-0.013622059486806393,0.04904673993587494,0.00041470269206911325,-0.0008090244373306632,-0.0027731137815862894,-0.0028894669376313686,0.0,0.0,0.0,-0.0002445515419822186,-0.0005373292369768023,-0.0,0.0,0.0,0.0,0.20000000298023224,-0.20000000298023224,-0.0004777839931193739,1495.0,1495.0,1495.0,1495.0,0.0,0.0,0.0,0.0,0.0,0.0,0.0,0.0,1495.0,1495.0,1495.0,1495.0,1.6318227052688599,-0.11702483798007764,0.09119130136701369,0.0206136213095496,0.00211283378303051,-0.0007396937580779195,0.0
457,5,6.577945441677002e-06,-2.354099888179917e-05,-2.2322585209622048e-05,0.00037244183477014303,0.002002543304115534,0.003986665513366461,-0.013613488525152206,0.04906974732875824,0.0003929664962925017,-0.0007125092670321465,-0.004440865013748407,-0.00168931158259511,0.0,0.0,0.0,-0.0002445515419822186,-0.0005373292369768023,-0.0,0.0,0.0,0.0,0.20000000298023224,-0.20000000298023224,0.010308163240551949,1495.0,1495.0,1495.0,1495.0,0.0,0.0,0.0,0.0,0.0,0.0,0.0,0.0,1495.0,1495.0,1495.0,1495.0,1.6318227052688599,-0.11712857285522321,0.09060839031722297,0.021009605990710268,0.00211283378303051,-0.0007396937580779195,0.0
462,5,3.4659581160667585e-06,-1.6155805496964604e-05,-7.5197685873718e-06,-0.00022446174989454448,-8.520584378857166e-05,-0.0001816718140617013,-0.013613488525152206,0.04906974732875824,0.0003929664962925017,-0.0007125092670321465,-0.004440865013748407,-0.00168931158259511,0.0,0.0,0.0,-0.0025034870486706495,0.00036111907684244215,-0.0,0.0,0.0,0.0,0.20000000298023224,-0.20000000298023224,0.010308163240551949,1495.0,1495.0,1495.0,1495.0,0.0,0.0,0.0,0.0,0.0,0.0,0.0,0.0,1495.0,1495.0,1495.0,1495.0,1.6468242406845093,-0.11700094199049804,0.0905580166925769,0.02075700663044003,-0.0014330066042020917,-0.007641881704330444,0.0
467,5,2.6840477858058875e-06,-5.058523584011709e-06,2.3729298845864832e-05,-0.0001836139417719096,-0.0013657561503350735,-0.0038225569296628237,-0.013623710721731186,0.04909314587712288,0.00037729801260866225,-0.0020799224730581045,-0.006126962136477232,0.002699967473745346,0.0,0.0,0.0,-0.0025034870486706495,0.00036111907684244215,-0.0,0.0,0.0,0.0,0.20000000298023224,-0.20000000298023224,0.02683323435485363,1495.0,1495.0,1495.0,1495.0,0.0,0.0,0.0,0.0,0.0,0.0,0.0,0.0,1495.0,1495.0,1495.0,1495.0,1.6468242406845093,-0.11784953612479583,0.09102530812677871,0.02018901995967614,-0.0014330066042020917,-0.007641881704330444,0.0
472,5,-2.5128158540610457e-06,-2.0882045646430925e-05,6.565016519743949e-06,-0.0006970692193135619,0.0013525200774893165,0.0005306911771185696,-0.013623710721731186,0.04909314587712288,0.00037729801260866225,-0.0020799224730581045,-0.006126962136477232,0.002699967473745346,0.0,0.0,0.0,0.001675042905844748,-0.00017048983136191964,-0.0,0.0,0.0,0.0,0.20000000298023224,-0.20000000298023224,0.02683323435485363,1495.0,1495.0,1495.0,1495.0,0.0,0.0,0.0,0.0,0.0,0.0,0.0,0.0,1495.0,1495.0,1495.0,1495.0,1.6396777629852295,-0.11745723550190709,0.09081013449339971,0.02052047463990606,0.0006736096111126244,0.005090877413749695,0.0
477,5,-5.128180873725796e-06,-1.6971962395473383e-05,2.088821383949835e-05,-0.0005926715093664825,7.179823296610266e-05,-0.0015065072802826762,-0.013644561171531677,0.0490114763379097,0.00034932533162645996,0.00014388063573278487,-0.0016564303077757359,-1.299201358051505e-05,0.0,0.0,0.0,0.001675042905844748,-0.00017048983136191964,-0.0,0.0,0.0,0.0,0.20000000298023224,-0.20000000298023224,-0.02684999629855156,1495.0,1495.0,1495.0,1495.0,0.0,0.0,0.0,0.0,0.0,0.0,0.0,0.0,1495.0,1495.0,1495.0,1495.0,1.6396777629852295,-0.11729877221305123,0.09075056568335389,0.020576421920241582,0.0006736096111126244,0.005090877413749695,0.0
482,5,-8.67059497977607e-07,-2.346159817534499e-05,2.1083093088236637e-05,0.00027426599990576506,0.0008074755896814167,-0.0006259882939048111,-0.013644561171531677,0.0490114763379097,0.00034932533162645996,0.00014388063573278487,-0.0016564303077757359,-1.299201358051505e-05,0.0,0.0,0.0,-0.00012084187619620934,-0.0005723160575143993,-0.0,0.0,0.0,0.0,0.20000000298023224,-0.20000000298023224,-0.02684999629855156,1495.0,1495.0,1495.0,1495.0,0.0,0.0,0.0,0.0,0.0,0.0,0.0,0.0,1495.0,1495.0,1495.0,1495.0,1.6319353580474854,-0.11683980363021124,0.09133384907949346,0.020561287285094758,0.0022505607921630144,-0.0003655349719338119,0.0
488,5,-7.720185749349184e-06,-3.4039170714095235e-05,-2.338818921998609e-05,-0.0007126688142307103,0.0015922990860417485,0.005086158402264118,-0.013636196032166481,0.049084268510341644,0.0003802850260399282,0.000869397132191807,-0.0077225761488080025,0.0028194740880280733,0.0,0.0,0.0,-0.00012084187619620934,-0.0005723160575143993,-0.0,0.0,0.0,0.0,0.20000000298023224,-0.20000000298023224,0.01035293098539114,1495.0,1495.0,1495.0,1495.0,0.0,0.0,0.0,0.0,0.0,0.0,0.0,0.0,1495.0,1495.0,1495.0,1495.0,1.6319353580474854,-0.11707198330420229,0.09062036034348761,0.020877124658718074,0.0022505607921630144,-0.0003655349719338119,0.0
493,5,6.28456018603174e-06,-1.9626557332230732e-05,-4.120337325730361e-05,0.0013955020112916827,-0.001092594233341515,0.004172285553067923,-0.013636196032166481,0.049084268510341644,0.0003802850260399282,0.000869397132191807,-0.0077225761488080025,0.0028194740880280733,0.0,0.0,0.0,-0.002021941589191556,-0.0006853135419078171,-0.0,0.0,0.0,0.0,0.20000000298023224,-0.20000000298023224,0.01035293098539114,1495.0,1495.0,1495.0,1495.0,0.0,0.0,0.0,0.0,0.0,0.0,0.0,0.0,1495.0,1495.0,1495.0,1495.0,1.644004225730896,-0.11721470269792397,0.09001301551880234,0.02080082946410023,0.0027148337103426456,-0.006161401979625225,0.0
498,5,2.329961716895923e-06,-1.696708204690367e-05,-3.054693661397323e-05,8.364897075807676e-05,-0.0007561747916042805,0.0003901415620930493,-0.013639237731695175,0.04910684749484062,0.00038880659849382937,0.0010268151527270675,-0.0009701584931463003,0.0031326012685894966,0.0,0.0,0.0,-0.002021941589191556,-0.0006853135419078171,-0.0,0.0,0.0,0.0,0.20000000298023224,-0.20000000298023224,0.005297455471009016,1495.0,1495.0,1495.0,1495.0,0.0,0.0,0.0,0.0,0.0,0.0,0.0,0.0,1495.0,1495.0,1495.0,1495.0,1.644004225730896,-0.11692204735384641,0.0905044659952513,0.02073924599681293,0.0027148337103426456,-0.006161401979625225,0.0
503,5,-3.3245034956053132e-06,-2.9123325475666206e-06,-5.582695848715957e-06,-0.0006450762157328427,-0.0019890398252755404,-0.0028396521229296923,-0.013639237731695175,0.04910684749484062,0.00038880659849382937,0.0010268151527270675,-0.0009701584931463003,0.0031326012685894966,0.0,0.0,0.0,0.0009048337815329432,8.299881301354617e-05,-0.0,0.0,0.0,0.0,0.20000000298023224,-0.20000000298023224,0.005297455471009016,1495.0,1495.0,1495.0,1495.0,0.0,0.0,0.0,0.0,0.0,0.0,0.0,0.0,1495.0,1495.0,1495.0,1495.0,1.6332341432571411,-0.11648349991309373,0.09116427176437233,0.020586661912518463,-0.0003266420098952949,0.002739212242886424,0.0
508,5,4.9856180339702405e-06,-1.0611736200871746e-07,-1.0507507795409765e-05,0.0007391840917989612,-0.001132361707277596,-0.0005448833690024912,-0.013632191345095634,0.049096886068582535,0.00040558227919973433,-0.0004809738602489233,0.00047896610340103507,0.0021852904465049505,0.0,0.0,0.0,0.0009048337815329432,8.299881301354617e-05,-0.0,0.0,0.0,0.0,0.20000000298023224,-0.20000000298023224,0.03309185430407524,1495.0,1495.0,1495.0,1495.0,0.0,0.0,0.0,0.0,0.0,0.0,0.0,0.0,1495.0,1495.0,1495.0,1495.0,1.6332341432571411,-0.11597691545946412,0.09139956434618036,0.02057686244953985,-0.0003266420098952949,0.002739212242886424,0.0
513,5,1.49753623190918e-05,-2.7967660571448505e-05,-5.408631477621384e-05,0.0014944430440664291,0.002890440635383129,0.005011503119021654,-0.013632191345095634,0.049096886068582535,0.00040558227919973433,-0.0004809738602489233,0.00047896610340103507,0.0021852904465049505,0.0,0.0,0.0,0.001396071631461382,0.0007086169207468629,-0.0,0.0,0.0,0.0,0.20000000298023224,-0.20000000298023224,0.03309185430407524,1495.0,1495.0,1495.0,1495.0,0.0,0.0,0.0,0.0,0.0,0.0,0.0,0.0,1495.0,1495.0,1495.0,1495.0,1.6395361423492432,-0.11697882072986412,0.08939573688931897,0.02119295732972404,-0.002799522364512086,0.004242647904902697,0.0
