timestamp,dt,pos_x,pos_y,pos_z,vel_x,vel_y,vel_z,roll,pitch,yaw,agv_x,agv_y,agv_z,x_ref,y_ref,z_ref,roll_ref,pitch_ref,yaw_ref,x_vel_ref,y_vel_ref,z_vel_ref,x_torque,y_torque,z_torque,w0,w1,w2,w3,u0,u1,u2,u3,m0req,m1req,m2req,m3req,thrust0,thrust1,thrust2,thrust3,thrust_ref,roll_vicon,pitch_vicon,yaw_vicon,acc_x,acc_y,acc_z
5,5,0.0,0.0,0.0,-8.01430142018944e-05,-0.0002171118976548314,0.005769501905888319,-0.02911532111465931,0.04003732651472092,0.005214390344917774,0.0011920080287382007,-0.02356170117855072,0.004436542745679617,0.0,0.0,0.0,0.000207484612474218,-7.65892764320597e-05,-0.0,0.0,0.0,0.0,0.0011674280976876616,-0.0016262988792732358,-3.9465175571962163e-10,1495.0,1495.0,1495.0,1495.0,0.0,0.0,0.0,0.0,0.0,0.0,0.0,0.0,1495.0,1495.0,1495.0,1495.0,1.6284600496292114,-0.13502850877096373,0.10542811359150417,0.03794192050415161,0.0003005363105330616,0.0008141696453094482,0.0
35,30,0.0,0.0,0.0,-0.002098127966746688,-0.009482353925704956,-0.006854860577732325,-0.02911532111465931,0.04003732651472092,0.005214390344917774,0.0011920080287382007,-0.02356170117855072,0.004436542745679617,0.0,0.0,0.0,0.000207484612474218,-7.65892764320597e-05,-0.0,0.0,0.0,0.0,0.0011674280976876616,-0.0016262988792732358,-3.9465175571962163e-10,1495.0,1495.0,1495.0,1495.0,0.0,0.0,0.0,0.0,0.0,0.0,0.0,0.0,1495.0,1495.0,1495.0,1495.0,1.6284600496292114,-0.1316696970655727,0.10957930904207808,0.03649965273263024,0.0003005363105330616,0.0008141696453094482,0.0
40,5,0.0,0.0,0.0,-0.001330662751570344,-0.008028412237763405,-0.00421932153403759,-0.02904115803539753,0.04024785757064819,0.005256466567516327,0.014252045191824436,-0.02173636667430401,0.0011339623015373945,0.0,0.0,0.0,0.000207484612474218,-7.65892764320597e-05,-0.0,0.0,0.0,0.0,0.0011675201822072268,-0.0016316806431859732,1.0520951221337782e-08,1495.0,1495.0,1495.0,1495.0,0.0,0.0,0.0,0.0,0.0,0.0,0.0,0.0,1495.0,1495.0,1495.0,1495.0,1.6284600496292114,-0.13054346901432504,0.11028651685917645,0.03636660311414415,0.0003005363105330616,0.0008141696453094482,0.0
45,5,0.0,0.0,0.0,-0.0045502688735723495,-0.008114309050142765,-0.006406568456441164,-0.02904115803539753,0.04024785757064819,0.005256466567516327,0.014252045191824436,-0.02173636667430401,0.0011339623015373945,0.0,0.0,0.0,0.009510381147265434,-0.0012125530047342181,-0.0,0.0,0.0,0.0,0.0011675201822072268,-0.0016316806431859732,1.0520951221337782e-08,1495.0,1495.0,1495.0,1495.0,0.0,0.0,0.0,0.0,0.0,0.0,0.0,0.0,1495.0,1495.0,1495.0,1495.0,1.7079154253005981,-0.13113098785446908,0.11007650260650662,0.03626184123383774,0.004989985376596451,0.030106546357274055,0.0
50,5,0.0,0.0,0.0,-0.0045502688735723495,-0.008114309050142765,-0.006406568456441164,-0.028978073969483376,0.040359240025281906,0.005250520072877407,0.004326079040765762,-0.02592417411506176,-0.004790739621967077,0.0,0.0,0.0,0.009510381147265434,-0.0012125530047342181,-0.0,0.0,0.0,0.0,0.0011676327558234334,-0.0016398634761571884,4.251421881207307e-09,1495.0,1495.0,1495.0,1495.0,0.0,0.0,0.0,0.0,0.0,0.0,0.0,0.0,1495.0,1495.0,1495.0,1495.0,1.7079154253005981,-0.13113098785446908,0.11007650260650662,0.03626184123383774,0.004989985376596451,0.030106546357274055,0.0
55,5,0.0,0.0,0.0,-0.0045502688735723495,-0.008114309050142765,-0.006406568456441164,-0.028978073969483376,0.040359240025281906,0.005250520072877407,0.004326079040765762,-0.02592417411506176,-0.004790739621967077,0.0,0.0,0.0,0.009547125548124313,-0.004118354991078377,-0.0,0.0,0.0,0.0,0.0011676327558234334,-0.0016398634761571884,4.251421881207307e-09,1495.0,1495.0,1495.0,1495.0,0.0,0.0,0.0,0.0,0.0,0.0,0.0,0.0,1495.0,1495.0,1495.0,1495.0,1.7195453643798828,-0.13113098785446908,0.11007650260650662,0.03626184123383774,0.017063507810235023,0.030428659170866013,0.0
61,5,-2.004737325478345e-05,2.8658985684160143e-05,-2.4225340894190595e-05,-0.0034958466421812773,-0.006921361666172743,-0.0037457647267729044,-0.028881004080176353,0.04064023867249489,0.005154143087565899,0.013338222168385983,-0.03418159484863281,-0.011320773512125015,0.0,0.0,0.0,0.009547125548124313,-0.004118354991078377,-0.0,0.0,0.0,0.0,0.001163192675448954,-0.001655116560868919,1.3806570109409222e-08,13312.0,13549.0,13704.0,13470.0,0.3945784568786621,0.4096294641494751,0.4196527600288391,0.4045993685722351,0.0,0.0,0.0,0.0,1495.0,1495.0,1495.0,1495.0,1.7195453643798828,-0.12695377516195458,0.11170282774522705,0.035990279409467606,0.017063507810235023,0.030428659170866013,0.0
66,5,-7.534310134360567e-05,0.00021882641885895282,0.00016207837325055152,-0.005011545028537512,-0.017770923674106598,-0.015983372926712036,-0.02878851629793644,0.040855031460523605,0.005007138010114431,0.01060901302844286,-0.02953677996993065,-0.022052600979804993,0.0,0.0,0.0,0.008264903910458088,-0.0032186268363147974,-0.0,0.0,0.0,0.0,0.001537525444291532,-0.0017150127096101642,7.252333844576242e-09,13594.0,13834.0,14035.0,13798.0,0.41252604126930237,0.4281527101993561,0.44143232703208923,0.42580434679985046,0.0,0.0,0.0,0.0,13312.0,13549.0,13704.0,13470.0,1.7045778036117554,-0.12483033110526601,0.11770405695776097,0.033719011700386076,0.01321976538747549,0.026112845167517662,0.0
74,8,-0.00010041045607067645,0.00035948690492659807,0.0002751303545664996,-0.00501270079985261,-0.023987626656889915,-0.0199595857411623,-0.02878851629793644,0.040855031460523605,0.005007138010114431,0.01060901302844286,-0.02953677996993065,-0.022052600979804993,0.0,0.0,0.0,0.008264903910458088,-0.0032186268363147974,-0.0,0.0,0.0,0.0,0.001537525444291532,-0.0017150127096101642,7.252333844576242e-09,13594.0,13834.0,14035.0,13798.0,0.41252604126930237,0.4281527101993561,0.44143232703208923,0.42580434679985046,0.0,0.0,0.0,0.0,13312.0,13549.0,13704.0,13470.0,1.7045778036117554,-0.12211390831674532,0.12098456260115915,0.031752233040665746,0.01321976538747549,0.026112845167517662,0.0
79,5,-0.00014528269821312279,0.0004840767360292375,0.0002552731311880052,-0.0044770753011107445,-0.015000495128333569,-0.0030020992271602154,-0.02857936918735504,0.04113291949033737,0.004668978042900562,-6.185032543726265e-05,-0.020549092441797256,-0.03400620445609093,0.0,0.0,0.0,0.026475364342331886,-0.004287270829081535,-0.0,0.0,0.0,0.0,0.001549475360661745,-0.00189878954552114,7.410486002612515e-09,13625.0,13887.0,14092.0,13834.0,0.41454005241394043,0.43163609504699707,0.4452327489852905,0.4281364679336548,0.0,0.0,0.0,0.0,13623.0,13888.0,14094.0,13834.0,1.873742699623108,-0.12200931375819649,0.12037568790453339,0.03156280364751166,0.019350366666913033,0.09193233400583267,0.0
84,5,-0.00017020100494846702,0.000524098810274154,0.00022289525077212602,-0.0047810273244977,-0.01080284919589758,0.002684506354853511,-0.02857936918735504,0.04113291949033737,0.004668978042900562,-6.185032543726265e-05,-0.020549092441797256,-0.03400620445609093,0.0,0.0,0.0,0.013360332697629929,-0.004468016792088747,-0.0,0.0,0.0,0.0,0.001549475360661745,-0.00189878954552114,7.410486002612515e-09,13625.0,13887.0,14092.0,13834.0,0.41454005241394043,0.43163609504699707,0.4452327489852905,0.4281364679336548,0.0,0.0,0.0,0.0,13623.0,13888.0,14094.0,13834.0,1.7524921894073486,-0.12220623897425267,0.11939665302775326,0.0317041729996266,0.018866119906306267,0.04339687526226044,-0.0
89,5,-0.00017020100494846702,0.000524098810274154,0.00022289525077212602,-0.0047810273244977,-0.01080284919589758,0.002684506354853511,-0.02857936918735504,0.04113291949033737,0.004668978042900562,-6.185032543726265e-05,-0.020549092441797256,-0.03400620445609093,0.0,0.0,0.0,0.013360332697629929,-0.004468016792088747,-0.0,0.0,0.0,0.0,0.001549475360661745,-0.00189878954552114,7.410486002612515e-09,13625.0,13887.0,14092.0,13834.0,0.41454005241394043,0.43163609504699707,0.4452327489852905,0.4281364679336548,0.0,0.0,0.0,0.0,13623.0,13888.0,14094.0,13834.0,1.7524921894073486,-0.12220623897425267,0.11939665302775326,0.0317041729996266,0.018866119906306267,0.04339687526226044,-0.0
94,5,-0.000181805036845617,0.0006381042767316103,0.000263725669356063,-0.003304894082248211,-0.01800178922712803,-0.0038258498534560204,-0.028436582535505295,0.04134590923786163,0.004353339783847332,0.005724085494875908,-0.018408769741654396,-0.04371386021375656,0.0,0.0,0.0,0.021080877631902695,-0.00305869709700346,-0.0,0.0,0.0,0.0,0.002313886070623994,-0.001987153897061944,2.3903361512367383e-09,14154.0,14420.0,14709.0,14448.0,0.44939154386520386,0.4674888253211975,0.4874799847602844,0.4693823456764221,0.0,0.0,0.0,0.0,13566.0,13834.0,14037.0,13774.0,1.8178459405899048,-0.12181425527079644,0.12014052148651634,0.030985077152090926,0.01339517068117857,0.07102248817682266,0.0
100,5,-0.00020373381266836077,0.0007759379805065691,0.00017818105698097497,-0.0023156364914029837,-0.014931702055037022,0.006191125605255365,-0.028436582535505295,0.04134590923786163,0.004353339783847332,0.005724085494875908,-0.018408769741654396,-0.04371386021375656,0.0,0.0,0.0,0.021080877631902695,-0.00305869709700346,-0.0,0.0,0.0,0.0,0.002313886070623994,-0.001987153897061944,2.3903361512367383e-09,14154.0,14420.0,14709.0,14448.0,0.44939154386520386,0.4674888253211975,0.4874799847602844,0.4693823456764221,0.0,0.0,0.0,0.0,13566.0,13834.0,14037.0,13774.0,1.8178459405899048,-0.12264898305548962,0.11775601440618583,0.031293106451933915,0.01339517068117857,0.07102248817682266,0.0
105,5,-0.00020612290245480835,0.0008851603488437831,0.00019615175551734865,-0.0012129453243687749,-0.019079364836215973,0.00031996596953831613,-0.028268001973628998,0.041600245982408524,0.0037581503856927156,0.00516551872715354,-0.013629850000143051,-0.0541725754737854,0.0,0.0,0.0,0.021080877631902695,-0.00305869709700346,-0.0,0.0,0.0,0.0,0.0018338471418246627,-0.0020396220497787,1.3018276456833178e-09,13724.0,14006.0,14242.0,13965.0,0.4209141135215759,0.4394843578338623,0.45533204078674316,0.43676167726516724,0.0,0.0,0.0,0.0,14152.0,14420.0,14711.0,14448.0,1.8178459405899048,-0.1219453610243638,0.11863729073137702,0.03068764030345234,0.01339517068117857,0.07102248817682266,0.0
110,5,-0.00021638779435306787,0.0009643452940508723,0.0001703386806184426,-0.0017169646453112364,-0.017133940011262894,0.003225555643439293,-0.028268001973628998,0.041600245982408524,0.0037581503856927156,0.00516551872715354,-0.013629850000143051,-0.0541725754737854,0.0,0.0,0.0,0.022544709965586662,-0.0012901221634820104,-0.0,0.0,0.0,0.0,0.0018338471418246627,-0.0020396220497787,1.3018276456833178e-09,13724.0,14006.0,14242.0,13965.0,0.4209141135215759,0.4394843578338623,0.45533204078674316,0.43676167726516724,0.0,0.0,0.0,0.0,14152.0,14420.0,14711.0,14448.0,1.8291667699813843,-0.1216176891484248,0.11738636563043846,0.030979803537581597,0.005684935487806797,0.07642573863267899,-0.0
115,5,-0.0002299906627740711,0.0010412799892947078,0.0001360539172310382,-0.002319131512194872,-0.01608574390411377,0.005404393654316664,-0.02815455012023449,0.04170366749167442,0.003342577489092946,0.0032477551139891148,-0.0023989835754036903,-0.051586441695690155,0.0,0.0,0.0,0.022544709965586662,-0.0012901221634820104,-0.0,0.0,0.0,0.0,0.0018759374506771564,-0.0020753617864102125,3.637671830425404e-10,13951.0,14225.0,14502.0,14233.0,0.43582531809806824,0.4542188346385956,0.47309771180152893,0.45470407605171204,0.0,0.0,0.0,0.0,13722.0,14005.0,14243.0,13965.0,1.8291667699813843,-0.12258925440728,0.11665645031818488,0.030881604879670562,0.005684935487806797,0.07642573863267899,-0.0
120,5,-0.00024739254149608314,0.0011502744164317846,0.00017530744662508368,-0.0030158774461597204,-0.019513623788952827,-0.0025486659724265337,-0.028157424181699753,0.041664060205221176,0.002283388050273061,-0.012957829982042313,0.0007149140583351254,-0.0420876070857048,0.0,0.0,0.0,0.019762912765145302,-0.002293390454724431,-0.0,0.0,0.0,0.0,0.0022415961138904095,-0.0020614436361938715,2.0978700998597333e-09,13988.0,14258.0,14548.0,14284.0,0.43827757239341736,0.4564293920993805,0.47630593180656433,0.4581538736820221,0.0,0.0,0.0,0.0,13949.0,14225.0,14504.0,14233.0,1.8036272525787354,-0.12353732295705615,0.11689863061527926,0.030404483070958093,0.009965325705707073,0.06606248766183853,-0.0
125,5,-0.00024657745962031186,0.0012230260763317347,0.00016216406947933137,-0.0011085399892181158,-0.016535649076104164,0.0005577389965765178,-0.028157424181699753,0.041664060205221176,0.002283388050273061,-0.012957829982042313,0.0007149140583351254,-0.0420876070857048,0.0,0.0,0.0,0.019762912765145302,-0.002293390454724431,-0.0,0.0,0.0,0.0,0.0022415961138904095,-0.0020614436361938715,2.0978700998597333e-09,13988.0,14258.0,14548.0,14284.0,0.43827757239341736,0.4564293920993805,0.47630593180656433,0.4581538736820221,0.0,0.0,0.0,0.0,13949.0,14225.0,14504.0,14233.0,1.8036272525787354,-0.12326136825140689,0.1160285891643154,0.030732158811553067,0.009965325705707073,0.06606248766183853,-0.0
130,5,-0.0002447747392579913,0.0013125053374096751,0.00012103587505407631,-0.00022709087352268398,-0.017351780086755753,0.0051584793254733086,-0.028157424181699753,0.041664060205221176,0.002283388050273061,-0.012957829982042313,0.0007149140583351254,-0.0420876070857048,0.0,0.0,0.0,0.020504161715507507,-0.0012659125495702028,-0.0,0.0,0.0,0.0,0.0022415961138904095,-0.0020614436361938715,2.0978700998597333e-09,13988.0,14258.0,14548.0,14284.0,0.43827757239341736,0.4564293920993805,0.47630593180656433,0.4581538736820221,0.0,0.0,0.0,0.0,13949.0,14225.0,14504.0,14233.0,1.8092703819274902,-0.12454416757127068,0.11510865629456056,0.030687390012772958,0.005517821758985519,0.06875412911176682,-0.0
136,5,-0.00022833363618701696,0.0014077789383009076,9.46473446674645e-05,0.0018820969853550196,-0.01837354153394699,0.005230015143752098,-0.028157424181699753,0.041664060205221176,0.002283388050273061,-0.012957829982042313,0.0007149140583351254,-0.0420876070857048,0.0,0.0,0.0,0.020504161715507507,-0.0012659125495702028,-0.0,0.0,0.0,0.0,0.0022415961138904095,-0.0020614436361938715,2.0978700998597333e-09,13988.0,14258.0,14548.0,14284.0,0.43827757239341736,0.4564293920993805,0.47630593180656433,0.4581538736820221,0.0,0.0,0.0,0.0,13949.0,14225.0,14504.0,14233.0,1.8092703819274902,-0.12453883385338657,0.11465976841517789,0.031167858676743033,0.005517821758985519,0.06875412911176682,-0.0
141,5,-0.0002094968076562509,0.001469517475925386,9.22844628803432e-06,0.0030132571700960398,-0.014758031815290451,0.012342274188995361,-0.028316162526607513,0.04178929328918457,0.0018565314821898937,-0.021163325756788254,-0.016337992623448372,-0.03067617118358612,0.0,0.0,0.0,0.022608190774917603,0.0013149756705388427,-0.0,0.0,0.0,0.0,0.002359539270401001,-0.0020484868437051773,-7.966297843609027e-09,13980.0,14258.0,14556.0,14283.0,0.43775537610054016,0.45643797516822815,0.4768272340297699,0.45814618468284607,0.0,0.0,0.0,0.0,13885.0,14174.0,14461.0,14179.0,1.829814076423645,-0.12694327597076976,0.11179209929857108,0.03216858816122789,-0.005796494893729687,0.07666799426078796,-0.0
146,5,-0.00019854998390655965,0.0015080973971635103,-7.642403215868399e-05,0.0025189227890223265,-0.010532810352742672,0.015215207822620869,-0.028316162526607513,0.04178929328918457,0.0018565314821898937,-0.021163325756788254,-0.016337992623448372,-0.03067617118358612,0.0,0.0,0.0,0.022608190774917603,0.0013149756705388427,-0.0,0.0,0.0,0.0,0.002359539270401001,-0.0020484868437051773,-7.966297843609027e-09,13980.0,14258.0,14556.0,14283.0,0.43775537610054016,0.45643797516822815,0.4768272340297699,0.45814618468284607,0.0,0.0,0.0,0.0,13885.0,14174.0,14461.0,14179.0,1.829814076423645,-0.13016374370402592,0.10806777507381497,0.033381031411208316,-0.005796494893729687,0.07666799426078796,-0.0
151,5,-0.0001736869744490832,0.001542146666906774,-0.00011770080891437829,0.0039911288768053055,-0.008299035020172596,0.01103929616510868,-0.02842196822166443,0.04195040836930275,0.001621281378902495,-0.01109735481441021,-0.013882124796509743,-0.03018908202648163,0.0,0.0,0.0,0.014695953577756882,0.0019733223598450422,-0.0,0.0,0.0,0.0,0.002299652202054858,-0.00214520120061934,-5.683928883115641e-09,13881.0,14174.0,14466.0,14179.0,0.43120142817497253,0.45074591040611267,0.4706117808818817,0.45106813311576843,0.0,0.0,0.0,0.0,13885.0,14174.0,14461.0,14179.0,1.7557361125946045,-0.1316240501355938,0.10677250886211977,0.03410404833745059,-0.008347607217729092,0.04782303795218468,0.0
156,5,-0.00014476112846750766,0.0015928358770906925,-0.00011587279004743323,0.005067554302513599,-0.0094023197889328,0.004196356050670147,-0.02842196822166443,0.04195040836930275,0.001621281378902495,-0.01109735481441021,-0.013882124796509743,-0.03018908202648163,0.0,0.0,0.0,0.014695953577756882,0.0019733223598450422,-0.0,0.0,0.0,0.0,0.002299652202054858,-0.00214520120061934,-5.683928883115641e-09,13881.0,14174.0,14466.0,14179.0,0.43120142817497253,0.45074591040611267,0.4706117808818817,0.45106813311576843,0.0,0.0,0.0,0.0,13885.0,14174.0,14461.0,14179.0,1.7557361125946045,-0.13222879806121898,0.1054627415679606,0.03454865529870008,-0.008347607217729092,0.04782303795218468,0.0
161,5,-0.00010388397640781477,0.0016557596391066909,-0.00011360961070749909,0.006932279095053673,-0.011311770416796207,0.0014069611206650734,-0.028453337028622627,0.04198411479592323,0.0013346468331292272,0.031199663877487183,0.014851395972073078,-0.018929289653897285,0.0,0.0,0.0,0.013556222431361675,0.004308073315769434,-0.0,0.0,0.0,0.0,0.00236059189774096,-0.0021334518678486347,-8.55539905586511e-09,13899.0,14190.0,14489.0,14204.0,0.43242180347442627,0.4518386721611023,0.47221243381500244,0.45279747247695923,0.0,0.0,0.0,0.0,13898.0,14190.0,14490.0,14205.0,1.7534092664718628,-0.13149115062754993,0.105981155941663,0.03451358283502095,-0.018200235441327095,0.044056132435798645,0.0
166,5,-4.853378777625039e-05,0.0016623123083263636,-0.0001903955708257854,0.009414934553205967,-0.0053110383450984955,0.009777099825441837,-0.028453337028622627,0.04198411479592323,0.0013346468331292272,0.031199663877487183,0.014851395972073078,-0.018929289653897285,0.0,0.0,0.0,0.013556222431361675,0.004308073315769434,-0.0,0.0,0.0,0.0,0.00236059189774096,-0.0021334518678486347,-8.55539905586511e-09,13899.0,14190.0,14489.0,14204.0,0.43242180347442627,0.4518386721611023,0.47221243381500244,0.45279747247695923,0.0,0.0,0.0,0.0,13898.0,14190.0,14490.0,14205.0,1.7534092664718628,-0.13173375025307402,0.1044252813223953,0.034927635481343526,-0.018200235441327095,0.044056132435798645,0.0
171,5,-1.0086922884511296e-05,0.0017070779576897621,-0.000165590041433461,0.008379597216844559,-0.007496285252273083,0.0009341749246232212,-0.02852708287537098,0.04184601455926895,0.0012066097697243094,-0.005020051263272762,0.03439655154943466,0.005506040528416634,0.0,0.0,0.0,0.008983584120869637,0.008318615145981312,-0.0,0.0,0.0,0.0,0.0025100482162088156,-0.0020472987089306116,2.098253348847834e-09,13973.0,14251.0,14567.0,14296.0,0.43728968501091003,0.4559197723865509,0.47761771082878113,0.45898690819740295,0.0,0.0,0.0,0.0,13971.0,14250.0,14569.0,14297.0,1.7477694749832153,-0.1328902619236634,0.10414786964794558,0.035049378956468674,-0.035031966865062714,0.029102595522999763,0.0
176,5,3.696425847010687e-05,0.001736926264129579,-0.00013080149074085057,0.008997980505228043,-0.006580309942364693,-0.0038009551353752613,-0.02852708287537098,0.04184601455926895,0.0012066097697243094,-0.005020051263272762,0.03439655154943466,0.005506040528416634,0.0,0.0,0.0,0.008983584120869637,0.008318615145981312,-0.0,0.0,0.0,0.0,0.0025100482162088156,-0.0020472987089306116,2.098253348847834e-09,13973.0,14251.0,14567.0,14296.0,0.43728968501091003,0.4559197723865509,0.47761771082878113,0.45898690819740295,0.0,0.0,0.0,0.0,13971.0,14250.0,14569.0,14297.0,1.7477694749832153,-0.1331325563670918,0.10447910712716496,0.03590666756040789,-0.035031966865062714,0.029102595522999763,0.0
181,5,0.00010084889800054953,0.0017472694162279367,-0.00014068804739508778,0.011265348643064499,-0.003873309353366494,-0.000333995558321476,-0.028738826513290405,0.04124150052666664,0.0010975387413054705,0.007774522062391043,0.06512083113193512,0.007046110462397337,0.0,0.0,0.0,0.0105388592928648,0.008026454597711563,-0.0,0.0,0.0,0.0,0.002245641313493252,-0.002018553437665105,-2.13034190288397e-09,13710.0,13990.0,14279.0,14005.0,0.42004597187042236,0.4384279251098633,0.4578213691711426,0.43944084644317627,0.0,0.0,0.0,0.0,13709.0,13990.0,14280.0,14005.0,1.754887580871582,-0.13367114063551896,0.10535328270313289,0.035845845269941744,-0.033938776701688766,0.03427968919277191,0.0
187,5,0.00016447232337668538,0.0017943214625120163,-0.0001129825395764783,0.012140950188040733,-0.007195574697107077,-0.0034582591615617275,-0.028738826513290405,0.04124150052666664,0.0010975387413054705,0.007774522062391043,0.06512083113193512,0.007046110462397337,0.0,0.0,0.0,0.0105388592928648,0.008026454597711563,-0.0,0.0,0.0,0.0,0.002245641313493252,-0.002018553437665105,-2.13034190288397e-09,13710.0,13990.0,14279.0,14005.0,0.42004597187042236,0.4384279251098633,0.4578213691711426,0.43944084644317627,0.0,0.0,0.0,0.0,13709.0,13990.0,14280.0,14005.0,1.754887580871582,-0.1334405917007292,0.10545797310246971,0.036415302839104165,-0.033938776701688766,0.03427968919277191,0.0
192,5,0.0002326628746232018,0.0018315300112590194,-0.00012046821939293295,0.013039247132837772,-0.007343255449086428,-0.0004850216209888458,-0.028637167066335678,0.04062553495168686,0.0011270891409367323,-0.0011525951558724046,0.09938295185565948,-0.020489314571022987,0.0,0.0,0.0,0.011162555776536465,0.010801083408296108,-0.0,0.0,0.0,0.0,0.0022302460856735706,-0.0019084931118413806,-5.6132790859919623e-08,13710.0,13974.0,14262.0,14003.0,0.42003464698791504,0.43738454580307007,0.456667959690094,0.4393221139907837,0.0,0.0,0.0,0.0,13708.0,13971.0,14264.0,14006.0,1.7839622497558594,-0.13452054193585392,0.1050435942188422,0.03616905066920541,-0.046426866203546524,0.03690978139638901,0.0
197,5,0.00030202249763533473,0.0018609717953950167,-0.00015451536455657333,0.013538853265345097,-0.006470314227044582,0.0038916475605219603,-0.028637167066335678,0.04062553495168686,0.0011270891409367323,-0.0011525951558724046,0.09938295185565948,-0.020489314571022987,0.0,0.0,0.0,0.011162555776536465,0.010801083408296108,-0.0,0.0,0.0,0.0,0.0022302460856735706,-0.0019084931118413806,-5.6132790859919623e-08,13710.0,13974.0,14262.0,14003.0,0.42003464698791504,0.43738454580307007,0.456667959690094,0.4393221139907837,0.0,0.0,0.0,0.0,13708.0,13971.0,14264.0,14006.0,1.7839622497558594,-0.13469175036853595,0.10518320032876001,0.03665008732426599,-0.046426866203546524,0.03690978139638901,0.0
202,5,0.00036494393134489655,0.001910337363369763,-0.00012427460751496255,0.012966112233698368,-0.008511982858181,-0.0020722313784062862,-0.028745383024215698,0.03945799916982651,0.0010787047212943435,0.00467147259041667,0.10663188993930817,-0.04449408873915672,0.0,0.0,0.0,0.010400058701634407,0.012135013937950134,-0.0,0.0,0.0,0.0,0.002243674360215664,-0.0017557985847815871,4.861510305431693e-08,13709.0,13951.0,14221.0,13984.0,0.41995856165885925,0.435828298330307,0.45392540097236633,0.43805721402168274,0.0,0.0,0.0,0.0,13708.0,13949.0,14222.0,13986.0,1.7930599451065063,-0.13442452440423294,0.10478340329720139,0.03632791330417709,-0.05242673680186272,0.034564074128866196,0.0
207,5,0.0004478574846871197,0.0019416908035054803,-0.00011727938544936478,0.015136073343455791,-0.007167206145823002,-0.0016683184076100588,-0.028745383024215698,0.03945799916982651,0.0010787047212943435,0.00467147259041667,0.10663188993930817,-0.04449408873915672,0.0,0.0,0.0,0.010400058701634407,0.012135013937950134,-0.0,0.0,0.0,0.0,0.002243674360215664,-0.0017557985847815871,4.861510305431693e-08,13709.0,13951.0,14221.0,13984.0,0.41995856165885925,0.435828298330307,0.45392540097236633,0.43805721402168274,0.0,0.0,0.0,0.0,13708.0,13949.0,14222.0,13986.0,1.7930599451065063,-0.1344393433852976,0.1061424502449618,0.035804516597674065,-0.05242673680186272,0.034564074128866196,0.0
212,5,0.0005260369507595897,0.0019673402421176434,-0.00011667968647088856,0.015435967594385147,-0.005944833159446716,-0.0007392920088022947,-0.028962647542357445,0.038714174181222916,0.0016263446304947138,0.0048505389131605625,0.09901639074087143,0.02813965640962124,0.0,0.0,0.0,0.011202479712665081,0.013562520034611225,-0.0,0.0,0.0,0.0,0.0022867415100336075,-0.00164409086573869,-3.220745981025175e-08,13727.0,13969.0,14256.0,14019.0,0.42112770676612854,0.43704620003700256,0.45631685853004456,0.44039681553840637,0.0,0.0,0.0,0.0,13730.0,13969.0,14253.0,14019.0,1.812250018119812,-0.13415597725392575,0.10573913107960871,0.0364779213311279,-0.059220194816589355,0.0376291424036026,0.0
217,5,0.0005932312924414873,0.0019883248023688793,-0.00010619072418194264,0.014237707480788231,-0.004896082915365696,-0.0015543916961178184,-0.028962647542357445,0.038714174181222916,0.0016263446304947138,0.0048505389131605625,0.09901639074087143,0.02813965640962124,0.0,0.0,0.0,0.011202479712665081,0.013562520034611225,-0.0,0.0,0.0,0.0,0.0022867415100336075,-0.00164409086573869,-3.220745981025175e-08,13727.0,13969.0,14256.0,14019.0,0.42112770676612854,0.43704620003700256,0.45631685853004456,0.44039681553840637,0.0,0.0,0.0,0.0,13730.0,13969.0,14253.0,14019.0,1.812250018119812,-0.13449191438011043,0.10672650718716903,0.036205697885410185,-0.059220194816589355,0.0376291424036026,0.0
222,5,0.0006807681056670845,0.002018851926550269,-0.00011055821232730523,0.016199497506022453,-0.005621664226055145,-9.765794675331563e-05,-0.028859512880444527,0.037598542869091034,0.0019322619773447514,0.007524860557168722,0.07456833869218826,0.12204553186893463,0.0,0.0,0.0,0.008826123550534248,0.013093780726194382,-0.0,0.0,0.0,0.0,0.0022753917146474123,-0.0015001005958765745,-2.514345531778872e-08,13885.0,14092.0,14384.0,14182.0,0.4314984381198883,0.44526877999305725,0.4650300443172455,0.4512626826763153,0.0,0.0,0.0,0.0,13842.0,14066.0,14359.0,14141.0,1.7957141399383545,-0.13369953109209445,0.1071077471590011,0.036497692326170075,-0.056653253734111786,0.029376870021224022,0.0
227,5,0.0007449322147294879,0.0020528414752334356,-8.454876660834998e-05,0.014179491437971592,-0.0063274274580180645,-0.003160196589305997,-0.028859512880444527,0.037598542869091034,0.0019322619773447514,0.007524860557168722,0.07456833869218826,0.12204553186893463,0.0,0.0,0.0,0.008826123550534248,0.013093780726194382,-0.0,0.0,0.0,0.0,0.0022753917146474123,-0.0015001005958765745,-2.514345531778872e-08,13885.0,14092.0,14384.0,14182.0,0.4314984381198883,0.44526877999305725,0.4650300443172455,0.4512626826763153,0.0,0.0,0.0,0.0,13842.0,14066.0,14359.0,14141.0,1.7957141399383545,-0.1341483832291097,0.10741893699569106,0.03627611967952114,-0.056653253734111786,0.029376870021224022,0.0
232,5,0.0008302892674691975,0.0020947610028088093,-4.726666156784631e-05,0.015914645045995712,-0.007561303209513426,-0.005737931467592716,-0.028767261654138565,0.03645085170865059,0.001819225843064487,0.008425910025835037,0.11929664760828018,0.07223917543888092,0.0,0.0,0.0,0.011805080808699131,0.014599449001252651,-0.0,0.0,0.0,0.0,0.0023551294580101967,-0.0014472408220171928,1.5373957751307898e-07,13957.0,14155.0,14455.0,14261.0,0.43627795577049255,0.4494728147983551,0.4698590934276581,0.4566401541233063,0.0,0.0,0.0,0.0,13883.0,14093.0,14387.0,14182.0,1.8265142440795898,-0.13387456686474913,0.10770965093205992,0.03550275597252423,-0.06424890458583832,0.039965223520994186,0.0
237,5,0.0008932916098274291,0.0021227472461760044,-9.267661880585365e-06,0.013926135376095772,-0.0063828714191913605,-0.006855052430182695,-0.028767261654138565,0.03645085170865059,0.001819225843064487,0.008425910025835037,0.11929664760828018,0.07223917543888092,0.0,0.0,0.0,0.011805080808699131,0.014599449001252651,-0.0,0.0,0.0,0.0,0.0023551294580101967,-0.0014472408220171928,1.5373957751307898e-07,13957.0,14155.0,14455.0,14261.0,0.43627795577049255,0.4494728147983551,0.4698590934276581,0.4566401541233063,0.0,0.0,0.0,0.0,13883.0,14093.0,14387.0,14182.0,1.8265142440795898,-0.1338712685553362,0.10772429595417526,0.03607000010942497,-0.06424890458583832,0.039965223520994186,0.0
242,5,0.0009688130230642855,0.002136328024789691,3.3796080970205367e-05,0.014633029699325562,-0.004182832781225443,-0.00790967047214508,-0.028767261654138565,0.03645085170865059,0.001819225843064487,0.008425910025835037,0.11929664760828018,0.07223917543888092,0.0,0.0,0.0,0.008243585005402565,0.013867376372218132,-0.0,0.0,0.0,0.0,0.0023551294580101967,-0.0014472408220171928,1.5373957751307898e-07,13957.0,14155.0,14455.0,14261.0,0.43627795577049255,0.4494728147983551,0.4698590934276581,0.4566401541233063,0.0,0.0,0.0,0.0,13883.0,14093.0,14387.0,14182.0,1.801934003829956,-0.13389029375282047,0.10912174629529334,0.0358426509969294,-0.06020830571651459,0.027533069252967834,0.0
247,5,0.0010202876292169094,0.0021436214447021484,1.9382616301300004e-05,0.012030163779854774,-0.002548345597460866,-0.0014342523645609617,-0.028901299461722374,0.03406485915184021,0.0029536306392401457,-0.02298545278608799,0.13421086966991425,0.015359332785010338,0.0,0.0,0.0,0.008243585005402565,0.013867376372218132,-0.0,0.0,0.0,0.0,0.0023180723655968904,-0.0014274364802986383,1.3228770967543824e-08,13899.0,14095.0,14390.0,14199.0,0.432439923286438,0.4454132914543152,0.4654214382171631,0.45243948698043823,0.0,0.0,0.0,0.0,13955.0,14154.0,14457.0,14263.0,1.801934003829956,-0.13471076790503875,0.10825654640628304,0.036621187760778516,-0.06020830571651459,0.027533069252967834,0.0
253,5,0.0010928447591140866,0.0021489434875547886,8.80076095199911e-06,0.013518917374312878,-0.001658007618971169,0.0006961217732168734,-0.028901299461722374,0.03406485915184021,0.0029536306392401457,-0.02298545278608799,0.13421086966991425,0.015359332785010338,0.0,0.0,0.0,0.008243585005402565,0.013867376372218132,-0.0,0.0,0.0,0.0,0.0023180723655968904,-0.0014274364802986383,1.3228770967543824e-08,13899.0,14095.0,14390.0,14199.0,0.432439923286438,0.4454132914543152,0.4654214382171631,0.45243948698043823,0.0,0.0,0.0,0.0,13955.0,14154.0,14457.0,14263.0,1.801934003829956,-0.13393307009485747,0.10893870819044518,0.03674333788794347,-0.06020830571651459,0.027533069252967834,0.0
258,5,0.0011873210314661264,0.0019872235134243965,-0.00023337216407526284,0.016744723543524742,0.018743211403489113,0.029339199885725975,-0.028901299461722374,0.03406485915184021,0.0029536306392401457,-0.02298545278608799,0.13421086966991425,0.015359332785010338,0.0,0.0,0.0,0.005484981462359428,0.013190208934247494,-0.0,0.0,0.0,0.0,0.002401657635346055,-0.0014348255936056376,1.3641979990097752e-07,13921.0,14112.0,14415.0,14228.0,0.4338453412055969,0.4465952515602112,0.46713292598724365,0.4543604850769043,0.0,0.0,0.0,0.0,13898.0,14092.0,14392.0,14202.0,1.7845481634140015,-0.12926526674604538,0.10963552993133142,0.039040750192935965,-0.056716930121183395,0.018142955377697945,-0.0
263,5,0.0012457837583497167,0.0019910940900444984,-0.00023896261700429022,0.013713408261537552,0.007032799068838358,0.01240653358399868,-0.028901299461722374,0.03406485915184021,0.0029536306392401457,-0.02298545278608799,0.13421086966991425,0.015359332785010338,0.0,0.0,0.0,0.005484981462359428,0.013190208934247494,-0.0,0.0,0.0,0.0,0.002401657635346055,-0.0014348255936056376,1.3641979990097752e-07,13921.0,14112.0,14415.0,14228.0,0.4338453412055969,0.4465952515602112,0.46713292598724365,0.4543604850769043,0.0,0.0,0.0,0.0,13898.0,14092.0,14392.0,14202.0,1.7845481634140015,-0.12967339535547967,0.11074847186574938,0.038872837316530365,-0.056716930121183395,0.018142955377697945,-0.0
268,5,0.0012829966144636273,0.0019494761945679784,-0.000252395257120952,0.009950913488864899,0.007807275280356407,0.006574531551450491,-0.029569733887910843,0.0313434861600399,0.004118385259062052,-0.0071075730957090855,0.11377681791782379,0.10899895429611206,0.0,0.0,0.0,-0.004622963722795248,0.013542292639613152,-0.0,0.0,0.0,0.0,0.0024175066500902176,-0.0013381167082116008,7.443249927518991e-08,13922.0,14106.0,14413.0,14234.0,0.43395912647247314,0.44614338874816895,0.4670109748840332,0.45482051372528076,0.0,0.0,0.0,0.0,13925.0,14110.0,14411.0,14230.0,1.786429524421692,-0.12990994496915437,0.11053596063871565,0.03939999337276368,-0.05829241871833801,-0.015307776629924774,0.0
273,5,0.0013245904119685292,0.0019423504127189517,-0.00016000441974028945,0.008971613831818104,0.0039780051447451115,-0.008457089774310589,-0.029569733887910843,0.0313434861600399,0.004118385259062052,-0.0071075730957090855,0.11377681791782379,0.10899895429611206,0.0,0.0,0.0,-0.004622963722795248,0.013542292639613152,-0.0,0.0,0.0,0.0,0.0024175066500902176,-0.0013381167082116008,7.443249927518991e-08,13922.0,14106.0,14413.0,14234.0,0.43395912647247314,0.44614338874816895,0.4670109748840332,0.45482051372528076,0.0,0.0,0.0,0.0,13925.0,14110.0,14411.0,14230.0,1.786429524421692,-0.13065223282455016,0.11214315831065594,0.03886756830345789,-0.05829241871833801,-0.015307776629924774,0.0
278,5,0.0013731141807511449,0.0019445061916485429,-0.00012173649156466126,0.009411502629518509,0.001332515268586576,-0.007974986918270588,-0.029507718980312347,0.029863640666007996,0.00495654484257102,0.06311091780662537,0.13125315308570862,0.07990330457687378,0.0,0.0,0.0,-0.0012779824901372194,0.009788538329303265,-0.0,0.0,0.0,0.0,0.0024226985406130552,-0.0013053870061412454,-1.2664114024119044e-07,13899.0,14079.0,14323.0,14146.0,0.4323961138725281,0.44436347484588623,0.4608043432235718,0.4488655924797058,0.0,0.0,0.0,0.0,13922.0,14105.0,14414.0,14235.0,1.7361423969268799,-0.1270732296076218,0.11396091535759939,0.03960186535956604,-0.04094942286610603,-0.004112619906663895,0.0
283,5,0.0014014149783179164,0.0020070583559572697,0.00024407356977462769,0.007160702720284462,-0.006973265670239925,-0.04708719998598099,-0.029507718980312347,0.029863640666007996,0.00495654484257102,0.06311091780662537,0.13125315308570862,0.07990330457687378,0.0,0.0,0.0,-0.0012779824901372194,0.009788538329303265,-0.0,0.0,0.0,0.0,0.0024226985406130552,-0.0013053870061412454,-1.2664114024119044e-07,13899.0,14079.0,14323.0,14146.0,0.4323961138725281,0.44436347484588623,0.4608043432235718,0.4488655924797058,0.0,0.0,0.0,0.0,13922.0,14105.0,14414.0,14235.0,1.7361423969268799,-0.11914346519230308,0.12369288146387052,0.037629357396671254,-0.04094942286610603,-0.004112619906663895,0.0
288,5,0.0014372251462191343,0.0019446794176474214,0.00035824504448100924,0.007161495741456747,0.0046961684711277485,-0.032535456120967865,-0.02617107704281807,0.02867811918258667,0.005744625814259052,0.6110912561416626,0.13028112053871155,0.0800323411822319,0.0,0.0,0.0,0.011427835561335087,0.008147419430315495,-0.0,0.0,0.0,0.0,0.0014989797491580248,-0.0011231822427362204,-3.1842812404647702e-06,13936.0,14095.0,14283.0,14133.0,0.43487513065338135,0.4454495906829834,0.4581173062324524,0.44798749685287476,0.0,0.0,0.0,0.0,13904.0,14079.0,14317.0,14146.0,1.761852741241455,-0.11853981151331841,0.12358605976786376,0.03712389484772518,-0.034586645662784576,0.03731856867671013,0.0
293,5,0.001469397684559226,0.0019383420003578067,0.0004129925218876451,0.006725297309458256,0.0026389583945274353,-0.01958388276398182,-0.02617107704281807,0.02867811918258667,0.005744625814259052,0.6110912561416626,0.13028112053871155,0.0800323411822319,0.0,0.0,0.0,0.011427835561335087,0.008147419430315495,-0.0,0.0,0.0,0.0,0.0014989797491580248,-0.0011231822427362204,-3.1842812404647702e-06,13936.0,14095.0,14283.0,14133.0,0.43487513065338135,0.4454495906829834,0.4581173062324524,0.44798749685287476,0.0,0.0,0.0,0.0,13904.0,14079.0,14317.0,14146.0,1.761852741241455,-0.11855559639523167,0.12495487632871842,0.038173668215327285,-0.034586645662784576,0.03731856867671013,0.0
298,5,0.0015102194156497717,0.0019243076676502824,0.0005044168792665005,0.007588731590658426,0.002739711431786418,-0.01880447193980217,-0.02281973324716091,0.026854246854782104,0.006756763439625502,0.05180799216032028,0.14565832912921906,0.08170349895954132,0.0,0.0,0.0,0.00028384977485984564,0.008064291439950466,-0.0,0.0,0.0,0.0,0.0017937661614269018,-0.0013409496750682592,-6.564631576111424e-07,13710.0,13899.0,14134.0,13949.0,0.4200078547000885,0.4323975145816803,0.44803425669670105,0.43570277094841003,0.0,0.0,0.0,0.0,13727.0,13909.0,14115.0,13940.0,1.7154165506362915,-0.11767366886724216,0.12666377270027143,0.03756384260901082,-0.033333659172058105,0.0009025405161082745,0.0
303,5,0.0015441165305674076,0.0018740905215963721,0.0005474446807056665,0.007103149779140949,0.007121934089809656,-0.01268512848764658,-0.02281973324716091,0.026854246854782104,0.006756763439625502,0.05180799216032028,0.14565832912921906,0.08170349895954132,0.0,0.0,0.0,0.00028384977485984564,0.008064291439950466,-0.0,0.0,0.0,0.0,0.0017937661614269018,-0.0013409496750682592,-6.564631576111424e-07,13710.0,13899.0,14134.0,13949.0,0.4200078547000885,0.4323975145816803,0.44803425669670105,0.43570277094841003,0.0,0.0,0.0,0.0,13727.0,13909.0,14115.0,13940.0,1.7154165506362915,-0.1166162224700824,0.12818911666910615,0.03741585829473576,-0.033333659172058105,0.0009025405161082745,0.0
308,5,0.0015882512088865042,0.0018198235193267465,0.000562715926207602,0.008137419819831848,0.009360812604427338,-0.0069065997377038,-0.021725105121731758,0.02552674524486065,0.00717002060264349,0.17405880987644196,0.16410405933856964,0.06645878404378891,0.0,0.0,0.0,-0.005069709848612547,0.008437576703727245,-0.0,0.0,0.0,0.0,0.00225067394785583,-0.0013434370048344135,-9.094309803003853e-07,13781.0,13967.0,14255.0,14075.0,0.42463254928588867,0.4369087815284729,0.4562208652496338,0.4440905451774597,0.0,0.0,0.0,0.0,13772.0,13966.0,14263.0,14075.0,1.7297585010528564,-0.1166867485717884,0.12817470026175698,0.0373176027776397,-0.03516773506999016,-0.016254505142569542,0.0
313,5,0.0016329940408468246,0.001809953828342259,0.000513364328071475,0.008624103851616383,0.0049287001602351665,0.0031595490872859955,-0.021725105121731758,0.02552674524486065,0.00717002060264349,0.17405880987644196,0.16410405933856964,0.06645878404378891,0.0,0.0,0.0,-0.005069709848612547,0.008437576703727245,-0.0,0.0,0.0,0.0,0.00225067394785583,-0.0013434370048344135,-9.094309803003853e-07,13781.0,13967.0,14255.0,14075.0,0.42463254928588867,0.4369087815284729,0.4562208652496338,0.4440905451774597,0.0,0.0,0.0,0.0,13772.0,13966.0,14263.0,14075.0,1.7297585010528564,-0.11574416674217966,0.12833347976223758,0.03841972277059776,-0.03516773506999016,-0.016254505142569542,0.0
319,5,0.0016623269766569138,0.0018120224121958017,0.0005685411160811782,0.00696959812194109,0.0017232500249519944,-0.005357392132282257,-0.020524997264146805,0.023604881018400192,0.007750063203275204,0.02565104328095913,0.13598833978176117,0.0433981753885746,0.0,0.0,0.0,-0.0025984637904912233,0.009872485883533955,-0.0,0.0,0.0,0.0,0.0018430836498737335,-0.0013446115190163255,-2.002186647587223e-07,13629.0,13817.0,14057.0,13873.0,0.4147690534591675,0.4270298480987549,0.4429253339767456,0.43069231510162354,0.0,0.0,0.0,0.0,13697.0,13884.0,14099.0,13915.0,1.7389243841171265,-0.11486250330650186,0.13113501151605284,0.037917953653084285,-0.04136667400598526,-0.008375389501452446,-0.0
324,5,0.0016950557474046946,0.0017631083028391004,0.0005225361092016101,0.0067152963019907475,0.006558983586728573,0.003377645742148161,-0.020524997264146805,0.023604881018400192,0.007750063203275204,0.02565104328095913,0.13598833978176117,0.0433981753885746,0.0,0.0,0.0,-0.0025984637904912233,0.009872485883533955,-0.0,0.0,0.0,0.0,0.0018430836498737335,-0.0013446115190163255,-2.002186647587223e-07,13629.0,13817.0,14057.0,13873.0,0.4147690534591675,0.4270298480987549,0.4429253339767456,0.43069231510162354,0.0,0.0,0.0,0.0,13697.0,13884.0,14099.0,13915.0,1.7389243841171265,-0.11566164098368958,0.1309257813068904,0.038275139973526606,-0.04136667400598526,-0.008375389501452446,-0.0
329,5,0.0017252431716769934,0.0017326672095805407,0.0005482527776621282,0.006308606825768948,0.006276520900428295,-0.0017349454574286938,-0.020337902009487152,0.022681325674057007,0.008119580335915089,0.08417344093322754,0.11619731038808823,0.03405658155679703,0.0,0.0,0.0,-0.004605487454682589,0.008305923081934452,-0.0,0.0,0.0,0.0,0.0016269988846033812,-0.001312554581090808,-1.4800839664985688e-07,13702.0,13884.0,14093.0,13915.0,0.41953641176223755,0.4314337372779846,0.4453229308128357,0.4334654211997986,0.0,0.0,0.0,0.0,13735.0,13909.0,14130.0,13960.0,1.7266443967819214,-0.116124853869502,0.1317961677917063,0.03778676001508693,-0.03455676510930061,-0.014739550650119781,-0.0
334,5,0.0017527374438941479,0.0017298092134296894,0.0004846472293138504,0.005822754465043545,0.0028535800520330667,0.006938687991350889,-0.020337902009487152,0.022681325674057007,0.008119580335915089,0.08417344093322754,0.11619731038808823,0.03405658155679703,0.0,0.0,0.0,-0.004605487454682589,0.008305923081934452,-0.0,0.0,0.0,0.0,0.0016269988846033812,-0.001312554581090808,-1.4800839664985688e-07,13702.0,13884.0,14093.0,13915.0,0.41953641176223755,0.4314337372779846,0.4453229308128357,0.4334654211997986,0.0,0.0,0.0,0.0,13735.0,13909.0,14130.0,13960.0,1.7266443967819214,-0.11536894915779143,0.1322162225087858,0.03901694185302605,-0.03455676510930061,-0.014739550650119781,-0.0
339,5,0.0017534903017804027,0.001745206187479198,0.0005530084599740803,0.0024194344878196716,-0.0007062065997160971,-0.005427869036793709,-0.020337902009487152,0.022681325674057007,0.008119580335915089,0.08417344093322754,0.11619731038808823,0.03405658155679703,0.0,0.0,0.0,-0.0003218490455765277,0.0076502119190990925,-0.0,0.0,0.0,0.0,0.0016269988846033812,-0.001312554581090808,-1.4800839664985688e-07,13702.0,13884.0,14093.0,13915.0,0.41953641176223755,0.4314337372779846,0.4453229308128357,0.4334654211997986,0.0,0.0,0.0,0.0,13735.0,13909.0,14130.0,13960.0,1.710637092590332,-0.11415073808053547,0.1337910627895267,0.038881780553433234,-0.031533993780612946,-0.00102051324211061,-0.0
344,5,0.001770150731317699,0.0017384198727086186,0.0005617902497760952,0.002967031206935644,0.000531865400262177,-0.0032249626237899065,-0.02017895318567753,0.021462995558977127,0.008478141389787197,-0.04224665090441704,0.08528134971857071,0.018453700467944145,0.0,0.0,0.0,-0.0003218490455765277,0.0076502119190990925,-0.0,0.0,0.0,0.0,0.0017697892617434263,-0.0012572192354127765,1.3435015944196493e-07,13731.0,13905.0,14135.0,13963.0,0.42136844992637634,0.43281546235084534,0.44810447096824646,0.4366360008716583,0.0,0.0,0.0,0.0,13730.0,13905.0,14135.0,13963.0,1.710637092590332,-0.1144651252760661,0.13374505349999358,0.039024830843289324,-0.031533993780612946,-0.00102051324211061,-0.0
349,5,0.0017747589154168963,0.001721283420920372,0.0005997921107336879,0.001739794504828751,0.0022691229823976755,-0.005850210785865784,-0.02017895318567753,0.021462995558977127,0.008478141389787197,-0.04224665090441704,0.08528134971857071,0.018453700467944145,0.0,0.0,0.0,0.0024768428411334753,0.005151445046067238,-0.0,0.0,0.0,0.0,0.0017697892617434263,-0.0012572192354127765,1.3435015944196493e-07,13731.0,13905.0,14135.0,13963.0,0.42136844992637634,0.43281546235084534,0.44810447096824646,0.4366360008716583,0.0,0.0,0.0,0.0,13730.0,13905.0,14135.0,13963.0,1.6859612464904785,-0.115956280706616,0.13294011988525428,0.038876720009643796,-0.020927883684635162,0.0077402289025485516,0.0
354,5,0.0018147104419767857,0.0017106658779084682,0.0005864387494511902,0.003972019534558058,0.00010942082735709846,0.00219399924390018,-0.020347457379102707,0.021064570173621178,0.008657505735754967,-0.0031385859474539757,0.03357577323913574,0.03156241774559021,0.0,0.0,0.0,0.0024768428411334753,0.005151445046067238,-0.0,0.0,0.0,0.0,0.0016901504714041948,-0.001341926516033709,5.184956353154746e-10,13682.0,13870.0,14090.0,13906.0,0.41824010014533997,0.4304732382297516,0.44508251547813416,0.4328485429286957,0.0,0.0,0.0,0.0,13683.0,13869.0,14089.0,13906.0,1.6859612464904785,-0.11628032940847316,0.1322752953295083,0.03967694824070119,-0.020927883684635162,0.0077402289025485516,0.0
359,5,0.0018147104419767857,0.0017106658779084682,0.0005864387494511902,0.003972019534558058,0.00010942082735709846,0.00219399924390018,-0.020347457379102707,0.021064570173621178,0.008657505735754967,-0.0031385859474539757,0.03357577323913574,0.03156241774559021,0.0,0.0,0.0,0.0029173411894589663,0.00609990581870079,-0.0,0.0,0.0,0.0,0.0016901504714041948,-0.001341926516033709,5.184956353154746e-10,13682.0,13870.0,14090.0,13906.0,0.41824010014533997,0.4304732382297516,0.44508251547813416,0.4328485429286957,0.0,0.0,0.0,0.0,13683.0,13869.0,14089.0,13906.0,1.697389006614685,-0.11628032940847316,0.1322752953295083,0.03967694824070119,-0.024948926642537117,0.009178591892123222,-0.0
365,5,0.0018236064352095127,0.0017206644406542182,0.0005666706128977239,0.002656326862052083,-0.001156049082055688,0.003249780274927616,-0.02039290964603424,0.020806362852454185,0.008896655403077602,-0.0151059003546834,5.4158772400114685e-05,0.026832615956664085,0.0,0.0,0.0,0.0029173411894589663,0.00609990581870079,-0.0,0.0,0.0,0.0,0.0020028159487992525,-0.001467393129132688,-1.3063632842147399e-08,13604.0,13800.0,14046.0,13854.0,0.41317757964134216,0.4258976876735687,0.44214102625846863,0.4294207990169525,0.0,0.0,0.0,0.0,13605.0,13800.0,14045.0,13854.0,1.697389006614685,-0.1167704245966677,0.1326577362168014,0.040020095515555916,-0.024948926642537117,0.009178591892123222,-0.0
370,5,0.0018486191984266043,0.0016896119341254234,0.0005430092569440603,0.002554333535954356,0.0030342277605086565,0.001968314405530691,-0.02039290964603424,0.020806362852454185,0.008896655403077602,-0.0151059003546834,5.4158772400114685e-05,0.026832615956664085,0.0,0.0,0.0,0.004460232798010111,0.004923799075186253,-0.0,0.0,0.0,0.0,0.0020028159487992525,-0.001467393129132688,-1.3063632842147399e-08,13604.0,13800.0,14046.0,13854.0,0.41317757964134216,0.4258976876735687,0.44214102625846863,0.4294207990169525,0.0,0.0,0.0,0.0,13605.0,13800.0,14045.0,13854.0,1.6917234659194946,-0.11934302987340834,0.1311907886163796,0.03935466714445744,-0.020071301609277725,0.013985978439450264,-0.0
375,5,0.0018519271397963166,0.0017214786494150758,0.0005635981797240674,0.001418690662831068,-0.002610313706099987,-0.0016833496047183871,-0.02030232734978199,0.020535491406917572,0.008916952647268772,-0.007493228185921907,0.034706540405750275,0.009046752005815506,0.0,0.0,0.0,0.004460232798010111,0.004923799075186253,-0.0,0.0,0.0,0.0,0.002059002174064517,-0.001437956583686173,1.2802271243117502e-08,13495.0,13702.0,13966.0,13763.0,0.4061429798603058,0.4195121228694916,0.4368375241756439,0.42346861958503723,0.0,0.0,0.0,0.0,13494.0,13702.0,13967.0,13763.0,1.6917234659194946,-0.11688704767386918,0.1331292424394841,0.03947628115826389,-0.020071301609277725,0.013985978439450264,-0.0
380,5,0.001858388539403677,0.0017027065623551607,0.000605802342761308,0.0013428471283987164,0.001208526431582868,-0.005737834610044956,-0.02030232734978199,0.020535491406917572,0.008916952647268772,-0.007493228185921907,0.034706540405750275,0.009046752005815506,0.0,0.0,0.0,0.006198458839207888,0.0038224828895181417,-0.0,0.0,0.0,0.0,0.002059002174064517,-0.001437956583686173,1.2802271243117502e-08,13495.0,13702.0,13966.0,13763.0,0.4061429798603058,0.4195121228694916,0.4368375241756439,0.42346861958503723,0.0,0.0,0.0,0.0,13494.0,13702.0,13967.0,13763.0,1.692976951599121,-0.1174434756560246,0.13344743840534282,0.03944247794692414,-0.015593337826430798,0.0194508358836174,0.0
385,5,0.001857684925198555,0.0017042033141478896,0.0006665010587312281,0.0004526992270257324,0.0003037923597730696,-0.00957898236811161,-0.020450562238693237,0.020076114684343338,0.008972834795713425,-0.0035706639755517244,0.027013923972845078,-0.010293050669133663,0.0,0.0,0.0,0.006198458839207888,0.0038224828895181417,-0.0,0.0,0.0,0.0,0.0021242103539407253,-0.0014995922101661563,-1.7149584863318523e-08,13538.0,13741.0,14010.0,13812.0,0.4089415669441223,0.42203038930892944,0.43975305557250977,0.42666399478912354,0.0,0.0,0.0,0.0,13536.0,13741.0,14012.0,13811.0,1.692976951599121,-0.1173594450039886,0.13404504780901033,0.03906113126204651,-0.015593337826430798,0.0194508358836174,0.0
390,5,0.001852236338891089,0.0016548308776691556,0.0006547754164785147,-0.000472745334263891,0.0060462141409516335,-0.002424516249448061,-0.020450562238693237,0.020076114684343338,0.008972834795713425,-0.0035706639755517244,0.027013923972845078,-0.010293050669133663,0.0,0.0,0.0,0.0027323311660438776,0.0029926877468824387,-0.0,0.0,0.0,0.0,0.0021242103539407253,-0.0014995922101661563,-1.7149584863318523e-08,13538.0,13741.0,14010.0,13812.0,0.4089415669441223,0.42203038930892944,0.43975305557250977,0.42666399478912354,0.0,0.0,0.0,0.0,13536.0,13741.0,14012.0,13811.0,1.6654469966888428,-0.12000127623688563,0.13215601037009697,0.03876200527565642,-0.012009968049824238,0.008434739895164967,0.0
395,5,0.0018486117478460073,0.0016927622491493821,0.0006621249485760927,-0.000624047068413347,-0.0021332725882530212,-0.0018517497228458524,-0.02038377895951271,0.01991831324994564,0.008913993835449219,0.016564514487981796,0.009265691041946411,-0.009214989840984344,0.0,0.0,0.0,0.0027323311660438776,0.0029926877468824387,-0.0,0.0,0.0,0.0,0.0022336707916110754,-0.001576580572873354,9.407472578715215e-10,13499.0,13722.0,14015.0,13797.0,0.40641501545906067,0.42080309987068176,0.440073698759079,0.4256851375102997,0.0,0.0,0.0,0.0,13502.0,13718.0,14002.0,13791.0,1.6654469966888428,-0.11861063515923702,0.13290968526462404,0.03903299406952258,-0.012009968049824238,0.008434739895164967,0.0
400,5,0.001840909942984581,0.0016757238190621138,0.0006237337947823107,-0.0011738438624888659,0.0011912931222468615,0.0038662380538880825,-0.02038377895951271,0.01991831324994564,0.008913993835449219,0.016564514487981796,0.009265691041946411,-0.009214989840984344,0.0,0.0,0.0,0.005633214488625526,0.0019615371711552143,-0.0,0.0,0.0,0.0,0.0022336707916110754,-0.001576580572873354,9.407472578715215e-10,13499.0,13722.0,14015.0,13797.0,0.40641501545906067,0.42080309987068176,0.440073698759079,0.4256851375102997,0.0,0.0,0.0,0.0,13502.0,13718.0,14002.0,13791.0,1.6776964664459229,-0.11929081137062104,0.13295281455244104,0.03918380090743738,-0.007929662242531776,0.0175175778567791,0.0
405,5,0.0018414569785818458,0.001646135002374649,0.0005936908419243991,-0.00040388075285591185,0.004027180839329958,0.005151650868356228,-0.02052612416446209,0.01988745853304863,0.008836496621370316,-0.01502864807844162,0.0018585387151688337,-0.01455255039036274,0.0,0.0,0.0,0.005633214488625526,0.0019615371711552143,-0.0,0.0,0.0,0.0,0.002130052074790001,-0.0016164231346920133,2.205228222251776e-09,13395.0,13625.0,13907.0,13682.0,0.39978086948394775,0.4145228862762451,0.4329427480697632,0.4182004928588867,0.0,0.0,0.0,0.0,13497.0,13721.0,14016.0,13797.0,1.6776964664459229,-0.11866311353926515,0.13265849052920317,0.03940885049792632,-0.007929662242531776,0.0175175778567791,0.0
410,5,0.0018406755989417434,0.0016342435264959931,0.0006012256490066648,-0.00025532423751428723,0.0030378529336303473,0.0011564807500690222,-0.02052612416446209,0.01988745853304863,0.008836496621370316,-0.01502864807844162,0.0018585387151688337,-0.01455255039036274,0.0,0.0,0.0,-0.0019027291564270854,0.0021885153837502003,-0.0,0.0,0.0,0.0,0.002130052074790001,-0.0016164231346920133,2.205228222251776e-09,13395.0,13625.0,13907.0,13682.0,0.39978086948394775,0.4145228862762451,0.4329427480697632,0.4182004928588867,0.0,0.0,0.0,0.0,13497.0,13721.0,14016.0,13797.0,1.654171109199524,-0.11781540203623733,0.13238658952783852,0.03902740582394292,-0.008723299950361252,-0.005833987146615982,-0.0
415,5,0.001826283521950245,0.0016724395100027323,0.0006171906716190279,-0.0018291784217581153,-0.0033683793153613806,-0.001453204546123743,-0.020481988787651062,0.01986616849899292,0.008706407621502876,-0.0015847651520743966,-0.010996364988386631,5.1888586312998086e-05,0.0,0.0,0.0,-0.0019027291564270854,0.0021885153837502003,-0.0,0.0,0.0,0.0,0.00214006076566875,-0.0016430197283625603,3.0245257409688975e-09,13430.0,13668.0,13966.0,13733.0,0.4020000994205475,0.41733500361442566,0.4368481934070587,0.421513170003891,0.0,0.0,0.0,0.0,13395.0,13625.0,13907.0,13682.0,1.654171109199524,-0.11797676334849795,0.13266315053463218,0.03903094815568995,-0.008723299950361252,-0.005833987146615982,-0.0
420,5,0.0018242874648422003,0.0016678161919116974,0.0006279813242144883,-0.0009711956372484565,-0.0007925559184513986,-0.001876162365078926,-0.020481988787651062,0.01986616849899292,0.008706407621502876,-0.0015847651520743966,-0.010996364988386631,5.1888586312998086e-05,0.0,0.0,0.0,0.007056365255266428,0.0008128934423439205,-0.0,0.0,0.0,0.0,0.00214006076566875,-0.0016430197283625603,3.0245257409688975e-09,13430.0,13668.0,13966.0,13733.0,0.4020000994205475,0.41733500361442566,0.4368481934070587,0.421513170003891,0.0,0.0,0.0,0.0,13395.0,13625.0,13907.0,13682.0,1.6859314441680908,-0.11785609626861088,0.13390572124200742,0.038980821283740544,-0.0033022849820554256,0.022050729021430016,0.0
426,5,0.0018076520645990968,0.0016453077550977468,0.00062687968602404,-0.0023847322445362806,0.002383992774412036,-0.0006182689103297889,-0.020480742678046227,0.019768347963690758,0.008660832419991493,-0.0026375283487141132,-0.003923092037439346,0.0005101097631268203,0.0,0.0,0.0,0.007056365255266428,0.0008128934423439205,-0.0,0.0,0.0,0.0,0.0022859876044094563,-0.0016949584241956472,3.433246187345418e-10,13356.0,13596.0,13859.0,13624.0,0.39730843901634216,0.4126390516757965,0.4297771155834198,0.41444650292396545,0.0,0.0,0.0,0.0,13429.0,13668.0,13967.0,13733.0,1.6859314441680908,-0.11893906446427255,0.13285361399863482,0.03855619074485387,-0.0033022849820554256,0.022050729021430016,0.0
431,5,0.0018020918359979987,0.0016485502710565925,0.0006322082481347024,-0.0016211187466979027,0.0005644889315590262,-0.0008867373690009117,-0.020480742678046227,0.019768347963690758,0.008660832419991493,-0.0026375283487141132,-0.003923092037439346,0.0005101097631268203,0.0,0.0,0.0,0.0001115111808758229,0.00028628730797208846,-0.0,0.0,0.0,0.0,0.0022859876044094563,-0.0016949584241956472,3.433246187345418e-10,13356.0,13596.0,13859.0,13624.0,0.39730843901634216,0.4126390516757965,0.4297771155834198,0.41444650292396545,0.0,0.0,0.0,0.0,13429.0,13668.0,13967.0,13733.0,1.6289300918579102,-0.11827064091065899,0.13313942759952255,0.03889856886623992,-0.0011237156577408314,0.0003366893797647208,0.0
436,5,0.0017874562181532383,0.0016216986114159226,0.0006215660832822323,-0.0024047167971730232,0.0034479983150959015,0.0009223678498528898,-0.0204766895622015,0.019880270585417747,0.008637537248432636,-0.0029826886020600796,-0.026790255680680275,-0.002137634437531233,0.0,0.0,0.0,0.0001115111808758229,0.00028628730797208846,-0.0,0.0,0.0,0.0,0.0020040457602590322,-0.0017275206046178937,5.041038697584099e-09,13448.0,13700.0,14010.0,13764.0,0.4031781554222107,0.41938865184783936,0.43978774547576904,0.42357689142227173,0.0,0.0,0.0,0.0,13354.0,13597.0,13861.0,13623.0,1.6289300918579102,-0.11840605605265525,0.13329002790025762,0.038993241246355094,-0.0011237156577408314,0.0003366893797647208,0.0
441,5,0.0017620647558942437,0.0016155807534232736,0.0006435442483052611,-0.004008868709206581,0.0021133453119546175,-0.002268433105200529,-0.0204766895622015,0.019880270585417747,0.008637537248432636,-0.0029826886020600796,-0.026790255680680275,-0.002137634437531233,0.0,0.0,0.0,-0.0012451958609744906,0.00023963140847627074,-0.0,0.0,0.0,0.0,0.0020040457602590322,-0.0017275206046178937,5.041038697584099e-09,13448.0,13700.0,14010.0,13764.0,0.4031781554222107,0.41938865184783936,0.43978774547576904,0.42357689142227173,0.0,0.0,0.0,0.0,13354.0,13597.0,13861.0,13623.0,1.6363110542297363,-0.11887694711173119,0.13344194852081692,0.03862782043008488,-0.0009448463097214699,-0.003776694880798459,-0.0
446,5,0.0017306199297308922,0.0015792185440659523,0.000664598192088306,-0.005376921501010656,0.005208802875131369,-0.0034338501282036304,-0.02038276009261608,0.020066434517502785,0.008611619472503662,0.005126067902892828,-0.03510097414255142,-0.00747684994712472,0.0,0.0,0.0,-0.0012451958609744906,0.00023963140847627074,-0.0,0.0,0.0,0.0,0.0023823275696486235,-0.0018157203448936343,1.4196508857367007e-08,13444.0,13701.0,14014.0,13763.0,0.4029099941253662,0.4194743037223816,0.44005662202835083,0.4234905242919922,0.0,0.0,0.0,0.0,13446.0,13700.0,14012.0,13764.0,1.6363110542297363,-0.11972899711295333,0.13158310512686516,0.038135666313916995,-0.0009448463097214699,-0.003776694880798459,-0.0
451,5,0.0017063755076378584,0.0016236418159678578,0.0006781159318052232,-0.005060097202658653,-0.0032472750172019005,-0.002995663322508335,-0.02038276009261608,0.020066434517502785,0.008611619472503662,0.005126067902892828,-0.03510097414255142,-0.00747684994712472,0.0,0.0,0.0,-0.0034346121829003096,-0.002617001300677657,-0.0,0.0,0.0,0.0,0.0023823275696486235,-0.0018157203448936343,1.4196508857367007e-08,13444.0,13701.0,14014.0,13763.0,0.4029099941253662,0.4194743037223816,0.44005662202835083,0.4234905242919922,0.0,0.0,0.0,0.0,13446.0,13700.0,14012.0,13764.0,1.6661317348480225,-0.1179891667496155,0.1330364646129423,0.03823541591688036,0.01050659827888012,-0.010607035830616951,0.0
456,5,0.0016850433312356472,0.0016142012318596244,0.000625812797807157,-0.0045839035883545876,-0.00016603506810497493,0.005078106187283993,-0.02038276009261608,0.020066434517502785,0.008611619472503662,0.005126067902892828,-0.03510097414255142,-0.00747684994712472,0.0,0.0,0.0,-0.0034346121829003096,-0.002617001300677657,-0.0,0.0,0.0,0.0,0.0023823275696486235,-0.0018157203448936343,1.4196508857367007e-08,13444.0,13701.0,14014.0,13763.0,0.4029099941253662,0.4194743037223816,0.44005662202835083,0.4234905242919922,0.0,0.0,0.0,0.0,13446.0,13700.0,14012.0,13764.0,1.6661317348480225,-0.11789613625270022,0.13141741915468982,0.03836837973588401,0.01050659827888012,-0.010607035830616951,0.0
461,5,0.0016850433312356472,0.0016142012318596244,0.000625812797807157,-0.0045839035883545876,-0.00016603506810497493,0.005078106187283993,-0.020395375788211823,0.020424645394086838,0.008561860769987106,-0.014290508814156055,-0.05352553352713585,-0.010735669173300266,0.0,0.0,0.0,0.003168886061757803,-0.001944771851412952,-0.0,0.0,0.0,0.0,0.0021312281023710966,-0.0018656733445823193,-2.3039652408129996e-09,13231.0,13501.0,13786.0,13522.0,0.38947761058807373,0.40655434131622314,0.4249861240386963,0.407912015914917,0.0,0.0,0.0,0.0,13264.0,13533.0,13811.0,13547.0,1.659502625465393,-0.11789613625270022,0.13141741915468982,0.03836837973588401,0.007776712533086538,0.009747467935085297,-0.0
466,5,0.0016318658599629998,0.001622747047804296,0.0006276631611399353,-0.004109043627977371,-0.0011839615181088448,0.004421982914209366,-0.020395375788211823,0.020424645394086838,0.008561860769987106,-0.014290508814156055,-0.05352553352713585,-0.010735669173300266,0.0,0.0,0.0,0.003168886061757803,-0.001944771851412952,-0.0,0.0,0.0,0.0,0.0021312281023710966,-0.0018656733445823193,-2.3039652408129996e-09,13231.0,13501.0,13786.0,13522.0,0.38947761058807373,0.40655434131622314,0.4249861240386963,0.407912015914917,0.0,0.0,0.0,0.0,13264.0,13533.0,13811.0,13547.0,1.659502625465393,-0.11782122150950829,0.13046972798450907,0.03813694166301393,0.007776712533086538,0.009747467935085297,-0.0
471,5,0.0016043313080444932,0.001595448236912489,0.0006190698477439582,-0.004947757814079523,0.002802276983857155,0.002799990586936474,-0.02032904326915741,0.02084934711456299,0.00854439940303564,-0.01640520989894867,-0.08451898396015167,-0.005694932769984007,0.0,0.0,0.0,0.003168886061757803,-0.001944771851412952,-0.0,0.0,0.0,0.0,0.0020931854378432035,-0.001931235776282847,7.292406234427062e-09,13258.0,13537.0,13816.0,13544.0,0.3911864161491394,0.408858060836792,0.4269675612449646,0.40929901599884033,0.0,0.0,0.0,0.0,13374.0,13666.0,13932.0,13646.0,1.659502625465393,-0.11797459704491083,0.1309203899487233,0.03824665206499747,0.007776712533086538,0.009747467935085297,-0.0
