timestamp,dt,pos_x,pos_y,pos_z,vel_x,vel_y,vel_z,roll,pitch,yaw,agv_x,agv_y,agv_z,x_ref,y_ref,z_ref,roll_ref,pitch_ref,yaw_ref,x_vel_ref,y_vel_ref,z_vel_ref,x_torque,y_torque,z_torque,w0,w1,w2,w3,u0,u1,u2,u3,m0req,m1req,m2req,m3req,thrust0,thrust1,thrust2,thrust3,thrust_ref,roll_vicon,pitch_vicon,yaw_vicon,acc_x,acc_y,acc_z
5,5,0.0,0.0,0.0,-0.0042932117357850075,-0.005474679172039032,0.0014953953213989735,-0.03257397562265396,0.3680447041988373,0.011191274970769882,-0.007158329710364342,-0.05117616429924965,-0.017535347491502762,0.0,0.0,0.0,0.00653041061013937,-0.003939358983188868,-0.0,0.0,0.0,0.0,0.003259329590946436,-0.036850787699222565,5.4531463788976e-09,1495.0,1495.0,1495.0,1495.0,0.0,0.0,0.0,0.0,0.0,0.0,0.0,0.0,1495.0,1495.0,1495.0,1495.0,1.6960806846618652,-2.971421430434676,0.44912990066658404,1.623652164161788,0.01609954424202442,0.02053004689514637,0.0
50,45,0.0,0.0,0.0,-0.007899526506662369,-0.004234957974404097,-0.002317756647244096,-0.03257397562265396,0.3680447041988373,0.011191274970769882,-0.007158329710364342,-0.05117616429924965,-0.017535347491502762,0.0,0.0,0.0,0.00653041061013937,-0.003939358983188868,-0.0,0.0,0.0,0.0,0.003259329590946436,-0.036850787699222565,5.4531463788976e-09,1495.0,1495.0,1495.0,1495.0,0.0,0.0,0.0,0.0,0.0,0.0,0.0,0.0,1495.0,1495.0,1495.0,1495.0,1.6960806846618652,-2.97150279710002,0.4489636977779327,1.6253524661190009,0.01609954424202442,0.02053004689514637,0.0
55,5,0.0,0.0,0.0,-0.006433461327105761,0.00257611065171659,0.004260711837559938,-0.03259938955307007,0.36850810050964355,0.01120442058891058,0.00664124172180891,-0.06775325536727905,0.006681540980935097,0.0,0.0,0.0,-0.0030733696185052395,-0.005904116667807102,-0.0,0.0,0.0,0.0,0.0032632022630423307,-0.0369025319814682,1.521238068846742e-08,1495.0,1495.0,1495.0,1495.0,0.0,0.0,0.0,0.0,0.0,0.0,0.0,0.0,1495.0,1495.0,1495.0,1495.0,1.6957963705062866,-2.9722743070138558,0.44948558119997595,1.625201248690312,0.02412547916173935,-0.009660415351390839,0.0
66,11,0.0,0.0,0.0,-0.005184391513466835,0.004294082056730986,0.0047146473079919815,-0.03259938955307007,0.36850810050964355,0.01120442058891058,0.00664124172180891,-0.06775325536727905,0.006681540980935097,0.0,0.0,0.0,-0.0030733696185052395,-0.005904116667807102,-0.0,0.0,0.0,0.0,0.0032632022630423307,-0.0369025319814682,1.521238068846742e-08,1495.0,1495.0,1495.0,1495.0,0.0,0.0,0.0,0.0,0.0,0.0,0.0,0.0,1495.0,1495.0,1495.0,1495.0,1.6957963705062866,-2.9717284402958173,0.45027430380815187,1.62457701304116,0.02412547916173935,-0.009660415351390839,0.0
71,5,0.0,0.0,0.0,-0.0036371697206050158,0.0057618385180830956,0.0015254203462973237,-0.03276591747999191,0.3693152368068695,0.011576515622437,0.008281351067125797,-0.07372378557920456,0.034136995673179626,0.0,0.0,0.0,-0.0051289768889546394,-0.004763418808579445,-0.0,0.0,0.0,0.0,0.0032632022630423307,-0.0369025319814682,1.521238068846742e-08,1495.0,1495.0,1495.0,1495.0,0.0,0.0,0.0,0.0,0.0,0.0,0.0,0.0,1495.0,1495.0,1495.0,1495.0,1.6938141584396362,-2.9732000923856514,0.4504474846683272,1.6248744759351343,0.01944146864116192,-0.016102807596325874,0.0
77,5,-7.595405804750044e-06,-3.115823710686527e-05,-4.3926024773099925e-06,-0.002366316504776478,0.006043723784387112,0.0011372803710401058,-0.03276591747999191,0.3693152368068695,0.011576515622437,0.008281351067125797,-0.07372378557920456,0.034136995673179626,0.0,0.0,0.0,-0.0051289768889546394,-0.004763418808579445,-0.0,0.0,0.0,0.0,0.0032632022630423307,-0.0369025319814682,1.521238068846742e-08,1495.0,1495.0,1495.0,1495.0,0.0,0.0,0.0,0.0,0.0,0.0,0.0,0.0,1495.0,1495.0,1495.0,1495.0,1.6938141584396362,-2.9719887527853115,0.44978384717575987,1.6244870381554706,0.01944146864116192,-0.016102807596325874,0.0
82,5,-5.612587301584426e-06,-5.35192848474253e-05,9.75379953160882e-06,-0.0007085883989930153,0.005100815556943417,-0.0012426560278981924,-0.03293541446328163,0.36986473202705383,0.011938325129449368,0.011490171775221825,-0.061235129833221436,0.03414030745625496,0.0,0.0,0.0,-0.00728183938190341,-0.002186946803703904,-0.0,0.0,0.0,0.0,0.003287674393504858,-0.03698575496673584,1.7999944645907817e-08,1495.0,1495.0,1495.0,1495.0,0.0,0.0,0.0,0.0,0.0,0.0,0.0,0.0,1495.0,1495.0,1495.0,1495.0,1.6918703317642212,-2.9715213106766813,0.4504274868802433,1.6243368881563638,0.008915492333471775,-0.02283545956015587,0.0
88,7,-2.5277104214183055e-06,-0.00011661998723866418,-1.1163693670823704e-05,8.674984565004706e-05,0.009612410329282284,0.00201303674839437,-0.03293541446328163,0.36986473202705383,0.011938325129449368,0.011490171775221825,-0.061235129833221436,0.03414030745625496,0.0,0.0,0.0,-0.011479255743324757,7.494223245885223e-05,-0.0,0.0,0.0,0.0,0.003287674393504858,-0.03698575496673584,1.7999944645907817e-08,1495.0,1495.0,1495.0,1495.0,0.0,0.0,0.0,0.0,0.0,0.0,0.0,0.0,1495.0,1495.0,1495.0,1495.0,1.7243502140045166,-2.97238266816826,0.4501845161204505,1.6247766421586636,-0.000311369018163532,-0.03668854013085365,0.0
93,5,2.938065881608054e-05,-0.00013549748109653592,-4.152048802552599e-07,0.0038637041579931974,0.0061102635227143764,-0.00048460395191796124,-0.0331525020301342,0.3705105781555176,0.012475614435970783,0.007772158831357956,-0.03336911275982857,0.03643817454576492,0.0,0.0,0.0,-0.007505427580326796,0.0035750323440879583,-0.0,0.0,0.0,0.0,0.003325067227706313,-0.037073519080877304,6.696450061127734e-10,1495.0,1495.0,1495.0,1495.0,0.0,0.0,0.0,0.0,0.0,0.0,0.0,0.0,1495.0,1495.0,1495.0,1495.0,1.7007306814193726,-2.971301270550559,0.45090822242726164,1.6241367510595168,-0.014650560915470123,-0.023659856989979744,0.0
100,6,5.025889913667925e-05,-0.00020175801182631403,-3.208464477211237e-05,0.004050870425999165,0.010395369492471218,0.003606491256505251,-0.0331525020301342,0.3705105781555176,0.012475614435970783,0.007772158831357956,-0.03336911275982857,0.03643817454576492,0.0,0.0,0.0,-0.007505427580326796,0.0035750323440879583,-0.0,0.0,0.0,0.0,0.003325067227706313,-0.037073519080877304,6.696450061127734e-10,1495.0,1495.0,1495.0,1495.0,0.0,0.0,0.0,0.0,0.0,0.0,0.0,0.0,1495.0,1495.0,1495.0,1495.0,1.7007306814193726,-2.9723760862436324,0.4499067782439748,1.624349935912575,-0.014650560915470123,-0.023659856989979744,0.0
105,5,0.00015108202933333814,-0.00023832250735722482,-3.073095649597235e-05,0.009068510495126247,0.0050254748202860355,0.0010189720196649432,-0.03325711190700531,0.370737224817276,0.012772895395755768,0.003376085078343749,0.00048283260548487306,0.03162028267979622,0.0,0.0,0.0,-0.007505427580326796,0.0035750323440879583,-0.0,0.0,0.0,0.0,0.0033341324888169765,-0.037075769156217575,5.998427532460937e-09,1495.0,1495.0,1495.0,1495.0,0.0,0.0,0.0,0.0,0.0,0.0,0.0,0.0,1495.0,1495.0,1495.0,1495.0,1.7007306814193726,-2.9727470589900453,0.44983497287700336,1.624930709994426,-0.014650560915470123,-0.023659856989979744,0.0
110,5,0.00022039975738152862,-0.0002326224057469517,-2.923043439295725e-06,0.011945531703531742,0.0013261779677122831,-0.00292936060577631,-0.03325711190700531,0.370737224817276,0.012772895395755768,0.003376085078343749,0.00048283260548487306,0.03162028267979622,0.0,0.0,0.0,-0.007505427580326796,0.0035750323440879583,-0.0,0.0,0.0,0.0,0.0033341324888169765,-0.037075769156217575,5.998427532460937e-09,1495.0,1495.0,1495.0,1495.0,0.0,0.0,0.0,0.0,0.0,0.0,0.0,0.0,1495.0,1495.0,1495.0,1495.0,1.7007306814193726,-2.9724880555161026,0.4493058740066228,1.6248123592287966,-0.014650560915470123,-0.023659856989979744,0.0
115,5,0.00031999716884456575,-0.0002419232769170776,-2.7789134037448093e-05,0.01672990433871746,0.0016465751687064767,0.0018121865577995777,-0.03335992246866226,0.3702336847782135,0.013092540204524994,-0.007172586861997843,0.08306802809238434,0.0011843813117593527,0.0,0.0,0.0,-0.0019281267886981368,0.010910375975072384,-0.0,0.0,0.0,0.0,0.0033374885097146034,-0.037023503333330154,1.652005643393295e-08,1495.0,1495.0,1495.0,1495.0,0.0,0.0,0.0,0.0,0.0,0.0,0.0,0.0,1495.0,1495.0,1495.0,1495.0,1.750087022781372,-2.972077426826698,0.45032330888678934,1.6243330554415907,-0.04600889980792999,-0.006254654377698898,0.0
120,5,0.00031999716884456575,-0.0002419232769170776,-2.7789134037448093e-05,0.01672990433871746,0.0016465751687064767,0.0018121865577995777,-0.03335992246866226,0.3702336847782135,0.013092540204524994,-0.007172586861997843,0.08306802809238434,0.0011843813117593527,0.0,0.0,0.0,-0.0019281267886981368,0.010910375975072384,-0.0,0.0,0.0,0.0,0.0033374885097146034,-0.037023503333330154,1.652005643393295e-08,1495.0,1495.0,1495.0,1495.0,0.0,0.0,0.0,0.0,0.0,0.0,0.0,0.0,1495.0,1495.0,1495.0,1495.0,1.750087022781372,-2.972077426826698,0.45032330888678934,1.6243330554415907,-0.04600889980792999,-0.006254654377698898,0.0
125,5,0.00047205318696796894,-0.00028303760336712003,-5.5797219829401e-05,0.015355711802840233,0.004134486895054579,0.0036951384972780943,-0.03327880799770355,0.368318110704422,0.012738517485558987,-0.01427790429443121,0.12817367911338806,-0.019503002986311913,0.0,0.0,0.0,-0.005136523395776749,0.013935239985585213,-0.0,0.0,0.0,0.0,0.0033171807881444693,-0.03672412782907486,8.511594273841183e-08,1495.0,1495.0,1495.0,1495.0,0.0,0.0,0.0,0.0,0.0,0.0,0.0,0.0,1495.0,1495.0,1495.0,1495.0,1.7924082279205322,-2.973368407065993,0.44937640777934856,1.6247539980591843,-0.06018433719873428,-0.017065195366740227,0.0
134,9,0.0005438943044282496,-0.0003170928102917969,-6.958717858651653e-05,0.01476321928203106,0.0057404194958508015,0.00313285063020885,-0.03327880799770355,0.368318110704422,0.012738517485558987,-0.01427790429443121,0.12817367911338806,-0.019503002986311913,0.0,0.0,0.0,-0.005136523395776749,0.013935239985585213,-0.0,0.0,0.0,0.0,0.0033171807881444693,-0.03672412782907486,8.511594273841183e-08,1495.0,1495.0,1495.0,1495.0,0.0,0.0,0.0,0.0,0.0,0.0,0.0,0.0,1495.0,1495.0,1495.0,1495.0,1.7924082279205322,-2.9728529522818663,0.44874021451391316,1.6248261204815597,-0.06018433719873428,-0.017065195366740227,0.0
139,5,0.0006551255937665701,-0.0003196433244738728,-6.0981747083133087e-05,0.019253041595220566,0.0026022293604910374,0.00022048830578569323,-0.033276647329330444,0.36665889620780945,0.01232074573636055,-0.018962912261486053,0.15202651917934418,-0.02802073024213314,0.0,0.0,0.0,-0.0033984389156103134,0.01720111258327961,-0.0,0.0,0.0,0.0,0.003316690679639578,-0.03654132038354874,7.725316208961885e-08,1495.0,1495.0,1495.0,1495.0,0.0,0.0,0.0,0.0,0.0,0.0,0.0,0.0,1495.0,1495.0,1495.0,1495.0,1.829091191291809,-2.973186922670969,0.4491766888648962,1.62473541142225,-0.07580884546041489,-0.01152184046804905,0.0
147,7,0.0008580979774706066,-0.00035087496507912874,-0.0001236049720318988,0.0192634966224432,0.0024349752347916365,0.0037165028043091297,-0.033276647329330444,0.36665889620780945,0.01232074573636055,-0.018962912261486053,0.15202651917934418,-0.02802073024213314,0.0,0.0,0.0,-0.0033984389156103134,0.01720111258327961,-0.0,0.0,0.0,0.0,0.003316690679639578,-0.03654132038354874,7.725316208961885e-08,1495.0,1495.0,1495.0,1495.0,0.0,0.0,0.0,0.0,0.0,0.0,0.0,0.0,1495.0,1495.0,1495.0,1495.0,1.829091191291809,-2.972179297842326,0.4476406222944535,1.6245627375670022,-0.07580884546041489,-0.01152184046804905,0.0
152,5,0.0009285664418712258,-0.0003602046344894916,-0.0001343307812931016,0.016161615028977394,0.0020935521461069584,0.0027736991178244352,-0.033276647329330444,0.36665889620780945,0.01232074573636055,-0.018962912261486053,0.15202651917934418,-0.02802073024213314,0.0,0.0,0.0,-0.0033984389156103134,0.01720111258327961,-0.0,0.0,0.0,0.0,0.003316690679639578,-0.03654132038354874,7.725316208961885e-08,1495.0,1495.0,1495.0,1495.0,0.0,0.0,0.0,0.0,0.0,0.0,0.0,0.0,1495.0,1495.0,1495.0,1495.0,1.829091191291809,-2.974161796402381,0.4490759292558421,1.6253888543686126,-0.07580884546041489,-0.01152184046804905,0.0
157,5,0.0009945115307345986,-0.0003179011691827327,-9.776364458957687e-05,0.014378048479557037,-0.004238995257765055,-0.0032785774674266577,-0.03328114375472069,0.36542364954948425,0.012028701603412628,-0.018238022923469543,0.1597558706998825,-0.02799494005739689,0.0,0.0,0.0,-0.0029447264969348907,0.015132025815546513,-0.0,0.0,0.0,0.0,0.0033203926868736744,-0.036413732916116714,7.818687919325384e-08,1495.0,1495.0,1495.0,1495.0,0.0,0.0,0.0,0.0,0.0,0.0,0.0,0.0,1495.0,1495.0,1495.0,1495.0,1.8025654554367065,-2.973747885589618,0.4488733195530438,1.6255356823542293,-0.06572363525629044,-0.009838828817009926,0.0
162,5,0.0010380392195656896,-0.000321430794429034,-8.512572094332427e-05,0.010974553413689137,-0.0012720453087240458,-0.002827981486916542,-0.03328114375472069,0.36542364954948425,0.012028701603412628,-0.018238022923469543,0.1597558706998825,-0.02799494005739689,0.0,0.0,0.0,-0.0029447264969348907,0.015132025815546513,-0.0,0.0,0.0,0.0,0.0033203926868736744,-0.036413732916116714,7.818687919325384e-08,1495.0,1495.0,1495.0,1495.0,0.0,0.0,0.0,0.0,0.0,0.0,0.0,0.0,1495.0,1495.0,1495.0,1495.0,1.8025654554367065,-2.974712630478092,0.44781645859519714,1.6265162940808529,-0.06572363525629044,-0.009838828817009926,0.0
167,5,0.0011158630950376391,-0.0003359418478794396,-0.00010243323049508035,0.01372868474572897,0.001232511131092906,0.000945708598010242,-0.0333414226770401,0.36355188488960266,0.011591862887144089,-0.016457609832286835,0.14104583859443665,-0.02856343239545822,0.0,0.0,0.0,0.0009222498629242182,0.011107495054602623,-0.0,0.0,0.0,0.0,0.003334002336487174,-0.03624286502599716,8.206703938640203e-08,1495.0,1495.0,1495.0,1495.0,0.0,0.0,0.0,0.0,0.0,0.0,0.0,0.0,1495.0,1495.0,1495.0,1495.0,1.7515151500701904,-2.9750908389361213,0.4466120420167478,1.626724697718573,-0.046878404915332794,0.0029941319953650236,0.0
172,5,0.0011699912138283253,-0.00034439272712916136,-8.115358650684357e-05,0.011986850760877132,0.0015071071684360504,-0.0021752743050456047,-0.0333414226770401,0.36355188488960266,0.011591862887144089,-0.016457609832286835,0.14104583859443665,-0.02856343239545822,0.0,0.0,0.0,0.0009222498629242182,0.011107495054602623,-0.0,0.0,0.0,0.0,0.003334002336487174,-0.03624286502599716,8.206703938640203e-08,1495.0,1495.0,1495.0,1495.0,0.0,0.0,0.0,0.0,0.0,0.0,0.0,0.0,1495.0,1495.0,1495.0,1495.0,1.7515151500701904,-2.975543793404301,0.4460469281700199,1.6267749570575765,-0.046878404915332794,0.0029941319953650236,0.0
177,5,0.0012235374888405204,-0.0003736262151505798,-0.00011914251081179827,0.011220290325582027,0.004110862035304308,0.0036885610315948725,-0.0334264300763607,0.36244016885757446,0.011345111764967442,-0.016253391280770302,0.12642386555671692,-0.026018798351287842,0.0,0.0,0.0,-0.0023098934907466173,0.012089529074728489,-0.0,0.0,0.0,0.0,0.0033419043757021427,-0.03614144027233124,7.041734306767466e-08,1495.0,1495.0,1495.0,1495.0,0.0,0.0,0.0,0.0,0.0,0.0,0.0,0.0,1495.0,1495.0,1495.0,1495.0,1.764636516571045,-2.9757321121898475,0.4460356113172946,1.6268413892377909,-0.051404934376478195,-0.007555358111858368,0.0
183,5,0.0012480401201173663,-0.00037615251494571567,-0.0001172730844700709,0.007428425829857588,0.0019475024892017245,0.0012510932283475995,-0.03352956473827362,0.3609480857849121,0.010943652130663395,-0.01642155647277832,0.11174190044403076,-0.030739953741431236,0.0,0.0,0.0,-0.002938930643722415,0.008371487259864807,-0.0,0.0,0.0,0.0,0.0033451812341809273,-0.03600461408495903,5.9578457722864187e-08,1495.0,1495.0,1495.0,1495.0,0.0,0.0,0.0,0.0,0.0,0.0,0.0,0.0,1495.0,1495.0,1495.0,1495.0,1.7224477529525757,-2.974067381417414,0.44548382783614426,1.6267132736686174,-0.03474510461091995,-0.009383023716509342,0.0
188,5,0.0012789095053449273,-0.00038242529262788594,-0.00012562026677187532,0.006675697397440672,0.0015317321522161365,0.0015020993305370212,-0.03352956473827362,0.3609480857849121,0.010943652130663395,-0.01642155647277832,0.11174190044403076,-0.030739953741431236,0.0,0.0,0.0,-0.002938930643722415,0.008371487259864807,-0.0,0.0,0.0,0.0,0.0033451812341809273,-0.03600461408495903,5.9578457722864187e-08,1495.0,1495.0,1495.0,1495.0,0.0,0.0,0.0,0.0,0.0,0.0,0.0,0.0,1495.0,1495.0,1495.0,1495.0,1.7224477529525757,-2.974913198953007,0.4448174920629968,1.6273922617762444,-0.03474510461091995,-0.009383023716509342,0.0
193,5,0.0013315510004758835,-0.00039601349271833897,-0.00011556797107914463,0.00898725725710392,0.002243278780952096,-0.0006054352270439267,-0.03352956473827362,0.3609480857849121,0.010943652130663395,-0.01642155647277832,0.11174190044403076,-0.030739953741431236,0.0,0.0,0.0,-0.002938930643722415,0.008371487259864807,-0.0,0.0,0.0,0.0,0.0033451812341809273,-0.03600461408495903,5.9578457722864187e-08,1495.0,1495.0,1495.0,1495.0,0.0,0.0,0.0,0.0,0.0,0.0,0.0,0.0,1495.0,1495.0,1495.0,1495.0,1.7224477529525757,-2.974681756023456,0.44481975152407316,1.6271059648674109,-0.03474510461091995,-0.009383023716509342,0.0
198,5,0.001347659039311111,-0.0004133811453357339,-7.709012425038964e-05,0.005527870263904333,0.0029814308509230614,-0.004859515931457281,-0.03353825584053993,0.36006101965904236,0.010629639029502869,-0.016547491773962975,0.09516819566488266,-0.03543459251523018,0.0,0.0,0.0,-0.003288599895313382,0.009795271791517735,-0.0,0.0,0.0,0.0,0.003349290695041418,-0.03592372685670853,5.865830132734118e-08,1495.0,1495.0,1495.0,1495.0,0.0,0.0,0.0,0.0,0.0,0.0,0.0,0.0,1495.0,1495.0,1495.0,1495.0,1.7394453287124634,-2.975818983321771,0.44390111386844355,1.6280926350972493,-0.041055358946323395,-0.01060300413519144,0.0
203,5,0.0013728021876886487,-0.00040496871224604547,-1.8182265193900093e-05,0.005228325724601746,0.00018307972641196102,-0.009012749418616295,-0.03353825584053993,0.36006101965904236,0.010629639029502869,-0.016547491773962975,0.09516819566488266,-0.03543459251523018,0.0,0.0,0.0,-0.003288599895313382,0.009795271791517735,-0.0,0.0,0.0,0.0,0.003349290695041418,-0.03592372685670853,5.865830132734118e-08,1495.0,1495.0,1495.0,1495.0,0.0,0.0,0.0,0.0,0.0,0.0,0.0,0.0,1495.0,1495.0,1495.0,1495.0,1.7394453287124634,-2.9764553466741366,0.44373001850218147,1.6284458123231995,-0.041055358946323395,-0.01060300413519144,0.0
208,5,0.0013936803443357348,-0.00041498197242617607,-1.0763036698335782e-05,0.004596705082803965,0.0012748211156576872,-0.004495406989008188,-0.03357704356312752,0.35886552929878235,0.010157263837754726,-0.01563277654349804,0.09077619016170502,-0.03130769357085228,0.0,0.0,0.0,-0.0009295627241954207,0.006640258710831404,-0.0,0.0,0.0,0.0,0.0033524257596582174,-0.03581196442246437,6.532771124057035e-08,1495.0,1495.0,1495.0,1495.0,0.0,0.0,0.0,0.0,0.0,0.0,0.0,0.0,1495.0,1495.0,1495.0,1495.0,1.6994305849075317,-2.976455201577048,0.44307670844868774,1.6286960498472522,-0.027191737666726112,-0.002928131492808461,0.0
213,5,0.0014191135996952653,-0.0004332621756475419,-1.042604708345607e-05,0.004890679847449064,0.0027035523671656847,-0.0018386015435680747,-0.03357704356312752,0.35886552929878235,0.010157263837754726,-0.01563277654349804,0.09077619016170502,-0.03130769357085228,0.0,0.0,0.0,-0.0009295627241954207,0.006640258710831404,-0.0,0.0,0.0,0.0,0.0033524257596582174,-0.03581196442246437,6.532771124057035e-08,1495.0,1495.0,1495.0,1495.0,0.0,0.0,0.0,0.0,0.0,0.0,0.0,0.0,1495.0,1495.0,1495.0,1495.0,1.6994305849075317,-2.976464040602336,0.44218889204611206,1.6291221324337684,-0.027191737666726112,-0.002928131492808461,0.0
218,5,0.0014297710731625557,-0.0004206927551422268,-7.213830599539506e-07,0.0032351675909012556,-0.0004269071505405009,-0.001900000381283462,-0.03360665962100029,0.35814112424850464,0.009800774976611137,-0.021443018689751625,0.0901816114783287,-0.03781002387404442,0.0,0.0,0.0,-0.003969575744122267,0.006377803161740303,-0.0,0.0,0.0,0.0,0.003354039741680026,-0.035738714039325714,5.324439200649067e-08,1495.0,1495.0,1495.0,1495.0,0.0,0.0,0.0,0.0,0.0,0.0,0.0,0.0,1495.0,1495.0,1495.0,1495.0,1.7039300203323364,-2.976896353357203,0.4410601790590838,1.6296219957661835,-0.026185953989624977,-0.012537251226603985,0.0
223,5,0.0014553297078236938,-0.0004325620539020747,-5.861777026439086e-06,0.004361100494861603,0.001253552152775228,-0.00014315286534838378,-0.03360665962100029,0.35814112424850464,0.009800774976611137,-0.021443018689751625,0.0901816114783287,-0.03781002387404442,0.0,0.0,0.0,-0.003969575744122267,0.006377803161740303,-0.0,0.0,0.0,0.0,0.003354039741680026,-0.035738714039325714,5.324439200649067e-08,1495.0,1495.0,1495.0,1495.0,0.0,0.0,0.0,0.0,0.0,0.0,0.0,0.0,1495.0,1495.0,1495.0,1495.0,1.7039300203323364,-2.977433494488741,0.44105992269607563,1.629735583451595,-0.026185953989624977,-0.012537251226603985,0.0
229,5,0.0014724493958055973,-0.00045426239375956357,-4.3145253584953025e-05,0.003798797959461808,0.003105461597442627,0.004416756331920624,-0.0336296446621418,0.3570431172847748,0.00926506519317627,-0.020594725385308266,0.09015399217605591,-0.03829711675643921,0.0,0.0,0.0,-0.002260079374536872,0.0059779128059744835,-0.0,0.0,0.0,0.0,0.003351944498717785,-0.035627029836177826,5.636865196834151e-08,1495.0,1495.0,1495.0,1495.0,0.0,0.0,0.0,0.0,0.0,0.0,0.0,0.0,1495.0,1495.0,1495.0,1495.0,1.694266676902771,-2.976425680063558,0.440018911911202,1.6297513646214608,-0.024405041709542274,-0.007097629830241203,0.0
234,5,0.00148045236710459,-0.0004548130673356354,-5.076967863715254e-05,0.0024798759259283543,0.0013082666555419564,0.002681633224710822,-0.0336296446621418,0.3570431172847748,0.00926506519317627,-0.020594725385308266,0.09015399217605591,-0.03829711675643921,0.0,0.0,0.0,-0.002260079374536872,0.0059779128059744835,-0.0,0.0,0.0,0.0,0.003351944498717785,-0.035627029836177826,5.636865196834151e-08,1495.0,1495.0,1495.0,1495.0,0.0,0.0,0.0,0.0,0.0,0.0,0.0,0.0,1495.0,1495.0,1495.0,1495.0,1.694266676902771,-2.97739747046344,0.44044267811110616,1.6301598906986037,-0.024405041709542274,-0.007097629830241203,0.0
239,5,0.0014942755224183202,-0.0004752510867547244,-6.239113281480968e-05,0.0026507286820560694,0.0029758678283542395,0.0024672280997037888,-0.03362613171339035,0.3562912344932556,0.008865050971508026,-0.01876930333673954,0.08822885900735855,-0.03925333172082901,0.0,0.0,0.0,-0.002260079374536872,0.0059779128059744835,-0.0,0.0,0.0,0.0,0.0033588185906410217,-0.03555944189429283,3.784310109722355e-08,1495.0,1495.0,1495.0,1495.0,0.0,0.0,0.0,0.0,0.0,0.0,0.0,0.0,1495.0,1495.0,1495.0,1495.0,1.694266676902771,-2.9769768107237464,0.4409233070870462,1.6298961942167371,-0.024405041709542274,-0.007097629830241203,0.0
244,5,0.0014849815052002668,-0.00047825052752159536,-3.901973832398653e-05,-5.497811798704788e-05,0.0015502801397815347,-0.001817676005885005,-0.03362613171339035,0.3562912344932556,0.008865050971508026,-0.01876930333673954,0.08822885900735855,-0.03925333172082901,0.0,0.0,0.0,-0.004409987013787031,0.0044789863750338554,-0.0,0.0,0.0,0.0,0.0033588185906410217,-0.03555944189429283,3.784310109722355e-08,1495.0,1495.0,1495.0,1495.0,0.0,0.0,0.0,0.0,0.0,0.0,0.0,0.0,1495.0,1495.0,1495.0,1495.0,1.6873904466629028,-2.9775942304454457,0.44053555429397007,1.630383470258714,-0.018211325630545616,-0.013793004676699638,0.0
249,5,0.0014975271187722683,-0.0004975587944500148,-5.799459177069366e-05,0.0014834727626293898,0.002937101759016514,0.0015499116852879524,-0.033679425716400146,0.35531312227249146,0.008436468429863453,-0.01789451390504837,0.06837154924869537,-0.02500876411795616,0.0,0.0,0.0,-0.004426638130098581,0.0034263089764863253,-0.0,0.0,0.0,0.0,0.0033685690723359585,-0.03547941893339157,2.275213795144282e-08,1495.0,1495.0,1495.0,1495.0,0.0,0.0,0.0,0.0,0.0,0.0,0.0,0.0,1495.0,1495.0,1495.0,1495.0,1.6785216331481934,-2.9773228718666505,0.4406590369571288,1.6304169712981686,-0.013857990503311157,-0.013772314414381981,0.0
254,5,0.0014935046201571822,-0.0004974058247171342,-4.1217590478481725e-05,0.0001106864438042976,0.0011564885498955846,-0.0013932752190157771,-0.033679425716400146,0.35531312227249146,0.008436468429863453,-0.01789451390504837,0.06837154924869537,-0.02500876411795616,0.0,0.0,0.0,-0.004426638130098581,0.0034263089764863253,-0.0,0.0,0.0,0.0,0.0033685690723359585,-0.03547941893339157,2.275213795144282e-08,1495.0,1495.0,1495.0,1495.0,0.0,0.0,0.0,0.0,0.0,0.0,0.0,0.0,1495.0,1495.0,1495.0,1495.0,1.6785216331481934,-2.9773788685121643,0.43996879836551767,1.6306497806432363,-0.013857990503311157,-0.013772314414381981,0.0
259,5,0.001474717166274786,-0.000512691040057689,-3.0780877295910614e-06,-0.0015128098893910646,0.001010695705190301,-0.0043359058909118176,-0.03372326120734215,0.3548024296760559,0.008200443349778652,-0.01244492270052433,0.04396401718258858,-0.020139677450060844,0.0,0.0,0.0,-0.004426638130098581,0.0034263089764863253,-0.0,0.0,0.0,0.0,0.003380477661266923,-0.03545008972287178,1.2765587698027048e-08,1495.0,1495.0,1495.0,1495.0,0.0,0.0,0.0,0.0,0.0,0.0,0.0,0.0,1495.0,1495.0,1495.0,1495.0,1.6785216331481934,-2.977834925768394,0.4389533356741989,1.6312817852599064,-0.013857990503311157,-0.013772314414381981,0.0
264,5,0.001474717166274786,-0.000512691040057689,-3.0780877295910614e-06,-0.0015128098893910646,0.001010695705190301,-0.0043359058909118176,-0.03372326120734215,0.3548024296760559,0.008200443349778652,-0.01244492270052433,0.04396401718258858,-0.020139677450060844,0.0,0.0,0.0,-0.0021756114438176155,0.0006313111516647041,-0.0,0.0,0.0,0.0,0.003380477661266923,-0.03545008972287178,1.2765587698027048e-08,1495.0,1495.0,1495.0,1495.0,0.0,0.0,0.0,0.0,0.0,0.0,0.0,0.0,1495.0,1495.0,1495.0,1495.0,1.644970178604126,-2.977834925768394,0.4389533356741989,1.6312817852599064,-0.0025023745838552713,-0.006633569486439228,0.0
270,5,0.001491804257966578,-0.0005365329561755061,-5.060574403614737e-05,0.0014453259063884616,0.0032653079833835363,0.0039689564146101475,-0.033867012709379196,0.354416161775589,0.007969374768435955,-0.012353972531855106,0.021806228905916214,-0.01802983507514,0.0,0.0,0.0,-0.0048851496540009975,0.003381025046110153,-0.0,0.0,0.0,0.0,0.003395069157704711,-0.03542856127023697,5.514710910148324e-09,1495.0,1495.0,1495.0,1495.0,0.0,0.0,0.0,0.0,0.0,0.0,0.0,0.0,1495.0,1495.0,1495.0,1495.0,1.6810407638549805,-2.9772716866880717,0.43980332953926415,1.6311679212705374,-0.01369533035904169,-0.015221642330288887,0.0
275,5,0.0014908703742548823,-0.000546104391105473,-5.025897280575009e-06,0.0004660641134250909,0.0024546931963413954,-0.003881999058648944,-0.033867012709379196,0.354416161775589,0.007969374768435955,-0.012353972531855106,0.021806228905916214,-0.01802983507514,0.0,0.0,0.0,-0.0048851496540009975,0.003381025046110153,-0.0,0.0,0.0,0.0,0.003395069157704711,-0.03542856127023697,5.514710910148324e-09,1495.0,1495.0,1495.0,1495.0,0.0,0.0,0.0,0.0,0.0,0.0,0.0,0.0,1495.0,1495.0,1495.0,1495.0,1.6810407638549805,-2.978238960522972,0.439761989516357,1.6317434168538216,-0.01369533035904169,-0.015221642330288887,0.0
280,5,0.001500166836194694,-0.0005751019925810397,-2.1426811144920066e-05,0.0013020042097195983,0.0044615864753723145,0.0004153100016992539,-0.03402438387274742,0.3541327118873596,0.007646339945495129,-0.011777148582041264,0.026555342599749565,-0.010027425363659859,0.0,0.0,0.0,-0.0048851496540009975,0.003381025046110153,-0.0,0.0,0.0,0.0,0.0033993131946772337,-0.035421472042798996,8.147408081526919e-09,1495.0,1495.0,1495.0,1495.0,0.0,0.0,0.0,0.0,0.0,0.0,0.0,0.0,1495.0,1495.0,1495.0,1495.0,1.6810407638549805,-2.977765643924313,0.4400359028170385,1.6315896789430941,-0.01369533035904169,-0.015221642330288887,0.0
285,5,0.001519140088930726,-0.0005728612304665148,-4.4312106183497235e-05,0.002797580324113369,0.0015157455345615745,0.002912359545007348,-0.03402438387274742,0.3541327118873596,0.007646339945495129,-0.011777148582041264,0.026555342599749565,-0.010027425363659859,0.0,0.0,0.0,-0.006358955521136522,0.0032434684690088034,-0.0,0.0,0.0,0.0,0.0033993131946772337,-0.035421472042798996,8.147408081526919e-09,1495.0,1495.0,1495.0,1495.0,0.0,0.0,0.0,0.0,0.0,0.0,0.0,0.0,1495.0,1495.0,1495.0,1495.0,1.690232515335083,-2.977453641505364,0.44004739789078307,1.6316680411235616,-0.013209868222475052,-0.01992211677134037,0.0
290,5,0.0015631770947948098,-0.0005882781697437167,-4.877142418990843e-05,0.003310903673991561,0.0016603842377662659,0.00043156888568773866,-0.03399595618247986,0.3538997769355774,0.007526481989771128,-0.0010080921929329634,0.036746807396411896,-0.00345095107331872,0.0,0.0,0.0,-0.006358955521136522,0.0032434684690088034,-0.0,0.0,0.0,0.0,0.003398899221792817,-0.03538992628455162,2.9284792368855506e-09,1495.0,1495.0,1495.0,1495.0,0.0,0.0,0.0,0.0,0.0,0.0,0.0,0.0,1495.0,1495.0,1495.0,1495.0,1.690232515335083,-2.9781694513058627,0.4403076896135651,1.631473057804563,-0.013209868222475052,-0.01992211677134037,0.0
295,5,0.0015583947533741593,-0.0005810706061311066,-4.8057365347631276e-05,0.0007504902896471322,-0.00020075570500921458,8.69401847012341e-05,-0.03399595618247986,0.3538997769355774,0.007526481989771128,-0.0010080921929329634,0.036746807396411896,-0.00345095107331872,0.0,0.0,0.0,-0.0030335895717144012,0.005186088383197784,-0.0,0.0,0.0,0.0,0.003398899221792817,-0.03538992628455162,2.9284792368855506e-09,1495.0,1495.0,1495.0,1495.0,0.0,0.0,0.0,0.0,0.0,0.0,0.0,0.0,1495.0,1495.0,1495.0,1495.0,1.6881587505340576,-2.9781720332936374,0.44053252052461755,1.631740744564003,-0.02109605073928833,-0.009492430835962296,0.0
300,5,0.001556648057885468,-0.0005684132338501513,-2.056520088444813e-06,9.05855413293466e-05,-0.0015991857508197427,-0.0054853251203894615,-0.03383985906839371,0.3534768223762512,0.0074508702382445335,0.003288616891950369,0.033713411539793015,0.0037321075797080994,0.0,0.0,0.0,-0.0030335895717144012,0.005186088383197784,-0.0,0.0,0.0,0.0,0.0033893107902258635,-0.035361506044864655,-6.657305373636291e-09,1495.0,1495.0,1495.0,1495.0,0.0,0.0,0.0,0.0,0.0,0.0,0.0,0.0,1495.0,1495.0,1495.0,1495.0,1.6881587505340576,-2.9784026046974965,0.4394079695664426,1.6318501667488228,-0.02109605073928833,-0.009492430835962296,0.0
305,5,0.001580241252668202,-0.0005782227963209152,-3.291651955805719e-05,0.002867422765120864,0.0005374750471673906,0.0015090696979314089,-0.03383985906839371,0.3534768223762512,0.0074508702382445335,0.003288616891950369,0.033713411539793015,0.0037321075797080994,0.0,0.0,0.0,0.0009271965827792883,0.0022594030015170574,-0.0,0.0,0.0,0.0,0.0033893107902258635,-0.035361506044864655,-6.657305373636291e-09,1495.0,1495.0,1495.0,1495.0,0.0,0.0,0.0,0.0,0.0,0.0,0.0,0.0,1495.0,1495.0,1495.0,1495.0,1.6512888669967651,-2.978215317495304,0.44032539405859217,1.6314428760917121,-0.008990174159407616,0.0028379405848681927,0.0
310,5,0.0015751947648823261,-0.0005554393865168095,-1.7539007330924505e-06,0.0005413907929323614,-0.002519018715247512,-0.003135886276140809,-0.03383985906839371,0.3534768223762512,0.0074508702382445335,0.003288616891950369,0.033713411539793015,0.0037321075797080994,0.0,0.0,0.0,0.0009271965827792883,0.0022594030015170574,-0.0,0.0,0.0,0.0,0.0033893107902258635,-0.035361506044864655,-6.657305373636291e-09,1495.0,1495.0,1495.0,1495.0,0.0,0.0,0.0,0.0,0.0,0.0,0.0,0.0,1495.0,1495.0,1495.0,1495.0,1.6512888669967651,-2.9785366744144675,0.43969338551993914,1.6316525851990067,-0.008990174159407616,0.0028379405848681927,0.0
315,5,0.0015999043826013803,-0.0005595984985120595,-9.533502634440083e-06,0.0031817140989005566,-0.0005085195880383253,-0.00032080220989882946,-0.033730607479810715,0.35330280661582947,0.007451076991856098,0.007398579269647598,0.005260429345071316,0.003679324872791767,0.0,0.0,0.0,0.0020662930328398943,0.0026978401001542807,-0.0,0.0,0.0,0.0,0.0033731807488948107,-0.03533022105693817,-3.614832433385118e-09,1495.0,1495.0,1495.0,1495.0,0.0,0.0,0.0,0.0,0.0,0.0,0.0,0.0,1495.0,1495.0,1495.0,1495.0,1.6596426963806152,-2.979636341458348,0.4397368355470295,1.6319545004544693,-0.010789001360535622,0.006356448400765657,0.0
320,5,0.0016133657190948725,-0.0005382388480938971,-3.3820697353803553e-06,0.0028880471363663673,-0.0027665598317980766,-0.0008664928609505296,-0.033730607479810715,0.35330280661582947,0.007451076991856098,0.007398579269647598,0.005260429345071316,0.003679324872791767,0.0,0.0,0.0,0.0020662930328398943,0.0026978401001542807,-0.0,0.0,0.0,0.0,0.0033731807488948107,-0.03533022105693817,-3.614832433385118e-09,1495.0,1495.0,1495.0,1495.0,0.0,0.0,0.0,0.0,0.0,0.0,0.0,0.0,1495.0,1495.0,1495.0,1495.0,1.6596426963806152,-2.9789095016847575,0.4392093047876078,1.6315379392006741,-0.010789001360535622,0.006356448400765657,0.0
325,5,0.0016130354488268495,-0.0005269317189231515,-1.2894313840661198e-05,0.00111558532807976,-0.0024634860455989838,0.0007948720594868064,-0.0336071215569973,0.35336604714393616,0.0075289178639650345,0.006845166441053152,-0.019253920763731003,0.009001191705465317,0.0,0.0,0.0,0.00236510019749403,0.004884283058345318,-0.0,0.0,0.0,0.0,0.0033627920784056187,-0.035330433398485184,3.5152392108273034e-09,1495.0,1495.0,1495.0,1495.0,0.0,0.0,0.0,0.0,0.0,0.0,0.0,0.0,1495.0,1495.0,1495.0,1495.0,1.6828014850616455,-2.9775408610539893,0.4390842538234482,1.631171453424334,-0.019805356860160828,0.007377177942544222,0.0
330,5,0.0016130354488268495,-0.0005269317189231515,-1.2894313840661198e-05,0.00111558532807976,-0.0024634860455989838,0.0007948720594868064,-0.0336071215569973,0.35336604714393616,0.0075289178639650345,0.006845166441053152,-0.019253920763731003,0.009001191705465317,0.0,0.0,0.0,0.00236510019749403,0.004884283058345318,-0.0,0.0,0.0,0.0,0.0033627920784056187,-0.035330433398485184,3.5152392108273034e-09,1495.0,1495.0,1495.0,1495.0,0.0,0.0,0.0,0.0,0.0,0.0,0.0,0.0,1495.0,1495.0,1495.0,1495.0,1.6828014850616455,-2.9775408610539893,0.4390842538234482,1.631171453424334,-0.019805356860160828,0.007377177942544222,0.0
336,5,0.0016092081787064672,-0.0005068631726317108,1.0350328921049368e-05,-0.0004959436482749879,-0.0016093695303425193,-0.0007646458107046783,-0.03358408808708191,0.3534868359565735,0.0076092821545898914,0.0037105432711541653,-0.019169485196471214,0.009979820810258389,0.0,0.0,0.0,0.0020413168240338564,0.0032805046066641808,-0.0,0.0,0.0,0.0,0.0033579091541469097,-0.03534853085875511,4.693163191404892e-09,1495.0,1495.0,1495.0,1495.0,0.0,0.0,0.0,0.0,0.0,0.0,0.0,0.0,1495.0,1495.0,1495.0,1495.0,1.6652238368988037,-2.977641137840713,0.4386227770812262,1.63103324740314,-0.013163261115550995,0.006300732493400574,0.0
341,5,0.0016041788039729,-0.0005066918674856424,-1.6815620256238617e-05,-0.000801907735876739,-0.0006643037777394056,0.002954055555164814,-0.03358408808708191,0.3534868359565735,0.0076092821545898914,0.0037105432711541653,-0.019169485196471214,0.009979820810258389,0.0,0.0,0.0,0.0020413168240338564,0.0032805046066641808,-0.0,0.0,0.0,0.0,0.0033579091541469097,-0.03534853085875511,4.693163191404892e-09,1495.0,1495.0,1495.0,1495.0,0.0,0.0,0.0,0.0,0.0,0.0,0.0,0.0,1495.0,1495.0,1495.0,1495.0,1.6652238368988037,-2.97727491513244,0.43887160205966336,1.6306969441055659,-0.013163261115550995,0.006300732493400574,0.0
346,5,0.0015904755564406514,-0.0004991641035303473,-1.910685205075424e-05,-0.001965143484994769,-0.0011690568644553423,0.0014565701130777597,-0.0336618572473526,0.3535802960395813,0.007851259782910347,0.006007854361087084,-0.011425520293414593,0.018100222572684288,0.0,0.0,0.0,-0.00011070530308643356,0.0014989761402830482,-0.0,0.0,0.0,0.0,0.0033628223463892937,-0.03535528853535652,3.622831590277542e-09,1495.0,1495.0,1495.0,1495.0,0.0,0.0,0.0,0.0,0.0,0.0,0.0,0.0,1495.0,1495.0,1495.0,1495.0,1.6418561935424805,-2.9780340014098945,0.4386660026224313,1.6309531869230123,-0.005930366925895214,-0.0003369085898157209,0.0
351,5,0.0015808922471478581,-0.0005051405169069767,-4.5945569581817836e-05,-0.0019360524602234364,0.000249543838435784,0.0038032743614166975,-0.0336618572473526,0.3535802960395813,0.007851259782910347,0.006007854361087084,-0.011425520293414593,0.018100222572684288,0.0,0.0,0.0,-0.00011070530308643356,0.0014989761402830482,-0.0,0.0,0.0,0.0,0.0033628223463892937,-0.03535528853535652,3.622831590277542e-09,1495.0,1495.0,1495.0,1495.0,0.0,0.0,0.0,0.0,0.0,0.0,0.0,0.0,1495.0,1495.0,1495.0,1495.0,1.6418561935424805,-2.978193471716119,0.43981006983195775,1.6305357219712142,-0.005930366925895214,-0.0003369085898157209,0.0
356,5,0.0015473113162443042,-0.0005110509810037911,-3.4269211028004065e-05,-0.004804143216460943,0.0008090793853625655,0.0001201464983751066,-0.0337500162422657,0.3536073863506317,0.008048254065215588,0.005926140118390322,-0.017853789031505585,0.019374949857592583,0.0,0.0,0.0,-0.0012384535511955619,0.00039440987166017294,-0.0,0.0,0.0,0.0,0.003374421736225486,-0.035360485315322876,2.0327775018813554e-09,1495.0,1495.0,1495.0,1495.0,0.0,0.0,0.0,0.0,0.0,0.0,0.0,0.0,1495.0,1495.0,1495.0,1495.0,1.6367814540863037,-2.9772023109808043,0.439515990730895,1.6302025564953966,-0.0015555716818198562,-0.0037573252338916063,0.0
361,5,0.001527590793557465,-0.0005109435296617448,-4.0766390156932175e-05,-0.00428811926394701,0.0003107377851847559,0.0008277201559394598,-0.0337500162422657,0.3536073863506317,0.008048254065215588,0.005926140118390322,-0.017853789031505585,0.019374949857592583,0.0,0.0,0.0,-0.0012384535511955619,0.00039440987166017294,-0.0,0.0,0.0,0.0,0.003374421736225486,-0.035360485315322876,2.0327775018813554e-09,1495.0,1495.0,1495.0,1495.0,0.0,0.0,0.0,0.0,0.0,0.0,0.0,0.0,1495.0,1495.0,1495.0,1495.0,1.6367814540863037,-2.9778683275735607,0.4408712133357044,1.630589941430216,-0.0015555716818198562,-0.0037573252338916063,0.0
366,5,0.0014990817289799452,-0.000514421088155359,-2.7897760446649045e-05,-0.005136324558407068,0.0005416014464572072,-0.00121314765419811,-0.03384760394692421,0.353840708732605,0.008327960968017578,0.003513391362503171,-0.03826736658811569,0.012093200348317623,0.0,0.0,0.0,-0.0013155194465070963,-0.0019006059737876058,-0.0,0.0,0.0,0.0,0.0033854630310088396,-0.0354195162653923,5.41191669256591e-09,1495.0,1495.0,1495.0,1495.0,0.0,0.0,0.0,0.0,0.0,0.0,0.0,0.0,1495.0,1495.0,1495.0,1495.0,1.6489325761795044,-2.9763911704500976,0.4398309564290098,1.6299498541719735,0.007551726419478655,-0.004020763095468283,0.0
371,5,0.0014997744001448154,-0.0005319621413946152,-7.092217856552452e-05,-0.0019714171066880226,0.002321565290912986,0.004677671007812023,-0.03384760394692421,0.353840708732605,0.008327960968017578,0.003513391362503171,-0.03826736658811569,0.012093200348317623,0.0,0.0,0.0,-0.0013155194465070963,-0.0019006059737876058,-0.0,0.0,0.0,0.0,0.0033854630310088396,-0.0354195162653923,5.41191669256591e-09,1495.0,1495.0,1495.0,1495.0,0.0,0.0,0.0,0.0,0.0,0.0,0.0,0.0,1495.0,1495.0,1495.0,1495.0,1.6489325761795044,-2.9766453273975935,0.44102957573335105,1.6297371483761731,0.007551726419478655,-0.004020763095468283,0.0
376,5,0.0014755430165678263,-0.0005313742440193892,-7.041780190775171e-05,-0.0036963308230042458,0.0008580763242207468,0.0018105439376085997,-0.03386717662215233,0.3541957437992096,0.008430545218288898,0.0008277329034171999,-0.06656905263662338,0.005258349236100912,0.0,0.0,0.0,-0.0038014824967831373,0.00024760584346950054,-0.0,0.0,0.0,0.0,0.003387315198779106,-0.03547167405486107,-1.7325884060781505e-09,1495.0,1495.0,1495.0,1495.0,0.0,0.0,0.0,0.0,0.0,0.0,0.0,0.0,1495.0,1495.0,1495.0,1495.0,1.6574848890304565,-2.976943857769137,0.4410704481030902,1.6302278237209002,-0.0009889155626296997,-0.011679096147418022,0.0
382,5,0.0014430191367864609,-0.000530627032276243,-5.762596265412867e-05,-0.0053813946433365345,0.00025356854894198477,-0.0008108034380711615,-0.03386717662215233,0.3541957437992096,0.008430545218288898,0.0008277329034171999,-0.06656905263662338,0.005258349236100912,0.0,0.0,0.0,-0.0038014824967831373,0.00024760584346950054,-0.0,0.0,0.0,0.0,0.003387315198779106,-0.03547167405486107,-1.7325884060781505e-09,1495.0,1495.0,1495.0,1495.0,0.0,0.0,0.0,0.0,0.0,0.0,0.0,0.0,1495.0,1495.0,1495.0,1495.0,1.6574848890304565,-2.9780250563936472,0.4417848215129248,1.630570349060472,-0.0009889155626296997,-0.011679096147418022,0.0
387,5,0.0014174026437103748,-0.0005211217212490737,-4.650524351745844e-05,-0.00522654689848423,-0.0010392150143161416,-0.0016588076250627637,-0.0338822640478611,0.3549582064151764,0.008485281839966774,-0.001971373101696372,-0.05778760090470314,-0.0013555854093283415,0.0,0.0,0.0,-0.0012734979391098022,-0.003025891724973917,-0.0,0.0,0.0,0.0,0.003387454664334655,-0.03553319722414017,-3.7103344840971886e-09,1495.0,1495.0,1495.0,1495.0,0.0,0.0,0.0,0.0,0.0,0.0,0.0,0.0,1495.0,1495.0,1495.0,1495.0,1.6601842641830444,-2.9780715160373195,0.4413202655052606,1.6307549873815974,0.012104881927371025,-0.003918888047337532,0.0
392,5,0.0014032605104148388,-0.0005209780647419393,-6.271962774917483e-05,-0.0037876758724451065,-0.0004329197108745575,0.0012822027783840895,-0.0338822640478611,0.3549582064151764,0.008485281839966774,-0.001971373101696372,-0.05778760090470314,-0.0013555854093283415,0.0,0.0,0.0,-0.0004246840253472328,-0.0016014892607927322,-0.0,0.0,0.0,0.0,0.003387454664334655,-0.03553319722414017,-3.7103344840971886e-09,1495.0,1495.0,1495.0,1495.0,0.0,0.0,0.0,0.0,0.0,0.0,0.0,0.0,1495.0,1495.0,1495.0,1495.0,1.6432968378067017,-2.977708771103658,0.44109889966130245,1.6307111793648765,0.006341496016830206,-0.0012935715494677424,0.0
397,5,0.0013911655405536294,-0.0005139843560755253,-5.5929562222445384e-05,-0.0029664624016731977,-0.001012412249110639,-0.00030192677513696253,-0.03386325016617775,0.3553329408168793,0.008403063751757145,-0.006863836199045181,-0.023990441113710403,-0.018749399110674858,0.0,0.0,0.0,-0.0004246840253472328,-0.0016014892607927322,-0.0,0.0,0.0,0.0,0.0033843102864921093,-0.035547904670238495,6.389773155035527e-10,1495.0,1495.0,1495.0,1495.0,0.0,0.0,0.0,0.0,0.0,0.0,0.0,0.0,1495.0,1495.0,1495.0,1495.0,1.6432968378067017,-2.9783834472730812,0.4411879186381253,1.6311086980784566,0.006341496016830206,-0.0012935715494677424,0.0
402,5,0.0014101540436968207,-0.0005250560934655368,-9.575808508088812e-05,0.0010920335771515965,0.0009236384066753089,0.0046586524695158005,-0.03386325016617775,0.3553329408168793,0.008403063751757145,-0.006863836199045181,-0.023990441113710403,-0.018749399110674858,0.0,0.0,0.0,-0.0020784896332770586,0.002995639806613326,-0.0,0.0,0.0,0.0,0.0033843102864921093,-0.035547904670238495,6.389773155035527e-10,1495.0,1495.0,1495.0,1495.0,0.0,0.0,0.0,0.0,0.0,0.0,0.0,0.0,1495.0,1495.0,1495.0,1495.0,1.6625566482543945,-2.9774975320843633,0.4412700948886589,1.630531004935183,-0.012000969611108303,-0.006405193824321032,0.0
407,5,0.0014289787504822016,-0.0005170035292394459,-0.00011540734703885391,0.002695780713111162,-0.0005968503537587821,0.004221372306346893,-0.03380990028381348,0.35526537895202637,0.008010215125977993,-0.005094350315630436,0.03683457523584366,-0.012048347853124142,0.0,0.0,0.0,-0.0020784896332770586,0.002995639806613326,-0.0,0.0,0.0,0.0,0.0033796019852161407,-0.03552623465657234,9.814110413230992e-09,1495.0,1495.0,1495.0,1495.0,0.0,0.0,0.0,0.0,0.0,0.0,0.0,0.0,1495.0,1495.0,1495.0,1495.0,1.6625566482543945,-2.9776754734102275,0.4413848737073559,1.6304655644270367,-0.012000969611108303,-0.006405193824321032,0.0
412,5,0.001421204418875277,-0.0004927929840050638,-7.748437201371416e-05,0.00014539559197146446,-0.0031440032180398703,-0.002862208290025592,-0.03380990028381348,0.35526537895202637,0.008010215125977993,-0.005094350315630436,0.03683457523584366,-0.012048347853124142,0.0,0.0,0.0,-0.0020784896332770586,0.002995639806613326,-0.0,0.0,0.0,0.0,0.0033796019852161407,-0.03552623465657234,9.814110413230992e-09,1495.0,1495.0,1495.0,1495.0,0.0,0.0,0.0,0.0,0.0,0.0,0.0,0.0,1495.0,1495.0,1495.0,1495.0,1.6625566482543945,-2.9779112613426015,0.44119572977279,1.6309330848847734,-0.012000969611108303,-0.006405193824321032,0.0
417,5,0.001429556286893785,-0.0004918651538901031,-6.656444020336494e-05,0.0010603821137920022,-0.0013689453480765224,-0.0024552748072892427,-0.03376602753996849,0.3549027442932129,0.007824709638953209,-0.0038800910115242004,0.03667609393596649,-0.010840464383363724,0.0,0.0,0.0,0.002933956915512681,0.0021302446257323027,-0.0,0.0,0.0,0.0,0.0033761197701096535,-0.03550298139452934,4.060308089748332e-09,1495.0,1495.0,1495.0,1495.0,0.0,0.0,0.0,0.0,0.0,0.0,0.0,0.0,1495.0,1495.0,1495.0,1495.0,1.6593384742736816,-2.9767951367779855,0.4414125434319178,1.6305123932779741,-0.008517539128661156,0.009023938328027725,0.0
422,5,0.0014274672139436007,-0.0005007091094739735,-6.740882236044854e-05,0.0001734573597786948,0.000513702048920095,-0.0008807841804809868,-0.03376602753996849,0.3549027442932129,0.007824709638953209,-0.0038800910115242004,0.03667609393596649,-0.010840464383363724,0.0,0.0,0.0,-0.0015468434430658817,0.0021755711641162634,-0.0,0.0,0.0,0.0,0.0033761197701096535,-0.03550298139452934,4.060308089748332e-09,1495.0,1495.0,1495.0,1495.0,0.0,0.0,0.0,0.0,0.0,0.0,0.0,0.0,1495.0,1495.0,1495.0,1495.0,1.6524953842163086,-2.976141661759749,0.44059835712448214,1.6304571409193926,-0.008662926033139229,-0.004737997893244028,0.0
427,5,0.001442678039893508,-0.0004899095511063933,-4.632435229723342e-05,0.001894684392027557,-0.0010904711671173573,-0.0028824503533542156,-0.03376602753996849,0.3549027442932129,0.007824709638953209,-0.0038800910115242004,0.03667609393596649,-0.010840464383363724,0.0,0.0,0.0,-0.0015468434430658817,0.0021755711641162634,-0.0,0.0,0.0,0.0,0.0033761197701096535,-0.03550298139452934,4.060308089748332e-09,1495.0,1495.0,1495.0,1495.0,0.0,0.0,0.0,0.0,0.0,0.0,0.0,0.0,1495.0,1495.0,1495.0,1495.0,1.6524953842163086,-2.9766840518622573,0.4409737574322373,1.6303991889444873,-0.008662926033139229,-0.004737997893244028,0.0
432,5,0.0014477291842922568,-0.0004982220707461238,-8.395022450713441e-05,0.0013640116667374969,0.0005613139946945012,0.0033621247857809067,-0.03375491872429848,0.3547113835811615,0.00773782841861248,-0.0021736128255724907,0.017840111628174782,-0.005574492271989584,0.0,0.0,0.0,-0.0015468434430658817,0.0021755711641162634,-0.0,0.0,0.0,0.0,0.0033750913571566343,-0.035471104085445404,1.7039456512435436e-09,1495.0,1495.0,1495.0,1495.0,0.0,0.0,0.0,0.0,0.0,0.0,0.0,0.0,1495.0,1495.0,1495.0,1495.0,1.6524953842163086,-2.9764113594877797,0.4407377731962798,1.6306284582921695,-0.008662926033139229,-0.004737997893244028,0.0
437,5,0.001459138817153871,-0.0004986586864106357,-6.627248512813821e-05,0.0019147602142766118,0.0002769238781183958,-0.0007764790789224207,-0.03375491872429848,0.3547113835811615,0.00773782841861248,-0.0021736128255724907,0.017840111628174782,-0.005574492271989584,0.0,0.0,0.0,-0.0015902877785265446,0.003303317818790674,-0.0,0.0,0.0,0.0,0.0033750913571566343,-0.035471104085445404,1.7039456512435436e-09,1495.0,1495.0,1495.0,1495.0,0.0,0.0,0.0,0.0,0.0,0.0,0.0,0.0,1495.0,1495.0,1495.0,1495.0,1.6639580726623535,-2.976455145544794,0.440380606538205,1.630220232614092,-0.01324473600834608,-0.004904856905341148,0.0
443,5,0.0014819434145465493,-0.0005016085924580693,-8.457794319838285e-05,0.0035024613607674837,0.0004647593304980546,0.001886063371784985,-0.033768270164728165,0.35461074113845825,0.007724161259829998,-0.0019258279353380203,0.00830468162894249,0.0013160587986931205,0.0,0.0,0.0,-0.0015902877785265446,0.003303317818790674,-0.0,0.0,0.0,0.0,0.003375532804057002,-0.03546420857310295,7.941596685823171e-11,1495.0,1495.0,1495.0,1495.0,0.0,0.0,0.0,0.0,0.0,0.0,0.0,0.0,1495.0,1495.0,1495.0,1495.0,1.6639580726623535,-2.9777192578499005,0.44061053254498167,1.6305592097169745,-0.01324473600834608,-0.004904856905341148,0.0
448,5,0.00148821494076401,-0.0004923282540403306,-6.706239219056442e-05,0.002153561683371663,-0.0009277378558181226,-0.0013474409934133291,-0.03376811742782593,0.35454654693603516,0.007776954211294651,0.0010082877706736326,0.013688229024410248,0.0003052095416933298,0.0,0.0,0.0,-0.0014611446531489491,0.005285090301185846,-0.0,0.0,0.0,0.0,0.0033773828763514757,-0.03545835614204407,-9.995934080464508e-10,1495.0,1495.0,1495.0,1495.0,0.0,0.0,0.0,0.0,0.0,0.0,0.0,0.0,1495.0,1495.0,1495.0,1495.0,1.6849536895751953,-2.977265008330148,0.4397517203534316,1.630690626696726,-0.021458027884364128,-0.004563409369438887,0.0
453,5,0.0015053940005600452,-0.0004904939560219646,-1.3354346265259665e-05,0.0029229086358100176,-0.0005912125343456864,-0.00698394188657403,-0.03376811742782593,0.35454654693603516,0.007776954211294651,0.0010082877706736326,0.013688229024410248,0.0003052095416933298,0.0,0.0,0.0,-0.0014611446531489491,0.005285090301185846,-0.0,0.0,0.0,0.0,0.0033773828763514757,-0.03545835614204407,-9.995934080464508e-10,1495.0,1495.0,1495.0,1495.0,0.0,0.0,0.0,0.0,0.0,0.0,0.0,0.0,1495.0,1495.0,1495.0,1495.0,1.6849536895751953,-2.977814231392471,0.4392820473724391,1.6309904975199052,-0.021458027884364128,-0.004563409369438887,0.0
458,5,0.0015237220795825124,-0.0005087667959742248,-3.170335912727751e-05,0.003368539270013571,0.0019562526140362024,-0.0005916950176469982,-0.03381877765059471,0.35436564683914185,0.007808171212673187,-0.00024347119324374944,0.02046946994960308,0.004598003346472979,0.0,0.0,0.0,-0.00017499200475867838,0.004802239593118429,-0.0,0.0,0.0,0.0,0.0033796364441514015,-0.03544384613633156,5.236514000195314e-10,1495.0,1495.0,1495.0,1495.0,0.0,0.0,0.0,0.0,0.0,0.0,0.0,0.0,1495.0,1495.0,1495.0,1495.0,1.6782187223434448,-2.9784433037517632,0.4404074849806552,1.6310466259925374,-0.019419705495238304,-0.0005443463451229036,0.0
463,5,0.001534592593088746,-0.0005084752920083702,-3.9561797166243196e-05,0.00265188398770988,0.0007475230959244072,0.0007063345401547849,-0.03381877765059471,0.35436564683914185,0.007808171212673187,-0.00024347119324374944,0.02046946994960308,0.004598003346472979,0.0,0.0,0.0,-0.00017499200475867838,0.004802239593118429,-0.0,0.0,0.0,0.0,0.0033796364441514015,-0.03544384613633156,5.236514000195314e-10,1495.0,1495.0,1495.0,1495.0,0.0,0.0,0.0,0.0,0.0,0.0,0.0,0.0,1495.0,1495.0,1495.0,1495.0,1.6782187223434448,-2.976991832343026,0.4394262346067344,1.6308262954749562,-0.019419705495238304,-0.0005443463451229036,0.0
468,5,0.001550869201309979,-0.0005139842396602035,-2.3018648789729923e-05,0.0030139442533254623,0.0009600852499715984,-0.0017026439309120178,-0.033870209008455276,0.35412493348121643,0.007902838289737701,0.002113026101142168,0.03360084444284439,0.010956148616969585,0.0,0.0,0.0,-0.0018213462317362428,0.00459223473444581,-0.0,0.0,0.0,0.0,0.0033852504566311836,-0.035426151007413864,-1.0726649568582047e-09,1495.0,1495.0,1495.0,1495.0,0.0,0.0,0.0,0.0,0.0,0.0,0.0,0.0,1495.0,1495.0,1495.0,1495.0,1.6781871318817139,-2.9782039219843366,0.43958359788075785,1.6310467157410955,-0.01857009343802929,-0.005665536038577557,0.0
473,5,0.0015663484809920192,-0.0005228744121268392,-3.282450052211061e-05,0.0030630819965153933,0.0014508499298244715,0.0004956445191055536,-0.033870209008455276,0.35412493348121643,0.007902838289737701,0.002113026101142168,0.03360084444284439,0.010956148616969585,0.0,0.0,0.0,-0.0018213462317362428,0.00459223473444581,-0.0,0.0,0.0,0.0,0.0033852504566311836,-0.035426151007413864,-1.0726649568582047e-09,1495.0,1495.0,1495.0,1495.0,0.0,0.0,0.0,0.0,0.0,0.0,0.0,0.0,1495.0,1495.0,1495.0,1495.0,1.6781871318817139,-2.978015215618021,0.43896662397185643,1.6311042821100783,-0.01857009343802929,-0.005665536038577557,0.0
478,5,0.0015890697250142694,-0.0005359701463021338,-4.761677701026201e-05,0.00395179120823741,0.002151831751689315,0.0019733309745788574,-0.03394482657313347,0.3537440598011017,0.008055626414716244,0.002115336013957858,0.025189198553562164,0.01275798212736845,0.0,0.0,0.0,-0.002684464445337653,0.0049980017356574535,-0.0,0.0,0.0,0.0,0.0033931692596524954,-0.03538580238819122,1.5540398135005518e-10,1495.0,1495.0,1495.0,1495.0,0.0,0.0,0.0,0.0,0.0,0.0,0.0,0.0,1495.0,1495.0,1495.0,1495.0,1.6850061416625977,-2.9778496591088817,0.4398009609316797,1.630821751182199,-0.020293008536100388,-0.008384298533201218,0.0
483,5,0.0016126465052366257,-0.000543866481166333,-3.27691959682852e-05,0.004409926012158394,0.0018082897877320647,-0.0009923774050548673,-0.03394482657313347,0.3537440598011017,0.008055626414716244,0.002115336013957858,0.025189198553562164,0.01275798212736845,0.0,0.0,0.0,-0.002684464445337653,0.0049980017356574535,-0.0,0.0,0.0,0.0,0.0033931692596524954,-0.03538580238819122,1.5540398135005518e-10,1495.0,1495.0,1495.0,1495.0,0.0,0.0,0.0,0.0,0.0,0.0,0.0,0.0,1495.0,1495.0,1495.0,1495.0,1.6850061416625977,-2.978450530433722,0.4389777367340921,1.6310114276679057,-0.020293008536100388,-0.008384298533201218,0.0
488,5,0.001606991165317595,-0.0005514106596820056,-3.145976006635465e-05,0.0010853286366909742,0.0016286206664517522,-0.0005540830316022038,-0.03401343524456024,0.3536132872104645,0.008210234344005585,0.0017198995919898152,0.003763478947803378,0.014398733153939247,0.0,0.0,0.0,-0.003124138107523322,0.00625191954895854,-0.0,0.0,0.0,0.0,0.003398401662707329,-0.03536543622612953,4.6154360888728263e-10,1495.0,1495.0,1495.0,1495.0,0.0,0.0,0.0,0.0,0.0,0.0,0.0,0.0,1495.0,1495.0,1495.0,1495.0,1.6996536254882812,-2.9767846247561596,0.43877541831938227,1.6309011485749592,-0.025604763999581337,-0.009842329658567905,0.0
493,5,0.0016252497443929315,-0.0005717602325603366,-5.3640960686607286e-05,0.0026251592207700014,0.003093392588198185,0.00244011078029871,-0.03401343524456024,0.3536132872104645,0.008210234344005585,0.0017198995919898152,0.003763478947803378,0.014398733153939247,0.0,0.0,0.0,-0.003124138107523322,0.00625191954895854,-0.0,0.0,0.0,0.0,0.003398401662707329,-0.03536543622612953,4.6154360888728263e-10,1495.0,1495.0,1495.0,1495.0,0.0,0.0,0.0,0.0,0.0,0.0,0.0,0.0,1495.0,1495.0,1495.0,1495.0,1.6996536254882812,-2.9771804256107823,0.4399089145369653,1.6308748840120748,-0.025604763999581337,-0.009842329658567905,0.0
498,5,0.0016310266219079494,-0.0005930755287408829,-6.303234840743244e-05,0.001743290456943214,0.003795197932049632,0.002103010891005397,-0.03401343524456024,0.3536132872104645,0.008210234344005585,0.0017198995919898152,0.003763478947803378,0.014398733153939247,0.0,0.0,0.0,-0.004728138912469149,0.004660770297050476,-0.0,0.0,0.0,0.0,0.003398401662707329,-0.03536543622612953,4.6154360888728263e-10,1495.0,1495.0,1495.0,1495.0,0.0,0.0,0.0,0.0,0.0,0.0,0.0,0.0,1495.0,1495.0,1495.0,1495.0,1.6907110214233398,-2.9763054939576907,0.44068200319253586,1.6299911496902775,-0.018987707793712616,-0.01481716800481081,0.0
503,5,0.0016141136875376105,-0.0005967138567939401,-4.580426320899278e-05,-0.0013322343584150076,0.001954678911715746,-0.001226165797561407,-0.03403971716761589,0.353595495223999,0.008388258516788483,-0.00044712406815961003,-0.007885024882853031,0.014024131000041962,0.0,0.0,0.0,-0.004728138912469149,0.004660770297050476,-0.0,0.0,0.0,0.0,0.003402513451874256,-0.035358596593141556,3.758648947638221e-10,1495.0,1495.0,1495.0,1495.0,0.0,0.0,0.0,0.0,0.0,0.0,0.0,0.0,1495.0,1495.0,1495.0,1495.0,1.6907110214233398,-2.977075676825357,0.44028902535027503,1.6305168810189494,-0.018987707793712616,-0.01481716800481081,0.0
508,5,0.00162594229914248,-0.0006028547650203109,-6.130835390649736e-05,0.0008865462732501328,0.0015187746612355113,0.0013700242852792144,-0.03403971716761589,0.353595495223999,0.008388258516788483,-0.00044712406815961003,-0.007885024882853031,0.014024131000041962,0.0,0.0,0.0,-0.0034800085704773664,0.0010251947678625584,-0.0,0.0,0.0,0.0,0.003402513451874256,-0.035358596593141556,3.758648947638221e-10,1495.0,1495.0,1495.0,1495.0,0.0,0.0,0.0,0.0,0.0,0.0,0.0,0.0,1495.0,1495.0,1495.0,1495.0,1.6567357778549194,-2.9771444765598045,0.44053438662310723,1.6306405961812211,-0.004092689603567123,-0.010686623863875866,0.0
513,5,0.0016120380023494363,-0.0005834211478941143,-3.491586176096462e-05,-0.0013138995273038745,-0.001724518253467977,-0.0026190890930593014,-0.03402985259890556,0.3536434471607208,0.0084421057254076,0.0024025938473641872,-0.010072438977658749,0.005291935987770557,0.0,0.0,0.0,-0.0034800085704773664,0.0010251947678625584,-0.0,0.0,0.0,0.0,0.0033976095728576183,-0.03536615148186684,-1.74405212494122e-11,1495.0,1495.0,1495.0,1495.0,0.0,0.0,0.0,0.0,0.0,0.0,0.0,0.0,1495.0,1495.0,1495.0,1495.0,1.6567357778549194,-2.977460830417265,0.4396077822487676,1.6309791696612823,-0.004092689603567123,-0.010686623863875866,0.0
518,5,0.0016262116841971874,-0.0005805816035717726,-4.059624916408211e-05,0.0011752743739634752,-0.0010305525502189994,-0.00036598931183107197,-0.03402985259890556,0.3536434471607208,0.0084421057254076,0.0024025938473641872,-0.010072438977658749,0.005291935987770557,0.0,0.0,0.0,0.00019288963812869042,0.0033871333580464125,-0.0,0.0,0.0,0.0,0.0033976095728576183,-0.03536615148186684,-1.74405212494122e-11,1495.0,1495.0,1495.0,1495.0,0.0,0.0,0.0,0.0,0.0,0.0,0.0,0.0,1495.0,1495.0,1495.0,1495.0,1.6624975204467773,-2.9776915664001646,0.4397356089919153,1.6310050860376284,-0.01356889121234417,0.0005943995201960206,0.0
523,5,0.0016051243292167783,-0.0005567255429923534,1.1753154467442073e-05,-0.0020603633020073175,-0.003274948801845312,-0.006428324151784182,-0.03395172953605652,0.3536340296268463,0.00836897362023592,-0.0049553848803043365,0.005977886263281107,-0.008670537732541561,0.0,0.0,0.0,0.00019288963812869042,0.0033871333580464125,-0.0,0.0,0.0,0.0,0.0033924707677215338,-0.035357967019081116,5.297001171022941e-10,1495.0,1495.0,1495.0,1495.0,0.0,0.0,0.0,0.0,0.0,0.0,0.0,0.0,1495.0,1495.0,1495.0,1495.0,1.6624975204467773,-2.9796533865219685,0.4386883565464187,1.6322239833773469,-0.01356889121234417,0.0005943995201960206,0.0
529,5,0.001631536753848195,-0.0005491354968398809,6.677702913293615e-06,0.0023453456815332174,-0.002220784081146121,-0.0019622754771262407,-0.03395172953605652,0.3536340296268463,0.00836897362023592,-0.0049553848803043365,0.005977886263281107,-0.008670537732541561,0.0,0.0,0.0,0.00019288963812869042,0.0033871333580464125,-0.0,0.0,0.0,0.0,0.0033924707677215338,-0.035357967019081116,5.297001171022941e-10,1495.0,1495.0,1495.0,1495.0,0.0,0.0,0.0,0.0,0.0,0.0,0.0,0.0,1495.0,1495.0,1495.0,1495.0,1.6624975204467773,-2.978829516087817,0.4382190781170863,1.6316050730742087,-0.01356889121234417,0.0005943995201960206,0.0
534,5,0.0016242057317867875,-0.0005524359876289964,-1.986605184356449e-06,5.8404155424796045e-05,-0.0004922589287161827,0.00025480680051259696,-0.03387939929962158,0.35353678464889526,0.008214861154556274,-0.0019069643458351493,0.012460454367101192,-0.019343668594956398,0.0,0.0,0.0,0.001682683010585606,0.004454226233065128,-0.0,0.0,0.0,0.0,0.003378812223672867,-0.035341210663318634,1.870108734536302e-09,1495.0,1495.0,1495.0,1495.0,0.0,0.0,0.0,0.0,0.0,0.0,0.0,0.0,1495.0,1495.0,1495.0,1495.0,1.6763654947280884,-2.9790247221717143,0.438730385178436,1.6317339804299882,-0.017992472276091576,0.005228525027632713,0.0
539,5,0.0016409122617915273,-0.0005442337715066969,1.6811001842143014e-05,0.0020281539764255285,-0.0011811652220785618,-0.0021537900902330875,-0.03387939929962158,0.35353678464889526,0.008214861154556274,-0.0019069643458351493,0.012460454367101192,-0.019343668594956398,0.0,0.0,0.0,0.001682683010585606,0.004454226233065128,-0.0,0.0,0.0,0.0,0.003378812223672867,-0.035341210663318634,1.870108734536302e-09,1495.0,1495.0,1495.0,1495.0,0.0,0.0,0.0,0.0,0.0,0.0,0.0,0.0,1495.0,1495.0,1495.0,1495.0,1.6763654947280884,-2.9792162308878263,0.4391431150795425,1.6316863035737441,-0.017992472276091576,0.005228525027632713,0.0
544,5,0.0016360426088795066,-0.000528441509231925,-1.8241926227346994e-05,0.00022689903562422842,-0.0023675390984863043,0.0033448352478444576,-0.03375214710831642,0.35331833362579346,0.007893424481153488,-0.001969529315829277,0.026281744241714478,-0.024277178570628166,0.0,0.0,0.0,0.0004372679686639458,0.004186369013041258,-0.0,0.0,0.0,0.0,0.0033682924695312977,-0.03532351180911064,1.8485297736958728e-09,1495.0,1495.0,1495.0,1495.0,0.0,0.0,0.0,0.0,0.0,0.0,0.0,0.0,1495.0,1495.0,1495.0,1495.0,1.671470284461975,-2.9777098362709626,0.4392553208953301,1.6313839497103444,-0.01686113327741623,0.0013547366252169013,0.0
549,5,0.0016399759333580732,-0.0005273543647490442,-1.3154425687389448e-05,0.0005627592327073216,-0.0010774728143587708,0.000727434060536325,-0.03375214710831642,0.35331833362579346,0.007893424481153488,-0.001969529315829277,0.026281744241714478,-0.024277178570628166,0.0,0.0,0.0,0.0004372679686639458,0.004186369013041258,-0.0,0.0,0.0,0.0,0.0033682924695312977,-0.03532351180911064,1.8485297736958728e-09,1495.0,1495.0,1495.0,1495.0,0.0,0.0,0.0,0.0,0.0,0.0,0.0,0.0,1495.0,1495.0,1495.0,1495.0,1.671470284461975,-2.9779785229574807,0.4385109425055857,1.6310130489602093,-0.01686113327741623,0.0013547366252169013,0.0
