timestamp,dt,pos_x,pos_y,pos_z,vel_x,vel_y,vel_z,roll,pitch,yaw,agv_x,agv_y,agv_z,x_ref,y_ref,z_ref,roll_ref,pitch_ref,yaw_ref,x_vel_ref,y_vel_ref,z_vel_ref,x_torque,y_torque,z_torque,w0,w1,w2,w3,u0,u1,u2,u3,m0req,m1req,m2req,m3req,thrust0,thrust1,thrust2,thrust3,thrust_ref,roll_vicon,pitch_vicon,yaw_vicon,acc_x,acc_y,acc_z
5,5,0.0,0.0,0.0,0.001345049706287682,-0.0004694865783676505,-0.000465052027720958,-0.022056667134165764,0.037773698568344116,0.02089850790798664,0.0018301911186426878,-0.002280395245179534,0.0019302830332890153,0.0,0.0,0.0,0.0005120275309309363,0.0011284055653959513,-0.0,0.0,0.0,0.0,0.006614744663238525,-0.011294479481875896,0.002131276996806264,1495.0,1495.0,1495.0,1495.0,0.0,0.0,0.0,0.0,0.0,0.0,0.0,0.0,1495.0,1495.0,1495.0,1495.0,1.8550372123718262,0.028205654756492594,-0.31783200431933534,3.1138785434393195,-0.005043936427682638,0.001760574639774859,0.0
30,25,0.0,0.0,0.0,-0.0008920639520511031,-0.001175843644887209,-0.0017744639189913869,-0.022056667134165764,0.037773698568344116,0.02089850790798664,0.0018301911186426878,-0.002280395245179534,0.0019302830332890153,0.0,0.0,0.0,0.0005120275309309363,0.0011284055653959513,-0.0,0.0,0.0,0.0,0.006614744663238525,-0.011294479481875896,0.002131276996806264,1495.0,1495.0,1495.0,1495.0,0.0,0.0,0.0,0.0,0.0,0.0,0.0,0.0,1495.0,1495.0,1495.0,1495.0,1.8550372123718262,0.029128023054185877,-0.3170312332025365,3.1140300668597796,-0.005043936427682638,0.001760574639774859,0.0
36,5,0.0,0.0,0.0,-0.000161966891027987,6.279625813476741e-05,-0.001110076205804944,-0.022056667134165764,0.037773698568344116,0.02089850790798664,0.0018301911186426878,-0.002280395245179534,0.0019302830332890153,0.0,0.0,0.0,0.001282215933315456,-0.0007482804940082133,-0.0,0.0,0.0,0.0,0.006614744663238525,-0.011294479481875896,0.002131276996806264,1495.0,1495.0,1495.0,1495.0,0.0,0.0,0.0,0.0,0.0,0.0,0.0,0.0,1495.0,1495.0,1495.0,1495.0,1.855288028717041,0.028404093691555464,-0.3179305392204843,3.113707017798653,0.003345239907503128,0.004409413784742355,0.0
41,5,0.0,0.0,0.0,-0.00016538244381081313,0.000561525288503617,0.0002709688269533217,-0.022056667134165764,0.037773698568344116,0.02089850790798664,0.0018301911186426878,-0.002280395245179534,0.0019302830332890153,0.0,0.0,0.0,-0.000612323812674731,-0.00013872601266484708,-0.0,0.0,0.0,0.0,0.006614744663238525,-0.011294479481875896,0.002131276996806264,1495.0,1495.0,1495.0,1495.0,0.0,0.0,0.0,0.0,0.0,0.0,0.0,0.0,1495.0,1495.0,1495.0,1495.0,1.8552863597869873,0.028723827582952655,-0.3169687658074598,3.113614224410027,0.0006201841752044857,-0.0021057198755443096,0.0
53,12,0.0,0.0,0.0,-0.00016538244381081313,0.000561525288503617,0.0002709688269533217,-0.022041553631424904,0.03777718171477318,0.020909085869789124,0.0020851066801697016,0.0030698932241648436,0.00118232611566782,0.0,0.0,0.0,-0.000612323812674731,-0.00013872601266484708,-0.0,0.0,0.0,0.0,0.0067316340282559395,-0.010882786475121975,0.0020915325731039047,1495.0,1495.0,1495.0,1495.0,0.0,0.0,0.0,0.0,0.0,0.0,0.0,0.0,1495.0,1495.0,1495.0,1495.0,1.8552863597869873,0.028723827582952655,-0.3169687658074598,3.113614224410027,0.0006201841752044857,-0.0021057198755443096,0.0
58,5,-2.827173375408165e-06,1.0855582331714686e-05,-8.65892434376292e-06,-0.0002682942431420088,-0.0007081382209435105,0.0014988062903285027,-0.022041553631424904,0.03777718171477318,0.020909085869789124,0.0020851066801697016,0.0030698932241648436,0.00118232611566782,0.0,0.0,0.0,-0.0006122533231973648,-0.00013871004921384156,-0.0,0.0,0.0,0.0,0.0067316340282559395,-0.010882786475121975,0.0020915325731039047,1495.0,1495.0,1495.0,1495.0,0.0,0.0,0.0,0.0,0.0,0.0,0.0,0.0,1495.0,1495.0,1495.0,1495.0,1.8554999828338623,0.027391230559910818,-0.3174497006076653,3.113655409168536,0.0006201841752044857,-0.0021057198755443096,0.0
63,5,8.517954483977519e-06,9.273806426790543e-06,-7.866362466302235e-06,0.001254097674973309,-9.344214049633592e-05,0.0005044150748290122,-0.02202196791768074,0.037795111536979675,0.020896926522254944,0.0033447141759097576,-0.003084899391978979,0.0012708615977317095,0.0,0.0,0.0,-0.0006122533231973648,-0.00013871004921384156,-0.0,0.0,0.0,0.0,0.006731513421982527,-0.01102407556027174,0.0021177479065954685,1495.0,1495.0,1495.0,1495.0,0.0,0.0,0.0,0.0,0.0,0.0,0.0,0.0,1495.0,1495.0,1495.0,1495.0,1.8554999828338623,0.027807518480083834,-0.31758323252228887,3.1136372017649423,0.0006201841752044857,-0.0021057198755443096,0.0
68,5,4.167657152720494e-06,1.8907136109191924e-05,1.822992999223061e-05,-2.0396633772179484e-05,-0.0011933764908462763,-0.002929789014160633,-0.022013554349541664,0.03782792389392853,0.02088090591132641,-0.0009340193355455995,0.0026884081307798624,5.68404357181862e-05,0.0,0.0,0.0,0.0013316164258867502,-1.1978700058534741e-05,-0.0,0.0,0.0,0.0,0.006808573380112648,-0.010969400405883789,0.001979957101866603,1495.0,1495.0,1495.0,1495.0,0.0,0.0,0.0,0.0,0.0,0.0,0.0,0.0,1495.0,1495.0,1495.0,1495.0,1.8552556037902832,0.028001704705298787,-0.3171124039758501,3.1136755940327725,5.355067696655169e-05,0.0045792171731591225,0.0
77,9,1.1900264325959142e-05,3.5759514958044747e-06,-7.512098363804398e-06,0.00038773362757638097,0.0010958689963445067,0.0017826465191319585,-0.022013554349541664,0.03782792389392853,0.02088090591132641,-0.0009340193355455995,0.0026884081307798624,5.68404357181862e-05,0.0,0.0,0.0,0.0013316164258867502,-1.1978700058534741e-05,-0.0,0.0,0.0,0.0,0.006808573380112648,-0.010969400405883789,0.001979957101866603,1495.0,1495.0,1495.0,1495.0,0.0,0.0,0.0,0.0,0.0,0.0,0.0,0.0,1495.0,1495.0,1495.0,1495.0,1.8552556037902832,0.027461504010699554,-0.3183285722710764,3.113519036831,5.355067696655169e-05,0.0045792171731591225,0.0
82,5,1.1883228580700234e-05,1.024346875055926e-05,1.902629628602881e-05,0.00015304909902624786,-0.0003617544425651431,-0.0024715487379580736,-0.022013554349541664,0.03782792389392853,0.02088090591132641,-0.0009340193355455995,0.0026884081307798624,5.68404357181862e-05,0.0,0.0,0.0,-0.001189492642879486,0.00033995675039477646,-0.0,0.0,0.0,0.0,0.006808573380112648,-0.010969400405883789,0.001979957101866603,1495.0,1495.0,1495.0,1495.0,0.0,0.0,0.0,0.0,0.0,0.0,0.0,0.0,1495.0,1495.0,1495.0,1495.0,1.8549318313598633,0.028122461803787736,-0.3173661247144828,3.1136804573132757,-0.001519508776254952,-0.004089762456715107,0.0
87,5,1.1883228580700234e-05,1.024346875055926e-05,1.902629628602881e-05,0.00015304909902624786,-0.0003617544425651431,-0.0024715487379580736,-0.02202892303466797,0.03781567141413689,0.020902233198285103,0.00120913318824023,0.005180008709430695,-0.0019737808033823967,0.0,0.0,0.0,-0.001189492642879486,0.00033995675039477646,-0.0,0.0,0.0,0.0,0.0064793117344379425,-0.011332006193697453,0.0021426137536764145,13945.0,13964.0,16152.0,13228.0,0.43548184633255005,0.436734139919281,0.5937969088554382,0.389273464679718,0.0,0.0,0.0,0.0,13961.0,13952.0,16146.0,13233.0,1.8549318313598633,0.028122461803787736,-0.3173661247144828,3.1136804573132757,-0.001519508776254952,-0.004089762456715107,0.0
92,5,3.322569909869344e-06,1.004191562969936e-05,2.395980482106097e-05,-0.0009660593932494521,-0.00012051540397806093,-0.0015806404408067465,-0.02202892303466797,0.03781567141413689,0.020902233198285103,0.00120913318824023,0.005180008709430695,-0.0019737808033823967,0.0,0.0,0.0,0.0004108801658730954,0.00014301622286438942,-0.0,0.0,0.0,0.0,0.0064793117344379425,-0.011332006193697453,0.0021426137536764145,13945.0,13964.0,16152.0,13228.0,0.43548184633255005,0.436734139919281,0.5937969088554382,0.389273464679718,0.0,0.0,0.0,0.0,13961.0,13952.0,16146.0,13233.0,1.8553613424301147,0.028065057481161487,-0.31775097433267374,3.1138278674239843,-0.0006393897347152233,0.0014130327617749572,0.0
97,5,4.122771315451246e-06,-8.141001671901904e-06,1.2474862160161138e-05,0.0007286557811312377,0.0012454919051378965,-0.00021526822820305824,-0.022035742178559303,0.03776802122592926,0.020898493006825447,-0.00224733492359519,0.004345126450061798,-0.001928710495121777,0.0,0.0,0.0,0.0004108801658730954,0.00014301622286438942,-0.0,0.0,0.0,0.0,0.006922387517988682,-0.011402261443436146,0.002038940554484725,13900.0,13945.0,16186.0,13254.0,0.4324992299079895,0.43543940782546997,0.5964191555976868,0.3908977508544922,0.0,0.0,0.0,0.0,13962.0,13949.0,16161.0,13219.0,1.8553613424301147,0.027789231628182785,-0.3179914855085733,3.11383644871979,-0.0006393897347152233,0.0014130327617749572,0.0
102,5,-6.383915547303332e-07,1.3978646165924147e-05,3.3111411994468654e-06,-0.00027987724752165377,-0.002156161004677415,0.0010135391494259238,-0.021997105330228806,0.03779930993914604,0.020898478105664253,-0.00027846451848745346,-0.0016959821805357933,0.00032402577926404774,0.0,0.0,0.0,-0.0013711604988202453,0.0006163078942336142,-0.0,0.0,0.0,0.0,0.006264824885874987,-0.011252990923821926,0.002139722229912877,13990.0,13939.0,16168.0,13182.0,0.4384300708770752,0.43503767251968384,0.5950456857681274,0.3864184021949768,0.0,0.0,0.0,0.0,13914.0,13922.0,16200.0,13247.0,1.855287790298462,0.02852960716193042,-0.3174713231838766,3.113902157524106,-0.002755246590822935,-0.0047152843326330185,0.0
108,6,4.9646159823169e-06,1.1467182957858313e-05,1.1039758646802511e-05,0.0005604099715128541,-0.000561088789254427,-0.0005220184102654457,-0.021997105330228806,0.03779930993914604,0.020898478105664253,-0.00027846451848745346,-0.0016959821805357933,0.00032402577926404774,0.0,0.0,0.0,-0.0013711604988202453,0.0006163078942336142,-0.0,0.0,0.0,0.0,0.006264824885874987,-0.011252990923821926,0.002139722229912877,13990.0,13939.0,16168.0,13182.0,0.4384300708770752,0.43503767251968384,0.5950456857681274,0.3864184021949768,0.0,0.0,0.0,0.0,13914.0,13922.0,16200.0,13247.0,1.855287790298462,0.028072127466949943,-0.31741791481952075,3.1136412319019935,-0.002755246590822935,-0.0047152843326330185,0.0
113,5,1.5168946447374765e-05,1.221500315295998e-05,7.934624591143802e-06,0.0014486836735159159,-0.00031417401623912156,0.0001638087269384414,-0.021997105330228806,0.03779930993914604,0.020898478105664253,-0.00027846451848745346,-0.0016959821805357933,0.00032402577926404774,0.0,0.0,0.0,0.0006302247056737542,0.0004762197204399854,-0.0,0.0,0.0,0.0,0.006264824885874987,-0.011252990923821926,0.002139722229912877,13990.0,13939.0,16168.0,13182.0,0.4384300708770752,0.43503767251968384,0.5950456857681274,0.3864184021949768,0.0,0.0,0.0,0.0,13914.0,13922.0,16200.0,13247.0,1.855285882949829,0.0279313781523087,-0.317532377670116,3.1136395103360863,-0.002128972439095378,0.002167278667911887,0.0
118,5,1.3052986105321907e-05,1.2241236618137918e-05,2.4688613848411478e-05,0.00032555824145674706,-0.0001288176135858521,-0.0019449552055448294,-0.021981215104460716,0.03779963031411171,0.020917454734444618,0.0002774946915451437,0.00406230753287673,0.0009787025628611445,0.0,0.0,0.0,0.0006302247056737542,0.0004762197204399854,-0.0,0.0,0.0,0.0,0.0062149930745363235,-0.011162995360791683,0.002294371370226145,14000.0,13873.0,16219.0,13185.0,0.43909332156181335,0.430701345205307,0.598982572555542,0.38658407330513,0.0,0.0,0.0,0.0,13956.0,13973.0,16134.0,13225.0,1.855285882949829,0.028502334084132382,-0.3177590362679245,3.11386136758672,-0.002128972439095378,0.002167278667911887,0.0
123,5,1.4454047231993172e-05,1.7264899724978022e-05,2.2073905711295083e-05,0.0002983506128657609,-0.0006543665076605976,-0.00046421715524047613,-0.021981215104460716,0.03779963031411171,0.020917454734444618,0.0002774946915451437,0.00406230753287673,0.0009787025628611445,0.0,0.0,0.0,0.00016006527584977448,0.00028912286506965756,-0.0,0.0,0.0,0.0,0.0062149930745363235,-0.011162995360791683,0.002294371370226145,14000.0,13873.0,16219.0,13185.0,0.43909332156181335,0.430701345205307,0.598982572555542,0.38658407330513,0.0,0.0,0.0,0.0,13956.0,13973.0,16134.0,13225.0,1.8556687831878662,0.028657934645754765,-0.317915756553706,3.1140092090515052,-0.0012928101932629943,0.0005505618755705655,0.0
128,5,6.948667760298122e-06,1.0181009201915003e-05,2.1135168935870752e-05,-0.0007813052507117391,0.0005883201956748962,-7.303837628569454e-05,-0.021981215104460716,0.03779963031411171,0.020917454734444618,0.0002774946915451437,0.00406230753287673,0.0009787025628611445,0.0,0.0,0.0,0.00016006527584977448,0.00028912286506965756,-0.0,0.0,0.0,0.0,0.0062149930745363235,-0.011162995360791683,0.002294371370226145,14000.0,13873.0,16219.0,13185.0,0.43909332156181335,0.430701345205307,0.598982572555542,0.38658407330513,0.0,0.0,0.0,0.0,13956.0,13973.0,16134.0,13225.0,1.8556687831878662,0.028705939810354006,-0.317247958108385,3.1138635018183645,-0.0012928101932629943,0.0005505618755705655,0.0
133,5,4.244835963618243e-06,1.317155056312913e-05,5.69133317185333e-06,-0.0006369819166138768,-0.0001235369563801214,0.0018240449717268348,-0.021992962807416916,0.03779221698641777,0.020906705409288406,-0.0013823341578245163,0.0004517602501437068,0.000789489655289799,0.0,0.0,0.0,-0.0006251442828215659,-0.0006467229104600847,-0.0,0.0,0.0,0.0,0.0062547181732952595,-0.011060076765716076,0.0020537981763482094,13998.0,13934.0,16162.0,13192.0,0.43896615505218506,0.4347567558288574,0.5945380926132202,0.387026846408844,0.0,0.0,0.0,0.0,13997.0,13942.0,16151.0,13199.0,1.855452299118042,0.02809342754719352,-0.3177415525741989,3.1139206089033085,0.00289147743023932,-0.002150000538676977,0.0
138,5,3.711348384172197e-08,1.2099037121515721e-05,2.814003346429672e-05,-0.0007597194635309279,7.928682316560298e-05,-0.001964226132258773,-0.021992962807416916,0.03779221698641777,0.020906705409288406,-0.0013823341578245163,0.0004517602501437068,0.000789489655289799,0.0,0.0,0.0,-0.0006251442828215659,-0.0006467229104600847,-0.0,0.0,0.0,0.0,0.0062547181732952595,-0.011060076765716076,0.0020537981763482094,13998.0,13934.0,16162.0,13192.0,0.43896615505218506,0.4347567558288574,0.5945380926132202,0.387026846408844,0.0,0.0,0.0,0.0,13997.0,13942.0,16151.0,13199.0,1.855452299118042,0.02808929589559096,-0.3170746262123989,3.113791502324421,0.00289147743023932,-0.002150000538676977,0.0
144,5,-1.2757174090438639e-06,1.1021165846614167e-05,-1.5699870345997624e-06,-0.0004614274948835373,0.00016105937538668513,0.0027795122005045414,-0.022009501233696938,0.037776995450258255,0.020898064598441124,-0.000822886941023171,0.007377156522125006,-0.0024479825515300035,0.0,0.0,0.0,-6.703742837999016e-05,-0.0006371801719069481,-0.0,0.0,0.0,0.0,0.006822798866778612,-0.011120283976197243,0.002191476756706834,13988.0,13869.0,16208.0,13215.0,0.43831050395965576,0.43041056394577026,0.5980901122093201,0.388474702835083,0.0,0.0,0.0,0.0,13917.0,13947.0,16136.0,13296.0,1.855277419090271,0.02765355736770272,-0.3171246678758908,3.1135867362537297,0.002848544158041477,-0.0002305338712176308,0.0
149,5,1.2667867395066423e-06,5.2298464652267285e-06,-2.2732336901754024e-07,0.0001205294975079596,0.0007593820337206125,0.0009506851783953607,-0.022009501233696938,0.037776995450258255,0.020898064598441124,-0.000822886941023171,0.007377156522125006,-0.0024479825515300035,0.0,0.0,0.0,-6.703742837999016e-05,-0.0006371801719069481,-0.0,0.0,0.0,0.0,0.006822798866778612,-0.011120283976197243,0.002191476756706834,13988.0,13869.0,16208.0,13215.0,0.43831050395965576,0.43041056394577026,0.5980901122093201,0.388474702835083,0.0,0.0,0.0,0.0,13917.0,13947.0,16136.0,13296.0,1.855277419090271,0.027692919435605635,-0.31688796371038047,3.113473541172581,0.002848544158041477,-0.0002305338712176308,0.0
154,5,-4.092677045264281e-06,-4.045047717227135e-06,-1.382075970468577e-05,-0.0005949238548055291,0.0014167401241138577,0.0020114865619689226,-0.02201424352824688,0.03768365830183029,0.02088782750070095,0.0007277217227965593,-0.0008097875979728997,0.004104102496057749,0.0,0.0,0.0,-0.0008197334827855229,0.00010271859355270863,-0.0,0.0,0.0,0.0,0.006687559187412262,-0.011223727837204933,0.0022651494946330786,14012.0,13868.0,16232.0,13167.0,0.43989789485931396,0.43035924434661865,0.5999385714530945,0.3854730725288391,0.0,0.0,0.0,0.0,13943.0,13938.0,16148.0,13270.0,1.8550708293914795,0.027607375143684942,-0.3173172108479011,3.1137013513385283,-0.00045915713417343795,-0.0028186531271785498,0.0
159,5,5.909544711357739e-07,1.2224060810694937e-05,2.0496270735748112e-05,0.00032406626269221306,-0.0013855970464646816,-0.003313448978587985,-0.02201424352824688,0.03768365830183029,0.02088782750070095,0.0007277217227965593,-0.0008097875979728997,0.004104102496057749,0.0,0.0,0.0,-0.0008197334827855229,0.00010271859355270863,-0.0,0.0,0.0,0.0,0.006687559187412262,-0.011223727837204933,0.0022651494946330786,14012.0,13868.0,16232.0,13167.0,0.43989789485931396,0.43035924434661865,0.5999385714530945,0.3854730725288391,0.0,0.0,0.0,0.0,13943.0,13938.0,16148.0,13270.0,1.8550708293914795,0.028221948583019286,-0.31764788214615547,3.1142040540626916,-0.00045915713417343795,-0.0028186531271785498,0.0
164,5,8.547538527636789e-06,1.0907278920058161e-05,1.0046233001048677e-05,0.001084416639059782,-0.0003962249611504376,-7.137509237509221e-05,-0.022018469870090485,0.03772198036313057,0.02089199610054493,-0.0006753409979864955,-0.001549818436615169,-0.0016131610609591007,0.0,0.0,0.0,0.0015306933782994747,0.0002726255916059017,-0.0,0.0,0.0,0.0,0.0064819566905498505,-0.011586343869566917,0.0020787788089364767,13932.0,13973.0,16180.0,13203.0,0.43456366658210754,0.437287837266922,0.5959160923957825,0.3876846730709076,0.0,0.0,0.0,0.0,13915.0,13973.0,16183.0,13213.0,1.855156660079956,0.027779466582985055,-0.3174327413007756,3.1136641545838444,-0.0012187049724161625,0.005263529252260923,0.0
169,5,2.0874311303487048e-05,1.3884027794119902e-05,1.2425081877154298e-05,0.0019129792926833034,-0.0005156997940503061,-0.0003140119952149689,-0.022018469870090485,0.03772198036313057,0.02089199610054493,-0.0006753409979864955,-0.001549818436615169,-0.0016131610609591007,0.0,0.0,0.0,0.0015306933782994747,0.0002726255916059017,-0.0,0.0,0.0,0.0,0.0064819566905498505,-0.011586343869566917,0.0020787788089364767,13932.0,13973.0,16180.0,13203.0,0.43456366658210754,0.437287837266922,0.5959160923957825,0.3876846730709076,0.0,0.0,0.0,0.0,13915.0,13973.0,16183.0,13213.0,1.855156660079956,0.02819174040226155,-0.3178634714495805,3.1138853076053987,-0.0012187049724161625,0.005263529252260923,0.0
174,5,-2.173586835851893e-06,2.1702438971260563e-05,1.7810361896408722e-05,-0.002000556094571948,-0.001144489273428917,-0.0007718383567407727,-0.022002089768648148,0.037747275084257126,0.02088184282183647,-0.000564294052310288,0.004438497591763735,0.00024614721769466996,0.0,0.0,0.0,0.0005847671418450773,0.0016306822653859854,-0.0,0.0,0.0,0.0,0.0065927947871387005,-0.011534763500094414,0.0021243554074317217,13946.0,13940.0,16194.0,13201.0,0.43551236391067505,0.4351261854171753,0.5970573425292969,0.3875815272331238,0.0,0.0,0.0,0.0,13989.0,13919.0,16179.0,13193.0,1.854952096939087,0.028170011073636973,-0.3183305383411866,3.114072655535958,-0.007288760505616665,0.002010592957958579,0.0
179,5,9.639043128117919e-06,1.5800806068000384e-05,2.2393103790818714e-05,0.0006172931753098965,0.00025040024775080383,-0.0008586643380112946,-0.022002089768648148,0.037747275084257126,0.02088184282183647,-0.000564294052310288,0.004438497591763735,0.00024614721769466996,0.0,0.0,0.0,0.0005847671418450773,0.0016306822653859854,-0.0,0.0,0.0,0.0,0.0065927947871387005,-0.011534763500094414,0.0021243554074317217,13946.0,13940.0,16194.0,13201.0,0.43551236391067505,0.4351261854171753,0.5970573425292969,0.3875815272331238,0.0,0.0,0.0,0.0,13989.0,13919.0,16179.0,13193.0,1.854952096939087,0.02831775267422959,-0.3171626947876586,3.1138031160229147,-0.007288760505616665,0.002010592957958579,0.0
184,5,8.777249604463577e-06,1.310837069468107e-05,1.2046705705870409e-05,0.00014350209676194936,0.0004232523206155747,0.0008981019491329789,-0.022017650306224823,0.03772812336683273,0.020866112783551216,0.002458989853039384,0.0013300327118486166,0.0027251385618001223,0.0,0.0,0.0,-0.00024774932535365224,0.0005299130571074784,-0.0,0.0,0.0,0.0,0.00641204696148634,-0.01136507373303175,0.001994956284761429,13947.0,13967.0,16154.0,13218.0,0.4355665147304535,0.43691548705101013,0.5939624309539795,0.38862642645835876,0.0,0.0,0.0,0.0,14269.0,13541.0,16495.0,12888.0,1.8546319007873535,0.02824169881746948,-0.31773330376325193,3.113890684451485,-0.0023681772872805595,-0.000851684482768178,0.0
189,5,9.02114697964862e-06,7.3926421464420855e-06,8.393716939281148e-07,8.666852227179334e-05,0.0008551883511245251,0.0017041208921000361,-0.022017650306224823,0.03772812336683273,0.020866112783551216,0.002458989853039384,0.0013300327118486166,0.0027251385618001223,0.0,0.0,0.0,-0.00024774932535365224,0.0005299130571074784,-0.0,0.0,0.0,0.0,0.00641204696148634,-0.01136507373303175,0.001994956284761429,13947.0,13967.0,16154.0,13218.0,0.4355665147304535,0.43691548705101013,0.5939624309539795,0.38862642645835876,0.0,0.0,0.0,0.0,14269.0,13541.0,16495.0,12888.0,1.8546319007873535,0.028243499085427042,-0.3172411239866241,3.113231010611388,-0.0023681772872805595,-0.000851684482768178,0.0
194,5,-9.619182037567953e-07,1.9846374925691634e-06,4.934183834848227e-06,-0.0011633004760369658,0.0009910359513014555,0.00019027089001610875,-0.022027380764484406,0.03772309795022011,0.021163316443562508,0.008726490661501884,0.010896558873355389,-0.09991484880447388,0.0,0.0,0.0,-0.0009179579210467637,8.363383676623926e-05,-0.0,0.0,0.0,0.0,0.007048336323350668,-0.011330489069223404,0.002234323415905237,13498.0,14323.0,15824.0,13698.0,0.40636205673217773,0.4608680009841919,0.5687011480331421,0.41922545433044434,0.0,0.0,0.0,0.0,12706.0,15016.0,15105.0,14501.0,1.8606313467025757,0.027684782321094482,-0.31737444720886665,3.114347361714341,-0.00037496790173463523,-0.003165859030559659,-0.0
199,5,-1.2998177680856315e-06,3.8068932894930185e-07,-2.20815581997158e-06,-0.000505868112668395,0.0005888881278224289,0.0009331891196779907,-0.022027380764484406,0.03772309795022011,0.021163316443562508,0.008726490661501884,0.010896558873355389,-0.09991484880447388,0.0,0.0,0.0,-0.0009179579210467637,8.363383676623926e-05,-0.0,0.0,0.0,0.0,0.007048336323350668,-0.011330489069223404,0.002234323415905237,13498.0,14323.0,15824.0,13698.0,0.40636205673217773,0.4608680009841919,0.5687011480331421,0.41922545433044434,0.0,0.0,0.0,0.0,12706.0,15016.0,15105.0,14501.0,1.8606313467025757,0.026788031177134037,-0.3176758193217581,3.1136537525009684,-0.00037496790173463523,-0.003165859030559659,-0.0
204,5,1.9506582248141058e-05,7.982569513842463e-06,3.3214328141184524e-05,0.0022944207303225994,-0.0006766703445464373,-0.00387742230668664,-0.022122196853160858,0.03762999176979065,0.02130977250635624,-0.02265928126871586,-0.018166014924645424,0.1540551483631134,0.0,0.0,0.0,-0.0006385695887729526,-0.0004239590489305556,-0.0,0.0,0.0,0.0,0.007140841335058212,-0.011276638135313988,0.006408444605767727,15522.0,12052.0,17612.0,11298.0,0.5460987687110901,0.31914669275283813,0.7119172215461731,0.2777894139289856,0.0,0.0,0.0,0.0,13489.0,14306.0,15756.0,13800.0,1.8635836839675903,0.028350369359184373,-0.3177249323515808,3.1133389635434265,0.001903814380057156,-0.0022057974711060524,0.0
210,5,5.9560866247920785e-06,3.769146815102431e-06,2.720033262448851e-05,-0.0007082910742610693,0.0002349425631109625,-0.0008292895508930087,-0.022122196853160858,0.03762999176979065,0.02130977250635624,-0.02265928126871586,-0.018166014924645424,0.1540551483631134,0.0,0.0,0.0,-0.0006385695887729526,-0.0004239590489305556,-0.0,0.0,0.0,0.0,0.007140841335058212,-0.011276638135313988,0.006408444605767727,15522.0,12052.0,17612.0,11298.0,0.5460987687110901,0.31914669275283813,0.7119172215461731,0.2777894139289856,0.0,0.0,0.0,0.0,13489.0,14306.0,15756.0,13800.0,1.8635836839675903,0.027843951743973923,-0.31749919412533617,3.11413341692517,0.001903814380057156,-0.0022057974711060524,0.0
215,5,6.135193416412221e-06,1.686754148977343e-05,3.16722689603921e-05,-0.0002618236467242241,-0.00147783022839576,-0.0008683480555191636,-0.022116325795650482,0.037449341267347336,0.020384421572089195,0.0017009238945320249,0.016408832743763924,0.0026761682238429785,0.0,0.0,0.0,-0.00025144623941741884,-0.00059002690250054,-0.0,0.0,0.0,0.0,0.006331093609333038,-0.010142075829207897,-0.0013754238607361913,13316.0,14562.0,15503.0,13982.0,0.3947983980178833,0.4772230386734009,0.5447038412094116,0.4379066228866577,0.0,0.0,0.0,0.0,15279.0,12500.0,17420.0,11556.0,1.8448878526687622,0.02823235799827009,-0.3174252408865562,3.1137372366822302,0.002622972009703517,-0.0008598518907092512,0.0
220,5,3.480940222289064e-06,2.1274156097206287e-05,3.487638241495006e-05,-0.0004232398350723088,-0.0011199258733540773,-0.0007318328716792166,-0.022116325795650482,0.037449341267347336,0.020384421572089195,0.0017009238945320249,0.016408832743763924,0.0026761682238429785,0.0,0.0,0.0,-0.00025144623941741884,-0.00059002690250054,-0.0,0.0,0.0,0.0,0.006331093609333038,-0.010142075829207897,-0.0013754238607361913,13316.0,14562.0,15503.0,13982.0,0.3947983980178833,0.4772230386734009,0.5447038412094116,0.4379066228866577,0.0,0.0,0.0,0.0,15279.0,12500.0,17420.0,11556.0,1.8448878526687622,0.028035787973748248,-0.31728445559968244,3.113585841858419,0.002622972009703517,-0.0008598518907092512,0.0
225,5,1.4382300150828087e-06,1.2756656360579655e-05,2.1175323126954027e-05,-0.00041442117071710527,0.0005741295753978193,0.0013513938756659627,-0.022243935614824295,0.037591803818941116,0.02084239199757576,-0.020578213036060333,0.021921472623944283,-0.09104663133621216,0.0,0.0,0.0,-0.00025144623941741884,-0.00059002690250054,-0.0,0.0,0.0,0.0,0.0066444301046431065,-0.011700084432959557,0.001297801616601646,13315.0,14563.0,15649.0,13908.0,0.3947609066963196,0.4773441553115845,0.5555298328399658,0.4329965114593506,0.0,0.0,0.0,0.0,13502.0,14407.0,15579.0,13971.0,1.8448878526687622,0.02903224497652492,-0.3168214538958954,3.113939068546674,0.0015458031557500362,-0.0020823271479457617,-0.0
230,5,1.738053106237203e-05,1.2949063602718525e-05,3.091928374487907e-05,0.001747307600453496,0.00020656298147514462,-0.0006287177093327045,-0.022243935614824295,0.037591803818941116,0.02084239199757576,-0.020578213036060333,0.021921472623944283,-0.09104663133621216,0.0,0.0,0.0,-0.0006058916333131492,-0.00034598467755131423,-0.0,0.0,0.0,0.0,0.0066444301046431065,-0.011700084432959557,0.001297801616601646,13315.0,14563.0,15649.0,13908.0,0.3947609066963196,0.4773441553115845,0.5555298328399658,0.4329965114593506,0.0,0.0,0.0,0.0,13502.0,14407.0,15579.0,13971.0,1.854152798652649,0.028749593677238394,-0.31692577303945146,3.1137476921318887,0.0015458031557500362,-0.0020823271479457617,-0.0
235,5,1.4467632354353555e-06,1.8351051039644517e-05,4.2854931962210685e-05,-0.0012131290277466178,-0.0005656132125295699,-0.001683764741756022,-0.022384531795978546,0.03708520159125328,0.020906677469611168,-0.04429073631763458,0.05170799419283867,0.030952583998441696,0.0,0.0,0.0,-0.0006058916333131492,-0.00034598467755131423,-0.0,0.0,0.0,0.0,0.006838392466306686,-0.010683742351830006,0.0019481310155242682,14621.0,13199.0,16688.0,12732.0,0.48133495450019836,0.3874600827693939,0.6359215378761292,0.3588671386241913,0.0,0.0,0.0,0.0,13566.0,14353.0,15757.0,13806.0,1.854152798652649,0.0280949078644375,-0.31665911218869286,3.113694518442433,0.0015458031557500362,-0.0020823271479457617,-0.0
240,5,1.7059108358807862e-05,2.1418576579890214e-05,8.41065266286023e-05,0.001388229662552476,-0.0005943484138697386,-0.005623697768896818,-0.022384531795978546,0.03708520159125328,0.020906677469611168,-0.04429073631763458,0.05170799419283867,0.030952583998441696,0.0,0.0,0.0,0.0006462366436608136,-0.0010156427742913365,-0.0,0.0,0.0,0.0,0.006838392466306686,-0.010683742351830006,0.0019481310155242682,14621.0,13199.0,16688.0,12732.0,0.48133495450019836,0.3874600827693939,0.6359215378761292,0.3588671386241913,0.0,0.0,0.0,0.0,13566.0,14353.0,15757.0,13806.0,1.855452299118042,0.02856565082147528,-0.316060812557634,3.113959771497804,0.004540905822068453,0.0022225414868444204,0.0
245,5,3.3438125683460385e-05,7.678101610508747e-06,0.00012092102406313643,0.002520774258300662,0.0014111176133155823,-0.006667218171060085,-0.022567443549633026,0.036633893847465515,0.020802106708288193,-0.02957995980978012,0.03859604522585869,0.033576611429452896,0.0,0.0,0.0,0.0006462366436608136,-0.0010156427742913365,-0.0,0.0,0.0,0.0,0.006672693882137537,-0.007254800759255886,0.0015287345740944147,14055.0,13696.0,16230.0,13130.0,0.44276684522628784,0.4191070795059204,0.5998491048812866,0.38316482305526733,0.0,0.0,0.0,0.0,14201.0,13514.0,16267.0,13115.0,1.855452299118042,0.02880825156280623,-0.3156138824026592,3.1137666646283644,0.004540905822068453,0.0022225414868444204,0.0
250,5,5.467639857670292e-05,2.2034633730072528e-05,0.00016604168922640383,0.0035569025203585625,-0.0011583368759602308,-0.008081368170678616,-0.022567443549633026,0.036633893847465515,0.020802106708288193,-0.02957995980978012,0.03859604522585869,0.033576611429452896,0.0,0.0,0.0,-0.0015279236249625683,0.0021579836029559374,-0.0,0.0,0.0,0.0,0.006672693882137537,-0.007254800759255886,0.0015287345740944147,14055.0,13696.0,16230.0,13130.0,0.44276684522628784,0.4191070795059204,0.5998491048812866,0.38316482305526733,0.0,0.0,0.0,0.0,14201.0,13514.0,16267.0,13115.0,1.8533447980880737,0.028271288793140458,-0.31330045763029385,3.1137734997679507,-0.009637300856411457,-0.005248873494565487,0.0
255,5,5.0257513066753745e-05,2.785893411783036e-05,0.0002375565527472645,0.0008924946305342019,-0.0011622506426647305,-0.011814330704510212,-0.022656407207250595,0.035772986710071564,0.020695755258202553,-0.004270064644515514,0.1574794352054596,-0.0031192637979984283,0.0,0.0,0.0,-0.0015279236249625683,0.0021579836029559374,-0.0,0.0,0.0,0.0,0.006913517601788044,-0.005992005579173565,0.0013842518674209714,13973.0,13907.0,15548.0,13971.0,0.4373350143432617,0.4329172968864441,0.5480494499206543,0.4371505379676819,0.0,0.0,0.0,0.0,14424.0,13316.0,16117.0,13406.0,1.8533447980880737,0.02960779245188329,-0.3129700926869141,3.113794956858314,-0.009637300856411457,-0.005248873494565487,0.0
261,5,5.4388550779549405e-05,4.254624946042895e-05,0.00026922914548777044,0.0008527220925316215,-0.002227378310635686,-0.00852644257247448,-0.022656407207250595,0.035772986710071564,0.020695755258202553,-0.004270064644515514,0.1574794352054596,-0.0031192637979984283,0.0,0.0,0.0,0.0013150530867278576,0.0008124147425405681,-0.0,0.0,0.0,0.0,0.006913517601788044,-0.005992005579173565,0.0013842518674209714,13973.0,13907.0,15548.0,13971.0,0.4373350143432617,0.4329172968864441,0.5480494499206543,0.4371505379676819,0.0,0.0,0.0,0.0,14424.0,13316.0,16117.0,13406.0,1.8511906862258911,0.02910646649557955,-0.3122468657821675,3.113757894282247,-0.0036239351611584425,0.004512349609285593,0.0
266,5,5.4388550779549405e-05,4.254624946042895e-05,0.00026922914548777044,0.0008527220925316215,-0.002227378310635686,-0.00852644257247448,-0.022750267758965492,0.033614784479141235,0.02058190107345581,0.028312766924500465,0.20138059556484222,-0.03426592797040939,0.0,0.0,0.0,0.0013150530867278576,0.0008124147425405681,-0.0,0.0,0.0,0.0,0.006361739709973335,-0.004233245272189379,0.002888358198106289,13973.0,13907.0,15548.0,13971.0,0.4373350143432617,0.4329172968864441,0.5480494499206543,0.4371505379676819,0.0,0.0,0.0,0.0,14320.0,13480.0,15886.0,13651.0,1.8511906862258911,0.02910646649557955,-0.3122468657821675,3.113757894282247,-0.0036239351611584425,0.004512349609285593,0.0
271,5,5.4388550779549405e-05,4.254624946042895e-05,0.00026922914548777044,0.0008527220925316215,-0.002227378310635686,-0.00852644257247448,-0.022750267758965492,0.033614784479141235,0.02058190107345581,0.028312766924500465,0.20138059556484222,-0.03426592797040939,0.0,0.0,0.0,0.0025058086030185223,0.0007850918336771429,-0.0,0.0,0.0,0.0,0.006361739709973335,-0.004233245272189379,0.002888358198106289,13973.0,13907.0,15548.0,13971.0,0.4373350143432617,0.4329172968864441,0.5480494499206543,0.4371505379676819,0.0,0.0,0.0,0.0,14320.0,13480.0,15886.0,13651.0,1.8488918542861938,0.02910646649557955,-0.3122468657821675,3.113757894282247,-0.003497699275612831,0.008587507531046867,0.0
276,5,5.4388550779549405e-05,4.254624946042895e-05,0.00026922914548777044,0.0008527220925316215,-0.002227378310635686,-0.00852644257247448,-0.022724494338035583,0.032058246433734894,0.020624063909053802,0.0034186176490038633,0.19477275013923645,0.029947515577077866,0.0,0.0,0.0,0.0025058086030185223,0.0007850918336771429,-0.0,0.0,0.0,0.0,0.0073347571305930614,-0.004624101333320141,0.001186927780508995,14134.0,13626.0,15604.0,13958.0,0.4480612874031067,0.41461682319641113,0.5521817207336426,0.43633079528808594,0.0,0.0,0.0,0.0,14068.0,13867.0,15315.0,14142.0,1.8488918542861938,0.02910646649557955,-0.3122468657821675,3.113757894282247,-0.003497699275612831,0.008587507531046867,0.0
281,5,0.00012825957674067467,0.00012324978888500482,0.00032313147676177323,0.004104963969439268,-0.00454389164224267,-0.001098311273381114,-0.022724494338035583,0.032058246433734894,0.020624063909053802,0.0034186176490038633,0.19477275013923645,0.029947515577077866,0.0,0.0,0.0,0.0025046966038644314,0.0007847724482417107,-0.0,0.0,0.0,0.0,0.0073347571305930614,-0.004624101333320141,0.001186927780508995,14134.0,13626.0,15604.0,13958.0,0.4480612874031067,0.41461682319641113,0.5521817207336426,0.43633079528808594,0.0,0.0,0.0,0.0,14068.0,13867.0,15315.0,14142.0,1.8497447967529297,0.029613453346063762,-0.3089760431519283,3.11369344276107,-0.0034978894982486963,0.008587656542658806,0.0
286,5,0.00011360897769918665,0.00014559367264155298,0.00035974799538962543,-0.0001160864339908585,-0.004498823080211878,-0.004833306651562452,-0.02255091816186905,0.02986115776002407,0.0204292181879282,0.005581820383667946,0.1813385933637619,0.009622149169445038,0.0,0.0,0.0,0.0025046966038644314,0.0007847724482417107,-0.0,0.0,0.0,0.0,0.0042730835266411304,-0.006108901463449001,0.0018543791957199574,14146.0,14058.0,15430.0,13675.0,0.44885164499282837,0.4429660439491272,0.5393181443214417,0.41775602102279663,0.0,0.0,0.0,0.0,14500.0,13351.0,15950.0,13445.0,1.8497447967529297,0.030928866927710116,-0.30842850660331045,3.1140735538419237,-0.0034978894982486963,0.008587656542658806,0.0
291,5,8.496803638990968e-05,0.0001416565792169422,0.0004155799688305706,-0.0034833478275686502,-0.00132707878947258,-0.008633160032331944,-0.02255091816186905,0.02986115776002407,0.0204292181879282,0.005581820383667946,0.1813385933637619,0.009622149169445038,0.0,0.0,0.0,0.005165497772395611,4.293626989237964e-05,-0.0,0.0,0.0,0.0,0.0042730835266411304,-0.006108901463449001,0.0018543791957199574,14146.0,14058.0,15430.0,13675.0,0.44885164499282837,0.4429660439491272,0.5393181443214417,0.41775602102279663,0.0,0.0,0.0,0.0,14500.0,13351.0,15950.0,13445.0,1.8458194732666016,0.03242906740565034,-0.30864921153245717,3.1147528377698466,-0.00019096757750958204,0.017672844231128693,0.0
296,5,4.730342698167078e-05,0.00012457746197469532,0.0005146180628798902,-0.005913091823458672,0.0015186633681878448,-0.015337835066020489,-0.021598326042294502,0.028894230723381042,0.020354099571704865,0.2522890269756317,0.08805501461029053,-0.04263481870293617,0.0,0.0,0.0,0.005165497772395611,4.293626989237964e-05,-0.0,0.0,0.0,0.0,0.0009746444993652403,-0.008331377059221268,0.0022417334839701653,14558.0,14025.0,15737.0,12914.0,0.4769793748855591,0.4407481551170349,0.5621272325515747,0.36989009380340576,0.0,0.0,0.0,0.0,14408.0,13996.0,15625.0,13235.0,1.8458194732666016,0.03392148651835189,-0.3082443474802885,3.114792456280345,-0.00019096757750958204,0.017672844231128693,0.0
301,5,-8.132616130751558e-06,0.0001042954609147273,0.0005885930149815977,-0.009017561562359333,0.0030413048807531595,-0.015012125484645367,-0.021598326042294502,0.028894230723381042,0.020354099571704865,0.2522890269756317,0.08805501461029053,-0.04263481870293617,0.0,0.0,0.0,-0.001464923145249486,-0.004930688999593258,-0.0,0.0,0.0,0.0,0.0009746444993652403,-0.008331377059221268,0.0022417334839701653,14558.0,14025.0,15737.0,12914.0,0.4769793748855591,0.4407481551170349,0.5621272325515747,0.36989009380340576,0.0,0.0,0.0,0.0,14408.0,13996.0,15625.0,13235.0,1.8442976474761963,0.03514271747049744,-0.30864075774149485,3.115002557875783,0.021912317723035812,-0.0050078826025128365,0.0
306,5,-3.45244916388765e-05,7.267986075021327e-05,0.0006655681063421071,-0.0067740497179329395,0.005010394845157862,-0.015241864137351513,-0.014221973717212677,0.028408754616975784,0.020080959424376488,0.47723060846328735,-0.01958646811544895,0.0071084024384617805,0.0,0.0,0.0,-0.001464923145249486,-0.004930688999593258,-0.0,0.0,0.0,0.0,-0.0027098350692540407,-0.00914810597896576,0.0014094366924837232,14480.0,14420.0,15450.0,12850.0,0.4715953767299652,0.46745067834854126,0.5407949686050415,0.3659783899784088,0.0,0.0,0.0,0.0,14289.0,14441.0,15394.0,13170.0,1.8442976474761963,0.03637047573882099,-0.3096594666392031,3.1149979442267792,0.021912317723035812,-0.0050078826025128365,0.0
311,5,-6.779382238164544e-05,4.211287887301296e-05,0.0007317913114093244,-0.006701939273625612,0.005672195460647345,-0.014043531380593777,-0.014221973717212677,0.028408754616975784,0.020080959424376488,0.47723060846328735,-0.01958646811544895,0.0071084024384617805,0.0,0.0,0.0,-0.005394792649894953,-0.00577580789104104,-0.0,0.0,0.0,0.0,-0.0027098350692540407,-0.00914810597896576,0.0014094366924837232,14480.0,14420.0,15450.0,12850.0,0.4715953767299652,0.46745067834854126,0.5407949686050415,0.3659783899784088,0.0,0.0,0.0,0.0,14289.0,14441.0,15394.0,13170.0,1.8387928009033203,0.03778612117365992,-0.3092121513052695,3.115038125370392,0.025591084733605385,-0.01838705874979496,0.0
316,5,-9.618886542739347e-05,2.74667745543411e-05,0.0008010886376723647,-0.006088180933147669,0.004026410635560751,-0.013933093287050724,-0.014221973717212677,0.028408754616975784,0.020080959424376488,0.47723060846328735,-0.01958646811544895,0.0071084024384617805,0.0,0.0,0.0,-0.005394792649894953,-0.00577580789104104,-0.0,0.0,0.0,0.0,-0.0027098350692540407,-0.00914810597896576,0.0014094366924837232,14480.0,14420.0,15450.0,12850.0,0.4715953767299652,0.46745067834854126,0.5407949686050415,0.3659783899784088,0.0,0.0,0.0,0.0,14289.0,14441.0,15394.0,13170.0,1.8387928009033203,0.03901498905280465,-0.3105894258352142,3.1149998823530645,0.025591084733605385,-0.01838705874979496,0.0
322,5,-0.00013702137221116573,2.0693218175438233e-05,0.0008668802911415696,-0.0073351734317839146,0.002423390978947282,-0.01346823014318943,-0.014221973717212677,0.028408754616975784,0.020080959424376488,0.47723060846328735,-0.01958646811544895,0.0071084024384617805,0.0,0.0,0.0,-0.005394792649894953,-0.00577580789104104,-0.0,0.0,0.0,0.0,-0.00030566647183150053,-0.008624840527772903,0.001521509955637157,14286.0,14613.0,15333.0,12965.0,0.45832744240760803,0.4807613492012024,0.5322017073631287,0.3730071485042572,0.0,0.0,0.0,0.0,14672.0,14202.0,15569.0,12730.0,1.8387928009033203,0.04058832620112178,-0.3098466033688182,3.1148072994189246,0.028259366750717163,-0.008971624076366425,0.0
327,5,-0.00016968791896943003,1.5380015611299314e-05,0.0009057648130692542,-0.006854055915027857,0.0016069406410679221,-0.010053434409201145,-0.014221973717212677,0.028408754616975784,0.020080959424376488,0.47723060846328735,-0.01958646811544895,0.0071084024384617805,0.0,0.0,0.0,-0.0026322908233851194,-0.006378013174980879,-0.0,0.0,0.0,0.0,-0.00030566647183150053,-0.008624840527772903,0.001521509955637157,14286.0,14613.0,15333.0,12965.0,0.45832744240760803,0.4807613492012024,0.5322017073631287,0.3730071485042572,0.0,0.0,0.0,0.0,14672.0,14202.0,15569.0,12730.0,1.8387792110443115,0.04058533345362342,-0.3114177136316384,3.1151316163300824,0.028259366750717163,-0.008971624076366425,0.0
332,5,-0.0001791466202121228,9.822317224461585e-06,0.0009269992006011307,-0.0038766649086028337,0.0013097000773996115,-0.006569503340870142,-0.008086267858743668,0.027973484247922897,0.020030634477734566,0.1821589469909668,0.08435854315757751,0.024550382047891617,0.0,0.0,0.0,-0.0026322908233851194,-0.006378013174980879,-0.0,0.0,0.0,0.0,-0.0007724568713456392,-0.008496839553117752,0.0026909608859568834,14906.0,13939.0,15724.0,12434.0,0.5013765096664429,0.4350764751434326,0.5611875653266907,0.34115225076675415,0.0,0.0,0.0,0.0,14305.0,14495.0,15341.0,13066.0,1.8387792110443115,0.04052485174420214,-0.3106190746505653,3.114698675497342,0.028259366750717163,-0.008971624076366425,0.0
337,5,-0.0002018898376263678,1.9370596419321373e-05,0.0009534513810649514,-0.004279852844774723,-0.0006219135248102248,-0.005802063271403313,-0.008086267858743668,0.027973484247922897,0.020030634477734566,0.1821589469909668,0.08435854315757751,0.024550382047891617,0.0,0.0,0.0,-0.0014252903638407588,-0.003505288390442729,-0.0,0.0,0.0,0.0,-0.0007724568713456392,-0.008496839553117752,0.0026909608859568834,14906.0,13939.0,15724.0,12434.0,0.5013765096664429,0.4350764751434326,0.5611875653266907,0.34115225076675415,0.0,0.0,0.0,0.0,14305.0,14495.0,15341.0,13066.0,1.8377273082733154,0.041283515449158315,-0.310258047843535,3.1149746981268955,0.015522276051342487,-0.004855038598179817,0.0
342,5,-0.00021144433412700891,1.8937855202239007e-05,0.0009441148140467703,-0.0028584804385900497,-0.00019683633581735194,-0.001200436381623149,-0.006748829036951065,0.026310991495847702,0.019887743517756462,0.0352783203125,0.18066325783729553,-0.002137283328920603,0.0,0.0,0.0,-0.0014252903638407588,-0.003505288390442729,-0.0,0.0,0.0,0.0,-0.0002165071782656014,-0.005392117891460657,0.0016359771834686399,14670.0,13941.0,15346.0,13171.0,0.48477786779403687,0.4352183938026428,0.5331032872200012,0.3856932520866394,0.0,0.0,0.0,0.0,14932.0,13501.0,15649.0,12973.0,1.8377273082733154,0.040355030579607806,-0.30900350394293946,3.1149359343297016,0.015522276051342487,-0.004855038598179817,0.0
347,5,0.016070447862148285,0.0006405331077985466,0.001477341982536018,-0.0057106902822852135,-0.0037974838633090258,-0.00014338799519464374,-0.006748829036951065,0.026310991495847702,0.019887743517756462,0.0352783203125,0.18066325783729553,-0.002137283328920603,0.0,0.0,0.0,0.00024836338707245886,-0.0026875820476561785,-0.0,0.0,0.0,0.0,-0.0002165071782656014,-0.005392117891460657,0.0016359771834686399,14670.0,13941.0,15346.0,13171.0,0.48477786779403687,0.4352183938026428,0.5331032872200012,0.3856932520866394,0.0,0.0,0.0,0.0,14932.0,13501.0,15649.0,12973.0,1.8348195552825928,-0.09746984053783363,0.14178965857789252,-0.07239428641510554,0.011882462538778782,0.0008446747087873518,0.0
352,5,0.01605037786066532,0.0006389511399902403,0.0014604084426537156,-0.0046927547082304955,-0.0013291550567373633,0.001974658574908972,-0.006703301798552275,0.02432507835328579,0.02009391225874424,0.005758421495556831,0.2382722944021225,-0.01612061820924282,0.0,0.0,0.0,0.00024836338707245886,-0.0026875820476561785,-0.0,0.0,0.0,0.0,0.0012756399810314178,-0.0030603245832026005,0.0023742797784507275,14763.0,13665.0,15327.0,13377.0,0.4913088083267212,0.4170893430709839,0.5317359566688538,0.3986451029777527,0.0,0.0,0.0,0.0,14437.0,13957.0,14939.0,13848.0,1.8348195552825928,-0.0986348101900877,0.14116342849418614,-0.07216188809304402,0.011882462538778782,0.0008446747087873518,0.0
357,5,0.016017036512494087,0.0006513898260891438,0.0014607674675062299,-0.00587797537446022,-0.0020243036560714245,0.0007467914838343859,-0.006703301798552275,0.02432507835328579,0.02009391225874424,0.005758421495556831,0.2382722944021225,-0.01612061820924282,0.0,0.0,0.0,0.002494224812835455,0.01596119999885559,-0.0,0.0,0.0,0.0,0.0012756399810314178,-0.0030603245832026005,0.0023742797784507275,14763.0,13665.0,15327.0,13377.0,0.4913088083267212,0.4170893430709839,0.5317359566688538,0.3986451029777527,0.0,0.0,0.0,0.0,14437.0,13957.0,14939.0,13848.0,1.839238166809082,-0.09816371217056254,0.14187594815893728,-0.07222008914411027,-0.07073520869016647,0.00850317906588316,-0.0
362,5,0.015987714752554893,0.0006713060429319739,0.0014624912291765213,-0.005869899410754442,-0.003199671395123005,9.18541190912947e-05,-0.00683140242472291,0.02190602384507656,0.020036768168210983,-0.023064250126481056,0.13514523208141327,0.038563717156648636,0.0,0.0,0.0,0.002494224812835455,0.01596119999885559,-0.0,0.0,0.0,0.0,0.0019166154088452458,-0.0037606849800795317,0.002623910317197442,14905.0,13399.0,15678.0,13057.0,0.5013012290000916,0.40005016326904297,0.5577346086502075,0.3786413073539734,0.0,0.0,0.0,0.0,14827.0,13402.0,15786.0,12965.0,1.839238166809082,-0.09705228234980465,0.14048456119340674,-0.0721420233918492,-0.07073520869016647,0.00850317906588316,-0.0
367,5,0.015959588810801506,0.0006724444683641195,0.0014806832186877728,-0.005723142996430397,-0.0014164778403937817,-0.002146288054063916,-0.00683140242472291,0.02190602384507656,0.020036768168210983,-0.023064250126481056,0.13514523208141327,0.038563717156648636,0.0,0.0,0.0,0.004607613198459148,0.014909547753632069,-0.0,0.0,0.0,0.0,0.0019166154088452458,-0.0037606849800795317,0.002623910317197442,14905.0,13399.0,15678.0,13057.0,0.5013012290000916,0.40005016326904297,0.5577346086502075,0.3786413073539734,0.0,0.0,0.0,0.0,14827.0,13402.0,15786.0,12965.0,1.8380624055862427,-0.09648791462970371,0.13847428811454604,-0.07180946622984549,-0.06603222340345383,0.015697916969656944,-0.0
372,5,0.015949701890349388,0.0006391475908458233,0.001452989294193685,-0.00347562856040895,0.0034290365874767303,0.002464748453348875,-0.006909113377332687,0.02155418135225773,0.019809462130069733,-0.011873406358063221,0.008588163182139397,-0.07189368456602097,0.0,0.0,0.0,0.004607613198459148,0.014909547753632069,-0.0,0.0,0.0,0.0,0.0022109185811132193,-0.007016357034444809,0.0005797783960588276,13703.0,14562.0,14969.0,13894.0,0.4195878505706787,0.4772800803184509,0.5058506727218628,0.43210095167160034,0.0,0.0,0.0,0.0,14651.0,13527.0,15429.0,13528.0,1.8380624055862427,-0.09447115838772094,0.13418114651977833,-0.07033044285698822,-0.06603222340345383,0.015697916969656944,-0.0
378,5,0.015929467976093292,0.0006469074287451804,0.0014643343165516853,-0.0038183932192623615,0.0004404315259307623,-0.00037549767876043916,-0.006909113377332687,0.02155418135225773,0.019809462130069733,-0.011873406358063221,0.008588163182139397,-0.07189368456602097,0.0,0.0,0.0,-0.0027466188184916973,0.016944417729973793,-0.0,0.0,0.0,0.0,0.0022109185811132193,-0.007016357034444809,0.0005797783960588276,13703.0,14562.0,14969.0,13894.0,0.4195878505706787,0.4772800803184509,0.5058506727218628,0.43210095167160034,0.0,0.0,0.0,0.0,14651.0,13527.0,15429.0,13528.0,1.833492636680603,-0.09216913479805998,0.12766553495743602,-0.06914102869091769,-0.07485749572515488,-0.009334372356534004,-0.0
383,5,0.01591816172003746,0.0006659641512669623,0.0014722447376698256,-0.002883970271795988,-0.0021106351632624865,-0.001099458779208362,-0.006973745301365852,0.02252533659338951,0.01994001679122448,-0.010829166509211063,-0.19266191124916077,0.0013751800870522857,0.0,0.0,0.0,-0.0027466188184916973,0.016944417729973793,-0.0,0.0,0.0,0.0,0.00346001167781651,-0.005997210741043091,0.003438155632466078,14666.0,13491.0,15882.0,13010.0,0.48450618982315063,0.40593618154525757,0.5730721354484558,0.3757237195968628,0.0,0.0,0.0,0.0,13846.0,14419.0,15229.0,13683.0,1.833492636680603,-0.08780035858092732,0.12116941443939398,-0.06706324243540239,-0.07485749572515488,-0.009334372356534004,-0.0
388,5,0.015879271551966667,0.000704818987287581,0.0014908985467627645,-0.005820539779961109,-0.005506828427314758,-0.002678235061466694,-0.006973745301365852,0.02252533659338951,0.01994001679122448,-0.010829166509211063,-0.19266191124916077,0.0013751800870522857,0.0,0.0,0.0,0.0034051474649459124,0.01739472709596157,-0.0,0.0,0.0,0.0,0.00346001167781651,-0.005997210741043091,0.003438155632466078,14666.0,13491.0,15882.0,13010.0,0.48450618982315063,0.40593618154525757,0.5730721354484558,0.3757237195968628,0.0,0.0,0.0,0.0,13846.0,14419.0,15229.0,13683.0,1.8361629247665405,-0.08418749792901978,0.11396633595059485,-0.06458093444660853,-0.07695845514535904,0.011589218862354755,0.0
393,5,0.0158309955149889,0.0007554371259175241,0.0014994225930422544,-0.008121159859001637,-0.008276911452412605,-0.002094181254506111,-0.006883242167532444,0.024370044469833374,0.019491057842969894,-0.005981435999274254,-0.2926122844219208,0.009615953080356121,0.0,0.0,0.0,0.0034051474649459124,0.01739472709596157,-0.0,0.0,0.0,0.0,0.0034370645880699158,-0.00977613776922226,0.0011291219852864742,14010.0,14146.0,15738.0,13195.0,0.43973368406295776,0.4488910436630249,0.5622007846832275,0.38723695278167725,0.0,0.0,0.0,0.0,14623.0,13399.0,16569.0,12244.0,1.8361629247665405,-0.08022142609698896,0.1064444274882086,-0.06271732265589074,-0.07695845514535904,0.011589218862354755,0.0
398,5,0.015777133405208588,0.0007863754290156066,0.0015178482281044126,-0.009712105616927147,-0.007023362908512354,-0.003048740094527602,-0.006883242167532444,0.024370044469833374,0.019491057842969894,-0.005981435999274254,-0.2926122844219208,0.009615953080356121,0.0,0.0,0.0,0.010396874509751797,0.012924674898386002,-0.0,0.0,0.0,0.0,0.0034370645880699158,-0.00977613776922226,0.0011291219852864742,14010.0,14146.0,15738.0,13195.0,0.43973368406295776,0.4488910436630249,0.5622007846832275,0.38723695278167725,0.0,0.0,0.0,0.0,14623.0,13399.0,16569.0,12244.0,1.8269978761672974,-0.07936746485080268,0.09949947046544054,-0.061813652932064304,-0.05689498782157898,0.03520749881863594,0.0
403,5,0.015701979398727417,0.0008584408205933869,0.0015064873732626438,-0.012903132475912571,-0.011457188054919243,0.00014380492211785167,-0.006883242167532444,0.024370044469833374,0.019491057842969894,-0.005981435999274254,-0.2926122844219208,0.009615953080356121,0.0,0.0,0.0,0.010396874509751797,0.012924674898386002,-0.0,0.0,0.0,0.0,0.0029458818025887012,-0.012582605704665184,0.0036038493271917105,13588.0,14867.0,15076.0,13542.0,0.4121173322200775,0.49862581491470337,0.5135434865951538,0.4092060625553131,0.0,0.0,0.0,0.0,13264.0,15028.0,14968.0,13802.0,1.8269978761672974,-0.07546194623844003,0.09422871552429077,-0.059199129416399494,-0.05689498782157898,0.03520749881863594,0.0
408,5,0.015602014027535915,0.000892599462531507,0.0015398383839055896,-0.0171571783721447,-0.008681912906467915,-0.003944598603993654,-0.0069234659895300865,0.02796110510826111,0.019409816712141037,0.03621169924736023,-0.27749568223953247,-0.10163763910531998,0.0,0.0,0.0,0.014100007712841034,0.008710464462637901,-0.0,0.0,0.0,0.0,0.0029458818025887012,-0.012582605704665184,0.0036038493271917105,13588.0,14867.0,15076.0,13542.0,0.4121173322200775,0.49862581491470337,0.5135434865951538,0.4092060625553131,0.0,0.0,0.0,0.0,13264.0,15028.0,14968.0,13802.0,1.8253430128097534,-0.07429913679848671,0.08899861261665154,-0.058260670313977206,-0.03830796107649803,0.04770306125283241,-0.0
413,5,0.015536880120635033,0.00089653255417943,0.001534554990939796,-0.014678982086479664,-0.003944734577089548,-0.0009438367560505867,-0.0069234659895300865,0.02796110510826111,0.019409816712141037,0.03621169924736023,-0.27749568223953247,-0.10163763910531998,0.0,0.0,0.0,0.014100007712841034,0.008710464462637901,-0.0,0.0,0.0,0.0,0.0029458818025887012,-0.012582605704665184,0.0036038493271917105,13588.0,14867.0,15076.0,13542.0,0.4121173322200775,0.49862581491470337,0.5135434865951538,0.4092060625553131,0.0,0.0,0.0,0.0,13264.0,15028.0,14968.0,13802.0,1.8253430128097534,-0.073015477424012,0.08629437428971827,-0.05855076088103954,-0.03830796107649803,0.04770306125283241,-0.0
418,5,0.015448278747498989,0.0009168806136585772,0.001531871035695076,-0.016503795981407166,-0.004019662272185087,-5.5456508562201634e-05,-0.006977867800742388,0.03056477941572666,0.019389884546399117,-0.003585884813219309,-0.3321608901023865,0.06304105371236801,0.0,0.0,0.0,0.005837473087012768,0.007003755308687687,-0.0,0.0,0.0,0.0,0.004766517318785191,-0.012055990286171436,-0.001431262120604515,14664.0,13518.0,16554.0,12049.0,0.48433148860931396,0.4076322317123413,0.6252254843711853,0.3189736604690552,0.0,0.0,0.0,0.0,13839.0,14319.0,15811.0,13069.0,1.824762225151062,-0.07216595403387949,0.0836984980428835,-0.057367782115417834,-0.030794857069849968,0.01974400505423546,0.0
424,5,0.015377113595604897,0.0009273380856029689,0.00155440263915807,-0.015141288749873638,-0.0028627633582800627,-0.002725984202697873,-0.006977867800742388,0.03056477941572666,0.019389884546399117,-0.003585884813219309,-0.3321608901023865,0.06304105371236801,0.0,0.0,0.0,0.005837473087012768,0.007003755308687687,-0.0,0.0,0.0,0.0,0.004766517318785191,-0.012055990286171436,-0.001431262120604515,14664.0,13518.0,16554.0,12049.0,0.48433148860931396,0.4076322317123413,0.6252254843711853,0.3189736604690552,0.0,0.0,0.0,0.0,13839.0,14319.0,15811.0,13069.0,1.824762225151062,-0.07267483464977192,0.08152679677119916,-0.05707317019066402,-0.030794857069849968,0.01974400505423546,0.0
429,5,0.015300929546356201,0.0009233518503606319,0.0015496497508138418,-0.015198606066405773,-0.0006667556590400636,-0.000520039931870997,-0.006883794907480478,0.03374345973134041,0.01855556294322014,0.02556583285331726,-0.23343916237354279,-0.096053346991539,0.0,0.0,0.0,0.004688955377787352,0.006421875208616257,-0.0,0.0,0.0,0.0,0.006496449466794729,-0.012596317566931248,0.002978318138048053,13476.0,14153.0,15917.0,13325.0,0.4049401581287384,0.4493318498134613,0.5757179856300354,0.3953529894351959,0.0,0.0,0.0,0.0,14407.0,13477.0,16480.0,12345.0,1.8247441053390503,-0.07191690767326891,0.08103075685374403,-0.05796972212493237,-0.028236310929059982,0.015859289094805717,0.0
434,5,0.015216857194900513,0.0008987094624899328,0.0015890597132965922,-0.016168124973773956,0.002690386027097702,-0.004937215242534876,-0.006883794907480478,0.03374345973134041,0.01855556294322014,0.02556583285331726,-0.23343916237354279,-0.096053346991539,0.0,0.0,0.0,0.004688955377787352,0.006421875208616257,-0.0,0.0,0.0,0.0,0.006496449466794729,-0.012596317566931248,0.002978318138048053,13476.0,14153.0,15917.0,13325.0,0.4049401581287384,0.4493318498134613,0.5757179856300354,0.3953529894351959,0.0,0.0,0.0,0.0,14407.0,13477.0,16480.0,12345.0,1.8247441053390503,-0.07464899165170528,0.07942754854685358,-0.058176669059288054,-0.028236310929059982,0.015859289094805717,0.0
439,5,0.015175826847553253,0.0009507460636086762,0.0015600236365571618,-0.011390832252800465,-0.005168240983039141,0.0015094392001628876,-0.0066293468698859215,0.03591838479042053,0.01835581474006176,0.03772730007767677,-0.0237895455211401,0.09431391209363937,0.0,0.0,0.0,-0.001527858548797667,0.005408269353210926,-0.0,0.0,0.0,0.0,0.005634918808937073,-0.009248676709830761,0.0027328887954354286,14761.0,13301.0,16333.0,12275.0,0.4911542534828186,0.3938560485839844,0.6078548431396484,0.3318970799446106,0.0,0.0,0.0,0.0,12137.0,15303.0,14555.0,14810.0,1.8076820373535156,-0.07164511985267019,0.07942782641238365,-0.05670364452846598,-0.023557523265480995,-0.005119333975017071,0.0
444,5,0.015111798420548439,0.0009446337935514748,0.0015713409520685673,-0.012239771895110607,-0.0013338214484974742,-0.0007542945677414536,-0.0066293468698859215,0.03591838479042053,0.01835581474006176,0.03772730007767677,-0.0237895455211401,0.09431391209363937,0.0,0.0,0.0,-0.001527858548797667,0.005408269353210926,-0.0,0.0,0.0,0.0,0.005634918808937073,-0.009248676709830761,0.0027328887954354286,14761.0,13301.0,16333.0,12275.0,0.4911542534828186,0.3938560485839844,0.6078548431396484,0.3318970799446106,0.0,0.0,0.0,0.0,12137.0,15303.0,14555.0,14810.0,1.8076820373535156,-0.0710866554694236,0.0804629960819729,-0.05764867054168799,-0.023557523265480995,-0.005119333975017071,0.0
449,5,0.015051942318677902,0.0009215280297212303,0.0015452017541974783,-0.012078676372766495,0.002239157911390066,0.0028349803760647774,-0.006708415225148201,0.035316504538059235,0.01773587055504322,-0.009702916257083416,0.12394170463085175,-0.182538703083992,0.0,0.0,0.0,0.003059180686250329,0.008689256384968758,-0.0,0.0,0.0,0.0,0.00417459849268198,-0.005928354803472757,-0.002751333871856332,12403.0,15552.0,13605.0,14982.0,0.3393598794937134,0.5482980608940125,0.41324472427368164,0.5067793726921082,0.0,0.0,0.0,0.0,14897.0,13063.0,16342.0,12354.0,1.8036404848098755,-0.07069520782564354,0.08189331914489807,-0.05761977017980936,-0.037763915956020355,0.010227333754301071,0.0
454,5,0.014961723238229752,0.0008943424909375608,0.0015892965020611882,-0.015657775104045868,0.0041579315438866615,-0.004157369956374168,-0.006708415225148201,0.035316504538059235,0.01773587055504322,-0.009702916257083416,0.12394170463085175,-0.182538703083992,0.0,0.0,0.0,0.003059180686250329,0.008689256384968758,-0.0,0.0,0.0,0.0,0.00417459849268198,-0.005928354803472757,-0.002751333871856332,12403.0,15552.0,13605.0,14982.0,0.3393598794937134,0.5482980608940125,0.41324472427368164,0.5067793726921082,0.0,0.0,0.0,0.0,14897.0,13063.0,16342.0,12354.0,1.8036404848098755,-0.07333120447067426,0.0821397109751379,-0.05819394134848265,-0.037763915956020355,0.010227333754301071,0.0
459,5,0.014921369031071663,0.0009263040847145021,0.001542646437883377,-0.011105610989034176,-0.0021722193341702223,0.00393504835665226,-0.00666816858574748,0.0335848405957222,0.0180815402418375,-0.0159417986869812,0.1790219098329544,0.05567106977105141,0.0,0.0,0.0,-0.0032053578179329634,0.005601740907877684,-0.0,0.0,0.0,0.0,0.0014306919183582067,-0.005113270599395037,0.005415537394583225,15436.0,12585.0,16197.0,12079.0,0.5397071838378906,0.3500330448150635,0.5972715616226196,0.3206702470779419,0.0,0.0,0.0,0.0,14141.0,14064.0,15039.0,13475.0,1.7908802032470703,-0.07065459705220253,0.08433259274904659,-0.05813105640042939,-0.024173356592655182,-0.010640211403369904,0.0
464,5,0.01485176756978035,0.000937929202336818,0.001577807473950088,-0.012794431298971176,-0.0022639043163508177,-0.0026453027967363596,-0.00666816858574748,0.0335848405957222,0.0180815402418375,-0.0159417986869812,0.1790219098329544,0.05567106977105141,0.0,0.0,0.0,-0.0032053578179329634,0.005601740907877684,-0.0,0.0,0.0,0.0,0.0014306919183582067,-0.005113270599395037,0.005415537394583225,15436.0,12585.0,16197.0,12079.0,0.5397071838378906,0.3500330448150635,0.5972715616226196,0.3206702470779419,0.0,0.0,0.0,0.0,14141.0,14064.0,15039.0,13475.0,1.7908802032470703,-0.07017617336841467,0.08470230484582748,-0.05828620201648029,-0.024173356592655182,-0.010640211403369904,0.0
469,5,0.014765927568078041,0.0009343231795355678,0.0015834651421755552,-0.015418503433465958,-0.0004728395724669099,-0.001737043960019946,-0.00653224578127265,0.031866516917943954,0.016720106825232506,0.009831590577960014,0.17572277784347534,-0.0077942186035215855,0.0,0.0,0.0,0.0041061569936573505,0.007930359803140163,-0.0,0.0,0.0,0.0,0.00268088118173182,-0.0019875792786478996,-0.0018310373416170478,13842.0,14162.0,14494.0,14200.0,0.42867225408554077,0.4499315619468689,0.47254157066345215,0.45249509811401367,0.0,0.0,0.0,0.0,13077.0,14798.0,13852.0,14896.0,1.7980129718780518,-0.07049510744254611,0.08510453166226353,-0.05834004741987587,-0.03435812145471573,0.013684682548046112,0.0
474,5,0.014659308828413486,0.0009438729612156749,0.0016161544481292367,-0.018961628898978233,-0.001335105742327869,-0.004617525730282068,-0.00653224578127265,0.031866516917943954,0.016720106825232506,0.009831590577960014,0.17572277784347534,-0.0077942186035215855,0.0,0.0,0.0,0.0041061569936573505,0.007930359803140163,-0.0,0.0,0.0,0.0,0.00268088118173182,-0.0019875792786478996,-0.0018310373416170478,13842.0,14162.0,14494.0,14200.0,0.42867225408554077,0.4499315619468689,0.47254157066345215,0.45249509811401367,0.0,0.0,0.0,0.0,13077.0,14798.0,13852.0,14896.0,1.7980129718780518,-0.07048055360926841,0.08445191130742784,-0.05887608757498234,-0.03435812145471573,0.013684682548046112,0.0
479,5,0.014517219737172127,0.000916816876269877,0.0016417537117376924,-0.024635424837470055,0.002712687710300088,-0.004918929189443588,-0.00675781536847353,0.031071342527866364,0.016993561759591103,0.002429167740046978,-0.007700433023273945,-0.09249696135520935,0.0,0.0,0.0,0.003120619570836425,0.002397255040705204,-0.0,0.0,0.0,0.0,0.0016782506136223674,-0.007311983034014702,0.001935977372340858,13809.0,14266.0,14997.0,13390.0,0.4265230894088745,0.4569757580757141,0.5078994035720825,0.39948195219039917,0.0,0.0,0.0,0.0,15324.0,12639.0,16136.0,11954.0,1.769919753074646,-0.07159396962099425,0.08494624411165785,-0.060806752217037234,-0.010223913937807083,0.010237682610750198,0.0
