timestamp,dt,pos_x,pos_y,pos_z,vel_x,vel_y,vel_z,roll,pitch,yaw,agv_x,agv_y,agv_z,x_ref,y_ref,z_ref,roll_ref,pitch_ref,yaw_ref,x_vel_ref,y_vel_ref,z_vel_ref,x_torque,y_torque,z_torque,w0,w1,w2,w3,u0,u1,u2,u3,m0req,m1req,m2req,m3req,thrust0,thrust1,thrust2,thrust3,thrust_ref,roll_vicon,pitch_vicon,yaw_vicon,acc_x,acc_y,acc_z
5,5,0.0,0.0,0.0,-0.00033653652644716203,0.0007134251645766199,0.00023475527996197343,0.00870195496827364,0.01549658365547657,0.006447962950915098,0.0017656590789556503,-0.004235930275171995,-0.002841571345925331,0.0,0.0,0.0,-0.0008834438631311059,-0.00032056745840236545,-0.0,0.0,0.0,0.0,-0.0026192155200988054,-0.004746824037283659,0.0006896965205669403,1495.0,1495.0,1495.0,1495.0,0.0,0.0,0.0,0.0,0.0,0.0,0.0,0.0,1495.0,1495.0,1495.0,1495.0,1.633775234222412,-0.07224942496827788,0.08920101807346265,0.002127299039040547,0.0012620119377970695,-0.002675344469025731,0.0
22,17,0.0,0.0,0.0,5.895763752050698e-05,0.0001727203489281237,-0.0009449754725210369,0.00870195496827364,0.01549658365547657,0.006447962950915098,0.0017656590789556503,-0.004235930275171995,-0.002841571345925331,0.0,0.0,0.0,-0.0008834438631311059,-0.00032056745840236545,-0.0,0.0,0.0,0.0,-0.0026192155200988054,-0.004746824037283659,0.0006896965205669403,1495.0,1495.0,1495.0,1495.0,0.0,0.0,0.0,0.0,0.0,0.0,0.0,0.0,1495.0,1495.0,1495.0,1495.0,1.633775234222412,-0.07287457801496368,0.08857979796554685,0.0019633678595028124,0.0012620119377970695,-0.002675344469025731,0.0
31,9,0.0,0.0,0.0,5.895763752050698e-05,0.0001727203489281237,-0.0009449754725210369,0.00870195496827364,0.01549658365547657,0.006447962950915098,0.0017656590789556503,-0.004235930275171995,-0.002841571345925331,0.0,0.0,0.0,-0.00021457995171658695,5.6343309552175924e-05,-0.0,0.0,0.0,0.0,-0.0026192155200988054,-0.004746824037283659,0.0006896965205669403,1495.0,1495.0,1495.0,1495.0,0.0,0.0,0.0,0.0,0.0,0.0,0.0,0.0,1495.0,1495.0,1495.0,1495.0,1.6284600496292114,-0.07287457801496368,0.08857979796554685,0.0019633678595028124,-0.00022109114797785878,-0.0006477013230323792,0.0
36,5,0.0,0.0,0.0,-0.00025687567540444434,-0.0021616113372147083,-0.0011103125289082527,0.008707227185368538,0.015497089363634586,0.006425671745091677,-0.00033336933120153844,-0.003004722995683551,-0.00040678109508007765,0.0,0.0,0.0,-0.00021457995171658695,5.6343309552175924e-05,-0.0,0.0,0.0,0.0,-0.002875498030334711,-0.00461819302290678,0.0006165037048049271,1495.0,1495.0,1495.0,1495.0,0.0,0.0,0.0,0.0,0.0,0.0,0.0,0.0,1495.0,1495.0,1495.0,1495.0,1.6284600496292114,-0.0724313473506053,0.08874320653348827,0.0023912618776993763,-0.00022109114797785878,-0.0006477013230323792,0.0
41,5,0.0,0.0,0.0,0.0005792780430056155,-0.0013608960434794426,0.00031528007821179926,0.008707227185368538,0.015497089363634586,0.006425671745091677,-0.00033336933120153844,-0.003004722995683551,-0.00040678109508007765,0.0,0.0,0.0,-0.00021457995171658695,5.6343309552175924e-05,-0.0,0.0,0.0,0.0,-0.002875498030334711,-0.00461819302290678,0.0006165037048049271,1495.0,1495.0,1495.0,1495.0,0.0,0.0,0.0,0.0,0.0,0.0,0.0,0.0,1495.0,1495.0,1495.0,1495.0,1.6284600496292114,-0.0720277288234546,0.08888425924445477,0.0022156476148590763,-0.00022109114797785878,-0.0006477013230323792,0.0
46,5,2.0509251044131815e-06,-2.1090593236294808e-06,-1.0901452696998604e-05,0.00047782223555259407,-0.0002912712807301432,0.0014342863578349352,0.008675852790474892,0.015435643494129181,0.006443863268941641,0.00047884939704090357,0.004330155905336142,0.003567696548998356,0.0,0.0,0.0,0.0016780102159827948,0.0005494315992109478,-0.0,0.0,0.0,0.0,-0.002904063556343317,-0.00461413711309433,0.0007677862304262817,1495.0,1495.0,1495.0,1495.0,0.0,0.0,0.0,0.0,0.0,0.0,0.0,0.0,1495.0,1495.0,1495.0,1495.0,1.6407915353775024,-0.0723090648885848,0.0887803952318012,0.0022010830997660617,-0.0021722926758229733,0.005103359930217266,0.0
51,5,-5.524539119505789e-06,1.6869751107151387e-06,-3.4490796679165214e-05,-0.0007179268286563456,-0.0005720326444134116,0.0034044357016682625,0.008677136152982712,0.015444974415004253,0.006435202434659004,0.0021589896641671658,-0.00019313563825562596,0.0014662849716842175,0.0,0.0,0.0,0.0007108150166459382,-0.0006909939693287015,-0.0,0.0,0.0,0.0,-0.0026904898695647717,-0.004628300666809082,0.0006099222227931023,13612.0,13768.0,13898.0,12727.0,0.4136953055858612,0.42383643984794617,0.43237295746803284,0.3585553467273712,0.0,0.0,0.0,0.0,13629.0,13751.0,13918.0,12707.0,1.6351687908172607,-0.07275370577889785,0.08877651117530864,0.002237228797194222,0.002722629811614752,0.002154406625777483,0.0
56,5,-1.3678601362698828e-06,-1.140940366894938e-05,-4.222754796501249e-05,0.00021163075871299952,0.0013427523663267493,0.0022901843767613173,0.008677136152982712,0.015444974415004253,0.006435202434659004,0.0021589896641671658,-0.00019313563825562596,0.0014662849716842175,0.0,0.0,0.0,0.0007108150166459382,-0.0006909939693287015,-0.0,0.0,0.0,0.0,-0.0026904898695647717,-0.004628300666809082,0.0006099222227931023,13612.0,13768.0,13898.0,12727.0,0.4136953055858612,0.42383643984794617,0.43237295746803284,0.3585553467273712,0.0,0.0,0.0,0.0,13629.0,13751.0,13918.0,12707.0,1.6351687908172607,-0.07220296203883488,0.08894687990268964,0.002027364286021087,0.002722629811614752,0.002154406625777483,0.0
62,5,-7.861576705181506e-06,-4.347183676145505e-06,-2.2780439394409768e-05,-0.0006945937057025731,-0.00031036543077789247,-0.0014175791293382645,0.008677136152982712,0.015444974415004253,0.006435202434659004,0.0021589896641671658,-0.00019313563825562596,0.0014662849716842175,0.0,0.0,0.0,0.0007108150166459382,-0.0006909939693287015,-0.0,0.0,0.0,0.0,-0.0026904898695647717,-0.004628300666809082,0.0006099222227931023,13612.0,13768.0,13898.0,12727.0,0.4136953055858612,0.42383643984794617,0.43237295746803284,0.3585553467273712,0.0,0.0,0.0,0.0,13629.0,13751.0,13918.0,12707.0,1.6351687908172607,-0.07200671708872414,0.08865571354875841,0.0022517405573303107,0.002722629811614752,0.002154406625777483,0.0
67,5,-1.0812891559908167e-05,-1.2062579116900451e-05,-2.8373086024657823e-05,-0.0006319952080957592,0.000801701215095818,0.00010408587695565075,0.008684754371643066,0.015462012030184269,0.006445739418268204,-0.0031268552411347628,-5.490250259754248e-06,-0.0005231889081187546,0.0,0.0,0.0,0.00037647815770469606,-0.0006727133295498788,-0.0,0.0,0.0,0.0,-0.002646698849275708,-0.0046864766627550125,0.0006601689383387566,13605.0,13766.0,13906.0,12729.0,0.413228839635849,0.4236796200275421,0.43288668990135193,0.3586649000644684,0.0,0.0,0.0,0.0,13599.0,13768.0,13895.0,12745.0,1.6335712671279907,-0.07241297427890979,0.08884091342067331,0.0023319385731345376,0.002648012014105916,0.0011399515205994248,0.0
72,5,-7.324785201490158e-06,-1.5104998055903707e-05,3.8655425669276156e-06,0.0001657746615819633,0.0006857708212919533,-0.003827000968158245,0.008688528090715408,0.015469667501747608,0.006446420215070248,0.003238148055970669,0.0015542730689048767,0.00026830905699171126,0.0,0.0,0.0,0.00037647815770469606,-0.0006727133295498788,-0.0,0.0,0.0,0.0,-0.0021607927046716213,-0.004528047051280737,0.0006340306717902422,13630.0,13774.0,13968.0,12830.0,0.4148692488670349,0.42417484521865845,0.43700021505355835,0.36474722623825073,0.0,0.0,0.0,0.0,13661.0,13739.0,13989.0,12812.0,1.6335712671279907,-0.07251333903088505,0.08872927723747298,0.0022590938702314813,-0.0005812961608171463,-0.0026547801680862904,0.0
88,16,-5.434059175968287e-07,-1.4097829080128577e-05,1.806552745620138e-06,0.0008800753857940435,0.00015344801067840308,-0.0012837216490879655,0.008688528090715408,0.015469667501747608,0.006446420215070248,0.003238148055970669,0.0015542730689048767,0.00026830905699171126,0.0,0.0,0.0,-0.0008770206477493048,0.00014770923007745296,-0.0,0.0,0.0,0.0,-0.002350887982174754,-0.004871741868555546,0.0007188515737652779,13630.0,13774.0,13968.0,12830.0,0.4148692488670349,0.42417484521865845,0.43700021505355835,0.36474722623825073,0.0,0.0,0.0,0.0,13661.0,13739.0,13989.0,12812.0,1.6331231594085693,-0.0725418980108894,0.08856294636512055,0.0023009849365951147,-0.0005812705494463444,-0.0026548330206424,0.0
93,5,4.254665327607654e-06,-2.4957948880910408e-06,-1.3395982023212127e-05,0.00034623482497408986,-0.001725847483612597,-0.00026562975835986435,0.008680207654833794,0.015457193367183208,0.006463441997766495,-0.0018195000011473894,-0.0014973869547247887,0.0024139685556292534,0.0,0.0,0.0,0.002119791693985462,0.0003337176749482751,-0.0,0.0,0.0,0.0,-0.002467770129442215,-0.004753793124109507,0.0006414817762561142,13632.0,13754.0,14000.0,12721.0,0.4150003492832184,0.42289164662361145,0.43910905718803406,0.35816773772239685,0.0,0.0,0.0,0.0,13595.0,13794.0,13960.0,12762.0,1.643622636795044,-0.07248456547813041,0.08844492967362712,0.0020962658660673623,-0.001321698073297739,0.00645807757973671,0.0
99,6,-7.873077265685424e-06,-1.6665131852278137e-06,-1.5694749890826643e-05,-0.0013168351724743843,-0.0007898528128862381,0.0001696002873359248,0.008680207654833794,0.015457193367183208,0.006463441997766495,-0.0018195000011473894,-0.0014973869547247887,0.0024139685556292534,0.0,0.0,0.0,0.002119791693985462,0.0003337176749482751,-0.0,0.0,0.0,0.0,-0.002467770129442215,-0.004753793124109507,0.0006414817762561142,13632.0,13754.0,14000.0,12721.0,0.4150003492832184,0.42289164662361145,0.43910905718803406,0.35816773772239685,0.0,0.0,0.0,0.0,13595.0,13794.0,13960.0,12762.0,1.643622636795044,-0.07267165982076877,0.08845212545634899,0.002182869831945681,-0.001321698073297739,0.00645807757973671,0.0
104,5,-8.452602742181625e-06,-1.1874160009028856e-05,-2.9829123377567157e-05,-0.0005962771247141063,0.0009089764789678156,0.0017639650031924248,0.008680207654833794,0.015457193367183208,0.006463441997766495,-0.0018195000011473894,-0.0014973869547247887,0.0024139685556292534,0.0,0.0,0.0,0.002119791693985462,0.0003337176749482751,-0.0,0.0,0.0,0.0,-0.002467770129442215,-0.004753793124109507,0.0006414817762561142,13632.0,13754.0,14000.0,12721.0,0.4150003492832184,0.42289164662361145,0.43910905718803406,0.35816773772239685,0.0,0.0,0.0,0.0,13595.0,13794.0,13960.0,12762.0,1.643622636795044,-0.0726324777013094,0.0888060841749593,0.0023084557210820895,-0.001321698073297739,0.00645807757973671,0.0
109,5,-8.197675356313994e-07,-4.049933522765059e-06,-1.828529275371693e-05,0.0006774293724447489,-0.0005753166042268276,-0.0006796736852265894,0.008673994801938534,0.015410794876515865,0.006454100366681814,-0.0010815808782353997,0.004834659397602081,-0.0011138789122924209,0.0,0.0,0.0,-0.0011449398007243872,-0.0005786693072877824,-0.0,0.0,0.0,0.0,-0.0028247602749615908,-0.004450722597539425,0.0006123369676060975,13639.0,13795.0,13885.0,12761.0,0.4154481291770935,0.42558521032333374,0.431474506855011,0.36061519384384155,0.0,0.0,0.0,0.0,13618.0,13777.0,13944.0,12746.0,1.637026309967041,-0.07219028457555779,0.0887920737624262,0.0022095255040999948,0.002282641362398863,-0.0034741349518299103,0.0
115,5,2.276301245274226e-07,-7.15300120646134e-06,-1.0933763405773789e-05,0.00039665945223532617,0.00014224152255337685,-0.001154053141362965,0.008673994801938534,0.015410794876515865,0.006454100366681814,-0.0010815808782353997,0.004834659397602081,-0.0011138789122924209,0.0,0.0,0.0,-0.0011449398007243872,-0.0005786693072877824,-0.0,0.0,0.0,0.0,-0.0028247602749615908,-0.004450722597539425,0.0006123369676060975,13639.0,13795.0,13885.0,12761.0,0.4154481291770935,0.42558521032333374,0.431474506855011,0.36061519384384155,0.0,0.0,0.0,0.0,13618.0,13777.0,13944.0,12746.0,1.637026309967041,-0.07227131454760434,0.08886502627956988,0.0022106812770072443,0.002282641362398863,-0.0034741349518299103,0.0
120,5,-1.2012632168989512e-06,-1.3283258340379689e-05,-1.3296192264533602e-05,-1.2803416211681906e-05,0.000792527396697551,-0.00017812979058362544,0.00867695827037096,0.01538484264165163,0.006464993115514517,-0.0017847454873844981,0.004580599255859852,0.0016164485132321715,0.0,0.0,0.0,-0.00018962296599056572,0.0003789850161410868,-0.0,0.0,0.0,0.0,-0.0019707465544342995,-0.004447770770639181,0.0006770133040845394,13653.0,13746.0,14008.0,12839.0,0.41632360219955444,0.42236030101776123,0.43961477279663086,0.3653239607810974,0.0,0.0,0.0,0.0,13647.0,13791.0,13894.0,12748.0,1.6300759315490723,-0.07258274385433634,0.08881270656911003,0.0023153107068730255,-0.0014886128483340144,-0.0005729375989176333,0.0
125,5,-1.6280453110084636e-06,-1.0145016858587041e-05,-1.3155307897250168e-05,-5.6335215049330145e-05,-5.9577923821052536e-05,-8.815801265882328e-05,0.008675137534737587,0.01537070982158184,0.006475495640188456,-0.00024679850321263075,0.0043418388813734055,-0.0044565643183887005,0.0,0.0,0.0,5.545663952943869e-05,-5.614908877760172e-05,-0.0,0.0,0.0,0.0,-0.0029458615463227034,-0.004708627704530954,0.0006125345826148987,13627.0,13851.0,13891.0,12771.0,0.4146762192249298,0.4292784631252289,0.43189379572868347,0.36117783188819885,0.0,0.0,0.0,0.0,13613.0,13864.0,13881.0,12782.0,1.6284600496292114,-0.07259056450457478,0.0886618728070097,0.002194131869220865,0.00022032902052160352,0.00016739373677410185,0.0
130,5,-1.1054848073399626e-05,-2.094422779919114e-05,-1.8341994291404262e-05,-0.0011537503451108932,0.001272074063308537,0.0005871392204426229,0.008675137534737587,0.01537070982158184,0.006475495640188456,-0.00024679850321263075,0.0043418388813734055,-0.0044565643183887005,0.0,0.0,0.0,5.545663952943869e-05,-5.614908877760172e-05,-0.0,0.0,0.0,0.0,-0.0029458615463227034,-0.004708627704530954,0.0006125345826148987,13627.0,13851.0,13891.0,12771.0,0.4146762192249298,0.4292784631252289,0.43189379572868347,0.36117783188819885,0.0,0.0,0.0,0.0,13613.0,13864.0,13881.0,12782.0,1.6284600496292114,-0.07298762370246821,0.08868461195175731,0.002008339210084956,0.00022032902052160352,0.00016739373677410185,0.0
135,5,-1.3076618415652774e-05,-2.469880200806074e-05,-2.084792868117802e-05,-0.000704112637322396,0.0009593786089681089,0.0005355676985345781,0.008675137534737587,0.01537070982158184,0.006475495640188456,-0.00024679850321263075,0.0043418388813734055,-0.0044565643183887005,0.0,0.0,0.0,5.545663952943869e-05,-5.614908877760172e-05,-0.0,0.0,0.0,0.0,-0.0029458615463227034,-0.004708627704530954,0.0006125345826148987,13627.0,13851.0,13891.0,12771.0,0.4146762192249298,0.4292784631252289,0.43189379572868347,0.36117783188819885,0.0,0.0,0.0,0.0,13613.0,13864.0,13881.0,12782.0,1.6284600496292114,-0.07214200218846868,0.08878663421739814,0.0022158279484378535,0.00022032902052160352,0.00016739373677410185,0.0
140,5,-1.9552824596758e-05,-2.1138252122909762e-05,-1.4183083294483367e-05,-0.0010587897850200534,-4.3514643039088696e-05,-0.0005855542258359492,0.008662774227559566,0.015378890559077263,0.006438539829105139,-0.000951065041590482,-0.0016741615254431963,-0.0003581633500289172,0.0,0.0,0.0,-0.001229591085575521,-0.0006871228688396513,-0.0,0.0,0.0,0.0,-0.0026090298779308796,-0.004777048248797655,0.0006638733320869505,13614.0,13755.0,13927.0,12708.0,0.4137885570526123,0.42298853397369385,0.4342798590660095,0.35740309953689575,0.0,0.0,0.0,0.0,13653.0,13733.0,13931.0,12713.0,1.6382681131362915,-0.0723345167807583,0.0891120233156257,0.0021314240403998825,0.002712507266551256,-0.0037338256370276213,0.0
145,5,-1.2290311133256182e-05,-2.6479377993382514e-05,-1.3346075320441741e-05,0.0004479856288526207,0.0006235293694771826,-0.0003346627636346966,0.008662774227559566,0.015378890559077263,0.006438539829105139,-0.000951065041590482,-0.0016741615254431963,-0.0003581633500289172,0.0,0.0,0.0,-0.001229591085575521,-0.0006871228688396513,-0.0,0.0,0.0,0.0,-0.0026090298779308796,-0.004777048248797655,0.0006638733320869505,13614.0,13755.0,13927.0,12708.0,0.4137885570526123,0.42298853397369385,0.4342798590660095,0.35740309953689575,0.0,0.0,0.0,0.0,13653.0,13733.0,13931.0,12713.0,1.6382681131362915,-0.07257506716905089,0.08900771660258752,0.0022176106940703325,0.002712507266551256,-0.0037338256370276213,0.0
150,5,-7.604300662933383e-06,-1.0133343494089786e-05,-8.566000360588077e-06,0.0007415155414491892,-0.0017121124546974897,-0.0007074740715324879,0.008662774227559566,0.015378890559077263,0.006438539829105139,-0.000951065041590482,-0.0016741615254431963,-0.0003581633500289172,0.0,0.0,0.0,-0.0008203453617170453,0.00040950291440822184,-0.0,0.0,0.0,0.0,-0.0026090298779308796,-0.004777048248797655,0.0006638733320869505,13614.0,13755.0,13927.0,12708.0,0.4137885570526123,0.42298853397369385,0.4342798590660095,0.35740309953689575,0.0,0.0,0.0,0.0,13653.0,13733.0,13931.0,12713.0,1.633784532546997,-0.07223890209284707,0.08874222366183525,0.0023329420708725654,-0.0016121428925544024,-0.002484276657924056,0.0
155,5,3.477359484804765e-07,-1.2308754776313435e-05,-1.2586122466018423e-05,0.0012508506188169122,-0.0004237955727148801,0.00019942504877690226,0.008672187104821205,0.015385441482067108,0.006444625556468964,0.0006674113683402538,0.0008139358251355588,-0.0004763093311339617,0.0,0.0,0.0,-0.0008203453617170453,0.00040950291440822184,-0.0,0.0,0.0,0.0,-0.0025963541120290756,-0.004515671171247959,0.0006454873364418745,13660.0,13833.0,13924.0,12741.0,0.4167790114879608,0.42804017663002014,0.43405571579933167,0.3593932092189789,0.0,0.0,0.0,0.0,13611.0,13757.0,13919.0,12718.0,1.633784532546997,-0.07237002939742886,0.0886811344347991,0.002211285610471828,-0.0016121428925544024,-0.002484276657924056,0.0
160,5,2.72737361228792e-05,-6.429236236726865e-06,9.207212315232027e-06,0.0037314603105187416,-0.0008750604465603828,-0.002535430248826742,0.008672187104821205,0.015385441482067108,0.006444625556468964,0.0006674113683402538,0.0008139358251355588,-0.0004763093311339617,0.0,0.0,0.0,0.0005006481078453362,0.0011880372185260057,-0.0,0.0,0.0,0.0,-0.0025963541120290756,-0.004515671171247959,0.0006454873364418745,13660.0,13833.0,13924.0,12741.0,0.4167790114879608,0.42804017663002014,0.43405571579933167,0.3593932092189789,0.0,0.0,0.0,0.0,13611.0,13757.0,13919.0,12718.0,1.6391284465789795,-0.07329940144434892,0.08654441049036786,0.001905214891521659,-0.004692397080361843,0.0015210871351882815,0.0
165,5,5.9761921875178814e-05,5.513711221283302e-05,-4.8068573960335925e-05,0.005391166545450687,-0.00773798581212759,0.005858922377228737,0.008656170219182968,0.015432564541697502,0.006548667326569557,-0.0010343663161620498,8.223095210269094e-05,-0.02289312332868576,0.0,0.0,0.0,0.0005006481078453362,0.0011880372185260057,-0.0,0.0,0.0,0.0,-0.002824628259986639,-0.004807639867067337,0.0009083803161047399,13605.0,13871.0,13897.0,12787.0,0.41326266527175903,0.4305810332298279,0.4322497248649597,0.3621746897697449,0.0,0.0,0.0,0.0,13668.0,13826.0,13970.0,12689.0,1.6391284465789795,-0.06923799340974124,0.0875050298160765,0.0033990474210622633,-0.004692397080361843,0.0015210871351882815,0.0
170,5,5.748683543060906e-05,6.125891377450898e-05,-4.287008414394222e-05,0.001883456134237349,-0.0038298105355352163,0.0017197501147165895,0.008656170219182968,0.015432564541697502,0.006548667326569557,-0.0010343663161620498,8.223095210269094e-05,-0.02289312332868576,0.0,0.0,0.0,0.00918641034513712,0.004951754584908485,-0.0,0.0,0.0,0.0,-0.002824628259986639,-0.004807639867067337,0.0009083803161047399,13605.0,13871.0,13897.0,12787.0,0.41326266527175903,0.4305810332298279,0.4322497248649597,0.3621746897697449,0.0,0.0,0.0,0.0,13668.0,13826.0,13970.0,12689.0,1.721976637840271,-0.06941822533658336,0.08719106380470146,0.0038421016328241252,-0.02054556831717491,0.02932044491171837,0.0
175,5,6.606135866604745e-05,1.5521565728704445e-05,3.4321124985581264e-05,0.0017823256785050035,0.003956557717174292,-0.008575044572353363,0.008669649250805378,0.0154196722432971,0.00651161652058363,-0.01080840639770031,0.005026374477893114,0.06888765841722488,0.0,0.0,0.0,0.00918641034513712,0.004951754584908485,-0.0,0.0,0.0,0.0,-0.002731336746364832,-0.004488151054829359,0.001631461433134973,14203.0,13196.0,14457.0,12135.0,0.4526801109313965,0.38728392124176025,0.46998167037963867,0.32383882999420166,0.0,0.0,0.0,0.0,13264.0,14169.0,13518.0,13146.0,1.721976637840271,-0.07257987806632205,0.0844391442681816,0.002300883038291601,-0.02054556831717491,0.02932044491171837,0.0
180,5,6.589954864466563e-05,2.108848093484994e-05,3.19421014864929e-05,0.00069351278943941,0.0009145930525846779,-0.003144535468891263,0.008669649250805378,0.0154196722432971,0.00651161652058363,-0.01080840639770031,0.005026374477893114,0.06888765841722488,0.0,0.0,0.0,-0.004765830002725124,0.0017513425555080175,-0.0,0.0,0.0,0.0,-0.002731336746364832,-0.004488151054829359,0.001631461433134973,14203.0,13196.0,14457.0,12135.0,0.4526801109313965,0.38728392124176025,0.46998167037963867,0.32383882999420166,0.0,0.0,0.0,0.0,13264.0,14169.0,13518.0,13146.0,1.6699540615081787,-0.07155974689339996,0.08476063595673382,0.0024353771865303865,-0.007047293707728386,-0.014751923270523548,0.0
185,5,5.109194535179995e-05,4.242706563672982e-05,-2.430964923405554e-05,-0.0014995075762271881,-0.002194792963564396,0.0054923961870372295,0.008681049570441246,0.01541862078011036,0.0064643025398254395,0.009080116637051105,-0.01864674873650074,-0.08164802193641663,0.0,0.0,0.0,-0.004765830002725124,0.0017513425555080175,-0.0,0.0,0.0,0.0,-0.002637851983308792,-0.004578232299536467,-0.0010333294048905373,12875.0,14527.0,13195.0,13549.0,0.3674650490283966,0.47482219338417053,0.3872297704219818,0.40961143374443054,0.0,0.0,0.0,0.0,12847.0,14542.0,13199.0,13556.0,1.6699540615081787,-0.06958682443055184,0.08770448839054241,0.003362462449903247,-0.007047293707728386,-0.014751923270523548,0.0
191,5,5.816592602059245e-05,4.652439383789897e-05,2.3126367523218505e-06,0.0002490748302079737,-0.0013695963425561786,-0.000997715862467885,0.008681049570441246,0.01541862078011036,0.0064643025398254395,0.009080116637051105,-0.01864674873650074,-0.08164802193641663,0.0,0.0,0.0,0.0027626133523881435,-0.001341207418590784,-0.0,0.0,0.0,0.0,-0.002637851983308792,-0.004578232299536467,-0.0010333294048905373,12875.0,14527.0,13195.0,13549.0,0.3674650490283966,0.47482219338417053,0.3872297704219818,0.40961143374443054,0.0,0.0,0.0,0.0,12847.0,14542.0,13199.0,13556.0,1.6528605222702026,-0.07074285011380532,0.08627198969897948,0.003462582407203259,0.005341733805835247,0.008463770151138306,0.0
196,5,4.430504122865386e-05,5.446685099741444e-05,-1.089063698600512e-05,-0.0016922969371080399,-0.0010188695741817355,0.0003628651611506939,0.0085604228079319,0.015572087839245796,0.00660976255312562,-0.02659916877746582,-0.010472220368683338,0.08956833183765411,0.0,0.0,0.0,0.0027626133523881435,-0.001341207418590784,-0.0,0.0,0.0,0.0,0.0005844768020324409,-0.0033548546489328146,0.0026761027984321117,14686.0,12914.0,15197.0,12482.0,0.4859139621257782,0.369863361120224,0.522250235080719,0.3439491093158722,0.0,0.0,0.0,0.0,14218.0,13610.0,14329.0,12440.0,1.6528605222702026,-0.06945867554900588,0.08691375507390317,0.0032060413646148637,0.005341733805835247,0.008463770151138306,0.0
201,5,3.736202052095905e-05,6.232032319530845e-05,-9.46306226978777e-06,-0.0015100811142474413,-0.0013499644119292498,-2.6162802896578796e-05,0.0085604228079319,0.015572087839245796,0.00660976255312562,-0.02659916877746582,-0.010472220368683338,0.08956833183765411,0.0,0.0,0.0,0.0013507824623957276,-0.0015387168386951089,-0.0,0.0,0.0,0.0,0.0005844768020324409,-0.0033548546489328146,0.0026761027984321117,14686.0,12914.0,15197.0,12482.0,0.4859139621257782,0.369863361120224,0.522250235080719,0.3439491093158722,0.0,0.0,0.0,0.0,14218.0,13610.0,14329.0,12440.0,1.645707607269287,-0.06982729600290659,0.08649388985073218,0.0037284029005750278,0.006101866718381643,0.004120466765016317,0.0
206,5,3.603860750445165e-05,6.653590389760211e-05,-7.212699983938364e-07,-0.0007628423627465963,-0.0010458554606884718,-0.001059480244293809,0.008579513058066368,0.015804463997483253,0.005939709488302469,-0.0029453288298100233,-0.0727352499961853,-0.002191312378272414,0.0,0.0,0.0,0.0013507824623957276,-0.0015387168386951089,-0.0,0.0,0.0,0.0,-0.004067268222570419,-0.0057257493026554585,-0.002216270426288247,13129.0,14696.0,13438.0,13362.0,0.3831072747707367,0.4866080582141876,0.4025159180164337,0.3977228105068207,0.0,0.0,0.0,0.0,14686.0,13102.0,14985.0,11631.0,1.645707607269287,-0.06962137993628663,0.08614426823456968,0.0031818166874575896,0.006101866718381643,0.004120466765016317,0.0
211,5,-3.4459853850421496e-06,-2.4489991119480692e-05,5.8490706578595564e-05,-0.0050432877615094185,0.010504765436053276,-0.007529229391366243,0.008579513058066368,0.015804463997483253,0.005939709488302469,-0.0029453288298100233,-0.0727352499961853,-0.002191312378272414,0.0,0.0,0.0,0.001411169650964439,-0.000673784117680043,-0.0,0.0,0.0,0.0,-0.004067268222570419,-0.0057257493026554585,-0.002216270426288247,13129.0,14696.0,13438.0,13362.0,0.3831072747707367,0.4866080582141876,0.4025159180164337,0.3977228105068207,0.0,0.0,0.0,0.0,14686.0,13102.0,14985.0,11631.0,1.6394389867782593,-0.07332615797245574,0.08492978218911565,0.001274532336045183,0.002661751350387931,0.00428827665746212,0.0
216,5,-1.7448846847401e-05,3.392903454368934e-05,1.787541805242654e-05,-0.0036976586561650038,-0.0028083771467208862,0.0018621428171172738,0.008390162140130997,0.016204403713345528,0.0059459637850522995,-0.005925100762397051,-0.008123917505145073,-0.13253290951251984,0.0,0.0,0.0,0.001411169650964439,-0.000673784117680043,-0.0,0.0,0.0,0.0,-0.0013630737084895372,-0.005537465680390596,-0.0012888690689578652,12395.0,14892.0,13007.0,13985.0,0.33884990215301514,0.5003731846809387,0.3755464553833008,0.438090980052948,0.0,0.0,0.0,0.0,12518.0,14814.0,13172.0,13803.0,1.6394389867782593,-0.07015634496564487,0.08737906078131806,0.0029351679395279006,0.002661751350387931,0.00428827665746212,0.0
221,5,-1.7448846847401e-05,3.392903454368934e-05,1.787541805242654e-05,-0.0036976586561650038,-0.0028083771467208862,0.0018621428171172738,0.008390162140130997,0.016204403713345528,0.0059459637850522995,-0.005925100762397051,-0.008123917505145073,-0.13253290951251984,0.0,0.0,0.0,0.0034558032639324665,-0.003462635213509202,-0.0,0.0,0.0,0.0,-0.0013630737084895372,-0.005537465680390596,-0.0012888690689578652,12395.0,14892.0,13007.0,13985.0,0.33884990215301514,0.5003731846809387,0.3755464553833008,0.438090980052948,0.0,0.0,0.0,0.0,12518.0,14814.0,13172.0,13803.0,1.6733183860778809,-0.07015634496564487,0.08737906078131806,0.0029351679395279006,0.013961554504930973,0.01071851421147585,0.0
226,5,-1.5783489288878627e-05,4.9301012040814385e-05,7.827016088413075e-05,-0.0018399008549749851,-0.0029177258256822824,-0.002197698689997196,0.00821155495941639,0.016736168414354324,0.006353091448545456,-0.0436522476375103,-0.07552113384008408,0.04050979018211365,0.0,0.0,0.0,0.0034558032639324665,-0.003462635213509202,-0.0,0.0,0.0,0.0,-0.0015349966706708074,-0.0075172740034759045,0.0033811742905527353,14209.0,13117.0,14998.0,11752.0,0.453090637922287,0.3823453485965729,0.5079097747802734,0.3023618161678314,0.0,0.0,0.0,0.0,12581.0,14651.0,13537.0,13454.0,1.6733183860778809,-0.07047786138759259,0.08426972041747781,0.0027454917302002085,0.013961554504930973,0.01071851421147585,0.0
231,5,-1.4857139831292443e-05,2.876382313843351e-05,0.0001574650959810242,-0.0006247983546927571,0.00129737239331007,-0.010382471606135368,0.00821155495941639,0.016736168414354324,0.006353091448545456,-0.0436522476375103,-0.07552113384008408,0.04050979018211365,0.0,0.0,0.0,0.003641036106273532,-0.001744896755553782,-0.0,0.0,0.0,0.0,-0.0015349966706708074,-0.0075172740034759045,0.0033811742905527353,14209.0,13117.0,14998.0,11752.0,0.453090637922287,0.3823453485965729,0.5079097747802734,0.3023618161678314,0.0,0.0,0.0,0.0,12581.0,14651.0,13537.0,13454.0,1.6615034341812134,-0.07143322234142639,0.08275885822425705,0.001975595270469586,0.006985858548432589,0.011213289573788643,0.0
236,5,-5.2449617214733735e-05,2.4953387764981017e-05,0.00016257875540759414,-0.0047610169276595116,0.0009762012050487101,-0.004766628611832857,0.008294057101011276,0.01769358478486538,0.005911987740546465,0.05475480481982231,-0.0964936912059784,0.06758188456296921,0.0,0.0,0.0,0.003641036106273532,-0.001744896755553782,-0.0,0.0,0.0,0.0,-0.003080108668655157,-0.007492867298424244,0.0007291260990314186,13899.0,13619.0,14534.0,12025.0,0.43241065740585327,0.41415464878082275,0.4752922058105469,0.3175814747810364,0.0,0.0,0.0,0.0,13901.0,13494.0,14646.0,12026.0,1.6615034341812134,-0.07107013787151001,0.08446803457557948,0.0017158937748251153,0.006985858548432589,0.011213289573788643,0.0
241,5,-5.9361984312999994e-05,1.6242400306509808e-05,0.00018754730990622193,-0.0027338904328644276,0.0014357990585267544,-0.004902877379208803,0.008294057101011276,0.01769358478486538,0.005911987740546465,0.05475480481982231,-0.0964936912059784,0.06758188456296921,0.0,0.0,0.0,-0.0011341862846165895,-0.004493057727813721,-0.0,0.0,0.0,0.0,-0.003080108668655157,-0.007492867298424244,0.0007291260990314186,13899.0,13619.0,14534.0,12025.0,0.43241065740585327,0.41415464878082275,0.4752922058105469,0.3175814747810364,0.0,0.0,0.0,0.0,13901.0,13494.0,14646.0,12026.0,1.6756772994995117,-0.0709873747355986,0.0840545018835199,0.00209003744586631,0.018141891807317734,-0.00352276093326509,0.0
246,5,-9.98122850432992e-05,-1.2023638191749342e-05,0.00021342208492569625,-0.005947592202574015,0.003966244403272867,-0.00506612379103899,0.008058488368988037,0.01783655397593975,0.005447263363748789,-0.006011052057147026,0.023602506145834923,-0.14123715460300446,0.0,0.0,0.0,-0.0011341862846165895,-0.004493057727813721,-0.0,0.0,0.0,0.0,-0.0009518726728856564,-0.006171243730932474,-0.0027852808125317097,11958.0,15339.0,12727.0,14433.0,0.3137921094894409,0.5326221585273743,0.3585376739501953,0.46836644411087036,0.0,0.0,0.0,0.0,13257.0,14295.0,13858.0,13296.0,1.6756772994995117,-0.07176722069287861,0.08552398816408813,0.0015053608543109226,0.018141891807317734,-0.00352276093326509,0.0
251,5,-9.349550964543596e-05,-1.4801493307459168e-05,0.0002407297579338774,-0.0016210238682106137,0.0019198403460904956,-0.005303370300680399,0.008058488368988037,0.01783655397593975,0.005447263363748789,-0.006011052057147026,0.023602506145834923,-0.14123715460300446,0.0,0.0,0.0,-0.004742833785712719,-0.005581019911915064,-0.0,0.0,0.0,0.0,-0.0009518726728856564,-0.006171243730932474,-0.0027852808125317097,11958.0,15339.0,12727.0,14433.0,0.3137921094894409,0.5326221585273743,0.3585376739501953,0.46836644411087036,0.0,0.0,0.0,0.0,13257.0,14295.0,13858.0,13296.0,1.6993128061294556,-0.07254308652958791,0.08346833503948375,0.000896703514401395,0.022852392867207527,-0.0149388387799263,0.0
257,5,-0.0001184540378744714,2.082025275740307e-06,0.0002376596676185727,-0.0036434330977499485,-0.0012580861803144217,-0.0017529383767396212,0.008058488368988037,0.01783655397593975,0.005447263363748789,-0.006011052057147026,0.023602506145834923,-0.14123715460300446,0.0,0.0,0.0,-0.004742833785712719,-0.005581019911915064,-0.0,0.0,0.0,0.0,-0.0009254198521375656,-0.004120349418371916,0.0009550710674375296,13428.0,13941.0,13883.0,13289.0,0.4018803536891937,0.4352131187915802,0.43132874369621277,0.3930812180042267,0.0,0.0,0.0,0.0,13257.0,14295.0,13858.0,13296.0,1.6993128061294556,-0.07236183341677915,0.08529380122220802,0.0015632304041719959,0.022852392867207527,-0.0149388387799263,0.0
262,5,-0.00015300737868528813,9.588186912878882e-06,0.000283798057353124,-0.005603773519396782,-0.0014039739035069942,-0.006237781140953302,0.008058488368988037,0.01783655397593975,0.005447263363748789,-0.006011052057147026,0.023602506145834923,-0.14123715460300446,0.0,0.0,0.0,0.0015312314499169588,-0.0035646911710500717,-0.0,0.0,0.0,0.0,-0.0009254198521375656,-0.004120349418371916,0.0009550710674375296,13428.0,13941.0,13883.0,13289.0,0.4018803536891937,0.4352131187915802,0.43132874369621277,0.3930812180042267,0.0,0.0,0.0,0.0,13257.0,14295.0,13858.0,13296.0,1.6665221452713013,-0.07453254587538355,0.0852173281072516,0.0012193491047524456,0.014314739964902401,0.00472998945042491,0.0
267,5,-0.00017447823483962566,1.9601244275690988e-05,0.0003438667918089777,-0.004818013869225979,-0.0017631563823670149,-0.009703361429274082,0.00698670232668519,0.016385838389396667,0.0050183795392513275,-0.28330016136169434,0.09365317225456238,0.08367650210857391,0.0,0.0,0.0,0.0015312314499169588,-0.0035646911710500717,-0.0,0.0,0.0,0.0,0.0006502775941044092,-0.004251250997185707,0.0013211095938459039,14113.0,13063.0,14835.0,12645.0,0.44667431712150574,0.3790235221385956,0.49633583426475525,0.35364362597465515,0.0,0.0,0.0,0.0,12350.0,14869.0,12777.0,14384.0,1.6665221452713013,-0.07487782712168514,0.08590344380500856,0.0007331777679469049,0.014314739964902401,0.00472998945042491,0.0
272,5,-0.00022919911134522408,5.4142434237292036e-05,0.0004025172966066748,-0.00849370937794447,-0.00485020549967885,-0.010919406078755856,0.00698670232668519,0.016385838389396667,0.0050183795392513275,-0.28330016136169434,0.09365317225456238,0.08367650210857391,0.0,0.0,0.0,0.002157831098884344,-0.004699764307588339,-0.0,0.0,0.0,0.0,0.0006502775941044092,-0.004251250997185707,0.0013211095938459039,14113.0,13063.0,14835.0,12645.0,0.44667431712150574,0.3790235221385956,0.49633583426475525,0.35364362597465515,0.0,0.0,0.0,0.0,12350.0,14869.0,12777.0,14384.0,1.680240511894226,-0.0761631936171423,0.08551890653440701,0.001520747655087761,0.019028162583708763,0.006720426958054304,0.0
277,5,-0.000276812759693712,6.259330257307738e-05,0.0004468341066967696,-0.009111123159527779,-0.002954186173155904,-0.009685777127742767,0.003394562052562833,0.015378477983176708,0.004371885675936937,-0.24792978167533875,0.05416804179549217,-0.09246601909399033,0.0,0.0,0.0,0.002157831098884344,-0.004699764307588339,-0.0,0.0,0.0,0.0,0.0019167347345501184,-0.004751499742269516,-0.00308020762167871,12191.0,15023.0,13155.0,14569.0,0.3270569443702698,0.5097586512565613,0.3847472071647644,0.4777500033378601,0.0,0.0,0.0,0.0,13760.0,13578.0,14686.0,13057.0,1.680240511894226,-0.07783714690467394,0.08580556815269669,0.001494933934593525,0.019028162583708763,0.006720426958054304,0.0
282,5,-0.0003512781404424459,2.6915799026028253e-05,0.00048124362365342677,-0.01258029229938984,0.0030996259301900864,-0.00800345465540886,0.003394562052562833,0.015378477983176708,0.004371885675936937,-0.24792978167533875,0.05416804179549217,-0.09246601909399033,0.0,0.0,0.0,0.002157831098884344,-0.004699764307588339,-0.0,0.0,0.0,0.0,0.0019167347345501184,-0.004751499742269516,-0.00308020762167871,12191.0,15023.0,13155.0,14569.0,0.3270569443702698,0.5097586512565613,0.3847472071647644,0.4777500033378601,0.0,0.0,0.0,0.0,13760.0,13578.0,14686.0,13057.0,1.680240511894226,-0.08062433658548712,0.08732628583357765,0.00029509805094160064,0.019028162583708763,0.006720426958054304,0.0
287,5,-0.00035938379005528986,6.240595394046977e-05,0.000559033069293946,-0.006004795432090759,-0.0030189678072929382,-0.012536115013062954,0.0011258214944973588,0.01499453280121088,0.004786883946508169,-0.294965922832489,0.052248161286115646,-0.10207778960466385,0.0,0.0,0.0,-0.00351613387465477,-0.011576173827052116,-0.0,0.0,0.0,0.0,0.005606960970908403,-0.005857985466718674,0.002198030473664403,12760.0,13887.0,14020.0,13922.0,0.3605539798736572,0.4316205382347107,0.4404250979423523,0.43392252922058105,0.0,0.0,0.0,0.0,11496.0,14842.0,12977.0,14993.0,1.7606309652328491,-0.0810624340010841,0.0854990272138212,0.0012477425530151175,0.04911033436655998,-0.01147468201816082,0.0
292,5,-0.00043129705591127276,4.4647636968875304e-05,0.000632270413916558,-0.01103151123970747,0.0009234104654751718,-0.01380293071269989,0.0011258214944973588,0.01499453280121088,0.004786883946508169,-0.294965922832489,0.052248161286115646,-0.10207778960466385,0.0,0.0,0.0,-0.00351613387465477,-0.011576173827052116,-0.0,0.0,0.0,0.0,0.005606960970908403,-0.005857985466718674,0.002198030473664403,12760.0,13887.0,14020.0,13922.0,0.3605539798736572,0.4316205382347107,0.4404250979423523,0.43392252922058105,0.0,0.0,0.0,0.0,11496.0,14842.0,12977.0,14993.0,1.7606309652328491,-0.08176123040883194,0.08588478321264689,0.0009037295778386212,0.04911033436655998,-0.01147468201816082,0.0
297,5,-0.0005172595847398043,-1.5817282474017702e-05,0.0006214503082446754,-0.014728108420968056,0.007625154685229063,-0.004222752992063761,-0.003967006225138903,0.014469576068222523,0.0036552033852785826,-0.14555306732654572,-0.027264034375548363,-0.058019451797008514,0.0,0.0,0.0,-0.0009953168919309974,-0.010413640178740025,-0.0,0.0,0.0,0.0,0.002632229123264551,-0.007907317019999027,-0.0035174614749848843,12248.0,15277.0,13813.0,14536.0,0.3303522765636444,0.528049647808075,0.4267807900905609,0.47544828057289124,0.0,0.0,0.0,0.0,13523.0,13152.0,14973.0,13105.0,1.7433006763458252,-0.08477784004616949,0.08704981399401666,-0.0003175568656836868,0.04374402016401291,-0.0032161930575966835,0.0
302,5,-0.0005585820181295276,1.6411515389336273e-05,0.0006585739320144057,-0.010849935933947563,-0.000817393884062767,-0.0061439392156898975,-0.003967006225138903,0.014469576068222523,0.0036552033852785826,-0.14555306732654572,-0.027264034375548363,-0.058019451797008514,0.0,0.0,0.0,-0.0009953168919309974,-0.010413640178740025,-0.0,0.0,0.0,0.0,0.002632229123264551,-0.007907317019999027,-0.0035174614749848843,12248.0,15277.0,13813.0,14536.0,0.3303522765636444,0.528049647808075,0.4267807900905609,0.47544828057289124,0.0,0.0,0.0,0.0,13523.0,13152.0,14973.0,13105.0,1.7433006763458252,-0.0845923528997843,0.0857149091879238,0.0007277979412357211,0.04374402016401291,-0.0032161930575966835,0.0
307,5,-0.0006092177936807275,1.721467697279877e-07,0.0006809470360167325,-0.010416264645755291,0.0016217667143791914,-0.005142346024513245,-0.003967006225138903,0.014469576068222523,0.0036552033852785826,-0.14555306732654572,-0.027264034375548363,-0.058019451797008514,0.0,0.0,0.0,0.0009768442250788212,-0.010418402031064034,-0.0,0.0,0.0,0.0,0.002632229123264551,-0.007907317019999027,-0.0035174614749848843,12248.0,15277.0,13813.0,14536.0,0.3303522765636444,0.528049647808075,0.4267807900905609,0.47544828057289124,0.0,0.0,0.0,0.0,13523.0,13152.0,14973.0,13105.0,1.7433449029922485,-0.08458916866454992,0.085569406866407,0.00029544543960731965,0.04376513510942459,0.0031565818935632706,0.0
313,5,-0.0006803109426982701,-5.3218212997308e-05,0.0007376279681921005,-0.01269768737256527,0.007055549882352352,-0.008858651854097843,-0.0055809118784964085,0.014928783290088177,0.0037232302129268646,-0.09257053583860397,-0.009123772382736206,-0.1179574653506279,0.0,0.0,0.0,0.0009768442250788212,-0.010418402031064034,-0.0,0.0,0.0,0.0,0.0033768899738788605,-0.008413863368332386,-3.707656787810265e-06,12578.0,14818.0,14160.0,14143.0,0.34961357712745667,0.49518826603889465,0.44983431696891785,0.44866451621055603,0.0,0.0,0.0,0.0,13729.0,13940.0,15298.0,12992.0,1.7433449029922485,-0.0868117148050072,0.08437771907686796,-0.0005305320772139334,0.04376513510942459,0.0031565818935632706,0.0
318,5,-0.0007548200082965195,-2.0162142391200177e-05,0.0007078155758790672,-0.014020157046616077,-0.0011445085983723402,3.402572838240303e-05,-0.0055809118784964085,0.014928783290088177,0.0037232302129268646,-0.09257053583860397,-0.009123772382736206,-0.1179574653506279,0.0,0.0,0.0,-0.008106548339128494,-0.011974561959505081,-0.0,0.0,0.0,0.0,0.0033768899738788605,-0.008413863368332386,-3.707656787810265e-06,12578.0,14818.0,14160.0,14143.0,0.34961357712745667,0.49518826603889465,0.44983431696891785,0.44866451621055603,0.0,0.0,0.0,0.0,13729.0,13940.0,15298.0,12992.0,1.780285358428955,-0.08499309764042749,0.08626890337314615,0.001127601416044193,0.05136609077453613,-0.0267501063644886,0.0
323,5,-0.0008145555621013045,-3.055998240597546e-05,0.0007458051550202072,-0.01277633011341095,0.0007899373886175454,-0.004545136820524931,-0.0055809118784964085,0.014928783290088177,0.0037232302129268646,-0.09257053583860397,-0.009123772382736206,-0.1179574653506279,0.0,0.0,0.0,-0.008106548339128494,-0.011974561959505081,-0.0,0.0,0.0,0.0,0.002186643425375223,-0.009475518018007278,0.003379124216735363,14545.0,12925.0,16071.0,11876.0,0.47607898712158203,0.37052297592163086,0.5875245332717896,0.3092184066772461,0.0,0.0,0.0,0.0,11712.0,15588.0,13308.0,14856.0,1.780285358428955,-0.0844680888108952,0.08611731730403231,0.0011045733918160446,0.05136609077453613,-0.0267501063644886,0.0
328,5,-0.0008806895348243415,-3.918440779671073e-05,0.000743989716283977,-0.013046612963080406,0.0013509062118828297,-0.0016002027550712228,-0.0055809118784964085,0.014928783290088177,0.0037232302129268646,-0.09257053583860397,-0.009123772382736206,-0.1179574653506279,0.0,0.0,0.0,-0.0009560268372297287,-0.012314189225435257,-0.0,0.0,0.0,0.0,0.002186643425375223,-0.009475518018007278,0.003379124216735363,14545.0,12925.0,16071.0,11876.0,0.47607898712158203,0.37052297592163086,0.5875245332717896,0.3092184066772461,0.0,0.0,0.0,0.0,11712.0,15588.0,13308.0,14856.0,1.7660497426986694,-0.08401798084880889,0.08661725661984251,0.0007040216265037743,0.05240219831466675,-0.0031295467633754015,0.0
333,5,-0.0009796638041734695,-6.8820605520159e-05,0.0007464942755177617,-0.017095554620027542,0.004096705932170153,-0.0009406282333657146,-0.006264182273298502,0.015226594172418118,0.0032144240103662014,-0.019683344289660454,0.013195216655731201,-0.03871026262640953,0.0,0.0,0.0,-0.0009560268372297287,-0.012314189225435257,-0.0,0.0,0.0,0.0,0.0019851692486554384,-0.00700895581394434,-0.0032945808488875628,12409.0,15072.0,13780.0,14396.0,0.3397079408168793,0.5132305026054382,0.4245665967464447,0.46583983302116394,0.0,0.0,0.0,0.0,13870.0,13647.0,15322.0,12842.0,1.7660497426986694,-0.08689771487717453,0.08656989835524187,0.0008746268414847657,0.05240219831466675,-0.0031295467633754015,0.0
338,5,-0.0010098617058247328,-9.170903467747848e-06,0.0007356265559792519,-0.010461974889039993,-0.0055192820727825165,0.0009278730140067637,-0.006264182273298502,0.015226594172418118,0.0032144240103662014,-0.019683344289660454,0.013195216655731201,-0.03871026262640953,0.0,0.0,0.0,-0.004678630735725164,-0.015893757343292236,-0.0,0.0,0.0,0.0,0.0019851692486554384,-0.00700895581394434,-0.0032945808488875628,12409.0,15072.0,13780.0,14396.0,0.3397079408168793,0.5132305026054382,0.4245665967464447,0.46583983302116394,0.0,0.0,0.0,0.0,13870.0,13647.0,15322.0,12842.0,1.8150848150253296,-0.08442617746963076,0.0870389452358811,0.0013377514705465786,0.069510817527771,-0.01574060320854187,0.0
343,5,-0.0010755726834759116,-3.894786914315773e-06,0.0007243631989695132,-0.012070107273757458,-0.0028408467769622803,0.001722753164358437,-0.00650989543646574,0.014767699874937534,0.003732542973011732,-0.03724852204322815,0.10171975940465927,-0.14321576058864594,0.0,0.0,0.0,-0.004678630735725164,-0.015893757343292236,-0.0,0.0,0.0,0.0,-3.591331551433541e-05,-0.006087631452828646,-0.00022806432389188558,12940.0,15151.0,13764.0,14404.0,0.37143558263778687,0.518928050994873,0.42353081703186035,0.4663909077644348,0.0,0.0,0.0,0.0,11655.0,15809.0,12839.0,15388.0,1.8150848150253296,-0.08395839181017566,0.0876865885068053,0.0011070102422188993,0.069510817527771,-0.01574060320854187,0.0
348,5,-0.01811336725950241,-0.002052327385172248,4.29399915446993e-06,-0.012070107273757458,-0.0028408467769622803,0.001722753164358437,-0.00650989543646574,0.014767699874937534,0.003732542973011732,-0.03724852204322815,0.10171975940465927,-0.14321576058864594,0.0,0.0,0.0,0.0032489995937794447,-0.012034611776471138,-0.0,0.0,0.0,0.0,-3.591331551433541e-05,-0.006087631452828646,-0.00022806432389188558,12940.0,15151.0,13764.0,14404.0,0.37143558263778687,0.518928050994873,0.42353081703186035,0.4663909077644348,0.0,0.0,0.0,0.0,11655.0,15809.0,12839.0,15388.0,1.7655105590820312,0.06581357710313611,-0.2890051307005477,-3.1293584748300276,0.05119664967060089,0.010632297955453396,-0.0
353,5,-0.018159637227654457,-0.0020353917498141527,-5.640027325171104e-07,-0.010380296036601067,-0.0031686245929449797,0.0012720614904537797,-0.006994029972702265,0.013655280694365501,0.0037860707379877567,-0.07694768160581589,0.10060011595487595,0.16877365112304688,0.0,0.0,0.0,0.0032489995937794447,-0.012034611776471138,-0.0,0.0,0.0,0.0,0.0026893112808465958,-0.006161799654364586,0.00397534528747201,15117.0,12447.0,16162.0,11944.0,0.5165138244628906,0.34192144870758057,0.5945725440979004,0.31304192543029785,0.0,0.0,0.0,0.0,14439.0,13762.0,15419.0,13150.0,1.7655105590820312,0.06505251711938445,-0.2887534672708559,-3.129936315722746,0.05119664967060089,0.010632297955453396,-0.0
358,5,-0.018215874210000038,-0.002008015289902687,3.9513437513960525e-05,-0.010900535620748997,-0.004552631173282862,-0.004300468135625124,-0.006994029972702265,0.013655280694365501,0.0037860707379877567,-0.07694768160581589,0.10060011595487595,0.16877365112304688,0.0,0.0,0.0,0.0016305191675201058,-0.02940276823937893,-0.0,0.0,0.0,0.0,0.0026893112808465958,-0.006161799654364586,0.00397534528747201,15117.0,12447.0,16162.0,11944.0,0.5165138244628906,0.34192144870758057,0.5945725440979004,0.31304192543029785,0.0,0.0,0.0,0.0,14439.0,13762.0,15419.0,13150.0,1.9924715757369995,0.06446400425770363,-0.28871517686156156,-3.130631314909037,0.14114616811275482,0.006021798588335514,0.0
363,5,-0.018264727666974068,-0.001996549777686596,4.82680625282228e-05,-0.010222744196653366,-0.0031969044357538223,-0.002770742168650031,-0.007110746577382088,0.012555452063679695,0.0025189127773046494,-0.023005342110991478,0.11824800819158554,-0.06715656071901321,0.0,0.0,0.0,0.0016305191675201058,-0.02940276823937893,-0.0,0.0,0.0,0.0,0.0007248317706398666,-0.005389801692217588,-0.004959951154887676,12331.0,15778.0,13293.0,15184.0,0.33516624569892883,0.5652304291725159,0.39336076378822327,0.5213274359703064,0.0,0.0,0.0,0.0,14601.0,12873.0,15693.0,12741.0,1.9924715757369995,0.06462860273870874,-0.2885630431548135,-3.129583030566837,0.14114616811275482,0.006021798588335514,0.0
368,5,-0.01832728274166584,-0.0019800092559307814,6.982316699577495e-05,-0.011595775373280048,-0.0032636176329106092,-0.0036949096247553825,-0.007110746577382088,0.012555452063679695,0.0025189127773046494,-0.023005342110991478,0.11824800819158554,-0.06715656071901321,0.0,0.0,0.0,0.0016305191675201058,-0.02940276823937893,-0.0,0.0,0.0,0.0,0.0007248317706398666,-0.005389801692217588,-0.004959951154887676,12331.0,15778.0,13293.0,15184.0,0.33516624569892883,0.5652304291725159,0.39336076378822327,0.5213274359703064,0.0,0.0,0.0,0.0,14601.0,12873.0,15693.0,12741.0,1.9924715757369995,0.06461717211989772,-0.28766084841605843,-3.130238077447979,0.14114616811275482,0.006021798588335514,0.0
373,5,-0.018389536067843437,-0.001964032184332609,9.783489076653495e-05,-0.012108526192605495,-0.0032226950861513615,-0.004839370492845774,-0.00754717830568552,0.011131344363093376,0.0026975106447935104,0.00396713986992836,0.1574394255876541,-0.20355898141860962,0.0,0.0,0.0,0.00036009299219585955,-0.029969550669193268,-0.0,0.0,0.0,0.0,0.003647884353995323,-0.004190038423985243,-0.0004814732528757304,12344.0,15137.0,13392.0,15056.0,0.3358856439590454,0.5179332494735718,0.3995891809463501,0.512102484703064,0.0,0.0,0.0,0.0,11218.0,16053.0,12106.0,16020.0,2.0002806186676025,0.06493910470977281,-0.2882487996661276,-3.13104687764094,0.14443020522594452,0.001335100969299674,0.0
378,5,-0.018440086394548416,-0.001966930227354169,8.790680294623598e-05,-0.010909602046012878,-0.0009413102525286376,-0.0007443776703439653,-0.00754717830568552,0.011131344363093376,0.0026975106447935104,0.00396713986992836,0.1574394255876541,-0.20355898141860962,0.0,0.0,0.0,0.00036009299219585955,-0.029969550669193268,-0.0,0.0,0.0,0.0,0.003647884353995323,-0.004190038423985243,-0.0004814732528757304,12344.0,15137.0,13392.0,15056.0,0.3358856439590454,0.5179332494735718,0.3995891809463501,0.512102484703064,0.0,0.0,0.0,0.0,11218.0,16053.0,12106.0,16020.0,2.0002806186676025,0.06452830363104733,-0.2870449138796156,-3.1296355245518446,0.14443020522594452,0.001335100969299674,0.0
383,5,-0.018501004204154015,-0.0019518369808793068,5.631075327983126e-05,-0.011673970147967339,-0.0021877200342714787,0.0034937746822834015,-0.007475767284631729,0.010320309549570084,0.00284979329444468,-0.05510706827044487,0.0481351800262928,0.2080097198486328,0.0,0.0,0.0,-0.001975354505702853,-0.029640138149261475,-0.0,0.0,0.0,0.0,0.002987762913107872,-0.010344753041863441,0.005339926574379206,15985.0,13187.0,17559.0,12022.0,0.5809123516082764,0.3866828382015228,0.7074344158172607,0.3174419701099396,0.0,0.0,0.0,0.0,14887.0,14360.0,16546.0,13467.0,1.9960675239562988,0.06279865088044036,-0.28665537429834165,-3.13065191551896,0.1425420194864273,-0.007308501284569502,0.0
388,5,-0.018565673381090164,-0.0019497652538120747,2.2390340745914727e-05,-0.012429945170879364,-0.0011236958671361208,0.005467959214001894,-0.007475767284631729,0.010320309549570084,0.00284979329444468,-0.05510706827044487,0.0481351800262928,0.2080097198486328,0.0,0.0,0.0,-0.001975354505702853,-0.029640138149261475,-0.0,0.0,0.0,0.0,0.002987762913107872,-0.010344753041863441,0.005339926574379206,15985.0,13187.0,17559.0,12022.0,0.5809123516082764,0.3866828382015228,0.7074344158172607,0.3174419701099396,0.0,0.0,0.0,0.0,14887.0,14360.0,16546.0,13467.0,1.9960675239562988,0.061605889930848555,-0.28589360117712015,-3.1311059959151475,0.1425420194864273,-0.007308501284569502,0.0
393,5,-0.018623318523168564,-0.0019605765119194984,2.4744554139033426e-06,-0.011889247223734856,0.0008478790987282991,0.004577090032398701,-0.0078023518435657024,0.009294501505792141,0.001787793356925249,-0.01410575583577156,0.05378911271691322,-0.08886295557022095,0.0,0.0,0.0,-0.0017529429169371724,-0.030739715322852135,-0.0,0.0,0.0,0.0,0.0020901064854115248,-0.009492454119026661,-0.005914932582527399,12364.0,16782.0,14141.0,15859.0,0.33704501390457153,0.6434098482131958,0.4484963119029999,0.5713293552398682,0.0,0.0,0.0,0.0,15224.0,14156.0,16860.0,13028.0,2.011873722076416,0.06097406415381535,-0.28483685612491405,-3.1294167864751823,0.14899902045726776,-0.006536972243338823,-0.0
398,5,-0.0187029168009758,-0.001970378216356039,-2.704739927139599e-05,-0.014307461678981781,0.0015153419226408005,0.005373458378016949,-0.0078023518435657024,0.009294501505792141,0.001787793356925249,-0.01410575583577156,0.05378911271691322,-0.08886295557022095,0.0,0.0,0.0,-0.0017529429169371724,-0.030739715322852135,-0.0,0.0,0.0,0.0,0.0020901064854115248,-0.009492454119026661,-0.005914932582527399,12364.0,16782.0,14141.0,15859.0,0.33704501390457153,0.6434098482131958,0.4484963119029999,0.5713293552398682,0.0,0.0,0.0,0.0,15224.0,14156.0,16860.0,13028.0,2.011873722076416,0.05998204647680525,-0.28398105352959707,-3.1295548037739995,0.14899902045726776,-0.006536972243338823,-0.0
404,5,-0.018762554973363876,-0.0019800930749624968,-3.427429692237638e-05,-0.012879752553999424,0.0017719133757054806,0.0030166110955178738,-0.0078023518435657024,0.009294501505792141,0.001787793356925249,-0.01410575583577156,0.05378911271691322,-0.08886295557022095,0.0,0.0,0.0,-0.00439302297309041,-0.032026905566453934,-0.0,0.0,0.0,0.0,0.0020901064854115248,-0.009492454119026661,-0.005914932582527399,12364.0,16782.0,14141.0,15859.0,0.33704501390457153,0.6434098482131958,0.4484963119029999,0.5713293552398682,0.0,0.0,0.0,0.0,15224.0,14156.0,16860.0,13028.0,2.0329363346099854,0.058237250807971194,-0.28311865161230476,-3.1303502618924997,0.15686000883579254,-0.01655363105237484,0.0
409,5,-0.01880703866481781,-0.001986101735383272,-6.296048377407715e-05,-0.01048991922289133,0.0014298134483397007,0.004648987203836441,-0.008055674843490124,0.008963686414062977,0.0028744966257363558,-0.019613323733210564,0.058284323662519455,-0.19546383619308472,0.0,0.0,0.0,-0.00439302297309041,-0.032026905566453934,-0.0,0.0,0.0,0.0,0.003084958763793111,-0.010301761329174042,0.005009487271308899,13226.0,16109.0,14939.0,15066.0,0.3891212046146393,0.5904515385627747,0.5037092566490173,0.5127854943275452,0.0,0.0,0.0,0.0,11133.0,17628.0,12910.0,16789.0,2.0329363346099854,0.05679619693789676,-0.28316446500608133,-3.1290960691432317,0.15686000883579254,-0.01655363105237484,0.0
414,5,-0.018869681283831596,-0.0020012124441564083,-7.860781624913216e-05,-0.011712903156876564,0.0023852067533880472,0.0037372743245214224,-0.008055674843490124,0.008963686414062977,0.0028744966257363558,-0.019613323733210564,0.058284323662519455,-0.19546383619308472,0.0,0.0,0.0,-0.0044051893055438995,-0.02972273901104927,-0.0,0.0,0.0,0.0,0.003084958763793111,-0.010301761329174042,0.005009487271308899,13226.0,16109.0,14939.0,15066.0,0.3891212046146393,0.5904515385627747,0.5037092566490173,0.5127854943275452,0.0,0.0,0.0,0.0,11133.0,17628.0,12910.0,16789.0,1.9994843006134033,0.055181799876404806,-0.28250949635288247,-3.1291349660796786,0.14318270981311798,-0.016326330602169037,0.0
419,5,-0.018941259011626244,-0.0019985197577625513,-6.232346640899777e-05,-0.013274658471345901,0.0006309814052656293,-0.00045921243145130575,-0.008598740212619305,0.00809428095817566,0.002704918384552002,-0.08933815360069275,0.060844145715236664,0.2744637727737427,0.0,0.0,0.0,-0.0044051893055438995,-0.02972273901104927,-0.0,0.0,0.0,0.0,0.0012076605344191194,-0.009215320460498333,-0.008067436516284943,16296.0,12960.0,17795.0,11832.0,0.6049593687057495,0.37268102169036865,0.7274694442749023,0.3067638874053955,0.0,0.0,0.0,0.0,15705.0,13696.0,17227.0,12640.0,1.9994843006134033,0.054433179855428074,-0.2823435721282932,-3.1303618033659912,0.14318270981311798,-0.016326330602169037,0.0
424,5,-0.018998758867383003,-0.0020150071941316128,-6.80548109812662e-05,-0.012209872715175152,0.0022308812476694584,0.0005040771211497486,-0.008598740212619305,0.00809428095817566,0.002704918384552002,-0.08933815360069275,0.060844145715236664,0.2744637727737427,0.0,0.0,0.0,-0.003569384105503559,-0.031634118407964706,-0.0,0.0,0.0,0.0,0.0012076605344191194,-0.009215320460498333,-0.008067436516284943,16296.0,12960.0,17795.0,11832.0,0.6049593687057495,0.37268102169036865,0.7274694442749023,0.3067638874053955,0.0,0.0,0.0,0.0,15705.0,13696.0,17227.0,12640.0,2.0262787342071533,0.05376869178724737,-0.2815514099448304,-3.1291461664779026,0.15442998707294464,-0.013406003825366497,0.0
429,5,-0.01908673718571663,-0.002020478481426835,-7.140223897295073e-05,-0.01544126681983471,0.0015488857170566916,0.0006033216486684978,-0.008732646703720093,0.007417530287057161,0.0012167530367150903,-0.01615210622549057,0.10426153987646103,-0.20277899503707886,0.0,0.0,0.0,-0.003569384105503559,-0.031634118407964706,-0.0,0.0,0.0,0.0,0.002065276727080345,-0.009859666228294373,0.004145932849496603,11410.0,17726.0,13063.0,16845.0,0.2837599515914917,0.7216137647628784,0.37901198863983154,0.6485506296157837,0.0,0.0,0.0,0.0,14507.0,15244.0,16020.0,14167.0,2.0262787342071533,0.053006545346116846,-0.2810910326418861,-3.12869397943387,0.15442998707294464,-0.013406003825366497,0.0
434,5,-0.01915263570845127,-0.0020061566028743982,-4.4609809265239164e-05,-0.014084230177104473,-0.0010990722803398967,-0.002973762806504965,-0.008732646703720093,0.007417530287057161,0.0012167530367150903,-0.01615210622549057,0.10426153987646103,-0.20277899503707886,0.0,0.0,0.0,-0.004469886422157288,-0.03310616314411163,-0.0,0.0,0.0,0.0,0.002065276727080345,-0.009859666228294373,0.004145932849496603,11410.0,17726.0,13063.0,16845.0,0.2837599515914917,0.7216137647628784,0.37901198863983154,0.6485506296157837,0.0,0.0,0.0,0.0,14507.0,15244.0,16020.0,14167.0,2.0489561557769775,0.05283397347561095,-0.2801874317244326,-3.1304067864016116,0.16342170536518097,-0.016975989565253258,0.0
439,5,-0.01923108473420143,-0.0020154453814029694,-5.6771692470647395e-05,-0.015047561377286911,0.0006750425673089921,0.00026992097264155746,-0.009306913241744041,0.006529152859002352,0.0022462341003119946,-0.02917170710861683,0.10760316997766495,-0.05442015454173088,0.0,0.0,0.0,-0.004469886422157288,-0.03310616314411163,-0.0,0.0,0.0,0.0,0.0023784670047461987,-0.008923045359551907,0.0006139432080090046,14714.0,14815.0,16090.0,13827.0,0.48784515261650085,0.4949192702770233,0.5890169739723206,0.4277028441429138,0.0,0.0,0.0,0.0,11690.0,17302.0,13147.0,16618.0,2.0489561557769775,0.05315410271400361,-0.27991519520903496,-3.1291893012269214,0.16342170536518097,-0.016975989565253258,0.0
444,5,-0.01930755190551281,-0.0020373689476400614,-4.5746437535854056e-05,-0.015195184387266636,0.0029008497949689627,-0.0012150619877502322,-0.009306913241744041,0.006529152859002352,0.0022462341003119946,-0.02917170710861683,0.10760316997766495,-0.05442015454173088,0.0,0.0,0.0,-0.0036055641248822212,-0.03301754966378212,-0.0,0.0,0.0,0.0,0.0023784670047461987,-0.008923045359551907,0.0006139432080090046,14714.0,14815.0,16090.0,13827.0,0.48784515261650085,0.4949192702770233,0.5890169739723206,0.4277028441429138,0.0,0.0,0.0,0.0,11690.0,17302.0,13147.0,16618.0,2.0467123985290527,0.05375304713157116,-0.27798989838884636,-3.1280218189331586,0.16280652582645416,-0.013678450137376785,0.0
449,5,-0.019368695095181465,-0.0020377819892019033,-4.754912151838653e-05,-0.013415323570370674,0.0012098811566829681,-0.00026970289763994515,-0.009512838907539845,0.005638651549816132,0.0009861961007118225,-0.07631099224090576,0.1041857898235321,0.2383023202419281,0.0,0.0,0.0,-0.0036055641248822212,-0.03301754966378212,-0.0,0.0,0.0,0.0,0.0014873624313622713,-0.007800844497978687,-0.005577020812779665,11744.0,17580.0,13119.0,16930.0,0.3018735349178314,0.7092288136482239,0.38247889280319214,0.6553750038146973,0.0,0.0,0.0,0.0,16771.0,12459.0,18074.0,11517.0,2.0467123985290527,0.05368961283006651,-0.27689162204152895,-3.129408030330708,0.16280652582645416,-0.013678450137376785,0.0
454,5,-0.01942666433751583,-0.0020390565041452646,-3.332945561851375e-05,-0.012322302907705307,0.0006369132315739989,-0.0018142409389838576,-0.009512838907539845,0.005638651549816132,0.0009861961007118225,-0.07631099224090576,0.1041857898235321,0.2383023202419281,0.0,0.0,0.0,-0.004193880129605532,-0.032137639820575714,-0.0,0.0,0.0,0.0,0.0014873624313622713,-0.007800844497978687,-0.005577020812779665,11744.0,17580.0,13119.0,16930.0,0.3018735349178314,0.7092288136482239,0.38247889280319214,0.6553750038146973,0.0,0.0,0.0,0.0,16771.0,12459.0,18074.0,11517.0,2.0343313217163086,0.05342862311884919,-0.2757009270267814,-3.1292304671181244,0.15751029551029205,-0.015814078971743584,0.0
459,5,-0.01950107328593731,-0.0020764125511050224,1.4970029951655306e-05,-0.013858127407729626,0.0047374870628118515,-0.006521634757518768,-0.009997096844017506,0.002698049182072282,0.0020839867647737265,-0.06480815261602402,0.15038499236106873,0.22990427911281586,0.0,0.0,0.0,-0.004193880129605532,-0.032137639820575714,-0.0,0.0,0.0,0.0,0.0026829871349036694,-0.007929143495857716,0.007641870994120836,16792.0,12639.0,17941.0,11875.0,0.6442631483078003,0.35328251123428345,0.7400121092796326,0.30915457010269165,0.0,0.0,0.0,0.0,12630.0,16989.0,13794.0,16367.0,2.0343313217163086,0.053883698280655735,-0.27457065854613566,-3.1272383069310146,0.15751029551029205,-0.015814078971743584,0.0
464,5,-0.019559800624847412,-0.0020920189563184977,6.022672823746689e-05,-0.01259047631174326,0.003767759073525667,-0.008039457723498344,-0.009997096844017506,0.002698049182072282,0.0020839867647737265,-0.06480815261602402,0.15038499236106873,0.22990427911281586,0.0,0.0,0.0,-0.004193880129605532,-0.032137639820575714,-0.0,0.0,0.0,0.0,0.0026829871349036694,-0.007929143495857716,0.007641870994120836,16792.0,12639.0,17941.0,11875.0,0.6442631483078003,0.35328251123428345,0.7400121092796326,0.30915457010269165,0.0,0.0,0.0,0.0,12630.0,16989.0,13794.0,16367.0,2.0343313217163086,0.05452480820706643,-0.2732706928686532,-3.1280640974994474,0.15553665161132812,-0.025711746886372566,0.0
470,5,-0.019619692116975784,-0.0020956944208592176,8.184868056559935e-05,-0.012223144061863422,0.0019481698982417583,-0.005810417700558901,-0.009997096844017506,0.002698049182072282,0.0020839867647737265,-0.06480815261602402,0.15038499236106873,0.22990427911281586,0.0,0.0,0.0,-0.006824118550866842,-0.03176006302237511,-0.0,0.0,0.0,0.0,0.0011344318045303226,-0.006193096283823252,-0.0056587508879601955,13278.0,16377.0,14345.0,15818.0,0.39239823818206787,0.6112979650497437,0.46235573291778564,0.5682793855667114,0.0,0.0,0.0,0.0,14846.0,14946.0,15985.0,14375.0,2.032743453979492,0.05401796722901157,-0.272287315597903,-3.128688723436925,0.15553665161132812,-0.025711746886372566,0.0
