timestamp,dt,pos_x,pos_y,pos_z,vel_x,vel_y,vel_z,roll,pitch,yaw,agv_x,agv_y,agv_z,x_ref,y_ref,z_ref,roll_ref,pitch_ref,yaw_ref,x_vel_ref,y_vel_ref,z_vel_ref,x_torque,y_torque,z_torque,w0,w1,w2,w3,u0,u1,u2,u3,m0req,m1req,m2req,m3req,thrust0,thrust1,thrust2,thrust3,thrust_ref,roll_vicon,pitch_vicon,yaw_vicon,acc_x,acc_y,acc_z
5,5,0.0,0.0,0.0,0.00032213187660090625,0.0010139087680727243,0.0021158105228096247,-0.003634985303506255,0.10168302059173584,-0.00035918885259889066,0.00011064192949561402,0.0005086861201561987,0.002134567592293024,0.0,0.0,0.0,-0.0012533911503851414,0.000306322006508708,-0.0,0.0,0.0,0.0,0.001095166546292603,-0.030453912913799286,2.315189158252906e-05,1495.0,1495.0,1495.0,1495.0,0.0,0.0,0.0,0.0,0.0,0.0,0.0,0.0,1495.0,1495.0,1495.0,1495.0,1.6365723609924316,-0.14104597999012577,0.07760910365400556,-0.19384872837809675,-0.0012079945299774408,-0.003802157938480377,0.0
29,24,0.0,0.0,0.0,0.003651899052783847,0.0009671582374721766,0.004337592516094446,-0.003634985303506255,0.10168302059173584,-0.00035918885259889066,0.00011064192949561402,0.0005086861201561987,0.002134567592293024,0.0,0.0,0.0,-0.0012533911503851414,0.000306322006508708,-0.0,0.0,0.0,0.0,0.001095166546292603,-0.030453912913799286,2.315189158252906e-05,1495.0,1495.0,1495.0,1495.0,0.0,0.0,0.0,0.0,0.0,0.0,0.0,0.0,1495.0,1495.0,1495.0,1495.0,1.6365723609924316,-0.13916788594891408,0.07661939647816979,-0.19344000226188784,-0.0012079945299774408,-0.003802157938480377,0.0
34,5,0.0,0.0,0.0,-0.0033809146843850613,-0.005633315537124872,-0.005517332348972559,-0.0036184783093631268,0.10168404877185822,-0.0003633416199591011,0.0013150186277925968,-0.0038825569208711386,9.741543181007728e-06,0.0,0.0,0.0,-0.0011758392211049795,0.00341528351418674,-0.0,0.0,0.0,0.0,0.0006682819221168756,-0.030422963201999664,-1.5075991541380063e-05,1495.0,1495.0,1495.0,1495.0,0.0,0.0,0.0,0.0,0.0,0.0,0.0,0.0,1495.0,1495.0,1495.0,1495.0,1.6921976804733276,-0.14011980869215385,0.07900717100207895,-0.19452202570864685,0.012678430415689945,0.021124932914972305,0.0
46,12,0.0,0.0,0.0,-0.0019409280503168702,0.0008593521197326481,-0.0020025456324219704,-0.0036184783093631268,0.10168404877185822,-0.0003633416199591011,0.0013150186277925968,-0.0038825569208711386,9.741543181007728e-06,0.0,0.0,0.0,0.006735062692314386,-0.003109374549239874,-0.0,0.0,0.0,0.0,0.0006682819221168756,-0.030422963201999664,-1.5075991541380063e-05,1495.0,1495.0,1495.0,1495.0,0.0,0.0,0.0,0.0,0.0,0.0,0.0,0.0,1495.0,1495.0,1495.0,1495.0,1.6921976804733276,-0.1406292110593414,0.07949623962632758,-0.19435370423516454,0.012678430415689945,0.021124932914972305,0.0
51,5,0.0,0.0,0.0,0.0006516641587950289,0.0035920769441872835,0.0007119192741811275,-0.003619867144152522,0.1016983687877655,-0.00038024858804419637,0.0009919875301420689,0.0013120955554768443,-0.0021215928718447685,0.0,0.0,0.0,-0.004370508715510368,0.0006099138408899307,-0.0,0.0,0.0,0.0,0.000709085667040199,-0.030416276305913925,1.6772937669884413e-05,1495.0,1495.0,1495.0,1495.0,0.0,0.0,0.0,0.0,0.0,0.0,0.0,0.0,1495.0,1495.0,1495.0,1495.0,1.6627956628799438,-0.140063911258885,0.079765149594671,-0.19324271497288395,-0.0024437406100332737,-0.01347028836607933,0.0
59,8,0.0,0.0,0.0,0.0005341138457879424,0.0027350522577762604,0.0019308693008497357,-0.003619867144152522,0.1016983687877655,-0.00038024858804419637,0.0009919875301420689,0.0013120955554768443,-0.0021215928718447685,0.0,0.0,0.0,-0.004370508715510368,0.0006099138408899307,-0.0,0.0,0.0,0.0,0.000709085667040199,-0.030416276305913925,1.6772937669884413e-05,1495.0,1495.0,1495.0,1495.0,0.0,0.0,0.0,0.0,0.0,0.0,0.0,0.0,1495.0,1495.0,1495.0,1495.0,1.6627956628799438,-0.1399237326119571,0.07906365249228817,-0.1932501818269466,-0.0024437406100332737,-0.01347028836607933,0.0
64,5,0.0,0.0,0.0,-0.0014989979099482298,-0.0022042517084628344,-0.0024030222557485104,-0.003591117449104786,0.10169336199760437,-0.000412895402405411,-0.0012984501663595438,-0.0034838849678635597,0.004274582955986261,0.0,0.0,0.0,0.0026980959810316563,-0.0014114148216322064,-0.0,0.0,0.0,0.0,0.0031341849826276302,-0.03150574490427971,-6.373195355990902e-05,11077.0,15613.0,15973.0,11583.0,0.26621198654174805,0.5528692007064819,0.5800384283065796,0.2930780053138733,0.0,0.0,0.0,0.0,11113.0,15596.0,15999.0,11537.0,1.652827262878418,-0.1409995443194185,0.08100494547615299,-0.19411170564250965,0.0056212423369288445,0.008265944197773933,0.0
73,9,0.0,0.0,0.0,0.003216767916455865,-0.00014571566134691238,0.005884811282157898,-0.003591117449104786,0.10169336199760437,-0.000412895402405411,-0.0012984501663595438,-0.0034838849678635597,0.004274582955986261,0.0,0.0,0.0,0.0026980959810316563,-0.0014114148216322064,-0.0,0.0,0.0,0.0,0.0031341849826276302,-0.03150574490427971,-6.373195355990902e-05,11077.0,15613.0,15973.0,11583.0,0.26621198654174805,0.5528692007064819,0.5800384283065796,0.2930780053138733,0.0,0.0,0.0,0.0,11113.0,15596.0,15999.0,11537.0,1.652827262878418,-0.13965895671623385,0.07787075475059986,-0.19412684854306653,0.0056212423369288445,0.008265944197773933,0.0
78,5,1.0179356650041882e-05,4.4517291826196015e-06,-7.032012035779189e-06,0.0025082300417125225,-0.0005924937431700528,0.0031977659091353416,-0.003591117449104786,0.10169336199760437,-0.000412895402405411,-0.0012984501663595438,-0.0034838849678635597,0.004274582955986261,0.0,0.0,0.0,0.00017775845481082797,0.0030185687355697155,-0.0,0.0,0.0,0.0,0.0031341849826276302,-0.03150574490427971,-6.373195355990902e-05,11077.0,15613.0,15973.0,11583.0,0.26621198654174805,0.5528692007064819,0.5800384283065796,0.2930780053138733,0.0,0.0,0.0,0.0,11113.0,15596.0,15999.0,11537.0,1.6584358215332031,-0.13927507984912912,0.07829574680388794,-0.19392204354917408,-0.012062879279255867,0.0005464337300509214,0.0
83,5,4.379928213893436e-06,9.556658369547222e-06,2.106170359184034e-05,0.0003073605475947261,-0.0008495890651829541,-0.0020921393297612667,-0.0035914613399654627,0.10172058641910553,-0.0003857138508465141,-0.001129435608163476,0.001217012875713408,0.0018026280449703336,0.0,0.0,0.0,0.00017775845481082797,0.0030185687355697155,-0.0,0.0,0.0,0.0,0.001896631089039147,-0.030863147228956223,-8.270185207948089e-05,11008.0,15538.0,15705.0,11399.0,0.2626432180404663,0.5472420454025269,0.5597606897354126,0.28318125009536743,0.0,0.0,0.0,0.0,11300.0,15648.0,15605.0,11286.0,1.6584358215332031,-0.13890112052666945,0.07858600552457919,-0.19355073078496582,-0.012062879279255867,0.0005464337300509214,0.0
88,5,-6.81878782415879e-06,-2.5423978513572365e-06,3.0421473638853058e-05,-0.001220901613123715,0.001112051191739738,-0.0019600281957536936,-0.0035914613399654627,0.10172058641910553,-0.0003857138508465141,-0.001129435608163476,0.001217012875713408,0.0018026280449703336,0.0,0.0,0.0,0.0010685601737350225,0.0002986571635119617,-0.0,0.0,0.0,0.0,0.001896631089039147,-0.030863147228956223,-8.270185207948089e-05,11008.0,15538.0,15705.0,11399.0,0.2626432180404663,0.5472420454025269,0.5597606897354126,0.28318125009536743,0.0,0.0,0.0,0.0,11300.0,15648.0,15605.0,11286.0,1.635097861289978,-0.13927796812360776,0.07848020193814552,-0.19366084924390556,-0.0011767069809138775,0.003238554112613201,0.0
93,5,-2.916750599979423e-05,1.9226683434681036e-05,6.712380854878575e-05,-0.0031702069099992514,-0.0021674693562090397,-0.00518829096108675,-0.0035914613399654627,0.10172058641910553,-0.0003857138508465141,-0.001129435608163476,0.001217012875713408,0.0018026280449703336,0.0,0.0,0.0,0.0010685601737350225,0.0002986571635119617,-0.0,0.0,0.0,0.0,0.001896631089039147,-0.030863147228956223,-8.270185207948089e-05,11008.0,15538.0,15705.0,11399.0,0.2626432180404663,0.5472420454025269,0.5597606897354126,0.28318125009536743,0.0,0.0,0.0,0.0,11300.0,15648.0,15605.0,11286.0,1.635097861289978,-0.14039393403661432,0.0798259369533129,-0.1946452151794731,-0.0011767069809138775,0.003238554112613201,0.0
98,5,-4.380774043966085e-06,-4.401925252750516e-05,1.477192017773632e-05,0.0017063250998035073,0.006722524296492338,0.0042069097980856895,-0.0035829327534884214,0.10169494152069092,-0.0003962152113672346,-0.003239111742004752,0.0055176145397126675,-0.0018063005991280079,0.0,0.0,0.0,0.0010685601737350225,0.0002986571635119617,-0.0,0.0,0.0,0.0,0.0010988519061356783,-0.029926488175988197,-8.117614197544754e-05,11192.0,15540.0,15622.0,11439.0,0.27219539880752563,0.5474040508270264,0.553529679775238,0.2853066921234131,0.0,0.0,0.0,0.0,11002.0,15536.0,15721.0,11384.0,1.635097861289978,-0.14077990706578952,0.078856259785241,-0.19336106013122786,-0.006374625023454428,-0.025451691821217537,-0.0
104,5,-1.3642045814776793e-05,-3.2133452805283014e-06,3.613301305449568e-05,-0.00042882259003818035,-0.0022076989989727736,-0.0008805672405287623,-0.0035829327534884214,0.10169494152069092,-0.0003962152113672346,-0.003239111742004752,0.0055176145397126675,-0.0018063005991280079,0.0,0.0,0.0,-0.008094068616628647,0.0015594350406900048,-0.0,0.0,0.0,0.0,0.0010988519061356783,-0.029926488175988197,-8.117614197544754e-05,11192.0,15540.0,15622.0,11439.0,0.27219539880752563,0.5474040508270264,0.553529679775238,0.2853066921234131,0.0,0.0,0.0,0.0,11002.0,15536.0,15721.0,11384.0,1.6964843273162842,-0.14070859820878967,0.07925974311920163,-0.1939601376162267,-0.006374625023454428,-0.025451691821217537,-0.0
109,5,-1.6264930309262127e-05,-6.913917331985431e-07,3.003236088261474e-05,-0.00048627518117427826,-0.0011857140343636274,0.00037985126255080104,-0.0035942771937698126,0.10172683000564575,-0.0004040040075778961,-0.0002898884704336524,-0.003561029676347971,0.0002622372703626752,0.0,0.0,0.0,0.0014624297618865967,-0.0004844284849241376,-0.0,0.0,0.0,0.0,0.0013981598895043135,-0.030521759763360023,-6.0626844060607255e-05,10993.0,15490.0,15597.0,11299.0,0.2619051933288574,0.543715238571167,0.551643431186676,0.2778339982032776,0.0,0.0,0.0,0.0,11248.0,15493.0,15639.0,11425.0,1.638869285583496,-0.14081299654628743,0.07881077055753069,-0.1940046864554526,0.0019130459986627102,0.004442501813173294,-0.0
114,5,-2.4727230993448757e-05,-1.0542201380303595e-05,3.2849315175553784e-05,-0.001209986163303256,0.0007078116177581251,-0.00018609385006129742,-0.003577012335881591,0.10173279792070389,-0.00040208149584941566,0.001542832120321691,-0.0017778134206309915,-0.0044070337899029255,0.0,0.0,0.0,0.0014624297618865967,-0.0004844284849241376,-0.0,0.0,0.0,0.0,-0.0014049018500372767,-0.03032858483493328,-4.887347313342616e-05,11516.0,15851.0,15615.0,11401.0,0.28942906856536865,0.570777177810669,0.5530298948287964,0.2832481861114502,0.0,0.0,0.0,0.0,10998.0,15487.0,15606.0,11285.0,1.638869285583496,-0.1413609463349089,0.07894228982114071,-0.19409723142730093,0.0019130459986627102,0.004442501813173294,-0.0
119,5,-4.581927714752965e-05,3.931030732928775e-06,3.002528137585614e-05,-0.003015039721503854,-0.0014536632224917412,0.0002644463093020022,-0.003577012335881591,0.10173279792070389,-0.00040208149584941566,0.001542832120321691,-0.0017778134206309915,-0.0044070337899029255,0.0,0.0,0.0,-0.0008920723921619356,-0.0011823559179902077,-0.0,0.0,0.0,0.0,-0.0014049018500372767,-0.03032858483493328,-4.887347313342616e-05,11516.0,15851.0,15615.0,11401.0,0.28942906856536865,0.570777177810669,0.5530298948287964,0.2832481861114502,0.0,0.0,0.0,0.0,10998.0,15487.0,15606.0,11285.0,1.640404224395752,-0.14033418239192352,0.08008583487169452,-0.1943650166120124,0.00467359134927392,-0.002712435554713011,0.0
124,5,-1.2637268810067326e-05,-2.208133264502976e-05,2.44397215283243e-05,0.002775824861600995,0.0025400181766599417,0.0007760458975099027,-0.003577012335881591,0.10173279792070389,-0.00040208149584941566,0.001542832120321691,-0.0017778134206309915,-0.0044070337899029255,0.0,0.0,0.0,-0.0008920723921619356,-0.0011823559179902077,-0.0,0.0,0.0,0.0,-0.0014049018500372767,-0.03032858483493328,-4.887347313342616e-05,11516.0,15851.0,15615.0,11401.0,0.28942906856536865,0.570777177810669,0.5530298948287964,0.2832481861114502,0.0,0.0,0.0,0.0,10998.0,15487.0,15606.0,11285.0,1.640404224395752,-0.14122226029473361,0.07859975041546248,-0.19385692207789626,0.00467359134927392,-0.002712435554713011,0.0
129,5,-7.2120101322070695e-06,-1.6247055327767157e-06,2.8092712454963475e-05,0.0017613610252738,-0.001438787905499339,-0.00012794068607036024,-0.0035744397900998592,0.10171452164649963,-0.0004081281367689371,-0.0022209358867257833,0.0035823779180645943,-0.0023859634529799223,0.0,0.0,0.0,-0.0008920723921619356,-0.0011823559179902077,-0.0,0.0,0.0,0.0,-0.0013082253281027079,-0.03018481843173504,-7.37032969482243e-05,11534.0,15829.0,15620.0,11407.0,0.2904282510280609,0.569073498249054,0.5533685088157654,0.28361406922340393,0.0,0.0,0.0,0.0,11539.0,15835.0,15607.0,11412.0,1.640404224395752,-0.1404073292153278,0.0797080611189732,-0.1938285169534918,0.00467359134927392,-0.002712435554713011,0.0
134,5,-3.8101816244306974e-06,1.9371213056729175e-05,2.9294458727235906e-05,0.0011127638863399625,-0.0030950254295021296,-0.00019538587366696447,-0.0035744397900998592,0.10171452164649963,-0.0004081281367689371,-0.0022209358867257833,0.0035823779180645943,-0.0023859634529799223,0.0,0.0,0.0,0.0017624985193833709,0.0016525080427527428,-0.0,0.0,0.0,0.0,-0.0013082253281027079,-0.03018481843173504,-7.37032969482243e-05,11534.0,15829.0,15620.0,11407.0,0.2904282510280609,0.569073498249054,0.5533685088157654,0.28361406922340393,0.0,0.0,0.0,0.0,11539.0,15835.0,15607.0,11412.0,1.6487617492675781,-0.13874070547357625,0.07893320353583658,-0.19399357490116678,-0.006565269082784653,0.005386353004723787,0.0
140,5,-7.441521120199468e-06,-5.421329660748597e-06,3.5414574085734785e-05,9.344780664832797e-06,0.0017370949499309063,-0.0008125680033117533,-0.003572663525119424,0.10169833153486252,-0.0004424245562404394,0.0007588821463286877,-0.0027235730085521936,-0.0030221068300306797,0.0,0.0,0.0,0.0017624985193833709,0.0016525080427527428,-0.0,0.0,0.0,0.0,0.0015186711680144072,-0.030906103551387787,-8.34785241750069e-05,10957.0,15526.0,15631.0,11307.0,0.2600148916244507,0.5463684797286987,0.5541973114013672,0.2782885432243347,0.0,0.0,0.0,0.0,10965.0,15518.0,15610.0,11340.0,1.6487617492675781,-0.13954168264065483,0.07894781517627537,-0.1936919503043896,-0.006565269082784653,0.005386353004723787,0.0
145,5,-9.187578143610153e-06,9.019153367262334e-06,2.7922353183384985e-05,-0.00020578893600031734,-0.0010380200110375881,0.0005740392953157425,-0.003572663525119424,0.10169833153486252,-0.0004424245562404394,0.0007588821463286877,-0.0027235730085521936,-0.0030221068300306797,0.0,0.0,0.0,-0.002148199360817671,-1.5353208482338232e-06,-0.0,0.0,0.0,0.0,0.0015186711680144072,-0.030906103551387787,-8.34785241750069e-05,10957.0,15526.0,15631.0,11307.0,0.2600148916244507,0.5463684797286987,0.5541973114013672,0.2782885432243347,0.0,0.0,0.0,0.0,10965.0,15518.0,15610.0,11340.0,1.6434932947158813,-0.14018671229642463,0.08010129845546149,-0.1943417042366888,6.080201728764223e-06,-0.006544108036905527,0.0
150,5,-1.775942655513063e-05,-1.0805330930452328e-05,1.0040044799097814e-05,-0.0011109374463558197,0.00196373020298779,0.0023754925932735205,-0.003566482337191701,0.10171496123075485,-0.000440042233094573,-9.569781832396984e-05,-0.004339144099503756,0.0003632115840446204,0.0,0.0,0.0,-0.002148199360817671,-1.5353208482338232e-06,-0.0,0.0,0.0,0.0,0.0007968362770043314,-0.03114483878016472,-1.2255167348484974e-05,11036.0,15564.0,15633.0,11202.0,0.2641124725341797,0.5491914749145508,0.5543779134750366,0.27272236347198486,0.0,0.0,0.0,0.0,11006.0,15586.0,15602.0,11244.0,1.6434932947158813,-0.1404114109631868,0.0790891823042002,-0.1939526139641245,6.080201728764223e-06,-0.006544108036905527,0.0
155,5,-9.968740414478816e-06,8.738974429434165e-06,3.251539237680845e-05,0.0004905074019916356,-0.0015598245663568377,-0.001746844849549234,-0.003566482337191701,0.10171496123075485,-0.000440042233094573,-9.569781832396984e-05,-0.004339144099503756,0.0003632115840446204,0.0,0.0,0.0,-0.0024288566783070564,-0.0010731345973908901,-0.0,0.0,0.0,0.0,0.0007968362770043314,-0.03114483878016472,-1.2255167348484974e-05,11036.0,15564.0,15633.0,11202.0,0.2641124725341797,0.5491914749145508,0.5543779134750366,0.27272236347198486,0.0,0.0,0.0,0.0,11006.0,15586.0,15602.0,11244.0,1.648949146270752,-0.13939532341167762,0.07859854585544096,-0.19329917548310108,0.004263949114829302,-0.007423640228807926,-0.0
160,5,-1.3155987289792392e-05,-1.1660575182759203e-05,1.1321323654556181e-05,-0.0001862666686065495,0.0018240161007270217,0.001844550482928753,-0.003686467418447137,0.10165991634130478,-0.00017754011787474155,-0.004828198812901974,0.010390253737568855,0.05937575176358223,0.0,0.0,0.0,-0.0024288566783070564,-0.0010731345973908901,-0.0,0.0,0.0,0.0,0.0018354093190282583,-0.029973814263939857,0.001129679149016738,11801.0,14941.0,16143.0,10693.0,0.3050630986690521,0.5039068460464478,0.5930891633033752,0.24670270085334778,0.0,0.0,0.0,0.0,11090.0,15484.0,15664.0,11376.0,1.648949146270752,-0.13972482387027937,0.07952765122889138,-0.19438364625127316,0.004263949114829302,-0.007423640228807926,-0.0
165,5,-2.329891913177562e-06,-3.107850352535024e-05,5.932814019615762e-06,0.001224624807946384,0.003059757873415947,0.0013844412751495838,-0.003686467418447137,0.10165991634130478,-0.00017754011787474155,-0.004828198812901974,0.010390253737568855,0.05937575176358223,0.0,0.0,0.0,-0.002264985116198659,-0.00019459780014585704,-0.0,0.0,0.0,0.0,0.0018354093190282583,-0.029973814263939857,0.001129679149016738,11801.0,14941.0,16143.0,10693.0,0.3050630986690521,0.5039068460464478,0.5930891633033752,0.24670270085334778,0.0,0.0,0.0,0.0,11090.0,15484.0,15664.0,11376.0,1.6445847749710083,-0.1406658319405544,0.07682511329314874,-0.19358596316061055,0.0007711608777754009,-0.00690445676445961,-0.0
170,5,-4.307481867726892e-05,5.4662800721416716e-06,5.405643969425e-05,-0.004399541299790144,-0.0031614708714187145,-0.005221058614552021,-0.0036180750466883183,0.1015557050704956,-0.000592684606090188,0.013441435992717743,-0.02226487174630165,0.05487307533621788,0.0,0.0,0.0,-0.002264985116198659,-0.00019459780014585704,-0.0,0.0,0.0,0.0,0.00033125755726359785,-0.03064533695578575,-0.00022980528592597693,11498.0,15315.0,15872.0,10796.0,0.2884584367275238,0.5308602452278137,0.5722997784614563,0.25187477469444275,0.0,0.0,0.0,0.0,11643.0,15257.0,16092.0,10492.0,1.6445847749710083,-0.1417240049482113,0.07950861247912723,-0.19470285784452399,0.0007711608777754009,-0.00690445676445961,-0.0
175,5,2.578716339485254e-05,-2.231792313978076e-05,-4.979009463568218e-05,0.006503621116280556,0.002069516107439995,0.010373160243034363,-0.0036180750466883183,0.1015557050704956,-0.000592684606090188,0.013441435992717743,-0.02226487174630165,0.05487307533621788,0.0,0.0,0.0,0.0038141014520078897,-0.004131257999688387,-0.0,0.0,0.0,0.0,0.00033125755726359785,-0.03064533695578575,-0.00022980528592597693,11498.0,15315.0,15872.0,10796.0,0.2884584367275238,0.5308602452278137,0.5722997784614563,0.25187477469444275,0.0,0.0,0.0,0.0,11643.0,15257.0,16092.0,10492.0,1.6811738014221191,-0.1384954425262498,0.07689783646436667,-0.19299534502521307,0.01673564501106739,0.011885336600244045,0.0
181,5,1.0388669579697307e-05,-2.1473764718393795e-05,3.914230092050275e-06,0.0007536292541772127,0.0007265073945745826,-0.002295254496857524,-0.0037190949078649282,0.10171330720186234,-0.0002967941400129348,-0.011521060019731522,0.03205491602420807,-0.007961971685290337,0.0,0.0,0.0,0.0038141014520078897,-0.004131257999688387,-0.0,0.0,0.0,0.0,0.0008762921788729727,-0.030755825340747833,1.2280357850613655e-06,11126.0,15562.0,15610.0,11312.0,0.2687833309173584,0.5490384101867676,0.5526050329208374,0.2785223722457886,0.0,0.0,0.0,0.0,11643.0,15257.0,16092.0,10492.0,1.6811738014221191,-0.1404267570478161,0.07892194919212031,-0.1935723692176077,0.01673564501106739,0.011885336600244045,0.0
186,5,-2.0285120626795106e-05,4.698734755947953e-06,6.37205594102852e-05,-0.0033794031478464603,-0.002850096905604005,-0.008094861172139645,-0.0037190949078649282,0.10171330720186234,-0.0002967941400129348,-0.011521060019731522,0.03205491602420807,-0.007961971685290337,0.0,0.0,0.0,-0.0009370532934553921,0.0007309531792998314,-0.0,0.0,0.0,0.0,0.0008762921788729727,-0.030755825340747833,1.2280357850613655e-06,11126.0,15562.0,15610.0,11312.0,0.2687833309173584,0.5490384101867676,0.5526050329208374,0.2785223722457886,0.0,0.0,0.0,0.0,11643.0,15257.0,16092.0,10492.0,1.636732816696167,-0.14024476604207026,0.08293266716211944,-0.19390495348934064,-0.002882830100134015,-0.0028428277000784874,0.0
191,5,-1.2004006748611573e-05,1.695760147413239e-05,7.635535439476371e-05,-0.0003580275515560061,-0.00261110276915133,-0.004754120018333197,-0.003486417466774583,0.10164781659841537,-0.0005452393088489771,-0.02225048653781414,-0.020926915109157562,0.05268344655632973,0.0,0.0,0.0,-0.0009370532934553921,0.0007309531792998314,-0.0,0.0,0.0,0.0,0.0002076725213555619,-0.03129001334309578,0.00018565689970273525,11460.0,15328.0,15916.0,10772.0,0.28644901514053345,0.5317851901054382,0.5757113695144653,0.2506392002105713,0.0,0.0,0.0,0.0,11456.0,15290.0,16320.0,10939.0,1.636732816696167,-0.1405411550970246,0.08199986279163696,-0.19415642869220748,-0.002882830100134015,-0.0028428277000784874,0.0
196,5,-1.9041679479414597e-05,-1.7525375142213306e-06,7.260125858010724e-05,-0.0009877317352220416,0.0012007754994556308,-0.0014511565677821636,-0.003486417466774583,0.10164781659841537,-0.0005452393088489771,-0.02225048653781414,-0.020926915109157562,0.05268344655632973,0.0,0.0,0.0,0.00322651956230402,-0.000353808281943202,-0.0,0.0,0.0,0.0,0.0002076725213555619,-0.03129001334309578,0.00018565689970273525,11460.0,15328.0,15916.0,10772.0,0.28644901514053345,0.5317851901054382,0.5757113695144653,0.2506392002105713,0.0,0.0,0.0,0.0,11456.0,15290.0,16320.0,10939.0,1.6527968645095825,-0.14113691954339802,0.08066852508383864,-0.19436604050430104,0.0014090847689658403,0.00988464243710041,0.0
201,5,-1.1666118552966509e-05,-1.4308331628853921e-05,3.512727198540233e-05,0.0004899746272712946,0.0019870055839419365,0.003916415851563215,-0.003473305609077215,0.10172039270401001,-0.0006404095911420882,0.03803383558988571,0.013735823333263397,0.006956256460398436,0.0,0.0,0.0,0.00322651956230402,-0.000353808281943202,-0.0,0.0,0.0,0.0,0.0016396102728322148,-0.031740833073854446,-0.0012947419891133904,10863.0,15865.0,15670.0,11655.0,0.2552545666694641,0.5717942714691162,0.5571252703666687,0.2969996929168701,0.0,0.0,0.0,0.0,11536.0,15250.0,15808.0,10810.0,1.6527968645095825,-0.1394464084383335,0.07981563556555119,-0.19331133412121151,0.0014090847689658403,0.00988464243710041,0.0
206,5,-2.9913795515312813e-05,2.0003210465802113e-06,6.294057675404474e-05,-0.001993731362745166,-0.0011622360907495022,-0.0017710300162434578,-0.003473305609077215,0.10172039270401001,-0.0006404095911420882,0.03803383558988571,0.013735823333263397,0.006956256460398436,0.0,0.0,0.0,-0.0024670828133821487,0.00044676102697849274,-0.0,0.0,0.0,0.0,0.0016396102728322148,-0.031740833073854446,-0.0012947419891133904,10863.0,15865.0,15670.0,11655.0,0.2552545666694641,0.5717942714691162,0.5571252703666687,0.2969996929168701,0.0,0.0,0.0,0.0,11536.0,15250.0,15808.0,10810.0,1.6467187404632568,-0.14119662473416247,0.08042988459864747,-0.19428271490556998,-0.0017727409722283483,-0.0075302766636013985,-0.0
211,5,-8.002196409506723e-06,-2.9940651984361466e-06,7.238621037686244e-06,0.0018318992806598544,0.00013443187344819307,0.005975822452455759,-0.003496651304885745,0.10161495953798294,-0.000603687425609678,-0.04694610461592674,0.021946707740426064,-0.020671136677265167,0.0,0.0,0.0,-0.0024670828133821487,0.00044676102697849274,-0.0,0.0,0.0,0.0,0.0016352281672880054,-0.029948826879262924,-0.0007581894751638174,10713.0,15658.0,15368.0,11675.0,0.2477019727230072,0.5562281608581543,0.5347105860710144,0.2980920970439911,0.0,0.0,0.0,0.0,10977.0,15527.0,15676.0,11483.0,1.6467187404632568,-0.14045551626002614,0.07812270491664894,-0.19421232686666062,-0.0017727409722283483,-0.0075302766636013985,-0.0
216,5,-2.5813042157096788e-05,-3.2948260923149064e-05,5.398213033913635e-05,-0.0014045416610315442,0.0036482764407992363,-0.003218892030417919,-0.003496651304885745,0.10161495953798294,-0.000603687425609678,-0.04694610461592674,0.021946707740426064,-0.020671136677265167,0.0,0.0,0.0,-0.00017091073095798492,0.0017225570045411587,-0.0,0.0,0.0,0.0,0.0016352281672880054,-0.029948826879262924,-0.0007581894751638174,10713.0,15658.0,15368.0,11675.0,0.2477019727230072,0.5562281608581543,0.5347105860710144,0.2980920970439911,0.0,0.0,0.0,0.0,10977.0,15527.0,15676.0,11483.0,1.6443058252334595,-0.1409888665337189,0.08086319554364121,-0.1936355214513163,-0.006825082004070282,-0.0005209073424339294,-0.0
221,5,-2.3613534722244367e-05,4.735434686153894e-06,9.20017555472441e-05,-0.00029787575476802886,-0.003062732983380556,-0.005849911365658045,-0.0033300661016255617,0.10140680521726608,-0.0006856492254883051,0.0036047613248229027,0.05668414384126663,-0.0175824873149395,0.0,0.0,0.0,-0.00017091073095798492,0.0017225570045411587,-0.0,0.0,0.0,0.0,0.001355053042061627,-0.03028261847794056,-0.0003755145298782736,10933.0,15631.0,15488.0,11641.0,0.2587892413139343,0.5541813373565674,0.5435625910758972,0.29626375436782837,0.0,0.0,0.0,0.0,10956.0,15490.0,15529.0,11754.0,1.6443058252334595,-0.1408733412461862,0.08210635517634168,-0.19410967074357258,-0.006825082004070282,-0.0005209073424339294,-0.0
227,5,-1.4300820794233005e-06,-6.8055505835218355e-06,8.853713370626792e-05,0.0025428638327866793,0.00015982500917743891,-0.0019242099951952696,-0.0033300661016255617,0.10140680521726608,-0.0006856492254883051,0.0036047613248229027,0.05668414384126663,-0.0175824873149395,0.0,0.0,0.0,0.0037476338911801577,-0.00031242778641171753,-0.0,0.0,0.0,0.0,0.001355053042061627,-0.03028261847794056,-0.0003755145298782736,10933.0,15631.0,15488.0,11641.0,0.2587892413139343,0.5541813373565674,0.5435625910758972,0.29626375436782837,0.0,0.0,0.0,0.0,10956.0,15490.0,15529.0,11754.0,1.6571003198623657,-0.13926503274361599,0.07989807705601817,-0.19381045368047953,0.0012475193943828344,0.011510989628732204,0.0
232,5,1.723852619761601e-05,-5.3958701755618677e-05,0.00010724827006924897,0.0032573784701526165,0.005722308065742254,-0.0030150210950523615,-0.0034757941029965878,0.10062023997306824,-0.0005560240242630243,0.05246001482009888,0.1759912520647049,0.009436719119548798,0.0,0.0,0.0,0.0037476338911801577,-0.00031242778641171753,-0.0,0.0,0.0,0.0,-0.0003063345793634653,-0.02686063013970852,0.0007591364555992186,11805.0,15203.0,15452.0,11299.0,0.3052455484867096,0.5226930379867554,0.5409427285194397,0.2778373658657074,0.0,0.0,0.0,0.0,11664.0,15256.0,15232.0,11671.0,1.6571003198623657,-0.1391930469488387,0.08094024792585798,-0.1924611563905992,0.0012475193943828344,0.011510989628732204,0.0
237,5,2.8680204195552506e-05,-2.1806356016895734e-05,0.00018741501844488084,0.0026759528554975986,-0.0015693582827225327,-0.010826017707586288,-0.0034757941029965878,0.10062023997306824,-0.0005560240242630243,0.05246001482009888,0.1759912520647049,0.009436719119548798,0.0,0.0,0.0,-0.006932298187166452,0.0030171654652804136,-0.0,0.0,0.0,0.0,-0.0003063345793634653,-0.02686063013970852,0.0007591364555992186,11805.0,15203.0,15452.0,11299.0,0.3052455484867096,0.5226930379867554,0.5409427285194397,0.2778373658657074,0.0,0.0,0.0,0.0,11664.0,15256.0,15232.0,11671.0,1.693160057067871,-0.13979655528422133,0.08593268789599819,-0.19237451469212835,-0.012309430167078972,-0.021755920723080635,0.0
242,5,5.551303183892742e-05,-2.665553620317951e-05,0.00019865611102432013,0.004290320444852114,-4.5841745304642245e-05,-0.005679337773472071,-0.0033177644945681095,0.09753096848726273,-0.0005682655610144138,-0.02258007600903511,0.3483547568321228,0.0929611548781395,0.0,0.0,0.0,-0.006932298187166452,0.0030171654652804136,-0.0,0.0,0.0,0.0,0.001847286825068295,-0.01591748185455799,-0.0009796223603188992,12264.0,14612.0,15307.0,11747.0,0.3312443792819977,0.4807589054107666,0.5302398800849915,0.3020627200603485,0.0,0.0,0.0,0.0,13158.0,13787.0,15925.0,10917.0,1.693160057067871,-0.13919386063852748,0.08797505116582946,-0.192304325872359,-0.012309430167078972,-0.021755920723080635,0.0
247,5,0.00011455640196800232,-2.1000796550652012e-05,0.00013710957136936486,0.008801332674920559,-0.0006969053647480905,0.005113848950713873,-0.0033177644945681095,0.09753096848726273,-0.0005682655610144138,-0.02258007600903511,0.3483547568321228,0.0929611548781395,0.0,0.0,0.0,7.983975592651404e-06,0.004073723219335079,-0.0,0.0,0.0,0.0,0.001847286825068295,-0.01591748185455799,-0.0009796223603188992,12264.0,14612.0,15307.0,11747.0,0.3312443792819977,0.4807589054107666,0.5302398800849915,0.3020627200603485,0.0,0.0,0.0,0.0,13158.0,13787.0,15925.0,10917.0,1.6700670719146729,-0.13687818106701888,0.08653458035024862,-0.19182385903822247,-0.016393667086958885,2.4715058316360228e-05,0.0
252,5,0.00018781781545840204,-5.7194498367607594e-05,7.397994340863079e-05,0.012311902828514576,0.004064482171088457,0.009621095843613148,-0.003311504377052188,0.09396719187498093,-0.00043302294216118753,0.0010015147272497416,0.5470811724662781,-0.058630578219890594,0.0,0.0,0.0,7.983975592651404e-06,0.004073723219335079,-0.0,0.0,0.0,0.0,-0.0008722524507902563,-0.008911781013011932,0.0017629050416871905,11738.0,15030.0,14323.0,13151.0,0.3015659749507904,0.5102005004882812,0.46084824204444885,0.3844855725765228,0.0,0.0,0.0,0.0,12341.0,14545.0,14454.0,13005.0,1.6700670719146729,-0.1342418889496704,0.08562687414613361,-0.19012511755807374,-0.016393667086958885,2.4715058316360228e-05,0.0
257,5,0.0002783573290798813,-7.60131370043382e-05,4.520700895227492e-05,0.01578950323164463,0.0038840293418616056,0.007301189936697483,-0.003311504377052188,0.09396719187498093,-0.00043302294216118753,0.0010015147272497416,0.5470811724662781,-0.058630578219890594,0.0,0.0,0.0,-0.004772340413182974,0.011138778179883957,-0.0,0.0,0.0,0.0,-0.0008722524507902563,-0.008911781013011932,0.0017629050416871905,11738.0,15030.0,14323.0,13151.0,0.3015659749507904,0.5102005004882812,0.46084824204444885,0.3844855725765228,0.0,0.0,0.0,0.0,12341.0,14545.0,14454.0,13005.0,1.75870680809021,-0.13418918542683506,0.08495248321584498,-0.18973838785095112,-0.047202933579683304,-0.015557164326310158,-0.0
262,5,0.0003799831320066005,-0.00014744963846169412,3.402237416594289e-05,0.01851089671254158,0.010125990957021713,0.0042626322247087955,-0.0032326749060302973,0.08652226626873016,-0.0002948460169136524,0.019497115164995193,0.7432420253753662,-0.013689913786947727,0.0,0.0,0.0,-0.004772340413182974,0.011138778179883957,-0.0,0.0,0.0,0.0,0.00044266515760682523,-0.004031210672110319,-0.00041403103386983275,13679.0,13990.0,14542.0,12764.0,0.4180280864238739,0.4384593069553375,0.47588786482810974,0.3607847988605499,0.0,0.0,0.0,0.0,12665.0,14959.0,13407.0,13903.0,1.75870680809021,-0.13441504920942882,0.08557807115031552,-0.18872300668321798,-0.047202933579683304,-0.015557164326310158,-0.0
267,5,0.0006326716393232346,-0.00022114119201432914,-0.0003614586603362113,0.037726983428001404,0.01289338432252407,0.04916277527809143,-0.0032326749060302973,0.08652226626873016,-0.0002948460169136524,0.019497115164995193,0.7432420253753662,-0.013689913786947727,0.0,0.0,0.0,-0.011365041136741638,0.016119353473186493,-0.0,0.0,0.0,0.0,0.00044266515760682523,-0.004031210672110319,-0.00041403103386983275,13679.0,13990.0,14542.0,12764.0,0.4180280864238739,0.4384593069553375,0.47588786482810974,0.3607847988605499,0.0,0.0,0.0,0.0,12665.0,14959.0,13407.0,13903.0,1.8411887884140015,-0.12378164267513582,0.07368214437048563,-0.18469248663633608,-0.07150740176439285,-0.03878474235534668,-0.0
273,5,0.000852790311910212,-0.0003014733665622771,-0.000644397281575948,0.026341186836361885,0.01059634517878294,0.03940734639763832,-0.0032326749060302973,0.08652226626873016,-0.0002948460169136524,0.019497115164995193,0.7432420253753662,-0.013689913786947727,0.0,0.0,0.0,-0.011365041136741638,0.016119353473186493,-0.0,0.0,0.0,0.0,0.00044266515760682523,-0.004031210672110319,-0.00041403103386983275,13679.0,13990.0,14542.0,12764.0,0.4180280864238739,0.4384593069553375,0.47588786482810974,0.3607847988605499,0.0,0.0,0.0,0.0,12665.0,14959.0,13407.0,13903.0,1.8411887884140015,-0.1051199528100046,0.06883462008569564,-0.17916000440723343,-0.07150740176439285,-0.03878474235534668,-0.0
278,5,0.0008844224503263831,-0.00033405571593903005,-0.0006425926694646478,0.014332336373627186,0.008148420602083206,0.015546382404863834,-0.0030420138500630856,0.08041087538003922,-0.0007490302668884397,0.023135773837566376,0.7281670570373535,0.0697128102183342,0.0,0.0,0.0,-0.011644745245575905,0.022392431274056435,-0.0,0.0,0.0,0.0,-0.0011287359520792961,-0.0017564598238095641,-0.0016114691970869899,13468.0,14684.0,13433.0,14403.0,0.40441659092903137,0.4857589304447174,0.4022427499294281,0.4662885367870331,0.0,0.0,0.0,0.0,13924.0,13341.0,14601.0,12746.0,1.9179866313934326,-0.1048731102323066,0.0720038034032901,-0.1784506862845956,-0.10347441583871841,-0.04139675572514534,0.0
283,5,0.0008270845864899457,-0.0003532414557412267,-0.0004226308665238321,-0.0011476116487756371,0.005561657715588808,-0.020176859572529793,-0.0030420138500630856,0.08041087538003922,-0.0007490302668884397,0.023135773837566376,0.7281670570373535,0.0697128102183342,0.0,0.0,0.0,-0.011644745245575905,0.022392431274056435,-0.0,0.0,0.0,0.0,-0.0011287359520792961,-0.0017564598238095641,-0.0016114691970869899,13468.0,14684.0,13433.0,14403.0,0.40441659092903137,0.4857589304447174,0.4022427499294281,0.4662885367870331,0.0,0.0,0.0,0.0,13924.0,13341.0,14601.0,12746.0,1.9179866313934326,-0.121058497541447,0.08367143581095764,-0.18360169743037708,-0.10347441583871841,-0.04139675572514534,0.0
288,5,0.0009671155130490661,-0.0003154337755404413,-0.0006509190425276756,0.016344666481018066,-0.0023122597485780716,0.019323835149407387,-0.002724063815549016,0.07152865082025528,-0.0006911310483701527,0.03855908662080765,0.6841015815734863,-0.05137765035033226,0.0,0.0,0.0,-0.007291103713214397,6.221189687494189e-05,-0.0,0.0,0.0,0.0,-0.0030407956801354885,-0.002869485877454281,0.0004997610813006759,14356.0,14659.0,14343.0,13890.0,0.4631038010120392,0.48402705788612366,0.462206095457077,0.4318518340587616,0.0,0.0,0.0,0.0,13505.0,14669.0,13692.0,14138.0,1.6872919797897339,-0.10418138153653776,0.07603354072893746,-0.1785129321605165,-0.00025293216458521783,-0.02280263788998127,0.0
293,5,0.0009732871549203992,-0.0003106841759290546,-0.0006864457973279059,0.00727846659719944,-0.001494855503551662,0.0119927441701293,-0.002724063815549016,0.07152865082025528,-0.0006911310483701527,0.03855908662080765,0.6841015815734863,-0.05137765035033226,0.0,0.0,0.0,-0.007291103713214397,6.221189687494189e-05,-0.0,0.0,0.0,0.0,-0.0030407956801354885,-0.002869485877454281,0.0004997610813006759,14356.0,14659.0,14343.0,13890.0,0.4631038010120392,0.48402705788612366,0.462206095457077,0.4318518340587616,0.0,0.0,0.0,0.0,13505.0,14669.0,13692.0,14138.0,1.6872919797897339,-0.10204293714358849,0.07608479832046994,-0.1775892516620669,-0.00025293216458521783,-0.02280263788998127,0.0
298,5,0.0009573139832355082,-0.0003055082634091377,-0.0007172779878601432,0.000994606874883175,-0.0012190492125228047,0.008496957831084728,-0.002418835647404194,0.06686520576477051,-0.0005598713760264218,0.021386662498116493,0.5003615617752075,-0.015432863496243954,0.0,0.0,0.0,0.0012249881401658058,0.007906490005552769,-0.0,0.0,0.0,0.0,-0.0027447943575680256,-0.006264965981245041,-0.0008373939781449735,14421.0,15096.0,14915.0,13915.0,0.4674992859363556,0.5149556398391724,0.5020603537559509,0.43347135186195374,0.0,0.0,0.0,0.0,13306.0,15566.0,13612.0,14658.0,1.7142022848129272,-0.1006868044044667,0.07370785302997665,-0.17750055355791575,-0.03265824541449547,0.0038922640960663557,0.0
303,5,0.0008856176864355803,-0.00028472873964346945,-0.0006030023796483874,-0.008205714635550976,-0.0029811644926667213,-0.01031428575515747,-0.0023404890671372414,0.06254749745130539,-0.0010411979164928198,0.0013707801699638367,0.21586653590202332,0.050925977528095245,0.0,0.0,0.0,0.0012249881401658058,0.007906490005552769,-0.0,0.0,0.0,0.0,-0.00200855266302824,-0.01943163014948368,-0.002564268419519067,11351.0,15974.0,14046.0,13150.0,0.28061819076538086,0.5801288485527039,0.44216328859329224,0.38438165187835693,0.0,0.0,0.0,0.0,14559.0,14986.0,15423.0,13320.0,1.7142022848129272,-0.10850710210115501,0.07425951582510742,-0.17964725086016742,-0.03265824541449547,0.0038922640960663557,0.0
308,5,0.0009342756820842624,-0.00023965774744283408,-0.0006929536466486752,0.002556673251092434,-0.006600983906537294,0.006668440066277981,-0.0023404890671372414,0.06254749745130539,-0.0010411979164928198,0.0013707801699638367,0.21586653590202332,0.050925977528095245,0.0,0.0,0.0,0.003048790618777275,-0.006318921223282814,-0.0,0.0,0.0,0.0,-0.00200855266302824,-0.01943163014948368,-0.002564268419519067,11351.0,15974.0,14046.0,13150.0,0.28061819076538086,0.5801288485527039,0.44216328859329224,0.38438165187835693,0.0,0.0,0.0,0.0,14559.0,14986.0,15423.0,13320.0,1.7001359462738037,-0.10331062944500584,0.06833236580845321,-0.17700521166757255,0.02588651515543461,0.009607681073248386,0.0
314,5,0.0009606285020709038,-0.00024485221365466714,-0.0007466270471923053,0.004185010213404894,-0.002017058664932847,0.009108178317546844,-0.0023404890671372414,0.06254749745130539,-0.0010411979164928198,0.0013707801699638367,0.21586653590202332,0.050925977528095245,0.0,0.0,0.0,0.003048790618777275,-0.006318921223282814,-0.0,0.0,0.0,0.0,-0.00200855266302824,-0.01943163014948368,-0.002564268419519067,11351.0,15974.0,14046.0,13150.0,0.28061819076538086,0.5801288485527039,0.44216328859329224,0.38438165187835693,0.0,0.0,0.0,0.0,14559.0,14986.0,15423.0,13320.0,1.7001359462738037,-0.0988363434633436,0.06248270497946967,-0.1751822302197799,0.02588651515543461,0.009607681073248386,0.0
319,5,0.0009176027961075306,-0.0003238085191696882,-0.0006807760801166296,-0.003489086404442787,0.008667932823300362,-0.004258842207491398,-0.002108925487846136,0.06197495386004448,-0.0012500023003667593,0.03625550866127014,-0.035873644053936005,-0.07307744771242142,0.0,0.0,0.0,0.0019887404050678015,0.005171317607164383,-0.0,0.0,0.0,0.0,0.000533534970600158,-0.020463330671191216,0.0006669819704256952,12380.0,15086.0,15297.0,12284.0,0.3379741907119751,0.514274001121521,0.5295650959014893,0.3323889374732971,0.0,0.0,0.0,0.0,11813.0,15698.0,14551.0,12515.0,1.6848366260528564,-0.10270459061097968,0.055935050822876475,-0.1763734448658505,-0.020994624122977257,0.006210748106241226,0.0
324,5,0.0009295967756770551,-0.00033023671130649745,-0.0007260614656843245,4.3642074160743505e-05,0.004238556604832411,0.0037307122256606817,-0.002108925487846136,0.06197495386004448,-0.0012500023003667593,0.03625550866127014,-0.035873644053936005,-0.07307744771242142,0.0,0.0,0.0,0.0019887404050678015,0.005171317607164383,-0.0,0.0,0.0,0.0,0.000533534970600158,-0.020463330671191216,0.0006669819704256952,12380.0,15086.0,15297.0,12284.0,0.3379741907119751,0.514274001121521,0.5295650959014893,0.3323889374732971,0.0,0.0,0.0,0.0,11813.0,15698.0,14551.0,12515.0,1.6848366260528564,-0.09988300985218201,0.05188651206389678,-0.1749903299851737,-0.020994624122977257,0.006210748106241226,0.0
329,5,0.0009214391466230154,-0.00034137829788960516,-0.0007597882649861276,-0.0009614573209546506,0.003032413776963949,0.005539500620216131,-0.0015946382191032171,0.0640961304306984,-0.0018169372342526913,0.014695296064019203,-0.0669306293129921,0.06352192908525467,0.0,0.0,0.0,-0.005704566370695829,0.0013118652859702706,-0.0,0.0,0.0,0.0,0.0013676013331860304,-0.023551149293780327,-0.0005495520308613777,12218.0,15039.0,15584.0,11890.0,0.32858818769454956,0.5109124183654785,0.5506587028503418,0.3099766969680786,0.0,0.0,0.0,0.0,11313.0,15865.0,14461.0,13296.0,1.6757221221923828,-0.09693731499883192,0.04861443488136722,-0.17370281528743145,-0.005297072697430849,-0.01771857962012291,0.0
334,5,0.0009065629565156996,-0.0003661382361315191,-0.0008061433909460902,-0.0021697264164686203,0.004184157121926546,0.007778414059430361,-0.0015946382191032171,0.0640961304306984,-0.0018169372342526913,0.014695296064019203,-0.0669306293129921,0.06352192908525467,0.0,0.0,0.0,-0.005704566370695829,0.0013118652859702706,-0.0,0.0,0.0,0.0,0.0013676013331860304,-0.023551149293780327,-0.0005495520308613777,12218.0,15039.0,15584.0,11890.0,0.32858818769454956,0.5109124183654785,0.5506587028503418,0.3099766969680786,0.0,0.0,0.0,0.0,11313.0,15865.0,14461.0,13296.0,1.6757221221923828,-0.09514629476220819,0.04794377105603605,-0.17303953801306943,-0.005297072697430849,-0.01771857962012291,0.0
339,5,0.0008701580227352679,-0.00036144096520729363,-0.0008470076136291027,-0.005236481316387653,0.0011099913390353322,0.008015072904527187,-0.001256327610462904,0.06388469785451889,-0.002012265380471945,0.028260597959160805,0.10624287277460098,-0.09393537044525146,0.0,0.0,0.0,-0.005707506090402603,-0.0007749511860311031,-0.0,0.0,0.0,0.0,0.0009103171760216355,-0.02001892402768135,-0.003108845790848136,11258.0,15948.0,13618.0,13521.0,0.2756943106651306,0.5781344175338745,0.4140869379043579,0.407806396484375,0.0,0.0,0.0,0.0,11940.0,15406.0,14139.0,13030.0,1.6743619441986084,-0.09338801406030976,0.04733360733318568,-0.1727766400637704,0.0031265723519027233,-0.01771332137286663,0.0
344,5,0.0008470884640701115,-0.0003806392487604171,-0.0008925062720663846,-0.004862939938902855,0.0027477890253067017,0.00866586435586214,-0.001256327610462904,0.06388469785451889,-0.002012265380471945,0.028260597959160805,0.10624287277460098,-0.09393537044525146,0.0,0.0,0.0,-0.005707506090402603,-0.0007749511860311031,-0.0,0.0,0.0,0.0,0.0009103171760216355,-0.02001892402768135,-0.003108845790848136,11258.0,15948.0,13618.0,13521.0,0.2756943106651306,0.5781344175338745,0.4140869379043579,0.407806396484375,0.0,0.0,0.0,0.0,11940.0,15406.0,14139.0,13030.0,1.6743619441986084,-0.09195589684321234,0.047913556772225245,-0.17201297952157457,0.0031265723519027233,-0.01771332137286663,0.0
349,5,0.0008367036934942007,-0.0003894575929734856,-0.0009287112625315785,-0.003191345138475299,0.00215731980279088,0.007810948882251978,-0.0011787203839048743,0.0626400038599968,-0.0018803796265274286,0.009851044043898582,0.2141425758600235,-0.02401057817041874,0.0,0.0,0.0,-0.003995578270405531,-0.00335647608153522,-0.0,0.0,0.0,0.0,-0.0014204250182956457,-0.014490258879959583,0.0006626983522437513,12821.0,14697.0,14589.0,12512.0,0.364194393157959,0.4866495132446289,0.4791135787963867,0.3457646369934082,0.0,0.0,0.0,0.0,11940.0,15406.0,14139.0,13030.0,1.675392985343933,-0.0908182195613049,0.04879129951594389,-0.17260939192176053,0.013550267554819584,-0.012408029288053513,0.0
354,5,0.0007936141337268054,-0.0004005316586699337,-0.0009657577611505985,-0.006447284482419491,0.0021918159909546375,0.007569957058876753,-0.0011787203839048743,0.0626400038599968,-0.0018803796265274286,0.009851044043898582,0.2141425758600235,-0.02401057817041874,0.0,0.0,0.0,-0.003995578270405531,-0.00335647608153522,-0.0,0.0,0.0,0.0,-0.0014204250182956457,-0.014490258879959583,0.0006626983522437513,12821.0,14697.0,14589.0,12512.0,0.364194393157959,0.4866495132446289,0.4791135787963867,0.3457646369934082,0.0,0.0,0.0,0.0,11940.0,15406.0,14139.0,13030.0,1.675392985343933,-0.09078784693557425,0.04906563771595141,-0.17228869448733655,0.013550267554819584,-0.012408029288053513,0.0
359,5,0.000765840639360249,-0.0004395127180032432,-0.0009703119285404682,-0.005911737214773893,0.005554452538490295,0.003574482398107648,-0.0011911868350580335,0.06013914570212364,-0.002461578929796815,0.0037285774014890194,0.1929917335510254,0.06364748626947403,0.0,0.0,0.0,-0.003338543465360999,-0.004869201686233282,-0.0,0.0,0.0,0.0,-0.001378268818370998,-0.014095776714384556,-0.00038985206629149616,13040.0,14480.0,14787.0,12280.0,0.3775976300239563,0.4716072678565979,0.49297547340393066,0.33218157291412354,0.0,0.0,0.0,0.0,11483.0,15706.0,13455.0,13759.0,1.6861034631729126,-0.09031042575125169,0.04892930644854387,-0.17212178010448786,0.019782891497015953,-0.010433940216898918,0.0
365,5,0.0007579370867460966,-0.00047386722872033715,-0.001006495556794107,-0.003313122782856226,0.006344321183860302,0.005771821830421686,-0.0011911868350580335,0.06013914570212364,-0.002461578929796815,0.0037285774014890194,0.1929917335510254,0.06364748626947403,0.0,0.0,0.0,-0.003338543465360999,-0.004869201686233282,-0.0,0.0,0.0,0.0,-0.001378268818370998,-0.014095776714384556,-0.00038985206629149616,13040.0,14480.0,14787.0,12280.0,0.3775976300239563,0.4716072678565979,0.49297547340393066,0.33218157291412354,0.0,0.0,0.0,0.0,11483.0,15706.0,13455.0,13759.0,1.6861034631729126,-0.0899300582542071,0.048236909714618574,-0.17309204046969023,0.019782891497015953,-0.010433940216898918,0.0
370,5,0.0007210170151665807,-0.0005193402757868171,-0.0010005312506109476,-0.005755655467510223,0.007994493469595909,0.0015930191148072481,-0.0013361509190872312,0.05875960364937782,-0.0026082482654601336,0.014310087077319622,0.175091952085495,-0.1043279692530632,0.0,0.0,0.0,-0.00838030967861414,-0.0020071964245289564,-0.0,0.0,0.0,0.0,-0.0007319784490391612,-0.014712302945554256,-0.0030885529704391956,11283.0,15828.0,13434.0,13819.0,0.2769725024700165,0.568964421749115,0.40227559208869934,0.4271804988384247,0.0,0.0,0.0,0.0,13268.0,14199.0,15196.0,11872.0,1.700289249420166,-0.08908204869009088,0.047436182891694406,-0.17335991625684827,0.008223355747759342,-0.026410838589072227,0.0
375,5,0.0007048390689305961,-0.0005527169560082257,-0.0009867968037724495,-0.004243611823767424,0.007203003857284784,-0.0010109214344993234,-0.0013361509190872312,0.05875960364937782,-0.0026082482654601336,0.014310087077319622,0.175091952085495,-0.1043279692530632,0.0,0.0,0.0,-0.00838030967861414,-0.0020071964245289564,-0.0,0.0,0.0,0.0,-0.0007319784490391612,-0.014712302945554256,-0.0030885529704391956,11283.0,15828.0,13434.0,13819.0,0.2769725024700165,0.568964421749115,0.40227559208869934,0.4271804988384247,0.0,0.0,0.0,0.0,13268.0,14199.0,15196.0,11872.0,1.700289249420166,-0.08895288350903224,0.04744731821534295,-0.17387424588567826,0.008223355747759342,-0.026410838589072227,0.0
380,5,0.000677333795465529,-0.0005788697162643075,-0.0009564640349708498,-0.004998077172785997,0.006019528489559889,-0.004044307861477137,-0.001069855410605669,0.05712784454226494,-0.0024053314700722694,-0.008004733361303806,0.10921341180801392,0.0020774449221789837,0.0,0.0,0.0,-0.009470311924815178,-0.0029080999083817005,-0.0,0.0,0.0,0.0,-0.0007614527130499482,-0.016867348924279213,0.001649412210099399,12950.0,14561.0,15105.0,12088.0,0.3720940947532654,0.477189302444458,0.5156248807907104,0.32119518518447876,0.0,0.0,0.0,0.0,11599.0,15839.0,13819.0,13545.0,1.7128602266311646,-0.08887107299807148,0.04791098061057347,-0.17496248721881447,0.012002261355519295,-0.030066506937146187,0.0
385,5,0.0006555478321388364,-0.0006177564500831068,-0.000957044365350157,-0.004613546654582024,0.007074218709021807,-0.0015480812871828675,-0.001069855410605669,0.05712784454226494,-0.0024053314700722694,-0.008004733361303806,0.10921341180801392,0.0020774449221789837,0.0,0.0,0.0,-0.009470311924815178,-0.0029080999083817005,-0.0,0.0,0.0,0.0,-0.0007614527130499482,-0.016867348924279213,0.001649412210099399,12950.0,14561.0,15105.0,12088.0,0.3720940947532654,0.477189302444458,0.5156248807907104,0.32119518518447876,0.0,0.0,0.0,0.0,11599.0,15839.0,13819.0,13545.0,1.7128602266311646,-0.08879304542756535,0.048084205340386134,-0.1748487862118415,0.012002261355519295,-0.030066506937146187,0.0
390,5,0.0006307345465756953,-0.0006491902749985456,-0.0009479013388045132,-0.004823016468435526,0.006601746194064617,-0.0017163990996778011,-0.001069855410605669,0.05712784454226494,-0.0024053314700722694,-0.008004733361303806,0.10921341180801392,0.0020774449221789837,0.0,0.0,0.0,-0.00942367222160101,-0.0033065946772694588,-0.0,0.0,0.0,0.0,-0.0007614527130499482,-0.016867348924279213,0.001649412210099399,12950.0,14561.0,15105.0,12088.0,0.3720940947532654,0.477189302444458,0.5156248807907104,0.32119518518447876,0.0,0.0,0.0,0.0,11599.0,15839.0,13819.0,13545.0,1.7142914533615112,-0.08871145764266794,0.04827205592927255,-0.17496002207674582,0.01365832518786192,-0.029943441972136497,0.0
395,5,0.0006197024486027658,-0.0006812053034082055,-0.000995064852759242,-0.0032530573662370443,0.0064825029112398624,0.004973068367689848,-0.0011097075184807181,0.0563657321035862,-0.003072769148275256,0.02321276254951954,0.13498276472091675,0.10171446949243546,0.0,0.0,0.0,-0.00942367222160101,-0.0033065946772694588,-0.0,0.0,0.0,0.0,-0.0024531702511012554,-0.01558432262390852,-0.0004205854202155024,13291.0,14582.0,15004.0,12068.0,0.39324915409088135,0.4786538779735565,0.5083374381065369,0.32004880905151367,0.0,0.0,0.0,0.0,13808.0,14061.0,15491.0,11468.0,1.7142914533615112,-0.08794932785689939,0.048769589075350436,-0.17581570825349166,0.01365832518786192,-0.029943441972136497,0.0
400,5,0.0006128287641331553,-0.0007243896834552288,-0.00098589644767344,-0.0021260653156787157,0.007775126025080681,0.0008890157332643867,-0.0011097075184807181,0.0563657321035862,-0.003072769148275256,0.02321276254951954,0.13498276472091675,0.10171446949243546,0.0,0.0,0.0,-0.008884279057383537,-0.0021302662789821625,-0.0,0.0,0.0,0.0,-0.0024531702511012554,-0.01558432262390852,-0.0004205854202155024,13291.0,14582.0,15004.0,12068.0,0.39324915409088135,0.4786538779735565,0.5083374381065369,0.32004880905151367,0.0,0.0,0.0,0.0,13808.0,14061.0,15491.0,11468.0,1.7049541473388672,-0.08700011909231738,0.05009773309442607,-0.1759801197593296,0.00875147059559822,-0.02807586081326008,0.0
405,5,0.0006262953975237906,-0.0007392728584818542,-0.0010034514125436544,0.0007655696826986969,0.004896035883575678,0.002462201751768589,-0.0011727135861292481,0.054379116743803024,-0.003008616156876087,-0.0325981043279171,0.17570433020591736,-0.11688526719808578,0.0,0.0,0.0,-0.008884279057383537,-0.0021302662789821625,-0.0,0.0,0.0,0.0,-0.002604980953037739,-0.013326332904398441,0.0024746342096477747,11421.0,16101.0,13235.0,14147.0,0.2843487560749054,0.5898537635803223,0.3897336423397064,0.4489240348339081,0.0,0.0,0.0,0.0,12202.0,15555.0,13912.0,13452.0,1.7049541473388672,-0.08550570192136643,0.051563415194756344,-0.17564347678686834,0.00875147059559822,-0.02807586081326008,0.0
410,5,0.0008617960847914219,-0.000786780146881938,-0.0009166335803456604,0.028566310182213783,0.007659289054572582,-0.009433256462216377,-0.0011727135861292481,0.054379116743803024,-0.003008616156876087,-0.0325981043279171,0.17570433020591736,-0.11688526719808578,0.0,0.0,0.0,-0.0071718874387443066,0.0015622370410710573,-0.0,0.0,0.0,0.0,-0.002604980953037739,-0.013326332904398441,0.0024746342096477747,11421.0,16101.0,13235.0,14147.0,0.2843487560749054,0.5898537635803223,0.3897336423397064,0.4489240348339081,0.0,0.0,0.0,0.0,12202.0,15555.0,13912.0,13452.0,1.6887034177780151,-0.08597154053009323,0.0570802178035194,-0.17206993314193655,-0.006356833968311548,-0.022448567673563957,0.0
415,5,0.0008759184856899083,-0.0008054057834669948,-0.0009249274153262377,0.01312121469527483,0.005298792850226164,-0.0027780437376350164,-0.0011090137995779514,0.05293329805135727,-0.0026916339993476868,-0.0018895573448389769,0.1992335319519043,0.06783673912286758,0.0,0.0,0.0,-0.0071718874387443066,0.0015622370410710573,-0.0,0.0,0.0,0.0,-0.0021634104195982218,-0.011474847793579102,-0.0029693194665014744,13918.0,14094.0,15295.0,11816.0,0.4336574971675873,0.44535836577415466,0.5294002890586853,0.30587533116340637,0.0,0.0,0.0,0.0,12668.0,15167.0,14169.0,13221.0,1.6887034177780151,-0.08635186705084869,0.05851118544260737,-0.1713061995108312,-0.006356833968311548,-0.022448567673563957,0.0
420,5,0.0011601700680330396,-0.0006703890394419432,-0.001165391760878265,0.03935866802930832,-0.014082496985793114,0.027744503691792488,-0.0011090137995779514,0.05293329805135727,-0.0026916339993476868,-0.0018895573448389769,0.1992335319519043,0.06783673912286758,0.0,0.0,0.0,-0.007356912363320589,0.012578693218529224,-0.0,0.0,0.0,0.0,-0.0021634104195982218,-0.011474847793579102,-0.0029693194665014744,13918.0,14094.0,15295.0,11816.0,0.4336574971675873,0.44535836577415466,0.5294002890586853,0.30587533116340637,0.0,0.0,0.0,0.0,12668.0,15167.0,14169.0,13221.0,1.783873200416565,-0.0755034035883968,0.06004747740955022,-0.16626053340976243,-0.0540664941072464,-0.024325456470251083,0.0
425,5,0.0011757591273635626,-0.0006979200406931341,-0.0011344656813889742,0.017614157870411873,-0.0023292803671211004,0.00738666532561183,-0.0010994302574545145,0.05035754665732384,-0.003275580471381545,0.014074317179620266,0.2273094803094864,0.018873482942581177,0.0,0.0,0.0,-0.007356912363320589,0.012578693218529224,-0.0,0.0,0.0,0.0,-0.0010500639909878373,-0.010060417465865612,-0.001935088075697422,12530.0,15246.0,13835.0,13463.0,0.3467833399772644,0.5258162617683411,0.4282190203666687,0.404135525226593,0.0,0.0,0.0,0.0,13892.0,14036.0,15130.0,11962.0,1.783873200416565,-0.07456699068307529,0.06116394129065538,-0.1670325630008483,-0.0540664941072464,-0.024325456470251083,0.0
430,5,0.001168171176686883,-0.0007400417234748602,-0.0011817013146355748,0.006135112140327692,0.004122892394661903,0.008622952736914158,-0.0010994302574545145,0.05035754665732384,-0.003275580471381545,0.014074317179620266,0.2273094803094864,0.018873482942581177,0.0,0.0,0.0,0.0014440768864005804,0.016558250412344933,-0.0,0.0,0.0,0.0,-0.0010500639909878373,-0.010060417465865612,-0.001935088075697422,12530.0,15246.0,13835.0,13463.0,0.3467833399772644,0.5258162617683411,0.4282190203666687,0.404135525226593,0.0,0.0,0.0,0.0,13892.0,14036.0,15130.0,11962.0,1.8188660144805908,-0.0756835581649598,0.06129132074041615,-0.16598741463132563,-0.07256826758384705,0.00486854650080204,0.0
435,5,0.0011714516440406442,-0.0007579976227134466,-0.001170796575024724,0.0028476931620389223,0.003803868079558015,0.002140605356544256,-0.0013114437460899353,0.04896370694041252,-0.003098823828622699,-0.029471276327967644,0.23422345519065857,-0.11184728890657425,0.0,0.0,0.0,0.0014440768864005804,0.016558250412344933,-0.0,0.0,0.0,0.0,-0.002098232274875045,-0.007073432672768831,0.0024498864077031612,11947.0,15448.0,13244.0,14082.0,0.31317758560180664,0.5406270027160645,0.3902984857559204,0.44460034370422363,0.0,0.0,0.0,0.0,11557.0,15800.0,12789.0,14425.0,1.8188660144805908,-0.0746831892322993,0.06225037936512284,-0.16568759317911383,-0.07256826758384705,0.00486854650080204,0.0
440,5,0.0011486521689221263,-0.0007822273764759302,-0.001191940507851541,-0.0015968525549396873,0.004429113119840622,0.0033935229294002056,-0.0013114437460899353,0.04896370694041252,-0.003098823828622699,-0.029471276327967644,0.23422345519065857,-0.11184728890657425,0.0,0.0,0.0,-0.005881262011826038,0.0042081568390131,-0.0,0.0,0.0,0.0,-0.002098232274875045,-0.007073432672768831,0.0024498864077031612,11947.0,15448.0,13244.0,14082.0,0.31317758560180664,0.5406270027160645,0.3902984857559204,0.44460034370422363,0.0,0.0,0.0,0.0,11557.0,15800.0,12789.0,14425.0,1.6937429904937744,-0.07643700457815489,0.062281273621110675,-0.1656958465505502,-0.017174437642097473,-0.01846384070813656,0.0
445,5,0.001145086484029889,-0.0007866747328080237,-0.0012225129175931215,-0.0010666310554370284,0.0023053279146552086,0.005026096478104591,-0.0011393077438697219,0.04668407142162323,-0.0029341140761971474,0.010670408606529236,0.16406680643558502,0.11087631434202194,0.0,0.0,0.0,-0.005881262011826038,0.0042081568390131,-0.0,0.0,0.0,0.0,0.0006429434288293123,-0.00583826145157218,-0.0038860870990902185,12666.0,15562.0,13626.0,14891.0,0.3548716902732849,0.5490691065788269,0.41461116075515747,0.5003140568733215,0.0,0.0,0.0,0.0,13934.0,14501.0,14673.0,13258.0,1.6937429904937744,-0.07529532829820336,0.06253045430915123,-0.16595020668470548,-0.017174437642097473,-0.01846384070813656,0.0
451,5,0.001167269074358046,-0.0007605210994370282,-0.0012702742824330926,0.0022352607920765877,-0.0022163030225783587,0.007741793990135193,-0.0011393077438697219,0.04668407142162323,-0.0029341140761971474,0.010670408606529236,0.16406680643558502,0.11087631434202194,0.0,0.0,0.0,-0.004222718067467213,0.0005881476681679487,-0.0,0.0,0.0,0.0,0.0006429434288293123,-0.00583826145157218,-0.0038860870990902185,12666.0,15562.0,13626.0,14891.0,0.3548716902732849,0.5490691065788269,0.41461116075515747,0.5003140568733215,0.0,0.0,0.0,0.0,13934.0,14501.0,14673.0,13258.0,1.6615180969238281,-0.07242085626658865,0.0638103004330472,-0.16500972072388478,-0.002354721073061228,-0.013004791922867298,0.0
456,5,0.0011798010673373938,-0.0007428753306157887,-0.001273179310373962,0.002397945849224925,-0.003004013327881694,0.0034453226253390312,-0.0010391324758529663,0.04545649513602257,-0.003817102173343301,0.003490227507427335,0.1250533163547516,-0.0387456975877285,0.0,0.0,0.0,-0.004222718067467213,0.0005881476681679487,-0.0,0.0,0.0,0.0,-0.0008914901409298182,-0.01186175923794508,-0.000759339367505163,12186.0,15283.0,13804.0,13590.0,0.3267747759819031,0.5285505652427673,0.42615431547164917,0.41226333379745483,0.0,0.0,0.0,0.0,14157.0,14203.0,15133.0,13381.0,1.6615180969238281,-0.0709654322594332,0.064556302508586,-0.16509557236958292,-0.002354721073061228,-0.013004791922867298,0.0
461,5,0.001208223053254187,-0.0007201891858130693,-0.0012526947539299726,0.004369824659079313,-0.003923943731933832,-0.00108001206535846,-0.0010391324758529663,0.04545649513602257,-0.003817102173343301,0.003490227507427335,0.1250533163547516,-0.0387456975877285,0.0,0.0,0.0,0.0023050152231007814,0.0038576615042984486,-0.0,0.0,0.0,0.0,-0.0008914901409298182,-0.01186175923794508,-0.000759339367505163,12186.0,15283.0,13804.0,13590.0,0.3267747759819031,0.5285505652427673,0.42615431547164917,0.41226333379745483,0.0,0.0,0.0,0.0,14157.0,14203.0,15133.0,13381.0,1.671981692314148,-0.06840551983974827,0.06594868616489519,-0.1651858997924587,-0.015541943721473217,0.007143534719944,0.0
466,5,0.001173079595901072,-0.0007350509986281395,-0.0013150625163689256,-0.002469296334311366,0.0002138391719199717,0.007052126340568066,-0.0011803600937128067,0.044675588607788086,-0.0036634718999266624,-0.019882066175341606,0.03791336715221405,-0.10498624294996262,0.0,0.0,0.0,0.0023050152231007814,0.0038576615042984486,-0.0,0.0,0.0,0.0,-0.0012240990763530135,-0.014937047846615314,0.001682825735770166,13717.0,13729.0,15522.0,11219.0,0.42046064138412476,0.4213024973869324,0.5461117625236511,0.2736431956291199,0.0,0.0,0.0,0.0,10951.0,16209.0,12703.0,14583.0,1.671981692314148,-0.06840519502766565,0.06498537472601947,-0.16365284826527285,-0.015541943721473217,0.007143534719944,0.0
471,5,0.0012184245279058814,-0.0006892062956467271,-0.001289806910790503,0.00445368280634284,-0.005415827035903931,-0.00020983096328563988,-0.0011803600937128067,0.044675588607788086,-0.0036634718999266624,-0.019882066175341606,0.03791336715221405,-0.10498624294996262,0.0,0.0,0.0,-0.001605394994840026,-0.0006937361904419959,-0.0,0.0,0.0,0.0,-0.0012240990763530135,-0.014937047846615314,0.001682825735770166,13717.0,13729.0,15522.0,11219.0,0.42046064138412476,0.4213024973869324,0.5461117625236511,0.2736431956291199,0.0,0.0,0.0,0.0,10951.0,16209.0,12703.0,14583.0,1.640938401222229,-0.06535965245434125,0.06610500369922637,-0.16478654511639917,0.0027430765330791473,-0.004882951267063618,0.0
476,5,0.0012093053665012121,-0.0006990754045546055,-0.0013743191957473755,0.0006871714140288532,-0.0009820380946621299,0.010057549923658371,-0.000995218986645341,0.045279134064912796,-0.0043583824299275875,0.004759614821523428,-0.025116024538874626,-0.07107757776975632,0.0,0.0,0.0,-0.001605394994840026,-0.0006937361904419959,-0.0,0.0,0.0,0.0,0.0017233029939234257,-0.014360392466187477,-0.004398651886731386,10939.0,15773.0,13380.0,14151.0,0.25911062955856323,0.5648797154426575,0.3988187313079834,0.44917261600494385,0.0,0.0,0.0,0.0,13001.0,14349.0,15034.0,11948.0,1.640938401222229,-0.06583957204138187,0.06533883125400951,-0.16317834617820676,0.0027430765330791473,-0.004882951267063618,0.0
