timestamp,dt,pos_x,pos_y,pos_z,vel_x,vel_y,vel_z,roll,pitch,yaw,agv_x,agv_y,agv_z,x_ref,y_ref,z_ref,roll_ref,pitch_ref,yaw_ref,x_vel_ref,y_vel_ref,z_vel_ref,x_torque,y_torque,z_torque,w0,w1,w2,w3,u0,u1,u2,u3,m0req,m1req,m2req,m3req,thrust0,thrust1,thrust2,thrust3,thrust_ref,roll_vicon,pitch_vicon,yaw_vicon,acc_x,acc_y,acc_z
5,5,0.0,0.0,0.0,-0.00347010581754148,-0.0011211263481527567,0.004102208185940981,-0.037616416811943054,0.03257235512137413,0.00743602542206645,-0.002311209449544549,-0.018623176962137222,0.0073363580740988255,0.0,0.0,0.0,0.0013641141122207046,-0.0032478536013513803,-0.0,0.0,0.0,0.0,0.003761302912607789,-0.0032573160715401173,-2.517046571171022e-09,1495.0,1495.0,1495.0,1495.0,0.0,0.0,0.0,0.0,0.0,0.0,0.0,0.0,1495.0,1495.0,1495.0,1495.0,1.6627495288848877,-0.3464114783154461,-0.12322467251226396,-0.09034855971791006,0.013012897223234177,0.0042042238637804985,0.0
39,34,0.0,0.0,0.0,-0.00045739285997115076,-0.0001449355622753501,-0.004845408257097006,-0.037616416811943054,0.03257235512137413,0.00743602542206645,-0.002311209449544549,-0.018623176962137222,0.0073363580740988255,0.0,0.0,0.0,0.0013641141122207046,-0.0032478536013513803,-0.0,0.0,0.0,0.0,0.003761302912607789,-0.0032573160715401173,-2.517046571171022e-09,1495.0,1495.0,1495.0,1495.0,0.0,0.0,0.0,0.0,0.0,0.0,0.0,0.0,1495.0,1495.0,1495.0,1495.0,1.6627495288848877,-0.34502980772089503,-0.12119851995513554,-0.09066374911502324,0.013012897223234177,0.0042042238637804985,0.0
44,5,0.0,0.0,0.0,-0.005718919448554516,0.007099884562194347,0.010211708955466747,-0.037674855440855026,0.03282157704234123,0.0075033861212432384,0.0006618449697270989,-0.009992256760597229,-0.0029544378630816936,0.0,0.0,0.0,-0.008362592197954655,-0.005181651562452316,-0.0,0.0,0.0,0.0,0.003767777932807803,-0.003287640633061528,-3.075838889143867e-11,1495.0,1495.0,1495.0,1495.0,0.0,0.0,0.0,0.0,0.0,0.0,0.0,0.0,1495.0,1495.0,1495.0,1495.0,1.7176800966262817,-0.3474273108063159,-0.12194102424820755,-0.09008399441095213,0.021445948630571365,-0.026624567806720734,0.0
51,6,0.0,0.0,0.0,0.0044153970666229725,-0.0038958066143095493,-0.0006230931030586362,-0.037674855440855026,0.03282157704234123,0.0075033861212432384,0.0006618449697270989,-0.009992256760597229,-0.0029544378630816936,0.0,0.0,0.0,-0.008362592197954655,-0.005181651562452316,-0.0,0.0,0.0,0.0,0.003767777932807803,-0.003287640633061528,-3.075838889143867e-11,1495.0,1495.0,1495.0,1495.0,0.0,0.0,0.0,0.0,0.0,0.0,0.0,0.0,1495.0,1495.0,1495.0,1495.0,1.7176800966262817,-0.3454927213670646,-0.12305015202792297,-0.09047910693545298,0.021445948630571365,-0.026624567806720734,0.0
56,5,0.0,0.0,0.0,0.002579389838501811,-0.006048980634659529,-0.0015882416628301144,-0.037645429372787476,0.03286612406373024,0.007290354464203119,-0.0010277529945597053,0.02210615575313568,-0.014566684141755104,0.0,0.0,0.0,0.004676641896367073,0.00407723942771554,-0.0,0.0,0.0,0.0,0.0037652261089533567,-0.0032920395024120808,-7.343020080874396e-10,1495.0,1495.0,1495.0,1495.0,0.0,0.0,0.0,0.0,0.0,0.0,0.0,0.0,1495.0,1495.0,1495.0,1495.0,1.6853450536727905,-0.3452540593323825,-0.12170911482134922,-0.09084449127285353,-0.016557738184928894,0.014609274454414845,0.0
67,11,3.410432327655144e-05,7.324911712203175e-05,3.0448638426605612e-05,0.00490355072543025,-0.006192753557115793,-0.0066485353745520115,-0.037645429372787476,0.03286612406373024,0.007290354464203119,-0.0010277529945597053,0.02210615575313568,-0.014566684141755104,0.0,0.0,0.0,0.007231771480292082,0.002372143790125847,-0.0,0.0,0.0,0.0,0.0037652261089533567,-0.0032920395024120808,-7.343020080874396e-10,1495.0,1495.0,1495.0,1495.0,0.0,0.0,0.0,0.0,0.0,0.0,0.0,0.0,1495.0,1495.0,1495.0,1495.0,1.6922600269317627,-0.3447041627550155,-0.12217155503447934,-0.09161073188887386,-0.009672711603343487,0.022683678194880486,0.0
72,5,-2.4075825422187336e-06,5.180991138331592e-05,-2.4728251446504146e-06,-0.0024200084153562784,9.560280886944383e-05,0.0012911615194752812,-0.03764418512582779,0.03269696608185768,0.007134299259632826,-0.002613757736980915,0.02791334129869938,-0.016104577109217644,0.0,0.0,0.0,-2.397741081949789e-05,-0.0022853263653814793,-0.0,0.0,0.0,0.0,0.0037641129456460476,-0.0032782149501144886,2.507175800303685e-09,1495.0,1495.0,1495.0,1495.0,0.0,0.0,0.0,0.0,0.0,0.0,0.0,0.0,1495.0,1495.0,1495.0,1495.0,1.650372862815857,-0.3463400016211639,-0.1219801468963925,-0.09082717679121373,0.009088282473385334,-7.334878318943083e-05,0.0
81,9,1.8189128240919672e-05,5.7911602198146284e-05,1.6475316442665644e-05,0.0015036017866805196,-0.0006939615705050528,-0.0017573124496266246,-0.03764418512582779,0.03269696608185768,0.007134299259632826,-0.002613757736980915,0.02791334129869938,-0.016104577109217644,0.0,0.0,0.0,-2.397741081949789e-05,-0.0022853263653814793,-0.0,0.0,0.0,0.0,0.0037641129456460476,-0.0032782149501144886,2.507175800303685e-09,1495.0,1495.0,1495.0,1495.0,0.0,0.0,0.0,0.0,0.0,0.0,0.0,0.0,1495.0,1495.0,1495.0,1495.0,1.650372862815857,-0.34628871619449825,-0.12008529757840139,-0.09110874140025806,0.009088282473385334,-7.334878318943083e-05,0.0
86,5,2.678855526028201e-05,5.9898069594055414e-05,-1.1590445865294896e-06,0.0016333721578121185,-0.0005159606807865202,0.001413198420777917,-0.03762353956699371,0.03240625560283661,0.006936637219041586,-0.003018924966454506,0.033325519412755966,-0.018025271594524384,0.0,0.0,0.0,0.0007432806305587292,0.0015835718950256705,-0.0,0.0,0.0,0.0,0.0037616672925651073,-0.0032513937912881374,2.311318247905092e-09,1495.0,1495.0,1495.0,1495.0,0.0,0.0,0.0,0.0,0.0,0.0,0.0,0.0,1495.0,1495.0,1495.0,1495.0,1.643829584121704,-0.3465288009292665,-0.12099942317953288,-0.09099460844812483,-0.00627258000895381,0.002264738781377673,0.0
91,5,6.0476810176623985e-05,0.00012826052261516452,4.0877668652683496e-05,0.004695939365774393,-0.008409879170358181,-0.004479126073420048,-0.03762353956699371,0.03240625560283661,0.006936637219041586,-0.003018924966454506,0.033325519412755966,-0.018025271594524384,0.0,0.0,0.0,0.0007432806305587292,0.0015835718950256705,-0.0,0.0,0.0,0.0,0.0037616672925651073,-0.0032513937912881374,2.311318247905092e-09,1495.0,1495.0,1495.0,1495.0,0.0,0.0,0.0,0.0,0.0,0.0,0.0,0.0,1495.0,1495.0,1495.0,1495.0,1.643829584121704,-0.3463845835713623,-0.12141214881449072,-0.09146538989070037,-0.00627258000895381,0.002264738781377673,0.0
96,5,8.097488171188161e-05,0.0001483396190451458,3.895429927069927e-06,0.004338144790381193,-0.005773443263024092,0.002646218053996563,-0.03761587291955948,0.03218085318803787,0.006816763896495104,-0.0020474374759942293,0.03301664814352989,-0.008760957047343254,0.0,0.0,0.0,0.0007432806305587292,0.0015835718950256705,-0.0,0.0,0.0,0.0,0.0037609280552715063,-0.0031967211980372667,2.5044999407697333e-09,1495.0,1495.0,1495.0,1495.0,0.0,0.0,0.0,0.0,0.0,0.0,0.0,0.0,1495.0,1495.0,1495.0,1495.0,1.643829584121704,-0.3467966912238565,-0.12117566507955572,-0.09123651137862689,-0.00627258000895381,0.002264738781377673,0.0
101,5,0.00010298566485289484,0.00017397006740793586,1.0918106454482768e-05,0.004376551602035761,-0.005385030061006546,0.00021576604922302067,-0.03761587291955948,0.03218085318803787,0.006816763896495104,-0.0020474374759942293,0.03301664814352989,-0.008760957047343254,0.0,0.0,0.0,0.007125180680304766,0.004077394027262926,-0.0,0.0,0.0,0.0,0.0037609280552715063,-0.0031967211980372667,2.5044999407697333e-09,1495.0,1495.0,1495.0,1495.0,0.0,0.0,0.0,0.0,0.0,0.0,0.0,0.0,1495.0,1495.0,1495.0,1495.0,1.701192855834961,-0.3463884360380303,-0.1206373000961427,-0.09153644848536212,-0.0167138259857893,0.022467320784926414,-0.0
106,5,0.0001376234577037394,0.0002200170129071921,1.8123057088814676e-05,0.0034669272135943174,-0.003574840258806944,0.0009000240825116634,-0.03761767968535423,0.03187692165374756,0.006694115698337555,-0.0017490758327767253,0.027549421414732933,-0.0060714660212397575,0.0,0.0,0.0,0.007125180680304766,0.004077394027262926,-0.0,0.0,0.0,0.0,0.0037619455251842737,-0.0031795818358659744,-1.4227674594025075e-09,1495.0,1495.0,1495.0,1495.0,0.0,0.0,0.0,0.0,0.0,0.0,0.0,0.0,1495.0,1495.0,1495.0,1495.0,1.701192855834961,-0.3457418741521566,-0.11941249599020368,-0.0912898316809175,-0.0167138259857893,0.022467320784926414,-0.0
111,5,0.00011928830645047128,0.00022626602731179446,-9.271100680052768e-06,-0.0008134470554068685,-0.00217981799505651,0.003647308563813567,-0.03761767968535423,0.03187692165374756,0.006694115698337555,-0.0017490758327767253,0.027549421414732933,-0.0060714660212397575,0.0,0.0,0.0,0.0046943193301558495,0.00339888921007514,-0.0,0.0,0.0,0.0,0.0037619455251842737,-0.0031795818358659744,-1.4227674594025075e-09,1495.0,1495.0,1495.0,1495.0,0.0,0.0,0.0,0.0,0.0,0.0,0.0,0.0,1495.0,1495.0,1495.0,1495.0,1.6799631118774414,-0.34610376914792945,-0.11978680957154124,-0.09047416143415296,-0.013758878223598003,0.014617664739489555,-0.0
116,5,0.00011928830645047128,0.00022626602731179446,-9.271100680052768e-06,-0.0008134470554068685,-0.00217981799505651,0.003647308563813567,-0.03759877383708954,0.031454022973775864,0.0067623876966536045,-0.0021628085523843765,0.02278936095535755,0.0058724177069962025,0.0,0.0,0.0,0.0046943193301558495,0.00339888921007514,-0.0,0.0,0.0,0.0,0.0037598314229398966,-0.00315293506719172,-1.3100984741498678e-09,1495.0,1495.0,1495.0,1495.0,0.0,0.0,0.0,0.0,0.0,0.0,0.0,0.0,1495.0,1495.0,1495.0,1495.0,1.6799631118774414,-0.34610376914792945,-0.11978680957154124,-0.09047416143415296,-0.013758878223598003,0.014617664739489555,-0.0
121,5,0.0001490716531407088,0.0002542193979024887,4.8261663323501125e-06,0.003248621942475438,-0.004226332064718008,-0.000232748658163473,-0.03759877383708954,0.031454022973775864,0.0067623876966536045,-0.0021628085523843765,0.02278936095535755,0.0058724177069962025,0.0,0.0,0.0,0.0030767025891691446,-0.0006010922370478511,-0.0,0.0,0.0,0.0,0.0037598314229398966,-0.00315293506719172,-1.3100984741498678e-09,1495.0,1495.0,1495.0,1495.0,0.0,0.0,0.0,0.0,0.0,0.0,0.0,0.0,1495.0,1495.0,1495.0,1495.0,1.6520839929580688,-0.3459952850932898,-0.1189095361113094,-0.09049186401608983,0.0023928917944431305,0.009421605616807938,0.0
127,5,0.00020219088764861226,0.0003302108380012214,-1.4176811419019941e-05,0.004973839037120342,-0.007750166114419699,0.0016028687823563814,-0.037580110132694244,0.03131518512964249,0.006854763720184565,0.0015519690932705998,0.017444297671318054,0.010609854012727737,0.0,0.0,0.0,0.0030767025891691446,-0.0006010922370478511,-0.0,0.0,0.0,0.0,0.0037605746183544397,-0.003136696293950081,-2.632913886913002e-09,1495.0,1495.0,1495.0,1495.0,0.0,0.0,0.0,0.0,0.0,0.0,0.0,0.0,1495.0,1495.0,1495.0,1495.0,1.6520839929580688,-0.3467534881811779,-0.12090166965099662,-0.09086479431637982,0.0023928917944431305,0.009421605616807938,0.0
132,5,0.00020219088764861226,0.0003302108380012214,-1.4176811419019941e-05,0.004973839037120342,-0.007750166114419699,0.0016028687823563814,-0.037580110132694244,0.03131518512964249,0.006854763720184565,0.0015519690932705998,0.017444297671318054,0.010609854012727737,0.0,0.0,0.0,0.009663229808211327,0.004757582675665617,-0.0,0.0,0.0,0.0,0.0037605746183544397,-0.003136696293950081,-2.632913886913002e-09,1495.0,1495.0,1495.0,1495.0,0.0,0.0,0.0,0.0,0.0,0.0,0.0,0.0,1495.0,1495.0,1495.0,1495.0,1.7242766618728638,-0.3467534881811779,-0.12090166965099662,-0.09086479431637982,-0.019766204059123993,0.0308834295719862,0.0
137,5,0.00020716253493446857,0.00035179758560843766,-9.117187437368557e-05,-0.0017705190693959594,0.0003410622011870146,0.011310046538710594,-0.037557534873485565,0.03113410621881485,0.0070209321565926075,0.000737986178137362,0.013079838827252388,0.01554898452013731,0.0,0.0,0.0,0.009663229808211327,0.004757582675665617,-0.0,0.0,0.0,0.0,0.0037581901997327805,-0.0031173413153737783,9.272237977420161e-10,1495.0,1495.0,1495.0,1495.0,0.0,0.0,0.0,0.0,0.0,0.0,0.0,0.0,1495.0,1495.0,1495.0,1495.0,1.7242766618728638,-0.3479020467664487,-0.11935774720318829,-0.09051963275372672,-0.019766204059123993,0.0308834295719862,0.0
142,5,0.00026055678608827293,0.0004414237046148628,2.8308249966357835e-05,0.005699102766811848,-0.010618709959089756,-0.009813596494495869,-0.037557534873485565,0.03113410621881485,0.0070209321565926075,0.000737986178137362,0.013079838827252388,0.01554898452013731,0.0,0.0,0.0,0.00021749378356616944,-0.0013903533108532429,-0.0,0.0,0.0,0.0,0.0037581901997327805,-0.0031173413153737783,9.272237977420161e-10,1495.0,1495.0,1495.0,1495.0,0.0,0.0,0.0,0.0,0.0,0.0,0.0,0.0,1495.0,1495.0,1495.0,1495.0,1.6407639980316162,-0.34480059588387896,-0.12089245178623481,-0.0907895266861834,0.005496966186910868,0.0006614568410441279,0.0
147,5,0.000263446505414322,0.0004592915065586567,-2.0834573660977185e-05,0.002626406727358699,-0.006391619797796011,0.0019717002287507057,-0.037557534873485565,0.03113410621881485,0.0070209321565926075,0.000737986178137362,0.013079838827252388,0.01554898452013731,0.0,0.0,0.0,0.00021749378356616944,-0.0013903533108532429,-0.0,0.0,0.0,0.0,0.003754784818738699,-0.0031098052859306335,-3.514082358435644e-10,1495.0,1495.0,1495.0,1495.0,0.0,0.0,0.0,0.0,0.0,0.0,0.0,0.0,1495.0,1495.0,1495.0,1495.0,1.6407639980316162,-0.3456424311023923,-0.12173097522721729,-0.09046067743465427,0.005496966186910868,0.0006614568410441279,0.0
152,5,0.0002657582226675004,0.00047887206892482936,-4.6089495299384e-05,0.0013279677368700504,-0.004906316753476858,0.003819270757958293,-0.037557534873485565,0.03113410621881485,0.0070209321565926075,0.000737986178137362,0.013079838827252388,0.01554898452013731,0.0,0.0,0.0,0.008394102565944195,0.0027537066489458084,-0.0,0.0,0.0,0.0,0.003754784818738699,-0.0031098052859306335,-3.514082358435644e-10,1495.0,1495.0,1495.0,1495.0,0.0,0.0,0.0,0.0,0.0,0.0,0.0,0.0,1495.0,1495.0,1495.0,1495.0,1.7033591270446777,-0.34642895554790615,-0.12063710663847438,-0.09003216118259028,-0.011302120983600616,0.02650206722319126,0.0
157,5,0.0003406257601454854,0.0005802472005598247,4.3192838347749785e-05,0.009515293873846531,-0.01412754226475954,-0.009186171926558018,-0.03751824051141739,0.03105931729078293,0.007124155759811401,0.00022458151215687394,0.01190920826047659,0.011230751872062683,0.0,0.0,0.0,0.008394102565944195,0.0027537066489458084,-0.0,0.0,0.0,0.0,0.003754784818738699,-0.0031098052859306335,-3.514082358435644e-10,1495.0,1495.0,1495.0,1495.0,0.0,0.0,0.0,0.0,0.0,0.0,0.0,0.0,1495.0,1495.0,1495.0,1495.0,1.7033591270446777,-0.34415091304494877,-0.12169185346300854,-0.0907424673385783,-0.011302120983600616,0.02650206722319126,0.0
162,5,0.0003370894701220095,0.0005778352497145534,-7.559029472758994e-05,0.003381761722266674,-0.005361583549529314,0.010579507797956467,-0.03751824051141739,0.03105931729078293,0.007124155759811401,0.00022458151215687394,0.01190920826047659,0.011230751872062683,0.0,0.0,0.0,0.016787506639957428,0.008634480647742748,-0.0,0.0,0.0,0.0,0.003754784818738699,-0.0031098052859306335,-3.514082358435644e-10,1495.0,1495.0,1495.0,1495.0,0.0,0.0,0.0,0.0,0.0,0.0,0.0,0.0,1495.0,1495.0,1495.0,1495.0,1.8055895566940308,-0.3460757931316985,-0.12225311861067799,-0.09059462629380859,-0.03756129741668701,0.05617935582995415,0.0
167,5,0.0003280803794041276,0.0005811664741486311,-0.00018512699170969427,0.00027161234174855053,-0.00254438235424459,0.017376206815242767,-0.03751824051141739,0.03105931729078293,0.007124155759811401,0.00022458151215687394,0.01190920826047659,0.011230751872062683,0.0,0.0,0.0,0.016787506639957428,0.008634480647742748,-0.0,0.0,0.0,0.0,0.003754784818738699,-0.0031098052859306335,-3.514082358435644e-10,1495.0,1495.0,1495.0,1495.0,0.0,0.0,0.0,0.0,0.0,0.0,0.0,0.0,1495.0,1495.0,1495.0,1495.0,1.8055895566940308,-0.3483947810371414,-0.12008915038934602,-0.09038611760383565,-0.03756129741668701,0.05617935582995415,0.0
172,5,0.00035448107519187033,0.0006297217332758009,-0.00021721770463045686,0.0032767318189144135,-0.006844382267445326,0.010801367461681366,-0.037469346076250076,0.03095991350710392,0.007258844096213579,0.003657293040305376,0.012078923173248768,0.00636619608849287,0.0,0.0,0.0,0.009178184904158115,0.003450971096754074,-0.0,0.0,0.0,0.0,0.003749542636796832,-0.003099334193393588,2.0131105671339355e-09,1495.0,1495.0,1495.0,1495.0,0.0,0.0,0.0,0.0,0.0,0.0,0.0,0.0,1495.0,1495.0,1495.0,1495.0,1.713026762008667,-0.34930501145902915,-0.11974628850634395,-0.09061776769304933,-0.014244205318391323,0.02914193831384182,0.0
177,5,0.0003662031958810985,0.0006865597679279745,-0.00020981143461540341,0.0027173468843102455,-0.009558320045471191,0.003431794000789523,-0.037469346076250076,0.03095991350710392,0.007258844096213579,0.003657293040305376,0.012078923173248768,0.00636619608849287,0.0,0.0,0.0,0.009178184904158115,0.003450971096754074,-0.0,0.0,0.0,0.0,0.003749542636796832,-0.003099334193393588,2.0131105671339355e-09,1495.0,1495.0,1495.0,1495.0,0.0,0.0,0.0,0.0,0.0,0.0,0.0,0.0,1495.0,1495.0,1495.0,1495.0,1.713026762008667,-0.34839802922688257,-0.11797908453443091,-0.09044353521385039,-0.014244205318391323,0.02914193831384182,0.0
183,5,0.0003867087361868471,0.0007338879513554275,-0.00021553535771090537,0.0035476030316203833,-0.009502706117928028,0.0020595898386090994,-0.03730298951268196,0.0304428543895483,0.00735457381233573,-0.0017950222827494144,0.03728550300002098,0.006010943558067083,0.0,0.0,0.0,0.01230583991855383,0.0036825763527303934,-0.0,0.0,0.0,0.0,0.003731496399268508,-0.0030579501762986183,-2.0007298040525257e-09,1495.0,1495.0,1495.0,1495.0,0.0,0.0,0.0,0.0,0.0,0.0,0.0,0.0,1495.0,1495.0,1495.0,1495.0,1.7399747371673584,-0.3479857996885077,-0.1190523263106598,-0.09030974202043804,-0.015438771806657314,0.03968650475144386,0.0
189,7,0.0004350209201220423,0.000837740080896765,-0.00015002299915067852,0.007216503378003836,-0.016263337805867195,-0.007037647534161806,-0.03730298951268196,0.0304428543895483,0.00735457381233573,-0.0017950222827494144,0.03728550300002098,0.006010943558067083,0.0,0.0,0.0,0.01230583991855383,0.0036825763527303934,-0.0,0.0,0.0,0.0,0.003731496399268508,-0.0030579501762986183,-2.0007298040525257e-09,1495.0,1495.0,1495.0,1495.0,0.0,0.0,0.0,0.0,0.0,0.0,0.0,0.0,1495.0,1495.0,1495.0,1495.0,1.7399747371673584,-0.3462666572319781,-0.11845008037987942,-0.0908469465293906,-0.015438771806657314,0.03968650475144386,0.0
195,5,0.00042690473492257297,0.0008503834251314402,-0.00022144874674268067,0.0019126592669636011,-0.00802253745496273,0.005756030324846506,-0.03730298951268196,0.0304428543895483,0.00735457381233573,-0.0017950222827494144,0.03728550300002098,0.006010943558067083,0.0,0.0,0.0,0.01948493905365467,0.006731308531016111,-0.0,0.0,0.0,0.0,0.003731496399268508,-0.0030579501762986183,-2.0007298040525257e-09,1495.0,1495.0,1495.0,1495.0,0.0,0.0,0.0,0.0,0.0,0.0,0.0,0.0,1495.0,1495.0,1495.0,1495.0,1.8169163465499878,-0.3476712056132411,-0.11918861182550294,-0.09036807184251026,-0.0294646043330431,0.06561341136693954,0.0
200,5,0.00047062139492481947,0.0009180780616588891,-0.00020293687703087926,0.006011062301695347,-0.011332371272146702,8.09882694738917e-05,-0.037292178720235825,0.030146563425660133,0.007316087372601032,0.0019009782699868083,0.039862968027591705,-0.013208562508225441,0.0,0.0,0.0,0.01948493905365467,0.006731308531016111,-0.0,0.0,0.0,0.0,0.0037300074473023415,-0.0030294363386929035,3.812380966472517e-12,1495.0,1495.0,1495.0,1495.0,0.0,0.0,0.0,0.0,0.0,0.0,0.0,0.0,1495.0,1495.0,1495.0,1495.0,1.8169163465499878,-0.34786581455531956,-0.11885344138757367,-0.09090424207790632,-0.0294646043330431,0.06561341136693954,0.0
205,5,0.0005093279178254306,0.0010187221923843026,-0.00019226799486204982,0.007049208041280508,-0.016610251739621162,-0.00124787085223943,-0.037292178720235825,0.030146563425660133,0.007316087372601032,0.0019009782699868083,0.039862968027591705,-0.013208562508225441,0.0,0.0,0.0,0.014503302983939648,0.0058969673700630665,-0.0,0.0,0.0,0.0,0.0037300074473023415,-0.0030294363386929035,3.812380966472517e-12,1495.0,1495.0,1495.0,1495.0,0.0,0.0,0.0,0.0,0.0,0.0,0.0,0.0,1495.0,1495.0,1495.0,1495.0,1.76956045627594,-0.34590623564451245,-0.11838312001800287,-0.09069350756241339,-0.02514188550412655,0.04756781831383705,0.0
210,5,0.0005130937206558883,0.0010418137535452843,-0.00023642629093956202,0.00327158160507679,-0.009415077045559883,0.004799847025424242,-0.03726038709282875,0.029773622751235962,0.007146798074245453,0.0013562478125095367,0.03317255154252052,-0.01102005410939455,0.0,0.0,0.0,0.014503302983939648,0.0058969673700630665,-0.0,0.0,0.0,0.0,0.003726409515365958,-0.002989314729347825,1.2082171929606034e-09,1495.0,1495.0,1495.0,1495.0,0.0,0.0,0.0,0.0,0.0,0.0,0.0,0.0,1495.0,1495.0,1495.0,1495.0,1.76956045627594,-0.34612241292420093,-0.11762717045616344,-0.09038454760350605,-0.02514188550412655,0.04756781831383705,0.0
215,5,0.0005287907551974058,0.001090980600565672,-0.00024587774532847106,0.0031922729685902596,-0.00966605544090271,0.003054113360121846,-0.03726038709282875,0.029773622751235962,0.007146798074245453,0.0013562478125095367,0.03317255154252052,-0.01102005410939455,0.0,0.0,0.0,0.013063929975032806,0.003540494479238987,-0.0,0.0,0.0,0.0,0.003726409515365958,-0.002989314729347825,1.2082171929606034e-09,1495.0,1495.0,1495.0,1495.0,0.0,0.0,0.0,0.0,0.0,0.0,0.0,0.0,1495.0,1495.0,1495.0,1495.0,1.7458949089050293,-0.3456660047310942,-0.11832175492498168,-0.09052320493077938,-0.01489347219467163,0.042274460196495056,0.0
220,5,0.0005247867084108293,0.0011132045183330774,-0.00023971294285729527,0.0007964249816723168,-0.006533290259540081,0.00048186868662014604,-0.037275198847055435,0.029583768919110298,0.006969824433326721,-0.01497022993862629,0.028669780120253563,-0.021680278703570366,0.0,0.0,0.0,0.013063929975032806,0.003540494479238987,-0.0,0.0,0.0,0.0,0.00372315407730639,-0.0029668232891708612,8.241094917593728e-09,1495.0,1495.0,1495.0,1495.0,0.0,0.0,0.0,0.0,0.0,0.0,0.0,0.0,1495.0,1495.0,1495.0,1495.0,1.7458949089050293,-0.3464998730611225,-0.11791311194320231,-0.09028663720214329,-0.01489347219467163,0.042274460196495056,0.0
225,5,0.0005450280150398612,0.001147611066699028,-0.00023041857639327645,0.0027475247625261545,-0.0067421067506074905,-0.0009225766989402473,-0.037275198847055435,0.029583768919110298,0.006969824433326721,-0.01497022993862629,0.028669780120253563,-0.021680278703570366,0.0,0.0,0.0,0.013063929975032806,0.003540494479238987,-0.0,0.0,0.0,0.0,0.00372315407730639,-0.0029668232891708612,8.241094917593728e-09,1495.0,1495.0,1495.0,1495.0,0.0,0.0,0.0,0.0,0.0,0.0,0.0,0.0,1495.0,1495.0,1495.0,1495.0,1.7458949089050293,-0.3435213331808993,-0.11508643337261623,-0.08978591758734117,-0.01489347219467163,0.042274460196495056,0.0
230,5,0.0005718645406886935,0.001180213876068592,-0.0001955295738298446,0.004319395404309034,-0.0066091809421777725,-0.0045557101257145405,-0.03743815794587135,0.029177913442254066,0.006602148525416851,-0.012315085157752037,0.04199831187725067,-0.03293486684560776,0.0,0.0,0.0,0.00993148423731327,0.003217000048607588,-0.0,0.0,0.0,0.0,0.0037350477650761604,-0.0029313070699572563,2.1145417861134774e-08,1495.0,1495.0,1495.0,1495.0,0.0,0.0,0.0,0.0,0.0,0.0,0.0,0.0,1495.0,1495.0,1495.0,1495.0,1.718029260635376,-0.3433114432483305,-0.11480439294324742,-0.09112692467221628,-0.013317151926457882,0.03162571042776108,0.0
235,5,0.0006277326610870659,0.0011853942414745688,-0.00024157091684173793,0.008431931026279926,-0.0032653158996254206,0.0037026775535196066,-0.03743815794587135,0.029177913442254066,0.006602148525416851,-0.012315085157752037,0.04199831187725067,-0.03293486684560776,0.0,0.0,0.0,0.00993148423731327,0.003217000048607588,-0.0,0.0,0.0,0.0,0.0037350477650761604,-0.0029313070699572563,2.1145417861134774e-08,1495.0,1495.0,1495.0,1495.0,0.0,0.0,0.0,0.0,0.0,0.0,0.0,0.0,1495.0,1495.0,1495.0,1495.0,1.718029260635376,-0.3424325572628095,-0.11424847544507999,-0.09074838256476109,-0.013317151926457882,0.03162571042776108,0.0
240,5,0.0006748024025000632,0.0012124573113396764,-0.00019307668844703585,0.009021144360303879,-0.004553698468953371,-0.0043382360599935055,-0.037520747631788254,0.02885764092206955,0.006299917120486498,-0.0049809422343969345,0.04696771129965782,-0.04436459764838219,0.0,0.0,0.0,0.005854160059243441,0.008405453525483608,-0.0,0.0,0.0,0.0,0.0037438562139868736,-0.002901384374126792,9.223782626577304e-09,1495.0,1495.0,1495.0,1495.0,0.0,0.0,0.0,0.0,0.0,0.0,0.0,0.0,1495.0,1495.0,1495.0,1495.0,1.7325907945632935,-0.34064668422614297,-0.11363566757724854,-0.09193371736816423,-0.035091061145067215,0.018800294026732445,0.0
246,6,0.0007339254952967167,0.001250017317943275,-0.0001598745584487915,0.01070322748273611,-0.006328675430268049,-0.0057195499539375305,-0.037520747631788254,0.02885764092206955,0.006299917120486498,-0.0049809422343969345,0.04696771129965782,-0.04436459764838219,0.0,0.0,0.0,0.005854160059243441,0.008405453525483608,-0.0,0.0,0.0,0.0,0.0037438562139868736,-0.002901384374126792,9.223782626577304e-09,1495.0,1495.0,1495.0,1495.0,0.0,0.0,0.0,0.0,0.0,0.0,0.0,0.0,1495.0,1495.0,1495.0,1495.0,1.7325907945632935,-0.3382370051223805,-0.11205939300705815,-0.0921957918878749,-0.035091061145067215,0.018800294026732445,0.0
251,5,0.0007701082504354417,0.0012730325106531382,-0.00014799223572481424,0.008623220957815647,-0.00529328640550375,-0.0037136997561901808,-0.037650544196367264,0.02832000143826008,0.00579681433737278,-0.008653322234749794,0.06345590949058533,-0.03977791965007782,0.0,0.0,0.0,0.009344769641757011,0.01036599837243557,-0.0,0.0,0.0,0.0,0.0037540323100984097,-0.0028527609538286924,1.0128730743019787e-08,1495.0,1495.0,1495.0,1495.0,0.0,0.0,0.0,0.0,0.0,0.0,0.0,0.0,1495.0,1495.0,1495.0,1495.0,1.769460916519165,-0.3367549698223006,-0.11221104298364387,-0.09257125566907869,-0.044195421040058136,0.03064831905066967,0.0
256,5,0.0008170729270204902,0.001308212406001985,-0.0001445295347366482,0.009085046127438545,-0.006338905077427626,-0.0019010029500350356,-0.037650544196367264,0.02832000143826008,0.00579681433737278,-0.008653322234749794,0.06345590949058533,-0.03977791965007782,0.0,0.0,0.0,0.009344769641757011,0.01036599837243557,-0.0,0.0,0.0,0.0,0.0037540323100984097,-0.0028527609538286924,1.0128730743019787e-08,1495.0,1495.0,1495.0,1495.0,0.0,0.0,0.0,0.0,0.0,0.0,0.0,0.0,1495.0,1495.0,1495.0,1495.0,1.769460916519165,-0.3333903281039302,-0.11105971007450696,-0.09237474029982097,-0.044195421040058136,0.03064831905066967,0.0
261,5,0.0008472625049762428,0.001322202617302537,-0.0001370224345009774,0.007256768178194761,-0.0042143939062952995,-0.0016612546751275659,-0.037650544196367264,0.02832000143826008,0.00579681433737278,-0.008653322234749794,0.06345590949058533,-0.03977791965007782,0.0,0.0,0.0,0.009516132064163685,0.009108598344027996,-0.0,0.0,0.0,0.0,0.0037540323100984097,-0.0028527609538286924,1.0128730743019787e-08,1495.0,1495.0,1495.0,1495.0,0.0,0.0,0.0,0.0,0.0,0.0,0.0,0.0,1495.0,1495.0,1495.0,1495.0,1.7582168579101562,-0.3330520140299203,-0.11087095909226656,-0.09304133168857372,-0.038587819784879684,0.03101198561489582,0.0
266,5,0.0008986276807263494,0.0013306488981470466,-0.00021676257892977446,0.006058107130229473,-0.0014718446182087064,0.007176091894507408,-0.03771950304508209,0.02788778580725193,0.005469115450978279,-0.005517836660146713,0.06661315262317657,-0.03917147219181061,0.0,0.0,0.0,0.009516132064163685,0.009108598344027996,-0.0,0.0,0.0,0.0,0.00376315345056355,-0.0028101433999836445,5.981640516239395e-09,1495.0,1495.0,1495.0,1495.0,0.0,0.0,0.0,0.0,0.0,0.0,0.0,0.0,1495.0,1495.0,1495.0,1495.0,1.7582168579101562,-0.3311852982998659,-0.10819413028212428,-0.09320937834175462,-0.038587819784879684,0.03101198561489582,0.0
271,5,0.0008986276807263494,0.0013306488981470466,-0.00021676257892977446,0.006058107130229473,-0.0014718446182087064,0.007176091894507408,-0.037730623036623,0.027181601151823997,0.005048050545156002,0.002579878782853484,0.06000630930066109,-0.024883829057216644,0.0,0.0,0.0,0.004071403294801712,0.006727981846779585,-0.0,0.0,0.0,0.0,0.003768595866858959,-0.002702064346522093,-1.0597473121265466e-08,1495.0,1495.0,1495.0,1495.0,0.0,0.0,0.0,0.0,0.0,0.0,0.0,0.0,1495.0,1495.0,1495.0,1495.0,1.7079554796218872,-0.3311852982998659,-0.10819413028212428,-0.09320937834175462,-0.027688942849636078,0.012889232486486435,0.0
277,5,0.0009522995678707957,0.0013886314118281007,-0.00021482183365151286,0.005448058247566223,-0.004098206292837858,0.002045489614829421,-0.037730623036623,0.027181601151823997,0.005048050545156002,0.002579878782853484,0.06000630930066109,-0.024883829057216644,0.0,0.0,0.0,0.004071403294801712,0.006727981846779585,-0.0,0.0,0.0,0.0,0.003768595866858959,-0.002702064346522093,-1.0597473121265466e-08,1495.0,1495.0,1495.0,1495.0,0.0,0.0,0.0,0.0,0.0,0.0,0.0,0.0,1495.0,1495.0,1495.0,1495.0,1.7079554796218872,-0.33070549922929193,-0.10729910928204275,-0.09336377010900335,-0.027688942849636078,0.012889232486486435,0.0
282,5,0.0009723675902932882,0.001409209449775517,-0.0001985599083127454,0.004587381146848202,-0.004108657594770193,-0.0011332356370985508,-0.03767027705907822,0.02687142975628376,0.004901910200715065,0.0045860460959374905,0.03576807677745819,-0.010019296780228615,0.0,0.0,0.0,0.00723992707207799,0.006206238176673651,-0.0,0.0,0.0,0.0,0.0037655422929674387,-0.0026643448509275913,4.76647521452378e-09,1495.0,1495.0,1495.0,1495.0,0.0,0.0,0.0,0.0,0.0,0.0,0.0,0.0,1495.0,1495.0,1495.0,1495.0,1.7185865640640259,-0.33005521296269114,-0.10796598880541945,-0.09313182149796466,-0.025700263679027557,0.02306254766881466,0.0
287,5,0.001005504745990038,0.001434486941434443,-0.00020597796537913382,0.0058114174753427505,-0.004676761571317911,0.00043687288416549563,-0.03767027705907822,0.02687142975628376,0.004901910200715065,0.0045860460959374905,0.03576807677745819,-0.010019296780228615,0.0,0.0,0.0,0.00723992707207799,0.006206238176673651,-0.0,0.0,0.0,0.0,0.0037655422929674387,-0.0026643448509275913,4.76647521452378e-09,1495.0,1495.0,1495.0,1495.0,0.0,0.0,0.0,0.0,0.0,0.0,0.0,0.0,1495.0,1495.0,1495.0,1495.0,1.7185865640640259,-0.32997782756430194,-0.10853430975466621,-0.09324189582765743,-0.025700263679027557,0.02306254766881466,0.0
292,5,0.0010215406073257327,0.0014334730803966522,-0.0002643368497956544,0.00424885842949152,-0.0017490319442003965,0.007177817169576883,-0.03769688308238983,0.026574404910206795,0.004823725204914808,-0.009919866919517517,0.018578145653009415,0.0006507302168756723,0.0,0.0,0.0,0.007966750301420689,0.0065778461284935474,-0.0,0.0,0.0,0.0,0.003773861099034548,-0.00265093264169991,5.733763686066595e-09,1495.0,1495.0,1495.0,1495.0,0.0,0.0,0.0,0.0,0.0,0.0,0.0,0.0,1495.0,1495.0,1495.0,1495.0,1.7261942625045776,-0.3317416360262704,-0.10835042751632966,-0.09329923720747973,-0.027359511703252792,0.02549007348716259,0.0
297,5,0.000947156164329499,0.0016971807926893234,-0.0003476391138974577,-0.007226581685245037,-0.03234453871846199,0.012867397628724575,-0.03769688308238983,0.026574404910206795,0.004823725204914808,-0.009919866919517517,0.018578145653009415,0.0006507302168756723,0.0,0.0,0.0,0.007966750301420689,0.0065778461284935474,-0.0,0.0,0.0,0.0,0.003773861099034548,-0.00265093264169991,5.733763686066595e-09,1495.0,1495.0,1495.0,1495.0,0.0,0.0,0.0,0.0,0.0,0.0,0.0,0.0,1495.0,1495.0,1495.0,1495.0,1.7261942625045776,-0.3442260377573264,-0.11598342271791046,-0.08809514381632352,-0.027359511703252792,0.02549007348716259,0.0
302,5,0.0009482509340159595,0.0016664480790495872,-0.0004398510791361332,-0.0027592626865953207,-0.009249895811080933,0.016212396323680878,-0.03769688308238983,0.026574404910206795,0.004823725204914808,-0.009919866919517517,0.018578145653009415,0.0006507302168756723,0.0,0.0,0.0,0.035783372819423676,-0.004603000823408365,-0.0,0.0,0.0,0.0,0.003773861099034548,-0.00265093264169991,5.733763686066595e-09,1495.0,1495.0,1495.0,1495.0,0.0,0.0,0.0,0.0,0.0,0.0,0.0,0.0,1495.0,1495.0,1495.0,1495.0,1.971243977546692,-0.34551618511476917,-0.11470377979392678,-0.08759994119345274,0.021850112825632095,0.13069584965705872,0.0
307,5,0.0009628740372136235,0.0016567616257816553,-0.0004720001306850463,0.0006510706152766943,-0.002537589054554701,0.01034284383058548,-0.037799060344696045,0.026107395067811012,0.005155228078365326,0.007075199857354164,0.03827793523669243,0.02508212812244892,0.0,0.0,0.0,0.035783372819423676,-0.004603000823408365,-0.0,0.0,0.0,0.0,0.003781890729442239,-0.0026237950660288334,-6.2037375236911885e-09,1495.0,1495.0,1495.0,1495.0,0.0,0.0,0.0,0.0,0.0,0.0,0.0,0.0,1495.0,1495.0,1495.0,1495.0,1.971243977546692,-0.3470876124559921,-0.11457732937883537,-0.08714320211837241,0.021850112825632095,0.13069584965705872,0.0
312,5,0.001022769371047616,0.0017217564163729548,-0.0003911969542969018,0.007447871379554272,-0.008814401924610138,-0.005559245590120554,-0.037799060344696045,0.026107395067811012,0.005155228078365326,0.007075199857354164,0.03827793523669243,0.02508212812244892,0.0,0.0,0.0,0.006004884839057922,0.0019216954242438078,-0.0,0.0,0.0,0.0,0.003781890729442239,-0.0026237950660288334,-6.2037375236911885e-09,1495.0,1495.0,1495.0,1495.0,0.0,0.0,0.0,0.0,0.0,0.0,0.0,0.0,1495.0,1495.0,1495.0,1495.0,1.6804609298706055,-0.3452746099199757,-0.11477603429205785,-0.08739089274424362,-0.007781382650136948,0.01870410330593586,0.0
317,5,0.0010515556205064058,0.001747279311530292,-0.00036685928353108466,0.006433488801121712,-0.006588505581021309,-0.005144218448549509,-0.037798427045345306,0.02577933855354786,0.005344162695109844,0.0031584862153977156,0.049524448812007904,0.028854666277766228,0.0,0.0,0.0,0.006004884839057922,0.0019216954242438078,-0.0,0.0,0.0,0.0,0.0037829710636287928,-0.002594746882095933,-1.299710739033344e-08,1495.0,1495.0,1495.0,1495.0,0.0,0.0,0.0,0.0,0.0,0.0,0.0,0.0,1495.0,1495.0,1495.0,1495.0,1.6804609298706055,-0.343497388854468,-0.11342147465473312,-0.08674493849274595,-0.007781382650136948,0.01870410330593586,0.0
322,5,0.0010773574467748404,0.0017536728410050273,-0.0003901401942130178,0.0056696184910833836,-0.0034026324283331633,0.0007360214367508888,-0.037798427045345306,0.02577933855354786,0.005344162695109844,0.0031584862153977156,0.049524448812007904,0.028854666277766228,0.0,0.0,0.0,0.010617656633257866,0.007112888619303703,-0.0,0.0,0.0,0.0,0.0037829710636287928,-0.002594746882095933,-1.299710739033344e-08,1495.0,1495.0,1495.0,1495.0,0.0,0.0,0.0,0.0,0.0,0.0,0.0,0.0,1495.0,1495.0,1495.0,1495.0,1.7479718923568726,-0.3442790124460876,-0.11396531539182807,-0.08678457095117785,-0.029957406222820282,0.03439987450838089,0.0
327,5,0.0011052183108404279,0.0017790680285543203,-0.00041885560494847596,0.0056111472658813,-0.00440847035497427,0.0037402587477117777,-0.03782268241047859,0.02525327354669571,0.005674498155713081,0.002819088753312826,0.040415603667497635,0.02845812402665615,0.0,0.0,0.0,0.010617656633257866,0.007112888619303703,-0.0,0.0,0.0,0.0,0.0037850290536880493,-0.0025409781374037266,-6.520764372908161e-09,1495.0,1495.0,1495.0,1495.0,0.0,0.0,0.0,0.0,0.0,0.0,0.0,0.0,1495.0,1495.0,1495.0,1495.0,1.7479718923568726,-0.3442064961297688,-0.11421488462997732,-0.08687773942830548,-0.029957406222820282,0.03439987450838089,0.0
332,5,0.001128670759499073,0.001793264178559184,-0.00043591918074525893,0.005058751907199621,-0.003466931404545903,0.003543732687830925,-0.03782268241047859,0.02525327354669571,0.005674498155713081,0.002819088753312826,0.040415603667497635,0.02845812402665615,0.0,0.0,0.0,0.008246940560638905,0.006528072524815798,-0.0,0.0,0.0,0.0,0.0037850290536880493,-0.0025409781374037266,-6.520764372908161e-09,1495.0,1495.0,1495.0,1495.0,0.0,0.0,0.0,0.0,0.0,0.0,0.0,0.0,1495.0,1495.0,1495.0,1495.0,1.7275141477584839,-0.34506740914014244,-0.11383205612196558,-0.08706954700682253,-0.02717319130897522,0.026406697928905487,0.0
337,5,0.0011206696508452296,0.0017697078874334693,-0.0004835462605115026,0.0010633727069944143,0.0014399808133020997,0.0071327416226267815,-0.03779498115181923,0.025030633434653282,0.00591694563627243,0.005665948148816824,0.013363001868128777,0.03575927019119263,0.0,0.0,0.0,0.008246940560638905,0.006528072524815798,-0.0,0.0,0.0,0.0,0.0037838672287762165,-0.0025111804716289043,-6.267404373261343e-09,1495.0,1495.0,1495.0,1495.0,0.0,0.0,0.0,0.0,0.0,0.0,0.0,0.0,1495.0,1495.0,1495.0,1495.0,1.7275141477584839,-0.34500979764721385,-0.11508868270142117,-0.08721518386213255,-0.02717319130897522,0.026406697928905487,0.0
342,5,0.0010968416463583708,0.0017955615185201168,-0.0005391069571487606,-0.0024340159725397825,-0.0025264343712478876,0.00952038075774908,-0.03779498115181923,0.025030633434653282,0.00591694563627243,0.005665948148816824,0.013363001868128777,0.03575927019119263,0.0,0.0,0.0,0.0014435279881581664,0.002558477222919464,-0.0,0.0,0.0,0.0,0.0037838672287762165,-0.0025111804716289043,-6.267404373261343e-09,1495.0,1495.0,1495.0,1495.0,0.0,0.0,0.0,0.0,0.0,0.0,0.0,0.0,1495.0,1495.0,1495.0,1495.0,1.6558823585510254,-0.3463947410772219,-0.11574655361302526,-0.08590009175624091,-0.010208501480519772,0.004430604167282581,0.0
347,5,0.0010852242121472955,0.0018023352604359388,-0.0005776560283266008,-0.0023677004501223564,-0.0018234351882711053,0.008434043265879154,-0.03776007518172264,0.024937812238931656,0.006339477375149727,-0.0023239420261234045,0.0052675409242510796,0.03388604894280434,0.0,0.0,0.0,0.005438760854303837,-0.0007070740684866905,-0.0,0.0,0.0,0.0,0.0037766743917018175,-0.0024969312362372875,2.6607507863651847e-10,1495.0,1495.0,1495.0,1495.0,0.0,0.0,0.0,0.0,0.0,0.0,0.0,0.0,1495.0,1495.0,1495.0,1495.0,1.6719605922698975,-0.3475807253664204,-0.1175161924107443,-0.08571718535527913,0.002848632400855422,0.01685507409274578,0.0
353,5,0.0010791842360049486,0.001819820492528379,-0.0005872148321941495,-0.0016718637198209763,-0.00282759009860456,0.004520670510828495,-0.03776007518172264,0.024937812238931656,0.006339477375149727,-0.0023239420261234045,0.0052675409242510796,0.03388604894280434,0.0,0.0,0.0,0.005438760854303837,-0.0007070740684866905,-0.0,0.0,0.0,0.0,0.0037766743917018175,-0.0024969312362372875,2.6607507863651847e-10,1495.0,1495.0,1495.0,1495.0,0.0,0.0,0.0,0.0,0.0,0.0,0.0,0.0,1495.0,1495.0,1495.0,1495.0,1.6719605922698975,-0.3469857967266842,-0.1156381742483176,-0.08482443833342117,0.002848632400855422,0.01685507409274578,0.0
358,5,0.0011070474283769727,0.0018773004412651062,-0.0004987127031199634,0.0026748264208436012,-0.008028633892536163,-0.008811984211206436,-0.03770986944437027,0.02500937692821026,0.006610817275941372,0.004879276268184185,-0.01250290498137474,0.031192170456051826,0.0,0.0,0.0,0.012551414780318737,0.0038543741684406996,-0.0,0.0,0.0,0.0,0.003764937398955226,-0.0025075948797166348,2.4441610957381954e-09,1495.0,1495.0,1495.0,1495.0,0.0,0.0,0.0,0.0,0.0,0.0,0.0,0.0,1495.0,1495.0,1495.0,1495.0,1.7428107261657715,-0.347065041584837,-0.11701195958150289,-0.08584500766081071,-0.016185298562049866,0.04054438695311546,0.0
363,5,0.001129727577790618,0.001924781478010118,-0.00046228611608967185,0.0037915522698312998,-0.008909176103770733,-0.007895984686911106,-0.03770986944437027,0.02500937692821026,0.006610817275941372,0.004879276268184185,-0.01250290498137474,0.031192170456051826,0.0,0.0,0.0,0.012551414780318737,0.0038543741684406996,-0.0,0.0,0.0,0.0,0.003764937398955226,-0.0025075948797166348,2.4441610957381954e-09,1495.0,1495.0,1495.0,1495.0,0.0,0.0,0.0,0.0,0.0,0.0,0.0,0.0,1495.0,1495.0,1495.0,1495.0,1.7428107261657715,-0.34581253488630215,-0.11543860927710237,-0.0855111807103541,-0.016185298562049866,0.04054438695311546,0.0
368,5,0.0011311140842735767,0.001948647666722536,-0.00047070597065612674,0.001682997215539217,-0.006427621003240347,-0.002148012164980173,-0.03762916475534439,0.025108562782406807,0.0069187106564641,0.00745894992724061,-0.00548478402197361,0.02354947291314602,0.0,0.0,0.0,0.012551414780318737,0.0038543741684406996,-0.0,0.0,0.0,0.0,0.0037620419170707464,-0.002511918544769287,-1.6607804020907224e-10,1495.0,1495.0,1495.0,1495.0,0.0,0.0,0.0,0.0,0.0,0.0,0.0,0.0,1495.0,1495.0,1495.0,1495.0,1.7428107261657715,-0.34772276778831346,-0.11678861542818006,-0.08597556472689682,-0.016185298562049866,0.04054438695311546,0.0
373,5,0.0011338749900460243,0.0019882654305547476,-0.00047050375724211335,0.0010045147500932217,-0.007325164973735809,-0.0008834688342176378,-0.03762916475534439,0.025108562782406807,0.0069187106564641,0.00745894992724061,-0.00548478402197361,0.02354947291314602,0.0,0.0,0.0,0.01092476025223732,0.0030312014278024435,-0.0,0.0,0.0,0.0,0.0037620419170707464,-0.002511918544769287,-1.6607804020907224e-10,1495.0,1495.0,1495.0,1495.0,0.0,0.0,0.0,0.0,0.0,0.0,0.0,0.0,1495.0,1495.0,1495.0,1495.0,1.7255518436431885,-0.3494990953023536,-0.11697920123863846,-0.08667935339655247,-0.012602831237018108,0.03494079411029816,0.0
378,5,0.0011571795912459493,0.0020203760359436274,-0.0005035710637457669,0.0031983605585992336,-0.0067833587527275085,0.0036146873608231544,-0.03761586174368858,0.025102466344833374,0.0070499759167432785,0.001002150704152882,0.0038772141560912132,0.01980038918554783,0.0,0.0,0.0,0.01092476025223732,0.0030312014278024435,-0.0,0.0,0.0,0.0,0.003762628184631467,-0.002506936900317669,3.7025676968838184e-10,1495.0,1495.0,1495.0,1495.0,0.0,0.0,0.0,0.0,0.0,0.0,0.0,0.0,1495.0,1495.0,1495.0,1495.0,1.7255518436431885,-0.34843389381122963,-0.11625811507894561,-0.0862044584366808,-0.012602831237018108,0.03494079411029816,0.0
383,5,0.0011375884059816599,0.002020204672589898,-0.0005650136736221611,-0.00107159826438874,-0.0026927615981549025,0.00881898868829012,-0.03761586174368858,0.025102466344833374,0.0070499759167432785,0.001002150704152882,0.0038772141560912132,0.01980038918554783,0.0,0.0,0.0,0.01139936875551939,0.004407148342579603,-0.0,0.0,0.0,0.0,0.003762628184631467,-0.002506936900317669,3.7025676968838184e-10,1495.0,1495.0,1495.0,1495.0,0.0,0.0,0.0,0.0,0.0,0.0,0.0,0.0,1495.0,1495.0,1495.0,1495.0,1.7359062433242798,-0.3494025775934779,-0.11690760370863279,-0.08629864172567711,-0.018433433026075363,0.03667739778757095,0.0
388,5,0.001121698645874858,0.002040779683738947,-0.0005701084737665951,-0.0023354175500571728,-0.0035461087245494127,0.004138972610235214,-0.03761864826083183,0.02500995062291622,0.007271978072822094,-0.003838875098153949,0.004647925496101379,0.0062502785585820675,0.0,0.0,0.0,0.01139936875551939,0.004407148342579603,-0.0,0.0,0.0,0.0,0.003761693835258484,-0.0025014590937644243,2.813097532694542e-10,1495.0,1495.0,1495.0,1495.0,0.0,0.0,0.0,0.0,0.0,0.0,0.0,0.0,1495.0,1495.0,1495.0,1495.0,1.7359062433242798,-0.34991732388743874,-0.11746206409149877,-0.08650848368708126,-0.018433433026075363,0.03667739778757095,0.0
393,5,0.001106393989175558,0.002037748694419861,-0.000608619418926537,-0.0027707270346581936,-0.0010547428391873837,0.006276904139667749,-0.03761693462729454,0.025044048205018044,0.00726791238412261,-0.0026472066529095173,-0.009578363038599491,0.0003727851726580411,0.0,0.0,0.0,0.007859681732952595,-0.0006151623092591763,-0.0,0.0,0.0,0.0,0.003762106178328395,-0.0025010351091623306,-5.968638916442615e-10,1495.0,1495.0,1495.0,1495.0,0.0,0.0,0.0,0.0,0.0,0.0,0.0,0.0,1495.0,1495.0,1495.0,1495.0,1.6925990581512451,-0.3504645032468808,-0.11776513062692714,-0.08634394474012089,0.0025088938418775797,0.024658093228936195,0.0
398,5,0.0010933246230706573,0.0020842731464654207,-0.0005816280608996749,-0.0026766054797917604,-0.006004833150655031,-0.0007282045553438365,-0.03761693462729454,0.025044048205018044,0.00726791238412261,-0.0026472066529095173,-0.009578363038599491,0.0003727851726580411,0.0,0.0,0.0,0.007859681732952595,-0.0006151623092591763,-0.0,0.0,0.0,0.0,0.003762106178328395,-0.0025010351091623306,-5.968638916442615e-10,1495.0,1495.0,1495.0,1495.0,0.0,0.0,0.0,0.0,0.0,0.0,0.0,0.0,1495.0,1495.0,1495.0,1495.0,1.6925990581512451,-0.3502881621133287,-0.11805377084698172,-0.08632614811819365,0.0025088938418775797,0.024658093228936195,0.0
403,5,0.0010821111500263214,0.0021179208997637033,-0.0005978684057481587,-0.0024162689223885536,-0.006439640186727047,0.0016575565095990896,-0.03761693462729454,0.025044048205018044,0.00726791238412261,-0.0026472066529095173,-0.009578363038599491,0.0003727851726580411,0.0,0.0,0.0,0.010716008953750134,-0.0009517344296909869,-0.0,0.0,0.0,0.0,0.003762106178328395,-0.0025010351091623306,-5.968638916442615e-10,1495.0,1495.0,1495.0,1495.0,0.0,0.0,0.0,0.0,0.0,0.0,0.0,0.0,1495.0,1495.0,1495.0,1495.0,1.7181342840194702,-0.3501743944835519,-0.11876547972003423,-0.08634878641877192,0.0039400323294103146,0.034125860780477524,0.0
409,5,0.0010788405779749155,0.002155047608539462,-0.0005929961334913969,-0.0013589782174676657,-0.007031082175672054,7.83534487709403e-05,-0.037609897553920746,0.02512853406369686,0.007253249175846577,0.00032292536343447864,-0.014442415907979012,0.00225828867405653,0.0,0.0,0.0,0.010716008953750134,-0.0009517344296909869,-0.0,0.0,0.0,0.0,0.0037614284083247185,-0.002507703611627221,-2.780263241852765e-10,1495.0,1495.0,1495.0,1495.0,0.0,0.0,0.0,0.0,0.0,0.0,0.0,0.0,1495.0,1495.0,1495.0,1495.0,1.7181342840194702,-0.3513914482796636,-0.11887487638118595,-0.08688057873402864,0.0039400323294103146,0.034125860780477524,0.0
414,5,0.0010752063244581223,0.0022241477854549885,-0.0005372923333197832,-0.0009796896483749151,-0.011104450561106205,-0.006653115153312683,-0.037609897553920746,0.02512853406369686,0.007253249175846577,0.00032292536343447864,-0.014442415907979012,0.00225828867405653,0.0,0.0,0.0,0.011974846012890339,0.0002222304028691724,-0.0,0.0,0.0,0.0,0.0037614284083247185,-0.002507703611627221,-2.780263241852765e-10,1495.0,1495.0,1495.0,1495.0,0.0,0.0,0.0,0.0,0.0,0.0,0.0,0.0,1495.0,1495.0,1495.0,1495.0,1.7288477420806885,-0.3509731017810696,-0.11867577388381005,-0.08743450774042816,-0.0009257228812202811,0.03837217390537262,0.0
419,5,0.001077495631761849,0.0022880167234688997,-0.0005177033599466085,-0.0001171668482129462,-0.012106038630008698,-0.0050119212828576565,-0.037609897553920746,0.02512853406369686,0.007253249175846577,0.00032292536343447864,-0.014442415907979012,0.00225828867405653,0.0,0.0,0.0,0.011974846012890339,0.0002222304028691724,-0.0,0.0,0.0,0.0,0.0037614284083247185,-0.002507703611627221,-2.780263241852765e-10,1495.0,1495.0,1495.0,1495.0,0.0,0.0,0.0,0.0,0.0,0.0,0.0,0.0,1495.0,1495.0,1495.0,1495.0,1.7288477420806885,-0.34898339789380517,-0.11725938024463127,-0.08720602798187563,-0.0009257228812202811,0.03837217390537262,0.0
424,5,0.0010364723857492208,0.0022913420107215643,-0.0005117767723277211,-0.004969650413841009,-0.005241448059678078,-0.002715957583859563,-0.03764500841498375,0.025353306904435158,0.0072258529253304005,-0.0013712308136746287,-0.030982332304120064,-0.0035996593069285154,0.0,0.0,0.0,0.01760787144303322,0.0012998010497540236,-0.0,0.0,0.0,0.0,0.0037638365756720304,-0.0025236683432012796,-3.235258061451418e-09,1495.0,1495.0,1495.0,1495.0,0.0,0.0,0.0,0.0,0.0,0.0,0.0,0.0,1495.0,1495.0,1495.0,1495.0,1.7816745042800903,-0.3507819450951736,-0.1192134545880585,-0.0877823172261453,-0.005579428281635046,0.0581437423825264,0.0
429,5,0.0010089328279718757,0.0023070131428539753,-0.0005076825618743896,-0.005292611662298441,-0.003977123182266951,-0.0015776894288137555,-0.03764500841498375,0.025353306904435158,0.0072258529253304005,-0.0013712308136746287,-0.030982332304120064,-0.0035996593069285154,0.0,0.0,0.0,0.01760787144303322,0.0012998010497540236,-0.0,0.0,0.0,0.0,0.0037638365756720304,-0.0025236683432012796,-3.235258061451418e-09,1495.0,1495.0,1495.0,1495.0,0.0,0.0,0.0,0.0,0.0,0.0,0.0,0.0,1495.0,1495.0,1495.0,1495.0,1.7816745042800903,-0.3503553412579333,-0.1196800421872755,-0.0877599158264438,-0.005579428281635046,0.0581437423825264,0.0
434,5,0.0009665783727541566,0.0023270167876034975,-0.0005069722537882626,-0.007199579384177923,-0.003991288598626852,-0.000716316164471209,-0.037687916308641434,0.025603903457522392,0.0071764481253921986,-0.0020128758624196053,-0.03681635484099388,-0.011005458422005177,0.0,0.0,0.0,0.008759753778576851,-0.00520645035430789,-0.0,0.0,0.0,0.0,0.003766697598621249,-0.0025469379033893347,-4.387959773310968e-09,1495.0,1495.0,1495.0,1495.0,0.0,0.0,0.0,0.0,0.0,0.0,0.0,0.0,1495.0,1495.0,1495.0,1495.0,1.7206523418426514,-0.35079534846367677,-0.11971562590918403,-0.08780291105561244,0.021585797891020775,0.027937239035964012,0.0
439,5,0.0009569617686793208,0.0023534512147307396,-0.0005025647697038949,-0.004033820237964392,-0.004768656101077795,-0.000815424311440438,-0.037687916308641434,0.025603903457522392,0.0071764481253921986,-0.0020128758624196053,-0.03681635484099388,-0.011005458422005177,0.0,0.0,0.0,0.008759753778576851,-0.00520645035430789,-0.0,0.0,0.0,0.0,0.003766697598621249,-0.0025469379033893347,-4.387959773310968e-09,1495.0,1495.0,1495.0,1495.0,0.0,0.0,0.0,0.0,0.0,0.0,0.0,0.0,1495.0,1495.0,1495.0,1495.0,1.7206523418426514,-0.3508122105814661,-0.12004787488867201,-0.08816001939087684,0.021585797891020775,0.027937239035964012,0.0
444,5,0.0009371332125738263,0.002416046801954508,-0.00046346092130988836,-0.003992960322648287,-0.009418932721018791,-0.005018631462007761,-0.03773198649287224,0.02606542967259884,0.00701170414686203,2.412099092907738e-05,-0.038654178380966187,-0.015254350379109383,0.0,0.0,0.0,0.014966185204684734,-0.0022934211883693933,-0.0,0.0,0.0,0.0,0.003776389639824629,-0.0026232749223709106,-9.715480864258552e-09,1495.0,1495.0,1495.0,1495.0,0.0,0.0,0.0,0.0,0.0,0.0,0.0,0.0,1495.0,1495.0,1495.0,1495.0,1.758906364440918,-0.3507571190776461,-0.11965188561945353,-0.08872493062069087,0.009719175286591053,0.048790235072374344,0.0
449,5,0.0008817492634989321,0.0024006892926990986,-0.0005236428696662188,-0.008243253454566002,-0.0019246578449383378,0.005214380566030741,-0.03773198649287224,0.02606542967259884,0.00701170414686203,2.412099092907738e-05,-0.038654178380966187,-0.015254350379109383,0.0,0.0,0.0,0.014966185204684734,-0.0022934211883693933,-0.0,0.0,0.0,0.0,0.003776389639824629,-0.0026232749223709106,-9.715480864258552e-09,1495.0,1495.0,1495.0,1495.0,0.0,0.0,0.0,0.0,0.0,0.0,0.0,0.0,1495.0,1495.0,1495.0,1495.0,1.758906364440918,-0.35234654026036283,-0.12081602504106909,-0.08884655701604273,0.009719175286591053,0.048790235072374344,0.0
454,5,0.0008499938994646072,0.002437767805531621,-0.0005008667940273881,-0.00710794422775507,-0.00521927559748292,-0.0006473764078691602,-0.037780553102493286,0.026407836005091667,0.006928920745849609,-0.0025513572618365288,-0.042432039976119995,-0.009108000434935093,0.0,0.0,0.0,0.010330182500183582,-0.005240746308118105,-0.0,0.0,0.0,0.0,0.003779557766392827,-0.0026819445192813873,2.282531941233401e-09,1495.0,1495.0,1495.0,1495.0,0.0,0.0,0.0,0.0,0.0,0.0,0.0,0.0,1495.0,1495.0,1495.0,1495.0,1.7324177026748657,-0.35121196260003895,-0.12084023005659765,-0.08873571002406513,0.021876230835914612,0.03317073732614517,0.0
459,5,0.0008501117117702961,0.0025122687220573425,-0.0003808084293268621,-0.0028290417976677418,-0.01102781854569912,-0.014665952883660793,-0.037780553102493286,0.026407836005091667,0.006928920745849609,-0.0025513572618365288,-0.042432039976119995,-0.009108000434935093,0.0,0.0,0.0,0.010330182500183582,-0.005240746308118105,-0.0,0.0,0.0,0.0,0.003779557766392827,-0.0026819445192813873,2.282531941233401e-09,1495.0,1495.0,1495.0,1495.0,0.0,0.0,0.0,0.0,0.0,0.0,0.0,0.0,1495.0,1495.0,1495.0,1495.0,1.7324177026748657,-0.3495134449277428,-0.11945810891876749,-0.08948748523097659,0.021876230835914612,0.03317073732614517,0.0
464,5,0.0007793059339746833,0.002535564824938774,-0.00035425572423264384,-0.009628307074308395,-0.007206672336906195,-0.009052705951035023,-0.037762876600027084,0.027048470452427864,0.00683946255594492,0.0057711368426680565,-0.057196106761693954,-0.008233170956373215,0.0,0.0,0.0,0.010330182500183582,-0.005240746308118105,-0.0,0.0,0.0,0.0,0.003776038531213999,-0.0027269646525382996,7.608186969321196e-09,1495.0,1495.0,1495.0,1495.0,0.0,0.0,0.0,0.0,0.0,0.0,0.0,0.0,1495.0,1495.0,1495.0,1495.0,1.7324177026748657,-0.34876693264797576,-0.1201793058505886,-0.08923112169757828,0.03171325847506523,0.04117149859666824,0.0
469,5,0.0007392172701656818,0.00255015236325562,-0.0003307278093416244,-0.008661966770887375,-0.004633177071809769,-0.006444430444389582,-0.037762876600027084,0.027048470452427864,0.00683946255594492,0.0057711368426680565,-0.057196106761693954,-0.008233170956373215,0.0,0.0,0.0,0.01258728839457035,-0.007458485197275877,-0.0,0.0,0.0,0.0,0.003776038531213999,-0.0027269646525382996,7.608186969321196e-09,1495.0,1495.0,1495.0,1495.0,0.0,0.0,0.0,0.0,0.0,0.0,0.0,0.0,1495.0,1495.0,1495.0,1495.0,1.7647238969802856,-0.3486425053577253,-0.11908012324484572,-0.08942456264732403,0.03171325847506523,0.04117149859666824,0.0
475,5,0.0007011755951680243,0.0025787383783608675,-0.0003105576033703983,-0.008029787801206112,-0.005283578764647245,-0.004998198244720697,-0.03773612156510353,0.02749588154256344,0.0067545888014137745,0.0025377238634973764,-0.05846191570162773,-0.013313551433384418,0.0,0.0,0.0,0.01258728839457035,-0.007458485197275877,-0.0,0.0,0.0,0.0,0.0037750015035271645,-0.00279639451764524,1.0089554969283654e-08,1495.0,1495.0,1495.0,1495.0,0.0,0.0,0.0,0.0,0.0,0.0,0.0,0.0,1495.0,1495.0,1495.0,1495.0,1.7647238969802856,-0.3485602745920083,-0.11922755451443487,-0.0895347516605303,0.026145724579691887,0.03420766815543175,0.0
480,5,0.0006485292105935514,0.0026026128325611353,-0.00032028922578319907,-0.009529481641948223,-0.004978382494300604,-0.00083148293197155,-0.03773407265543938,0.02825087308883667,0.006649505812674761,0.004015645477920771,-0.07544689625501633,-0.012055578641593456,0.0,0.0,0.0,0.010599345900118351,-0.006231969688087702,-0.0,0.0,0.0,0.0,0.0037760059349238873,-0.002855167258530855,-1.650550029985709e-09,1495.0,1495.0,1495.0,1495.0,0.0,0.0,0.0,0.0,0.0,0.0,0.0,0.0,1495.0,1495.0,1495.0,1495.0,1.7412079572677612,-0.34849567428907313,-0.11937051797492226,-0.09006314481160277,0.026145724579691887,0.03420766815543175,0.0
485,5,0.0006293615442700684,0.002644623862579465,-0.00028167408891022205,-0.006111913826316595,-0.007032673340290785,-0.004966412205249071,-0.03773407265543938,0.02825087308883667,0.006649505812674761,0.004015645477920771,-0.07544689625501633,-0.012055578641593456,0.0,0.0,0.0,0.010599345900118351,-0.006231969688087702,-0.0,0.0,0.0,0.0,0.0037760059349238873,-0.002855167258530855,-1.650550029985709e-09,1495.0,1495.0,1495.0,1495.0,0.0,0.0,0.0,0.0,0.0,0.0,0.0,0.0,1495.0,1495.0,1495.0,1495.0,1.7412079572677612,-0.34709529133614014,-0.11785867805169804,-0.09043179008815418,0.01934615522623062,0.04113972187042236,0.0
490,5,0.0005822035600431263,0.0026405027601867914,-0.0002776971959974617,-0.008103718981146812,-0.00231853686273098,-0.002463790588080883,-0.03773407265543938,0.02825087308883667,0.006649505812674761,0.004015645477920771,-0.07544689625501633,-0.012055578641593456,0.0,0.0,0.0,0.01270095631480217,-0.00459453696385026,-0.0,0.0,0.0,0.0,0.0037760059349238873,-0.002855167258530855,-1.650550029985709e-09,1495.0,1495.0,1495.0,1495.0,0.0,0.0,0.0,0.0,0.0,0.0,0.0,0.0,1495.0,1495.0,1495.0,1495.0,1.7475820779800415,-0.3487362111607604,-0.11985725445349775,-0.09125192130957852,0.01934615522623062,0.04113972187042236,0.0
495,5,0.0005690492107532918,0.0027111973613500595,-0.00017117445531766862,-0.00482000969350338,-0.009410763159394264,-0.01376824639737606,-0.03777264803647995,0.02887096256017685,0.006624547764658928,0.0009353387868031859,-0.08730942755937576,-0.0038274263497442007,0.0,0.0,0.0,0.015405609272420406,-0.0034849594812840223,-0.0,0.0,0.0,0.0,0.0037820772267878056,-0.0029631091747432947,4.602861702895922e-10,1495.0,1495.0,1495.0,1495.0,0.0,0.0,0.0,0.0,0.0,0.0,0.0,0.0,1495.0,1495.0,1495.0,1495.0,1.7663304805755615,-0.34533044362520793,-0.11806010334543944,-0.09136465941998939,0.014830957166850567,0.05043455585837364,0.0
500,5,0.00046551204286515713,0.002624509623274207,-0.0002748252882156521,-0.01435246504843235,0.006638220977038145,0.006930801551789045,-0.03777264803647995,0.02887096256017685,0.006624547764658928,0.0009353387868031859,-0.08730942755937576,-0.0038274263497442007,0.0,0.0,0.0,0.015405609272420406,-0.0034849594812840223,-0.0,0.0,0.0,0.0,0.0037820772267878056,-0.0029631091747432947,4.602861702895922e-10,1495.0,1495.0,1495.0,1495.0,0.0,0.0,0.0,0.0,0.0,0.0,0.0,0.0,1495.0,1495.0,1495.0,1495.0,1.7663304805755615,-0.34739004795382844,-0.11929602893924095,-0.09098863711459217,0.014830957166850567,0.05043455585837364,0.0
505,5,0.00037728328607045114,0.0025890483520925045,-0.00029014478786848485,-0.016328437253832817,0.006910629104822874,0.0046106609515845776,-0.03785125911235809,0.030767736956477165,0.0065962024964392185,0.003017079085111618,-0.08222830295562744,-0.00477257976308465,0.0,0.0,0.0,0.015405609272420406,-0.0034849594812840223,-0.0,0.0,0.0,0.0,0.0037851755041629076,-0.0030402608681470156,8.300493625768013e-09,1495.0,1495.0,1495.0,1495.0,0.0,0.0,0.0,0.0,0.0,0.0,0.0,0.0,1495.0,1495.0,1495.0,1495.0,1.7663304805755615,-0.348114964938453,-0.11933158583592836,-0.09124333829557135,0.014830957166850567,0.05043455585837364,0.0
510,5,0.0003629745915532112,0.002622047206386924,-0.00018723866378422827,-0.00824841856956482,-0.0011955983936786652,-0.010504470206797123,-0.03785125911235809,0.030767736956477165,0.0065962024964392185,0.003017079085111618,-0.08222830295562744,-0.00477257976308465,0.0,0.0,0.0,-0.003453174838796258,-0.013718757778406143,-0.0,0.0,0.0,0.0,0.0037851755041629076,-0.0030402608681470156,8.300493625768013e-09,1495.0,1495.0,1495.0,1495.0,0.0,0.0,0.0,0.0,0.0,0.0,0.0,0.0,1495.0,1495.0,1495.0,1495.0,1.78608238697052,-0.34531746900612004,-0.11891279279753551,-0.09207319757816558,0.05904076248407364,-0.011432127095758915,0.0
515,5,0.00031424572807736695,0.002586605027318001,-0.0002161287411581725,-0.00914683099836111,0.0037748294416815042,-0.0007349778898060322,-0.03787770867347717,0.03148322179913521,0.006592892110347748,0.0005050632753409445,-0.07393583655357361,-0.004286007955670357,0.0,0.0,0.0,-0.003453174838796258,-0.013718757778406143,-0.0,0.0,0.0,0.0,0.0037884674966335297,-0.003148314543068409,-2.279457511633609e-09,1495.0,1495.0,1495.0,1495.0,0.0,0.0,0.0,0.0,0.0,0.0,0.0,0.0,1495.0,1495.0,1495.0,1495.0,1.78608238697052,-0.34414704310607985,-0.1179342023842154,-0.09247868112636295,0.05904076248407364,-0.011432127095758915,0.0
520,5,0.00032604203443042934,0.0025991019792854786,-0.00013159292575437576,-0.0022431749384850264,1.0301881957275327e-05,-0.010438289493322372,-0.03787770867347717,0.03148322179913521,0.006592892110347748,0.0005050632753409445,-0.07393583655357361,-0.004286007955670357,0.0,0.0,0.0,0.00010204838326899335,-0.007862607948482037,-0.0,0.0,0.0,0.0,0.0037884674966335297,-0.003148314543068409,-2.279457511633609e-09,1495.0,1495.0,1495.0,1495.0,0.0,0.0,0.0,0.0,0.0,0.0,0.0,0.0,1495.0,1495.0,1495.0,1495.0,1.713050365447998,-0.3404647482346406,-0.11741249151982537,-0.09360025306656658,0.032455191016197205,0.0003240297082811594,0.0
525,5,0.00029623755835928023,0.002563773887231946,-0.00011735015868907794,-0.004473807290196419,0.0042434679344296455,-0.005884447600692511,-0.037883058190345764,0.03245037421584129,0.006542963907122612,-0.003141901921480894,-0.06149108335375786,-0.009611625224351883,0.0,0.0,0.0,-0.0005013251211494207,-0.0037424105685204268,-0.0,0.0,0.0,0.0,0.0037894449196755886,-0.003215386066585779,-1.96745553182609e-09,1495.0,1495.0,1495.0,1495.0,0.0,0.0,0.0,0.0,0.0,0.0,0.0,0.0,1495.0,1495.0,1495.0,1495.0,1.666609764099121,-0.3379109755552765,-0.11569951342088014,-0.09371851804347739,0.015029211528599262,-0.0015486808260902762,0.0
531,5,0.0002548962947912514,0.0025056179147213697,-0.0001303285825997591,-0.006750475615262985,0.00867612473666668,-0.0007963688694871962,-0.037883058190345764,0.03245037421584129,0.006542963907122612,-0.003141901921480894,-0.06149108335375786,-0.009611625224351883,0.0,0.0,0.0,-0.0005013251211494207,-0.0037424105685204268,-0.0,0.0,0.0,0.0,0.0037894449196755886,-0.003215386066585779,-1.96745553182609e-09,1495.0,1495.0,1495.0,1495.0,0.0,0.0,0.0,0.0,0.0,0.0,0.0,0.0,1495.0,1495.0,1495.0,1495.0,1.666609764099121,-0.3391180136603739,-0.11522434335597358,-0.094546858848749,0.015029211528599262,-0.0015486808260902762,0.0
