timestamp,dt,pos_x,pos_y,pos_z,vel_x,vel_y,vel_z,roll,pitch,yaw,agv_x,agv_y,agv_z,x_ref,y_ref,z_ref,roll_ref,pitch_ref,yaw_ref,x_vel_ref,y_vel_ref,z_vel_ref,x_torque,y_torque,z_torque,w0,w1,w2,w3,u0,u1,u2,u3,m0req,m1req,m2req,m3req,thrust0,thrust1,thrust2,thrust3,thrust_ref,roll_vicon,pitch_vicon,yaw_vicon,acc_x,acc_y,acc_z
5,5,0.0,0.0,0.0,0.0018744062399491668,-0.0020516756922006607,-0.0026006102561950684,0.0,0.0,0.0,0.0,0.0,0.0,0.0,0.0,0.0,0.002509593963623047,0.0017636640695855021,-0.0,0.0,0.0,0.0,0.0,0.0,0.0,0.0,0.0,0.0,0.0,0.0,0.0,0.0,0.0,0.0,0.0,0.0,0.0,0.0,0.0,0.0,0.0,1.6539745330810547,0.022735398663521554,-0.5760211471586547,-3.1215982636685013,-0.007029023487120867,0.007693783845752478,0.0
34,29,0.0,0.0,0.0,-0.0005969622870907187,-0.0019846900831907988,-0.0001974694459931925,0.0,0.0,0.0,0.0,0.0,0.0,0.0,0.0,0.0,0.002509593963623047,0.0017636640695855021,-0.0,0.0,0.0,0.0,0.0,0.0,0.0,0.0,0.0,0.0,0.0,0.0,0.0,0.0,0.0,0.0,0.0,0.0,0.0,0.0,0.0,0.0,0.0,1.6539745330810547,0.026921337474791775,-0.5811193149502529,-3.118161796209644,-0.007029023487120867,0.007693783845752478,0.0
47,13,0.0,0.0,0.0,0.0010748597560450435,-0.0005996457184664905,0.000797711662016809,0.0,0.0,0.0,0.0,0.0,0.0,0.0,0.0,0.0,0.0007405123324133456,0.0010210479376837611,-0.0,0.0,0.0,0.0,0.0,0.0,0.0,0.0,0.0,0.0,0.0,0.0,0.0,0.0,0.0,0.0,0.0,0.0,0.0,0.0,0.0,0.0,0.0,1.6382689476013184,0.02696909372257703,-0.5815058312198199,-3.11803289947146,-0.0040307240560650826,0.0022486713714897633,0.0
52,5,0.0,0.0,0.0,-0.0009272736497223377,0.0008543449803255498,-0.0030894645024091005,0.0,0.0,0.0,0.0,0.0,0.0,0.0,0.0,0.0,0.0007405123324133456,0.0010210479376837611,-0.0,0.0,0.0,0.0,0.0,0.0,0.0,0.0,0.0,0.0,0.0,0.0,0.0,0.0,0.0,0.0,0.0,0.0,0.0,0.0,0.0,0.0,0.0,1.6382689476013184,0.027114092577624392,-0.5816933421407614,-3.1179738503541548,-0.0040307240560650826,0.0022486713714897633,0.0
57,5,0.0,0.0,0.0,-0.0009272736497223377,0.0008543449803255498,-0.0030894645024091005,0.0,0.0,0.0,0.0,0.0,0.0,0.0,0.0,0.0,0.0007405123324133456,0.0010210479376837611,-0.0,0.0,0.0,0.0,0.0,0.0,0.0,0.0,0.0,0.0,0.0,0.0,0.0,0.0,0.0,0.0,0.0,0.0,0.0,0.0,0.0,0.0,0.0,1.6382689476013184,0.027114092577624392,-0.5816933421407614,-3.1179738503541548,-0.0040307240560650826,0.0022486713714897633,0.0
62,5,-7.72626754041994e-06,8.988304216472898e-06,1.4835345609753858e-05,-0.001844448153860867,-0.0012180169578641653,-0.0036329971626400948,0.0,0.0,0.0,0.0,0.0,0.0,0.0,0.0,0.0,-0.001054848195053637,-0.0008806866826489568,-0.0,0.0,0.0,0.0,0.0,0.0,0.0,0.0,0.0,0.0,0.0,0.0,0.0,0.0,0.0,0.0,0.0,0.0,0.0,0.0,0.0,0.0,0.0,1.6385743618011475,0.026355989142345757,-0.5795818919531309,-3.1187850408961957,0.0034772763028740883,-0.0032037936616688967,0.0
67,5,3.3602005714783445e-05,-2.0602896256605163e-05,-3.696449857670814e-05,0.004221613518893719,0.003063737414777279,0.0047627827152609825,0.0,0.0,0.0,0.0,0.0,0.0,0.0,0.0,0.0,-0.0037277662195265293,0.003958340734243393,-0.0,0.0,0.0,0.0,0.0,0.0,0.0,0.0,0.0,0.0,0.0,0.0,0.0,0.0,0.0,0.0,0.0,0.0,0.0,0.0,0.0,0.0,0.0,1.6791619062423706,0.02815907378545679,-0.5813369039161155,-3.1170554780604784,-0.016015978530049324,-0.011602403596043587,0.0
74,7,3.3602005714783445e-05,-2.0602896256605163e-05,-3.696449857670814e-05,0.004221613518893719,0.003063737414777279,0.0047627827152609825,0.0,0.0,0.0,0.0,0.0,0.0,0.0,0.0,0.0,-0.0037277662195265293,0.003958340734243393,-0.0,0.0,0.0,0.0,0.0,0.0,0.0,0.0,0.0,0.0,0.0,0.0,0.0,0.0,0.0,0.0,0.0,0.0,0.0,0.0,0.0,0.0,0.0,1.6791619062423706,0.02815907378545679,-0.5813369039161155,-3.1170554780604784,-0.016015978530049324,-0.011602403596043587,0.0
79,5,3.318642484373413e-05,-2.199802838731557e-05,-2.92571621685056e-05,0.0008108923211693764,0.0007678672554902732,0.00047987300786189735,0.0,0.0,0.0,0.0,0.0,0.0,0.0,0.0,0.0,-0.0009884900646284223,0.0008168775239028037,-0.0,0.0,0.0,0.0,0.0,0.0,0.0,0.0,0.0,0.0,0.0,0.0,0.0,0.0,0.0,0.0,0.0,0.0,0.0,0.0,0.0,0.0,0.0,1.6376959085464478,0.02746618035412252,-0.5812572086740966,-3.1173216645906923,-0.0032236052211374044,-0.003000640543177724,0.0
84,5,2.8256683435756713e-05,-1.201326995214913e-05,-4.500929935602471e-05,-0.00026721207541413605,-0.000891024072188884,0.0020822056103497744,0.0,0.0,0.0,0.0,0.0,0.0,0.0,0.0,0.0,-0.0009884900646284223,0.0008168775239028037,-0.0,0.0,0.0,0.0,0.0,0.0,0.0,0.0,0.0,0.0,0.0,0.0,0.0,0.0,0.0,0.0,0.0,0.0,0.0,0.0,0.0,0.0,0.0,1.6376959085464478,0.02816926964221395,-0.5817745000229181,-3.1172284737998965,-0.0032236052211374044,-0.003000640543177724,0.0
89,5,3.428683339734562e-05,2.2894859341704432e-07,-5.336564936442301e-05,0.0006167332758195698,-0.0018254758324474096,0.001835644245147705,0.0,0.0,0.0,0.0,0.0,0.0,0.0,0.0,0.0,-0.0009884900646284223,0.0008168775239028037,-0.0,0.0,0.0,0.0,0.0,0.0,0.0,0.0,0.0,0.0,0.0,0.0,0.0,0.0,0.0,0.0,0.0,0.0,0.0,0.0,0.0,0.0,0.0,1.6376959085464478,0.028433964598462105,-0.5820146968487244,-3.1173104393939917,-0.0032236052211374044,-0.003000640543177724,0.0
94,5,-0.003571578534319997,0.00332944025285542,0.00873475894331932,0.0006167332758195698,-0.0018254758324474096,0.001835644245147705,0.0,0.0,0.0,0.0,0.0,0.0,0.0,0.0,0.0,0.0022447574883699417,0.0006309292512014508,-0.0,0.0,0.0,0.0,0.0,0.0,0.0,0.0,0.0,0.0,0.0,0.0,0.0,0.0,0.0,0.0,0.0,0.0,0.0,0.0,0.0,0.0,0.0,1.645509958267212,-3.109027587026483,0.23538783666327873,-3.0521387124718284,-0.00250168121419847,0.0068466453813016415,0.0
100,5,-0.0035378627944737673,0.0032569176983088255,0.008656497113406658,0.004292599856853485,0.007972517050802708,0.010125712491571903,0.0,0.0,0.0,0.0,0.0,0.0,0.0,0.0,0.0,0.0022447574883699417,0.0006309292512014508,-0.0,0.0,0.0,0.0,0.0,0.0,0.0,0.0,0.0,0.0,0.0,0.0,0.0,0.0,0.0,0.0,0.0,0.0,0.0,0.0,0.0,0.0,0.0,1.645509958267212,-3.1083175021470755,0.23767963328187935,-3.054607453554452,-0.00250168121419847,0.0068466453813016415,0.0
105,5,-3.903908236679854e-06,-0.00011959610128542408,-0.00016753855743445456,0.004292599856853485,0.007972517050802708,0.010125712491571903,0.0,0.0,0.0,0.0,0.0,0.0,0.0,0.0,0.0,-0.0038924834225326777,-0.0008435568306595087,-0.0,0.0,0.0,0.0,0.0,0.0,0.0,0.0,0.0,0.0,0.0,0.0,0.0,0.0,0.0,0.0,0.0,0.0,0.0,0.0,0.0,0.0,0.0,1.6594210863113403,0.01896848184485729,-0.5719284583465413,-3.1246799239758762,0.0033730247523635626,-0.01197264064103365,-0.0
110,5,-4.720016875126021e-07,-0.000120947377581615,-0.00018230642308481038,0.002128868829458952,0.0033511598594486713,0.005822429899126291,0.0,0.0,0.0,0.0,0.0,0.0,0.0,0.0,0.0,-0.0038924834225326777,-0.0008435568306595087,-0.0,0.0,0.0,0.0,0.0,0.0,0.0,0.0,0.0,0.0,0.0,0.0,0.0,0.0,0.0,0.0,0.0,0.0,0.0,0.0,0.0,0.0,0.0,1.6594210863113403,0.019251488997783985,-0.5720287056819773,-3.1244732959524737,0.0033730247523635626,-0.01197264064103365,-0.0
115,5,-5.2894415603077505e-06,-0.00012657312618102878,-0.0001686107716523111,0.00027345470152795315,0.002015553880482912,0.0006854928215034306,0.0,0.0,0.0,0.0,0.0,0.0,0.0,0.0,0.0,-0.004277599509805441,0.0019832178950309753,-0.0,0.0,0.0,0.0,0.0,0.0,0.0,0.0,0.0,0.0,0.0,0.0,0.0,0.0,0.0,0.0,0.0,0.0,0.0,0.0,0.0,0.0,0.0,1.6674991846084595,0.019329405281484857,-0.5712920135223476,-3.12457613277116,-0.007968631573021412,-0.01322123222053051,0.0
120,5,-3.266022986281314e-06,-0.00012401471030898392,-0.00015192055434454232,0.0003521921462379396,0.0004992107860744,-0.0017286285292357206,0.0,0.0,0.0,0.0,0.0,0.0,0.0,0.0,0.0,-0.004277599509805441,0.0019832178950309753,-0.0,0.0,0.0,0.0,0.0,0.0,0.0,0.0,0.0,0.0,0.0,0.0,0.0,0.0,0.0,0.0,0.0,0.0,0.0,0.0,0.0,0.0,0.0,1.6674991846084595,0.019453630557363776,-0.5714741936372421,-3.1246109256237715,-0.007968631573021412,-0.01322123222053051,0.0
125,5,-8.144265279952378e-07,-0.00013027491513639688,-0.00015736094792373478,0.0004350684175733477,0.0009509089286439121,-3.8604172004852444e-05,0.0,0.0,0.0,0.0,0.0,0.0,0.0,0.0,0.0,-0.0008401291561312973,0.0003279160591773689,-0.0,0.0,0.0,0.0,0.0,0.0,0.0,0.0,0.0,0.0,0.0,0.0,0.0,0.0,0.0,0.0,0.0,0.0,0.0,0.0,0.0,0.0,0.0,1.633488655090332,0.01926512666323172,-0.5718334686737699,-3.1246346883008815,-0.0012907155323773623,-0.0025437278673052788,0.0
130,5,-5.639223218167899e-06,-0.00014454309712164104,-0.0001392675912939012,-0.0004049482522532344,0.00209254608489573,-0.0021866450551897287,0.0,0.0,0.0,0.0,0.0,0.0,0.0,0.0,0.0,-0.0008401291561312973,0.0003279160591773689,-0.0,0.0,0.0,0.0,0.0,0.0,0.0,0.0,0.0,0.0,0.0,0.0,0.0,0.0,0.0,0.0,0.0,0.0,0.0,0.0,0.0,0.0,0.0,1.633488655090332,0.018948024498930682,-0.5719766922462921,-3.1245659313986676,-0.0012907155323773623,-0.0025437278673052788,0.0
135,5,-7.850810106901918e-06,-0.0001441945496480912,-0.0001356450520688668,-0.00042736975592561066,0.0007951925508677959,-0.001309361308813095,0.0,0.0,0.0,0.0,0.0,0.0,0.0,0.0,0.0,-0.0028232771437615156,-0.00039289009873755276,-0.0,0.0,0.0,0.0,0.0,0.0,0.0,0.0,0.0,0.0,0.0,0.0,0.0,0.0,0.0,0.0,0.0,0.0,0.0,0.0,0.0,0.0,0.0,1.649520754814148,0.019444218485995843,-0.5720114993100248,-3.1242824926527883,0.001561633194796741,-0.008632146753370762,0.0
140,5,-1.537502248538658e-05,-0.00013439636677503586,-0.00011437405919423327,-0.0010738533455878496,-0.0008577045518904924,-0.003076264401897788,0.0,0.0,0.0,0.0,0.0,0.0,0.0,0.0,0.0,-0.0028232771437615156,-0.00039289009873755276,-0.0,0.0,0.0,0.0,0.0,0.0,0.0,0.0,0.0,0.0,0.0,0.0,0.0,0.0,0.0,0.0,0.0,0.0,0.0,0.0,0.0,0.0,0.0,1.649520754814148,0.019841631977133733,-0.5725558047505614,-3.1237610223173427,0.001561633194796741,-0.008632146753370762,0.0
145,5,-1.0235782610834576e-05,-0.00012063555914210156,-0.00012687701382674277,0.0001871674758149311,-0.0019943793304264545,0.0002698491734918207,0.0,0.0,0.0,0.0,0.0,0.0,0.0,0.0,0.0,0.000818604021333158,-0.0010442370548844337,-0.0,0.0,0.0,0.0,0.0,0.0,0.0,0.0,0.0,0.0,0.0,0.0,0.0,0.0,0.0,0.0,0.0,0.0,0.0,0.0,0.0,0.0,0.0,1.638810396194458,0.020530404745705166,-0.5733656621622542,-3.1231181662074374,0.00412362813949585,0.0024866294115781784,0.0
150,5,4.503826858126558e-06,-9.57792581175454e-05,-0.00014465399726759642,0.001843620091676712,-0.003780507715418935,0.002241177251562476,0.0,0.0,0.0,0.0,0.0,0.0,0.0,0.0,0.0,0.000818604021333158,-0.0010442370548844337,-0.0,0.0,0.0,0.0,0.0,0.0,0.0,0.0,0.0,0.0,0.0,0.0,0.0,0.0,0.0,0.0,0.0,0.0,0.0,0.0,0.0,0.0,0.0,1.638810396194458,0.021982847588727792,-0.5747293617550979,-3.122336453063826,0.00412362813949585,0.0024866294115781784,0.0
155,5,1.4969594303693157e-05,-7.109164289431646e-05,-0.0001351364335278049,0.0019933402072638273,-0.004474716726690531,-0.0002456371148582548,0.0,0.0,0.0,0.0,0.0,0.0,0.0,0.0,0.0,0.004420171026140451,0.0017241312889382243,-0.0,0.0,0.0,0.0,0.0,0.0,0.0,0.0,0.0,0.0,0.0,0.0,0.0,0.0,0.0,0.0,0.0,0.0,0.0,0.0,0.0,0.0,0.0,1.6671711206436157,0.022763207001378002,-0.5763494594338616,-3.121637657007192,-0.006926246918737888,0.013659199699759483,0.0
160,5,2.5472034394624643e-05,-5.151477307663299e-05,-0.00013185205170884728,0.0020576289389282465,-0.004139110911637545,-0.0004923801170662045,0.0,0.0,0.0,0.0,0.0,0.0,0.0,0.0,0.0,0.004420171026140451,0.0017241312889382243,-0.0,0.0,0.0,0.0,0.0,0.0,0.0,0.0,0.0,0.0,0.0,0.0,0.0,0.0,0.0,0.0,0.0,0.0,0.0,0.0,0.0,0.0,0.0,1.6671711206436157,0.024106764609409456,-0.5781051117168123,-3.120791980617905,-0.006926246918737888,0.013659199699759483,0.0
166,5,3.1108833354664966e-05,-3.673911123769358e-05,-0.00011094842193415388,0.0014994676457718015,-0.003428723895922303,-0.0027053875382989645,0.0,0.0,0.0,0.0,0.0,0.0,0.0,0.0,0.0,0.004919528029859066,0.001946881995536387,-0.0,0.0,0.0,0.0,0.0,0.0,0.0,0.0,0.0,0.0,0.0,0.0,0.0,0.0,0.0,0.0,0.0,0.0,0.0,0.0,0.0,0.0,0.0,1.6721001863479614,0.025098337653112986,-0.5789378733754279,-3.1199508096483557,-0.00784419383853674,0.015247236005961895,0.0
171,5,3.369025944266468e-05,-3.0877654353389516e-05,-9.015501564135775e-05,0.0009095577988773584,-0.002074864227324724,-0.0035773643758147955,0.0,0.0,0.0,0.0,0.0,0.0,0.0,0.0,0.0,0.004919528029859066,0.001946881995536387,-0.0,0.0,0.0,0.0,0.0,0.0,0.0,0.0,0.0,0.0,0.0,0.0,0.0,0.0,0.0,0.0,0.0,0.0,0.0,0.0,0.0,0.0,0.0,1.6721001863479614,0.026080110803132335,-0.5798181211367591,-3.1190115070511815,-0.00784419383853674,0.015247236005961895,0.0
176,5,2.7888947442988865e-05,-2.3794998924131505e-05,-6.561286863870919e-05,-0.0003323341952636838,-0.0016798644792288542,-0.004376003053039312,0.0,0.0,0.0,0.0,0.0,0.0,0.0,0.0,0.0,0.00249357963912189,0.0009022771846503019,-0.0,0.0,0.0,0.0,0.0,0.0,0.0,0.0,0.0,0.0,0.0,0.0,0.0,0.0,0.0,0.0,0.0,0.0,0.0,0.0,0.0,0.0,0.0,1.6485695838928223,0.026782915374089777,-0.5801343117104114,-3.118530132529921,-0.0035842456854879856,0.007619707379490137,0.0
181,5,1.3148176549293566e-05,-2.1336043573683128e-05,-4.4855973101221025e-05,-0.0019018261227756739,-0.0009670202853158116,-0.004241228569298983,0.0,0.0,0.0,0.0,0.0,0.0,0.0,0.0,0.0,0.00249357963912189,0.0009022771846503019,-0.0,0.0,0.0,0.0,0.0,0.0,0.0,0.0,0.0,0.0,0.0,0.0,0.0,0.0,0.0,0.0,0.0,0.0,0.0,0.0,0.0,0.0,0.0,1.6485695838928223,0.02671693328108896,-0.5798612533813596,-3.118673254449418,-0.0035842456854879856,0.007619707379490137,0.0
186,5,3.99915825255448e-06,-1.923310264828615e-05,-4.333002652856521e-05,-0.0018586126388981938,-0.000639161211438477,-0.0018796053482219577,0.0,0.0,0.0,0.0,0.0,0.0,0.0,0.0,0.0,0.0011521673295646906,-0.0017816332401707768,-0.0,0.0,0.0,0.0,0.0,0.0,0.0,0.0,0.0,0.0,0.0,0.0,0.0,0.0,0.0,0.0,0.0,0.0,0.0,0.0,0.0,0.0,0.0,1.6471550464630127,0.02643330398450727,-0.5804872473888767,-3.1186633118574307,0.007071379572153091,0.0035176968667656183,0.0
191,5,-5.18144679517718e-06,-1.264354978047777e-05,-1.584988785907626e-05,-0.0018451176583766937,-0.0010464107617735863,-0.0040494585409760475,0.0,0.0,0.0,0.0,0.0,0.0,0.0,0.0,0.0,0.0011521673295646906,-0.0017816332401707768,-0.0,0.0,0.0,0.0,0.0,0.0,0.0,0.0,0.0,0.0,0.0,0.0,0.0,0.0,0.0,0.0,0.0,0.0,0.0,0.0,0.0,0.0,0.0,1.6471550464630127,0.027052731725783857,-0.5800771122670092,-3.118467916884678,0.007071379572153091,0.0035176968667656183,0.0
196,5,-1.0793468391057104e-05,-2.2398023702407954e-06,1.9546537259884644e-06,-0.0014114896766841412,-0.001667013973928988,-0.003756328485906124,0.0,0.0,0.0,0.0,0.0,0.0,0.0,0.0,0.0,0.0012651951983571053,-0.0017532807542011142,-0.0,0.0,0.0,0.0,0.0,0.0,0.0,0.0,0.0,0.0,0.0,0.0,0.0,0.0,0.0,0.0,0.0,0.0,0.0,0.0,0.0,0.0,0.0,1.6473222970962524,0.026422962461540443,-0.5806027238792175,-3.1188512096360355,0.006959553807973862,0.003863175632432103,0.0
201,5,1.4568997357855551e-05,-1.3984452380100265e-05,-3.0827955924905837e-05,0.002478900132700801,0.0007425523945130408,0.0024313819594681263,0.0,0.0,0.0,0.0,0.0,0.0,0.0,0.0,0.0,0.0012651951983571053,-0.0017532807542011142,-0.0,0.0,0.0,0.0,0.0,0.0,0.0,0.0,0.0,0.0,0.0,0.0,0.0,0.0,0.0,0.0,0.0,0.0,0.0,0.0,0.0,0.0,0.0,1.6473222970962524,0.02788223658829135,-0.5817378037327401,-3.1175467069378464,0.006959553807973862,0.003863175632432103,0.0
206,5,1.9436994989519008e-05,-8.568898920202628e-06,-3.995735096395947e-05,0.0015757197979837656,-0.0003528454981278628,0.0020680802408605814,0.0,0.0,0.0,0.0,0.0,0.0,0.0,0.0,0.0,-0.0009315198985859752,0.002352009527385235,-0.0,0.0,0.0,0.0,0.0,0.0,0.0,0.0,0.0,0.0,0.0,0.0,0.0,0.0,0.0,0.0,0.0,0.0,0.0,0.0,0.0,0.0,0.0,1.6522657871246338,0.02778596047528769,-0.5817317733795911,-3.117609201981522,-0.009364191442728043,-0.002852860139682889,0.0
211,5,4.1624443838372827e-05,2.159312998628593e-06,-6.153690628707409e-05,0.0032927817665040493,-0.0014285235665738583,0.0034167782869189978,0.0,0.0,0.0,0.0,0.0,0.0,0.0,0.0,0.0,-0.0009315198985859752,0.002352009527385235,-0.0,0.0,0.0,0.0,0.0,0.0,0.0,0.0,0.0,0.0,0.0,0.0,0.0,0.0,0.0,0.0,0.0,0.0,0.0,0.0,0.0,0.0,0.0,1.6522657871246338,0.027677021636514906,-0.582516656187255,-3.1173372891702686,-0.009364191442728043,-0.002852860139682889,0.0
216,5,4.0464459743816406e-05,5.51647553947987e-06,-6.560933979926631e-05,0.0011779146734625101,-0.0009742689435370266,0.0018554036505520344,0.0,0.0,0.0,0.0,0.0,0.0,0.0,0.0,0.0,0.0017448116559535265,0.00313615333288908,-0.0,0.0,0.0,0.0,0.0,0.0,0.0,0.0,0.0,0.0,0.0,0.0,0.0,0.0,0.0,0.0,0.0,0.0,0.0,0.0,0.0,0.0,0.0,1.662729263305664,0.02829192410933288,-0.5822379954207177,-3.1171135177109726,-0.012565198354423046,0.005377472843974829,0.0
222,5,-0.0035685794427990913,0.003336998401209712,0.008742467500269413,0.0011779146734625101,-0.0009742689435370266,0.0018554036505520344,0.0,0.0,0.0,0.0,0.0,0.0,0.0,0.0,0.0,0.0017448116559535265,0.00313615333288908,-0.0,0.0,0.0,0.0,0.0,0.0,0.0,0.0,0.0,0.0,0.0,0.0,0.0,0.0,0.0,0.0,0.0,0.0,0.0,0.0,0.0,0.0,0.0,1.662729263305664,-3.1093257395432636,0.23519874230270962,-3.0519883912769035,-0.012565198354423046,0.005377472843974829,0.0
227,5,-0.003538351273164153,0.0032355699222534895,0.00865995604544878,0.004098549019545317,0.011781706474721432,0.010643474757671356,0.0,0.0,0.0,0.0,0.0,0.0,0.0,0.0,0.0,0.006999045144766569,-0.0037235552445054054,-0.0,0.0,0.0,0.0,0.0,0.0,0.0,0.0,0.0,0.0,0.0,0.0,0.0,0.0,0.0,0.0,0.0,0.0,0.0,0.0,0.0,0.0,0.0,1.6979330778121948,-3.1076747588727707,0.23753203434622275,-3.0550974437737235,0.015234164893627167,0.022027311846613884,-0.0
232,5,-4.0892800825531594e-06,-0.0001264281163457781,-0.0001542102691018954,0.004098549019545317,0.011781706474721432,0.010643474757671356,0.0,0.0,0.0,0.0,0.0,0.0,0.0,0.0,0.0,0.006999045144766569,-0.0037235552445054054,-0.0,0.0,0.0,0.0,0.0,0.0,0.0,0.0,0.0,0.0,0.0,0.0,0.0,0.0,0.0,0.0,0.0,0.0,0.0,0.0,0.0,0.0,0.0,1.6979330778121948,0.01881689323912905,-0.5720612209769866,-3.1248107906647666,0.015234164893627167,0.022027311846613884,-0.0
237,5,-0.0035756167490035295,0.0033176231663674116,0.008756682276725769,0.004098549019545317,0.011781706474721432,0.010643474757671356,0.0,0.0,0.0,0.0,0.0,0.0,0.0,0.0,0.0,-0.013808142393827438,0.0036284481175243855,-0.0,0.0,0.0,0.0,0.0,0.0,0.0,0.0,0.0,0.0,0.0,0.0,0.0,0.0,0.0,0.0,0.0,0.0,0.0,0.0,0.0,0.0,0.0,1.752711296081543,-3.109221008171021,0.2346493569214049,-3.0520450375327326,-0.015322895720601082,-0.04485688358545303,0.0
242,5,-0.003583354176953435,0.0033146690111607313,0.008780616335570812,0.0007109111174941063,0.005067179445177317,0.0013852756237611175,0.0,0.0,0.0,0.0,0.0,0.0,0.0,0.0,0.0,-0.013808142393827438,0.0036284481175243855,-0.0,0.0,0.0,0.0,0.0,0.0,0.0,0.0,0.0,0.0,0.0,0.0,0.0,0.0,0.0,0.0,0.0,0.0,0.0,0.0,0.0,0.0,0.0,1.752711296081543,-3.1090112510196946,0.2343407137563965,-3.051969586705964,-0.015322895720601082,-0.04485688358545303,0.0
247,5,-0.0035786235239356756,0.0033105758484452963,0.008770814165472984,0.0008520421688444912,0.0025180683005601168,0.0017303675413131714,0.0,0.0,0.0,0.0,0.0,0.0,0.0,0.0,0.0,-0.0002387068816460669,-0.00423929700627923,-0.0,0.0,0.0,0.0,0.0,0.0,0.0,0.0,0.0,0.0,0.0,0.0,0.0,0.0,0.0,0.0,0.0,0.0,0.0,0.0,0.0,0.0,0.0,1.6719536781311035,-3.109201442771188,0.23457179740475606,-3.0521701331750526,0.017079245299100876,-0.0007397716981358826,-0.0
252,5,-0.0035908534191548824,0.003319846000522375,0.00879618152976036,-0.0011267504887655377,-0.00010518461203901097,-0.0023518770467489958,0.0,0.0,0.0,0.0,0.0,0.0,0.0,0.0,0.0,-0.0002387068816460669,-0.00423929700627923,-0.0,0.0,0.0,0.0,0.0,0.0,0.0,0.0,0.0,0.0,0.0,0.0,0.0,0.0,0.0,0.0,0.0,0.0,0.0,0.0,0.0,0.0,0.0,1.6719536781311035,-3.1087767168210716,0.23415531912595944,-3.052495455171468,0.017079245299100876,-0.0007397716981358826,-0.0
257,5,-0.0035496591590344906,0.0032312520779669285,0.008697696030139923,0.004492599051445723,0.010589199140667915,0.010877447202801704,0.0,0.0,0.0,0.0,0.0,0.0,0.0,0.0,0.0,0.005906770005822182,-0.005838457029312849,-0.0,0.0,0.0,0.0,0.0,0.0,0.0,0.0,0.0,0.0,0.0,0.0,0.0,0.0,0.0,0.0,0.0,0.0,0.0,0.0,0.0,0.0,0.0,1.7076961994171143,-3.1072086966921746,0.23750449328116482,-3.0554374926455887,0.024024290964007378,0.018696686252951622,0.0
262,5,-1.557644282002002e-05,-0.0001278523850487545,-0.0001614136854186654,0.004492599051445723,0.010589199140667915,0.010877447202801704,0.0,0.0,0.0,0.0,0.0,0.0,0.0,0.0,0.0,0.005906770005822182,-0.005838457029312849,-0.0,0.0,0.0,0.0,0.0,0.0,0.0,0.0,0.0,0.0,0.0,0.0,0.0,0.0,0.0,0.0,0.0,0.0,0.0,0.0,0.0,0.0,0.0,1.7076961994171143,0.018281212714709776,-0.5720002449245218,-3.1250418715292945,0.024024290964007378,0.018696686252951622,0.0
267,5,-0.0035844994708895683,0.0033459628466516733,0.008740455843508244,0.004492599051445723,0.010589199140667915,0.010877447202801704,0.0,0.0,0.0,0.0,0.0,0.0,0.0,0.0,0.0,-0.012496739625930786,0.003979635890573263,-0.0,0.0,0.0,0.0,0.0,0.0,0.0,0.0,0.0,0.0,0.0,0.0,0.0,0.0,0.0,0.0,0.0,0.0,0.0,0.0,0.0,0.0,0.0,1.7429078817367554,-3.1092342525085708,0.23537680777091394,-3.051986407437004,-0.016712239012122154,-0.04037003964185715,0.0
272,5,-0.0035735336132347584,0.0033369387965649366,0.00872948206961155,0.0015670254360884428,0.002612658077850938,0.0019188905134797096,0.0,0.0,0.0,0.0,0.0,0.0,0.0,0.0,0.0,-0.012496739625930786,0.003979635890573263,-0.0,0.0,0.0,0.0,0.0,0.0,0.0,0.0,0.0,0.0,0.0,0.0,0.0,0.0,0.0,0.0,0.0,0.0,0.0,0.0,0.0,0.0,0.0,1.7429078817367554,-3.109128776831923,0.23514130327246807,-3.052245603645481,-0.016712239012122154,-0.04037003964185715,0.0
277,5,-0.0035735336132347584,0.0033369387965649366,0.00872948206961155,0.0015670254360884428,0.002612658077850938,0.0019188905134797096,0.0,0.0,0.0,0.0,0.0,0.0,0.0,0.0,0.0,0.0027818121016025543,-0.0034396627452224493,-0.0,0.0,0.0,0.0,0.0,0.0,0.0,0.0,0.0,0.0,0.0,0.0,0.0,0.0,0.0,0.0,0.0,0.0,0.0,0.0,0.0,0.0,0.0,1.6698166131973267,-3.109128776831923,0.23514130327246807,-3.052245603645481,0.013839933089911938,0.008610018528997898,-0.0
282,5,-0.0035783015191555023,0.0033299035858362913,0.00876753218472004,-0.00042545906035229564,0.0009473170503042638,-0.003979348111897707,0.0,0.0,0.0,0.0,0.0,0.0,0.0,0.0,0.0,0.0027818121016025543,-0.0034396627452224493,-0.0,0.0,0.0,0.0,0.0,0.0,0.0,0.0,0.0,0.0,0.0,0.0,0.0,0.0,0.0,0.0,0.0,0.0,0.0,0.0,0.0,0.0,0.0,1.6698166131973267,-3.1089821863053557,0.2346893674234243,-3.0523053119023418,0.013839933089911938,0.008610018528997898,-0.0
287,5,-0.003549308283254504,0.003244212828576565,0.008683636784553528,0.003308985847979784,0.010661807842552662,0.008475757203996181,0.0,0.0,0.0,0.0,0.0,0.0,0.0,0.0,0.0,0.004717346280813217,-0.005224965512752533,-0.0,0.0,0.0,0.0,0.0,0.0,0.0,0.0,0.0,0.0,0.0,0.0,0.0,0.0,0.0,0.0,0.0,0.0,0.0,0.0,0.0,0.0,0.0,1.6958189010620117,-3.107305908818611,0.23740851681210245,-3.0552922687997772,0.021350497379899025,0.014828008599579334,0.0
293,5,-1.3566682355303783e-05,-0.00013461221533361822,-0.00015501906455028802,0.003308985847979784,0.010661807842552662,0.008475757203996181,0.0,0.0,0.0,0.0,0.0,0.0,0.0,0.0,0.0,0.004717346280813217,-0.005224965512752533,-0.0,0.0,0.0,0.0,0.0,0.0,0.0,0.0,0.0,0.0,0.0,0.0,0.0,0.0,0.0,0.0,0.0,0.0,0.0,0.0,0.0,0.0,0.0,1.6958189010620117,0.01836666530499706,-0.5716107416907248,-3.125105021756415,0.021350497379899025,0.014828008599579334,0.0
298,5,-1.7787349861464463e-05,-0.0001416724844602868,-0.00014237966388463974,0.0008171143126673996,0.005111956503242254,0.0018735749181360006,0.0,0.0,0.0,0.0,0.0,0.0,0.0,0.0,0.0,-0.0063852244056761265,0.000714382971636951,-0.0,0.0,0.0,0.0,0.0,0.0,0.0,0.0,0.0,0.0,0.0,0.0,0.0,0.0,0.0,0.0,0.0,0.0,0.0,0.0,0.0,0.0,0.0,1.6800185441970825,0.018951571105974802,-0.571657786772097,-3.1246980213023283,-0.0028919328469783068,-0.019883528351783752,0.0
303,5,-1.1866128261317499e-05,-0.0001332945830654353,-0.00014002679381519556,0.0010373921832069755,0.0010394343407824636,0.000467085832497105,0.0,0.0,0.0,0.0,0.0,0.0,0.0,0.0,0.0,-0.0063852244056761265,0.000714382971636951,-0.0,0.0,0.0,0.0,0.0,0.0,0.0,0.0,0.0,0.0,0.0,0.0,0.0,0.0,0.0,0.0,0.0,0.0,0.0,0.0,0.0,0.0,0.0,1.6800185441970825,0.019027899070937226,-0.5722825136238046,-3.1247336894934135,-0.0028919328469783068,-0.019883528351783752,0.0
308,5,-1.5269066352630034e-05,-0.00013848817616235465,-0.0001499152567703277,6.60427076581982e-06,0.0010390054667368531,0.001373449107632041,0.0,0.0,0.0,0.0,0.0,0.0,0.0,0.0,0.0,-0.001512549933977425,-3.386217576917261e-05,-0.0,0.0,0.0,0.0,0.0,0.0,0.0,0.0,0.0,0.0,0.0,0.0,0.0,0.0,0.0,0.0,0.0,0.0,0.0,0.0,0.0,0.0,0.0,1.6382135152816772,0.019597663705607775,-0.57205703638037,-3.124531917968061,0.0001336708664894104,-0.004592915531247854,0.0
313,5,2.0661659050347225e-07,-0.00012508337385952473,-0.00014005045522935688,0.00185972370672971,-0.0011929749744012952,-0.0006343958666548133,0.0,0.0,0.0,0.0,0.0,0.0,0.0,0.0,0.0,-0.001512549933977425,-3.386217576917261e-05,-0.0,0.0,0.0,0.0,0.0,0.0,0.0,0.0,0.0,0.0,0.0,0.0,0.0,0.0,0.0,0.0,0.0,0.0,0.0,0.0,0.0,0.0,0.0,1.6382135152816772,0.01915930096408919,-0.5724039329557935,-3.124548095271983,0.0001336708664894104,-0.004592915531247854,0.0
318,5,5.995333140162984e-06,-0.00012853278894908726,-0.00014378418563865125,0.0014385355170816183,-6.326100992737338e-05,0.00019428912492003292,0.0,0.0,0.0,0.0,0.0,0.0,0.0,0.0,0.0,-0.0001332378451479599,0.0013543226523324847,-0.0,0.0,0.0,0.0,0.0,0.0,0.0,0.0,0.0,0.0,0.0,0.0,0.0,0.0,0.0,0.0,0.0,0.0,0.0,0.0,0.0,0.0,0.0,1.6403082609176636,0.019147005621657356,-0.5725104534207774,-3.124391147822105,-0.00535302609205246,-0.00040509941754862666,0.0
323,5,9.11616825760575e-06,-0.00011974696826655418,-0.00014200458826962858,0.0009499143925495446,-0.0010796022834256291,-0.00013583600230049342,0.0,0.0,0.0,0.0,0.0,0.0,0.0,0.0,0.0,-0.0001332378451479599,0.0013543226523324847,-0.0,0.0,0.0,0.0,0.0,0.0,0.0,0.0,0.0,0.0,0.0,0.0,0.0,0.0,0.0,0.0,0.0,0.0,0.0,0.0,0.0,0.0,0.0,1.6403082609176636,0.01916283639306874,-0.5727938290284854,-3.1243240488443162,-0.00535302609205246,-0.00040509941754862666,0.0
328,5,1.216798773384653e-05,-0.00011360681673977524,-0.00014748536341357976,0.0007461840868927538,-0.0011686589568853378,0.0006033583777025342,0.0,0.0,0.0,0.0,0.0,0.0,0.0,0.0,0.0,0.00125833076890558,0.0007067935657687485,-0.0,0.0,0.0,0.0,0.0,0.0,0.0,0.0,0.0,0.0,0.0,0.0,0.0,0.0,0.0,0.0,0.0,0.0,0.0,0.0,0.0,0.0,0.0,1.6385855674743652,0.01948404921722437,-0.572793706377453,-3.1240404469025673,-0.0027907006442546844,0.003821838181465864,0.0
333,5,4.411913323565386e-06,-0.00010247746104141697,-0.00013110064901411533,-0.0006322552799247205,-0.0018029859056696296,-0.0017248225631192327,0.0,0.0,0.0,0.0,0.0,0.0,0.0,0.0,0.0,0.00125833076890558,0.0007067935657687485,-0.0,0.0,0.0,0.0,0.0,0.0,0.0,0.0,0.0,0.0,0.0,0.0,0.0,0.0,0.0,0.0,0.0,0.0,0.0,0.0,0.0,0.0,0.0,1.6385855674743652,0.020541977187884468,-0.5735902743819004,-3.123305563871863,-0.0027907006442546844,0.003821838181465864,0.0
338,5,4.0259278648591135e-06,-0.00010407150693936273,-0.0001295845431741327,-0.00029922035173512995,-0.0005299090407788754,-0.0008718622848391533,0.0,0.0,0.0,0.0,0.0,0.0,0.0,0.0,0.0,0.0004891297430731356,-0.0002988269261550158,-0.0,0.0,0.0,0.0,0.0,0.0,0.0,0.0,0.0,0.0,0.0,0.0,0.0,0.0,0.0,0.0,0.0,0.0,0.0,0.0,0.0,0.0,0.0,1.6308718919754028,0.021825406834369634,-0.5746368263331794,-3.1224267874178278,0.0011743333889171481,0.001478605903685093,0.0
343,5,-3.3039675599866314e-06,-8.28976699267514e-05,-0.00010584970004856586,-0.0009992755949497223,-0.0027528239879757166,-0.0031969258561730385,0.0,0.0,0.0,0.0,0.0,0.0,0.0,0.0,0.0,0.0004891297430731356,-0.0002988269261550158,-0.0,0.0,0.0,0.0,0.0,0.0,0.0,0.0,0.0,0.0,0.0,0.0,0.0,0.0,0.0,0.0,0.0,0.0,0.0,0.0,0.0,0.0,0.0,1.6308718919754028,0.02263599916929167,-0.576131040440453,-3.1219631494387543,0.0011743333889171481,0.001478605903685093,0.0
349,5,8.05821855465183e-06,-6.489727820735425e-05,-8.510508632753044e-05,0.0009637520415708423,-0.0032611768692731857,-0.003768123686313629,0.0,0.0,0.0,0.0,0.0,0.0,0.0,0.0,0.0,0.0038804500363767147,0.0008962894207797945,-0.0,0.0,0.0,0.0,0.0,0.0,0.0,0.0,0.0,0.0,0.0,0.0,0.0,0.0,0.0,0.0,0.0,0.0,0.0,0.0,0.0,0.0,0.0,1.6594854593276978,0.02351340778177466,-0.5777978384673981,-3.1211263825542286,-0.0035840189084410667,0.011936090886592865,0.0
354,5,9.15260625333758e-06,-4.493950109463185e-05,-8.789253479335457e-05,0.0005168273928575218,-0.0036994037218391895,-0.0011727554956451058,0.0,0.0,0.0,0.0,0.0,0.0,0.0,0.0,0.0,0.0038804500363767147,0.0008962894207797945,-0.0,0.0,0.0,0.0,0.0,0.0,0.0,0.0,0.0,0.0,0.0,0.0,0.0,0.0,0.0,0.0,0.0,0.0,0.0,0.0,0.0,0.0,0.0,1.6594854593276978,0.025057241259179058,-0.5788046177382503,-3.1200863249535367,-0.0035840189084410667,0.011936090886592865,0.0
359,5,1.0857332199520897e-05,-3.8003101508365944e-05,-7.589111919514835e-05,0.0004112980386707932,-0.002312129596248269,-0.0019092722795903683,0.0,0.0,0.0,0.0,0.0,0.0,0.0,0.0,0.0,0.002788726007565856,0.00038443555240519345,-0.0,0.0,0.0,0.0,0.0,0.0,0.0,0.0,0.0,0.0,0.0,0.0,0.0,0.0,0.0,0.0,0.0,0.0,0.0,0.0,0.0,0.0,0.0,1.649219274520874,0.02595115710154336,-0.5792604558493337,-3.1192472504316666,-0.001527749584056437,0.008524948731064796,0.0
364,5,1.4726108929608017e-05,-3.43873180099763e-05,-6.851476791780442e-05,0.0006287724245339632,-0.0013587456196546555,-0.0016488715773448348,0.0,0.0,0.0,0.0,0.0,0.0,0.0,0.0,0.0,0.002788726007565856,0.00038443555240519345,-0.0,0.0,0.0,0.0,0.0,0.0,0.0,0.0,0.0,0.0,0.0,0.0,0.0,0.0,0.0,0.0,0.0,0.0,0.0,0.0,0.0,0.0,0.0,1.649219274520874,0.02646976997075402,-0.5800219005061199,-3.1186577691359965,-0.001527749584056437,0.008524948731064796,0.0
369,5,1.998843436012976e-05,-1.8469654605723917e-05,-6.328082963591442e-05,0.0008829880389384925,-0.002453617984429002,-0.0012876206310465932,0.0,0.0,0.0,0.0,0.0,0.0,0.0,0.0,0.0,0.002788726007565856,0.00038443555240519345,-0.0,0.0,0.0,0.0,0.0,0.0,0.0,0.0,0.0,0.0,0.0,0.0,0.0,0.0,0.0,0.0,0.0,0.0,0.0,0.0,0.0,0.0,0.0,1.6521763801574707,0.02717940370548254,-0.5800016950099276,-3.11815791638736,-0.0033468781039118767,0.009162900038063526,0.0
374,5,3.663083407445811e-05,-1.6862511984072626e-05,-5.962302384432405e-05,0.0023502830881625414,-0.0011743044015020132,-0.0009539852035231888,0.0,0.0,0.0,0.0,0.0,0.0,0.0,0.0,0.0,0.0029920521192252636,0.0008406855631619692,-0.0,0.0,0.0,0.0,0.0,0.0,0.0,0.0,0.0,0.0,0.0,0.0,0.0,0.0,0.0,0.0,0.0,0.0,0.0,0.0,0.0,0.0,0.0,1.6521763801574707,0.02745894912030117,-0.5815027201398479,-3.117957248854957,-0.0033468781039118767,0.009162900038063526,0.0
379,5,4.2478797695366666e-05,-4.535409516392974e-06,-5.507366222445853e-05,0.0016418688464909792,-0.001948973978869617,-0.0009275174816139042,0.0,0.0,0.0,0.0,0.0,0.0,0.0,0.0,0.0,0.0029920521192252636,0.0008406855631619692,-0.0,0.0,0.0,0.0,0.0,0.0,0.0,0.0,0.0,0.0,0.0,0.0,0.0,0.0,0.0,0.0,0.0,0.0,0.0,0.0,0.0,0.0,0.0,1.6521763801574707,0.027591347529967447,-0.5817710173616191,-3.1178220108073487,-0.0033468781039118767,0.009162900038063526,0.0
384,5,4.2671788833104074e-05,-1.2930770481034415e-06,-5.1550956413848326e-05,0.000679906690493226,-0.0011686694342643023,-0.000793731480371207,0.0,0.0,0.0,0.0,0.0,0.0,0.0,0.0,0.0,0.002399381250143051,0.0015867867041379213,-0.0,0.0,0.0,0.0,0.0,0.0,0.0,0.0,0.0,0.0,0.0,0.0,0.0,0.0,0.0,0.0,0.0,0.0,0.0,0.0,0.0,0.0,0.0,1.6519972085952759,0.028231052412144828,-0.5816723566480471,-3.1175612882977535,-0.006316526792943478,0.007347107399255037,0.0
389,5,4.391868060338311e-05,-7.87893895903835e-06,-6.017632404109463e-05,0.00042158967698924243,0.000322835665429011,0.0007175512728281319,0.0,0.0,0.0,0.0,0.0,0.0,0.0,0.0,0.0,0.002399381250143051,0.0015867867041379213,-0.0,0.0,0.0,0.0,0.0,0.0,0.0,0.0,0.0,0.0,0.0,0.0,0.0,0.0,0.0,0.0,0.0,0.0,0.0,0.0,0.0,0.0,0.0,1.6519972085952759,0.02791438678481784,-0.5818866971876729,-3.1173921935503763,-0.006316526792943478,0.007347107399255037,0.0
394,5,2.1608060706057586e-05,-2.0401934307301417e-05,-4.021867789560929e-05,-0.002508638659492135,0.0016318936832249165,-0.0021078968420624733,0.0,0.0,0.0,0.0,0.0,0.0,0.0,0.0,0.0,-0.0003937058208975941,0.0004447776300366968,-0.0,0.0,0.0,0.0,0.0,0.0,0.0,0.0,0.0,0.0,0.0,0.0,0.0,0.0,0.0,0.0,0.0,0.0,0.0,0.0,0.0,0.0,0.0,1.631488561630249,0.02811128264738972,-0.5816362927511076,-3.11726299636409,-0.0017485530115664005,-0.00119059591088444,0.0
399,5,2.811322337947786e-05,-2.871389006031677e-05,-2.9599133995361626e-05,-0.00022283602447714657,0.0016501921927556396,-0.002117504132911563,0.0,0.0,0.0,0.0,0.0,0.0,0.0,0.0,0.0,-0.0003937058208975941,0.0004447776300366968,-0.0,0.0,0.0,0.0,0.0,0.0,0.0,0.0,0.0,0.0,0.0,0.0,0.0,0.0,0.0,0.0,0.0,0.0,0.0,0.0,0.0,0.0,0.0,1.631488561630249,0.027200818019350564,-0.5813678615619895,-3.1174248231376263,-0.0017485530115664005,-0.00119059591088444,0.0
405,5,2.4446793759125285e-05,-2.47510561166564e-05,-3.185834430041723e-05,-0.0005291058332659304,0.00018453672237228602,-0.0005758964689448476,0.0,0.0,0.0,0.0,0.0,0.0,0.0,0.0,0.0,-0.002063180087134242,-0.00019068246183451265,-0.0,0.0,0.0,0.0,0.0,0.0,0.0,0.0,0.0,0.0,0.0,0.0,0.0,0.0,0.0,0.0,0.0,0.0,0.0,0.0,0.0,0.0,0.0,1.6429083347320557,0.02767315094520644,-0.5817530900751747,-3.117314586720869,0.0007548750145360827,-0.006282875780016184,0.0
410,5,1.894205342978239e-05,-1.9677861928357743e-05,-1.6363188478862867e-05,-0.0008722111233510077,-0.0005349685088731349,-0.0020897770300507545,0.0,0.0,0.0,0.0,0.0,0.0,0.0,0.0,0.0,-0.002063180087134242,-0.00019068246183451265,-0.0,0.0,0.0,0.0,0.0,0.0,0.0,0.0,0.0,0.0,0.0,0.0,0.0,0.0,0.0,0.0,0.0,0.0,0.0,0.0,0.0,0.0,0.0,1.6429083347320557,0.028195730402156078,-0.5816334719979299,-3.117269789947084,0.0007548750145360827,-0.006282875780016184,0.0
415,5,3.048360849788878e-05,-1.0645923794072587e-05,-3.325093348394148e-05,0.0010361020686104894,-0.0012978200102224946,0.0011906186118721962,0.0,0.0,0.0,0.0,0.0,0.0,0.0,0.0,0.0,0.000646699802018702,-0.0008219736046157777,-0.0,0.0,0.0,0.0,0.0,0.0,0.0,0.0,0.0,0.0,0.0,0.0,0.0,0.0,0.0,0.0,0.0,0.0,0.0,0.0,0.0,0.0,0.0,1.636024832725525,0.02804536681830523,-0.5818439486474787,-3.1175255361141385,0.003240406746044755,0.001961106201633811,0.0
420,5,2.3251486709341407e-05,1.3452165603666799e-08,-4.3215430196141824e-05,-0.00045341369695961475,-0.0017982531571760774,0.0016719867708161473,0.0,0.0,0.0,0.0,0.0,0.0,0.0,0.0,0.0,0.000646699802018702,-0.0008219736046157777,-0.0,0.0,0.0,0.0,0.0,0.0,0.0,0.0,0.0,0.0,0.0,0.0,0.0,0.0,0.0,0.0,0.0,0.0,0.0,0.0,0.0,0.0,0.0,1.636024832725525,0.02783622097697677,-0.5819290853328891,-3.117712390354064,0.003240406746044755,0.001961106201633811,0.0
425,5,2.4897988623706624e-05,3.9944657146406826e-06,-5.481900370796211e-05,1.6214753486565314e-05,-0.0011970229679718614,0.0020612236112356186,0.0,0.0,0.0,0.0,0.0,0.0,0.0,0.0,0.0,0.0022327208425849676,-0.0004153538029640913,-0.0,0.0,0.0,0.0,0.0,0.0,0.0,0.0,0.0,0.0,0.0,0.0,0.0,0.0,0.0,0.0,0.0,0.0,0.0,0.0,0.0,0.0,0.0,1.6447350978851318,0.02832705475662658,-0.5821476513308312,-3.1173540555490433,0.0016461331397294998,0.006806726101785898,0.0
430,5,1.7864207620732486e-05,2.5408471628907137e-06,-4.7645346057834104e-05,-0.000837567902635783,-0.00030437493114732206,-3.634965105447918e-05,0.0,0.0,0.0,0.0,0.0,0.0,0.0,0.0,0.0,0.0022327208425849676,-0.0004153538029640913,-0.0,0.0,0.0,0.0,0.0,0.0,0.0,0.0,0.0,0.0,0.0,0.0,0.0,0.0,0.0,0.0,0.0,0.0,0.0,0.0,0.0,0.0,0.0,1.6447350978851318,0.02830159048240751,-0.5819111745287903,-3.1172674958255833,0.0016461331397294998,0.006806726101785898,0.0
435,5,2.6489828087505884e-05,6.115896212577354e-06,-5.361833973438479e-05,0.0007000472396612167,-0.0005507558234967291,0.0007022194331511855,0.0,0.0,0.0,0.0,0.0,0.0,0.0,0.0,0.0,0.0004021406639367342,-0.0007910658023320138,-0.0,0.0,0.0,0.0,0.0,0.0,0.0,0.0,0.0,0.0,0.0,0.0,0.0,0.0,0.0,0.0,0.0,0.0,0.0,0.0,0.0,0.0,0.0,1.6348273754119873,0.028317246176975567,-0.5819291893229286,-3.1172936783489074,0.0031162789091467857,0.001218592282384634,0.0
440,5,2.3448888896382414e-05,-4.023275323561393e-06,-6.230179860722274e-05,-8.48938143462874e-05,0.0009963982738554478,0.0013229033211246133,0.0,0.0,0.0,0.0,0.0,0.0,0.0,0.0,0.0,0.0004021406639367342,-0.0007910658023320138,-0.0,0.0,0.0,0.0,0.0,0.0,0.0,0.0,0.0,0.0,0.0,0.0,0.0,0.0,0.0,0.0,0.0,0.0,0.0,0.0,0.0,0.0,0.0,1.6348273754119873,0.02804798621774621,-0.5818058901049261,-3.117228898272478,0.0031162789091467857,0.001218592282384634,0.0
445,5,3.617387847043574e-05,-9.075050911633298e-06,-5.933288412052207e-05,0.0014930414035916328,0.0010047723772004247,0.00017289120296481997,0.0,0.0,0.0,0.0,0.0,0.0,0.0,0.0,0.0,-0.0012187807587906718,-6.671089067822322e-05,-0.0,0.0,0.0,0.0,0.0,0.0,0.0,0.0,0.0,0.0,0.0,0.0,0.0,0.0,0.0,0.0,0.0,0.0,0.0,0.0,0.0,0.0,0.0,1.6358004808425903,0.027416669786677547,-0.5822224379262004,-3.1175578949333658,0.0002629533119034022,-0.003695423947647214,0.0
450,5,3.588080653571524e-05,-8.457968760922085e-06,-6.72518290230073e-05,0.00056204799329862,0.0003278591320849955,0.0010194299975410104,0.0,0.0,0.0,0.0,0.0,0.0,0.0,0.0,0.0,-0.0012187807587906718,-6.671089067822322e-05,-0.0,0.0,0.0,0.0,0.0,0.0,0.0,0.0,0.0,0.0,0.0,0.0,0.0,0.0,0.0,0.0,0.0,0.0,0.0,0.0,0.0,0.0,0.0,1.6358004808425903,0.027535594609721395,-0.5821630148863383,-3.117551677611273,0.0002629533119034022,-0.003695423947647214,0.0
455,5,2.9163380531826988e-05,-9.056653652805835e-06,-5.396834239945747e-05,-0.0005812720628455281,0.00020298577146604657,-0.0011862466344609857,0.0,0.0,0.0,0.0,0.0,0.0,0.0,0.0,0.0,-0.0004007727839052677,0.0005672440747730434,-0.0,0.0,0.0,0.0,0.0,0.0,0.0,0.0,0.0,0.0,0.0,0.0,0.0,0.0,0.0,0.0,0.0,0.0,0.0,0.0,0.0,0.0,0.0,1.6326403617858887,0.027642388132232295,-0.5819422179278397,-3.117557717869278,-0.0022315795067697763,-0.0012128226226195693,0.0
460,5,2.887027949327603e-05,-1.7934127754415385e-05,-3.616494723246433e-05,-0.0002676810254342854,0.0011464912677183747,-0.0026109060272574425,0.0,0.0,0.0,0.0,0.0,0.0,0.0,0.0,0.0,-0.0004007727839052677,0.0005672440747730434,-0.0,0.0,0.0,0.0,0.0,0.0,0.0,0.0,0.0,0.0,0.0,0.0,0.0,0.0,0.0,0.0,0.0,0.0,0.0,0.0,0.0,0.0,0.0,1.6326403617858887,0.027635956070515378,-0.5821586798396984,-3.1174007417142544,-0.0022315795067697763,-0.0012128226226195693,0.0
465,5,2.9129589165677316e-05,-9.512701581115834e-06,-4.748365608975291e-05,-7.59552713134326e-05,-0.0005519746337085962,0.0003138829779345542,0.0,0.0,0.0,0.0,0.0,0.0,0.0,0.0,0.0,-0.0014279581373557448,-0.00023270686506293714,-0.0,0.0,0.0,0.0,0.0,0.0,0.0,0.0,0.0,0.0,0.0,0.0,0.0,0.0,0.0,0.0,0.0,0.0,0.0,0.0,0.0,0.0,0.0,1.6377695798873901,0.02804227170021727,-0.5817183305259589,-3.117251924376497,0.0009183610673062503,-0.004334874916821718,0.0
471,5,1.9299301129649393e-05,-1.3281420251587406e-05,-1.6627027434878983e-05,-0.0012100166641175747,0.0002314563316758722,-0.003577242372557521,0.0,0.0,0.0,0.0,0.0,0.0,0.0,0.0,0.0,-0.0014279581373557448,-0.00023270686506293714,-0.0,0.0,0.0,0.0,0.0,0.0,0.0,0.0,0.0,0.0,0.0,0.0,0.0,0.0,0.0,0.0,0.0,0.0,0.0,0.0,0.0,0.0,0.0,1.6377695798873901,0.02704535049580168,-0.5817200224488215,-3.1176799112075995,0.0009183610673062503,-0.004334874916821718,0.0
476,5,1.886145764729008e-05,-1.7468544683652e-05,-4.111632733838633e-05,-0.0005365478573367,0.0005950375343672931,0.0015078189317137003,0.0,0.0,0.0,0.0,0.0,0.0,0.0,0.0,0.0,-0.0002891312469728291,-0.0011411610757932067,-0.0,0.0,0.0,0.0,0.0,0.0,0.0,0.0,0.0,0.0,0.0,0.0,0.0,0.0,0.0,0.0,0.0,0.0,0.0,0.0,0.0,0.0,0.0,1.6381981372833252,0.027631599615479716,-0.581714548398358,-3.1172039177015294,0.004504692740738392,-0.0008779503987170756,0.0
481,5,2.156815207854379e-05,-1.4059324712434318e-05,-4.2850868339883164e-05,0.0001101842281059362,-0.000171091451193206,0.0008112725918181241,0.0,0.0,0.0,0.0,0.0,0.0,0.0,0.0,0.0,-0.0002891312469728291,-0.0011411610757932067,-0.0,0.0,0.0,0.0,0.0,0.0,0.0,0.0,0.0,0.0,0.0,0.0,0.0,0.0,0.0,0.0,0.0,0.0,0.0,0.0,0.0,0.0,0.0,1.6381981372833252,0.02817908394118968,-0.581878373720859,-3.11715597231588,0.004504692740738392,-0.0008779503987170756,0.0
486,5,3.098984234384261e-05,-3.7796937704115408e-06,-4.894509766018018e-05,0.0011746763484552503,-0.001301992335356772,0.0010558164212852716,0.0,0.0,0.0,0.0,0.0,0.0,0.0,0.0,0.0,0.0002078131801681593,0.00011687435471685603,-0.0,0.0,0.0,0.0,0.0,0.0,0.0,0.0,0.0,0.0,0.0,0.0,0.0,0.0,0.0,0.0,0.0,0.0,0.0,0.0,0.0,0.0,0.0,1.6284600496292114,0.02796506375505595,-0.5823684664174034,-3.1174733795007765,-0.00045861495891585946,0.0006272760801948607,0.0
491,5,2.338715421501547e-05,-6.948573627596488e-06,-5.076823799754493e-05,-0.00044245197204872966,-0.00014053130871616304,0.0006411036592908204,0.0,0.0,0.0,0.0,0.0,0.0,0.0,0.0,0.0,0.0002078131801681593,0.00011687435471685603,-0.0,0.0,0.0,0.0,0.0,0.0,0.0,0.0,0.0,0.0,0.0,0.0,0.0,0.0,0.0,0.0,0.0,0.0,0.0,0.0,0.0,0.0,0.0,1.6284600496292114,0.028073069909799197,-0.5824460621309469,-3.1173240447501316,-0.00045861495891585946,0.0006272760801948607,0.0
496,5,3.1686962756793946e-05,-3.0450185022345977e-06,-5.031320688431151e-05,0.000818996166344732,-0.0005246391519904137,0.00020183759625069797,0.0,0.0,0.0,0.0,0.0,0.0,0.0,0.0,0.0,0.0001825833460316062,-0.0004082124214619398,-0.0,0.0,0.0,0.0,0.0,0.0,0.0,0.0,0.0,0.0,0.0,0.0,0.0,0.0,0.0,0.0,0.0,0.0,0.0,0.0,0.0,0.0,0.0,1.63034987449646,0.028640388898567203,-0.5828861927446257,-3.1172670682761625,0.001603684388101101,0.0005517603713087738,0.0
501,5,2.8758762709912844e-05,-4.632986474462086e-06,-4.952175368089229e-05,-2.3785421944921836e-05,-1.9299506675451994e-05,-1.4239413758332375e-05,0.0,0.0,0.0,0.0,0.0,0.0,0.0,0.0,0.0,0.0001825833460316062,-0.0004082124214619398,-0.0,0.0,0.0,0.0,0.0,0.0,0.0,0.0,0.0,0.0,0.0,0.0,0.0,0.0,0.0,0.0,0.0,0.0,0.0,0.0,0.0,0.0,0.0,1.63034987449646,0.02822329371960997,-0.5817526332292742,-3.1172733978848433,0.001603684388101101,0.0005517603713087738,0.0
506,5,1.960091685759835e-05,-8.442076250503305e-06,-2.460676296323072e-05,-0.0011084555881097913,0.00044937097118236125,-0.002995494520291686,0.0,0.0,0.0,0.0,0.0,0.0,0.0,0.0,0.0,3.6396231735125184e-05,-1.0296521395503078e-06,-0.0,0.0,0.0,0.0,0.0,0.0,0.0,0.0,0.0,0.0,0.0,0.0,0.0,0.0,0.0,0.0,0.0,0.0,0.0,0.0,0.0,0.0,0.0,1.6284600496292114,0.027494428170506565,-0.5813612667530078,-3.117643804863636,4.0403551793133374e-06,0.00010986062989104539,0.0
511,5,3.1801257136976346e-05,-1.0041264431492891e-05,-4.1290604713140056e-05,0.00102065852843225,0.0003716509381774813,0.0008038632804527879,0.0,0.0,0.0,0.0,0.0,0.0,0.0,0.0,0.0,3.6396231735125184e-05,-1.0296521395503078e-06,-0.0,0.0,0.0,0.0,0.0,0.0,0.0,0.0,0.0,0.0,0.0,0.0,0.0,0.0,0.0,0.0,0.0,0.0,0.0,0.0,0.0,0.0,0.0,1.6284600496292114,0.02775901952546728,-0.5818955379116988,-3.1173518750758085,4.0403551793133374e-06,0.00010986062989104539,0.0
516,5,1.9735363821382634e-05,-6.321436558209825e-06,-3.938515146728605e-05,-0.001039643888361752,-0.00029771897243335843,9.289062290918082e-05,0.0,0.0,0.0,0.0,0.0,0.0,0.0,0.0,0.0,-0.00045675906585529447,0.0009961379691958427,-0.0,0.0,0.0,0.0,0.0,0.0,0.0,0.0,0.0,0.0,0.0,0.0,0.0,0.0,0.0,0.0,0.0,0.0,0.0,0.0,0.0,0.0,0.0,1.6370524168014526,0.027582931760731358,-0.5814974938116018,-3.1176744550684794,-0.003929469268769026,-0.001385984243825078,0.0
522,5,1.9073944713454694e-05,-6.0210491028556135e-06,-4.609646202879958e-05,-0.0004952277522534132,-0.00015513408288825303,0.0008425135747529566,0.0,0.0,0.0,0.0,0.0,0.0,0.0,0.0,0.0,-0.00045675906585529447,0.0009961379691958427,-0.0,0.0,0.0,0.0,0.0,0.0,0.0,0.0,0.0,0.0,0.0,0.0,0.0,0.0,0.0,0.0,0.0,0.0,0.0,0.0,0.0,0.0,0.0,1.6370524168014526,0.02754337640549734,-0.5816135310317886,-3.1177590451247936,-0.003929469268769026,-0.001385984243825078,0.0
527,5,2.6066658392664976e-05,-7.363682925642934e-06,-4.128880027565174e-05,0.0006410345085896552,9.906241757562384e-05,-0.00023991380294319242,0.0,0.0,0.0,0.0,0.0,0.0,0.0,0.0,0.0,-0.00011535884550539777,0.0006290169549174607,-0.0,0.0,0.0,0.0,0.0,0.0,0.0,0.0,0.0,0.0,0.0,0.0,0.0,0.0,0.0,0.0,0.0,0.0,0.0,0.0,0.0,0.0,0.0,1.6325292587280273,0.028124801051670267,-0.5819007134002993,-3.117587567532112,-0.002474430250003934,-0.0003490763483569026,0.0
532,5,2.7271677026874386e-05,-1.3932378351455554e-05,-4.118448487133719e-05,0.0004010159755125642,0.0008278684690594673,-0.00010848326201085001,0.0,0.0,0.0,0.0,0.0,0.0,0.0,0.0,0.0,-0.00011535884550539777,0.0006290169549174607,-0.0,0.0,0.0,0.0,0.0,0.0,0.0,0.0,0.0,0.0,0.0,0.0,0.0,0.0,0.0,0.0,0.0,0.0,0.0,0.0,0.0,0.0,0.0,1.6325292587280273,0.027617009654254194,-0.5821229002989892,-3.1174115621450746,-0.002474430250003934,-0.0003490763483569026,0.0
537,5,-0.003574599511921406,0.0033321776427328587,0.008763576857745647,0.0004010159755125642,0.0008278684690594673,-0.00010848326201085001,0.0,0.0,0.0,0.0,0.0,0.0,0.0,0.0,0.0,0.004883416462689638,-0.004479654133319855,-0.0,0.0,0.0,0.0,0.0,0.0,0.0,0.0,0.0,0.0,0.0,0.0,0.0,0.0,0.0,0.0,0.0,0.0,0.0,0.0,0.0,0.0,0.0,1.689967155456543,-3.1090416080331904,0.23479130775976845,-3.0521575983091536,0.01824181340634823,0.015297041274607182,0.0
542,5,-0.0035261414013803005,0.0032284713815897703,0.00866096280515194,0.005975399166345596,0.012775902636349201,0.012270217761397362,0.0,0.0,0.0,0.0,0.0,0.0,0.0,0.0,0.0,0.004883416462689638,-0.004479654133319855,-0.0,0.0,0.0,0.0,0.0,0.0,0.0,0.0,0.0,0.0,0.0,0.0,0.0,0.0,0.0,0.0,0.0,0.0,0.0,0.0,0.0,0.0,0.0,1.689967155456543,-3.107173310793287,0.23811999979844303,-3.0556747446887584,0.01824181340634823,0.015297041274607182,0.0
547,5,-0.003526624757796526,0.0032285014167428017,0.008660363033413887,0.0023321390617638826,0.005106735043227673,0.004980087745934725,0.0,0.0,0.0,0.0,0.0,0.0,0.0,0.0,0.0,-0.0004262450383976102,-0.0026951537001878023,-0.0,0.0,0.0,0.0,0.0,0.0,0.0,0.0,0.0,0.0,0.0,0.0,0.0,0.0,0.0,0.0,0.0,0.0,0.0,0.0,0.0,0.0,0.0,1.655070185661316,-3.107339309524063,0.23797196541859306,-3.0557971593687165,0.010748584754765034,-0.0013076282339170575,-0.0
552,5,3.468368231551722e-05,9.136530570685863e-05,0.00039280200144276023,-0.00011731236736522987,0.00088595348643139,0.001079539768397808,0.0,0.0,0.0,0.0,0.0,0.0,0.0,0.0,0.0,-0.0004262450383976102,-0.0026951537001878023,-0.0,0.0,0.0,0.0,0.0,0.0,0.0,0.0,0.0,0.0,0.0,0.0,0.0,0.0,0.0,0.0,0.0,0.0,0.0,0.0,0.0,0.0,0.0,1.655070185661316,0.06711988011774643,-0.6067654279565831,-3.09596097496622,0.010748584754765034,-0.0013076282339170575,-0.0
557,5,4.531352169578895e-05,9.54700299189426e-05,0.0003787173773162067,0.0012286555720493197,-0.0001381854381179437,0.0021219716873019934,0.0,0.0,0.0,0.0,0.0,0.0,0.0,0.0,0.0,-0.0009029931970871985,-8.809840073809028e-05,-0.0,0.0,0.0,0.0,0.0,0.0,0.0,0.0,0.0,0.0,0.0,0.0,0.0,0.0,0.0,0.0,0.0,0.0,0.0,0.0,0.0,0.0,0.0,1.633225679397583,0.06603423708541578,-0.6074581694661219,-3.0965144083288325,0.00034670968307182193,-0.0027336261700838804,-0.0
562,5,5.6910615967353806e-05,9.370399493491277e-05,0.00036648957757279277,0.001883113756775856,0.00015664967941120267,0.0023161224089562893,0.0,0.0,0.0,0.0,0.0,0.0,0.0,0.0,0.0,-0.0009029931970871985,-8.809840073809028e-05,-0.0,0.0,0.0,0.0,0.0,0.0,0.0,0.0,0.0,0.0,0.0,0.0,0.0,0.0,0.0,0.0,0.0,0.0,0.0,0.0,0.0,0.0,0.0,1.633225679397583,0.0660777979315198,-0.6074108982138494,-3.096370493951386,0.00034670968307182193,-0.0027336261700838804,-0.0
567,5,-0.0035809946712106466,0.002888878807425499,0.008370880968868732,0.001883113756775856,0.00015664967941120267,0.0023161224089562893,0.0,0.0,0.0,0.0,0.0,0.0,0.0,0.0,0.0,-0.0009029931970871985,-8.809840073809028e-05,-0.0,0.0,0.0,0.0,0.0,0.0,0.0,0.0,0.0,0.0,0.0,0.0,0.0,0.0,0.0,0.0,0.0,0.0,0.0,0.0,0.0,0.0,0.0,1.633225679397583,-3.091242129060853,0.22637280373068228,-3.0532026731965694,0.00034670968307182193,-0.0027336261700838804,-0.0
572,5,-0.003581790253520012,0.0028976467438042164,0.0083679910749197,0.0006577749154530466,-0.0009895074181258678,0.0012733014300465584,0.0,0.0,0.0,0.0,0.0,0.0,0.0,0.0,0.0,0.004945508204400539,-0.0031485899817198515,-0.0,0.0,0.0,0.0,0.0,0.0,0.0,0.0,0.0,0.0,0.0,0.0,0.0,0.0,0.0,0.0,0.0,0.0,0.0,0.0,0.0,0.0,0.0,1.6797302961349487,-3.092457048003547,0.226802712830023,-3.0527633322469776,0.012743876315653324,0.015397698618471622,-0.0
577,5,-0.003581790253520012,0.0028976467438042164,0.0083679910749197,0.0006577749154530466,-0.0009895074181258678,0.0012733014300465584,0.0,0.0,0.0,0.0,0.0,0.0,0.0,0.0,0.0,0.004945508204400539,-0.0031485899817198515,-0.0,0.0,0.0,0.0,0.0,0.0,0.0,0.0,0.0,0.0,0.0,0.0,0.0,0.0,0.0,0.0,0.0,0.0,0.0,0.0,0.0,0.0,0.0,1.6797302961349487,-3.092457048003547,0.226802712830023,-3.0527633322469776,0.012743876315653324,0.015397698618471622,-0.0
582,5,-0.0035875686444342136,0.002925761044025421,0.008408693596720695,-0.0006089956732466817,-0.0028213844634592533,-0.0025875784922391176,0.0,0.0,0.0,0.0,0.0,0.0,0.0,0.0,0.0,0.006281568203121424,-0.0042453729547560215,-0.0,0.0,0.0,0.0,0.0,0.0,0.0,0.0,0.0,0.0,0.0,0.0,0.0,0.0,0.0,0.0,0.0,0.0,0.0,0.0,0.0,0.0,0.0,1.696629285812378,-3.0934557225409756,0.22651470583689137,-3.0525470598146356,0.01735580898821354,0.01975415274500847,-0.0
587,5,-0.0036033045034855604,0.002946715336292982,0.008437511511147022,-0.002131893765181303,-0.003643072908744216,-0.004493195563554764,0.0,0.0,0.0,0.0,0.0,0.0,0.0,0.0,0.0,0.006281568203121424,-0.0042453729547560215,-0.0,0.0,0.0,0.0,0.0,0.0,0.0,0.0,0.0,0.0,0.0,0.0,0.0,0.0,0.0,0.0,0.0,0.0,0.0,0.0,0.0,0.0,0.0,1.696629285812378,-3.094500172243607,0.22711117820138169,-3.0523244523876265,0.01735580898821354,0.01975415274500847,-0.0
592,5,-0.00359003571793437,0.002964259125292301,0.008432439528405666,0.0007394921267405152,-0.003562497440725565,-0.0011887146392837167,0.0,0.0,0.0,0.0,0.0,0.0,0.0,0.0,0.0,0.00932022649794817,-0.006682477425783873,-0.0,0.0,0.0,0.0,0.0,0.0,0.0,0.0,0.0,0.0,0.0,0.0,0.0,0.0,0.0,0.0,0.0,0.0,0.0,0.0,0.0,0.0,0.0,1.7357354164123535,-3.094870313509832,0.22916696154302063,-3.0531831965611667,0.027948006987571716,0.02998521365225315,0.0
598,5,7.225907756946981e-05,2.130888788087759e-05,0.0001144696943811141,0.0007394921267405152,-0.003562497440725565,-0.0011887146392837167,0.0,0.0,0.0,0.0,0.0,0.0,0.0,0.0,0.0,0.00932022649794817,-0.006682477425783873,-0.0,0.0,0.0,0.0,0.0,0.0,0.0,0.0,0.0,0.0,0.0,0.0,0.0,0.0,0.0,0.0,0.0,0.0,0.0,0.0,0.0,0.0,0.0,1.7357354164123535,0.049110209803573474,-0.5983862135566229,-3.1066790390145695,0.027948006987571716,0.02998521365225315,0.0
603,5,-0.003608462866395712,0.0030841256957501173,0.008534162305295467,0.0007394921267405152,-0.003562497440725565,-0.0011887146392837167,0.0,0.0,0.0,0.0,0.0,0.0,0.0,0.0,0.0,0.0044087511487305164,0.0007573252660222352,-0.0,0.0,0.0,0.0,0.0,0.0,0.0,0.0,0.0,0.0,0.0,0.0,0.0,0.0,0.0,0.0,0.0,0.0,0.0,0.0,0.0,0.0,0.0,1.6634371280670166,-3.1009843333868514,0.23051382464920617,-3.0512788006162195,-0.0030355434864759445,0.013593395240604877,0.0
608,5,-0.0035685126204043627,0.0030753081664443016,0.008532814681529999,0.005089826416224241,-0.0003669139987323433,-0.0003137638559564948,0.0,0.0,0.0,0.0,0.0,0.0,0.0,0.0,0.0,0.0044087511487305164,0.0007573252660222352,-0.0,0.0,0.0,0.0,0.0,0.0,0.0,0.0,0.0,0.0,0.0,0.0,0.0,0.0,0.0,0.0,0.0,0.0,0.0,0.0,0.0,0.0,0.0,1.6634371280670166,-3.102168308645207,0.2336016856000601,-3.0530655140557257,-0.0030355434864759445,0.013593395240604877,0.0
613,5,3.880448639392853e-05,-8.468343003187329e-05,-2.4740214939811267e-05,0.005089826416224241,-0.0003669139987323433,-0.0003137638559564948,0.0,0.0,0.0,0.0,0.0,0.0,0.0,0.0,0.0,0.005930256098508835,-0.00017026692512445152,-0.0,0.0,0.0,0.0,0.0,0.0,0.0,0.0,0.0,0.0,0.0,0.0,0.0,0.0,0.0,0.0,0.0,0.0,0.0,0.0,0.0,0.0,0.0,1.6755540370941162,0.032266339770829454,-0.5843017463576172,-3.1166423452523375,0.0006874371320009232,0.0184177178889513,0.0
618,5,2.9701774110435508e-05,-0.00010526570258662105,-6.741021206835285e-05,0.0009436050895601511,0.002323106862604618,0.004994894377887249,0.0,0.0,0.0,0.0,0.0,0.0,0.0,0.0,0.0,0.005930256098508835,-0.00017026692512445152,-0.0,0.0,0.0,0.0,0.0,0.0,0.0,0.0,0.0,0.0,0.0,0.0,0.0,0.0,0.0,0.0,0.0,0.0,0.0,0.0,0.0,0.0,0.0,1.6755540370941162,0.02848375056491554,-0.5806226498854375,-3.118798535610112,0.0006874371320009232,0.0184177178889513,0.0
623,5,2.1506848497665487e-05,-0.00011439034278737381,-8.832791354507208e-05,-0.0006059490260668099,0.002024199580773711,0.00450808135792613,0.0,0.0,0.0,0.0,0.0,0.0,0.0,0.0,0.0,-0.002991850720718503,0.0008927336311899126,-0.0,0.0,0.0,0.0,0.0,0.0,0.0,0.0,0.0,0.0,0.0,0.0,0.0,0.0,0.0,0.0,0.0,0.0,0.0,0.0,0.0,0.0,0.0,1.6523752212524414,0.025504138114481698,-0.578022587724244,-3.120485569116947,-0.0035545160062611103,-0.009163386188447475,0.0
628,5,-0.003936491906642914,0.0032564043067395687,0.009323840029537678,-0.0006059490260668099,0.002024199580773711,0.00450808135792613,0.0,0.0,0.0,0.0,0.0,0.0,0.0,0.0,0.0,-0.002991850720718503,0.0008927336311899126,-0.0,0.0,0.0,0.0,0.0,0.0,0.0,0.0,0.0,0.0,0.0,0.0,0.0,0.0,0.0,0.0,0.0,0.0,0.0,0.0,0.0,0.0,0.0,1.6523752212524414,-3.063836352595452,0.27559553824188215,-3.0822129922157413,-0.0035545160062611103,-0.009163386188447475,0.0
633,5,-0.003936657216399908,0.003262140089645982,0.009320104494690895,-0.00026222621090710163,0.00012137635349063203,0.002251499565318227,0.0,0.0,0.0,0.0,0.0,0.0,0.0,0.0,0.0,0.003325735218822956,-0.005891507491469383,-0.0,0.0,0.0,0.0,0.0,0.0,0.0,0.0,0.0,0.0,0.0,0.0,0.0,0.0,0.0,0.0,0.0,0.0,0.0,0.0,0.0,0.0,0.0,1.6965160369873047,-3.0630184432223673,0.27541202766744566,-3.0826561067886575,0.02408415451645851,0.010458098724484444,-0.0
638,5,-0.00393698550760746,0.003266258630901575,0.009309809654951096,-0.00014426081907004118,-0.000445664074504748,0.002136015798896551,0.0,0.0,0.0,0.0,0.0,0.0,0.0,0.0,0.0,0.003325735218822956,-0.005891507491469383,-0.0,0.0,0.0,0.0,0.0,0.0,0.0,0.0,0.0,0.0,0.0,0.0,0.0,0.0,0.0,0.0,0.0,0.0,0.0,0.0,0.0,0.0,0.0,1.6965160369873047,-3.0632724808542515,0.2756809618350336,-3.0826813492043943,0.02408415451645851,0.010458098724484444,-0.0
643,5,-0.0039343456737697124,0.003272040281444788,0.00932993646711111,0.0002590689982753247,-0.0008720594923943281,-0.0015607583336532116,0.0,0.0,0.0,0.0,0.0,0.0,0.0,0.0,0.0,0.006256474647670984,-0.0054411753080785275,-0.0,0.0,0.0,0.0,0.0,0.0,0.0,0.0,0.0,0.0,0.0,0.0,0.0,0.0,0.0,0.0,0.0,0.0,0.0,0.0,0.0,0.0,0.0,1.7061560153961182,-3.0630334511120765,0.2761357910392509,-3.0830549750205365,0.022369317710399628,0.019785718992352486,-0.0
648,5,-0.003945627249777317,0.003279093187302351,0.009361350908875465,-0.0012501933379098773,-0.0011951790656894445,-0.0043940469622612,0.0,0.0,0.0,0.0,0.0,0.0,0.0,0.0,0.0,0.006256474647670984,-0.0054411753080785275,-0.0,0.0,0.0,0.0,0.0,0.0,0.0,0.0,0.0,0.0,0.0,0.0,0.0,0.0,0.0,0.0,0.0,0.0,0.0,0.0,0.0,0.0,0.0,1.7061560153961182,-3.0626354572556567,0.2758895677467643,-3.0833125004787005,0.022369317710399628,0.019785718992352486,-0.0
653,5,-0.003945627249777317,0.003279093187302351,0.009361350908875465,-0.0012501933379098773,-0.0011951790656894445,-0.0043940469622612,0.0,0.0,0.0,0.0,0.0,0.0,0.0,0.0,0.0,0.007114867679774761,-0.006414131261408329,-0.0,0.0,0.0,0.0,0.0,0.0,0.0,0.0,0.0,0.0,0.0,0.0,0.0,0.0,0.0,0.0,0.0,0.0,0.0,0.0,0.0,0.0,0.0,1.7196693420410156,-3.0626354572556567,0.2758895677467643,-3.0833125004787005,0.0265779048204422,0.022678466513752937,0.0
658,5,-0.0039536673575639725,0.0033173183910548687,0.00935637392103672,-0.001152058131992817,-0.003805243643000722,-0.0009315176284871995,0.0,0.0,0.0,0.0,0.0,0.0,0.0,0.0,0.0,0.007114867679774761,-0.006414131261408329,-0.0,0.0,0.0,0.0,0.0,0.0,0.0,0.0,0.0,0.0,0.0,0.0,0.0,0.0,0.0,0.0,0.0,0.0,0.0,0.0,0.0,0.0,0.0,1.7196693420410156,-3.0643839632023084,0.276873608742761,-3.083309714136258,0.0265779048204422,0.022678466513752937,0.0
663,5,-5.876307841390371e-05,-0.0004577246436383575,-0.0004677603719756007,-0.001152058131992817,-0.003805243643000722,-0.0009315176284871995,0.0,0.0,0.0,0.0,0.0,0.0,0.0,0.0,0.0,0.010145751759409904,-0.006271763704717159,-0.0,0.0,0.0,0.0,0.0,0.0,0.0,0.0,0.0,0.0,0.0,0.0,0.0,0.0,0.0,0.0,0.0,0.0,0.0,0.0,0.0,0.0,0.0,1.7382404804229736,0.033334932711853615,-0.5684139121454967,-3.1239730349990444,0.02626795507967472,0.03268805891275406,0.0
668,5,-6.526406650664285e-05,-0.000415849412092939,-0.00041939079528674483,-0.0012409420451149344,-0.006547125056385994,-0.006176954600960016,0.0,0.0,0.0,0.0,0.0,0.0,0.0,0.0,0.0,0.010145751759409904,-0.006271763704717159,-0.0,0.0,0.0,0.0,0.0,0.0,0.0,0.0,0.0,0.0,0.0,0.0,0.0,0.0,0.0,0.0,0.0,0.0,0.0,0.0,0.0,0.0,0.0,1.7382404804229736,0.03309204774768861,-0.5699934745491134,-3.123541477832261,0.02626795507967472,0.03268805891275406,0.0
674,5,-7.754300168016925e-05,-0.0003815046511590481,-0.0003622594231273979,-0.00196984875947237,-0.0067402212880551815,-0.00932654645293951,0.0,0.0,0.0,0.0,0.0,0.0,0.0,0.0,0.0,0.007171323522925377,-0.0012822957942262292,-0.0,0.0,0.0,0.0,0.0,0.0,0.0,0.0,0.0,0.0,0.0,0.0,0.0,0.0,0.0,0.0,0.0,0.0,0.0,0.0,0.0,0.0,0.0,1.687908411026001,0.03322155755668224,-0.5711346817415317,-3.123001105675917,0.005215281154960394,0.0224362351000309,0.0
679,5,-9.620543278288096e-05,-0.0003585473168641329,-0.00030556655838154256,-0.0030274312011897564,-0.005450969096273184,-0.010533764958381653,0.0,0.0,0.0,0.0,0.0,0.0,0.0,0.0,0.0,0.007171323522925377,-0.0012822957942262292,-0.0,0.0,0.0,0.0,0.0,0.0,0.0,0.0,0.0,0.0,0.0,0.0,0.0,0.0,0.0,0.0,0.0,0.0,0.0,0.0,0.0,0.0,0.0,1.687908411026001,0.03132920017577058,-0.5722310689302113,-3.123377452147593,0.005215281154960394,0.0224362351000309,0.0
684,5,-2.998302261403296e-05,-0.00038211909122765064,-0.00033599670859985054,0.0067357164807617664,0.0006482251337729394,-0.0005618880386464298,0.0,0.0,0.0,0.0,0.0,0.0,0.0,0.0,0.0,0.005965540185570717,-0.002975266193971038,-0.0,0.0,0.0,0.0,0.0,0.0,0.0,0.0,0.0,0.0,0.0,0.0,0.0,0.0,0.0,0.0,0.0,0.0,0.0,0.0,0.0,0.0,0.0,1.685706377029419,0.03294646914441789,-0.5755083472627827,-3.1209007666848465,0.012085129506886005,0.01863955706357956,0.0
689,5,-0.003910657484084368,0.0032688737846910954,0.0093231825158,0.0067357164807617664,0.0006482251337729394,-0.0005618880386464298,0.0,0.0,0.0,0.0,0.0,0.0,0.0,0.0,0.0,0.005965540185570717,-0.002975266193971038,-0.0,0.0,0.0,0.0,0.0,0.0,0.0,0.0,0.0,0.0,0.0,0.0,0.0,0.0,0.0,0.0,0.0,0.0,0.0,0.0,0.0,0.0,0.0,1.685706377029419,-3.0649461642140476,0.2719869193711813,-3.0814854801304556,0.012085129506886005,0.01863955706357956,0.0
694,5,-0.003849196247756481,0.003232246497645974,0.009201751090586185,0.010069642215967178,0.004654570948332548,0.01434703916311264,0.0,0.0,0.0,0.0,0.0,0.0,0.0,0.0,0.0,0.005083619151264429,0.0008784417295828462,-0.0,0.0,0.0,0.0,0.0,0.0,0.0,0.0,0.0,0.0,0.0,0.0,0.0,0.0,0.0,0.0,0.0,0.0,0.0,0.0,0.0,0.0,0.0,1.6693445444107056,-3.074204366712697,0.26923068521604976,-3.076348168111779,-0.003533500712364912,0.015729835256934166,0.0
699,5,-0.0038324256893247366,0.0032577093224972486,0.00920882634818554,0.0060403305105865,-0.0011937064118683338,0.004889774136245251,0.0,0.0,0.0,0.0,0.0,0.0,0.0,0.0,0.0,0.005083619151264429,0.0008784417295828462,-0.0,0.0,0.0,0.0,0.0,0.0,0.0,0.0,0.0,0.0,0.0,0.0,0.0,0.0,0.0,0.0,0.0,0.0,0.0,0.0,0.0,0.0,0.0,1.6693445444107056,-3.0713777920363934,0.2676041794028381,-3.077441346261624,-0.003533500712364912,0.015729835256934166,0.0
704,5,-0.003781696083024144,0.0032465828116983175,0.009103293530642986,0.008503695949912071,0.0008576830732636154,0.014619871973991394,0.0,0.0,0.0,0.0,0.0,0.0,0.0,0.0,0.0,0.007224208675324917,0.00033033834188245237,-0.0,0.0,0.0,0.0,0.0,0.0,0.0,0.0,0.0,0.0,0.0,0.0,0.0,0.0,0.0,0.0,0.0,0.0,0.0,0.0,0.0,0.0,0.0,1.6868172883987427,-3.0771188675169054,0.26373157497840793,-3.07392288836428,-0.0013426647055894136,0.02258707582950592,-0.0
709,5,-0.003736393991857767,0.0032591535709798336,0.009023643098771572,0.008837713859975338,-0.0011654258705675602,0.015405956655740738,0.0,0.0,0.0,0.0,0.0,0.0,0.0,0.0,0.0,0.007224208675324917,0.00033033834188245237,-0.0,0.0,0.0,0.0,0.0,0.0,0.0,0.0,0.0,0.0,0.0,0.0,0.0,0.0,0.0,0.0,0.0,0.0,0.0,0.0,0.0,0.0,0.0,1.6868172883987427,-3.0827959446392432,0.2587366085321884,-3.0700970931618587,-0.0013426647055894136,0.02258707582950592,-0.0
714,5,-0.003681993344798684,0.0032465863041579723,0.008927025832235813,0.010063172318041325,0.0010419036261737347,0.017756445333361626,0.0,0.0,0.0,0.0,0.0,0.0,0.0,0.0,0.0,0.007161943707615137,0.0030234146397560835,-0.0,0.0,0.0,0.0,0.0,0.0,0.0,0.0,0.0,0.0,0.0,0.0,0.0,0.0,0.0,0.0,0.0,0.0,0.0,0.0,0.0,0.0,0.0,1.6949504613876343,-3.0884945071294325,0.2544012905382347,-3.066522000752481,-0.012347948737442493,0.022500373423099518,-0.0
719,5,-0.0036520317662507296,0.003240937367081642,0.008866425603628159,0.007620653603225946,0.0010946444235742092,0.014374621212482452,0.0,0.0,0.0,0.0,0.0,0.0,0.0,0.0,0.0,0.007161943707615137,0.0030234146397560835,-0.0,0.0,0.0,0.0,0.0,0.0,0.0,0.0,0.0,0.0,0.0,0.0,0.0,0.0,0.0,0.0,0.0,0.0,0.0,0.0,0.0,0.0,0.0,1.6949504613876343,-3.093052341988165,0.24984417319822833,-3.0637873199240926,-0.012347948737442493,0.022500373423099518,-0.0
724,5,5.622386197501328e-06,-0.00037124345544725657,-0.0002724298683460802,0.007620653603225946,0.0010946444235742092,0.014374621212482452,0.0,0.0,0.0,0.0,0.0,0.0,0.0,0.0,0.0,0.0045034876093268394,0.0020470789168030024,-0.0,0.0,0.0,0.0,0.0,0.0,0.0,0.0,0.0,0.0,0.0,0.0,0.0,0.0,0.0,0.0,0.0,0.0,0.0,0.0,0.0,0.0,0.0,1.6695195436477661,0.018381256843946862,-0.5710627141253176,-3.125820551178603,-0.008235183544456959,0.01393626444041729,-0.0
