timestamp,dt,pos_x,pos_y,pos_z,vel_x,vel_y,vel_z,roll,pitch,yaw,agv_x,agv_y,agv_z,x_ref,y_ref,z_ref,roll_ref,pitch_ref,yaw_ref,x_vel_ref,y_vel_ref,z_vel_ref,x_torque,y_torque,z_torque,w0,w1,w2,w3,u0,u1,u2,u3,m0req,m1req,m2req,m3req,thrust0,thrust1,thrust2,thrust3,thrust_ref,roll_vicon,pitch_vicon,yaw_vicon,acc_x,acc_y,acc_z
5,5,0.0,0.0,0.0,-0.0007088511483743787,-0.0005343048251233995,-0.00030978082213550806,-0.009417508728802204,0.046939607709646225,-0.029891766607761383,0.0011775685707107186,0.0011885998537763953,-0.004148982930928469,0.0,0.0,0.0,0.0005319183110259473,-0.0005428346339613199,-0.0,0.0,0.0,0.0,0.0,0.0,0.0,1495.0,1495.0,1495.0,1495.0,0.0,0.0,0.0,0.0,0.0,0.0,0.0,0.0,1495.0,1495.0,1495.0,1495.0,2.0322022438049316,-0.06515719812692043,0.061993276867808124,-0.03904399778510677,0.0026581918355077505,0.0020036431960761547,0.0
22,17,0.0,0.0,0.0,2.5619590815040283e-05,0.0006869755452498794,0.0012966878712177277,-0.009417508728802204,0.046939607709646225,-0.029891766607761383,0.0011775685707107186,0.0011885998537763953,-0.004148982930928469,0.0,0.0,0.0,0.0005319183110259473,-0.0005428346339613199,-0.0,0.0,0.0,0.0,0.0,0.0,0.0,1495.0,1495.0,1495.0,1495.0,0.0,0.0,0.0,0.0,0.0,0.0,0.0,0.0,1495.0,1495.0,1495.0,1495.0,2.0322022438049316,-0.06466693712533576,0.06195207558444457,-0.03914373784158408,0.0026581918355077505,0.0020036431960761547,0.0
30,8,0.0,0.0,0.0,-1.6032221537898295e-05,-0.0006038202554918826,0.00047958403592929244,-0.009417508728802204,0.046939607709646225,-0.029891766607761383,0.0011775685707107186,0.0011885998537763953,-0.004148982930928469,0.0,0.0,0.0,-0.0006838500266894698,1.96177170437295e-05,-0.0,0.0,0.0,0.0,0.0,0.0,0.0,1495.0,1495.0,1495.0,1495.0,0.0,0.0,0.0,0.0,0.0,0.0,0.0,0.0,1495.0,1495.0,1495.0,1495.0,2.032371997833252,-0.06451334679566424,0.062193895011086235,-0.039172065676788645,-9.607346873963252e-05,-0.002576158381998539,0.0
35,5,0.0,0.0,0.0,0.0006678808131255209,0.00046948459930717945,-0.0015696119517087936,-0.009417508728802204,0.046939607709646225,-0.029891766607761383,0.0011775685707107186,0.0011885998537763953,-0.004148982930928469,0.0,0.0,0.0,0.0006010730285197496,-1.2276369488972705e-05,-0.0,0.0,0.0,0.0,0.0,0.0,0.0,1495.0,1495.0,1495.0,1495.0,0.0,0.0,0.0,0.0,0.0,0.0,0.0,0.0,1495.0,1495.0,1495.0,1495.0,2.032371997833252,-0.0646483826554026,0.06215284602977313,-0.03927010239239095,6.0120830312371254e-05,0.002264325972646475,0.0
40,5,0.0,0.0,0.0,0.0005613043322227895,0.0011674079578369856,-0.00023619673447683454,-0.009417508728802204,0.046939607709646225,-0.029891766607761383,0.0011775685707107186,0.0011885998537763953,-0.004148982930928469,0.0,0.0,0.0,0.0006010730285197496,-1.2276369488972705e-05,-0.0,0.0,0.0,0.0,0.0,0.0,0.0,1495.0,1495.0,1495.0,1495.0,0.0,0.0,0.0,0.0,0.0,0.0,0.0,0.0,1495.0,1495.0,1495.0,1495.0,2.032371997833252,-0.06438975330898872,0.061971541246879494,-0.03908089911990959,6.0120830312371254e-05,0.002264325972646475,0.0
45,5,-7.376449048024369e-06,3.70901875612617e-06,2.1479202132468345e-06,-0.0006606521783396602,2.188091639254708e-05,-0.0003522291372064501,-0.009408659301698208,0.04692622274160385,-0.029923105612397194,0.0002910546609200537,0.006745754741132259,-0.005946620833128691,0.0,0.0,0.0,-0.001161752617917955,0.00042968103662133217,-0.0,0.0,0.0,0.0,0.0,0.0,0.0,1495.0,1495.0,1495.0,1495.0,0.0,0.0,0.0,0.0,0.0,0.0,0.0,0.0,1495.0,1495.0,1495.0,1495.0,2.0329742431640625,-0.06474713051345794,0.061748623154926706,-0.03913805723117346,-0.0021048912312835455,-0.004377780016511679,0.0
51,5,-7.736531188129447e-06,8.617103958385997e-06,-6.021884473739192e-06,-0.0003074707346968353,-0.0005802178638987243,0.0008394849137403071,-0.009405544027686119,0.04689585044980049,-0.029947973787784576,-0.001753260032273829,0.006835094187408686,0.0005105098243802786,0.0,0.0,0.0,-0.001161752617917955,0.00042968103662133217,-0.0,0.0,0.0,0.0,0.0,0.0,0.0,1495.0,1495.0,1495.0,1495.0,0.0,0.0,0.0,0.0,0.0,0.0,0.0,0.0,1495.0,1495.0,1495.0,1495.0,2.0329742431640625,-0.06490019200086511,0.06179009021472997,-0.03910468071464872,-0.0021048912312835455,-0.004377780016511679,0.0
56,5,-1.2239822353876662e-05,1.0651760021573864e-05,-8.735427400097251e-06,-0.0006633832235820591,-0.000476245884783566,0.0006614190642721951,-0.009405544027686119,0.04689585044980049,-0.029947973787784576,-0.001753260032273829,0.006835094187408686,0.0005105098243802786,0.0,0.0,0.0,0.000589854025747627,-0.00024400466645602137,-0.0,0.0,0.0,0.0,0.0,0.0,0.0,1495.0,1495.0,1495.0,1495.0,0.0,0.0,0.0,0.0,0.0,0.0,0.0,0.0,1495.0,1495.0,1495.0,1495.0,2.033450126647949,-0.06461223677558153,0.06243223302345173,-0.03901383656602607,0.0011955932714045048,0.0022232411429286003,0.0
61,5,-1.1883500974363415e-06,5.977071850793436e-06,-7.083785021677613e-06,0.0010608233278617263,0.000370464229490608,6.63706159684807e-05,-0.009397000074386597,0.046917129307985306,-0.029977433383464813,0.0008947711903601885,-0.0007262392900884151,-0.002597757149487734,0.0,0.0,0.0,0.000589854025747627,-0.00024400466645602137,-0.0,0.0,0.0,0.0,0.0,0.0,0.0,1495.0,1495.0,1495.0,1495.0,0.0,0.0,0.0,0.0,0.0,0.0,0.0,0.0,1495.0,1495.0,1495.0,1495.0,2.033450126647949,-0.06502994324839459,0.06195000297920196,-0.039071184760297605,0.0011955932714045048,0.0022232411429286003,0.0
66,5,-6.645795565418666e-06,5.937540208833525e-06,-3.8468178900075145e-06,-0.00023056409554556012,0.0001529294968349859,-0.0003618878254201263,-0.009397000074386597,0.046917129307985306,-0.029977433383464813,0.0008947711903601885,-0.0007262392900884151,-0.002597757149487734,0.0,0.0,0.0,0.000589854025747627,-0.00024400466645602137,-0.0,0.0,0.0,0.0,0.0,0.0,0.0,1495.0,1495.0,1495.0,1495.0,0.0,0.0,0.0,0.0,0.0,0.0,0.0,0.0,1495.0,1495.0,1495.0,1495.0,2.033450126647949,-0.06502094198659071,0.062083126794269104,-0.039059741765511385,0.0011955932714045048,0.0022232411429286003,0.0
71,5,-9.697379937279038e-06,1.612224332347978e-05,-1.1846383358715684e-06,-0.0004584157431963831,-0.0011609925422817469,-0.00046421666047535837,-0.009397000074386597,0.046917129307985306,-0.029977433383464813,0.0008947711903601885,-0.0007262392900884151,-0.002597757149487734,0.0,0.0,0.0,-0.0001434354780940339,-0.00018387542513664812,-0.0,0.0,0.0,0.0,0.0,0.0,0.0,1495.0,1495.0,1495.0,1495.0,0.0,0.0,0.0,0.0,0.0,0.0,0.0,0.0,1495.0,1495.0,1495.0,1495.0,2.0340147018432617,-0.06510788681977969,0.06169989043090328,-0.038908611669131385,0.0009012175723910332,-0.000540778215508908,0.0
76,5,-4.945540240441915e-06,1.9874682038789615e-05,9.649962521507405e-06,0.0003868544299621135,-0.0009146897355094552,-0.0014858387876302004,-0.00938162487000227,0.0469069629907608,-0.03000454232096672,-0.00043577744509093463,0.0016637330409139395,-0.0002751267165876925,0.0,0.0,0.0,-0.0001434354780940339,-0.00018387542513664812,-0.0,0.0,0.0,0.0,0.0,0.0,0.0,1495.0,1495.0,1495.0,1495.0,0.0,0.0,0.0,0.0,0.0,0.0,0.0,0.0,1495.0,1495.0,1495.0,1495.0,2.0340147018432617,-0.06463505879548796,0.06242066668524248,-0.03908486186630149,0.0009012175723910332,-0.000540778215508908,0.0
81,5,-5.920089733990608e-06,9.305074854637496e-06,-4.782386326951382e-07,3.77958313038107e-05,0.0009024770115502179,0.0006210486171767116,-0.00938162487000227,0.0469069629907608,-0.03000454232096672,-0.00043577744509093463,0.0016637330409139395,-0.0002751267165876925,0.0,0.0,0.0,-0.0008838044595904648,2.225102980446536e-05,-0.0,0.0,0.0,0.0,0.0,0.0,0.0,1495.0,1495.0,1495.0,1495.0,0.0,0.0,0.0,0.0,0.0,0.0,0.0,0.0,1495.0,1495.0,1495.0,1495.0,2.0345351696014404,-0.06443292697622985,0.06214696492475392,-0.03914132800044846,-0.0001090855075744912,-0.0033329578582197428,0.0
89,9,-1.550709203002043e-05,6.055519179426483e-07,-1.5887062545516528e-05,-0.0014026957796886563,0.0010694446973502636,0.0008249620441347361,-0.00938162487000227,0.0469069629907608,-0.03000454232096672,-0.00043577744509093463,0.0016637330409139395,-0.0002751267165876925,0.0,0.0,0.0,-0.0008838044595904648,2.225102980446536e-05,-0.0,0.0,0.0,0.0,0.0,0.0,0.0,1495.0,1495.0,1495.0,1495.0,0.0,0.0,0.0,0.0,0.0,0.0,0.0,0.0,1495.0,1495.0,1495.0,1495.0,2.0345351696014404,-0.06478237985042438,0.06198817641460468,-0.03907489380673747,-0.0001090855075744912,-0.0033329578582197428,0.0
95,5,-1.5967923900461756e-05,2.325773721167934e-06,-1.0580779417068698e-06,-0.0006163782672956586,0.0002213512489106506,-0.001449493458494544,-0.009373891167342663,0.046919673681259155,-0.030051294714212418,0.00045490142656490207,0.0032466608099639416,-0.0017660760786384344,0.0,0.0,0.0,-0.0008838044595904648,2.225102980446536e-05,-0.0,0.0,0.0,0.0,0.0,0.0,0.0,1495.0,1495.0,1495.0,1495.0,0.0,0.0,0.0,0.0,0.0,0.0,0.0,0.0,1495.0,1495.0,1495.0,1495.0,2.0345351696014404,-0.06406645866781592,0.06242059314776376,-0.03910675797549531,-0.0001090855075744912,-0.0033329578582197428,0.0
100,5,-5.343508746591397e-06,-1.5778927036080859e-06,-1.1881291356985457e-05,0.0010283786104992032,0.0005569804925471544,0.0007189881871454418,-0.009373891167342663,0.046919673681259155,-0.030051294714212418,0.00045490142656490207,0.0032466608099639416,-0.0017660760786384344,0.0,0.0,0.0,-0.0002165797632187605,-0.0004892062279395759,-0.0,0.0,0.0,0.0,0.0,0.0,0.0,1495.0,1495.0,1495.0,1495.0,0.0,0.0,0.0,0.0,0.0,0.0,0.0,0.0,1495.0,1495.0,1495.0,1495.0,2.035430908203125,-0.06439385152439275,0.06205536033413266,-0.03904414473055043,0.0023993863724172115,-0.0008171141962520778,0.0
105,5,-7.70366023061797e-06,7.586598712805426e-06,1.2068129251474602e-07,0.000128133237012662,-0.0008769467822276056,-0.0011526413727551699,-0.009366371668875217,0.04694526270031929,-0.0300843957811594,0.0010570879094302654,-0.0015851396601647139,-0.0009448906639590859,0.0,0.0,0.0,-0.0002165797632187605,-0.0004892062279395759,-0.0,0.0,0.0,0.0,0.0,0.0,0.0,1495.0,1495.0,1495.0,1495.0,0.0,0.0,0.0,0.0,0.0,0.0,0.0,0.0,1495.0,1495.0,1495.0,1495.0,2.035430908203125,-0.06476445811279924,0.06204861907150664,-0.03913118178690622,0.0023993863724172115,-0.0008171141962520778,0.0
110,5,-7.144693427107995e-06,1.0924502021225635e-05,1.98561047000112e-05,0.00011832930613309145,-0.0007513270829804242,-0.002829307224601507,-0.009366371668875217,0.04694526270031929,-0.0300843957811594,0.0010570879094302654,-0.0015851396601647139,-0.0009448906639590859,0.0,0.0,0.0,0.0008824794203974307,8.926665032049641e-05,-0.0,0.0,0.0,0.0,0.0,0.0,0.0,1495.0,1495.0,1495.0,1495.0,0.0,0.0,0.0,0.0,0.0,0.0,0.0,0.0,1495.0,1495.0,1495.0,1495.0,2.0360655784606934,-0.06497144304398694,0.06187787400586528,-0.03900196457300357,-0.00043795828241854906,0.0033304644748568535,0.0
115,5,-8.629745025245938e-06,1.8582730263005942e-05,1.1766130228352267e-05,-0.00013087449769955128,-0.0012195182498544455,-0.00016092610894702375,-0.009366371668875217,0.04694526270031929,-0.0300843957811594,0.0010570879094302654,-0.0015851396601647139,-0.0009448906639590859,0.0,0.0,0.0,0.0008824794203974307,8.926665032049641e-05,-0.0,0.0,0.0,0.0,0.0,0.0,0.0,1495.0,1495.0,1495.0,1495.0,0.0,0.0,0.0,0.0,0.0,0.0,0.0,0.0,1495.0,1495.0,1495.0,1495.0,2.0360655784606934,-0.06438452699722463,0.06247307006475542,-0.039144016343752065,-0.00043795828241854906,0.0033304644748568535,0.0
120,5,-1.0711082722991705e-05,8.010893907339778e-06,3.709064458234934e-06,-0.0003021102456841618,0.0007808129885233939,0.0009024774772115052,-0.009365792386233807,0.04692823439836502,-0.030118193477392197,0.00044241230352781713,0.0048216269351542,-0.006304358597844839,0.0,0.0,0.0,0.0012385220034047961,-0.00010971328447340056,-0.0,0.0,0.0,0.0,0.0,0.0,0.0,1495.0,1495.0,1495.0,1495.0,0.0,0.0,0.0,0.0,0.0,0.0,0.0,0.0,1495.0,1495.0,1495.0,1495.0,2.0367140769958496,-0.06489982246033894,0.06206377740064118,-0.038951598810370545,0.0005384443793445826,0.0046756514348089695,0.0
125,5,-3.6126496070210123e-06,1.3390739695751108e-05,9.601028978067916e-06,0.0007309678476303816,-0.0003332562337163836,-0.0003460447769612074,-0.009365792386233807,0.04692823439836502,-0.030118193477392197,0.00044241230352781713,0.0048216269351542,-0.006304358597844839,0.0,0.0,0.0,0.0012385220034047961,-0.00010971328447340056,-0.0,0.0,0.0,0.0,0.0,0.0,0.0,1495.0,1495.0,1495.0,1495.0,0.0,0.0,0.0,0.0,0.0,0.0,0.0,0.0,1495.0,1495.0,1495.0,1495.0,2.0367140769958496,-0.06501611215564969,0.06210750248415378,-0.03904932302049085,0.0005384443793445826,0.0046756514348089695,0.0
130,5,-1.8761800220090663e-06,3.7575302940240363e-06,-2.1003659639973193e-05,0.0005007634754292667,0.001022682641632855,0.0035341447219252586,-0.009374185465276241,0.046903278678655624,-0.030136071145534515,-0.0014301490737125278,0.004777710884809494,-0.0004044804663863033,0.0,0.0,0.0,0.00035056209890171885,0.0005543463048525155,-0.0,0.0,0.0,0.0,0.0,0.0,0.0,1495.0,1495.0,1495.0,1495.0,0.0,0.0,0.0,0.0,0.0,0.0,0.0,0.0,1495.0,1495.0,1495.0,1495.0,2.037055253982544,-0.06461515970344403,0.06220554434174805,-0.0390345932797728,-0.0027210458647459745,0.0013236596714705229,0.0
135,5,-1.7268606598008773e-06,1.3543080058298074e-05,-2.519265763112344e-05,0.00021822372218593955,-0.0007651929627172649,0.0019163376418873668,-0.009373212233185768,0.04693710058927536,-0.03013363666832447,0.0020333165302872658,-0.0007446086383424699,0.0014970904449000955,0.0,0.0,0.0,0.00035056209890171885,0.0005543463048525155,-0.0,0.0,0.0,0.0,0.0,0.0,0.0,1495.0,1495.0,1495.0,1495.0,0.0,0.0,0.0,0.0,0.0,0.0,0.0,0.0,1495.0,1495.0,1495.0,1495.0,2.037055253982544,-0.06443478910076951,0.06224964713417328,-0.039063271475803386,-0.0027210458647459745,0.0013236596714705229,0.0
140,5,-5.406001491792267e-06,8.756215720495675e-06,-3.260142693761736e-05,-0.00035420741187408566,0.00026834654272533953,0.0016555874608457088,-0.009373212233185768,0.04693710058927536,-0.03013363666832447,0.0020333165302872658,-0.0007446086383424699,0.0014970904449000955,0.0,0.0,0.0,0.0007797973812557757,0.00016474050062242895,-0.0,0.0,0.0,0.0,0.0,0.0,0.0,1495.0,1495.0,1495.0,1495.0,0.0,0.0,0.0,0.0,0.0,0.0,0.0,0.0,1495.0,1495.0,1495.0,1495.0,2.0370090007781982,-0.06472526615495808,0.0620410717518276,-0.03894393181634073,-0.0008086211164481938,0.0029443076346069574,0.0
146,5,-5.9307772062311415e-06,3.7758882172056474e-06,-3.822259259322891e-06,-0.00020465604029595852,0.0007049779524095356,-0.002791265258565545,-0.009373212233185768,0.04693710058927536,-0.03013363666832447,0.0020333165302872658,-0.0007446086383424699,0.0014970904449000955,0.0,0.0,0.0,0.0007797973812557757,0.00016474050062242895,-0.0,0.0,0.0,0.0,0.0,0.0,0.0,1495.0,1495.0,1495.0,1495.0,0.0,0.0,0.0,0.0,0.0,0.0,0.0,0.0,1495.0,1495.0,1495.0,1495.0,2.0370090007781982,-0.06449085759690909,0.062031583986430945,-0.039162364160165296,-0.0008086211164481938,0.0029443076346069574,0.0
151,5,-6.3036322899279185e-06,4.538296707323752e-06,2.974802100652596e-06,-0.00012660505308303982,0.00019050214905291796,-0.0019321534782648087,-0.009373213164508343,0.04694252833724022,-0.030149787664413452,-0.0002703271748032421,0.0035297502763569355,-0.004563459660857916,0.0,0.0,0.0,-0.0001824698265409097,-0.00010382136679254472,-0.0,0.0,0.0,0.0,0.0,0.0,0.0,1495.0,1495.0,1495.0,1495.0,0.0,0.0,0.0,0.0,0.0,0.0,0.0,0.0,1495.0,1495.0,1495.0,1495.0,2.0373177528381348,-0.0648211273725157,0.06181368338379094,-0.03908521818608787,0.0005096797831356525,-0.0006890621152706444,0.0
156,5,-1.4472524526354391e-05,5.378511104936479e-06,6.071881671232404e-06,-0.0010309091303497553,-2.4624856450827792e-05,-0.0011445109266787767,-0.009373213164508343,0.04694252833724022,-0.030149787664413452,-0.0002703271748032421,0.0035297502763569355,-0.004563459660857916,0.0,0.0,0.0,-0.0001824698265409097,-0.00010382136679254472,-0.0,0.0,0.0,0.0,0.0,0.0,0.0,1495.0,1495.0,1495.0,1495.0,0.0,0.0,0.0,0.0,0.0,0.0,0.0,0.0,1495.0,1495.0,1495.0,1495.0,2.0373177528381348,-0.06513793226025089,0.06157227227639426,-0.03902334846946839,0.0005096797831356525,-0.0006890621152706444,0.0
161,5,-1.3975335605209693e-05,7.96905078459531e-06,3.92845777241746e-06,-0.0003527009394019842,-0.0003207147237844765,-0.0002005935093620792,-0.009374826215207577,0.046947237104177475,-0.030206989496946335,-0.0008259241003543139,-0.0016891611739993095,-0.006377295590937138,0.0,0.0,0.0,-0.0001824698265409097,-0.00010382136679254472,-0.0,0.0,0.0,0.0,0.0,0.0,0.0,1495.0,1495.0,1495.0,1495.0,0.0,0.0,0.0,0.0,0.0,0.0,0.0,0.0,1495.0,1495.0,1495.0,1495.0,2.0373177528381348,-0.06487362547397005,0.06196113643567233,-0.0389845226779835,0.0005096797831356525,-0.0006890621152706444,0.0
166,5,-6.961058261367725e-06,1.4909265701135155e-05,2.955026275230921e-06,0.000700632925145328,-0.0009611116256564856,3.6574372643372044e-05,-0.009374826215207577,0.046947237104177475,-0.030206989496946335,-0.0008259241003543139,-0.0016891611739993095,-0.006377295590937138,0.0,0.0,0.0,0.0003300123498775065,-0.0002849813608918339,-0.0,0.0,0.0,0.0,0.0,0.0,0.0,1495.0,1495.0,1495.0,1495.0,0.0,0.0,0.0,0.0,0.0,0.0,0.0,0.0,1495.0,1495.0,1495.0,1495.0,2.0384132862091064,-0.06478841247547687,0.06205594570378353,-0.03917862351027517,0.0013997826026752591,0.001246898202225566,0.0
171,5,-2.004330417548772e-05,1.257130043086363e-05,8.889911441656295e-06,-0.0012896164553239942,-0.00010388890950707719,-0.0006975564174354076,-0.0093679279088974,0.04696275666356087,-0.030205013230443,0.0015479688299819827,-0.002334184944629669,0.004219429567456245,0.0,0.0,0.0,0.0003300123498775065,-0.0002849813608918339,-0.0,0.0,0.0,0.0,0.0,0.0,0.0,1495.0,1495.0,1495.0,1495.0,0.0,0.0,0.0,0.0,0.0,0.0,0.0,0.0,1495.0,1495.0,1495.0,1495.0,2.0384132862091064,-0.06494920144270738,0.06206306862540489,-0.038944675059176107,0.0013997826026752591,0.001246898202225566,0.0
176,5,-4.309826636017533e-06,1.0570291124167852e-05,2.3610557491338113e-06,0.0013721708673983812,0.000198565554455854,0.000504440104123205,-0.0093679279088974,0.04696275666356087,-0.030205013230443,0.0015479688299819827,-0.002334184944629669,0.004219429567456245,0.0,0.0,0.0,0.00012152593990322202,-0.0010071075521409512,-0.0,0.0,0.0,0.0,0.0,0.0,0.0,1495.0,1495.0,1495.0,1495.0,0.0,0.0,0.0,0.0,0.0,0.0,0.0,0.0,1495.0,1495.0,1495.0,1495.0,2.0383763313293457,-0.06467065441259814,0.062230341566187244,-0.039211610457483774,0.0049466597847640514,0.00045915774535387754,0.0
181,5,-9.714554835227318e-06,8.525822522642557e-06,-1.6806719941087067e-05,-9.969903476303443e-05,0.00032476254273205996,0.0025019091553986073,-0.009354643523693085,0.04700004681944847,-0.030202088877558708,-0.0001941116788657382,0.0028137266635894775,-0.00019723185687325895,0.0,0.0,0.0,0.00012152593990322202,-0.0010071075521409512,-0.0,0.0,0.0,0.0,0.0,0.0,0.0,1495.0,1495.0,1495.0,1495.0,0.0,0.0,0.0,0.0,0.0,0.0,0.0,0.0,1495.0,1495.0,1495.0,1495.0,2.0383763313293457,-0.06508339337418369,0.061919916413675856,-0.039006305937357245,0.0049466597847640514,0.00045915774535387754,0.0
186,5,-9.034081813297234e-06,1.0636058505042456e-05,-4.243755029165186e-06,4.1777118894970044e-05,-0.00012332337792031467,-0.0005067921592853963,-0.009354643523693085,0.04700004681944847,-0.030202088877558708,-0.0001941116788657382,0.0028137266635894775,-0.00019723185687325895,0.0,0.0,0.0,-0.0003098080342169851,-8.707839879207313e-05,-0.0,0.0,0.0,0.0,0.0,0.0,0.0,1495.0,1495.0,1495.0,1495.0,0.0,0.0,0.0,0.0,0.0,0.0,0.0,0.0,1495.0,1495.0,1495.0,1495.0,2.0383193492889404,-0.06455198986484403,0.06232757215467109,-0.039043387233743364,0.0004276953695807606,-0.0011705055367201567,0.0
192,5,-4.967923814547248e-06,4.463797722564777e-06,-3.137949533993378e-05,0.0005046497681178153,0.0006913419929333031,0.003053572028875351,-0.00933688785880804,0.04699953272938728,-0.030190112069249153,0.0015871308278292418,0.0007964063552208245,-0.005051228683441877,0.0,0.0,0.0,-0.0003098080342169851,-8.707839879207313e-05,-0.0,0.0,0.0,0.0,0.0,0.0,0.0,1495.0,1495.0,1495.0,1495.0,0.0,0.0,0.0,0.0,0.0,0.0,0.0,0.0,1495.0,1495.0,1495.0,1495.0,2.0383193492889404,-0.06492737636202145,0.06205060105037179,-0.03891840293099634,0.0004276953695807606,-0.0011705055367201567,0.0
197,5,-1.6924429928621976e-06,9.895309631247073e-06,-4.649728282402066e-07,0.0005949176265858114,-0.00037524467916227877,-0.002488313941285014,-0.00933688785880804,0.04699953272938728,-0.030190112069249153,0.0015871308278292418,0.0007964063552208245,-0.005051228683441877,0.0,0.0,0.0,-0.000679640332236886,0.0003796943055931479,-0.0,0.0,0.0,0.0,0.0,0.0,0.0,1495.0,1495.0,1495.0,1495.0,0.0,0.0,0.0,0.0,0.0,0.0,0.0,0.0,1495.0,1495.0,1495.0,1495.0,2.038090705871582,-0.06492680465467601,0.0621629783040952,-0.039091622365029215,-0.0018647017423063517,-0.002567503834143281,0.0
202,5,-6.002186637488194e-06,1.0823297998285852e-05,7.986802756931866e-07,-0.00027920218417420983,-0.0002614564436953515,-0.001146963913924992,-0.009329446591436863,0.04702125862240791,-0.03021903708577156,0.0008372802403755486,-0.003570444881916046,-0.0036633978597819805,0.0,0.0,0.0,-0.000679640332236886,0.0003796943055931479,-0.0,0.0,0.0,0.0,0.0,0.0,0.0,1495.0,1495.0,1495.0,1495.0,0.0,0.0,0.0,0.0,0.0,0.0,0.0,0.0,1495.0,1495.0,1495.0,1495.0,2.038090705871582,-0.06460284088424041,0.06230578956560327,-0.038949677240291934,-0.0018647017423063517,-0.002567503834143281,0.0
207,5,-1.6095669707283378e-05,1.273399539059028e-05,2.0505802240222692e-05,-0.001322898780927062,-0.00033386627910658717,-0.002823640126734972,-0.009329446591436863,0.04702125862240791,-0.03021903708577156,0.0008372802403755486,-0.003570444881916046,-0.0036633978597819805,0.0,0.0,0.0,0.0002753559092525393,-0.0002199441660195589,-0.0,0.0,0.0,0.0,0.0,0.0,0.0,1495.0,1495.0,1495.0,1495.0,0.0,0.0,0.0,0.0,0.0,0.0,0.0,0.0,1495.0,1495.0,1495.0,1495.0,2.0386440753936768,-0.06464993591646016,0.062014439344953966,-0.03915269743591595,0.001080452580936253,0.0010405053617432714,0.0
212,5,-1.5455498214578256e-05,5.610360403807135e-06,4.912743861495983e-06,-0.00045233903801999986,0.0007212897180579603,0.0007417108863592148,-0.00934493076056242,0.04701097682118416,-0.03025018237531185,0.00022254904615692794,-0.001100232359021902,-0.00016207003500312567,0.0,0.0,0.0,0.0002753559092525393,-0.0002199441660195589,-0.0,0.0,0.0,0.0,0.0,0.0,0.0,1495.0,1495.0,1495.0,1495.0,0.0,0.0,0.0,0.0,0.0,0.0,0.0,0.0,1495.0,1495.0,1495.0,1495.0,2.0386440753936768,-0.06459922861528555,0.06192794424655962,-0.039024672645724456,0.001080452580936253,0.0010405053617432714,0.0
217,5,-1.6305059034493752e-05,1.6405643691541627e-05,-1.3519438368803094e-07,-0.0002828828583005816,-0.0010069182608276606,0.0009024369646795094,-0.00934493076056242,0.04701097682118416,-0.03025018237531185,0.00022254904615692794,-0.001100232359021902,-0.00016207003500312567,0.0,0.0,0.0,-0.0007072845473885536,-0.0003626015386544168,-0.0,0.0,0.0,0.0,0.0,0.0,0.0,1495.0,1495.0,1495.0,1495.0,0.0,0.0,0.0,0.0,0.0,0.0,0.0,0.0,1495.0,1495.0,1495.0,1495.0,2.039240837097168,-0.06473074254689928,0.062222385925084646,-0.03932977208580109,0.0017817630432546139,-0.002673444338142872,0.0
222,5,-1.8740738596534356e-05,1.9649196474347264e-05,6.878403837617952e-06,-0.0004054346354678273,-0.0007919935160316527,-0.00048065700684674084,-0.00934493076056242,0.04701097682118416,-0.03025018237531185,0.00022254904615692794,-0.001100232359021902,-0.00016207003500312567,0.0,0.0,0.0,-0.0007072845473885536,-0.0003626015386544168,-0.0,0.0,0.0,0.0,0.0,0.0,0.0,1495.0,1495.0,1495.0,1495.0,0.0,0.0,0.0,0.0,0.0,0.0,0.0,0.0,1495.0,1495.0,1495.0,1495.0,2.039240837097168,-0.06458537890567341,0.0626069322586643,-0.039333261224039885,0.0017817630432546139,-0.002673444338142872,0.0
227,5,-1.8981356333824806e-05,1.904310238387552e-06,-1.0389946510258596e-05,-0.00019104813691228628,0.0018125888891518116,0.0018799392273649573,-0.00934493076056242,0.04701097682118416,-0.03025018237531185,0.00022254904615692794,-0.001100232359021902,-0.00016207003500312567,0.0,0.0,0.0,0.0008144854800775647,-0.00033049684134311974,-0.0,0.0,0.0,0.0,0.0,0.0,0.0,1495.0,1495.0,1495.0,1495.0,0.0,0.0,0.0,0.0,0.0,0.0,0.0,0.0,1495.0,1495.0,1495.0,1495.0,2.039240837097168,-0.06501662628238865,0.06190411127917066,-0.03920217494817915,0.0016240059630945325,0.0030786502175033092,0.0
232,5,-1.1735935004253406e-05,3.778977315960219e-06,-1.8727924953054753e-06,0.0007930314168334007,0.0005000755190849304,-0.0002700827899388969,-0.009333385154604912,0.047020189464092255,-0.03025273233652115,0.0007885043742135167,0.004173881374299526,-0.003976869396865368,0.0,0.0,0.0,0.0008144854800775647,-0.00033049684134311974,-0.0,0.0,0.0,0.0,0.0,0.0,0.0,1495.0,1495.0,1495.0,1495.0,0.0,0.0,0.0,0.0,0.0,0.0,0.0,0.0,1495.0,1495.0,1495.0,1495.0,2.039240837097168,-0.06478964433273977,0.062178018283451555,-0.03903135425212277,0.0016240059630945325,0.0030786502175033092,0.0
237,5,-4.1873063310049474e-06,3.817786364379572e-06,-2.8546164685394615e-06,0.0012230479624122381,0.00019537312618922442,9.785765541892033e-06,-0.009333385154604912,0.047020189464092255,-0.03025273233652115,0.0007885043742135167,0.004173881374299526,-0.003976869396865368,0.0,0.0,0.0,-0.0004904498346149921,0.0005919326213188469,-0.0,0.0,0.0,0.0,0.0,0.0,0.0,1495.0,1495.0,1495.0,1495.0,0.0,0.0,0.0,0.0,0.0,0.0,0.0,0.0,1495.0,1495.0,1495.0,1495.0,2.0392894744873047,-0.06464946494633772,0.06213524939976736,-0.03906437600987977,-0.002908727154135704,-0.001853881636634469,0.0
243,5,-9.987686098611448e-06,5.8765449466591235e-06,-3.8052287436585175e-06,-0.00020682637114077806,-0.00016890178085304797,0.0001179877799586393,-0.00935360323637724,0.04702673852443695,-0.030277501791715622,-0.00030103116296231747,-0.0014518286334350705,0.0009420257993042469,0.0,0.0,0.0,-0.0004904498346149921,0.0005919326213188469,-0.0,0.0,0.0,0.0,0.0,0.0,0.0,1495.0,1495.0,1495.0,1495.0,0.0,0.0,0.0,0.0,0.0,0.0,0.0,0.0,1495.0,1495.0,1495.0,1495.0,2.0392894744873047,-0.06487215001991092,0.06213135173864085,-0.03902685573861209,-0.002908727154135704,-0.001853881636634469,0.0
248,5,-5.545006388274487e-06,6.534624844789505e-06,-1.2504464393714443e-05,0.00045039106043986976,-0.00014653030666522682,0.0010911034187301993,-0.00935360323637724,0.04702673852443695,-0.030277501791715622,-0.00030103116296231747,-0.0014518286334350705,0.0009420257993042469,0.0,0.0,0.0,0.00017624137399252504,-0.0001691034995019436,-0.0,0.0,0.0,0.0,0.0,0.0,0.0,1495.0,1495.0,1495.0,1495.0,0.0,0.0,0.0,0.0,0.0,0.0,0.0,0.0,1495.0,1495.0,1495.0,1495.0,2.0397632122039795,-0.06479735554825328,0.062004686609621135,-0.03895980921870052,0.0008311592391692102,0.0006663404055871069,0.0
253,5,-6.081812443881063e-06,8.842655915941577e-06,-2.2439166968979407e-06,0.00011573969823075458,-0.00033557586721144617,-0.0007948243874125183,-0.009367967024445534,0.04702034592628479,-0.030298950150609016,0.0007526766275987029,1.9023947970708832e-05,0.0026281890459358692,0.0,0.0,0.0,0.00017624137399252504,-0.0001691034995019436,-0.0,0.0,0.0,0.0,0.0,0.0,0.0,1495.0,1495.0,1495.0,1495.0,0.0,0.0,0.0,0.0,0.0,0.0,0.0,0.0,1495.0,1495.0,1495.0,1495.0,2.0397632122039795,-0.06456400170589748,0.062283022252560716,-0.03912879084843736,0.0008311592391692102,0.0006663404055871069,0.0
258,5,-9.94371384877013e-06,1.070313919626642e-05,7.123097930161748e-06,-0.00041713230893947184,-0.00035748834488913417,-0.0014419715153053403,-0.009367967024445534,0.04702034592628479,-0.030298950150609016,0.0007526766275987029,1.9023947970708832e-05,0.0026281890459358692,0.0,0.0,0.0,0.00034580929786898196,8.135027746902779e-05,-0.0,0.0,0.0,0.0,0.0,0.0,0.0,1495.0,1495.0,1495.0,1495.0,0.0,0.0,0.0,0.0,0.0,0.0,0.0,0.0,1495.0,1495.0,1495.0,1495.0,2.0401737689971924,-0.06472901124974371,0.06203127040958056,-0.03909065496867615,-0.0003999245527666062,0.0013077127514407039,0.0
263,5,-1.419936688762391e-05,1.0072842997033149e-05,-1.2687950174949947e-06,-0.0006775313522666693,-6.735979695804417e-05,0.00043023854959756136,-0.00937164481729269,0.04702230170369148,-0.03034205175936222,0.00041297529242001474,0.0033960570581257343,-0.0038864121306687593,0.0,0.0,0.0,0.00034580929786898196,8.135027746902779e-05,-0.0,0.0,0.0,0.0,0.0,0.0,0.0,1495.0,1495.0,1495.0,1495.0,0.0,0.0,0.0,0.0,0.0,0.0,0.0,0.0,1495.0,1495.0,1495.0,1495.0,2.0401737689971924,-0.06529205220919795,0.061809102106204154,-0.039094689052033414,-0.0003999245527666062,0.0013077127514407039,0.0
268,5,-9.584427061781753e-06,1.0280708920618054e-05,-9.477532330492977e-06,0.0002827803255058825,-5.188778959563933e-05,0.0011571438517421484,-0.00937164481729269,0.04702230170369148,-0.03034205175936222,0.00041297529242001474,0.0033960570581257343,-0.0038864121306687593,0.0,0.0,0.0,8.160010474966839e-05,-0.0005326355458237231,-0.0,0.0,0.0,0.0,0.0,0.0,0.0,1495.0,1495.0,1495.0,1495.0,0.0,0.0,0.0,0.0,0.0,0.0,0.0,0.0,1495.0,1495.0,1495.0,1495.0,2.040998697280884,-0.06471634934622349,0.06216188583275146,-0.03904169863356952,0.0026195382233709097,0.0003087038057856262,0.0
273,5,-1.5509956938331015e-05,1.637923196540214e-05,-1.313333768848679e-06,-0.0005979514680802822,-0.0007525778491981328,-0.0005168462521396577,-0.009375759400427341,0.04702213034033775,-0.0303641390055418,0.00012662539666052908,-0.0013610374880954623,1.1512759556353558e-05,0.0,0.0,0.0,8.160010474966839e-05,-0.0005326355458237231,-0.0,0.0,0.0,0.0,0.0,0.0,0.0,1495.0,1495.0,1495.0,1495.0,0.0,0.0,0.0,0.0,0.0,0.0,0.0,0.0,1495.0,1495.0,1495.0,1495.0,2.040998697280884,-0.06492374555194541,0.06217976071292484,-0.03900800760769757,0.0026195382233709097,0.0003087038057856262,0.0
278,5,-1.1949559848289937e-05,1.231393343914533e-05,4.094421001354931e-06,0.00018806701700668782,0.00018680460925679654,-0.0008556690881960094,-0.009375759400427341,0.04702213034033775,-0.0303641390055418,0.00012662539666052908,-0.0013610374880954623,1.1512759556353558e-05,0.0,0.0,0.0,0.0007698416011407971,-0.00047333500697277486,-0.0,0.0,0.0,0.0,0.0,0.0,0.0,1495.0,1495.0,1495.0,1495.0,0.0,0.0,0.0,0.0,0.0,0.0,0.0,0.0,1495.0,1495.0,1495.0,1495.0,2.04142165184021,-0.0648913622525522,0.06205453032418819,-0.03913178877647294,0.002328376052901149,0.002913014031946659,0.0
283,5,-7.739690772723407e-06,1.358734880341217e-05,-4.916275884170318e-06,0.0005804111715406179,-7.808797818142921e-05,0.0007390159880742431,-0.009382904507219791,0.047008201479911804,-0.030407898128032684,-0.0011438499204814434,0.004127040971070528,-0.003204686800017953,0.0,0.0,0.0,0.0007698416011407971,-0.00047333500697277486,-0.0,0.0,0.0,0.0,0.0,0.0,0.0,1495.0,1495.0,1495.0,1495.0,0.0,0.0,0.0,0.0,0.0,0.0,0.0,0.0,1495.0,1495.0,1495.0,1495.0,2.04142165184021,-0.06428283435167213,0.06219573391219044,-0.03911033106376182,0.002328376052901149,0.002913014031946659,0.0
288,5,-9.13327130547259e-06,5.006432274967665e-06,-1.4548252693202812e-05,6.493481487268582e-05,0.0009984747739508748,0.0014514436479657888,-0.009382904507219791,0.047008201479911804,-0.030407898128032684,-0.0011438499204814434,0.004127040971070528,-0.003204686800017953,0.0,0.0,0.0,9.731148020364344e-05,0.00043347859173081815,-0.0,0.0,0.0,0.0,0.0,0.0,0.0,1495.0,1495.0,1495.0,1495.0,0.0,0.0,0.0,0.0,0.0,0.0,0.0,0.0,1495.0,1495.0,1495.0,1495.0,2.0422582626342773,-0.06500178848120285,0.06190356988728631,-0.038876054258231235,-0.0021331931930035353,0.00036836916115134954,0.0
293,5,-1.2640915883821435e-05,6.1326413742790464e-06,-1.9559880456654355e-05,-0.0003949434612877667,0.0002642448525875807,0.001181972911581397,-0.009385853074491024,0.04699971154332161,-0.030445534735918045,-0.0022501940838992596,-9.943440818460658e-05,-0.0014075845247134566,0.0,0.0,0.0,9.731148020364344e-05,0.00043347859173081815,-0.0,0.0,0.0,0.0,0.0,0.0,0.0,1495.0,1495.0,1495.0,1495.0,0.0,0.0,0.0,0.0,0.0,0.0,0.0,0.0,1495.0,1495.0,1495.0,1495.0,2.0422582626342773,-0.06491461306701113,0.06200575018009119,-0.03916236537217698,-0.0021331931930035353,0.00036836916115134954,0.0
298,5,-8.051808435993735e-06,1.7001009837258607e-05,9.073172805074137e-06,0.00039271547575481236,-0.0011985063320025802,-0.0029631773941218853,-0.009385853074491024,0.04699971154332161,-0.030445534735918045,-0.0022501940838992596,-9.943440818460658e-05,-0.0014075845247134566,0.0,0.0,0.0,-0.0002525506424717605,-0.0003151409327983856,-0.0,0.0,0.0,0.0,0.0,0.0,0.0,1495.0,1495.0,1495.0,1495.0,0.0,0.0,0.0,0.0,0.0,0.0,0.0,0.0,1495.0,1495.0,1495.0,1495.0,2.042977809906006,-0.0651581679503392,0.06202830511913254,-0.03913364330684371,0.0015513877151533961,-0.0009563583880662918,0.0
303,5,-7.743299647700042e-06,7.667208592465613e-06,9.629762644181028e-06,0.00019410724053159356,0.0006406537140719593,-0.0012520616874098778,-0.009374460205435753,0.04698259383440018,-0.030425935983657837,0.004992961883544922,0.004075102973729372,0.002641613595187664,0.0,0.0,0.0,-0.0002525506424717605,-0.0003151409327983856,-0.0,0.0,0.0,0.0,0.0,0.0,0.0,1495.0,1495.0,1495.0,1495.0,0.0,0.0,0.0,0.0,0.0,0.0,0.0,0.0,1495.0,1495.0,1495.0,1495.0,2.042977809906006,-0.06478542544819917,0.06231829969467093,-0.0391034618811748,0.0015513877151533961,-0.0009563583880662918,0.0
309,5,-3.891610504069831e-06,2.1178800579946255e-06,-6.985618256294401e-06,0.0005398456123657525,0.0009221808868460357,0.0014930210309103131,-0.009374460205435753,0.04698259383440018,-0.030425935983657837,0.004992961883544922,0.004075102973729372,0.002641613595187664,0.0,0.0,0.0,-0.0006231801235117018,0.00013906366075389087,-0.0,0.0,0.0,0.0,0.0,0.0,0.0,1495.0,1495.0,1495.0,1495.0,0.0,0.0,0.0,0.0,0.0,0.0,0.0,0.0,1495.0,1495.0,1495.0,1495.0,2.0426032543182373,-0.06493820344639777,0.06194649605154289,-0.039128473433161254,-0.0006844622548669577,-0.0023594247177243233,0.0
314,5,-9.783051609701943e-06,6.671976279903902e-06,-4.006747985840775e-06,-0.0004910347051918507,-0.0001776191929820925,0.00023974401119630784,-0.009379667229950428,0.04694921895861626,-0.03042934276163578,-0.0014480107929557562,0.003867208259180188,-0.00017108597967308015,0.0,0.0,0.0,-0.0006231801235117018,0.00013906366075389087,-0.0,0.0,0.0,0.0,0.0,0.0,0.0,1495.0,1495.0,1495.0,1495.0,0.0,0.0,0.0,0.0,0.0,0.0,0.0,0.0,1495.0,1495.0,1495.0,1495.0,2.0426032543182373,-0.06462963618699331,0.06214294165981371,-0.039117808213086046,-0.0006844622548669577,-0.0023594247177243233,0.0
319,5,-1.645429256313946e-05,1.5653440641472116e-05,6.472805580415297e-06,-0.0009969627717509866,-0.0011488232994452119,-0.0011616488918662071,-0.009379667229950428,0.04694921895861626,-0.03042934276163578,-0.0014480107929557562,0.003867208259180188,-0.00017108597967308015,0.0,0.0,0.0,0.00018584431381896138,-0.0003852168738376349,-0.0,0.0,0.0,0.0,0.0,0.0,0.0,1495.0,1495.0,1495.0,1495.0,0.0,0.0,0.0,0.0,0.0,0.0,0.0,0.0,1495.0,1495.0,1495.0,1495.0,2.042668342590332,-0.06470600444388659,0.062409969834241914,-0.039141124514129835,0.0018960728775709867,0.0007036483148112893,0.0
324,5,-2.000834001592011e-06,1.5437301044585183e-05,-3.3267747312493157e-06,0.0016533572925254703,-0.00019734703528229147,0.0010622178670018911,-0.00938410498201847,0.04695088788866997,-0.030450202524662018,0.00041451561264693737,0.007730873767286539,0.00039345331606455147,0.0,0.0,0.0,0.00018584431381896138,-0.0003852168738376349,-0.0,0.0,0.0,0.0,0.0,0.0,0.0,1495.0,1495.0,1495.0,1495.0,0.0,0.0,0.0,0.0,0.0,0.0,0.0,0.0,1495.0,1495.0,1495.0,1495.0,2.042668342590332,-0.06443782663661926,0.062267001106446555,-0.03901563436728921,0.0018960728775709867,0.0007036483148112893,0.0
329,5,-2.000834001592011e-06,1.5437301044585183e-05,-3.3267747312493157e-06,0.0016533572925254703,-0.00019734703528229147,0.0010622178670018911,-0.00938410498201847,0.04695088788866997,-0.030450202524662018,0.00041451561264693737,0.007730873767286539,0.00039345331606455147,0.0,0.0,0.0,0.0002180877490900457,0.001256982097402215,-0.0,0.0,0.0,0.0,0.0,0.0,0.0,1495.0,1495.0,1495.0,1495.0,0.0,0.0,0.0,0.0,0.0,0.0,0.0,0.0,1495.0,1495.0,1495.0,1495.0,2.0430686473846436,-0.06443782663661926,0.062267001106446555,-0.03901563436728921,-0.006188192404806614,0.000825891038402915,0.0
334,5,-9.963372576748952e-06,1.843202335294336e-05,2.5980696705119044e-07,-0.00029416169854812324,-0.00043830537470057607,-5.502635303855641e-06,-0.009381686337292194,0.04691889137029648,-0.03045780025422573,-0.0001973250909941271,0.0020830072462558746,-0.0015663948142901063,0.0,0.0,0.0,0.0002180877490900457,0.001256982097402215,-0.0,0.0,0.0,0.0,0.0,0.0,0.0,1495.0,1495.0,1495.0,1495.0,0.0,0.0,0.0,0.0,0.0,0.0,0.0,0.0,1495.0,1495.0,1495.0,1495.0,2.0430686473846436,-0.06477567965721112,0.06217233242401218,-0.03914412555022292,-0.006188192404806614,0.000825891038402915,0.0
339,5,-8.032207915675826e-06,1.4869081496726722e-05,-4.497607278608484e-06,0.00011407509009586647,0.0002522307331673801,0.0005686886725015938,-0.009381686337292194,0.04691889137029648,-0.03045780025422573,-0.0001973250909941271,0.0020830072462558746,-0.0015663948142901063,0.0,0.0,0.0,0.0004610279283951968,-0.00023537232482340187,-0.0,0.0,0.0,0.0,0.0,0.0,0.0,1495.0,1495.0,1495.0,1495.0,0.0,0.0,0.0,0.0,0.0,0.0,0.0,0.0,1495.0,1495.0,1495.0,1495.0,2.043212413787842,-0.0645185380423197,0.062070783373170346,-0.0391916705745484,0.0011588328052312136,0.0017460202798247337,0.0
344,5,-9.988833880925085e-06,1.2859500202466734e-05,-7.430823643517215e-06,-0.00018916513363365084,0.00034204215626232326,0.0005794613971374929,-0.009361952543258667,0.04696977511048317,-0.03046566992998123,0.001995792845264077,0.0017867869464680552,-0.002210011938586831,0.0,0.0,0.0,0.0004610279283951968,-0.00023537232482340187,-0.0,0.0,0.0,0.0,0.0,0.0,0.0,1495.0,1495.0,1495.0,1495.0,0.0,0.0,0.0,0.0,0.0,0.0,0.0,0.0,1495.0,1495.0,1495.0,1495.0,2.043212413787842,-0.06439087218048412,0.062333912566018695,-0.03889101351594419,0.0011588328052312136,0.0017460202798247337,0.0
349,5,-6.896780632814625e-06,7.843795515327656e-07,-8.135832104017027e-06,0.00013340851000975817,0.0008603971218690276,-0.00031477073207497597,-0.009361952543258667,0.04696977511048317,-0.03046566992998123,0.001995792845264077,0.0017867869464680552,-0.002210011938586831,0.0,0.0,0.0,-0.00031970508280210197,-0.00015542386972811073,-0.0,0.0,0.0,0.0,0.0,0.0,0.0,1495.0,1495.0,1495.0,1495.0,0.0,0.0,0.0,0.0,0.0,0.0,0.0,0.0,1495.0,1495.0,1495.0,1495.0,2.043362855911255,-0.06483822884098926,0.0620066339312352,-0.03909310709708406,0.0007652706699445844,-0.001210886868648231,0.0
354,5,2.4326188849954633e-06,8.533600521332119e-06,1.5874764358159155e-05,0.0011728913523256779,-0.0005857476498931646,-0.0030071798246353865,-0.00935447309166193,0.0469648614525795,-0.030504828318953514,0.0009133361745625734,0.0036258914042264223,-0.00833890587091446,0.0,0.0,0.0,-0.00031970508280210197,-0.00015542386972811073,-0.0,0.0,0.0,0.0,0.0,0.0,0.0,1495.0,1495.0,1495.0,1495.0,0.0,0.0,0.0,0.0,0.0,0.0,0.0,0.0,1495.0,1495.0,1495.0,1495.0,2.043362855911255,-0.06448796870172258,0.062288641318127,-0.03921262252676833,0.0007652706699445844,-0.001210886868648231,0.0
359,5,-7.073725782902329e-07,1.1806121619883925e-05,1.4269361599872354e-05,9.235757897840813e-05,-0.0006270016310736537,-0.0010102236410602927,-0.00935447309166193,0.0469648614525795,-0.030504828318953514,0.0009133361745625734,0.0036258914042264223,-0.00833890587091446,0.0,0.0,0.0,0.0005924045690335333,0.0008954835357144475,-0.0,0.0,0.0,0.0,0.0,0.0,0.0,1495.0,1495.0,1495.0,1495.0,0.0,0.0,0.0,0.0,0.0,0.0,0.0,0.0,1495.0,1495.0,1495.0,1495.0,2.04411244392395,-0.06453151544812817,0.06235280384935307,-0.03921495196854852,-0.004410767462104559,0.0022445623762905598,0.0
364,5,-2.3337636321230093e-06,1.532616443000734e-05,3.980858764407458e-06,-0.0001582239056006074,-0.0006732057081535459,0.0008305309456773102,-0.009358967654407024,0.046990733593702316,-0.030474865809082985,-0.0010225115111097693,-0.0004010214761365205,0.004814052022993565,0.0,0.0,0.0,0.0005924045690335333,0.0008954835357144475,-0.0,0.0,0.0,0.0,0.0,0.0,0.0,1495.0,1495.0,1495.0,1495.0,0.0,0.0,0.0,0.0,0.0,0.0,0.0,0.0,1495.0,1495.0,1495.0,1495.0,2.04411244392395,-0.0652035074345224,0.06192499607536576,-0.03895413889175318,-0.004410767462104559,0.0022445623762905598,0.0
369,5,-1.112799236580031e-05,1.532402166048996e-05,1.7160029528895393e-05,-0.0011185969924554229,-0.000269025273155421,-0.001249288092367351,-0.009358967654407024,0.046990733593702316,-0.030474865809082985,-0.0010225115111097693,-0.0004010214761365205,0.004814052022993565,0.0,0.0,0.0,0.0006890323129482567,-0.00012329700984992087,-0.0,0.0,0.0,0.0,0.0,0.0,0.0,1495.0,1495.0,1495.0,1495.0,0.0,0.0,0.0,0.0,0.0,0.0,0.0,0.0,1495.0,1495.0,1495.0,1495.0,2.043539047241211,-0.06427523928720108,0.06248904616445224,-0.03918133971140617,0.0006071378011256456,0.0026099428068846464,0.0
374,5,-9.767994924914092e-06,1.66463250934612e-05,7.876969903009012e-06,-0.00028423909679986537,-0.0002662864571902901,0.0006142518250271678,-0.009351594373583794,0.04700656235218048,-0.03050878457725048,0.002809948055073619,0.0005858070799149573,-0.0020745182409882545,0.0,0.0,0.0,0.0006890323129482567,-0.00012329700984992087,-0.0,0.0,0.0,0.0,0.0,0.0,0.0,1495.0,1495.0,1495.0,1495.0,0.0,0.0,0.0,0.0,0.0,0.0,0.0,0.0,1495.0,1495.0,1495.0,1495.0,2.043539047241211,-0.0648189806840963,0.06233620064717422,-0.03929854350623821,0.0006071378011256456,0.0026099428068846464,0.0
379,5,-1.4823729543422814e-05,1.2669928764807992e-05,-5.771266842202749e-06,-0.000720383832231164,0.0003706529678311199,0.001883489079773426,-0.009351594373583794,0.04700656235218048,-0.03050878457725048,0.002809948055073619,0.0005858070799149573,-0.0020745182409882545,0.0,0.0,0.0,0.00028801884036511183,-0.00022750177595298737,-0.0,0.0,0.0,0.0,0.0,0.0,0.0,1495.0,1495.0,1495.0,1495.0,0.0,0.0,0.0,0.0,0.0,0.0,0.0,0.0,1495.0,1495.0,1495.0,1495.0,2.044187068939209,-0.06428035225852244,0.06231237904612808,-0.03919772919663769,0.0011206172639504075,0.001091314828954637,0.0
384,5,-1.3394317647907883e-05,9.210807547788136e-06,-1.7361457139486447e-05,-0.00011662410543067381,0.0005633557448163629,0.0021442186553031206,-0.009339433163404465,0.047002121806144714,-0.030533431097865105,0.003956351894885302,-0.0018095606938004494,-0.00429458636790514,0.0,0.0,0.0,0.00028801884036511183,-0.00022750177595298737,-0.0,0.0,0.0,0.0,0.0,0.0,0.0,1495.0,1495.0,1495.0,1495.0,0.0,0.0,0.0,0.0,0.0,0.0,0.0,0.0,1495.0,1495.0,1495.0,1495.0,2.044187068939209,-0.0645423259833276,0.06196767829980963,-0.03900411661890939,0.0011206172639504075,0.001091314828954637,0.0
389,5,-1.5466028344235383e-05,1.3270107956486754e-05,-1.265266564587364e-05,-0.00029525498393923044,-0.0002617737918626517,0.0002926323504652828,-0.009339433163404465,0.047002121806144714,-0.030533431097865105,0.003956351894885302,-0.0018095606938004494,-0.00429458636790514,0.0,0.0,0.0,-0.0005437345243990421,-0.00010393027332611382,-0.0,0.0,0.0,0.0,0.0,0.0,0.0,1495.0,1495.0,1495.0,1495.0,0.0,0.0,0.0,0.0,0.0,0.0,0.0,0.0,1495.0,1495.0,1495.0,1495.0,2.0446581840515137,-0.06471241389311091,0.06189067031940957,-0.0391229688508259,0.000512052676640451,-0.0020607064943760633,0.0
394,5,-5.491948286362458e-06,1.314227392867906e-05,-2.006893373618368e-05,0.001078787725418806,-8.936942322179675e-05,0.0010070051066577435,-0.009315944276750088,0.04701696336269379,-0.030547991394996643,-0.0003265867999289185,0.000858956656884402,0.0027068478520959616,0.0,0.0,0.0,-0.0005437345243990421,-0.00010393027332611382,-0.0,0.0,0.0,0.0,0.0,0.0,0.0,1495.0,1495.0,1495.0,1495.0,0.0,0.0,0.0,0.0,0.0,0.0,0.0,0.0,1495.0,1495.0,1495.0,1495.0,2.0446581840515137,-0.06529907112317773,0.06153085803069559,-0.038963885985344504,0.000512052676640451,-0.0020607064943760633,0.0
400,5,3.7072743452881696e-06,1.5153284039115533e-05,-2.674444885997218e-06,0.0015354218194261193,-0.0002770689607132226,-0.0016845365753397346,-0.009315944276750088,0.04701696336269379,-0.030547991394996643,-0.0003265867999289185,0.000858956656884402,0.0027068478520959616,0.0,0.0,0.0,0.0001078193963621743,0.0008146399050019681,-0.0,0.0,0.0,0.0,0.0,0.0,0.0,1495.0,1495.0,1495.0,1495.0,0.0,0.0,0.0,0.0,0.0,0.0,0.0,0.0,1495.0,1495.0,1495.0,1495.0,2.0449368953704834,-0.06472181862484569,0.06219345441487145,-0.039270848838257925,-0.004014185629785061,0.0004086818662472069,0.0
405,5,-7.493073326259037e-07,1.4962939530960284e-05,3.2181387723539956e-06,7.937890040921047e-05,-8.798628550721332e-05,-0.0013809247175231576,-0.009298701770603657,0.04703691229224205,-0.030568696558475494,-0.0006720525561831892,0.002458051312714815,-0.001295126392506063,0.0,0.0,0.0,0.0001078193963621743,0.0008146399050019681,-0.0,0.0,0.0,0.0,0.0,0.0,0.0,1495.0,1495.0,1495.0,1495.0,0.0,0.0,0.0,0.0,0.0,0.0,0.0,0.0,1495.0,1495.0,1495.0,1495.0,2.0449368953704834,-0.06513211588301313,0.062334117995616695,-0.039324737114797434,-0.004014185629785061,0.0004086818662472069,0.0
410,5,-1.2405399729686906e-06,3.5396701605350245e-06,-1.9540354969649343e-06,-2.7196352675673552e-05,0.0013355978298932314,6.82910394971259e-05,-0.009298701770603657,0.04703691229224205,-0.030568696558475494,-0.0006720525561831892,0.002458051312714815,-0.001295126392506063,0.0,0.0,0.0,0.00010908558761002496,5.934537330176681e-05,-0.0,0.0,0.0,0.0,0.0,0.0,0.0,1495.0,1495.0,1495.0,1495.0,0.0,0.0,0.0,0.0,0.0,0.0,0.0,0.0,1495.0,1495.0,1495.0,1495.0,2.0453319549560547,-0.06465745170319308,0.06203533647359429,-0.038942613312556315,-0.0002924842992797494,0.00041356112342327833,0.0
415,5,-8.980885468190536e-06,3.827035016001901e-06,2.621628937049536e-06,-0.0009397199610248208,0.0004997553769499063,-0.0005217633442953229,-0.009298701770603657,0.04703691229224205,-0.030568696558475494,-0.0006720525561831892,0.002458051312714815,-0.001295126392506063,0.0,0.0,0.0,0.00010908558761002496,5.934537330176681e-05,-0.0,0.0,0.0,0.0,0.0,0.0,0.0,1495.0,1495.0,1495.0,1495.0,0.0,0.0,0.0,0.0,0.0,0.0,0.0,0.0,1495.0,1495.0,1495.0,1495.0,2.0453319549560547,-0.06485119546327772,0.061957755863135844,-0.03912898209776817,-0.0002924842992797494,0.00041356112342327833,0.0
420,5,-1.7351878341287374e-05,9.52683694777079e-06,7.894019290688448e-06,-0.0013804072514176369,-0.0004840741166844964,-0.0008413922041654587,-0.00931383203715086,0.04702257364988327,-0.030559537932276726,-0.0003475228149909526,0.0009887267369776964,-0.001202879473567009,0.0,0.0,0.0,-0.0004884682130068541,-0.0007253199582919478,-0.0,0.0,0.0,0.0,0.0,0.0,0.0,1495.0,1495.0,1495.0,1495.0,0.0,0.0,0.0,0.0,0.0,0.0,0.0,0.0,1495.0,1495.0,1495.0,1495.0,2.0451576709747314,-0.06480099698998569,0.06195285952748386,-0.03914582989396763,0.0035744416527450085,-0.001851704204455018,0.0
425,5,-1.310344578087097e-05,1.5807387171662413e-05,-1.3728960084335995e-06,-4.235093365423381e-05,-0.0009472956880927086,0.0007754730177111924,-0.00931383203715086,0.04702257364988327,-0.030559537932276726,-0.0003475228149909526,0.0009887267369776964,-0.001202879473567009,0.0,0.0,0.0,-0.0004884682130068541,-0.0007253199582919478,-0.0,0.0,0.0,0.0,0.0,0.0,0.0,1495.0,1495.0,1495.0,1495.0,0.0,0.0,0.0,0.0,0.0,0.0,0.0,0.0,1495.0,1495.0,1495.0,1495.0,2.0451576709747314,-0.06470116193026355,0.06219833719521025,-0.03896511292989193,0.0035744416527450085,-0.001851704204455018,0.0
430,5,-1.842128040152602e-05,1.4070573342905845e-05,-6.64678236717009e-06,-0.000655080599244684,-0.0001705005270196125,0.0009430555510334671,-0.00929610151797533,0.04704560711979866,-0.03054405190050602,-0.00017318269237875938,-0.0009093484259210527,0.0009527126676402986,0.0,0.0,0.0,0.0009605293744243681,-4.7089495637919754e-05,-0.0,0.0,0.0,0.0,0.0,0.0,0.0,1495.0,1495.0,1495.0,1495.0,0.0,0.0,0.0,0.0,0.0,0.0,0.0,0.0,1495.0,1495.0,1495.0,1495.0,2.0448617935180664,-0.06473638691937925,0.061824173141330416,-0.03911666868545488,0.0002320276398677379,0.0036406845320016146,0.0
435,5,-6.0742754612874705e-06,1.8206283129984513e-05,1.4553571645592456e-06,0.0012196084717288613,-0.0005644854390993714,-0.0005950345075689256,-0.00929610151797533,0.04704560711979866,-0.03054405190050602,-0.00017318269237875938,-0.0009093484259210527,0.0009527126676402986,0.0,0.0,0.0,0.0009605293744243681,-4.7089495637919754e-05,-0.0,0.0,0.0,0.0,0.0,0.0,0.0,1495.0,1495.0,1495.0,1495.0,0.0,0.0,0.0,0.0,0.0,0.0,0.0,0.0,1495.0,1495.0,1495.0,1495.0,2.0448617935180664,-0.06447002909879086,0.061875498566738865,-0.039253731048192644,0.0002320276398677379,0.0036406845320016146,0.0
440,5,-6.423153990908759e-06,1.768262154655531e-05,1.6919841527851531e-06,0.0004459779884200543,-0.0001629547477932647,-0.00026640904252417386,-0.009286309592425823,0.047046128660440445,-0.03059733845293522,0.0028798317071050406,-0.0013967715203762054,-0.0003368824254721403,0.0,0.0,0.0,0.0005849946173839271,0.0009207130642607808,-0.0,0.0,0.0,0.0,0.0,0.0,0.0,1495.0,1495.0,1495.0,1495.0,0.0,0.0,0.0,0.0,0.0,0.0,0.0,0.0,1495.0,1495.0,1495.0,1495.0,2.0458803176879883,-0.06472039691775267,0.06225797029089339,-0.03919522963916945,-0.0045389593578875065,0.0022184038534760475,0.0
445,5,-1.3570690953201847e-06,1.79525522980839e-05,9.785072506929282e-06,0.000786321354098618,-9.757361840456724e-05,-0.0010777342831715941,-0.009286309592425823,0.047046128660440445,-0.03059733845293522,0.0028798317071050406,-0.0013967715203762054,-0.0003368824254721403,0.0,0.0,0.0,0.0005849946173839271,0.0009207130642607808,-0.0,0.0,0.0,0.0,0.0,0.0,0.0,1495.0,1495.0,1495.0,1495.0,0.0,0.0,0.0,0.0,0.0,0.0,0.0,0.0,1495.0,1495.0,1495.0,1495.0,2.0458803176879883,-0.06482175742652126,0.062154085504280636,-0.039237957572008125,-0.0045389593578875065,0.0022184038534760475,0.0
450,5,-6.225065135367913e-06,8.632067874714267e-06,1.333540069481387e-07,-0.000269631011178717,0.0010794287081807852,0.000727112521417439,-0.009286309592425823,0.047046128660440445,-0.03059733845293522,0.0028798317071050406,-0.0013967715203762054,-0.0003368824254721403,0.0,0.0,0.0,0.00012292458268348128,0.0005963841686025262,-0.0,0.0,0.0,0.0,0.0,0.0,0.0,1495.0,1495.0,1495.0,1495.0,0.0,0.0,0.0,0.0,0.0,0.0,0.0,0.0,1495.0,1495.0,1495.0,1495.0,2.045879364013672,-0.06486322273154754,0.06210252461559251,-0.03900663687264415,-0.0029400724451988935,0.0004661517741624266,0.0
455,5,-2.534889972594101e-06,8.73793032951653e-06,5.89008595852647e-06,0.0003349686448927969,0.0004190680047031492,-0.0003999628243036568,-0.009286309592425823,0.047046128660440445,-0.03059733845293522,0.0028798317071050406,-0.0013967715203762054,-0.0003368824254721403,0.0,0.0,0.0,0.00012292458268348128,0.0005963841686025262,-0.0,0.0,0.0,0.0,0.0,0.0,0.0,1495.0,1495.0,1495.0,1495.0,0.0,0.0,0.0,0.0,0.0,0.0,0.0,0.0,1495.0,1495.0,1495.0,1495.0,2.045879364013672,-0.06484516818371062,0.06192251156768959,-0.039179094876030836,-0.0029400724451988935,0.0004661517741624266,0.0
461,5,-6.250384103623219e-06,7.300724973902106e-06,1.3723941947318963e-06,-0.000311871845042333,0.0003400917921680957,0.0003821378923021257,-0.00927772931754589,0.047064121812582016,-0.030620353296399117,-0.0026848125271499157,0.00209795031696558,0.0010034664301201701,0.0,0.0,0.0,-0.0004012411227449775,0.00025168139836750925,-0.0,0.0,0.0,0.0,0.0,0.0,0.0,1495.0,1495.0,1495.0,1495.0,0.0,0.0,0.0,0.0,0.0,0.0,0.0,0.0,1495.0,1495.0,1495.0,1495.0,2.046319007873535,-0.06488112326503206,0.062359156183343686,-0.03920266206843186,-0.001241012942045927,-0.001521904137916863,0.0
466,5,-1.8933462342829444e-05,8.916163096728269e-06,-4.1700150177348405e-06,-0.0016467181267216802,-5.781581057817675e-05,0.0008179442374967039,-0.00927772931754589,0.047064121812582016,-0.030620353296399117,-0.0026848125271499157,0.00209795031696558,0.0010034664301201701,0.0,0.0,0.0,-0.0004012411227449775,0.00025168139836750925,-0.0,0.0,0.0,0.0,0.0,0.0,0.0,1495.0,1495.0,1495.0,1495.0,0.0,0.0,0.0,0.0,0.0,0.0,0.0,0.0,1495.0,1495.0,1495.0,1495.0,2.046319007873535,-0.06515836177175659,0.06171474153212974,-0.03911072895689281,-0.001241012942045927,-0.001521904137916863,0.0
471,5,-1.121541117754532e-05,1.0061716238851659e-05,-2.5033730253198883e-06,0.00026747887022793293,-0.00016059278277680278,0.0001271806686418131,-0.009292388334870338,0.04705272987484932,-0.030639035627245903,0.0007286652107723057,-0.0010718905832618475,0.00059272296493873,0.0,0.0,0.0,7.049180567264557e-05,-0.0012734971242025495,-0.0,0.0,0.0,0.0,0.0,0.0,0.0,1495.0,1495.0,1495.0,1495.0,0.0,0.0,0.0,0.0,0.0,0.0,0.0,0.0,1495.0,1495.0,1495.0,1495.0,2.046677350997925,-0.06464616389637025,0.06199997907151471,-0.03907312113846108,0.0062805707566440105,0.000267421652097255,0.0
476,5,-1.2284433978493325e-05,1.1451631507952698e-05,-1.3639753433380974e-06,-2.1291243683663197e-05,-0.00023102689010556787,-8.585544856032357e-05,-0.009292388334870338,0.04705272987484932,-0.030639035627245903,0.0007286652107723057,-0.0010718905832618475,0.00059272296493873,0.0,0.0,0.0,7.049180567264557e-05,-0.0012734971242025495,-0.0,0.0,0.0,0.0,0.0,0.0,0.0,1495.0,1495.0,1495.0,1495.0,0.0,0.0,0.0,0.0,0.0,0.0,0.0,0.0,1495.0,1495.0,1495.0,1495.0,2.046677350997925,-0.06450977628417245,0.06218890718427819,-0.03904604154858014,0.0062805707566440105,0.000267421652097255,0.0
481,5,-1.9188562873750925e-05,1.8944287148769945e-05,3.7108118249307154e-06,-0.0008370118448510766,-0.0009915294358506799,-0.0006433166563510895,-0.009302604012191296,0.04706788435578346,-0.030658723786473274,-0.0001987120631383732,0.0010476344032213092,-0.003329461207613349,0.0,0.0,0.0,0.0002453512279316783,-3.0144699849188328e-05,-0.0,0.0,0.0,0.0,0.0,0.0,0.0,1495.0,1495.0,1495.0,1495.0,0.0,0.0,0.0,0.0,0.0,0.0,0.0,0.0,1495.0,1495.0,1495.0,1495.0,2.0470516681671143,-0.06510862947153544,0.06161160398095808,-0.03893165815169,0.00014869339065626264,0.0009309483575634658,0.0
486,5,-2.5599661057640333e-06,2.248753298772499e-05,9.609903827367816e-06,0.0016606268472969532,-0.000821801193524152,-0.0009652177104726434,-0.009302604012191296,0.04706788435578346,-0.030658723786473274,-0.0001987120631383732,0.0010476344032213092,-0.003329461207613349,0.0,0.0,0.0,0.0002453512279316783,-3.0144699849188328e-05,-0.0,0.0,0.0,0.0,0.0,0.0,0.0,1495.0,1495.0,1495.0,1495.0,0.0,0.0,0.0,0.0,0.0,0.0,0.0,0.0,1495.0,1495.0,1495.0,1495.0,2.0470516681671143,-0.06437338030319618,0.06214241931922436,-0.039237869211494136,0.00014869339065626264,0.0009309483575634658,0.0
491,5,-7.028833124422817e-07,1.4659666703664698e-05,6.288804797804914e-06,0.0008871006430126727,0.0006106233922764659,1.2444784260878805e-05,-0.00931592471897602,0.04708753526210785,-0.030692022293806076,0.0005657331203110516,0.005566680338233709,0.0028592748567461967,0.0,0.0,0.0,0.0008449747110716999,0.0012589656980708241,-0.0,0.0,0.0,0.0,0.0,0.0,0.0,1495.0,1495.0,1495.0,1495.0,0.0,0.0,0.0,0.0,0.0,0.0,0.0,0.0,1495.0,1495.0,1495.0,1495.0,2.047689914703369,-0.06461373335053439,0.062346608084560114,-0.03921205297574504,-0.006211975123733282,0.0032071282621473074,0.0
496,5,4.771176463691518e-06,1.5076047930051573e-05,-1.8523774997447617e-05,0.0010117273777723312,0.0001942836242960766,0.0029824874363839626,-0.00931592471897602,0.04708753526210785,-0.030692022293806076,0.0005657331203110516,0.005566680338233709,0.0028592748567461967,0.0,0.0,0.0,0.0008449747110716999,0.0012589656980708241,-0.0,0.0,0.0,0.0,0.0,0.0,0.0,1495.0,1495.0,1495.0,1495.0,0.0,0.0,0.0,0.0,0.0,0.0,0.0,0.0,1495.0,1495.0,1495.0,1495.0,2.047689914703369,-0.06434450985155958,0.06240717227288265,-0.03920133473261105,-0.006211975123733282,0.0032071282621473074,0.0
501,5,-4.051419637107756e-06,9.651766958995722e-06,-3.662205244836514e-06,-0.0006540205795317888,0.0007286271429620683,-0.0005903933779336512,-0.009324247017502785,0.04706941545009613,-0.030734168365597725,-0.0023497126530855894,-0.0007295962423086166,-0.009498110972344875,0.0,0.0,0.0,-0.00016958040941972286,0.0007736714323982596,-0.0,0.0,0.0,0.0,0.0,0.0,0.0,1495.0,1495.0,1495.0,1495.0,0.0,0.0,0.0,0.0,0.0,0.0,0.0,0.0,1495.0,1495.0,1495.0,1495.0,2.048492670059204,-0.06454895519960592,0.06198838650542882,-0.03920029839770439,-0.0038189401384443045,-0.0006439003045670688,0.0
506,5,-1.2094124940631445e-05,1.650090234761592e-05,1.6876036852409015e-06,-0.001226732856594026,-0.000530445366166532,-0.0008781343931332231,-0.009324247017502785,0.04706941545009613,-0.030734168365597725,-0.0023497126530855894,-0.0007295962423086166,-0.009498110972344875,0.0,0.0,0.0,-0.00016958040941972286,0.0007736714323982596,-0.0,0.0,0.0,0.0,0.0,0.0,0.0,1495.0,1495.0,1495.0,1495.0,0.0,0.0,0.0,0.0,0.0,0.0,0.0,0.0,1495.0,1495.0,1495.0,1495.0,2.048492670059204,-0.06474656843212302,0.06219182729031519,-0.03912319244832326,-0.0038189401384443045,-0.0006439003045670688,0.0
511,5,-1.464061006117845e-05,1.0711821232689545e-05,1.6552846773265628e-06,-0.0007962713134475052,0.0004825115611311048,-0.0003473754914011806,-0.009304622188210487,0.04706944152712822,-0.0307767391204834,0.002087770262733102,-0.00033388796146027744,-0.004123317543417215,0.0,0.0,0.0,0.0005480354884639382,-0.0009453234379179776,-0.0,0.0,0.0,0.0,0.0,0.0,0.0,1495.0,1495.0,1495.0,1495.0,0.0,0.0,0.0,0.0,0.0,0.0,0.0,0.0,1495.0,1495.0,1495.0,1495.0,2.0493059158325195,-0.06479623035491415,0.06206542397335104,-0.039267842250306474,0.004668087232857943,0.0020817278418689966,0.0
516,5,-1.1393896784284152e-05,1.804136991268024e-05,2.805875055855722e-06,7.109707803465426e-05,-0.0006865411414764822,-0.00027702105580829084,-0.009304622188210487,0.04706944152712822,-0.0307767391204834,0.002087770262733102,-0.00033388796146027744,-0.004123317543417215,0.0,0.0,0.0,0.0005480354884639382,-0.0009453234379179776,-0.0,0.0,0.0,0.0,0.0,0.0,0.0,1495.0,1495.0,1495.0,1495.0,0.0,0.0,0.0,0.0,0.0,0.0,0.0,0.0,1495.0,1495.0,1495.0,1495.0,2.0493059158325195,-0.06535436791515456,0.061779757552281316,-0.03915060815776358,0.004668087232857943,0.0020817278418689966,0.0
521,5,-1.1795462341979146e-05,2.2499298211187124e-05,8.170379260263871e-06,-1.9749049897654913e-05,-0.0008095679222606122,-0.0007545489352196455,-0.009292440488934517,0.04705990478396416,-0.030833210796117783,-0.0010572492610663176,0.004175556357949972,-0.005909068044275045,0.0,0.0,0.0,0.0007040142663754523,4.100373189430684e-05,-0.0,0.0,0.0,0.0,0.0,0.0,0.0,1495.0,1495.0,1495.0,1495.0,0.0,0.0,0.0,0.0,0.0,0.0,0.0,0.0,1495.0,1495.0,1495.0,1495.0,2.050382614135742,-0.06492126197793187,0.06195027517865578,-0.039184240605433046,-0.00020258630684111267,0.0026756227016448975,0.0
527,5,-3.822172857326223e-06,1.623345997359138e-05,1.4835984984529205e-05,0.0009488951181992888,0.00042807342833839357,-0.0011016923235729337,-0.009292440488934517,0.04705990478396416,-0.030833210796117783,-0.0010572492610663176,0.004175556357949972,-0.005909068044275045,0.0,0.0,0.0,0.0007040142663754523,4.100373189430684e-05,-0.0,0.0,0.0,0.0,0.0,0.0,0.0,1495.0,1495.0,1495.0,1495.0,0.0,0.0,0.0,0.0,0.0,0.0,0.0,0.0,1495.0,1495.0,1495.0,1495.0,2.050382614135742,-0.06518758311769075,0.062045096741667,-0.039134671735180086,-0.00020258630684111267,0.0026756227016448975,0.0
532,5,-9.435443644179031e-06,1.1563409316295292e-05,1.621762180548103e-06,-0.0002940343983937055,0.0007316354312933981,0.0011450299061834812,-0.009283973835408688,0.04706054553389549,-0.030829040333628654,0.0027977011632174253,0.002558152424171567,-0.0028862080071121454,0.0,0.0,0.0,0.0007040142663754523,4.100373189430684e-05,-0.0,0.0,0.0,0.0,0.0,0.0,0.0,1495.0,1495.0,1495.0,1495.0,0.0,0.0,0.0,0.0,0.0,0.0,0.0,0.0,1495.0,1495.0,1495.0,1495.0,2.050382614135742,-0.06462123392393042,0.06245847488727945,-0.03933616750148812,-0.00020258630684111267,0.0026756227016448975,0.0
537,5,-9.608610525901895e-06,1.0317429769202136e-05,-7.81578455644194e-06,-0.0001383938651997596,0.0004421717603690922,0.0015905174659565091,-0.009283973835408688,0.04706054553389549,-0.030829040333628654,0.0027977011632174253,0.002558152424171567,-0.0028862080071121454,0.0,0.0,0.0,-0.0007047007675282657,-0.00023396842880174518,-0.0,0.0,0.0,0.0,0.0,0.0,0.0,1495.0,1495.0,1495.0,1495.0,0.0,0.0,0.0,0.0,0.0,0.0,0.0,0.0,1495.0,1495.0,1495.0,1495.0,2.0503032207489014,-0.06493619815501257,0.0620097697894411,-0.038939476621234204,0.0011559182312339544,-0.0026781277265399694,0.0
542,5,-6.0400980146368966e-06,8.447394066024572e-06,-1.3357887837628368e-05,0.00037286398583091795,0.0004012729332316667,0.0013012593844905496,-0.009261921048164368,0.04706773906946182,-0.03086158074438572,0.00013008915993850678,0.0009963461197912693,-0.002166092861443758,0.0,0.0,0.0,-0.0007047007675282657,-0.00023396842880174518,-0.0,0.0,0.0,0.0,0.0,0.0,0.0,1495.0,1495.0,1495.0,1495.0,0.0,0.0,0.0,0.0,0.0,0.0,0.0,0.0,1495.0,1495.0,1495.0,1495.0,2.0503032207489014,-0.06499679498078687,0.06185244038366813,-0.039119193124493905,0.0011559182312339544,-0.0026781277265399694,0.0
547,5,-2.5142543336187373e-07,1.3696054338652175e-05,-1.9181405150447972e-05,0.0008437862852588296,-0.0004693300579674542,0.0012193258153274655,-0.009261921048164368,0.04706773906946182,-0.03086158074438572,0.00013008915993850678,0.0009963461197912693,-0.002166092861443758,0.0,0.0,0.0,-0.0003831031790468842,0.00027592238620854914,-0.0,0.0,0.0,0.0,0.0,0.0,0.0,1495.0,1495.0,1495.0,1495.0,0.0,0.0,0.0,0.0,0.0,0.0,0.0,0.0,1495.0,1495.0,1495.0,1495.0,2.0509235858917236,-0.06448421403905752,0.061944675943845055,-0.03899983685127171,-0.001363603980280459,-0.001456376863643527,0.0
