timestamp,dt,pos_x,pos_y,pos_z,vel_x,vel_y,vel_z,roll,pitch,yaw,agv_x,agv_y,agv_z,x_ref,y_ref,z_ref,roll_ref,pitch_ref,yaw_ref,x_vel_ref,y_vel_ref,z_vel_ref,x_torque,y_torque,z_torque,w0,w1,w2,w3,u0,u1,u2,u3,m0req,m1req,m2req,m3req,thrust0,thrust1,thrust2,thrust3,thrust_ref,roll_vicon,pitch_vicon,yaw_vicon,acc_x,acc_y,acc_z
5,5,0.0,0.0,0.0,3.24641696352046e-05,-0.0001740260631777346,0.0003984477370977402,0.001951607526279986,0.04902319237589836,-0.0010248373728245497,-0.0007013502763584256,-0.00252400035969913,0.0031143527012318373,0.0,0.0,0.0,0.00016630931349936873,3.102462869719602e-05,-0.0,0.0,0.0,0.0,-0.000568079121876508,-0.014741429127752781,1.7243970432900824e-05,1495.0,1495.0,1495.0,1495.0,0.0,0.0,0.0,0.0,0.0,0.0,0.0,0.0,1495.0,1495.0,1495.0,1495.0,1.6284600496292114,-0.025418224101720833,0.0736490071446222,0.06511867421913367,-0.00012174063886050135,0.00065259775146842,0.0
31,25,0.0,0.0,0.0,0.001030474784784019,0.000759434886276722,4.6382636355701834e-05,0.001951607526279986,0.04902319237589836,-0.0010248373728245497,-0.0007013502763584256,-0.00252400035969913,0.0031143527012318373,0.0,0.0,0.0,0.00016630931349936873,3.102462869719602e-05,-0.0,0.0,0.0,0.0,-0.000568079121876508,-0.014741429127752781,1.7243970432900824e-05,1495.0,1495.0,1495.0,1495.0,0.0,0.0,0.0,0.0,0.0,0.0,0.0,0.0,1495.0,1495.0,1495.0,1495.0,1.6284600496292114,-0.025559564641134458,0.07325336433940925,0.06512373346520567,-0.00012174063886050135,0.00065259775146842,0.0
36,5,0.0,0.0,0.0,0.0008056980441324413,-0.0007129705627448857,-0.00036253686994314194,0.0019587629940360785,0.049026455730199814,-0.001006835955195129,-0.001203828607685864,-5.949928890913725e-06,0.0025297885295003653,0.0,0.0,0.0,-0.0009375521331094205,0.0009785861475393176,-0.0,0.0,0.0,0.0,-0.0006035153637640178,-0.014575518667697906,-2.5416107746423222e-05,1495.0,1495.0,1495.0,1495.0,0.0,0.0,0.0,0.0,0.0,0.0,0.0,0.0,1495.0,1495.0,1495.0,1495.0,1.6387697458267212,-0.025303439911686387,0.07384992167802203,0.06519661067507482,-0.0038642804138362408,-0.0028478808235377073,0.0
41,5,0.0,0.0,0.0,-0.0009117306326515973,-0.0012944608461111784,0.00042271046550013125,0.0019587629940360785,0.049026455730199814,-0.001006835955195129,-0.001203828607685864,-5.949928890913725e-06,0.0025297885295003653,0.0,0.0,0.0,-0.0009375521331094205,0.0009785861475393176,-0.0,0.0,0.0,0.0,-0.0006035153637640178,-0.014575518667697906,-2.5416107746423222e-05,1495.0,1495.0,1495.0,1495.0,0.0,0.0,0.0,0.0,0.0,0.0,0.0,0.0,1495.0,1495.0,1495.0,1495.0,1.6387697458267212,-0.025643075012752887,0.07350309522108169,0.0652195983762339,-0.0038642804138362408,-0.0028478808235377073,0.0
46,5,0.0,0.0,0.0,-0.0003370376070961356,-0.0013475086307153106,-0.0006814664811827242,0.0019587629940360785,0.049026455730199814,-0.001006835955195129,-0.001203828607685864,-5.949928890913725e-06,0.0025297885295003653,0.0,0.0,0.0,-0.0009375521331094205,0.0009785861475393176,-0.0,0.0,0.0,0.0,-0.0006035153637640178,-0.014575518667697906,-2.5416107746423222e-05,1495.0,1495.0,1495.0,1495.0,0.0,0.0,0.0,0.0,0.0,0.0,0.0,0.0,1495.0,1495.0,1495.0,1495.0,1.6387697458267212,-0.02539798463159503,0.07356776243679393,0.06525384382132161,-0.0038642804138362408,-0.0028478808235377073,0.0
51,5,0.0,0.0,0.0,-0.0003370376070961356,-0.0013475086307153106,-0.0006814664811827242,0.0019587629940360785,0.049026455730199814,-0.001006835955195129,-0.001203828607685864,-5.949928890913725e-06,0.0025297885295003653,0.0,0.0,0.0,-0.0009375521331094205,0.0009785861475393176,-0.0,0.0,0.0,0.0,-0.0006035153637640178,-0.014575518667697906,-2.5416107746423222e-05,1495.0,1495.0,1495.0,1495.0,0.0,0.0,0.0,0.0,0.0,0.0,0.0,0.0,1495.0,1495.0,1495.0,1495.0,1.6387697458267212,-0.02539798463159503,0.07356776243679393,0.06525384382132161,-0.0038642804138362408,-0.0028478808235377073,0.0
56,5,0.0,0.0,0.0,-0.0003370376070961356,-0.0013475086307153106,-0.0006814664811827242,0.001965649425983429,0.04898481443524361,-0.000993708847090602,0.001586848171427846,0.0002901793923228979,-0.0017563648289069533,0.0,0.0,0.0,0.0016624298878014088,-0.0003198504855390638,-0.0,0.0,0.0,0.0,-0.0006035153637640178,-0.014575518667697906,-2.5416107746423222e-05,1495.0,1495.0,1495.0,1495.0,0.0,0.0,0.0,0.0,0.0,0.0,0.0,0.0,1495.0,1495.0,1495.0,1495.0,1.6398770809173584,-0.02539798463159503,0.07356776243679393,0.06525384382132161,0.001263890997506678,0.005053157452493906,0.0
61,5,-4.462786819203757e-06,-9.090993444260675e-06,-2.224113450211007e-05,-0.0006736912182532251,0.000535207218490541,0.002932510804384947,0.0019510759739205241,0.04897695407271385,-0.0010195821523666382,0.0005524318548850715,-0.00022875536524225026,-0.0025974088348448277,0.0,0.0,0.0,-0.0006789162289351225,-0.0006476196576841176,-0.0,0.0,0.0,0.0,-0.000502066221088171,-0.014629813842475414,-0.00019434813293628395,12381.0,14611.0,14411.0,12464.0,0.3380735218524933,0.48064544796943665,0.46683672070503235,0.34290435910224915,0.0,0.0,0.0,0.0,12404.0,14596.0,14437.0,12428.0,1.634640097618103,-0.02576598052044839,0.07341767593398368,0.06504201168509832,0.00255090300925076,-0.002057059435173869,0.0
69,7,-6.622012733714655e-06,-3.619464450821397e-06,-3.744939385796897e-05,-0.0011240218300372362,-0.0008731812122277915,0.0010929802665486932,0.0019510759739205241,0.04897695407271385,-0.0010195821523666382,0.0005524318548850715,-0.00022875536524225026,-0.0025974088348448277,0.0,0.0,0.0,-0.0006789162289351225,-0.0006476196576841176,-0.0,0.0,0.0,0.0,-0.000502066221088171,-0.014629813842475414,-0.00019434813293628395,12381.0,14611.0,14411.0,12464.0,0.3380735218524933,0.48064544796943665,0.46683672070503235,0.34290435910224915,0.0,0.0,0.0,0.0,12404.0,14596.0,14437.0,12428.0,1.634640097618103,-0.02559541430907284,0.07348813899728268,0.06507794574310133,0.00255090300925076,-0.002057059435173869,0.0
74,5,-2.8898809887323296e-06,-1.0960156942019239e-05,-1.4226710845832713e-05,-1.7529374645164353e-06,0.0005316106253303587,-0.0023495296481996775,0.0019510759739205241,0.04897695407271385,-0.0010195821523666382,0.0005524318548850715,-0.00022875536524225026,-0.0025974088348448277,0.0,0.0,0.0,-0.0006789162289351225,-0.0006476196576841176,-0.0,0.0,0.0,0.0,-0.000502066221088171,-0.014629813842475414,-0.00019434813293628395,12381.0,14611.0,14411.0,12464.0,0.3380735218524933,0.48064544796943665,0.46683672070503235,0.34290435910224915,0.0,0.0,0.0,0.0,12404.0,14596.0,14437.0,12428.0,1.634640097618103,-0.02520144292912669,0.07382550986845347,0.06524419450470755,0.00255090300925076,-0.002057059435173869,0.0
79,5,7.561735401395708e-06,-1.3030905392952263e-05,6.699984851366025e-07,0.0012534927809610963,0.0004611340700648725,-0.002727417042478919,0.0019448590464890003,0.04900423809885979,-0.001016917871311307,0.0030135747510939837,-0.0015748079167678952,-0.0008710320689715445,0.0,0.0,0.0,-0.0006792492931708694,-5.722257355955662e-06,-0.0,0.0,0.0,0.0,-0.0008502894779667258,-0.014448652043938637,-6.0608592320932075e-05,12405.0,14595.0,14438.0,12427.0,0.3394721746444702,0.4795683026313782,0.46868467330932617,0.34073489904403687,0.0,0.0,0.0,0.0,12427.0,14584.0,14446.0,12409.0,1.6313220262527466,-0.025452554286481337,0.07347963601890976,0.06526425193604328,2.2493595679407008e-05,-0.0020538908429443836,0.0
84,5,4.804760919796536e-06,-1.5675328540964983e-05,1.4792170077271294e-05,0.0001705601898720488,0.000501784379594028,-0.0027856274973601103,0.0019448590464890003,0.04900423809885979,-0.001016917871311307,0.0030135747510939837,-0.0015748079167678952,-0.0008710320689715445,0.0,0.0,0.0,-0.0006792492931708694,-5.722257355955662e-06,-0.0,0.0,0.0,0.0,-0.0008502894779667258,-0.014448652043938637,-6.0608592320932075e-05,12405.0,14595.0,14438.0,12427.0,0.3394721746444702,0.4795683026313782,0.46868467330932617,0.34073489904403687,0.0,0.0,0.0,0.0,12427.0,14584.0,14446.0,12409.0,1.6313220262527466,-0.02529409125423381,0.07369807699384572,0.06524361152786116,2.2493595679407008e-05,-0.0020538908429443836,0.0
89,5,3.841406396531966e-06,-8.895888640836347e-06,1.7729220417095348e-05,-4.737847484648228e-05,-0.0006128190434537828,-0.001466696965508163,0.0019537010230123997,0.049006301909685135,-0.0010119505459442735,0.001128208707086742,-0.004069377202540636,0.00299472245387733,0.0,0.0,0.0,-0.0006508285878226161,0.0001694249513093382,-0.0,0.0,0.0,0.0,-6.449603824876249e-05,-0.014667253009974957,-0.00022644517594017088,12372.0,14645.0,14464.0,12564.0,0.3375430107116699,0.48302340507507324,0.47047632932662964,0.3488343358039856,0.0,0.0,0.0,0.0,12523.0,14613.0,14458.0,12440.0,1.631386160850525,-0.02560818744793919,0.07338390721789159,0.06529835127384878,-0.0006660179933533072,-0.0019680308178067207,0.0
94,5,-4.002792138635414e-06,-1.2413303011271637e-05,7.228637059597531e-06,-0.0009602552163414657,0.00017696214490570128,0.0006733912159688771,0.0019381101010367274,0.0489882230758667,-0.0010662655113264918,0.0005461753462441266,-0.0016303572338074446,-0.0006958696758374572,0.0,0.0,0.0,-0.00024143930932041258,-0.0009191616554744542,-0.0,0.0,0.0,0.0,-0.0007940203649923205,-0.014890199527144432,-0.00016026364755816758,12426.0,14652.0,14448.0,12432.0,0.34070098400115967,0.48347991704940796,0.46941035985946655,0.34104883670806885,0.0,0.0,0.0,0.0,12339.0,14672.0,14454.0,12577.0,1.6357768774032593,-0.025623298056869637,0.07337788065398379,0.06527258299976213,0.0036229954566806555,-0.0007320496952161193,0.0
101,7,-1.1017539691238198e-05,-1.229895406140713e-05,-7.734313840046525e-06,-0.001225871848873794,5.7063003623625264e-05,0.0020649104844778776,0.0019381101010367274,0.0489882230758667,-0.0010662655113264918,0.0005461753462441266,-0.0016303572338074446,-0.0006958696758374572,0.0,0.0,0.0,-0.00024143930932041258,-0.0009191616554744542,-0.0,0.0,0.0,0.0,-0.0007940203649923205,-0.014890199527144432,-0.00016026364755816758,12426.0,14652.0,14448.0,12432.0,0.34070098400115967,0.48347991704940796,0.46941035985946655,0.34104883670806885,0.0,0.0,0.0,0.0,12339.0,14672.0,14454.0,12577.0,1.6357768774032593,-0.0255093342696902,0.07361815618124104,0.06513883143707365,0.0036229954566806555,-0.0007320496952161193,0.0
106,5,-3.040373940166319e-06,-1.0173561349802185e-05,-2.399507320660632e-05,0.0004669112095143646,-0.00023222193703986704,0.0027772553730756044,0.0019400448072701693,0.0490201897919178,-0.0010862367926165462,-0.00011284898209851235,0.007288832683116198,-0.003980403300374746,0.0,0.0,0.0,-0.00024143930932041258,-0.0009191616554744542,-0.0,0.0,0.0,0.0,-0.0008307909592986107,-0.014685926027595997,-0.00011012120376108214,12397.0,14652.0,14383.0,12482.0,0.3389813303947449,0.4834797978401184,0.4649195671081543,0.343941330909729,0.0,0.0,0.0,0.0,12461.0,14598.0,14435.0,12419.0,1.6357768774032593,-0.025468182847799968,0.07358346634449865,0.06534582188104467,0.0036229954566806555,-0.0007320496952161193,0.0
112,6,-6.216719611984445e-06,3.884685611410532e-06,-1.8742370230029337e-05,-0.00019439701281953603,-0.0017798783956095576,0.0004805778444278985,0.0019400448072701693,0.0490201897919178,-0.0010862367926165462,-0.00011284898209851235,0.007288832683116198,-0.003980403300374746,0.0,0.0,0.0,0.0002694853756111115,0.00044126322609372437,-0.0,0.0,0.0,0.0,-0.0008307909592986107,-0.014685926027595997,-0.00011012120376108214,12397.0,14652.0,14383.0,12482.0,0.3389813303947449,0.4834797978401184,0.4649195671081543,0.343941330909729,0.0,0.0,0.0,0.0,12461.0,14598.0,14435.0,12419.0,1.630947232246399,-0.02558005378327916,0.07333926445099875,0.06511046692645199,-0.0017341614002361894,0.000814673607237637,0.0
117,5,-5.043844339525094e-06,-8.837739187583793e-06,-1.507221986685181e-05,6.298622611211613e-05,0.000814739556517452,-0.0002481869887560606,0.0019549888093024492,0.04900943487882614,-0.0010646454757079482,0.0021279517095535994,0.00010807484795805067,-0.003574357833713293,0.0,0.0,0.0,0.0021972625982016325,-0.00019266405433882028,-0.0,0.0,0.0,0.0,-0.0006685031112283468,-0.014934427104890347,-8.296049054479226e-05,12422.0,14635.0,14411.0,12445.0,0.34044405817985535,0.4823433458805084,0.4668146073818207,0.34178414940834045,0.0,0.0,0.0,0.0,12421.0,14632.0,14421.0,12438.0,1.6440210342407227,-0.025293367777986252,0.07365560813357999,0.06529294660935794,0.000763236079365015,0.006695719435811043,0.0
122,5,-2.5667550289654173e-06,-9.21317496249685e-06,-1.094991330319317e-05,0.00032244520843960345,0.0003709481388796121,-0.0005939515540376306,0.0019457846647128463,0.04900364205241203,-0.001065698335878551,2.354487332922872e-05,0.0040672458708286285,0.0013234985526651144,0.0,0.0,0.0,-0.0004770162922795862,0.0003040906449314207,-0.0,0.0,0.0,0.0,-0.0004937417106702924,-0.01452096737921238,-0.00017213981482200325,12444.0,14629.0,14481.0,12423.0,0.3417174220085144,0.4819186329841614,0.4716641902923584,0.3404766321182251,0.0,0.0,0.0,0.0,12459.0,14612.0,14508.0,12396.0,1.630829930305481,-0.025635114214739796,0.07383301961786366,0.06540337905360005,-0.0011949880281463265,-0.0014419506769627333,0.0
130,8,5.805492946819868e-06,-1.1212470781174488e-05,7.126317996153375e-06,0.0012028911150991917,2.966358260891866e-05,-0.0013863601488992572,0.0019457846647128463,0.04900364205241203,-0.001065698335878551,2.354487332922872e-05,0.0040672458708286285,0.0013234985526651144,0.0,0.0,0.0,-0.0004770162922795862,0.0003040906449314207,-0.0,0.0,0.0,0.0,-0.0004937417106702924,-0.01452096737921238,-0.00017213981482200325,12444.0,14629.0,14481.0,12423.0,0.3417174220085144,0.4819186329841614,0.4716641902923584,0.3404766321182251,0.0,0.0,0.0,0.0,12459.0,14612.0,14508.0,12396.0,1.630829930305481,-0.025543115533428314,0.07362223427233495,0.0653335964988671,-0.0011949880281463265,-0.0014419506769627333,0.0
135,5,1.9422675450186944e-06,-1.194360538647743e-05,6.034565103618661e-06,1.756940400809981e-05,9.960158058675006e-05,-0.0004235337255522609,0.0019457846647128463,0.04900364205241203,-0.001065698335878551,2.354487332922872e-05,0.0040672458708286285,0.0013234985526651144,0.0,0.0,0.0,-0.0004770162922795862,0.0003040906449314207,-0.0,0.0,0.0,0.0,-0.0004937417106702924,-0.01452096737921238,-0.00017213981482200325,12444.0,14629.0,14481.0,12423.0,0.3417174220085144,0.4819186329841614,0.4716641902923584,0.3404766321182251,0.0,0.0,0.0,0.0,12459.0,14612.0,14508.0,12396.0,1.630829930305481,-0.025228643839538097,0.0739295751340795,0.06527769694098264,-0.0011949880281463265,-0.0014419506769627333,0.0
140,5,-3.864035079459427e-06,-2.3732198314974084e-05,-7.573981747555081e-06,-0.0006897285347804427,0.001454471843317151,0.001463612075895071,0.0019296158570796251,0.0490109845995903,-0.001042352756485343,0.004605593625456095,-0.003940758295357227,0.0011714439606294036,0.0,0.0,0.0,-0.00014559082046616822,1.9498018446029164e-05,-0.0,0.0,0.0,0.0,5.6448683608323336e-05,-0.014898035675287247,-3.588703111745417e-05,12447.0,14599.0,14570.0,12491.0,0.3418916165828705,0.4798540771007538,0.4777803122997284,0.34449502825737,0.0,0.0,0.0,0.0,12444.0,14578.0,14452.0,12435.0,1.6284600496292114,-0.025171554305387,0.07352786134111487,0.06510087772705855,-7.65102231525816e-05,-0.00043946030200459063,0.0
145,5,-2.7045591650676215e-06,-1.4879552509228233e-05,-1.584334677318111e-05,-0.00013675433001480997,-0.00048052871716208756,0.0015777685912325978,0.0019296158570796251,0.0490109845995903,-0.001042352756485343,0.004605593625456095,-0.003940758295357227,0.0011714439606294036,0.0,0.0,0.0,-0.00014559082046616822,1.9498018446029164e-05,-0.0,0.0,0.0,0.0,5.6448683608323336e-05,-0.014898035675287247,-3.588703111745417e-05,12447.0,14599.0,14570.0,12491.0,0.3418916165828705,0.4798540771007538,0.4777803122997284,0.34449502825737,0.0,0.0,0.0,0.0,12444.0,14578.0,14452.0,12435.0,1.6284600496292114,-0.025316073555677884,0.07381006005015703,0.06519183863363813,-7.65102231525816e-05,-0.00043946030200459063,0.0
150,5,-3.127092440990964e-06,-9.28471581573831e-06,-9.327742191089783e-06,-0.00010540571383899078,-0.0008635919075459242,-0.00015076504496391863,0.0019534332677721977,0.049025099724531174,-0.0010393428383395076,-0.004977904725819826,0.003540309611707926,-0.002938724122941494,0.0,0.0,0.0,0.0005690118414349854,-0.00013431922707241029,-0.0,0.0,0.0,0.0,-0.000697814451996237,-0.014635194092988968,-0.00012074816186213866,12418.0,14616.0,14418.0,12454.0,0.34018781781196594,0.4810244143009186,0.46730437874794006,0.34231331944465637,0.0,0.0,0.0,0.0,12418.0,14633.0,14540.0,12515.0,1.6306296586990356,-0.025336445640703028,0.07371367115309674,0.06515846105625765,0.0005277707823552191,0.0017198285786435008,0.0
155,5,-8.015074854483828e-06,-1.575141868670471e-05,-1.3423162272374611e-05,-0.0006287202122621238,0.0004305676557123661,0.00043114437721669674,0.0019534332677721977,0.049025099724531174,-0.0010393428383395076,-0.004977904725819826,0.003540309611707926,-0.002938724122941494,0.0,0.0,0.0,0.0005690118414349854,-0.00013431922707241029,-0.0,0.0,0.0,0.0,-0.000697814451996237,-0.014635194092988968,-0.00012074816186213866,12418.0,14616.0,14418.0,12454.0,0.34018781781196594,0.4810244143009186,0.46730437874794006,0.34231331944465637,0.0,0.0,0.0,0.0,12418.0,14633.0,14540.0,12515.0,1.6306296586990356,-0.025454733541168256,0.07356879012473706,0.06523755117342028,0.0005277707823552191,0.0017198285786435008,0.0
160,5,-3.87345016861218e-06,-1.6320178474416025e-05,-1.752227581164334e-05,0.0002455069334246218,0.00024047816987149417,0.0006643513916060328,0.0019084406085312366,0.0490434356033802,-0.0009558421443216503,-0.00021134637063369155,-0.005570093635469675,0.024666553363204002,0.0,0.0,0.0,-0.000561921508051455,-0.0006101231556385756,-0.0,0.0,0.0,0.0,-0.0007081513176672161,-0.014804093167185783,0.00027473369846120477,12607.0,14430.0,14626.0,12195.0,0.3513602614402771,0.4681205153465271,0.4816848635673523,0.32729440927505493,0.0,0.0,0.0,0.0,12419.0,14609.0,14426.0,12450.0,1.6337356567382812,-0.025738533451375466,0.07330222729171766,0.06554237976892717,0.002401878824457526,-0.0017016332130879164,0.0
165,5,-0.00015823265130165964,-0.00013225174916442484,0.0003189094422850758,-0.018424902111291885,0.014007979072630405,-0.040106065571308136,0.0019084406085312366,0.0490434356033802,-0.0009558421443216503,-0.00021134637063369155,-0.005570093635469675,0.024666553363204002,0.0,0.0,0.0,-0.000561921508051455,-0.0006101231556385756,-0.0,0.0,0.0,0.0,-0.0007081513176672161,-0.014804093167185783,0.00027473369846120477,12607.0,14430.0,14626.0,12195.0,0.3513602614402771,0.4681205153465271,0.4816848635673523,0.32729440927505493,0.0,0.0,0.0,0.0,12419.0,14609.0,14426.0,12450.0,1.6337356567382812,-0.036467092999667744,0.0673657019091522,0.0610631224028233,0.002401878824457526,-0.0017016332130879164,0.0
170,5,-0.00016538029012735933,-6.663695239694789e-05,0.00030563442851416767,-0.008227676153182983,-0.002270583063364029,-0.014449424110352993,0.0019657688681036234,0.04908747971057892,-0.0011825349647551775,-0.0061775934882462025,-0.002024149987846613,-0.04264206811785698,0.0,0.0,0.0,-0.015464192256331444,-0.015628332272171974,-0.0,0.0,0.0,0.0,-0.0006805245066061616,-0.014693016186356544,-0.0023696015123277903,11573.0,15251.0,13758.0,13219.0,0.2925140857696533,0.5262231230735779,0.423170268535614,0.38872218132019043,0.0,0.0,0.0,0.0,12761.0,14301.0,14750.0,12035.0,1.8581537008285522,-0.03392418105522579,0.06834987455105461,0.06255288649235041,0.06996431201696396,-0.05325813964009285,0.0
175,5,-0.00015894162061158568,-7.356334390351549e-05,0.0002974205417558551,-0.002518431516364217,-7.706653559580445e-05,-0.004794103559106588,0.0019657688681036234,0.04908747971057892,-0.0011825349647551775,-0.0061775934882462025,-0.002024149987846613,-0.04264206811785698,0.0,0.0,0.0,-0.015464192256331444,-0.015628332272171974,-0.0,0.0,0.0,0.0,-0.0006805245066061616,-0.014693016186356544,-0.0023696015123277903,11573.0,15251.0,13758.0,13219.0,0.2925140857696533,0.5262231230735779,0.423170268535614,0.38872218132019043,0.0,0.0,0.0,0.0,12761.0,14301.0,14750.0,12035.0,1.8581537008285522,-0.03417102169103005,0.06842894616107022,0.06259970683456287,0.06996431201696396,-0.05325813964009285,0.0
181,5,-0.00016345185576938093,-0.00011422096577007324,0.0003234253672417253,-0.0015486004995182157,0.004848088137805462,-0.005038220435380936,0.0020183075685054064,0.04905708506703377,-0.0008801855728961527,0.011657276190817356,0.028209591284394264,-0.08189050108194351,0.0,0.0,0.0,-3.8069061702117324e-05,-0.0025897074956446886,-0.0,0.0,0.0,0.0,-0.0007221653941087425,-0.01434982568025589,0.0001422770001227036,12049.0,14920.0,14037.0,12879.0,0.3189276158809662,0.5023677349090576,0.44158872961997986,0.36774560809135437,0.0,0.0,0.0,0.0,12884.0,14154.0,14926.0,11897.0,1.6536996364593506,-0.03523736798949788,0.0680060376045621,0.06153380037262795,0.010319502092897892,-0.000116690993309021,0.0
186,5,-0.00017255914281122386,-0.00010539086360950023,0.00034298276295885444,-0.0017123150173574686,0.0008796229958534241,-0.004362173844128847,0.0020183075685054064,0.04905708506703377,-0.0008801855728961527,0.011657276190817356,0.028209591284394264,-0.08189050108194351,0.0,0.0,0.0,-3.8069061702117324e-05,-0.0025897074956446886,-0.0,0.0,0.0,0.0,-0.0007221653941087425,-0.01434982568025589,0.0001422770001227036,12049.0,14920.0,14037.0,12879.0,0.3189276158809662,0.5023677349090576,0.44158872961997986,0.36774560809135437,0.0,0.0,0.0,0.0,12884.0,14154.0,14926.0,11897.0,1.6536996364593506,-0.036655145190882296,0.06723144576946773,0.061711090673710264,0.010319502092897892,-0.000116690993309021,0.0
191,5,-0.0001670639612711966,-8.99853985174559e-05,0.00033729473943822086,-2.5503528377157636e-05,-0.0014968067407608032,-0.0010623076232150197,0.001986553194001317,0.04908718913793564,-0.000998864765278995,-0.005471352953463793,-0.005789044313132763,0.03913051262497902,0.0,0.0,0.0,-0.0012698331847786903,-0.001856073271483183,-0.0,0.0,0.0,0.0,-0.0005355479079298675,-0.015514022670686245,0.001534090843051672,12975.0,14138.0,15000.0,11777.0,0.3735978901386261,0.44831809401512146,0.5081111788749695,0.3037085235118866,0.0,0.0,0.0,0.0,11259.0,15555.0,13386.0,13558.0,1.6483248472213745,-0.03488614845874827,0.06760879821469369,0.06217838014751888,0.0073720659129321575,-0.003879697062075138,0.0
196,5,-0.00017083036073017865,-0.0001436391903553158,0.0003552006382960826,-0.00046217002090997994,0.005839732475578785,-0.002573632635176182,0.001986553194001317,0.04908718913793564,-0.000998864765278995,-0.005471352953463793,-0.005789044313132763,0.03913051262497902,0.0,0.0,0.0,-0.0012698331847786903,-0.001856073271483183,-0.0,0.0,0.0,0.0,-0.0005355479079298675,-0.015514022670686245,0.001534090843051672,12975.0,14138.0,15000.0,11777.0,0.3735978901386261,0.44831809401512146,0.5081111788749695,0.3037085235118866,0.0,0.0,0.0,0.0,11259.0,15555.0,13386.0,13558.0,1.6483248472213745,-0.03663764696619095,0.06785541352568872,0.06114785241487431,0.0073720659129321575,-0.003879697062075138,0.0
201,5,-0.00019685548613779247,-9.958395821740851e-05,0.000375750387320295,-0.0033078815322369337,-0.002950735157355666,-0.0034954200964421034,0.001915684319101274,0.04907280579209328,-0.0010750713991001248,-0.01995379477739334,-0.03323895111680031,-0.022143693640828133,0.0,0.0,0.0,-0.007254892028868198,-0.0006579317850992084,-0.0,0.0,0.0,0.0,-0.004890598356723785,-0.019557125866413116,-0.0008361159707419574,12981.0,16190.0,15078.0,12978.0,0.3739936649799347,0.5966997146606445,0.5136796832084656,0.37378063797950745,0.0,0.0,0.0,0.0,13445.0,15873.0,15296.0,12639.0,1.6874098777770996,-0.03665678236731114,0.06727218071202788,0.06176279368551826,0.0026751116383820772,-0.022690976038575172,0.0
206,5,-0.00021697880583815277,-0.00012227421393617988,0.0004517821071203798,-0.003737951861694455,0.001542536774650216,-0.010521974414587021,0.001915684319101274,0.04907280579209328,-0.0010750713991001248,-0.01995379477739334,-0.03323895111680031,-0.022143693640828133,0.0,0.0,0.0,-0.007254892028868198,-0.0006579317850992084,-0.0,0.0,0.0,0.0,-0.004890598356723785,-0.019557125866413116,-0.0008361159707419574,12981.0,16190.0,15078.0,12978.0,0.3739936649799347,0.5966997146606445,0.5136796832084656,0.37378063797950745,0.0,0.0,0.0,0.0,13445.0,15873.0,15296.0,12639.0,1.6874098777770996,-0.038996503755220846,0.06628193420466397,0.06112038958504128,0.0026751116383820772,-0.022690976038575172,0.0
211,5,-0.00022703951981384307,-0.00011800782522186637,0.00046746840234845877,-0.0027024666778743267,0.00010504781675990671,-0.006091146729886532,0.0019088337430730462,0.04920727759599686,-0.0010230930056422949,-0.003736435202881694,0.02545926161110401,-0.008082366548478603,0.0,0.0,0.0,-0.0020862030796706676,-0.0037797344848513603,-0.0,0.0,0.0,0.0,-0.0005654037231579423,-0.015256477519869804,-0.00018663404625840485,12416.0,14769.0,14492.0,12575.0,0.3401050269603729,0.49171146750450134,0.47240951657295227,0.34947362542152405,0.0,0.0,0.0,0.0,12386.0,14790.0,14663.0,12378.0,1.6704306602478027,-0.04048160336067782,0.06564278032924316,0.06076504664082722,0.015213869512081146,-0.006459412630647421,0.0
216,5,-0.0002505345328245312,-0.00012223178055137396,0.0005343708908185363,-0.00390038825571537,0.0005488933529704809,-0.010464753955602646,0.0019088337430730462,0.04920727759599686,-0.0010230930056422949,-0.003736435202881694,0.02545926161110401,-0.008082366548478603,0.0,0.0,0.0,-0.0020862030796706676,-0.0037797344848513603,-0.0,0.0,0.0,0.0,-0.0005654037231579423,-0.015256477519869804,-0.00018663404625840485,12416.0,14769.0,14492.0,12575.0,0.3401050269603729,0.49171146750450134,0.47240951657295227,0.34947362542152405,0.0,0.0,0.0,0.0,12386.0,14790.0,14663.0,12378.0,1.6704306602478027,-0.04217185877570311,0.06577662381006742,0.06013246083451222,0.015213869512081146,-0.006459412630647421,0.0
221,5,-0.0002758805640041828,-0.0001311265368713066,0.0006004037568345666,-0.004601678811013699,0.001286929240450263,-0.01210984867066145,0.0016722658183425665,0.04887246713042259,-0.001030823215842247,-0.013262515887618065,-0.0003667201963253319,0.00817729253321886,0.0,0.0,0.0,-0.0008832328603602946,-0.003978980705142021,-0.0,0.0,0.0,0.0,-0.000462555413832888,-0.014914068393409252,-0.00033510636421851814,12431.0,14710.0,14516.0,12511.0,0.34098097681999207,0.4875510632991791,0.4740922749042511,0.34570053219795227,0.0,0.0,0.0,0.0,12540.0,14638.0,14503.0,12503.0,1.6696542501449585,-0.0443458358832917,0.06479806454793338,0.059877404084008136,0.016008438542485237,-0.0027334443293511868,0.0
226,5,-0.00028669764287769794,-0.00017898797523230314,0.0006443285383284092,-0.0031387191265821457,0.00625814450904727,-0.010114915668964386,0.0016722658183425665,0.04887246713042259,-0.001030823215842247,-0.013262515887618065,-0.0003667201963253319,0.00817729253321886,0.0,0.0,0.0,-0.0008832328603602946,-0.003978980705142021,-0.0,0.0,0.0,0.0,-0.000462555413832888,-0.014914068393409252,-0.00033510636421851814,12431.0,14710.0,14516.0,12511.0,0.34098097681999207,0.4875510632991791,0.4740922749042511,0.34570053219795227,0.0,0.0,0.0,0.0,12540.0,14638.0,14503.0,12503.0,1.6696542501449585,-0.04682494863021714,0.06407966888331396,0.05893582217562469,0.016008438542485237,-0.0027334443293511868,0.0
232,5,-0.00030766139389015734,-0.00015602659550495446,0.0007237643003463745,-0.003771140705794096,-0.0002521091082599014,-0.013578257523477077,0.0020281022880226374,0.04868679866194725,-0.0010366073111072183,-0.04814033582806587,0.10046835243701935,-0.025279350578784943,0.0,0.0,0.0,-0.007757534738630056,-0.003258001059293747,-0.0,0.0,0.0,0.0,-0.0028461096808314323,-0.012960919179022312,-0.0011386334663257003,12551.0,15112.0,14046.0,13096.0,0.34806591272354126,0.5161235928535461,0.4421483278274536,0.3810720443725586,0.0,0.0,0.0,0.0,13124.0,14713.0,14784.0,12139.0,1.7008250951766968,-0.04744519616719617,0.06458372240827372,0.05936930845545783,0.01335208024829626,-0.024455921724438667,0.0
237,5,-0.0003149569092784077,-0.00015784651623107493,0.0007911830907687545,-0.0023839157074689865,0.00011754806473618373,-0.013521554879844189,0.0020281022880226374,0.04868679866194725,-0.0010366073111072183,-0.04814033582806587,0.10046835243701935,-0.025279350578784943,0.0,0.0,0.0,-0.007757534738630056,-0.003258001059293747,-0.0,0.0,0.0,0.0,-0.0028461096808314323,-0.012960919179022312,-0.0011386334663257003,12551.0,15112.0,14046.0,13096.0,0.34806591272354126,0.5161235928535461,0.4421483278274536,0.3810720443725586,0.0,0.0,0.0,0.0,13124.0,14713.0,14784.0,12139.0,1.7008250951766968,-0.04898647053325278,0.0642837966716913,0.059151857922066405,0.01335208024829626,-0.024455921724438667,0.0
242,5,-0.000314138742396608,-0.00017465365817770362,0.0008582687587477267,-0.0008553884108550847,0.00206387578509748,-0.013458904810249805,0.0018554255366325378,0.04721420630812645,-0.0009345070575363934,0.018399525433778763,0.152837872505188,-0.001857892842963338,0.0,0.0,0.0,-0.00042803125688806176,-0.002677781507372856,-0.0,0.0,0.0,0.0,-0.0015130144311115146,-0.012097854167222977,-0.00041977112414315343,12769.0,14707.0,14233.0,12872.0,0.3610556125640869,0.48737627267837524,0.45469754934310913,0.36730122566223145,0.0,0.0,0.0,0.0,12928.0,14408.0,14694.0,12527.0,1.6548830270767212,-0.04989570776472319,0.064563939766554,0.05891026512850204,0.010678095743060112,-0.001312959473580122,0.0
247,5,-0.0003147859242744744,-0.00016429364040959626,0.0009143816423602402,-0.0004198160604573786,-0.000417652860051021,-0.012117105536162853,0.0018554255366325378,0.04721420630812645,-0.0009345070575363934,0.018399525433778763,0.152837872505188,-0.001857892842963338,0.0,0.0,0.0,-0.00042803125688806176,-0.002677781507372856,-0.0,0.0,0.0,0.0,-0.0015130144311115146,-0.012097854167222977,-0.00041977112414315343,12769.0,14707.0,14233.0,12872.0,0.3610556125640869,0.48737627267837524,0.45469754934310913,0.36730122566223145,0.0,0.0,0.0,0.0,12928.0,14408.0,14694.0,12527.0,1.6548830270767212,-0.0494747857669543,0.06599211520064865,0.059287530418240676,0.010678095743060112,-0.001312959473580122,0.0
252,5,-0.00030900229467079043,-0.00017374081653542817,0.0009358178358525038,0.0005261084297671914,0.0009666008991189301,-0.007419185247272253,0.0018581753829494119,0.045849669724702835,-0.0007584746927022934,-0.0025784585159271955,0.16281194984912872,0.040633320808410645,0.0,0.0,0.0,0.00021713468595407903,-0.0008409298025071621,-0.0,0.0,0.0,0.0,-0.0005699176690541208,-0.01073049008846283,0.0013949837302789092,13459.0,13958.0,14857.0,12270.0,0.40384531021118164,0.4363165497779846,0.49788612127304077,0.33160626888275146,0.0,0.0,0.0,0.0,12963.0,14472.0,14431.0,12711.0,1.6349128484725952,-0.050100743132918416,0.06665057324763168,0.059069864079035916,0.0033128836657851934,0.0006580097833648324,0.0
257,5,-0.0003148606629110873,-0.00018489494686946273,0.0009910108055919409,-0.0004925618995912373,0.001725135138258338,-0.00959082692861557,0.0018581753829494119,0.045849669724702835,-0.0007584746927022934,-0.0025784585159271955,0.16281194984912872,0.040633320808410645,0.0,0.0,0.0,0.00021713468595407903,-0.0008409298025071621,-0.0,0.0,0.0,0.0,-0.0005699176690541208,-0.01073049008846283,0.0013949837302789092,13459.0,13958.0,14857.0,12270.0,0.40384531021118164,0.4363165497779846,0.49788612127304077,0.33160626888275146,0.0,0.0,0.0,0.0,12963.0,14472.0,14431.0,12711.0,1.6349128484725952,-0.04994966600872365,0.06728603939112716,0.05897395155962168,0.0033128836657851934,0.0006580097833648324,0.0
262,5,-0.00036623250343836844,-0.00020472276082728058,0.00106049922760576,-0.006361645646393299,0.0030693926382809877,-0.01217495184391737,0.0023016491904854774,0.04350774735212326,-0.0005167676717974246,0.059367552399635315,0.20697347819805145,0.04667140543460846,0.0,0.0,0.0,-0.0024520514998584986,-0.0009031890076585114,-0.0,0.0,0.0,0.0,-0.0036529398057609797,-0.009661233983933926,-6.333659257506952e-05,13623.0,14450.0,14356.0,12649.0,0.4143689274787903,0.4695444703102112,0.4630613923072815,0.3538503050804138,0.0,0.0,0.0,0.0,13533.0,13892.0,14596.0,12324.0,1.6482596397399902,-0.05153712490361873,0.0683654607351981,0.0586273564083813,0.0035871935542672873,-0.00749139953404665,0.0
267,5,-0.0003227204142604023,-0.000175472378032282,0.0011347447289153934,0.0013219073880463839,-0.001482660067267716,-0.007444316986948252,0.0023016491904854774,0.04350774735212326,-0.0005167676717974246,0.059367552399635315,0.20697347819805145,0.04667140543460846,0.0,0.0,0.0,-0.0024520514998584986,-0.0009031890076585114,-0.0,0.0,0.0,0.0,-0.0036529398057609797,-0.009661233983933926,-6.333659257506952e-05,13623.0,14450.0,14356.0,12649.0,0.4143689274787903,0.4695444703102112,0.4630613923072815,0.3538503050804138,0.0,0.0,0.0,0.0,13533.0,13892.0,14596.0,12324.0,1.6482596397399902,-0.050567525665356605,0.0695532966320787,0.0597161101251657,0.0035871935542672873,-0.00749139953404665,0.0
272,5,-0.000320769235258922,-0.00015066184278111905,0.0011669081868603826,0.0007629026076756418,-0.003570328000932932,-0.006837337277829647,0.0026363860815763474,0.041989680379629135,-0.00021360379469115287,0.0514199323952198,0.19054396450519562,0.0071550821885466576,0.0,0.0,0.0,0.0015088189393281937,0.0008024205453693867,-0.0,0.0,0.0,0.0,-0.0015639913035556674,-0.009436408057808876,0.00013247095921542495,13015.0,14392.0,14096.0,12880.0,0.3760663568973541,0.4655442535877228,0.445477694272995,0.3677947223186493,0.0,0.0,0.0,0.0,13440.0,13856.0,14345.0,12420.0,1.6408796310424805,-0.04969855233295384,0.07061636263688562,0.06047581725647559,-0.0031727079767733812,0.004589042626321316,0.0
278,5,-0.000327049579937011,-0.00015124950732570142,0.001171657582744956,-0.0004484801320359111,-0.0013576126657426357,-0.0033048614859580994,0.0026363860815763474,0.041989680379629135,-0.00021360379469115287,0.0514199323952198,0.19054396450519562,0.0071550821885466576,0.0,0.0,0.0,0.0015088189393281937,0.0008024205453693867,-0.0,0.0,0.0,0.0,-0.0015639913035556674,-0.009436408057808876,0.00013247095921542495,13015.0,14392.0,14096.0,12880.0,0.3760663568973541,0.4655442535877228,0.445477694272995,0.3677947223186493,0.0,0.0,0.0,0.0,13440.0,13856.0,14345.0,12420.0,1.6408796310424805,-0.05031836406170518,0.07129467332499614,0.05991701344361104,-0.0031727079767733812,0.004589042626321316,0.0
283,5,-0.0003499047888908535,-0.00012404663721099496,0.0011847978457808495,-0.0029220152646303177,-0.0038073884788900614,-0.0028987787663936615,0.003374946303665638,0.03968462347984314,0.00028449404635466635,0.047783080488443375,0.17546969652175903,0.0327560231089592,0.0,0.0,0.0,0.0013984473189339042,-0.0008830833248794079,-0.0,0.0,0.0,0.0,-0.0017092388588935137,-0.008108382113277912,0.0018392627825960517,13584.0,13712.0,14464.0,12284.0,0.411888062953949,0.42015284299850464,0.4704756736755371,0.3323962688446045,0.0,0.0,0.0,0.0,13446.0,13879.0,14275.0,12468.0,1.6406716108322144,-0.04924444905336718,0.07226218044252476,0.06060379857629069,0.0034912002738565207,0.004252810962498188,0.0
288,5,-0.0003617258043959737,-9.992060950025916e-05,0.0011704774806275964,-0.0025873295962810516,-0.004418079275637865,0.000558931496925652,0.003374946303665638,0.03968462347984314,0.00028449404635466635,0.047783080488443375,0.17546969652175903,0.0327560231089592,0.0,0.0,0.0,0.0013984473189339042,-0.0008830833248794079,-0.0,0.0,0.0,0.0,-0.0017092388588935137,-0.008108382113277912,0.0018392627825960517,13584.0,13712.0,14464.0,12284.0,0.411888062953949,0.42015284299850464,0.4704756736755371,0.3323962688446045,0.0,0.0,0.0,0.0,13446.0,13879.0,14275.0,12468.0,1.6406716108322144,-0.04961308315180516,0.0726314907921233,0.060676441559200774,0.0034912002738565207,0.004252810962498188,0.0
293,5,-0.0003964425122831017,-6.202943768585101e-05,0.0012004930758848786,-0.005200936924666166,-0.00631417240947485,-0.003378294873982668,0.00392921082675457,0.03819061815738678,0.0005417188513092697,0.05327281355857849,0.1379801630973816,0.06442421674728394,0.0,0.0,0.0,0.005143927410244942,-0.0028923533391207457,-0.0,0.0,0.0,0.0,-0.0017026412533596158,-0.007088336627930403,0.00038674872484989464,13809.0,13722.0,14564.0,12129.0,0.4265066087245941,0.4208278954029083,0.47741183638572693,0.32351329922676086,0.0,0.0,0.0,0.0,13807.0,13771.0,14524.0,12125.0,1.679316759109497,-0.049247831282570494,0.07397745848554997,0.06111569344900549,0.011703871190547943,0.016011519357562065,-0.0
298,5,-0.0004193522036075592,-4.440349221113138e-05,0.0012132617412135005,-0.0048295361921191216,-0.004640781786292791,-0.0028835649136453867,0.00392921082675457,0.03819061815738678,0.0005417188513092697,0.05327281355857849,0.1379801630973816,0.06442421674728394,0.0,0.0,0.0,0.005143927410244942,-0.0028923533391207457,-0.0,0.0,0.0,0.0,-0.0017026412533596158,-0.007088336627930403,0.00038674872484989464,13809.0,13722.0,14564.0,12129.0,0.4265066087245941,0.4208278954029083,0.47741183638572693,0.32351329922676086,0.0,0.0,0.0,0.0,13807.0,13771.0,14524.0,12125.0,1.679316759109497,-0.04945193813035227,0.07466305720686185,0.06132741326526992,0.011703871190547943,0.016011519357562065,-0.0
303,5,-0.000426301994593814,-1.0279894922859967e-05,0.001225701649673283,-0.0027657910250127316,-0.005951144732534885,-0.0026462143287062645,0.00392921082675457,0.03819061815738678,0.0005417188513092697,0.05327281355857849,0.1379801630973816,0.06442421674728394,0.0,0.0,0.0,0.005450797267258167,-0.004994482267647982,-0.0,0.0,0.0,0.0,-0.0017026412533596158,-0.007088336627930403,0.00038674872484989464,13809.0,13722.0,14564.0,12129.0,0.4265066087245941,0.4208278954029083,0.47741183638572693,0.32351329922676086,0.0,0.0,0.0,0.0,13807.0,13771.0,14524.0,12125.0,1.6976420879364014,-0.0496146924614538,0.07459770794702328,0.06176965803920224,0.020430559292435646,0.0171518437564373,0.0
308,5,-0.0004548395809251815,3.5496216241881484e-06,0.0013096147449687123,-0.004530823789536953,-0.004040000028908253,-0.011128060519695282,0.004647391382604837,0.036422573029994965,0.0010088529670611024,0.06891582906246185,0.14744167029857635,0.020590772852301598,0.0,0.0,0.0,0.005450797267258167,-0.004994482267647982,-0.0,0.0,0.0,0.0,-0.0007221916457638144,-0.007723322603851557,0.0016056618187576532,13332.0,14038.0,14060.0,12757.0,0.39583900570869446,0.44161322712898254,0.44310787320137024,0.3603195250034332,0.0,0.0,0.0,0.0,13669.0,13704.0,14382.0,12398.0,1.6976420879364014,-0.05111533711207262,0.07397791417740862,0.061242165077622715,0.020430559292435646,0.0171518437564373,0.0
313,5,-0.0004621831758413464,4.184950375929475e-05,0.001340333605185151,-0.002693560905754566,-0.00621198583394289,-0.008137481287121773,0.004647391382604837,0.036422573029994965,0.0010088529670611024,0.06891582906246185,0.14744167029857635,0.020590772852301598,0.0,0.0,0.0,0.004833627957850695,-0.004783568438142538,-0.0,0.0,0.0,0.0,-0.0007221916457638144,-0.007723322603851557,0.0016056618187576532,13332.0,14038.0,14060.0,12757.0,0.39583900570869446,0.44161322712898254,0.44310787320137024,0.3603195250034332,0.0,0.0,0.0,0.0,13669.0,13704.0,14382.0,12398.0,1.6923761367797852,-0.05007851064960225,0.07535778215584107,0.061787271053667776,0.019507160410284996,0.015162666328251362,0.0
318,5,-0.00047259050188586116,0.00010226239101029932,0.001361115020699799,-0.0023263045586645603,-0.009734340943396091,-0.00574875995516777,0.005031971726566553,0.03525196388363838,0.0015248525887727737,0.058029718697071075,0.15234942734241486,0.007935825735330582,0.0,0.0,0.0,0.004833627957850695,-0.004783568438142538,-0.0,0.0,0.0,0.0,-0.0004560989618767053,-0.008179029449820518,0.0016100825741887093,13545.0,13976.0,14505.0,12736.0,0.409359335899353,0.43751657009124756,0.47333067655563354,0.35911017656326294,0.0,0.0,0.0,0.0,13389.0,14119.0,14298.0,12977.0,1.6923761367797852,-0.049569998018799265,0.0756819216874016,0.06228862240215011,0.019507160410284996,0.015162666328251362,0.0
323,5,-0.0004658162361010909,0.00010940845822915435,0.0013631341280415654,-0.00011761173664126545,-0.004751264583319426,-0.002541797235608101,0.005031971726566553,0.03525196388363838,0.0015248525887727737,0.058029718697071075,0.15234942734241486,0.007935825735330582,0.0,0.0,0.0,0.0115586556494236,-0.0027206179220229387,-0.0,0.0,0.0,0.0,-0.0004560989618767053,-0.008179029449820518,0.0016100825741887093,13545.0,13976.0,14505.0,12736.0,0.409359335899353,0.43751657009124756,0.47333067655563354,0.35911017656326294,0.0,0.0,0.0,0.0,13389.0,14119.0,14298.0,12977.0,1.7298318147659302,-0.05026125127604496,0.07685130373872998,0.061721768711374025,0.011339496821165085,0.0370597243309021,0.0
328,5,-0.0005013951449654996,0.0001704487658571452,0.0014030283782631159,-0.00431651109829545,-0.00922534242272377,-0.005804033018648624,0.005585589911788702,0.03345133736729622,0.0018078404245898128,0.03618491068482399,0.14721518754959106,0.06425107270479202,0.0,0.0,0.0,0.0115586556494236,-0.0027206179220229387,-0.0,0.0,0.0,0.0,-0.00090714794350788,-0.007230854127556086,0.00014261961041484028,13946.0,13667.0,14964.0,12404.0,0.4355071783065796,0.4172338843345642,0.5054957270622253,0.3394052982330322,0.0,0.0,0.0,0.0,13928.0,13741.0,14818.0,12519.0,1.7298318147659302,-0.0491968683718004,0.07764666785068364,0.062523460860153,0.011339496821165085,0.0370597243309021,0.0
333,5,-0.0004505223478190601,-3.5935747291659936e-05,0.0012982847401872277,0.004378128331154585,0.021076004952192307,0.010247628204524517,0.005585589911788702,0.03345133736729622,0.0018078404245898128,0.03618491068482399,0.14721518754959106,0.06425107270479202,0.0,0.0,0.0,0.011054815724492073,-0.004539127461612225,-0.0,0.0,0.0,0.0,-0.00090714794350788,-0.007230854127556086,0.00014261961041484028,13946.0,13667.0,14964.0,12404.0,0.4355071783065796,0.4172338843345642,0.5054957270622253,0.3394052982330322,0.0,0.0,0.0,0.0,13928.0,13741.0,14818.0,12519.0,1.7338426113128662,-0.0609494288532991,0.07482479311230306,0.056851861405286024,0.018962951377034187,0.03552659973502159,0.0
338,5,-0.0004496128822211176,3.485181150608696e-05,0.001284829922951758,0.0018603879725560546,-6.410541391232982e-05,0.005713622085750103,0.006031765136867762,0.03209346532821655,0.0020164079032838345,0.02830822393298149,0.13953858613967896,0.007367625832557678,0.0,0.0,0.0,0.011054815724492073,-0.004539127461612225,-0.0,0.0,0.0,0.0,0.001164476852864027,-0.006741647142916918,0.0012449296191334724,13358.0,14241.0,14308.0,13077.0,0.39747411012649536,0.45525187253952026,0.45979535579681396,0.37985479831695557,0.0,0.0,0.0,0.0,13717.0,13941.0,14614.0,12682.0,1.7338426113128662,-0.059361578302046594,0.07612157745804689,0.05773671455061525,0.018962951377034187,0.03552659973502159,0.0
344,5,-0.0004655039811041206,8.173185779014602e-05,0.0012855109525844455,-0.0011627771891653538,-0.005651247687637806,0.0022037348244339228,0.006031765136867762,0.03209346532821655,0.0020164079032838345,0.02830822393298149,0.13953858613967896,0.007367625832557678,0.0,0.0,0.0,0.00014041121175978333,0.0011359908385202289,-0.0,0.0,0.0,0.0,0.001164476852864027,-0.006741647142916918,0.0012449296191334724,13358.0,14241.0,14308.0,13077.0,0.39747411012649536,0.45525187253952026,0.45979535579681396,0.37985479831695557,0.0,0.0,0.0,0.0,13717.0,13941.0,14614.0,12682.0,1.6379661560058594,-0.059312425997699245,0.07680548722176452,0.05805794430972019,-0.0044836485758423805,0.0004262999282218516,-0.0
349,5,-0.0005144667811691761,0.0001284379104617983,0.001277768169529736,-0.006340642459690571,-0.007865224964916706,0.0018106186762452126,0.006432360038161278,0.030523966997861862,0.002462089993059635,0.025524582713842392,0.12426107376813889,0.01339779980480671,0.0,0.0,0.0,0.00014041121175978333,0.0011359908385202289,-0.0,0.0,0.0,0.0,0.0009137903107330203,-0.007469916250556707,0.001496847253292799,13685.0,13958.0,14765.0,13138.0,0.4184218943119049,0.4363345205783844,0.4914281666278839,0.38364723324775696,0.0,0.0,0.0,0.0,13415.0,14241.0,14481.0,13427.0,1.6379661560058594,-0.060103676039553765,0.07664778192981427,0.05824305050855563,-0.0044836485758423805,0.0004262999282218516,-0.0
354,5,-0.0005207649082876742,0.00019282680295873433,0.001290187705308199,-0.0032920322846621275,-0.010872757993638515,-0.0007660894189029932,0.006432360038161278,0.030523966997861862,0.002462089993059635,0.025524582713842392,0.12426107376813889,0.01339779980480671,0.0,0.0,0.0,0.00014041121175978333,0.0011359908385202289,-0.0,0.0,0.0,0.0,0.0009137903107330203,-0.007469916250556707,0.001496847253292799,13685.0,13958.0,14765.0,13138.0,0.4184218943119049,0.4363345205783844,0.4914281666278839,0.38364723324775696,0.0,0.0,0.0,0.0,13415.0,14241.0,14481.0,13427.0,1.6379661560058594,-0.059903643590203795,0.07667626046310864,0.05851368344012919,0.015231085941195488,0.04182828590273857,0.0
359,5,-0.00055470853112638,0.0002340658102184534,0.0012585328659042716,-0.00539005221799016,-0.009297783486545086,0.0034921460319310427,0.0066535635851323605,0.029426535591483116,0.0025964085943996906,0.032496463507413864,0.10051530599594116,0.05283723399043083,0.0,0.0,0.0,0.012932036072015762,-0.0036224268842488527,-0.0,0.0,0.0,0.0,-0.0026729831006377935,-0.005908336024731398,0.00022901486954651773,13480.0,13948.0,14010.0,12706.0,0.40522500872612,0.43566879630088806,0.4397786557674408,0.3572936952114105,0.0,0.0,0.0,0.0,13897.0,13851.0,14918.0,12917.0,1.7450850009918213,-0.060492554242374035,0.07724553769234964,0.05865250963610357,0.015231085941195488,0.04182828590273857,0.0
364,5,-0.0006153055001050234,0.0002730779233388603,0.0012890937505289912,-0.009427654556930065,-0.008400565013289452,-0.0022704550065100193,0.0066535635851323605,0.029426535591483116,0.0025964085943996906,0.032496463507413864,0.10051530599594116,0.05283723399043083,0.0,0.0,0.0,0.012932036072015762,-0.0036224268842488527,-0.0,0.0,0.0,0.0,-0.0026729831006377935,-0.005908336024731398,0.00022901486954651773,13480.0,13948.0,14010.0,12706.0,0.40522500872612,0.43566879630088806,0.4397786557674408,0.3572936952114105,0.0,0.0,0.0,0.0,13897.0,13851.0,14918.0,12917.0,1.7450850009918213,-0.061187690568942424,0.0778936859098433,0.05838980345120263,0.03876179829239845,0.03299989923834801,0.0
369,5,-0.0006252118619158864,0.000332258379785344,0.0012777689844369888,-0.004959823563694954,-0.010461880825459957,0.000450795516371727,0.007006073370575905,0.02826663665473461,0.0028364965692162514,0.020695066079497337,0.0712381973862648,0.023215631023049355,0.0,0.0,0.0,0.010104948654770851,-0.009130547754466534,-0.0,0.0,0.0,0.0,-0.0028341796714812517,-0.006241810508072376,0.0005378401256166399,13367.0,14065.0,13911.0,12805.0,0.3980529010295868,0.44342944025993347,0.4332147538661957,0.36326906085014343,0.0,0.0,0.0,0.0,13807.0,13614.0,14348.0,12333.0,1.7619086503982544,-0.05999136604007039,0.07751146138323425,0.059013400356349235,0.03876179829239845,0.03299989923834801,0.0
374,5,-0.0006521294126287103,0.0003714181366376579,0.001293766195885837,-0.005214040633291006,-0.008883924223482609,-0.0017393571324646473,0.007006073370575905,0.02826663665473461,0.0028364965692162514,0.020695066079497337,0.0712381973862648,0.023215631023049355,0.0,0.0,0.0,0.010967828333377838,-0.005528225563466549,-0.0,0.0,0.0,0.0,-0.0028341796714812517,-0.006241810508072376,0.0005378401256166399,13367.0,14065.0,13911.0,12805.0,0.3980529010295868,0.44342944025993347,0.4332147538661957,0.36326906085014343,0.0,0.0,0.0,0.0,13807.0,13614.0,14348.0,12333.0,1.7391284704208374,-0.05997311009138862,0.07837190130787386,0.05943244139954301,0.023165464401245117,0.035354528576135635,0.0
379,5,-0.0006965936627238989,0.00038487947313115,0.0012911151861771941,-0.007421324960887432,-0.005168931558728218,-0.00037760892882943153,0.00726753193885088,0.027630945667624474,0.0031681761611253023,0.015818849205970764,0.06052180379629135,-0.0021125010680407286,0.0,0.0,0.0,0.010967828333377838,-0.005528225563466549,-0.0,0.0,0.0,0.0,0.0013760552974417806,-0.008752171881496906,0.0018456140533089638,13914.0,13827.0,15207.0,12767.0,0.43339020013809204,0.4277018904685974,0.523021936416626,0.36097097396850586,0.0,0.0,0.0,0.0,13300.0,14112.0,13935.0,12798.0,1.7391284704208374,-0.06012203390334076,0.0784357056572946,0.05973946758945157,0.023165464401245117,0.035354528576135635,0.0
384,5,-0.000690119864884764,0.00041766412323340774,0.0013055546442046762,-0.00219167023897171,-0.006001729052513838,-0.0018837909447029233,0.00726753193885088,0.027630945667624474,0.0031681761611253023,0.015818849205970764,0.06052180379629135,-0.0021125010680407286,0.0,0.0,0.0,0.010967828333377838,-0.005528225563466549,-0.0,0.0,0.0,0.0,0.0013760552974417806,-0.008752171881496906,0.0018456140533089638,13914.0,13827.0,15207.0,12767.0,0.43339020013809204,0.4277018904685974,0.523021936416626,0.36097097396850586,0.0,0.0,0.0,0.0,13300.0,14112.0,13935.0,12798.0,1.7391284704208374,-0.05910436697763731,0.07853810888667784,0.059863612271332335,0.023165464401245117,0.035354528576135635,0.0
389,5,-0.0007297653355635703,0.0004388320376165211,0.001296637812629342,-0.005634124856442213,-0.004940841346979141,0.0003165063972119242,0.007365893572568893,0.027118628844618797,0.003464848967269063,0.022465916350483894,0.03159363567829132,0.056125860661268234,0.0,0.0,0.0,0.007870959118008614,-0.002939909929409623,-0.0,0.0,0.0,0.0,0.001043951720930636,-0.009579001925885677,0.0006538911839015782,13472.0,14255.0,14876.0,13062.0,0.40470370650291443,0.4562149941921234,0.4992707073688507,0.37893906235694885,0.0,0.0,0.0,0.0,13921.0,13838.0,15218.0,12735.0,1.7000457048416138,-0.059550588542243016,0.07836421252550481,0.06023493371981567,0.0120429378002882,0.024802111089229584,0.0
394,5,-0.000749391270801425,0.00042539674905128777,0.0012747341534122825,-0.004608763847500086,-0.00036410169559530914,0.002755048917606473,0.007365893572568893,0.027118628844618797,0.003464848967269063,0.022465916350483894,0.03159363567829132,0.056125860661268234,0.0,0.0,0.0,0.007870959118008614,-0.002939909929409623,-0.0,0.0,0.0,0.0,0.001043951720930636,-0.009579001925885677,0.0006538911839015782,13472.0,14255.0,14876.0,13062.0,0.40470370650291443,0.4562149941921234,0.4992707073688507,0.37893906235694885,0.0,0.0,0.0,0.0,13921.0,13838.0,15218.0,12735.0,1.7000457048416138,-0.05921585128374446,0.08037349334156565,0.05998335083396322,0.0120429378002882,0.024802111089229584,0.0
400,5,-0.0007632840424776077,0.00043079975876025856,0.0012875193497166038,-0.003510641399770975,-0.0007940017967484891,-0.0004322030581533909,0.00727873295545578,0.026511359959840775,0.004016413819044828,0.0178391020745039,0.05991290882229805,-0.021921256557106972,0.0,0.0,0.0,0.0011866498971357942,-0.005281127989292145,-0.0,0.0,0.0,0.0,0.0009300094097852707,-0.008952966891229153,0.0008097347454167902,13319.0,14415.0,14615.0,13335.0,0.395014226436615,0.4671383500099182,0.4809532165527344,0.3960226774215698,0.0,0.0,0.0,0.0,14106.0,13612.0,15423.0,12422.0,1.6844590902328491,-0.05963053095809911,0.08007408017112638,0.05995174662882558,0.021435653790831566,0.003705027513206005,-0.0
405,5,-0.000778079847805202,0.0004240797716192901,0.0012975846184417605,-0.0031797541305422783,0.000488797202706337,-0.0013807249488309026,0.00727873295545578,0.026511359959840775,0.004016413819044828,0.0178391020745039,0.05991290882229805,-0.021921256557106972,0.0,0.0,0.0,0.0011866498971357942,-0.005281127989292145,-0.0,0.0,0.0,0.0,0.0009300094097852707,-0.008952966891229153,0.0008097347454167902,13319.0,14415.0,14615.0,13335.0,0.395014226436615,0.4671383500099182,0.4809532165527344,0.3960226774215698,0.0,0.0,0.0,0.0,14106.0,13612.0,15423.0,12422.0,1.6844590902328491,-0.05897380922549272,0.08028551911495294,0.060189937512515126,0.021435653790831566,0.003705027513206005,-0.0
410,5,-0.0007938834605738521,0.00041431604768149555,0.001297276234254241,-0.003168335650116205,0.0013671646593138576,-0.0005152778467163444,0.0073129525408148766,0.026109609752893448,0.00433916412293911,0.026671962812542915,0.07662960886955261,0.04302799329161644,0.0,0.0,0.0,0.0001618491078261286,-0.004035851918160915,-0.0,0.0,0.0,0.0,0.0006260994705371559,-0.008659410290420055,0.002317969221621752,14009.0,13739.0,14823.0,12196.0,0.43969109654426575,0.42189881205558777,0.49550220370292664,0.32736697793006897,0.0,0.0,0.0,0.0,13415.0,14308.0,14683.0,13280.0,1.669667363166809,-0.059273451967017866,0.08075953714113947,0.06039358438875416,0.016237378120422363,0.0005008974694646895,0.0
415,5,-0.0007952259038574994,0.00039147629286162555,0.0013072665315121412,-0.0014284263597801328,0.0032876369077712297,-0.0014049410820007324,0.0073129525408148766,0.026109609752893448,0.00433916412293911,0.026671962812542915,0.07662960886955261,0.04302799329161644,0.0,0.0,0.0,0.0001618491078261286,-0.004035851918160915,-0.0,0.0,0.0,0.0,0.0006260994705371559,-0.008659410290420055,0.002317969221621752,14009.0,13739.0,14823.0,12196.0,0.43969109654426575,0.42189881205558777,0.49550220370292664,0.32736697793006897,0.0,0.0,0.0,0.0,13415.0,14308.0,14683.0,13280.0,1.669667363166809,-0.058879389452931745,0.08137976448351816,0.0602706012270901,0.016237378120422363,0.0005008974694646895,0.0
420,5,-0.0008076043450273573,0.00037917299778200686,0.001311916159465909,-0.002056779572740197,0.0027914498932659626,-0.0011199356522411108,0.00741382222622633,0.025059375911951065,0.0044242688454687595,-0.0044107078574597836,0.09654339402914047,0.03266710415482521,0.0,0.0,0.0,-0.003298382507637143,-0.0024360339157283306,-0.0,0.0,0.0,0.0,-0.0019859534222632647,-0.007454963400959969,0.0005785400862805545,13600.0,14014.0,14285.0,12726.0,0.41290467977523804,0.4399993419647217,0.4582832455635071,0.3584800958633423,0.0,0.0,0.0,0.0,13772.0,13976.0,14474.0,12612.0,1.6639034748077393,-0.05946057100735175,0.08020456095881623,0.060747487346615274,0.009766985662281513,-0.010172700509428978,0.0
425,5,-0.0008109768386930227,0.000349433277733624,0.0013164879055693746,-0.0012274094624444842,0.004685348365455866,-0.0009965880308300257,0.00741382222622633,0.025059375911951065,0.0044242688454687595,-0.0044107078574597836,0.09654339402914047,0.03266710415482521,0.0,0.0,0.0,-0.003298382507637143,-0.0024360339157283306,-0.0,0.0,0.0,0.0,-0.0019859534222632647,-0.007454963400959969,0.0005785400862805545,13600.0,14014.0,14285.0,12726.0,0.41290467977523804,0.4399993419647217,0.4582832455635071,0.3584800958633423,0.0,0.0,0.0,0.0,13772.0,13976.0,14474.0,12612.0,1.6639034748077393,-0.05986961347217651,0.0812996633679198,0.060797334256726974,0.009766985662281513,-0.010172700509428978,0.0
430,5,-0.0008033011108636856,0.00032865809043869376,0.0012924644397571683,0.0004301213484723121,0.004367160610854626,0.0024841846898198128,0.00743494275957346,0.02442253939807415,0.004741039127111435,-0.015050510875880718,0.12507690489292145,-0.05397160351276398,0.0,0.0,0.0,-0.0050398679450154305,-0.0022557673510164022,-0.0,0.0,0.0,0.0,-0.001980473753064871,-0.005982335656881332,-6.648091948591173e-05,13037.0,14506.0,13653.0,13437.0,0.3774363100528717,0.4734107553958893,0.4163646399974823,0.4024556577205658,0.0,0.0,0.0,0.0,14282.0,13341.0,14853.0,12025.0,1.6746617555618286,-0.05932849582197608,0.08285951625938852,0.06070926779804776,0.009102641604840755,-0.01564413122832775,0.0
435,5,-0.0008086403831839561,0.00030599258025176823,0.0012796379160135984,-0.0004686627653427422,0.004466727375984192,0.002532854676246643,0.00743494275957346,0.02442253939807415,0.004741039127111435,-0.015050510875880718,0.12507690489292145,-0.05397160351276398,0.0,0.0,0.0,-0.0050398679450154305,-0.0022557673510164022,-0.0,0.0,0.0,0.0,-0.001980473753064871,-0.005982335656881332,-6.648091948591173e-05,13037.0,14506.0,13653.0,13437.0,0.3774363100528717,0.4734107553958893,0.4163646399974823,0.4024556577205658,0.0,0.0,0.0,0.0,14282.0,13341.0,14853.0,12025.0,1.6746617555618286,-0.05960956972674613,0.08317945305076176,0.06111869078024452,0.009102641604840755,-0.01564413122832775,0.0
440,5,-0.0008050234173424542,0.00029301096219569445,0.0012757329968735576,0.00024656575988046825,0.0033444834407418966,0.0014817340997979045,0.007514965254813433,0.023011358454823494,0.004907531198114157,-0.00581570528447628,0.09701327234506607,0.02756538800895214,0.0,0.0,0.0,-0.004866388626396656,-0.0015526454662904143,-0.0,0.0,0.0,0.0,-0.002396133029833436,-0.0054202601313591,0.002585668582469225,14043.0,13562.0,14619.0,12346.0,0.4419924020767212,0.4104572534561157,0.48123323917388916,0.335984468460083,0.0,0.0,0.0,0.0,13557.0,14087.0,14029.0,12975.0,1.6698402166366577,-0.06005722162465506,0.08353070710047521,0.06097618021109614,0.006247320678085089,-0.01506215613335371,-0.0
445,5,-0.0007962004165165126,0.00028022058540955186,0.0012912658276036382,0.0011573908850550652,0.002872639801353216,-0.0012712448369711637,0.007514965254813433,0.023011358454823494,0.004907531198114157,-0.00581570528447628,0.09701327234506607,0.02756538800895214,0.0,0.0,0.0,-0.004866388626396656,-0.0015526454662904143,-0.0,0.0,0.0,0.0,-0.002396133029833436,-0.0054202601313591,0.002585668582469225,14043.0,13562.0,14619.0,12346.0,0.4419924020767212,0.4104572534561157,0.48123323917388916,0.335984468460083,0.0,0.0,0.0,0.0,13557.0,14087.0,14029.0,12975.0,1.6698402166366577,-0.05969151026642079,0.0838168834140259,0.060879934372343805,0.006247320678085089,-0.01506215613335371,-0.0
450,5,-0.0007941473159007728,0.0002692553971428424,0.0013153455220162868,0.0007093290914781392,0.0024648774415254593,-0.003398066619411111,0.0077578346244990826,0.022150099277496338,0.004762004129588604,0.024203727021813393,0.04845499247312546,0.016856888309121132,0.0,0.0,0.0,-0.0030149712692946196,-2.111443791363854e-05,-0.0,0.0,0.0,0.0,-0.003986647352576256,-0.004981802310794592,-0.0001210585396620445,13676.0,14115.0,14057.0,12691.0,0.41782891750335693,0.4467870593070984,0.44292616844177246,0.3563613295555115,0.0,0.0,0.0,0.0,13798.0,13940.0,14067.0,12742.0,1.6507458686828613,-0.059140083261284296,0.08447284175892232,0.060946130405895596,8.39865388115868e-05,-0.009225092828273773,0.0
455,5,-0.0007818441954441369,0.0002579623833298683,0.0013104263925924897,0.0017601043218746781,0.002341114217415452,-0.000768927508033812,0.0077578346244990826,0.022150099277496338,0.004762004129588604,0.024203727021813393,0.04845499247312546,0.016856888309121132,0.0,0.0,0.0,-0.0030149712692946196,-2.111443791363854e-05,-0.0,0.0,0.0,0.0,-0.003986647352576256,-0.004981802310794592,-0.0001210585396620445,13676.0,14115.0,14057.0,12691.0,0.41782891750335693,0.4467870593070984,0.44292616844177246,0.3563613295555115,0.0,0.0,0.0,0.0,13798.0,13940.0,14067.0,12742.0,1.6507458686828613,-0.05995772334772368,0.08401281032920792,0.060941108669107236,8.39865388115868e-05,-0.009225092828273773,0.0
461,5,-0.0007586835999973118,0.00026020026416517794,0.0013519831700250506,0.003483314998447895,0.0006678967620246112,-0.00529438303783536,0.007989802397787571,0.021631214767694473,0.004611995071172714,-0.014087391085922718,0.0008563448209315538,-0.0782836303114891,0.0,0.0,0.0,-0.0024093107786029577,0.0005676886066794395,-0.0,0.0,0.0,0.0,-0.0039282385259866714,-0.006232323125004768,-0.00020330749975983053,13108.0,14689.0,13558.0,13267.0,0.38179811835289,0.48608633875846863,0.41021499037742615,0.3917407691478729,0.0,0.0,0.0,0.0,14173.0,13702.0,14442.0,12254.0,1.6465955972671509,-0.05960829927843421,0.0836562838881345,0.060483367283527344,-0.002252411562949419,-0.007353389170020819,0.0
466,5,-0.000755088112782687,0.000270473537966609,0.001355305197648704,0.0018247802508994937,-0.0009656311594881117,-0.002516400068998337,0.007989802397787571,0.021631214767694473,0.004611995071172714,-0.014087391085922718,0.0008563448209315538,-0.0782836303114891,0.0,0.0,0.0,-0.0024093107786029577,0.0005676886066794395,-0.0,0.0,0.0,0.0,-0.0039282385259866714,-0.006232323125004768,-0.00020330749975983053,13108.0,14689.0,13558.0,13267.0,0.38179811835289,0.48608633875846863,0.41021499037742615,0.3917407691478729,0.0,0.0,0.0,0.0,14173.0,13702.0,14442.0,12254.0,1.6465955972671509,-0.06006258194449629,0.08351951925191041,0.06065627612356279,-0.002252411562949419,-0.007353389170020819,0.0
471,5,-0.0007677199319005013,0.0002668975212145597,0.0013410415267571807,-0.0007859066827222705,4.286855983082205e-05,0.0007050774293020368,0.007983561605215073,0.02158358506858349,0.004625361412763596,-0.019827933982014656,-0.040171634405851364,0.009759414941072464,0.0,0.0,0.0,0.001681799185462296,0.0006673590978607535,-0.0,0.0,0.0,0.0,-0.0030733339954167604,-0.007127975579351187,0.0014654961414635181,13757.0,13841.0,14382.0,12316.0,0.42307326197624207,0.4285702407360077,0.46486005187034607,0.3342423141002655,0.0,0.0,0.0,0.0,13029.0,14543.0,13483.0,13279.0,1.6413626670837402,-0.060161644546568825,0.08441121123739755,0.06018765920986334,-0.0026394620072096586,0.005116663873195648,0.0
