timestamp,dt,pos_x,pos_y,pos_z,vel_x,vel_y,vel_z,roll,pitch,yaw,agv_x,agv_y,agv_z,x_ref,y_ref,z_ref,roll_ref,pitch_ref,yaw_ref,x_vel_ref,y_vel_ref,z_vel_ref,x_torque,y_torque,z_torque,w0,w1,w2,w3,u0,u1,u2,u3,m0req,m1req,m2req,m3req,thrust0,thrust1,thrust2,thrust3,thrust_ref,roll_vicon,pitch_vicon,yaw_vicon,acc_x,acc_y,acc_z
5,5,0.0,0.0,0.0,-0.002036402700468898,-0.0005206528585404158,-0.004694363567978144,0.0,0.0,0.0,0.0,0.0,0.0,0.0,0.0,0.0,0.0006395108648575842,-0.0019240676192566752,-0.0,0.0,0.0,0.0,0.0,0.0,0.0,0.0,0.0,0.0,0.0,0.0,0.0,0.0,0.0,0.0,0.0,0.0,0.0,0.0,0.0,0.0,0.0,1.6471117734909058,-0.04911528473774925,0.010958629140307877,0.06345170920656472,0.0076365103013813496,0.0019524481613188982,0.0
42,37,0.0,0.0,0.0,-0.004268593154847622,-0.0027678105980157852,-0.004584338050335646,0.0,0.0,0.0,0.0,0.0,0.0,0.0,0.0,0.0,0.0006395108648575842,-0.0019240676192566752,-0.0,0.0,0.0,0.0,0.0,0.0,0.0,0.0,0.0,0.0,0.0,0.0,0.0,0.0,0.0,0.0,0.0,0.0,0.0,0.0,0.0,0.0,0.0,1.6471117734909058,-0.04983990760160222,0.011120337416829738,0.0631513621920488,0.0076365103013813496,0.0019524481613188982,0.0
47,5,0.0,0.0,0.0,-0.0008578381384722888,0.0015829853946343064,0.0035468258429318666,0.0,0.0,0.0,0.0,0.0,0.0,0.0,0.0,0.0,0.0033385197166353464,-0.003960600588470697,-0.0,0.0,0.0,0.0,0.0,0.0,0.0,0.0,0.0,0.0,0.0,0.0,0.0,0.0,0.0,0.0,0.0,0.0,0.0,0.0,0.0,0.0,0.0,1.6772840023040771,-0.04908892913147495,0.011245153995788269,0.06349186668834836,0.01600722409784794,0.010379290208220482,0.0
56,8,0.0,0.0,0.0,0.0007160127861425281,-0.00020648988720495254,-0.000777043926063925,0.0,0.0,0.0,0.0,0.0,0.0,0.0,0.0,0.0,0.0002557686239015311,0.0006822223658673465,-0.0,0.0,0.0,0.0,0.0,0.0,0.0,0.0,0.0,0.0,0.0,0.0,0.0,0.0,0.0,0.0,0.0,0.0,0.0,0.0,0.0,0.0,0.0,1.6333311796188354,-0.049210656950904035,0.01038198042169035,0.06378079139145656,-0.0026850479189306498,0.000774337095208466,0.0
62,7,0.0,0.0,0.0,0.0006073519471101463,0.0009013388189487159,-0.0030457351822406054,0.0,0.0,0.0,0.0,0.0,0.0,0.0,0.0,0.0,0.0002557686239015311,0.0006822223658673465,-0.0,0.0,0.0,0.0,0.0,0.0,0.0,0.0,0.0,0.0,0.0,0.0,0.0,0.0,0.0,0.0,0.0,0.0,0.0,0.0,0.0,0.0,0.0,1.6333311796188354,-0.05015872258299418,0.01069448855035452,0.06336315845318345,-0.0026850479189306498,0.000774337095208466,0.0
67,5,0.0,0.0,0.0,-0.0020286596845835447,-0.0005008361767977476,0.0006233634776435792,0.0,0.0,0.0,0.0,0.0,0.0,0.0,0.0,0.0,0.0006152170826680958,-0.0019168972503393888,-0.0,0.0,0.0,0.0,0.0,0.0,0.0,0.0,0.0,0.0,0.0,0.0,0.0,0.0,0.0,0.0,0.0,0.0,0.0,0.0,0.0,0.0,0.0,1.6469866037368774,-0.04918240559782001,0.0106117144475519,0.0636051999619822,0.0076074739918112755,0.0018781356047838926,0.0
72,5,1.9300034182379022e-05,4.033440291095758e-06,-4.79604241263587e-05,0.0015045400941744447,-0.0006843472947366536,0.0060045961290597916,0.0,0.0,0.0,0.0,0.0,0.0,0.0,0.0,0.0,0.0006152170826680958,-0.0019168972503393888,-0.0,0.0,0.0,0.0,0.0,0.0,0.0,0.0,0.0,0.0,0.0,0.0,0.0,0.0,0.0,0.0,0.0,0.0,0.0,0.0,0.0,0.0,0.0,1.6469866037368774,-0.05039754752287788,0.009944482571438418,0.06380262620681944,0.0076074739918112755,0.0018781356047838926,0.0
78,5,6.518313966807909e-06,1.5758838344481774e-05,-2.4748020223341882e-05,-0.0009319902746938169,-0.0016807866049930453,-0.0003836498945020139,0.0,0.0,0.0,0.0,0.0,0.0,0.0,0.0,0.0,0.0020950159523636103,-0.0008724232902750373,-0.0,0.0,0.0,0.0,0.0,0.0,0.0,0.0,0.0,0.0,0.0,0.0,0.0,0.0,0.0,0.0,0.0,0.0,0.0,0.0,0.0,0.0,0.0,1.6454463005065918,-0.05099731481654492,0.010201912814712914,0.06350385822999066,0.0034590899012982845,0.006389678455889225,0.0
83,5,6.044763267709641e-06,1.679415800026618e-05,7.328990704991156e-06,-0.00042962218867614865,-0.0007965531549416482,-0.00400270102545619,0.0,0.0,0.0,0.0,0.0,0.0,0.0,0.0,0.0,0.0020950159523636103,-0.0008724232902750373,-0.0,0.0,0.0,0.0,0.0,0.0,0.0,0.0,0.0,0.0,0.0,0.0,0.0,0.0,0.0,0.0,0.0,0.0,0.0,0.0,0.0,0.0,0.0,1.6454463005065918,-0.0488176290209535,0.01181719347708457,0.06280047768220196,0.0034590899012982845,0.006389678455889225,0.0
88,5,4.14532951253932e-05,1.720851514619426e-07,-3.138322426821105e-05,0.0040771751664578915,0.0016760275466367602,0.003044385462999344,0.0,0.0,0.0,0.0,0.0,0.0,0.0,0.0,0.0,-0.002028885530307889,0.0038538617081940174,-0.0,0.0,0.0,0.0,0.0,0.0,0.0,0.0,0.0,0.0,0.0,0.0,0.0,0.0,0.0,0.0,0.0,0.0,0.0,0.0,0.0,0.0,0.0,1.6710044145584106,-0.05035339731593546,0.009699921447242134,0.06441264185024267,-0.015517568215727806,-0.0062841009348630905,0.0
93,5,3.9892829590826295e-06,1.1314061339362524e-05,1.1277457815594971e-05,-0.003051643492653966,-0.0010166529100388288,-0.0009430604986846447,0.0,0.0,0.0,0.0,0.0,0.0,0.0,0.0,0.0,-0.002028885530307889,0.0038538617081940174,-0.0,0.0,0.0,0.0,0.0,0.0,0.0,0.0,0.0,0.0,0.0,0.0,0.0,0.0,0.0,0.0,0.0,0.0,0.0,0.0,0.0,0.0,0.0,1.6710044145584106,-0.048999354136358426,0.011394174023528743,0.06305083544172395,-0.015517568215727806,-0.0062841009348630905,0.0
98,5,2.3788770704413764e-05,-1.2213883564982098e-05,-4.5476142986444756e-05,0.0011552810901775956,0.0024166922084987164,0.006433207541704178,0.0,0.0,0.0,0.0,0.0,0.0,0.0,0.0,0.0,-0.002028885530307889,0.0038538617081940174,-0.0,0.0,0.0,0.0,0.0,0.0,0.0,0.0,0.0,0.0,0.0,0.0,0.0,0.0,0.0,0.0,0.0,0.0,0.0,0.0,0.0,0.0,0.0,1.6710044145584106,-0.05090377353896733,0.009204152060025983,0.06422047958922453,-0.015517568215727806,-0.0062841009348630905,0.0
104,6,3.7732381315436214e-05,-2.7675698220264167e-05,-7.844046194804832e-05,0.0021353457123041153,0.0028220945969223976,0.006529001519083977,0.0,0.0,0.0,0.0,0.0,0.0,0.0,0.0,0.0,-0.002979246200993657,0.001120391534641385,-0.0,0.0,0.0,0.0,0.0,0.0,0.0,0.0,0.0,0.0,0.0,0.0,0.0,0.0,0.0,0.0,0.0,0.0,0.0,0.0,0.0,0.0,0.0,1.6532765626907349,-0.05008302922749327,0.008973893149321783,0.06457096985547461,-0.004463393706828356,-0.009129758924245834,0.0
109,5,2.1145780920051038e-05,1.1287115739833098e-05,-5.862183388671838e-05,-0.001136253704316914,-0.00354669988155365,0.00023336512094829232,0.0,0.0,0.0,0.0,0.0,0.0,0.0,0.0,0.0,0.004333350341767073,-0.0010338465217500925,-0.0,0.0,0.0,0.0,0.0,0.0,0.0,0.0,0.0,0.0,0.0,0.0,0.0,0.0,0.0,0.0,0.0,0.0,0.0,0.0,0.0,0.0,0.0,1.6636037826538086,-0.05171035730688606,0.00874233106186023,0.0641486843304589,0.004144324455410242,0.01336225587874651,0.0
114,5,1.543753569421824e-05,3.0202629659470404e-06,2.1586688490060624e-06,-0.0011394909815862775,-0.00042665761429816484,-0.007200314197689295,0.0,0.0,0.0,0.0,0.0,0.0,0.0,0.0,0.0,0.004333350341767073,-0.0010338465217500925,-0.0,0.0,0.0,0.0,0.0,0.0,0.0,0.0,0.0,0.0,0.0,0.0,0.0,0.0,0.0,0.0,0.0,0.0,0.0,0.0,0.0,0.0,0.0,1.6636037826538086,-0.04918340642322496,0.010729458845677548,0.0637034302410559,0.004144324455410242,0.01336225587874651,0.0
119,5,1.7572958313394338e-05,1.0305147043254692e-05,-7.119323981896741e-06,-0.00019954569870606065,-0.0010448491666465998,-0.00176676653791219,0.0,0.0,0.0,0.0,0.0,0.0,0.0,0.0,0.0,0.004333350341767073,-0.0010338465217500925,-0.0,0.0,0.0,0.0,0.0,0.0,0.0,0.0,0.0,0.0,0.0,0.0,0.0,0.0,0.0,0.0,0.0,0.0,0.0,0.0,0.0,0.0,0.0,1.6636037826538086,-0.0498945373765026,0.010530851338534616,0.06392163306717574,0.004144324455410242,0.01336225587874651,0.0
125,6,3.249511064495891e-05,2.2465528672910295e-05,9.28093049878953e-06,0.001710840268060565,-0.0018771853065118194,-0.002674737246707082,0.0,0.0,0.0,0.0,0.0,0.0,0.0,0.0,0.0,0.0013102693483233452,-0.0001651349157327786,-0.0,0.0,0.0,0.0,0.0,0.0,0.0,0.0,0.0,0.0,0.0,0.0,0.0,0.0,0.0,0.0,0.0,0.0,0.0,0.0,0.0,0.0,0.0,1.6366767883300781,-0.05028622161088136,0.010591622530315242,0.06364998698143574,0.0006512584513984621,0.003974951338022947,0.0
130,5,7.442508831445593e-06,1.3561085324909072e-05,-1.0554274012974929e-05,-0.002321976236999035,0.0003176589380018413,0.0013103296514600515,0.0,0.0,0.0,0.0,0.0,0.0,0.0,0.0,0.0,0.0013102693483233452,-0.0001651349157327786,-0.0,0.0,0.0,0.0,0.0,0.0,0.0,0.0,0.0,0.0,0.0,0.0,0.0,0.0,0.0,0.0,0.0,0.0,0.0,0.0,0.0,0.0,0.0,1.6366767883300781,-0.04874589046102777,0.011099402636271197,0.06323506580388347,0.008666064590215683,-0.0011164989555254579,0.0
136,5,3.0318362405523658e-05,-3.880766143993242e-06,-6.123155617387965e-05,0.001816311851143837,0.002220085822045803,0.006605405826121569,0.0,0.0,0.0,0.0,0.0,0.0,0.0,0.0,0.0,-0.00036518866545520723,-0.00218040868639946,-0.0,0.0,0.0,0.0,0.0,0.0,0.0,0.0,0.0,0.0,0.0,0.0,0.0,0.0,0.0,0.0,0.0,0.0,0.0,0.0,0.0,0.0,0.0,1.64942467212677,-0.051286115388694764,0.008148989075483913,0.06497495239045396,0.008666064590215683,-0.0011164989555254579,0.0
141,5,2.232239057775587e-05,4.229668775224127e-06,-5.282624624669552e-05,-0.00023299182066693902,-8.521788549842313e-05,0.0016335250111296773,0.0,0.0,0.0,0.0,0.0,0.0,0.0,0.0,0.0,0.00011362778604961932,-0.00019124752725474536,-0.0,0.0,0.0,0.0,0.0,0.0,0.0,0.0,0.0,0.0,0.0,0.0,0.0,0.0,0.0,0.0,0.0,0.0,0.0,0.0,0.0,0.0,0.0,1.6284600496292114,-0.049466928829760747,0.010051626726459597,0.06405017230423067,0.0007504553068429232,0.0003429811040405184,0.0
146,5,1.3897069948143326e-05,2.1692621885449626e-06,-1.5784766219439916e-05,-0.0011042351834475994,0.00021316164929885417,-0.003791567636653781,0.0,0.0,0.0,0.0,0.0,0.0,0.0,0.0,0.0,0.00011362778604961932,-0.00019124752725474536,-0.0,0.0,0.0,0.0,0.0,0.0,0.0,0.0,0.0,0.0,0.0,0.0,0.0,0.0,0.0,0.0,0.0,0.0,0.0,0.0,0.0,0.0,0.0,1.6284600496292114,-0.04996006291552679,0.009771095789816888,0.06410496504364115,0.0007504553068429232,0.0003429811040405184,0.0
151,5,-2.0664179828600027e-05,2.084356856357772e-05,4.44683428213466e-06,-0.004589044023305178,-0.002155652269721031,-0.003944419324398041,0.0,0.0,0.0,0.0,0.0,0.0,0.0,0.0,0.0,0.00011362778604961932,-0.00019124752725474536,-0.0,0.0,0.0,0.0,0.0,0.0,0.0,0.0,0.0,0.0,0.0,0.0,0.0,0.0,0.0,0.0,0.0,0.0,0.0,0.0,0.0,0.0,0.0,1.6284600496292114,-0.05000518957215525,0.011085392568066826,0.06324112765999951,0.0007504553068429232,0.0003429811040405184,0.0
156,5,2.2355892724590376e-05,-3.7543700273090508e-06,4.351027018856257e-05,0.0033267911057919264,0.0020894918125122786,-0.0062653799541294575,0.0,0.0,0.0,0.0,0.0,0.0,0.0,0.0,0.0,0.002636716701090336,-0.004285349510610104,-0.0,0.0,0.0,0.0,0.0,0.0,0.0,0.0,0.0,0.0,0.0,0.0,0.0,0.0,0.0,0.0,0.0,0.0,0.0,0.0,0.0,0.0,0.0,1.6775151491165161,-0.05044208327432934,0.009949184505183528,0.06412714458720499,0.017322149127721786,0.008198559284210205,0.0
161,5,5.899728876102017e-06,1.3094465884933015e-06,-1.1788165465986822e-05,-0.000644023297354579,0.00022813874238636345,0.004129660315811634,0.0,0.0,0.0,0.0,0.0,0.0,0.0,0.0,0.0,0.002636716701090336,-0.004285349510610104,-0.0,0.0,0.0,0.0,0.0,0.0,0.0,0.0,0.0,0.0,0.0,0.0,0.0,0.0,0.0,0.0,0.0,0.0,0.0,0.0,0.0,0.0,0.0,1.6775151491165161,-0.04896185998375977,0.010623809396128028,0.06382644496673517,0.017322149127721786,0.008198559284210205,0.0
166,5,1.3815141755912919e-05,6.813352229073644e-06,5.6401750043733045e-06,0.0006922402535565197,-0.0005692131817340851,-0.0004395366704557091,0.0,0.0,0.0,0.0,0.0,0.0,0.0,0.0,0.0,-0.00028025341453030705,-0.0006055414560250938,-0.0,0.0,0.0,0.0,0.0,0.0,0.0,0.0,0.0,0.0,0.0,0.0,0.0,0.0,0.0,0.0,0.0,0.0,0.0,0.0,0.0,0.0,0.0,1.6326099634170532,-0.04878638720158607,0.010238554706345854,0.06350692020092842,0.0023821997456252575,-0.0008480899268761277,0.0
171,5,2.621701241878327e-05,-2.0083520212210715e-05,-5.1875529607059434e-05,0.0017651206580922008,0.002999939490109682,0.006726069841533899,0.0,0.0,0.0,0.0,0.0,0.0,0.0,0.0,0.0,-0.00028025341453030705,-0.0006055414560250938,-0.0,0.0,0.0,0.0,0.0,0.0,0.0,0.0,0.0,0.0,0.0,0.0,0.0,0.0,0.0,0.0,0.0,0.0,0.0,0.0,0.0,0.0,0.0,1.6326099634170532,-0.047654704126954245,0.009965296979351387,0.06420225681416104,0.0023821997456252575,-0.0008480899268761277,0.0
176,5,8.4507428255165e-06,2.2848947992315516e-05,1.9787781639024615e-05,-0.0014259041054174304,-0.003951920662075281,-0.0059091695584356785,0.0,0.0,0.0,0.0,0.0,0.0,0.0,0.0,0.0,-0.0036886390298604965,0.001689436729066074,-0.0,0.0,0.0,0.0,0.0,0.0,0.0,0.0,0.0,0.0,0.0,0.0,0.0,0.0,0.0,0.0,0.0,0.0,0.0,0.0,0.0,0.0,0.0,1.6615302562713623,-0.0490527720852412,0.011405571086748282,0.06311773530830583,-0.006763927172869444,-0.011360074393451214,0.0
181,5,5.075672561360989e-06,1.9391558453207836e-05,-3.237625423935242e-05,-0.0009753701160661876,-0.0011658815201371908,0.003896016627550125,0.0,0.0,0.0,0.0,0.0,0.0,0.0,0.0,0.0,-0.0036886390298604965,0.001689436729066074,-0.0,0.0,0.0,0.0,0.0,0.0,0.0,0.0,0.0,0.0,0.0,0.0,0.0,0.0,0.0,0.0,0.0,0.0,0.0,0.0,0.0,0.0,0.0,1.6615302562713623,-0.049471124528045446,0.010471913303535982,0.06349794157372134,-0.006763927172869444,-0.011360074393451214,0.0
186,5,1.717359191388823e-05,-1.0252763331664028e-06,-3.948205630877055e-05,0.0010616021463647485,0.0019836677238345146,0.002411103108897805,0.0,0.0,0.0,0.0,0.0,0.0,0.0,0.0,0.0,0.001472165808081627,-0.0009175854502245784,-0.0,0.0,0.0,0.0,0.0,0.0,0.0,0.0,0.0,0.0,0.0,0.0,0.0,0.0,0.0,0.0,0.0,0.0,0.0,0.0,0.0,0.0,0.0,1.6413824558258057,-0.04982760939482179,0.009593362564334464,0.06436330999051353,0.00362917291931808,0.004478935152292252,0.0
191,5,1.2529756531876046e-05,2.1588228264590725e-05,-2.099102857755497e-05,-0.0001326192868873477,-0.00192015350330621,-0.0012544823111966252,0.0,0.0,0.0,0.0,0.0,0.0,0.0,0.0,0.0,0.001472165808081627,-0.0009175854502245784,-0.0,0.0,0.0,0.0,0.0,0.0,0.0,0.0,0.0,0.0,0.0,0.0,0.0,0.0,0.0,0.0,0.0,0.0,0.0,0.0,0.0,0.0,0.0,1.6413824558258057,-0.04956822456001292,0.01089498283250937,0.06367615587648645,0.00362917291931808,0.004478935152292252,0.0
196,5,1.6946616597124375e-05,6.377436534421577e-07,4.901914053334622e-06,0.00047697554691694677,0.0017459967639297247,-0.0036089459899812937,0.0,0.0,0.0,0.0,0.0,0.0,0.0,0.0,0.0,0.002399657154455781,-0.00010788856161525473,-0.0,0.0,0.0,0.0,0.0,0.0,0.0,0.0,0.0,0.0,0.0,0.0,0.0,0.0,0.0,0.0,0.0,0.0,0.0,0.0,0.0,0.0,0.0,1.6456258296966553,-0.049863013716253665,0.01016688308944326,0.06404998521001372,0.0004278161213733256,0.007319612428545952,0.0
201,5,1.8556949726189487e-05,8.983075531432405e-06,2.81463835563045e-05,0.00038403013604693115,-0.0003030410734936595,-0.00423291465267539,0.0,0.0,0.0,0.0,0.0,0.0,0.0,0.0,0.0,0.002399657154455781,-0.00010788856161525473,-0.0,0.0,0.0,0.0,0.0,0.0,0.0,0.0,0.0,0.0,0.0,0.0,0.0,0.0,0.0,0.0,0.0,0.0,0.0,0.0,0.0,0.0,0.0,1.6456258296966553,-0.048646893835723314,0.011449645194059775,0.0633622907698217,0.0004278161213733256,0.007319612428545952,0.0
206,5,1.3978044080431573e-05,2.43277881963877e-05,2.441481592541095e-05,-0.00039585656486451626,-0.001962582115083933,-0.0012453778181225061,0.0,0.0,0.0,0.0,0.0,0.0,0.0,0.0,0.0,0.00039234416908584535,0.0003925595956388861,-0.0,0.0,0.0,0.0,0.0,0.0,0.0,0.0,0.0,0.0,0.0,0.0,0.0,0.0,0.0,0.0,0.0,0.0,0.0,0.0,0.0,0.0,0.0,1.6310288906097412,-0.05110421031402604,0.010245316902544923,0.06343381584348082,-0.0015428337501361966,0.0011861439561471343,0.0
212,5,9.546655746817123e-06,1.1467691365396604e-06,-3.657774504972622e-05,-0.0006901093292981386,0.0019966894760727882,0.006820956245064735,0.0,0.0,0.0,0.0,0.0,0.0,0.0,0.0,0.0,0.00039234416908584535,0.0003925595956388861,-0.0,0.0,0.0,0.0,0.0,0.0,0.0,0.0,0.0,0.0,0.0,0.0,0.0,0.0,0.0,0.0,0.0,0.0,0.0,0.0,0.0,0.0,0.0,1.6310288906097412,-0.04960792135788137,0.010312188017350444,0.06363568078137927,-0.0015428337501361966,0.0011861439561471343,0.0
217,5,-5.303332955008955e-07,1.8942531823995523e-05,-5.349120328901336e-06,-0.0014852823223918676,-0.0013368157669901848,-0.0010190523462370038,0.0,0.0,0.0,0.0,0.0,0.0,0.0,0.0,0.0,-0.0024502654559910297,-0.0006386203458532691,-0.0,0.0,0.0,0.0,0.0,0.0,0.0,0.0,0.0,0.0,0.0,0.0,0.0,0.0,0.0,0.0,0.0,0.0,0.0,0.0,0.0,0.0,0.0,1.6471583843231201,-0.05019753855570662,0.01038238022866884,0.0635946371794519,0.0025347124319523573,-0.007480941247195005,0.0
222,5,8.575062565796543e-06,1.1362744771759026e-05,-3.620158167905174e-05,0.0004985345876775682,0.0003748481394723058,0.003294674213975668,0.0,0.0,0.0,0.0,0.0,0.0,0.0,0.0,0.0,-0.0024502654559910297,-0.0006386203458532691,-0.0,0.0,0.0,0.0,0.0,0.0,0.0,0.0,0.0,0.0,0.0,0.0,0.0,0.0,0.0,0.0,0.0,0.0,0.0,0.0,0.0,0.0,0.0,1.6471583843231201,-0.04989385595262088,0.010326776576101083,0.0637697986938041,0.0025347124319523573,-0.007480941247195005,0.0
227,5,5.073492275187164e-07,1.4386855582415592e-05,2.134142050636001e-05,-0.0007687117904424667,-0.0002129539498127997,-0.00558729050680995,0.0,0.0,0.0,0.0,0.0,0.0,0.0,0.0,0.0,-0.00044387305388227105,0.000487541314214468,-0.0,0.0,0.0,0.0,0.0,0.0,0.0,0.0,0.0,0.0,0.0,0.0,0.0,0.0,0.0,0.0,0.0,0.0,0.0,0.0,0.0,0.0,0.0,1.6321003437042236,-0.05003433889282916,0.010141549120732968,0.0639277994611342,-0.0019173885229974985,-0.0013428087113425136,0.0
232,5,-1.9414728740230203e-05,6.321721684798831e-06,3.533981362124905e-05,-0.0026981341652572155,0.0008826344856061041,-0.003914723172783852,0.0,0.0,0.0,0.0,0.0,0.0,0.0,0.0,0.0,-0.00044387305388227105,0.000487541314214468,-0.0,0.0,0.0,0.0,0.0,0.0,0.0,0.0,0.0,0.0,0.0,0.0,0.0,0.0,0.0,0.0,0.0,0.0,0.0,0.0,0.0,0.0,0.0,1.6321003437042236,-0.0486189566475096,0.011512453024298425,0.06311727794742165,-0.0019173885229974985,-0.0013428087113425136,0.0
237,5,2.4680686692590825e-05,-1.471002269681776e-05,2.6620691642165184e-05,0.004212196450680494,0.0028768631163984537,-0.0005195947014726698,0.0,0.0,0.0,0.0,0.0,0.0,0.0,0.0,0.0,-0.0010676116216927767,-0.002564034890383482,-0.0,0.0,0.0,0.0,0.0,0.0,0.0,0.0,0.0,0.0,0.0,0.0,0.0,0.0,0.0,0.0,0.0,0.0,0.0,0.0,0.0,0.0,0.0,1.6548219919204712,-0.04924714168280219,0.009967758044220188,0.06445467842577084,0.010224130935966969,-0.0032747110817581415,0.0
242,5,4.991057721781544e-06,1.3522678273147903e-05,1.0901174391619861e-05,-0.0006778769893571734,-0.0022371788509190083,0.0016785041661933064,0.0,0.0,0.0,0.0,0.0,0.0,0.0,0.0,0.0,-0.0010676116216927767,-0.002564034890383482,-0.0,0.0,0.0,0.0,0.0,0.0,0.0,0.0,0.0,0.0,0.0,0.0,0.0,0.0,0.0,0.0,0.0,0.0,0.0,0.0,0.0,0.0,0.0,1.6548219919204712,-0.04860901165221512,0.011201979940272867,0.0633804467462403,0.010224130935966969,-0.0032747110817581415,0.0
247,5,2.8575375836226158e-05,7.532841209467733e-06,-2.5004639610415325e-05,0.0025589673314243555,-0.0001760910963639617,0.0049800993874669075,0.0,0.0,0.0,0.0,0.0,0.0,0.0,0.0,0.0,0.002768100704997778,-0.000632415059953928,-0.0,0.0,0.0,0.0,0.0,0.0,0.0,0.0,0.0,0.0,0.0,0.0,0.0,0.0,0.0,0.0,0.0,0.0,0.0,0.0,0.0,0.0,0.0,1.6496758460998535,-0.05023105035534551,0.009943423684291222,0.06394123054888434,0.0025139173958450556,0.008464241400361061,0.0
252,5,6.278296041273279e-06,7.328639640036272e-06,-6.53270399197936e-05,-0.001652062637731433,-4.5932210923638195e-05,0.006830727681517601,0.0,0.0,0.0,0.0,0.0,0.0,0.0,0.0,0.0,0.002768100704997778,-0.000632415059953928,-0.0,0.0,0.0,0.0,0.0,0.0,0.0,0.0,0.0,0.0,0.0,0.0,0.0,0.0,0.0,0.0,0.0,0.0,0.0,0.0,0.0,0.0,0.0,1.6496758460998535,-0.04944881527380061,0.010497152973356502,0.06361087169886594,0.0025139173958450556,0.008464241400361061,0.0
257,5,1.7400428987457417e-05,9.848997251538094e-06,-5.37430532858707e-05,0.0006738308584317565,-0.0003208158304914832,0.0013422127813100815,0.0,0.0,0.0,0.0,0.0,0.0,0.0,0.0,0.0,6.997244054218754e-05,-0.001556447590701282,-0.0,0.0,0.0,0.0,0.0,0.0,0.0,0.0,0.0,0.0,0.0,0.0,0.0,0.0,0.0,0.0,0.0,0.0,0.0,0.0,0.0,0.0,0.0,1.6424620151519775,-0.051142824571867224,0.009805811102257481,0.0641852693035626,0.0061600119806826115,0.00021302516688592732,0.0
262,5,2.9245640689623542e-05,7.0019555096223485e-06,-7.877613825257868e-05,0.0016909578116610646,0.0002133186935679987,0.003540854901075363,0.0,0.0,0.0,0.0,0.0,0.0,0.0,0.0,0.0,6.997244054218754e-05,-0.001556447590701282,-0.0,0.0,0.0,0.0,0.0,0.0,0.0,0.0,0.0,0.0,0.0,0.0,0.0,0.0,0.0,0.0,0.0,0.0,0.0,0.0,0.0,0.0,0.0,1.6424620151519775,-0.05173733759213918,0.00889040931926195,0.06443243246519263,0.0061600119806826115,0.00021302516688592732,0.0
267,5,2.542653601267375e-05,2.822887154252385e-06,-3.9156555430963635e-05,0.00021809055760968477,0.0005868157022632658,-0.0033380077220499516,0.0,0.0,0.0,0.0,0.0,0.0,0.0,0.0,0.0,-0.000722062133718282,0.00024369475431740284,-0.0,0.0,0.0,0.0,0.0,0.0,0.0,0.0,0.0,0.0,0.0,0.0,0.0,0.0,0.0,0.0,0.0,0.0,0.0,0.0,0.0,0.0,0.0,1.6322218179702759,-0.04970203459818085,0.010041240244216532,0.06395917310133031,-0.0009584669605828822,-0.0021845512092113495,0.0
273,5,-1.0323439710191451e-05,1.819472890929319e-05,3.6304052628111094e-05,-0.004202760756015778,-0.0016098946798592806,-0.010390476323664188,0.0,0.0,0.0,0.0,0.0,0.0,0.0,0.0,0.0,-0.000722062133718282,0.00024369475431740284,-0.0,0.0,0.0,0.0,0.0,0.0,0.0,0.0,0.0,0.0,0.0,0.0,0.0,0.0,0.0,0.0,0.0,0.0,0.0,0.0,0.0,0.0,0.0,1.6322218179702759,-0.04872559079818416,0.011464984150685696,0.06319824009401659,-0.0009584669605828822,-0.0021845512092113495,0.0
278,5,2.0834295355598442e-05,1.361024601465033e-06,-4.1875264287227765e-05,0.002057823818176985,0.001376086613163352,0.005225327797234058,0.0,0.0,0.0,0.0,0.0,0.0,0.0,0.0,0.0,-0.000722062133718282,0.00024369475431740284,-0.0,0.0,0.0,0.0,0.0,0.0,0.0,0.0,0.0,0.0,0.0,0.0,0.0,0.0,0.0,0.0,0.0,0.0,0.0,0.0,0.0,0.0,0.0,1.6322218179702759,-0.0496501465882946,0.010003602112747645,0.06389206425018955,-0.007832282222807407,-0.005152352619916201,0.0
283,5,4.2775536712724715e-05,-2.3571434212499298e-05,-8.914290083339438e-05,0.004125472158193588,0.004582167603075504,0.009999489411711693,0.0,0.0,0.0,0.0,0.0,0.0,0.0,0.0,0.0,-0.0016834934940561652,0.001968572149053216,-0.0,0.0,0.0,0.0,0.0,0.0,0.0,0.0,0.0,0.0,0.0,0.0,0.0,0.0,0.0,0.0,0.0,0.0,0.0,0.0,0.0,0.0,0.0,1.6511478424072266,-0.04926612700748863,0.009002143050642704,0.06480128749891152,-0.007832282222807407,-0.005152352619916201,0.0
288,5,4.2775536712724715e-05,-2.3571434212499298e-05,-8.914290083339438e-05,0.004125472158193588,0.004582167603075504,0.009999489411711693,0.0,0.0,0.0,0.0,0.0,0.0,0.0,0.0,0.0,-0.0016834934940561652,0.001968572149053216,-0.0,0.0,0.0,0.0,0.0,0.0,0.0,0.0,0.0,0.0,0.0,0.0,0.0,0.0,0.0,0.0,0.0,0.0,0.0,0.0,0.0,0.0,0.0,1.6511478424072266,-0.04926612700748863,0.009002143050642704,0.06480128749891152,-0.007832282222807407,-0.005152352619916201,0.0
293,5,3.540060788509436e-05,2.569202251834213e-06,-8.2693703006953e-05,0.0023656352423131466,0.0012284173863008618,0.006300796288996935,0.0,0.0,0.0,0.0,0.0,0.0,0.0,0.0,0.0,-0.0055305687710642815,0.0038597676903009415,-0.0,0.0,0.0,0.0,0.0,0.0,0.0,0.0,0.0,0.0,0.0,0.0,0.0,0.0,0.0,0.0,0.0,0.0,0.0,0.0,0.0,0.0,0.0,1.6888151168823242,-0.04915867022216512,0.010064063868734404,0.06417485309932311,-0.01570679061114788,-0.017312366515398026,0.0
298,5,3.540060788509436e-05,2.569202251834213e-06,-8.2693703006953e-05,0.0023656352423131466,0.0012284173863008618,0.006300796288996935,0.0,0.0,0.0,0.0,0.0,0.0,0.0,0.0,0.0,-0.0014984766021370888,0.0022759626153856516,-0.0,0.0,0.0,0.0,0.0,0.0,0.0,0.0,0.0,0.0,0.0,0.0,0.0,0.0,0.0,0.0,0.0,0.0,0.0,0.0,0.0,0.0,0.0,1.6532772779464722,-0.04915867022216512,0.010064063868734404,0.06417485309932311,-0.009066963568329811,-0.004592021461576223,0.0
303,5,2.2770382201997563e-05,7.38694507163018e-06,-2.2691217964165844e-05,0.00035672131343744695,0.0005766079411841929,-0.0013250048505142331,0.0,0.0,0.0,0.0,0.0,0.0,0.0,0.0,0.0,-0.0014984766021370888,0.0022759626153856516,-0.0,0.0,0.0,0.0,0.0,0.0,0.0,0.0,0.0,0.0,0.0,0.0,0.0,0.0,0.0,0.0,0.0,0.0,0.0,0.0,0.0,0.0,0.0,1.6532772779464722,-0.05027731759208659,0.010045418529504238,0.06369261441353624,-0.009066963568329811,-0.004592021461576223,0.0
308,5,6.740918252035044e-06,8.427029570157174e-06,1.7125592421507463e-05,-0.0017808472039178014,0.00010583298717392609,-0.005308019462972879,0.0,0.0,0.0,0.0,0.0,0.0,0.0,0.0,0.0,-0.00011489979806356132,-0.0016763723688200116,-0.0,0.0,0.0,0.0,0.0,0.0,0.0,0.0,0.0,0.0,0.0,0.0,0.0,0.0,0.0,0.0,0.0,0.0,0.0,0.0,0.0,0.0,0.0,1.6437760591506958,-0.04912369356894982,0.01125876756309347,0.06327859564557937,0.006639950443059206,-0.00035008255508728325,0.0
313,5,7.219235158117954e-06,-1.2962426808371674e-05,-6.4148157434829045e-06,-0.0006549408426508307,0.002609068062156439,0.000701641314662993,0.0,0.0,0.0,0.0,0.0,0.0,0.0,0.0,0.0,-0.00011489979806356132,-0.0016763723688200116,-0.0,0.0,0.0,0.0,0.0,0.0,0.0,0.0,0.0,0.0,0.0,0.0,0.0,0.0,0.0,0.0,0.0,0.0,0.0,0.0,0.0,0.0,0.0,1.6437760591506958,-0.04974243541063717,0.010618742603210258,0.06370038864441192,0.006639950443059206,-0.00035008255508728325,0.0
318,5,3.685093906824477e-05,-1.9276421880931593e-05,-6.343802670016885e-05,0.00329382810741663,0.001801306614652276,0.007123441901057959,0.0,0.0,0.0,0.0,0.0,0.0,0.0,0.0,0.0,-0.002223712857812643,0.003130565630272031,-0.0,0.0,0.0,0.0,0.0,0.0,0.0,0.0,0.0,0.0,0.0,0.0,0.0,0.0,0.0,0.0,0.0,0.0,0.0,0.0,0.0,0.0,0.0,1.6644548177719116,-0.04970994129059554,0.009710021370337213,0.06435342126348825,-0.01255581621080637,-0.00686054490506649,0.0
324,6,-2.592442797322292e-06,1.8178870959673077e-05,5.8061878007720225e-06,-0.0034156746696680784,-0.003774112556129694,-0.005459928885102272,0.0,0.0,0.0,0.0,0.0,0.0,0.0,0.0,0.0,-0.002223712857812643,0.003130565630272031,-0.0,0.0,0.0,0.0,0.0,0.0,0.0,0.0,0.0,0.0,0.0,0.0,0.0,0.0,0.0,0.0,0.0,0.0,0.0,0.0,0.0,0.0,0.0,1.6644548177719116,-0.05008554084891476,0.011010106098276405,0.0632333522966638,-0.01255581621080637,-0.00686054490506649,0.0
329,5,-5.690046236850321e-06,1.7596170437172987e-05,-3.3101168810389936e-05,-0.0017379822675138712,-0.0014397208578884602,0.002484911121428013,0.0,0.0,0.0,0.0,0.0,0.0,0.0,0.0,0.0,0.0017982656136155128,-0.0016478750621899962,-0.0,0.0,0.0,0.0,0.0,0.0,0.0,0.0,0.0,0.0,0.0,0.0,0.0,0.0,0.0,0.0,0.0,0.0,0.0,0.0,0.0,0.0,0.0,1.6489143371582031,-0.05042323747984767,0.010528304525148748,0.06342406005000094,0.00654746824875474,0.005496168974786997,0.0
334,5,5.873445388715481e-06,6.660916369582992e-06,-2.7509180654305965e-05,0.0006924261106178164,0.0007363421027548611,0.0003229259455110878,0.0,0.0,0.0,0.0,0.0,0.0,0.0,0.0,0.0,0.0017982656136155128,-0.0016478750621899962,-0.0,0.0,0.0,0.0,0.0,0.0,0.0,0.0,0.0,0.0,0.0,0.0,0.0,0.0,0.0,0.0,0.0,0.0,0.0,0.0,0.0,0.0,0.0,1.6489143371582031,-0.04995819647958788,0.010187447551744458,0.06365532732202636,0.00654746824875474,0.005496168974786997,0.0
339,5,1.8477065168553963e-05,-1.3549755522035412e-06,-1.2380683983792551e-05,0.0017894047778099775,0.001256443909369409,-0.0016862492775544524,0.0,0.0,0.0,0.0,0.0,0.0,0.0,0.0,0.0,-0.001544544706121087,0.0017154922243207693,-0.0,0.0,0.0,0.0,0.0,0.0,0.0,0.0,0.0,0.0,0.0,0.0,0.0,0.0,0.0,0.0,0.0,0.0,0.0,0.0,0.0,0.0,0.0,1.6482089757919312,-0.04946197079492447,0.010675779247882544,0.06386939460095238,-0.006813216954469681,-0.004718685057014227,0.0
344,5,2.516528002161067e-05,-2.324347292415041e-07,-1.5161432202148717e-05,0.00151834764983505,0.00036787264980375767,-0.00034080984187312424,0.0,0.0,0.0,0.0,0.0,0.0,0.0,0.0,0.0,-0.001544544706121087,0.0017154922243207693,-0.0,0.0,0.0,0.0,0.0,0.0,0.0,0.0,0.0,0.0,0.0,0.0,0.0,0.0,0.0,0.0,0.0,0.0,0.0,0.0,0.0,0.0,0.0,1.6482089757919312,-0.050481133079399367,0.009775063774901505,0.06426133055523887,-0.006813216954469681,-0.004718685057014227,0.0
349,5,1.9640185200842097e-05,-4.205619006825145e-06,1.0599736924632452e-05,-5.5672287999186665e-05,0.0006239311769604683,-0.0032276641577482224,0.0,0.0,0.0,0.0,0.0,0.0,0.0,0.0,0.0,-0.0007808923837728798,-2.5262626877520233e-05,-0.0,0.0,0.0,0.0,0.0,0.0,0.0,0.0,0.0,0.0,0.0,0.0,0.0,0.0,0.0,0.0,0.0,0.0,0.0,0.0,0.0,0.0,0.0,1.6321648359298706,-0.04899101288913054,0.010630386013953535,0.06368354631129194,9.935603884514421e-05,-0.0023624557070434093,0.0
355,5,5.877026069356361e-06,-1.7536790437588934e-06,-4.018108938907972e-06,-0.0016738480189815164,-4.466032260097563e-05,0.00046307576121762395,0.0,0.0,0.0,0.0,0.0,0.0,0.0,0.0,0.0,-0.0007808923837728798,-2.5262626877520233e-05,-0.0,0.0,0.0,0.0,0.0,0.0,0.0,0.0,0.0,0.0,0.0,0.0,0.0,0.0,0.0,0.0,0.0,0.0,0.0,0.0,0.0,0.0,0.0,1.6321648359298706,-0.04943068015444225,0.010099070755386142,0.06405179854919979,9.935603884514421e-05,-0.0023624557070434093,0.0
360,5,1.4778264812775888e-05,1.972478821699042e-05,1.4486741747532506e-05,0.00039860946708358824,-0.002595280297100544,-0.0020353517029434443,0.0,0.0,0.0,0.0,0.0,0.0,0.0,0.0,0.0,-0.0007808923837728798,-2.5262626877520233e-05,-0.0,0.0,0.0,0.0,0.0,0.0,0.0,0.0,0.0,0.0,0.0,0.0,0.0,0.0,0.0,0.0,0.0,0.0,0.0,0.0,0.0,0.0,0.0,1.6321648359298706,-0.05013132487499506,0.010754550248678873,0.06343755000133028,9.935603884514421e-05,-0.0023624557070434093,0.0
365,5,3.2162657589651644e-05,1.0502328223083168e-05,-5.5387245083693415e-05,0.0022455709986388683,6.858308188384399e-05,0.007570737507194281,0.0,0.0,0.0,0.0,0.0,0.0,0.0,0.0,0.0,0.0032124558929353952,0.00039611017564311624,-0.0,0.0,0.0,0.0,0.0,0.0,0.0,0.0,0.0,0.0,0.0,0.0,0.0,0.0,0.0,0.0,0.0,0.0,0.0,0.0,0.0,0.0,0.0,1.6527491807937622,-0.04994193954336964,0.009651315450181231,0.0639492575485824,-0.0015775116626173258,0.009841273538768291,0.0
370,5,5.258766577753704e-06,1.3447847777570132e-06,-6.668543937848881e-05,-0.0023302386980503798,0.0011263384949415922,0.004384078551083803,0.0,0.0,0.0,0.0,0.0,0.0,0.0,0.0,0.0,0.0032124558929353952,0.00039611017564311624,-0.0,0.0,0.0,0.0,0.0,0.0,0.0,0.0,0.0,0.0,0.0,0.0,0.0,0.0,0.0,0.0,0.0,0.0,0.0,0.0,0.0,0.0,0.0,1.6527491807937622,-0.04995792035996806,0.009670257116618538,0.06411369712804009,-0.0015775116626173258,0.009841273538768291,0.0
375,5,-1.8937522554551833e-06,2.200298877141904e-05,1.8843478756025434e-05,-0.0017903976840898395,-0.0020284492056816816,-0.008509838953614235,0.0,0.0,0.0,0.0,0.0,0.0,0.0,0.0,0.0,-0.0013768330682069063,-0.0021876043174415827,-0.0,0.0,0.0,0.0,0.0,0.0,0.0,0.0,0.0,0.0,0.0,0.0,0.0,0.0,0.0,0.0,0.0,0.0,0.0,0.0,0.0,0.0,0.0,1.6519575119018555,-0.04971529049361701,0.010509313581451237,0.06340175052287611,0.008708007633686066,-0.004215882159769535,0.0
380,5,-1.9121603145322297e-06,5.064733613835415e-06,2.5107796318479814e-05,-0.0007183680427260697,0.001221211045049131,-0.004155653528869152,0.0,0.0,0.0,0.0,0.0,0.0,0.0,0.0,0.0,-0.0013768330682069063,-0.0021876043174415827,-0.0,0.0,0.0,0.0,0.0,0.0,0.0,0.0,0.0,0.0,0.0,0.0,0.0,0.0,0.0,0.0,0.0,0.0,0.0,0.0,0.0,0.0,0.0,1.6519575119018555,-0.048751471341142334,0.011679880564267015,0.06331677392121239,0.008708007633686066,-0.004215882159769535,0.0
385,5,1.3941014003648888e-05,-8.113649528240785e-06,1.1606744010350667e-05,0.0016150337178260088,0.0020698902662843466,-4.213515785522759e-05,0.0,0.0,0.0,0.0,0.0,0.0,0.0,0.0,0.0,-0.0014970751944929361,-0.0006839322741143405,-0.0,0.0,0.0,0.0,0.0,0.0,0.0,0.0,0.0,0.0,0.0,0.0,0.0,0.0,0.0,0.0,0.0,0.0,0.0,0.0,0.0,0.0,0.0,1.6401057243347168,-0.04875682149069319,0.010997238447751191,0.06351559291950176,0.0027029395569115877,-0.0045511769130826,0.0
390,5,-4.64000095234951e-06,-5.694586434401572e-06,4.9026598389900755e-06,-0.0015837083337828517,0.0005376685876399279,0.0007876360323280096,0.0,0.0,0.0,0.0,0.0,0.0,0.0,0.0,0.0,-0.0014970751944929361,-0.0006839322741143405,-0.0,0.0,0.0,0.0,0.0,0.0,0.0,0.0,0.0,0.0,0.0,0.0,0.0,0.0,0.0,0.0,0.0,0.0,0.0,0.0,0.0,0.0,0.0,1.6401057243347168,-0.04874658357096999,0.010386396095704053,0.0638083221465661,0.0027029395569115877,-0.0045511769130826,0.0
395,5,-1.0999094229191542e-05,1.1983237527601887e-05,-1.460869680158794e-05,-0.0013965745456516743,-0.0019062714418396354,0.0026564172003418207,0.0,0.0,0.0,0.0,0.0,0.0,0.0,0.0,0.0,-0.000672251801006496,-0.0015063153114169836,-0.0,0.0,0.0,0.0,0.0,0.0,0.0,0.0,0.0,0.0,0.0,0.0,0.0,0.0,0.0,0.0,0.0,0.0,0.0,0.0,0.0,0.0,0.0,1.64284348487854,-0.04953463654693569,0.01095162386728779,0.06321079705027931,0.005962985102087259,-0.002047088695690036,0.0
400,5,2.2047119273338467e-05,-2.3231027626025025e-06,-7.562966493424028e-05,0.0034069158136844635,0.0009542522602714598,0.008385083638131618,0.0,0.0,0.0,0.0,0.0,0.0,0.0,0.0,0.0,-0.000672251801006496,-0.0015063153114169836,-0.0,0.0,0.0,0.0,0.0,0.0,0.0,0.0,0.0,0.0,0.0,0.0,0.0,0.0,0.0,0.0,0.0,0.0,0.0,0.0,0.0,0.0,0.0,1.64284348487854,-0.05025054062979513,0.008789533859440195,0.06486400441412889,0.005962985102087259,-0.002047088695690036,0.0
406,5,4.651553808798781e-06,1.4188292880135123e-05,-1.624970718694385e-05,-0.0007247015018947423,-0.001599666546098888,-0.003771561896428466,0.0,0.0,0.0,0.0,0.0,0.0,0.0,0.0,0.0,-0.0011656024726107717,0.0032208466436713934,-0.0,0.0,0.0,0.0,0.0,0.0,0.0,0.0,0.0,0.0,0.0,0.0,0.0,0.0,0.0,0.0,0.0,0.0,0.0,0.0,0.0,0.0,0.0,1.6619786024093628,-0.04937080414161369,0.01108061292231325,0.06314704520829606,-0.012898711487650871,-0.003590742591768503,0.0
411,5,2.142143239325378e-05,2.3212545841033716e-07,-2.309569754288532e-05,0.0017225048504769802,0.001034873421303928,-0.0006871058139950037,0.0,0.0,0.0,0.0,0.0,0.0,0.0,0.0,0.0,-0.0011656024726107717,0.0032208466436713934,-0.0,0.0,0.0,0.0,0.0,0.0,0.0,0.0,0.0,0.0,0.0,0.0,0.0,0.0,0.0,0.0,0.0,0.0,0.0,0.0,0.0,0.0,0.0,1.6619786024093628,-0.04975514188112226,0.00972761973478547,0.06413922472713576,-0.012898711487650871,-0.003590742591768503,0.0
416,5,3.0984134355094284e-05,6.390879661921645e-06,-2.0898600268992595e-05,0.0018365260912105441,-0.0003251011366955936,-0.0005384940304793417,0.0,0.0,0.0,0.0,0.0,0.0,0.0,0.0,0.0,-0.0012710564769804478,0.0016582389362156391,-0.0,0.0,0.0,0.0,0.0,0.0,0.0,0.0,0.0,0.0,0.0,0.0,0.0,0.0,0.0,0.0,0.0,0.0,0.0,0.0,0.0,0.0,0.0,1.6464498043060303,-0.05017049914711946,0.009982428769441793,0.06396517206703652,-0.006578804459422827,-0.003879017196595669,0.0
421,5,3.108383168637374e-07,2.6965071810991503e-05,6.69518340146169e-05,-0.0029461849480867386,-0.0025989434216171503,-0.010757450014352798,0.0,0.0,0.0,0.0,0.0,0.0,0.0,0.0,0.0,-0.0012710564769804478,0.0016582389362156391,-0.0,0.0,0.0,0.0,0.0,0.0,0.0,0.0,0.0,0.0,0.0,0.0,0.0,0.0,0.0,0.0,0.0,0.0,0.0,0.0,0.0,0.0,0.0,1.6464498043060303,-0.04931029879462799,0.011714003866352924,0.06294431093601983,-0.006578804459422827,-0.003879017196595669,0.0
426,5,1.3377491995925084e-05,3.3478015666332794e-06,-2.8166550691821612e-05,0.0003895245026797056,0.0017944950377568603,0.007111226208508015,0.0,0.0,0.0,0.0,0.0,0.0,0.0,0.0,0.0,0.0032045471016317606,-0.002751526888459921,-0.0,0.0,0.0,0.0,0.0,0.0,0.0,0.0,0.0,0.0,0.0,0.0,0.0,0.0,0.0,0.0,0.0,0.0,0.0,0.0,0.0,0.0,0.0,1.6658599376678467,-0.04995477929265708,0.010089250122097961,0.0636242286273654,0.011044889688491821,0.009894921444356441,0.0
431,5,1.0410892173240427e-05,-3.6318454021966318e-06,4.772210104420083e-06,-0.00020018227223772556,0.0015553556149825454,-0.0011081607080996037,0.0,0.0,0.0,0.0,0.0,0.0,0.0,0.0,0.0,0.0032045471016317606,-0.002751526888459921,-0.0,0.0,0.0,0.0,0.0,0.0,0.0,0.0,0.0,0.0,0.0,0.0,0.0,0.0,0.0,0.0,0.0,0.0,0.0,0.0,0.0,0.0,0.0,1.6658599376678467,-0.04984821191913517,0.010478216029843767,0.0639590141545477,0.011044889688491821,0.009894921444356441,0.0
436,5,2.2294883819995448e-05,-1.4775213230677764e-06,-3.7308000173652545e-05,0.0013460060581564903,0.0003636233741417527,0.004606361035257578,0.013564198277890682,0.08570070564746857,0.0016282425494864583,-0.0007313610403798521,-0.010782469063997269,-0.00521618640050292,0.0,0.0,0.0,-0.0019230664474889636,-0.000174873202922754,-0.0,0.0,0.0,0.0,-0.0047764284536242485,nan,nan,1495.0,1495.0,1495.0,1495.0,0.0,0.0,0.0,0.0,0.0,0.0,0.0,0.0,1495.0,1495.0,1495.0,1495.0,1.6417295932769775,-0.04968207060471965,0.010131413740621823,0.06417938770338778,0.000691792753059417,-0.005851995665580034,0.0
441,5,4.925288067170186e-06,7.604974598507397e-06,-2.7588264856603928e-05,-0.0015459490241482854,-0.0009444501483812928,0.0006761759286746383,0.013564198277890682,0.08570070564746857,0.0016282425494864583,-0.0007313610403798521,-0.010782469063997269,-0.00521618640050292,0.0,0.0,0.0,-0.0019230664474889636,-0.000174873202922754,-0.0,0.0,0.0,0.0,-0.0047764284536242485,nan,nan,1495.0,1495.0,1495.0,1495.0,0.0,0.0,0.0,0.0,0.0,0.0,0.0,0.0,1495.0,1495.0,1495.0,1495.0,1.6417295932769775,-0.05041008397885747,0.009634423816678154,0.06408162252701549,0.000691792753059417,-0.005851995665580034,0.0
446,5,2.6001271180575714e-05,2.007652074098587e-05,7.355274647125043e-06,0.0019107384141534567,-0.001874365727417171,-0.003922754433006048,0.013564198277890682,0.08570070564746857,0.0016282425494864583,-0.0007313610403798521,-0.010782469063997269,-0.00521618640050292,0.0,0.0,0.0,0.0011760558700188994,-0.0014560370473191142,-0.0,0.0,0.0,0.0,-0.0047764284536242485,nan,nan,1495.0,1495.0,1495.0,1495.0,0.0,0.0,0.0,0.0,0.0,0.0,0.0,0.0,1495.0,1495.0,1495.0,1495.0,1.6441612243652344,-0.050975141609615256,0.010199879289981669,0.06396639263737973,0.005768571514636278,0.0035841050557792187,0.0
451,5,1.7648992070462555e-05,-1.1135730346722994e-05,-1.8324042684980668e-05,-0.00023797813628334552,0.002995723858475685,0.0015124164056032896,0.013581248000264168,0.08574619144201279,0.0016174594638869166,-0.000996201066300273,0.0007095201290212572,-0.002816026099026203,0.0,0.0,0.0,0.0011760558700188994,-0.0014560370473191142,-0.0,0.0,0.0,0.0,-0.004792185965925455,nan,nan,1495.0,1495.0,1495.0,1495.0,0.0,0.0,0.0,0.0,0.0,0.0,0.0,0.0,1495.0,1495.0,1495.0,1495.0,1.6441612243652344,-0.04885648759965645,0.010461989174714472,0.06394963886255432,0.005768571514636278,0.0035841050557792187,0.0
456,5,-9.92607147054514e-06,1.512501694378443e-05,2.3959282771102153e-05,-0.0034041989129036665,-0.0019530000863596797,-0.004469032399356365,0.013581248000264168,0.08574619144201279,0.0016174594638869166,-0.000996201066300273,0.0007095201290212572,-0.002816026099026203,0.0,0.0,0.0,-0.0036787360440939665,-0.00019884106586687267,-0.0,0.0,0.0,0.0,-0.004792185965925455,nan,nan,1495.0,1495.0,1495.0,1495.0,0.0,0.0,0.0,0.0,0.0,0.0,0.0,0.0,1495.0,1495.0,1495.0,1495.0,1.656409740447998,-0.04758684955443896,0.012611037540851027,0.06230776388366647,0.00079363863915205,-0.011294660158455372,0.0
461,5,7.114869731594808e-06,1.4459060366789345e-05,2.4465656679240055e-05,0.0006832333747297525,-0.0007012852584011853,-0.0018483779858797789,0.013578382320702076,0.08566678315401077,0.001612580963410437,0.0009455893305130303,-0.005154904909431934,-0.0002161037700716406,0.0,0.0,0.0,-0.0036787360440939665,-0.00019884106586687267,-0.0,0.0,0.0,0.0,-0.004844678100198507,-0.04296568036079407,nan,1495.0,1495.0,1495.0,1495.0,0.0,0.0,0.0,0.0,0.0,0.0,0.0,0.0,1495.0,1495.0,1495.0,1495.0,1.656409740447998,-0.048852299469846316,0.01143745277118433,0.06308837634164216,0.00079363863915205,-0.011294660158455372,0.0
466,5,1.8614717191667296e-05,1.7051424947567284e-05,-2.827861680998467e-05,0.0016532749868929386,-0.0005915978108532727,0.005589961539953947,0.013578382320702076,0.08566678315401077,0.001612580963410437,0.0009455893305130303,-0.005154904909431934,-0.0002161037700716406,0.0,0.0,0.0,0.0007590246968902647,0.0015913679962977767,-0.0,0.0,0.0,0.0,-0.004844678100198507,-0.04296568036079407,nan,1495.0,1495.0,1495.0,1495.0,0.0,0.0,0.0,0.0,0.0,0.0,0.0,0.0,1495.0,1495.0,1495.0,1495.0,1.6439539194107056,-0.050579718151326274,0.009749014041893619,0.06394879438988554,-0.006303937174379826,0.0023128848988562822,0.0
472,5,2.5866140276775695e-05,1.6851416830832022e-06,-9.187187242787331e-05,0.001531480927951634,0.0016073147999122739,0.009867175482213497,0.013571335934102535,0.08575665205717087,0.0016108975978568196,-0.0004913638695143163,-0.01048121228814125,0.0035177029203623533,0.0,0.0,0.0,0.0007590246968902647,0.0015913679962977767,-0.0,0.0,0.0,0.0,-0.004651177674531937,-0.02604326792061329,0.00015696539776399732,12029.0,15482.0,15091.0,11077.0,0.31780433654785156,0.5431389212608337,0.5145866870880127,0.2661997079849243,0.0,0.0,0.0,0.0,0.0,0.0,0.0,0.0,1.6439539194107056,-0.04920870871388093,0.009816358190307193,0.06415753321349606,-0.006303937174379826,0.0023128848988562822,0.0
477,5,-3.4268352919752942e-06,4.421311314217746e-05,1.7511370970169082e-05,-0.002902564825490117,-0.004460430704057217,-0.009179119020700455,0.013571335934102535,0.08575665205717087,0.0016108975978568196,-0.0004913638695143163,-0.01048121228814125,0.0035177029203623533,0.0,0.0,0.0,0.0007590246968902647,0.0015913679962977767,-0.0,0.0,0.0,0.0,-0.004651177674531937,-0.02604326792061329,0.00015696539776399732,12029.0,15482.0,15091.0,11077.0,0.31780433654785156,0.5431389212608337,0.5145866870880127,0.2661997079849243,0.0,0.0,0.0,0.0,0.0,0.0,0.0,0.0,1.6439539194107056,-0.049750301609967074,0.011922935642396135,0.06293026553826186,-0.006303937174379826,0.0023128848988562822,0.0
482,5,3.5240663009972195e-07,2.7663661967380904e-05,-2.16798343899427e-06,-0.0007075168541632593,0.00020176185353193432,-0.0013101251097396016,0.013578344136476517,0.08573036640882492,0.001581780961714685,-0.001691492972895503,0.012174423784017563,-0.002359584206715226,0.0,0.0,0.0,0.005449094343930483,-0.0026926654390990734,-0.0,0.0,0.0,0.0,-0.003740468295291066,-0.026004701852798462,-7.491597898479085e-06,11912.0,15478.0,15091.0,11254.0,0.3112539052963257,0.5428179502487183,0.5146390199661255,0.2754504084587097,0.0,0.0,0.0,0.0,12141.0,15553.0,15069.0,11164.0,1.6802233457565308,-0.05030404023995636,0.011003210371583135,0.06329587855948761,0.01090170256793499,0.016970552504062653,0.0
487,5,-1.2454136140149785e-06,3.383315197424963e-05,5.720917670259951e-06,-0.000474745174869895,-0.0006596341845579445,-0.001470718183554709,0.013578344136476517,0.08573036640882492,0.001581780961714685,-0.001691492972895503,0.012174423784017563,-0.002359584206715226,0.0,0.0,0.0,0.005449094343930483,-0.0026926654390990734,-0.0,0.0,0.0,0.0,-0.003740468295291066,-0.026004701852798462,-7.491597898479085e-06,11912.0,15478.0,15091.0,11254.0,0.3112539052963257,0.5428179502487183,0.5146390199661255,0.2754504084587097,0.0,0.0,0.0,0.0,12141.0,15553.0,15069.0,11164.0,1.6802233457565308,-0.049517138702301546,0.011724173313977453,0.06314841131059669,0.01090170256793499,0.016970552504062653,0.0
492,5,-2.2736967366654426e-05,2.2251571863307618e-05,1.3735715583607089e-05,-0.002768884412944317,0.0011259360471740365,-0.0015500630252063274,0.013560092076659203,0.08565709739923477,0.0015681511722505093,0.002751237014308572,0.0012220852077007294,-0.0035200943239033222,0.0,0.0,0.0,0.0008782142540439963,-0.0004533260071184486,-0.0,0.0,0.0,0.0,-0.0038331474643200636,-0.02544247731566429,0.00034006251371465623,12044.0,15390.0,15117.0,11197.0,0.3186543583869934,0.5363532304763794,0.516476035118103,0.27247023582458496,0.0,0.0,0.0,0.0,11979.0,15443.0,15054.0,11279.0,1.6344425678253174,-0.04732598639671297,0.012168218733749226,0.06277277484722317,0.0017853855388239026,0.0026605939492583275,0.0
497,5,1.7099750039051287e-05,7.112073035386857e-06,-1.9600893210736103e-05,0.0036728521808981895,0.0022671143524348736,0.0033803677652031183,0.013560092076659203,0.08565709739923477,0.0015681511722505093,0.002751237014308572,0.0012220852077007294,-0.0035200943239033222,0.0,0.0,0.0,0.0008782142540439963,-0.0004533260071184486,-0.0,0.0,0.0,0.0,-0.0038331474643200636,-0.02544247731566429,0.00034006251371465623,12044.0,15390.0,15117.0,11197.0,0.3186543583869934,0.5363532304763794,0.516476035118103,0.27247023582458496,0.0,0.0,0.0,0.0,11979.0,15443.0,15054.0,11279.0,1.6344425678253174,-0.049532179715518015,0.010150808736567197,0.06439173531004376,0.0017853855388239026,0.0026605939492583275,0.0
502,5,1.1274129064986482e-05,8.904454261937644e-06,1.7292084521614015e-05,0.000770066340919584,0.0006917599239386618,-0.0030750101432204247,0.013554351404309273,0.08571378141641617,0.001583348261192441,0.0021179658360779285,0.00043631432345137,-0.0003274139598943293,0.0,0.0,0.0,-0.0027341104578226805,0.003447196679189801,-0.0,0.0,0.0,0.0,-0.0024280266370624304,-0.026734398677945137,0.00010467322135809809,11932.0,15561.0,15349.0,11444.0,0.3123699724674225,0.5489574670791626,0.5333091616630554,0.28558674454689026,0.0,0.0,0.0,0.0,11935.0,15553.0,15372.0,11419.0,1.6696738004684448,-0.048812828684106115,0.010733324105307303,0.06366163560376398,-0.01386906299740076,-0.00846165418624878,0.0
507,5,7.024090336926747e-06,2.57659557973966e-05,1.0126611414307263e-05,-0.00020197810954414308,-0.0017466761637479067,-0.00037014723056927323,0.013554351404309273,0.08571378141641617,0.001583348261192441,0.0021179658360779285,0.00043631432345137,-0.0003274139598943293,0.0,0.0,0.0,-0.0027341104578226805,0.003447196679189801,-0.0,0.0,0.0,0.0,-0.0024280266370624304,-0.026734398677945137,0.00010467322135809809,11932.0,15561.0,15349.0,11444.0,0.3123699724674225,0.5489574670791626,0.5333091616630554,0.28558674454689026,0.0,0.0,0.0,0.0,11935.0,15553.0,15372.0,11419.0,1.6696738004684448,-0.0497306996228608,0.01060787322692397,0.06364288359054512,0.0007169423042796552,0.0066927471198141575,0.0
512,5,1.2829999832320027e-05,2.8435009880922735e-05,-1.612840424058959e-05,0.000615917902905494,-0.0010189570020884275,0.0030025430023670197,0.013560126535594463,0.08567018806934357,0.001606204081326723,0.0006256959168240428,0.011052093468606472,0.0020329649560153484,0.0,0.0,0.0,0.002196316374465823,-0.00018098048167303205,-0.0,0.0,0.0,0.0,-0.003833675291389227,-0.025754494592547417,0.00016784784384071827,11944.0,15401.0,15077.0,11163.0,0.31302234530448914,0.5371434688568115,0.5136076807975769,0.2706690728664398,0.0,0.0,0.0,0.0,11979.0,15379.0,15131.0,11082.0,1.6439992189407349,-0.04724540812551107,0.011153633283414226,0.063460313352572,0.0007169423042796552,0.0066927471198141575,0.0
517,5,7.059675795062503e-07,3.277092400821857e-05,3.556730371201411e-05,-0.0012085167691111565,-0.000927892338950187,-0.005002467893064022,0.013560126535594463,0.08567018806934357,0.001606204081326723,0.0006256959168240428,0.011052093468606472,0.0020329649560153484,0.0,0.0,0.0,0.001203192281536758,-0.001144281355664134,-0.0,0.0,0.0,0.0,-0.003833675291389227,-0.025754494592547417,0.00016784784384071827,11944.0,15401.0,15077.0,11163.0,0.31302234530448914,0.5371434688568115,0.5136076807975769,0.2706690728664398,0.0,0.0,0.0,0.0,11979.0,15379.0,15131.0,11082.0,1.641535758972168,-0.049471958240993666,0.011197855079992845,0.06315938641056801,0.004526209551841021,0.00366094964556396,0.0
522,5,2.0904530174448155e-05,2.081360980810132e-05,9.538838639855385e-06,0.001940420945174992,0.001063720672391355,0.0011224285699427128,0.013560126535594463,0.08567018806934357,0.001606204081326723,0.0006256959168240428,0.011052093468606472,0.0020329649560153484,0.0,0.0,0.0,0.001203192281536758,-0.001144281355664134,-0.0,0.0,0.0,0.0,-0.004882759414613247,-0.02465207129716873,0.00016379040607716888,12225.0,15546.0,15057.0,11351.0,0.32901066541671753,0.5478700995445251,0.5121698379516602,0.2806231379508972,0.0,0.0,0.0,0.0,12290.0,15499.0,15075.0,11321.0,1.641535758972168,-0.049468414339891686,0.010510457803326203,0.06394551702524663,0.004526209551841021,0.00366094964556396,0.0
528,5,1.894956767500844e-05,1.7558089894009754e-05,-1.2270184015505947e-06,0.0005415728082880378,0.0008161506266333163,0.0017408743733540177,0.013560126535594463,0.08567018806934357,0.001606204081326723,0.0006256959168240428,0.011052093468606472,0.0020329649560153484,0.0,0.0,0.0,-0.000977245857939124,0.0005422085523605347,-0.0,0.0,0.0,0.0,-0.004882759414613247,-0.02465207129716873,0.00016379040607716888,12225.0,15546.0,15057.0,11351.0,0.32901066541671753,0.5478700995445251,0.5121698379516602,0.2806231379508972,0.0,0.0,0.0,0.0,12290.0,15499.0,15075.0,11321.0,1.6356602907180786,-0.048655015897954165,0.010757509297660154,0.06369994777871876,-0.0021370325703173876,-0.0029628206975758076,0.0
533,5,9.571162991051096e-06,2.0918663722113706e-05,-7.736754014331382e-06,-0.0009087794460356236,-7.680865383008495e-05,0.0014775180025026202,0.013560126535594463,0.08567018806934357,0.001606204081326723,0.0006256959168240428,0.011052093468606472,0.0020329649560153484,0.0,0.0,0.0,-0.000977245857939124,0.0005422085523605347,-0.0,0.0,0.0,0.0,-0.004882759414613247,-0.02465207129716873,0.00016379040607716888,12225.0,15546.0,15057.0,11351.0,0.32901066541671753,0.5478700995445251,0.5121698379516602,0.2806231379508972,0.0,0.0,0.0,0.0,12290.0,15499.0,15075.0,11321.0,1.6356602907180786,-0.04797667349660131,0.011275799251356525,0.06290334014130021,-0.0021370325703173876,-0.0029628206975758076,0.0
538,5,2.4924647732404992e-05,1.6121988664963283e-05,-2.7085512556368485e-05,0.0025001068133860826,0.0013525824761018157,0.0056165894493460655,0.013565992936491966,0.08567795902490616,0.00163094827439636,-0.0018064654432237148,-0.008082609623670578,-0.00043526917579583824,0.0,0.0,0.0,-0.0016242979327216744,0.0023860521614551544,-0.0,0.0,0.0,0.0,-0.003453909419476986,-0.026140572503209114,0.0002007428847718984,11906.0,15448.0,15149.0,11220.0,0.3108827471733093,0.5406055450439453,0.5188053846359253,0.27370554208755493,0.0,0.0,0.0,0.0,12251.0,15531.0,15103.0,11281.0,1.6548340320587158,-0.051063155942085436,0.009496368376266991,0.06393638928580336,-0.009514485485851765,-0.004982282407581806,0.0
543,5,2.2809052097727545e-05,9.05093656911049e-06,-5.190871888771653e-05,0.000746171222999692,0.0013895591255277395,0.00522542092949152,0.013565992936491966,0.08567795902490616,0.00163094827439636,-0.0018064654432237148,-0.008082609623670578,-0.00043526917579583824,0.0,0.0,0.0,-0.0016242979327216744,0.0023860521614551544,-0.0,0.0,0.0,0.0,-0.003453909419476986,-0.026140572503209114,0.0002007428847718984,11906.0,15448.0,15149.0,11220.0,0.3108827471733093,0.5406055450439453,0.5188053846359253,0.27370554208755493,0.0,0.0,0.0,0.0,12251.0,15531.0,15103.0,11281.0,1.6548340320587158,-0.04876024711428907,0.009791120375206127,0.064226066532744,-0.009514485485851765,-0.004982282407581806,0.0
548,5,-5.3684584599977825e-06,2.2067039026296698e-05,-1.1077141607529484e-05,-0.0030828327871859074,-0.0010061085922643542,-0.002809621160849929,0.013582923449575901,0.08569149672985077,0.001621433300897479,0.0006841430440545082,0.0011016824282705784,0.0009850581409409642,0.0,0.0,0.0,0.001266949693672359,-0.0028990721330046654,-0.0,0.0,0.0,0.0,-0.0038007923867553473,-0.026213547214865685,0.0001532277965452522,11937.0,15446.0,15141.0,11152.0,0.31265711784362793,0.5405039191246033,0.5182477235794067,0.27012693881988525,0.0,0.0,0.0,0.0,11896.0,15456.0,15129.0,11247.0,1.6588413715362549,-0.048328821708981784,0.011469251127487687,0.06318392708977474,0.011588169261813164,0.00389558426104486,0.0
553,5,-1.833884937241237e-07,2.002093788178172e-05,2.5882945919875056e-05,-0.0006109247333370149,-0.00015691141015850008,-0.005559058859944344,0.013582923449575901,0.08569149672985077,0.001621433300897479,0.0006841430440545082,0.0011016824282705784,0.0009850581409409642,0.0,0.0,0.0,0.001266949693672359,-0.0028990721330046654,-0.0,0.0,0.0,0.0,-0.0038007923867553473,-0.026213547214865685,0.0001532277965452522,11937.0,15446.0,15141.0,11152.0,0.31265711784362793,0.5405039191246033,0.5182477235794067,0.27012693881988525,0.0,0.0,0.0,0.0,11896.0,15456.0,15129.0,11247.0,1.6588413715362549,-0.04915174942660522,0.011014500122966673,0.063655315201829,0.011588169261813164,0.00389558426104486,0.0
558,5,-1.427806455467362e-05,2.7927113478654064e-05,3.0671020795125514e-05,-0.0019357309211045504,-0.001011505490168929,-0.0027981929015368223,0.013582923449575901,0.08569149672985077,0.001621433300897479,0.0006841430440545082,0.0011016824282705784,0.0009850581409409642,0.0,0.0,0.0,0.0012922382447868586,-0.0018468897324055433,-0.0,0.0,0.0,0.0,-0.0037915841676294804,-0.026212401688098907,0.00014525158621836454,11989.0,15447.0,15034.0,11131.0,0.31556886434555054,0.5405417084693909,0.5105084180831909,0.2690412998199463,0.0,0.0,0.0,0.0,11906.0,15474.0,15118.0,11178.0,1.648324728012085,-0.04872397979969143,0.011115521442650989,0.0631978095823484,0.007335589732974768,0.003948150668293238,0.0
563,5,-1.4100910448178183e-06,1.8099859516951256e-05,5.0108017603633925e-05,0.0007698643603362143,0.0007746681221760809,-0.003451716620475054,0.013582923449575901,0.08569149672985077,0.001621433300897479,0.0006841430440545082,0.0011016824282705784,0.0009850581409409642,0.0,0.0,0.0,0.0012922382447868586,-0.0018468897324055433,-0.0,0.0,0.0,0.0,-0.0037915841676294804,-0.026212401688098907,0.00014525158621836454,11989.0,15447.0,15034.0,11131.0,0.31556886434555054,0.5405417084693909,0.5105084180831909,0.2690412998199463,0.0,0.0,0.0,0.0,11906.0,15474.0,15118.0,11178.0,1.648324728012085,-0.04848033429367823,0.011114854848570957,0.06341433840976991,0.007335589732974768,0.003948150668293238,0.0
568,5,-1.683984010014683e-05,2.8040136385243386e-05,4.206534867989831e-05,-0.0015436242101714015,-0.0008829658036120236,-0.00041556631913408637,0.013598811812698841,0.08565216511487961,0.001616582041606307,-0.001421297318302095,-0.00623898021876812,-0.00042785253026522696,0.0,0.0,0.0,0.0011375161120668054,-0.00148391246329993,-0.0,0.0,0.0,0.0,-0.004632733296602964,-0.025167619809508324,0.00017143219884019345,12108.0,15505.0,15059.0,11252.0,0.32229113578796387,0.5448504090309143,0.5123188495635986,0.27537357807159424,0.0,0.0,0.0,0.0,11994.0,15436.0,15033.0,11143.0,1.6442532539367676,-0.04811094523814969,0.011755715151006645,0.0627956454601617,0.00587933836504817,0.003466846887022257,0.0
573,5,7.432812708429992e-06,2.9434033422148786e-05,-2.1785324861411937e-05,0.002295268699526787,-0.0005204540211707354,0.007495854049921036,0.013598811812698841,0.08565216511487961,0.001616582041606307,-0.001421297318302095,-0.00623898021876812,-0.00042785253026522696,0.0,0.0,0.0,0.0011375161120668054,-0.00148391246329993,-0.0,0.0,0.0,0.0,-0.004632733296602964,-0.025167619809508324,0.00017143219884019345,12108.0,15505.0,15059.0,11252.0,0.32229113578796387,0.5448504090309143,0.5123188495635986,0.27537357807159424,0.0,0.0,0.0,0.0,11994.0,15436.0,15033.0,11143.0,1.6442532539367676,-0.04936148683418023,0.01027883896977225,0.06381419336476131,0.00587933836504817,0.003466846887022257,0.0
578,5,1.9416695522522787e-06,1.9065777451032773e-05,5.615017471427564e-06,0.0002591703087091446,0.0010360091691836715,-0.0002896993246395141,0.013598811812698841,0.08565216511487961,0.001616582041606307,-0.001421297318302095,-0.00623898021876812,-0.00042785253026522696,0.0,0.0,0.0,0.0011375161120668054,-0.00148391246329993,-0.0,0.0,0.0,0.0,-0.004644419997930527,-0.025366920977830887,6.239733193069696e-05,11918.0,15578.0,15215.0,11215.0,0.31157252192497253,0.5502532124519348,0.5235768556594849,0.27343878149986267,0.0,0.0,0.0,0.0,12110.0,15494.0,15081.0,11236.0,1.6442532539367676,-0.04971042786607726,0.010722336804735087,0.06275077894165577,0.00587933836504817,0.003466846887022257,0.0
584,5,2.8006546926917508e-05,1.5149125829339027e-05,-2.9444267056533135e-05,0.003231453476473689,0.0008844017283990979,0.004091234412044287,0.013598811812698841,0.08565216511487961,0.001616582041606307,-0.001421297318302095,-0.00623898021876812,-0.00042785253026522696,0.0,0.0,0.0,-0.0012458005221560597,0.0002496698871254921,-0.0,0.0,0.0,0.0,-0.004644419997930527,-0.025366920977830887,6.239733193069696e-05,11918.0,15578.0,15215.0,11215.0,0.31157252192497253,0.5502532124519348,0.5235768556594849,0.27343878149986267,0.0,0.0,0.0,0.0,12110.0,15494.0,15081.0,11236.0,1.6363426446914673,-0.049809520346463354,0.009610523453628719,0.06412135274515515,-0.00098444614559412,-0.0037786015309393406,0.0
589,5,2.186237725254614e-05,2.3936912839417346e-05,-1.5066152627696283e-06,0.000555280945263803,-0.0007007737876847386,-0.0017160243587568402,0.01355485338717699,0.08564683049917221,0.0019991134759038687,-0.003240131074562669,0.004757395014166832,0.09029791504144669,0.0,0.0,0.0,-0.0012458005221560597,0.0002496698871254921,-0.0,0.0,0.0,0.0,-0.0036875796504318714,-0.02652539126574993,0.0016043111681938171,13019.0,14595.0,16016.0,9909.0,0.3762715458869934,0.47956883907318115,0.5833492875099182,0.2091350555419922,0.0,0.0,0.0,0.0,11711.0,15725.0,15064.0,11431.0,1.6363426446914673,-0.05083272876678462,0.009549454293703208,0.06434363645992601,-0.00098444614559412,-0.0037786015309393406,0.0
594,5,-1.0306886906619184e-05,2.660277641552966e-05,8.197852366720326e-06,-0.003638199297711253,-0.0006002130685374141,-0.0018509458750486374,0.01355485338717699,0.08564683049917221,0.0019991134759038687,-0.003240131074562669,0.004757395014166832,0.09029791504144669,0.0,0.0,0.0,0.0009109281818382442,0.0005594378453679383,-0.0,0.0,0.0,0.0,-0.0036875796504318714,-0.02652539126574993,0.0016043111681938171,13019.0,14595.0,16016.0,9909.0,0.3762715458869934,0.47956883907318115,0.5833492875099182,0.2091350555419922,0.0,0.0,0.0,0.0,11711.0,15725.0,15064.0,11431.0,1.6353353261947632,-0.04871462710124042,0.01155894928636825,0.06297682908717887,-0.0022045013029128313,0.0027612096164375544,0.0
599,5,-8.23423033580184e-06,1.0425915206724312e-05,2.7463971491670236e-05,-0.001206560991704464,0.0017011379823088646,-0.003052312647923827,0.013666574843227863,0.08556008338928223,0.001202016486786306,0.01621597819030285,0.024937015026807785,0.03407406434416771,0.0,0.0,0.0,0.0009109281818382442,0.0005594378453679383,-0.0,0.0,0.0,0.0,-0.003854071954265237,-0.026033630594611168,-0.0030675092712044716,11695.0,15679.0,14861.0,11510.0,0.2991848587989807,0.5578056573867798,0.49816209077835083,0.28910064697265625,0.0,0.0,0.0,0.0,11176.0,16027.0,14623.0,11913.0,1.6353353261947632,-0.04943993318708804,0.01100394823218118,0.06300795768127265,-0.0022045013029128313,0.0027612096164375544,0.0
604,5,6.155618848424638e-06,1.0142402061319444e-05,2.4076225599856116e-05,0.0012441575527191162,0.0007144768605940044,-0.0008143956656567752,0.013666574843227863,0.08556008338928223,0.001202016486786306,0.01621597819030285,0.024937015026807785,0.03407406434416771,0.0,0.0,0.0,-0.002070434857159853,-0.0011510876938700676,-0.0,0.0,0.0,0.0,-0.003854071954265237,-0.026033630594611168,-0.0030675092712044716,11695.0,15679.0,14861.0,11510.0,0.2991848587989807,0.5578056573867798,0.49816209077835083,0.28910064697265625,0.0,0.0,0.0,0.0,11176.0,16027.0,14623.0,11913.0,1.6468859910964966,-0.048094854672190275,0.011774969417885845,0.06308654330074681,0.004567965865135193,-0.006320233456790447,0.0
609,5,8.817590241960716e-06,1.7379528799210675e-05,4.312450619181618e-05,0.0008170995279215276,-0.0005826645065099001,-0.0026115516666322947,0.013574513606727123,0.08550865948200226,0.0016939626075327396,-0.03196009621024132,-0.00843898020684719,-0.10742855072021484,0.0,0.0,0.0,-0.002070434857159853,-0.0011510876938700676,-0.0,0.0,0.0,0.0,-0.0035530314780771732,-0.026622993871569633,0.0015754115302115679,11249.0,15944.0,14569.0,11810.0,0.2752135992050171,0.5778356790542603,0.47775334119796753,0.3055400252342224,0.0,0.0,0.0,0.0,10071.0,16703.0,13636.0,12874.0,1.6468859910964966,-0.0494157412165821,0.010794565101767033,0.06329403566749973,0.004567965865135193,-0.006320233456790447,0.0
614,5,-6.690856935165357e-07,2.2664513380732387e-05,5.491996489581652e-05,-0.0008115612436085939,-0.0008672638796269894,-0.0024600757751613855,0.013574513606727123,0.08550865948200226,0.0016939626075327396,-0.03196009621024132,-0.00843898020684719,-0.10742855072021484,0.0,0.0,0.0,0.0007525360560975969,0.0007899586926214397,-0.0,0.0,0.0,0.0,-0.0035530314780771732,-0.026622993871569633,0.0015754115302115679,11249.0,15944.0,14569.0,11810.0,0.2752135992050171,0.5778356790542603,0.47775334119796753,0.3055400252342224,0.0,0.0,0.0,0.0,10071.0,16703.0,13636.0,12874.0,1.636224627494812,-0.04948315614662014,0.010738578643211424,0.06300594538412192,-0.0031145766843110323,0.0022823314648121595,0.0
619,5,2.7380245228414424e-05,-2.0122872228967026e-05,-4.237271787133068e-05,0.0030412953346967697,0.0047875805757939816,0.010691091418266296,0.013579915277659893,0.08554134517908096,0.0015190758276730776,0.01105099730193615,-0.018125072121620178,0.16021612286567688,0.0,0.0,0.0,0.0007525360560975969,0.0007899586926214397,-0.0,0.0,0.0,0.0,-0.004617488477379084,-0.026008611544966698,0.000853924488183111,13354.0,14240.0,16234.0,9317.0,0.3972145915031433,0.45521798729896545,0.6001013517379761,0.1828014850616455,0.0,0.0,0.0,0.0,12575.0,14892.0,15711.0,10256.0,1.636224627494812,-0.05026265504133322,0.008153574274729378,0.06503727661290248,-0.0031145766843110323,0.0022823314648121595,0.0
624,5,-4.656077635445399e-06,-3.6961196201446e-06,6.503347685793415e-05,-0.002627840731292963,-5.6178003433160484e-05,-0.008612306788563728,0.013579915277659893,0.08554134517908096,0.0015190758276730776,0.01105099730193615,-0.018125072121620178,0.16021612286567688,0.0,0.0,0.0,-0.005787923466414213,0.00284885847941041,-0.0,0.0,0.0,0.0,-0.004617488477379084,-0.026008611544966698,0.000853924488183111,13354.0,14240.0,16234.0,9317.0,0.3972145915031433,0.45521798729896545,0.6001013517379761,0.1828014850616455,0.0,0.0,0.0,0.0,12575.0,14892.0,15711.0,10256.0,1.6836392879486084,-0.04971845668033842,0.01013923122641516,0.06317505983446425,-0.01155750174075365,-0.018062422052025795,0.0
