timestamp,dt,pos_x,pos_y,pos_z,vel_x,vel_y,vel_z,roll,pitch,yaw,agv_x,agv_y,agv_z,x_ref,y_ref,z_ref,roll_ref,pitch_ref,yaw_ref,x_vel_ref,y_vel_ref,z_vel_ref,x_torque,y_torque,z_torque,w0,w1,w2,w3,u0,u1,u2,u3,m0req,m1req,m2req,m3req,thrust0,thrust1,thrust2,thrust3,thrust_ref,roll_vicon,pitch_vicon,yaw_vicon,acc_x,acc_y,acc_z
5,5,0.0,0.0,0.0,0.000961235084105283,-0.0006758117815479636,0.000757690635509789,-0.01251139584928751,0.13268080353736877,0.008085076697170734,0.006564569193869829,0.007013353984802961,0.0033239491749554873,0.0,0.0,0.0,0.0008348600240424275,0.0009134279098361731,-0.0,0.0,0.0,0.0,0.20000000298023224,-0.20000000298023224,0.10000000149011612,1495.0,1495.0,1495.0,1495.0,0.0,0.0,0.0,0.0,0.0,0.0,0.0,0.0,1495.0,1495.0,1495.0,1495.0,1.6377021074295044,-0.09095324182594461,-0.07623424292496608,0.02263131458954638,-0.0036046316381543875,0.002534294268116355,0.0
29,24,0.0,0.0,0.0,-0.0017315269215032458,0.0011634400580078363,-0.0005281606572680175,-0.01251139584928751,0.13268080353736877,0.008085076697170734,0.006564569193869829,0.007013353984802961,0.0033239491749554873,0.0,0.0,0.0,0.0008348600240424275,0.0009134279098361731,-0.0,0.0,0.0,0.0,0.20000000298023224,-0.20000000298023224,0.10000000149011612,1495.0,1495.0,1495.0,1495.0,0.0,0.0,0.0,0.0,0.0,0.0,0.0,0.0,1495.0,1495.0,1495.0,1495.0,1.6377021074295044,-0.09052148154627425,-0.07592120263102381,0.022547076915330647,-0.0036046316381543875,0.002534294268116355,0.0
48,18,0.0,0.0,0.0,-4.726910265162587e-05,0.0008351550786755979,0.0007291087531484663,-0.01251689437776804,0.13271917402744293,0.00813044048845768,0.0006020034197717905,0.009777750819921494,0.0032201549038290977,0.0,0.0,0.0,-0.0014291772386059165,-0.0016361696179956198,-0.0,0.0,0.0,0.0,0.20000000298023224,-0.20000000298023224,0.10000000149011612,1495.0,1495.0,1495.0,1495.0,0.0,0.0,0.0,0.0,0.0,0.0,0.0,0.0,1495.0,1495.0,1495.0,1495.0,1.6469519138336182,-0.09014471459092191,-0.07641737650572597,0.022810097963031722,0.006493226159363985,-0.004362900275737047,0.0
53,5,0.0,0.0,0.0,0.0010846253717318177,4.450388587429188e-05,0.0012102805776521564,-0.01251689437776804,0.13271917402744293,0.00813044048845768,0.0006020034197717905,0.009777750819921494,0.0032201549038290977,0.0,0.0,0.0,-5.500815677805804e-05,0.0010312539525330067,-0.0,0.0,0.0,0.0,0.20000000298023224,-0.20000000298023224,0.10000000149011612,1495.0,1495.0,1495.0,1495.0,0.0,0.0,0.0,0.0,0.0,0.0,0.0,0.0,1495.0,1495.0,1495.0,1495.0,1.6367923021316528,-0.09020018205390617,-0.07624530621042538,0.022531472810772436,-0.004067345056682825,-0.00016688957111909986,0.0
59,6,0.0,0.0,0.0,-2.8424317861208692e-05,-0.0004154864000156522,-0.0016614446649327874,-0.01251689437776804,0.13271917402744293,0.00813044048845768,0.0006020034197717905,0.009777750819921494,0.0032201549038290977,0.0,0.0,0.0,-5.500815677805804e-05,0.0010312539525330067,-0.0,0.0,0.0,0.0,0.20000000298023224,-0.20000000298023224,0.10000000149011612,1495.0,1495.0,1495.0,1495.0,0.0,0.0,0.0,0.0,0.0,0.0,0.0,0.0,1495.0,1495.0,1495.0,1495.0,1.6367923021316528,-0.08995332730412259,-0.07587995375697833,0.022773593770413835,-0.004067345056682825,-0.00016688957111909986,0.0
64,5,-3.4094296097464394e-06,-3.0569135560654104e-06,-2.6511615942581557e-05,-0.00042050128104165196,0.00020063506963197142,0.0025168159045279026,-0.012496347539126873,0.1327078938484192,0.008162766695022583,0.0019263210706412792,0.009447621181607246,6.677425699308515e-05,0.0,0.0,0.0,-0.00025450618704780936,-0.0004061146464664489,-0.0,0.0,0.0,0.0,0.20000000298023224,-0.20000000298023224,0.10000000149011612,1495.0,1495.0,1495.0,1495.0,0.0,0.0,0.0,0.0,0.0,0.0,0.0,0.0,1495.0,1495.0,1495.0,1495.0,1.6305546760559082,-0.09085585009881635,-0.07614396591996343,0.02261498720950861,0.0015956435818225145,-0.0007692052167840302,0.0
70,6,1.5899024674581597e-06,-5.799984137411229e-06,-2.2526503016706556e-05,0.0004317193233873695,0.0004094225005246699,0.000528512813616544,-0.012496347539126873,0.1327078938484192,0.008162766695022583,0.0019263210706412792,0.009447621181607246,6.677425699308515e-05,0.0,0.0,0.0,-0.00025450618704780936,-0.0004061146464664489,-0.0,0.0,0.0,0.0,0.20000000298023224,-0.20000000298023224,0.10000000149011612,1495.0,1495.0,1495.0,1495.0,0.0,0.0,0.0,0.0,0.0,0.0,0.0,0.0,1495.0,1495.0,1495.0,1495.0,1.6305546760559082,-0.0905867455130975,-0.07582952046219439,0.02255888422237759,0.0015956435818225145,-0.0007692052167840302,0.0
75,5,-5.351578693080228e-06,-7.385294793493813e-06,-2.490529186616186e-05,-0.0006602900102734566,0.0003540062753017992,0.000496859778650105,-0.012485156767070293,0.1327168494462967,0.008155274204909801,0.00013160789967514575,0.0016639326931908727,0.000902423111256212,0.0,0.0,0.0,-0.0005181384622119367,0.00041393341962248087,-0.0,0.0,0.0,0.0,0.20000000298023224,-0.20000000298023224,0.10000000149011612,1495.0,1495.0,1495.0,1495.0,0.0,0.0,0.0,0.0,0.0,0.0,0.0,0.0,1495.0,1495.0,1495.0,1495.0,1.6318798065185547,-0.09088468161413683,-0.0761079943767601,0.02263053541561804,-0.0016276855021715164,-0.0015672652516514063,0.0
80,5,-9.665690413385164e-06,-6.627405582548818e-06,-3.2023694075178355e-05,-0.0007818094454705715,5.065579534857534e-05,0.0010529523715376854,-0.012485156767070293,0.1327168494462967,0.008155274204909801,0.00013160789967514575,0.0016639326931908727,0.000902423111256212,0.0,0.0,0.0,-0.0005181384622119367,0.00041393341962248087,-0.0,0.0,0.0,0.0,0.20000000298023224,-0.20000000298023224,0.10000000149011612,1495.0,1495.0,1495.0,1495.0,0.0,0.0,0.0,0.0,0.0,0.0,0.0,0.0,1495.0,1495.0,1495.0,1495.0,1.6318798065185547,-0.09075505366813552,-0.07633786949004874,0.022713215952480242,-0.0016276855021715164,-0.0015672652516514063,0.0
85,5,-1.298053848586278e-05,-1.442749066882243e-06,-1.8721639207797125e-05,-0.0007105055847205222,-0.0006018964340910316,-0.0011750656412914395,-0.01247844472527504,0.13272401690483093,0.008151560090482235,4.539469227893278e-05,0.010799347423017025,-0.003162862965837121,0.0,0.0,0.0,-0.0005181384622119367,0.00041393341962248087,-0.0,0.0,0.0,0.0,0.20000000298023224,-0.20000000298023224,0.10000000149011612,1495.0,1495.0,1495.0,1495.0,0.0,0.0,0.0,0.0,0.0,0.0,0.0,0.0,1495.0,1495.0,1495.0,1495.0,1.6318798065185547,-0.09088162656419202,-0.07654586866637915,0.022601143169752477,-0.0016276855021715164,-0.0015672652516514063,0.0
90,5,-6.02118598180823e-06,-2.5435167117393576e-05,-1.0572182418400189e-06,0.0005509201437234879,0.002638331614434719,-0.0025897568557411432,-0.01247844472527504,0.13272401690483093,0.008151560090482235,4.539469227893278e-05,0.010799347423017025,-0.003162862965837121,0.0,0.0,0.0,0.0007419852772727609,-0.0006942665204405785,-0.0,0.0,0.0,0.0,0.20000000298023224,-0.20000000298023224,0.10000000149011612,1495.0,1495.0,1495.0,1495.0,0.0,0.0,0.0,0.0,0.0,0.0,0.0,0.0,1495.0,1495.0,1495.0,1495.0,1.6353579759597778,-0.08963395516897628,-0.07632506789877534,0.022553894787239404,0.0027358406223356724,0.002249140525236726,0.0
95,5,-1.1504474969115108e-05,-1.8241658835904673e-05,1.8181726773036644e-05,-0.00043762658606283367,0.00019211156177334487,-0.003344576107338071,-0.01245565339922905,0.13267113268375397,0.008154029957950115,0.0024521094746887684,0.01137011218816042,0.005333060398697853,0.0,0.0,0.0,0.0007419852772727609,-0.0006942665204405785,-0.0,0.0,0.0,0.0,0.20000000298023224,-0.20000000298023224,0.10000000149011612,1495.0,1495.0,1495.0,1495.0,0.0,0.0,0.0,0.0,0.0,0.0,0.0,0.0,1495.0,1495.0,1495.0,1495.0,1.6353579759597778,-0.0895216900609424,-0.07601740847643158,0.02275999687692756,0.0027358406223356724,0.002249140525236726,0.0
100,5,-8.772848559601698e-06,-1.8138453015126288e-05,-1.8055102657399402e-07,0.00015274446923285723,6.446004408644512e-05,0.0008656428544782102,-0.01245565339922905,0.13267113268375397,0.008154029957950115,0.0024521094746887684,0.01137011218816042,0.005333060398697853,0.0,0.0,0.0,-0.00027153853443451226,-0.0004337246937211603,-0.0,0.0,0.0,0.0,0.20000000298023224,-0.20000000298023224,0.10000000149011612,1495.0,1495.0,1495.0,1495.0,0.0,0.0,0.0,0.0,0.0,0.0,0.0,0.0,1495.0,1495.0,1495.0,1495.0,1.6308815479278564,-0.0895784125870911,-0.07610380966533935,0.022656299476327565,0.0017044664127752185,-0.000820847402792424,0.0
105,5,-1.4309343896456994e-05,-6.449073680414585e-06,-1.767612229741644e-05,-0.0006032816600054502,-0.001376941567286849,0.0024457257241010666,-0.012462477199733257,0.1326923817396164,0.008162688463926315,-3.223864405299537e-05,0.005054034758359194,0.004880781751126051,0.0,0.0,0.0,0.0016858396120369434,-0.0005920515977777541,-0.0,0.0,0.0,0.0,0.20000000298023224,-0.20000000298023224,0.10000000149011612,1495.0,1495.0,1495.0,1495.0,0.0,0.0,0.0,0.0,0.0,0.0,0.0,0.0,1495.0,1495.0,1495.0,1495.0,1.641037106513977,-0.09020938402527025,-0.07622694899130165,0.022594653720571987,0.002341149840503931,0.005127938464283943,0.0
111,5,-4.840887413593009e-06,-9.332201784673089e-07,-4.5628854422830045e-05,0.0008949021575972438,-0.0012126790825277567,0.004332617856562138,-0.012462477199733257,0.1326923817396164,0.008162688463926315,-3.223864405299537e-05,0.005054034758359194,0.004880781751126051,0.0,0.0,0.0,0.0016858396120369434,-0.0005920515977777541,-0.0,0.0,0.0,0.0,0.20000000298023224,-0.20000000298023224,0.10000000149011612,1495.0,1495.0,1495.0,1495.0,0.0,0.0,0.0,0.0,0.0,0.0,0.0,0.0,1495.0,1495.0,1495.0,1495.0,1.641037106513977,-0.09051758121693446,-0.0758910753462367,0.02265745644786298,0.002341149840503931,0.005127938464283943,0.0
116,5,-3.8580328691750765e-06,3.1016875254863407e-06,-3.476342681096867e-05,0.00047590339090675116,-0.0009692605235613883,0.00042919584666378796,-0.01246633380651474,0.1327001005411148,0.008172004483640194,-0.0027231359854340553,0.007921203039586544,0.0013086354592815042,0.0,0.0,0.0,0.0016858396120369434,-0.0005920515977777541,-0.0,0.0,0.0,0.0,0.20000000298023224,-0.20000000298023224,0.10000000149011612,1495.0,1495.0,1495.0,1495.0,0.0,0.0,0.0,0.0,0.0,0.0,0.0,0.0,1495.0,1495.0,1495.0,1495.0,1.641037106513977,-0.09077267279693285,-0.0758153316763283,0.022472112461098245,0.002341149840503931,0.005127938464283943,0.0
121,5,-1.0573499821475707e-05,-2.988710321005783e-06,-2.3073704142007045e-05,-0.0006154946167953312,0.000343143503414467,-0.0012310883030295372,-0.01246633380651474,0.1327001005411148,0.008172004483640194,-0.0027231359854340553,0.007921203039586544,0.0013086354592815042,0.0,0.0,0.0,0.0012036529369652271,0.00044707776396535337,-0.0,0.0,0.0,0.0,0.20000000298023224,-0.20000000298023224,0.10000000149011612,1495.0,1495.0,1495.0,1495.0,0.0,0.0,0.0,0.0,0.0,0.0,0.0,0.0,1495.0,1495.0,1495.0,1495.0,1.6367502212524414,-0.09039454808584844,-0.07599861741848203,0.022592393307826204,-0.0017632629023864865,0.0036516746040433645,0.0
126,5,-3.9213769014168065e-06,-2.6383972340227047e-07,-1.0585057680145837e-05,0.000552056822925806,-0.00018972705584019423,-0.001991072902455926,-0.012469026260077953,0.13268035650253296,0.00817666482180357,-0.00046249135630205274,0.008193528279662132,-0.0014873899053782225,0.0,0.0,0.0,0.0012036529369652271,0.00044707776396535337,-0.0,0.0,0.0,0.0,0.20000000298023224,-0.20000000298023224,0.10000000149011612,1495.0,1495.0,1495.0,1495.0,0.0,0.0,0.0,0.0,0.0,0.0,0.0,0.0,1495.0,1495.0,1495.0,1495.0,1.6367502212524414,-0.09082383264841072,-0.07627424150334529,0.022362591865307434,-0.0017632629023864865,0.0036516746040433645,0.0
131,5,-3.4054930893034907e-06,-6.511656010843581e-06,-6.139576271380065e-06,0.0002827287826221436,0.0006738470983691514,-0.0013298869598656893,-0.012469026260077953,0.13268035650253296,0.00817666482180357,-0.00046249135630205274,0.008193528279662132,-0.0014873899053782225,0.0,0.0,0.0,0.0002347331610508263,0.0005210231756791472,-0.0,0.0,0.0,0.0,0.20000000298023224,-0.20000000298023224,0.10000000149011612,1495.0,1495.0,1495.0,1495.0,0.0,0.0,0.0,0.0,0.0,0.0,0.0,0.0,1495.0,1495.0,1495.0,1495.0,1.6316312551498413,-0.09077146692336677,-0.07606117641901022,0.022534923877283633,-0.0020484761334955692,0.0007099127979017794,0.0
136,5,-3.1200815442389285e-07,-1.4129117516858969e-05,-1.1580640602915082e-05,0.00048430971219204366,0.0011836342746391892,0.00012097293802071363,-0.012469026260077953,0.13268035650253296,0.00817666482180357,-0.00046249135630205274,0.008193528279662132,-0.0014873899053782225,0.0,0.0,0.0,0.0002347331610508263,0.0005210231756791472,-0.0,0.0,0.0,0.0,0.20000000298023224,-0.20000000298023224,0.10000000149011612,1495.0,1495.0,1495.0,1495.0,0.0,0.0,0.0,0.0,0.0,0.0,0.0,0.0,1495.0,1495.0,1495.0,1495.0,1.6316312551498413,-0.09022294633339319,-0.07613019999441452,0.022755600236027313,-0.0020484761334955692,0.0007099127979017794,0.0
141,5,-8.785456884652376e-06,-7.161328539950773e-06,-3.0228095056372695e-05,-0.0008230899111367762,-0.00036268102121539414,0.0022860837634652853,-0.012500924058258533,0.13272078335285187,0.008203551173210144,0.0005076724919490516,0.0057607535272836685,0.003764332737773657,0.0,0.0,0.0,-0.001486714812926948,0.00045939424308016896,-0.0,0.0,0.0,0.0,0.20000000298023224,-0.20000000298023224,0.10000000149011612,1495.0,1495.0,1495.0,1495.0,0.0,0.0,0.0,0.0,0.0,0.0,0.0,0.0,1495.0,1495.0,1495.0,1495.0,1.6389516592025757,-0.09062464883676107,-0.07621149491966052,0.022649662046155303,-0.001814274932257831,-0.004516500514000654,0.0
146,5,-8.499373507220298e-06,-1.0930150892818347e-05,-2.3207234335131943e-05,-0.0002949059708043933,0.0003071863029617816,7.193018245743588e-05,-0.012500924058258533,0.13272078335285187,0.008203551173210144,0.0005076724919490516,0.0057607535272836685,0.003764332737773657,0.0,0.0,0.0,-0.001486714812926948,0.00045939424308016896,-0.0,0.0,0.0,0.0,0.20000000298023224,-0.20000000298023224,0.10000000149011612,1495.0,1495.0,1495.0,1495.0,0.0,0.0,0.0,0.0,0.0,0.0,0.0,0.0,1495.0,1495.0,1495.0,1495.0,1.6389516592025757,-0.09050012027568884,-0.07644828126151033,0.022731880961046103,-0.001814274932257831,-0.004516500514000654,0.0
151,5,-1.7418078641640022e-05,-8.71117299539037e-06,-1.775104465195909e-05,-0.0011882070684805512,-0.00014340286725200713,-0.0006259707733988762,-0.012518596835434437,0.13268080353736877,0.008213263005018234,0.0005507124005816877,0.01934773661196232,0.0009137467131949961,0.0,0.0,0.0,-0.00040116661693900824,-0.0002934638177976012,-0.0,0.0,0.0,0.0,0.20000000298023224,-0.20000000298023224,0.10000000149011612,1495.0,1495.0,1495.0,1495.0,0.0,0.0,0.0,0.0,0.0,0.0,0.0,0.0,1495.0,1495.0,1495.0,1495.0,1.6302874088287354,-0.0902576556857809,-0.07622834352175036,0.022734562643262738,0.0011528441682457924,-0.0012122647603973746,0.0
156,5,-1.9988669009762816e-05,-7.243495474540396e-06,-5.175555543246446e-06,-0.0007837536977604032,-0.00023348240938503295,-0.0017594469245523214,-0.012518596835434437,0.13268080353736877,0.008213263005018234,0.0005507124005816877,0.01934773661196232,0.0009137467131949961,0.0,0.0,0.0,-0.00040116661693900824,-0.0002934638177976012,-0.0,0.0,0.0,0.0,0.20000000298023224,-0.20000000298023224,0.10000000149011612,1495.0,1495.0,1495.0,1495.0,0.0,0.0,0.0,0.0,0.0,0.0,0.0,0.0,1495.0,1495.0,1495.0,1495.0,1.6302874088287354,-0.09038215135681722,-0.07662099325155627,0.022666606225493272,0.0011528441682457924,-0.0012122647603973746,0.0
161,5,-6.338440471154172e-06,-8.714068826520815e-07,1.6410116586484946e-05,0.001324526034295559,-0.0008580436115153134,-0.003294059308245778,-0.012499894015491009,0.1326528936624527,0.008259676396846771,0.0036979741416871548,0.009985391050577164,0.0038508207071572542,0.0,0.0,0.0,0.00027580102323554456,-0.0007742960588075221,-0.0,0.0,0.0,0.0,0.20000000298023224,-0.20000000298023224,0.10000000149011612,1495.0,1495.0,1495.0,1495.0,0.0,0.0,0.0,0.0,0.0,0.0,0.0,0.0,1495.0,1495.0,1495.0,1495.0,1.6343272924423218,-0.0900294160177209,-0.07619718279429756,0.022551809500532913,0.0030492842197418213,0.0008354941965080798,0.0
166,5,-3.74351475329604e-06,-4.58712702311459e-06,4.223036285111448e-07,0.0008412014576606452,0.00010266899334965274,0.0006009137141518295,-0.012499894015491009,0.1326528936624527,0.008259676396846771,0.0036979741416871548,0.009985391050577164,0.0038508207071572542,0.0,0.0,0.0,0.00027580102323554456,-0.0007742960588075221,-0.0,0.0,0.0,0.0,0.20000000298023224,-0.20000000298023224,0.10000000149011612,1495.0,1495.0,1495.0,1495.0,0.0,0.0,0.0,0.0,0.0,0.0,0.0,0.0,1495.0,1495.0,1495.0,1495.0,1.6343272924423218,-0.08991678130926384,-0.07613609260182343,0.02266147508233959,0.0030492842197418213,0.0008354941965080798,0.0
171,5,-3.6430540149012813e-06,-1.4073254988034023e-06,-1.7712058252072893e-05,0.00034853589022532105,-0.0003405085881240666,0.0024164889473468065,-0.012501370161771774,0.13265778124332428,0.008239397779107094,0.0018252118024975061,0.006910133641213179,-0.0026967341545969248,0.0,0.0,0.0,-0.00013550175935961306,0.0007957161287777126,-0.0,0.0,0.0,0.0,0.20000000298023224,-0.20000000298023224,0.10000000149011612,1495.0,1495.0,1495.0,1495.0,0.0,0.0,0.0,0.0,0.0,0.0,0.0,0.0,1495.0,1495.0,1495.0,1495.0,1.6343237161636353,-0.09080163454016947,-0.0764033832601463,0.022721082802136052,-0.003133632941171527,-0.0004104795807506889,0.0
176,5,-3.062600399061921e-06,1.2292217661524774e-06,-3.217552148271352e-05,0.00020906880672555417,-0.0004525890981312841,0.0027022110298275948,-0.012501370161771774,0.13265778124332428,0.008239397779107094,0.0018252118024975061,0.006910133641213179,-0.0026967341545969248,0.0,0.0,0.0,-0.00013550175935961306,0.0007957161287777126,-0.0,0.0,0.0,0.0,0.20000000298023224,-0.20000000298023224,0.10000000149011612,1495.0,1495.0,1495.0,1495.0,0.0,0.0,0.0,0.0,0.0,0.0,0.0,0.0,1495.0,1495.0,1495.0,1495.0,1.6343237161636353,-0.09086902792623049,-0.0760790582248443,0.02262717353105114,-0.003133632941171527,-0.0004104795807506889,0.0
181,5,-1.559285578878189e-06,-4.5371943997452036e-06,-3.073603147640824e-05,0.0002640252932906151,0.0005109343328513205,0.0009081455646082759,-0.012489265762269497,0.13265688717365265,0.008237327449023724,-0.00228079198859632,0.008901535533368587,-0.002210431033745408,0.0,0.0,0.0,0.0005636212881654501,0.00019514808082021773,-0.0,0.0,0.0,0.0,0.20000000298023224,-0.20000000298023224,0.10000000149011612,1495.0,1495.0,1495.0,1495.0,0.0,0.0,0.0,0.0,0.0,0.0,0.0,0.0,1495.0,1495.0,1495.0,1495.0,1.6308180093765259,-0.0909391015962654,-0.07574897588486075,0.02262667265441491,-0.0007668697508051991,0.0017037325305864215,0.0
186,5,-4.973312570655253e-06,-9.383080396219157e-06,-2.508724355720915e-05,-0.00030407312442548573,0.0007858800236135721,-0.000314596138196066,-0.012489265762269497,0.13265688717365265,0.008237327449023724,-0.00228079198859632,0.008901535533368587,-0.002210431033745408,0.0,0.0,0.0,0.0005636212881654501,0.00019514808082021773,-0.0,0.0,0.0,0.0,0.20000000298023224,-0.20000000298023224,0.10000000149011612,1495.0,1495.0,1495.0,1495.0,0.0,0.0,0.0,0.0,0.0,0.0,0.0,0.0,1495.0,1495.0,1495.0,1495.0,1.6308180093765259,-0.09089205409759384,-0.07609417089627561,0.02255915017807664,-0.0007668697508051991,0.0017037325305864215,0.0
191,5,-8.415027878072578e-06,-1.2782466001226567e-05,-1.1121729585283902e-05,-0.0005346350953914225,0.0007222782587632537,-0.001801700098440051,-0.012486417777836323,0.13263246417045593,0.00822491105645895,0.0005023609846830368,0.008869749493896961,0.00019851265824399889,0.0,0.0,0.0,-0.0009898686548694968,-0.0002965435560327023,-0.0,0.0,0.0,0.0,0.20000000298023224,-0.20000000298023224,0.10000000149011612,1495.0,1495.0,1495.0,1495.0,0.0,0.0,0.0,0.0,0.0,0.0,0.0,0.0,1495.0,1495.0,1495.0,1495.0,1.6344811916351318,-0.0902749235910133,-0.07621913319617991,0.022838818489520473,0.0011679388117045164,-0.002998927142471075,0.0
197,5,-3.5175069115211954e-06,-2.910377816078835e-06,1.8712164091994055e-05,0.0003738484811037779,-0.0008957393001765013,-0.004300747066736221,-0.012486417777836323,0.13263246417045593,0.00822491105645895,0.0005023609846830368,0.008869749493896961,0.00019851265824399889,0.0,0.0,0.0,-0.0009898686548694968,-0.0002965435560327023,-0.0,0.0,0.0,0.0,0.20000000298023224,-0.20000000298023224,0.10000000149011612,1495.0,1495.0,1495.0,1495.0,0.0,0.0,0.0,0.0,0.0,0.0,0.0,0.0,1495.0,1495.0,1495.0,1495.0,1.6344811916351318,-0.09074351604058085,-0.07585759298623408,0.02251979872018159,0.0011679388117045164,-0.002998927142471075,0.0
202,5,-5.5479285947512835e-06,-1.0754552022262942e-05,-2.0211076844134368e-05,-9.411121573066339e-05,0.0005830051959492266,0.0029504899866878986,-0.012484830804169178,0.1325986087322235,0.008250351063907146,0.0031268938910216093,0.009561398066580296,0.005682128947228193,0.0,0.0,0.0,0.0011026209685951471,0.0003507287474349141,-0.0,0.0,0.0,0.0,0.20000000298023224,-0.20000000298023224,0.10000000149011612,1495.0,1495.0,1495.0,1495.0,0.0,0.0,0.0,0.0,0.0,0.0,0.0,0.0,1495.0,1495.0,1495.0,1495.0,1.6355631351470947,-0.09059840415980656,-0.07660356240113288,0.022786600632557906,-0.00138226174749434,0.003342734882608056,0.0
207,5,-8.661639185447711e-06,-4.525460099102929e-06,-9.129394129558932e-06,-0.00041128977318294346,-0.0005142889567650855,-0.0001496059849159792,-0.012484830804169178,0.1325986087322235,0.008250351063907146,0.0031268938910216093,0.009561398066580296,0.005682128947228193,0.0,0.0,0.0,0.0011026209685951471,0.0003507287474349141,-0.0,0.0,0.0,0.0,0.20000000298023224,-0.20000000298023224,0.10000000149011612,1495.0,1495.0,1495.0,1495.0,0.0,0.0,0.0,0.0,0.0,0.0,0.0,0.0,1495.0,1495.0,1495.0,1495.0,1.6355631351470947,-0.09014117553861854,-0.0761167240105636,0.022592767741999732,-0.00138226174749434,0.003342734882608056,0.0
212,5,-8.713218448974658e-06,-1.004923069558572e-05,-1.4266022844822146e-05,-0.0001707053743302822,0.0004571368626784533,0.0005565530736930668,-0.012465784326195717,0.13265705108642578,0.008268720470368862,0.001632637344300747,0.0035691745579242706,0.0004862538480665535,0.0,0.0,0.0,0.000629032903816551,-0.00040428515058010817,-0.0,0.0,0.0,0.0,0.20000000298023224,-0.20000000298023224,0.10000000149011612,1495.0,1495.0,1495.0,1495.0,0.0,0.0,0.0,0.0,0.0,0.0,0.0,0.0,1495.0,1495.0,1495.0,1495.0,1.632478952407837,-0.08982523639412987,-0.07624357512194939,0.022695238596881682,0.0015903296880424023,0.001903397380374372,0.0
217,5,-3.693363396450877e-06,-4.406430491599167e-07,-2.4334272893611342e-05,0.0005341003998182714,-0.0009701757808215916,0.0014308112440630794,-0.012465784326195717,0.13265705108642578,0.008268720470368862,0.001632637344300747,0.0035691745579242706,0.0004862538480665535,0.0,0.0,0.0,0.000629032903816551,-0.00040428515058010817,-0.0,0.0,0.0,0.0,0.20000000298023224,-0.20000000298023224,0.10000000149011612,1495.0,1495.0,1495.0,1495.0,0.0,0.0,0.0,0.0,0.0,0.0,0.0,0.0,1495.0,1495.0,1495.0,1495.0,1.632478952407837,-0.0901297730799537,-0.07625318496703862,0.02272189218763826,0.0015903296880424023,0.001903397380374372,0.0
222,5,-5.7922852647607215e-06,-4.773057298734784e-06,-4.213666761643253e-05,-3.823044244199991e-05,0.00013181939721107483,0.0027086117770522833,-0.012464933097362518,0.13262896239757538,0.008218766190111637,0.000506166776176542,0.012074225582182407,-0.0040547167882323265,0.0,0.0,0.0,0.0011981312418356538,0.0005025173304602504,-0.0,0.0,0.0,0.0,0.20000000298023224,-0.20000000298023224,0.10000000149011612,1495.0,1495.0,1495.0,1495.0,0.0,0.0,0.0,0.0,0.0,0.0,0.0,0.0,1495.0,1495.0,1495.0,1495.0,1.6369823217391968,-0.09038089866151955,-0.07618494465307964,0.022715993269207514,-0.0019821960013359785,0.0036354379262775183,0.0
227,5,-2.856256287486758e-06,-1.2385471563902684e-06,-3.1318348192144185e-05,0.00033703126246109605,-0.00037141345092095435,-0.00021475354151334614,-0.012464933097362518,0.13262896239757538,0.008218766190111637,0.000506166776176542,0.012074225582182407,-0.0040547167882323265,0.0,0.0,0.0,0.0011981312418356538,0.0005025173304602504,-0.0,0.0,0.0,0.0,0.20000000298023224,-0.20000000298023224,0.10000000149011612,1495.0,1495.0,1495.0,1495.0,0.0,0.0,0.0,0.0,0.0,0.0,0.0,0.0,1495.0,1495.0,1495.0,1495.0,1.6369823217391968,-0.09099164161862552,-0.07629112266655357,0.022612205498144772,-0.0019821960013359785,0.0036354379262775183,0.0
232,5,2.3482725737267174e-06,-6.1882110458100215e-06,-1.172991414932767e-05,0.0007593559566885233,0.00044539428199641407,-0.0024365135468542576,-0.012453784234821796,0.13261167705059052,0.00820641964673996,0.00011658799485303462,0.00611386401578784,-0.003629796439781785,0.0,0.0,0.0,0.00045840945676900446,0.00031752916402183473,-0.0,0.0,0.0,0.0,0.20000000298023224,-0.20000000298023224,0.10000000149011612,1495.0,1495.0,1495.0,1495.0,0.0,0.0,0.0,0.0,0.0,0.0,0.0,0.0,1495.0,1495.0,1495.0,1495.0,1.6308079957962036,-0.09066337343208485,-0.07618553975571397,0.0226710126288316,-0.0012477808631956577,0.0013856863370165229,0.0
237,5,3.540394345691311e-06,-1.3430047147267032e-05,1.7536622181069106e-05,0.00044679699931293726,0.0010471780551597476,-0.004486589692533016,-0.012453784234821796,0.13261167705059052,0.00820641964673996,0.00011658799485303462,0.00611386401578784,-0.003629796439781785,0.0,0.0,0.0,0.00045840945676900446,0.00031752916402183473,-0.0,0.0,0.0,0.0,0.20000000298023224,-0.20000000298023224,0.10000000149011612,1495.0,1495.0,1495.0,1495.0,0.0,0.0,0.0,0.0,0.0,0.0,0.0,0.0,1495.0,1495.0,1495.0,1495.0,1.6308079957962036,-0.0906427376512311,-0.07581538711575807,0.022511175319645426,-0.0012477808631956577,0.0013856863370165229,0.0
243,5,1.1148656085424591e-05,-1.515754047431983e-05,5.24349798070034e-06,0.0010917101753875613,0.0006261703674681485,-0.0003194609598722309,-0.012450127862393856,0.13262136280536652,0.00824608001857996,0.0009231208241544664,0.0067497361451387405,0.0049692001193761826,0.0,0.0,0.0,-0.0013182067777961493,0.0004294609825592488,-0.0,0.0,0.0,0.0,0.20000000298023224,-0.20000000298023224,0.10000000149011612,1495.0,1495.0,1495.0,1495.0,0.0,0.0,0.0,0.0,0.0,0.0,0.0,0.0,1495.0,1495.0,1495.0,1495.0,1.637536644935608,-0.09083796317933611,-0.07614302694420942,0.022611441873695272,-0.0016945963725447655,-0.00400113221257925,0.0
248,5,3.0139951832097722e-06,-1.5401665223180316e-05,2.45865135184431e-06,-0.0005394752370193601,0.0002797631605062634,0.00020639720605686307,-0.012450127862393856,0.13262136280536652,0.00824608001857996,0.0009231208241544664,0.0067497361451387405,0.0049692001193761826,0.0,0.0,0.0,-0.0013182067777961493,0.0004294609825592488,-0.0,0.0,0.0,0.0,0.20000000298023224,-0.20000000298023224,0.10000000149011612,1495.0,1495.0,1495.0,1495.0,0.0,0.0,0.0,0.0,0.0,0.0,0.0,0.0,1495.0,1495.0,1495.0,1495.0,1.637536644935608,-0.09037584749152672,-0.07617291281501166,0.02267424702960492,-0.0016945963725447655,-0.00400113221257925,0.0
253,5,-6.836426109657623e-06,-1.0416547411296051e-05,-2.575232065282762e-05,-0.001397840678691864,-0.00048630894161760807,0.0034678755328059196,-0.01244470663368702,0.13268627226352692,0.008234051056206226,-0.0007342848693951964,0.010046643204987049,-0.0056820278987288475,0.0,0.0,0.0,-0.00037494642310775816,-0.0005103088915348053,-0.0,0.0,0.0,0.0,0.20000000298023224,-0.20000000298023224,0.10000000149011612,1495.0,1495.0,1495.0,1495.0,0.0,0.0,0.0,0.0,0.0,0.0,0.0,0.0,1495.0,1495.0,1495.0,1495.0,1.6320034265518188,-0.09044409026803683,-0.07636988584420348,0.022722236751903765,0.00200680922716856,-0.0011342240031808615,0.0
258,5,-1.2569616956170648e-05,-1.585016980243381e-05,-3.958516754209995e-05,-0.0012471191585063934,0.00045751105062663555,0.0030470918864011765,-0.01244470663368702,0.13268627226352692,0.008234051056206226,-0.0007342848693951964,0.010046643204987049,-0.0056820278987288475,0.0,0.0,0.0,-0.00037494642310775816,-0.0005103088915348053,-0.0,0.0,0.0,0.0,0.20000000298023224,-0.20000000298023224,0.10000000149011612,1495.0,1495.0,1495.0,1495.0,0.0,0.0,0.0,0.0,0.0,0.0,0.0,0.0,1495.0,1495.0,1495.0,1495.0,1.6320034265518188,-0.09046259588655765,-0.07634705198279751,0.022689236288819848,0.00200680922716856,-0.0011342240031808615,0.0
263,5,-1.569692358316388e-05,-5.236610832071165e-06,-4.503306990955025e-05,-0.0008741243509575725,-0.0010906225070357323,0.0018725849222391844,-0.01244470663368702,0.13268627226352692,0.008234051056206226,-0.0007342848693951964,0.010046643204987049,-0.0056820278987288475,0.0,0.0,0.0,-0.0005933937500230968,-0.001201379345729947,-0.0,0.0,0.0,0.0,0.20000000298023224,-0.20000000298023224,0.10000000149011612,1495.0,1495.0,1495.0,1495.0,0.0,0.0,0.0,0.0,0.0,0.0,0.0,0.0,1495.0,1495.0,1495.0,1495.0,1.6395199298858643,-0.09047985911016755,-0.07643204946768806,0.02267082158307125,0.004746227525174618,-0.0018033008091151714,0.0
268,5,-2.141547156497836e-05,-5.484334451466566e-06,-3.420022039790638e-05,-0.0010358755243942142,-0.000406522216508165,-0.0005509079783223569,-0.012439772486686707,0.13264332711696625,0.00823434628546238,-0.0005221465835347772,0.009412652812898159,0.0029856106266379356,0.0,0.0,0.0,-0.0005933937500230968,-0.001201379345729947,-0.0,0.0,0.0,0.0,0.20000000298023224,-0.20000000298023224,0.10000000149011612,1495.0,1495.0,1495.0,1495.0,0.0,0.0,0.0,0.0,0.0,0.0,0.0,0.0,1495.0,1495.0,1495.0,1495.0,1.6395199298858643,-0.09011893348370847,-0.07609188618278584,0.022585233525977837,0.004746227525174618,-0.0018033008091151714,0.0
273,5,-1.4727482266607694e-05,-1.0487756298971362e-05,-3.401015419512987e-05,0.0003882084565702826,0.0004378017911221832,-0.00024317104544024915,-0.012439772486686707,0.13264332711696625,0.00823434628546238,-0.0005221465835347772,0.009412652812898159,0.0029856106266379356,0.0,0.0,0.0,0.0004922097432427108,-0.0010145478881895542,-0.0,0.0,0.0,0.0,0.20000000298023224,-0.20000000298023224,0.10000000149011612,1495.0,1495.0,1495.0,1495.0,0.0,0.0,0.0,0.0,0.0,0.0,0.0,0.0,1495.0,1495.0,1495.0,1495.0,1.6373389959335327,-0.09004507548872653,-0.07635192138907274,0.022551089561960825,0.004002791363745928,0.001493816846050322,0.0
278,5,-6.324254172795918e-06,-1.1435724445618689e-05,-2.6761445042211562e-05,0.0011636706767603755,0.00028887682128697634,-0.0009671134757809341,-0.01245445478707552,0.13267624378204346,0.00823679007589817,-0.0005753040895797312,0.001899575348943472,0.002980536315590143,0.0,0.0,0.0,0.0004922097432427108,-0.0010145478881895542,-0.0,0.0,0.0,0.0,0.20000000298023224,-0.20000000298023224,0.10000000149011612,1495.0,1495.0,1495.0,1495.0,0.0,0.0,0.0,0.0,0.0,0.0,0.0,0.0,1495.0,1495.0,1495.0,1495.0,1.6373389959335327,-0.0902916325785084,-0.07612569989669363,0.022451216906354772,0.004002791363745928,0.001493816846050322,0.0
283,5,-5.347731530491728e-06,-8.11136942502344e-06,-1.7396165276295505e-05,0.0005826510605402291,-0.00028337188996374607,-0.0015106789069250226,-0.01245445478707552,0.13267624378204346,0.00823679007589817,-0.0005753040895797312,0.001899575348943472,0.002980536315590143,0.0,0.0,0.0,-0.0003777077654376626,0.001096725813113153,-0.0,0.0,0.0,0.0,0.20000000298023224,-0.20000000298023224,0.10000000149011612,1495.0,1495.0,1495.0,1495.0,0.0,0.0,0.0,0.0,0.0,0.0,0.0,0.0,1495.0,1495.0,1495.0,1495.0,1.6378955841064453,-0.09087284855963071,-0.07621525752103145,0.02245943018810542,-0.004328486509621143,-0.0011467022122815251,0.0
288,5,8.6283398559317e-06,-7.401558377750916e-06,-1.7634776668273844e-05,0.0019101889338344336,-0.00019852603145409375,-0.0005756382015533745,-0.012458914890885353,0.13270661234855652,0.008194264955818653,-0.0005219558952376246,0.00951666384935379,-0.005661437753587961,0.0,0.0,0.0,-0.0003777077654376626,0.001096725813113153,-0.0,0.0,0.0,0.0,0.20000000298023224,-0.20000000298023224,0.10000000149011612,1495.0,1495.0,1495.0,1495.0,0.0,0.0,0.0,0.0,0.0,0.0,0.0,0.0,1495.0,1495.0,1495.0,1495.0,1.6378955841064453,-0.09057369577842626,-0.07600957741016655,0.02256529566129383,-0.004328486509621143,-0.0011467022122815251,0.0
294,5,6.4904561440926045e-06,-1.5941126548568718e-05,-2.071911694656592e-05,0.000861791952047497,0.0009561613551340997,0.0009939137380570173,-0.012458914890885353,0.13270661234855652,0.008194264955818653,-0.0005219558952376246,0.00951666384935379,-0.005661437753587961,0.0,0.0,0.0,0.000230576450121589,0.001818559947423637,-0.0,0.0,0.0,0.0,0.20000000298023224,-0.20000000298023224,0.10000000149011612,1495.0,1495.0,1495.0,1495.0,0.0,0.0,0.0,0.0,0.0,0.0,0.0,0.0,1495.0,1495.0,1495.0,1495.0,1.6453866958618164,-0.09106771643747892,-0.07620605065738173,0.022585371716406857,-0.0072101992554962635,0.0007032204302959144,0.0
299,5,-1.3251182281237561e-05,-8.523109499947168e-06,-6.929234132257989e-06,-0.002024279907345772,-0.0005076974048279226,-0.0012572203995659947,-0.012454241514205933,0.13266584277153015,0.008189489133656025,0.0011880426900461316,0.012917745858430862,-0.00158627366181463,0.0,0.0,0.0,0.000230576450121589,0.001818559947423637,-0.0,0.0,0.0,0.0,0.20000000298023224,-0.20000000298023224,0.10000000149011612,1495.0,1495.0,1495.0,1495.0,0.0,0.0,0.0,0.0,0.0,0.0,0.0,0.0,1495.0,1495.0,1495.0,1495.0,1.6453866958618164,-0.09073218197491649,-0.07642330206304031,0.022747331276415962,-0.0072101992554962635,0.0007032204302959144,0.0
304,5,-1.280181277252268e-05,-1.5035070646263193e-05,-1.0742460290202871e-05,-0.0007557875942438841,0.0005783563829027116,-4.53009779448621e-05,-0.012454241514205933,0.13266584277153015,0.008189489133656025,0.0011880426900461316,0.012917745858430862,-0.00158627366181463,0.0,0.0,0.0,0.0006080518942326307,-0.0019310928182676435,-0.0,0.0,0.0,0.0,0.20000000298023224,-0.20000000298023224,0.10000000149011612,1495.0,1495.0,1495.0,1495.0,0.0,0.0,0.0,0.0,0.0,0.0,0.0,0.0,1495.0,1495.0,1495.0,1495.0,1.6471223831176758,-0.09026517578785302,-0.0761124288727802,0.022549709056860844,0.007664442528039217,0.0018564147176221013,0.0
309,5,-9.826499081100337e-06,-1.0920305612671655e-05,-2.4263419618364424e-05,5.472257544170134e-05,-0.0002624292392283678,0.0016043947543948889,-0.012451590038836002,0.1326502114534378,0.008192015811800957,-0.0004372762923594564,0.004326962400227785,0.0024782505352050066,0.0,0.0,0.0,0.0006080518942326307,-0.0019310928182676435,-0.0,0.0,0.0,0.0,0.20000000298023224,-0.20000000298023224,0.10000000149011612,1495.0,1495.0,1495.0,1495.0,0.0,0.0,0.0,0.0,0.0,0.0,0.0,0.0,1495.0,1495.0,1495.0,1495.0,1.6471223831176758,-0.09031459285494466,-0.07610300826454101,0.02246861915784757,0.007664442528039217,0.0018564147176221013,0.0
314,5,-5.6170447351178154e-06,-4.7510584408883005e-06,-1.385621726512909e-05,0.0005270235706120729,-0.000845281349029392,-0.0006071064854040742,-0.012451590038836002,0.1326502114534378,0.008192015811800957,-0.0004372762923594564,0.004326962400227785,0.0024782505352050066,0.0,0.0,0.0,0.0003059294540435076,3.838385600829497e-05,-0.0,0.0,0.0,0.0,0.20000000298023224,-0.20000000298023224,0.10000000149011612,1495.0,1495.0,1495.0,1495.0,0.0,0.0,0.0,0.0,0.0,0.0,0.0,0.0,1495.0,1495.0,1495.0,1495.0,1.6284600496292114,-0.09009831753052003,-0.07607123788782107,0.022501940029832634,-0.00015061824524309486,0.0009234363096766174,0.0
319,5,-7.961408300616313e-06,-5.5926002460182644e-06,-2.2922929929336533e-05,-7.05142374499701e-05,-0.0002371275331825018,0.0008451630128547549,-0.012460101395845413,0.13266395032405853,0.008208207786083221,0.0010270363418385386,0.0029585484880954027,0.002002886962145567,0.0,0.0,0.0,0.0003059294540435076,3.838385600829497e-05,-0.0,0.0,0.0,0.0,0.20000000298023224,-0.20000000298023224,0.10000000149011612,1495.0,1495.0,1495.0,1495.0,0.0,0.0,0.0,0.0,0.0,0.0,0.0,0.0,1495.0,1495.0,1495.0,1495.0,1.6284600496292114,-0.09033105196500821,-0.07600181301104476,0.022545061283922016,-0.00015061824524309486,0.0009234363096766174,0.0
324,5,-6.49498360871803e-06,-9.9182025223854e-06,-2.555289029260166e-05,0.00014776528405491263,0.0004242213035468012,0.0006536603905260563,-0.012460101395845413,0.13266395032405853,0.008208207786083221,0.0010270363418385386,0.0029585484880954027,0.002002886962145567,0.0,0.0,0.0,0.00028419701266102493,-7.869257387937978e-05,-0.0,0.0,0.0,0.0,0.20000000298023224,-0.20000000298023224,0.10000000149011612,1495.0,1495.0,1495.0,1495.0,0.0,0.0,0.0,0.0,0.0,0.0,0.0,0.0,1495.0,1495.0,1495.0,1495.0,1.6284600496292114,-0.09024911553596543,-0.07613524476636294,0.022571133113136466,0.00030878966208547354,0.0008578377310186625,0.0
329,5,-2.456942183926003e-06,-1.0260810086037964e-05,-3.295250280643813e-05,0.0005436710780486465,0.0002108014014083892,0.0011494174832478166,-0.012454390525817871,0.13267895579338074,0.008196581155061722,0.001370115322060883,0.004281465895473957,0.003527360036969185,0.0,0.0,0.0,0.00028419701266102493,-7.869257387937978e-05,-0.0,0.0,0.0,0.0,0.20000000298023224,-0.20000000298023224,0.10000000149011612,1495.0,1495.0,1495.0,1495.0,0.0,0.0,0.0,0.0,0.0,0.0,0.0,0.0,1495.0,1495.0,1495.0,1495.0,1.6284600496292114,-0.09049042235974597,-0.07640047023670872,0.02272101800555642,0.00030878966208547354,0.0008578377310186625,0.0
334,5,-1.0308932587577146e-06,-8.632434401079081e-06,-5.039156803832157e-06,0.0003885942860506475,-0.00011108453327324241,-0.0028898343443870544,-0.012454390525817871,0.13267895579338074,0.008196581155061722,0.001370115322060883,0.004281465895473957,0.003527360036969185,0.0,0.0,0.0,-0.00028024925268255174,0.0005149454227648675,-0.0,0.0,0.0,0.0,0.20000000298023224,-0.20000000298023224,0.10000000149011612,1495.0,1495.0,1495.0,1495.0,0.0,0.0,0.0,0.0,0.0,0.0,0.0,0.0,1495.0,1495.0,1495.0,1495.0,1.631704330444336,-0.09023292546925858,-0.0764437570339511,0.022713368128658252,-0.002024671295657754,-0.0008476068614982069,0.0
340,5,-2.096234766213456e-06,-9.807090464164503e-06,-4.589498530549463e-06,2.7596752261160873e-05,9.652486187405884e-05,-0.001209892681799829,-0.012452451512217522,0.1326589584350586,0.008193803951144218,-0.005190068855881691,0.013226582668721676,-0.0030101025477051735,0.0,0.0,0.0,-0.00028024925268255174,0.0005149454227648675,-0.0,0.0,0.0,0.0,0.20000000298023224,-0.20000000298023224,0.10000000149011612,1495.0,1495.0,1495.0,1495.0,0.0,0.0,0.0,0.0,0.0,0.0,0.0,0.0,1495.0,1495.0,1495.0,1495.0,1.631704330444336,-0.0905836345971233,-0.07652152670732441,0.022681509070411072,-0.002024671295657754,-0.0008476068614982069,0.0
345,5,-1.4464544619841035e-05,-1.1625118531810585e-05,-5.35032313564443e-06,-0.0014731584815308452,0.0002567733754403889,-0.0003926581412088126,-0.012452451512217522,0.1326589584350586,0.008193803951144218,-0.005190068855881691,0.013226582668721676,-0.0030101025477051735,0.0,0.0,0.0,-0.00013802021567244083,2.32846741710091e-05,-0.0,0.0,0.0,0.0,0.20000000298023224,-0.20000000298023224,0.10000000149011612,1495.0,1495.0,1495.0,1495.0,0.0,0.0,0.0,0.0,0.0,0.0,0.0,0.0,1495.0,1495.0,1495.0,1495.0,1.6284600496292114,-0.09083386013349912,-0.07641490482820966,0.022735415192364095,-9.136906010098755e-05,-0.00041660870192572474,0.0
350,5,-1.9394919945625588e-05,-1.539781442261301e-05,-1.875109228421934e-05,-0.0011809085262939334,0.0005554329254664481,0.0014510289765894413,-0.012447765097022057,0.13270540535449982,0.008200341835618019,0.002543158596381545,-0.0020673279650509357,0.0055841607972979546,0.0,0.0,0.0,-0.00013802021567244083,2.32846741710091e-05,-0.0,0.0,0.0,0.0,0.20000000298023224,-0.20000000298023224,0.10000000149011612,1495.0,1495.0,1495.0,1495.0,0.0,0.0,0.0,0.0,0.0,0.0,0.0,0.0,1495.0,1495.0,1495.0,1495.0,1.6284600496292114,-0.0907716695129173,-0.07646803210112083,0.022503215432202364,-9.136906010098755e-05,-0.00041660870192572474,0.0
355,5,-1.5653808077331632e-05,-8.366257134184707e-06,-3.6328605347080156e-05,-2.3429995053447783e-05,-0.0006216137553565204,0.002689713379368186,-0.012447765097022057,0.13270540535449982,0.008200341835618019,0.002543158596381545,-0.0020673279650509357,0.0055841607972979546,0.0,0.0,0.0,-0.0007135646883398294,-0.0011481938418000937,-0.0,0.0,0.0,0.0,0.20000000298023224,-0.20000000298023224,0.10000000149011612,1495.0,1495.0,1495.0,1495.0,0.0,0.0,0.0,0.0,0.0,0.0,0.0,0.0,1495.0,1495.0,1495.0,1495.0,1.6393847465515137,-0.09080736191318332,-0.07609814961055807,0.02245111645443976,0.00453573651611805,-0.0021683168597519398,0.0
360,5,-2.3495900677517056e-05,-4.230591912346426e-06,-4.207489109830931e-05,-0.0009504231275059283,-0.0007449253462255001,0.001765439403243363,-0.012457545846700668,0.1327534019947052,0.00821109488606453,0.0006654498865827918,0.006626709830015898,-0.0017684248741716146,0.0,0.0,0.0,-0.0007135646883398294,-0.0011481938418000937,-0.0,0.0,0.0,0.0,0.20000000298023224,-0.20000000298023224,0.10000000149011612,1495.0,1495.0,1495.0,1495.0,0.0,0.0,0.0,0.0,0.0,0.0,0.0,0.0,1495.0,1495.0,1495.0,1495.0,1.6393847465515137,-0.09091396303663968,-0.07615205555111355,0.02267959083265434,0.00453573651611805,-0.0021683168597519398,0.0
365,5,-1.7382584701408632e-05,-4.365927907201694e-06,-5.698906534234993e-05,0.00035342868068255484,-0.00028172985184937716,0.002495876746252179,-0.012457545846700668,0.1327534019947052,0.00821109488606453,0.0006654498865827918,0.006626709830015898,-0.0017684248741716146,0.0,0.0,0.0,0.0009120024042204022,-0.0009357618982903659,-0.0,0.0,0.0,0.0,0.20000000298023224,-0.20000000298023224,0.10000000149011612,1495.0,1495.0,1495.0,1495.0,0.0,0.0,0.0,0.0,0.0,0.0,0.0,0.0,1495.0,1495.0,1495.0,1495.0,1.638272762298584,-0.09095725455024106,-0.07627840727298169,0.022611555362159853,0.003694053739309311,0.0027694315649569035,0.0
370,5,-1.6987938806778402e-06,-7.469985575880855e-06,-3.719951200764626e-05,0.0020234263502061367,0.0002597949933260679,-0.0013763954630121589,-0.012442815117537975,0.1327204406261444,0.00820593535900116,0.004264986142516136,0.012660148553550243,-0.00017551098426338285,0.0,0.0,0.0,0.0009120024042204022,-0.0009357618982903659,-0.0,0.0,0.0,0.0,0.20000000298023224,-0.20000000298023224,0.10000000149011612,1495.0,1495.0,1495.0,1495.0,0.0,0.0,0.0,0.0,0.0,0.0,0.0,0.0,1495.0,1495.0,1495.0,1495.0,1.638272762298584,-0.0905583410801098,-0.07593180613817123,0.022549816051109846,0.003694053739309311,0.0027694315649569035,0.0
375,5,5.021772722102469e-06,4.4533692289405735e-07,-1.9683495338540524e-05,0.0016158386133611202,-0.0008459207019768655,-0.002652480499818921,-0.012442815117537975,0.1327204406261444,0.00820593535900116,0.004264986142516136,0.012660148553550243,-0.00017551098426338285,0.0,0.0,0.0,-0.0003329499450046569,0.0019100067438557744,-0.0,0.0,0.0,0.0,0.20000000298023224,-0.20000000298023224,0.10000000149011612,1495.0,1495.0,1495.0,1495.0,0.0,0.0,0.0,0.0,0.0,0.0,0.0,0.0,1495.0,1495.0,1495.0,1495.0,1.6464718580245972,-0.0905707134019011,-0.07605641356047715,0.022435059359322485,-0.007577759679406881,-0.0010161125101149082,0.0
380,5,-3.938765985367354e-06,-2.9814952995366184e-06,-2.3163190689956537e-06,-0.0004289292555768043,7.285159517778084e-05,-0.003145053284242749,-0.012419075705111027,0.1326722502708435,0.00820873025804758,-0.0016497633187100291,0.013579179532825947,-0.0025863603223115206,0.0,0.0,0.0,-0.0003329499450046569,0.0019100067438557744,-0.0,0.0,0.0,0.0,0.20000000298023224,-0.20000000298023224,0.10000000149011612,1495.0,1495.0,1495.0,1495.0,0.0,0.0,0.0,0.0,0.0,0.0,0.0,0.0,1495.0,1495.0,1495.0,1495.0,1.6464718580245972,-0.09030468616268683,-0.0763464902710464,0.022693383014531956,-0.007577759679406881,-0.0010161125101149082,0.0
385,5,-2.071023800453986e-06,-5.949945261818357e-06,5.137963398738066e-06,5.2557381422957405e-05,0.00038535462226718664,-0.002152535133063793,-0.012419075705111027,0.1326722502708435,0.00820873025804758,-0.0016497633187100291,0.013579179532825947,-0.0025863603223115206,0.0,0.0,0.0,-9.610222332412377e-05,-0.0004151691391598433,-0.0,0.0,0.0,0.0,0.20000000298023224,-0.20000000298023224,0.10000000149011612,1495.0,1495.0,1495.0,1495.0,0.0,0.0,0.0,0.0,0.0,0.0,0.0,0.0,1495.0,1495.0,1495.0,1495.0,1.630242943763733,-0.09047597497582949,-0.07676792079841284,0.02270008764079237,0.0016309072962030768,-0.00029039845685474575,0.0
390,5,-1.760136365192011e-05,-1.3038998076808639e-05,5.948769285168964e-06,-0.0018426177557557821,0.0010048281401395798,-0.0009583107312209904,-0.012419075705111027,0.1326722502708435,0.00820873025804758,-0.0016497633187100291,0.013579179532825947,-0.0025863603223115206,0.0,0.0,0.0,-9.610222332412377e-05,-0.0004151691391598433,-0.0,0.0,0.0,0.0,0.20000000298023224,-0.20000000298023224,0.10000000149011612,1495.0,1495.0,1495.0,1495.0,0.0,0.0,0.0,0.0,0.0,0.0,0.0,0.0,1495.0,1495.0,1495.0,1495.0,1.630242943763733,-0.09013302467546627,-0.07649422468680428,0.022682049792989743,0.0016309072962030768,-0.00029039845685474575,0.0
395,5,-1.3538682651415002e-05,-1.3564708751800936e-05,-2.0896557543892413e-05,-0.0002495254739187658,0.0004650166374631226,0.0028381149750202894,-0.01242838054895401,0.13271982967853546,0.00819674413651228,-0.001282908720895648,-0.0005714238504879177,-0.00023984508879948407,0.0,0.0,0.0,-0.0012577611487358809,-0.0017652558162808418,-0.0,0.0,0.0,0.0,0.20000000298023224,-0.20000000298023224,0.10000000149011612,1495.0,1495.0,1495.0,1495.0,0.0,0.0,0.0,0.0,0.0,0.0,0.0,0.0,1495.0,1495.0,1495.0,1495.0,1.6474063396453857,-0.09029820786531963,-0.07643298393846525,0.02284553668927641,0.0070074452087283134,-0.003840672317892313,0.0
400,5,-6.946609119040659e-06,-1.597920709173195e-05,-3.14725075440947e-05,0.0006912386161275208,0.00047574646305292845,0.002404359634965658,-0.01242838054895401,0.13271982967853546,0.00819674413651228,-0.001282908720895648,-0.0005714238504879177,-0.00023984508879948407,0.0,0.0,0.0,-0.0012577611487358809,-0.0017652558162808418,-0.0,0.0,0.0,0.0,0.20000000298023224,-0.20000000298023224,0.10000000149011612,1495.0,1495.0,1495.0,1495.0,0.0,0.0,0.0,0.0,0.0,0.0,0.0,0.0,1495.0,1495.0,1495.0,1495.0,1.6474063396453857,-0.09004169930855782,-0.07617505590066002,0.022693461151522123,0.0070074452087283134,-0.003840672317892313,0.0
405,5,-2.1486001060111448e-05,-1.5777972294017673e-05,-4.3704458221327513e-05,-0.0014682315522804856,0.00016615043568890542,0.0024295782204717398,-0.012449805624783039,0.1327284276485443,0.008186250925064087,-0.002469876781105995,0.010244755074381828,0.0003929601807612926,0.0,0.0,0.0,-0.000618230551481247,0.000648294691927731,-0.0,0.0,0.0,0.0,0.20000000298023224,-0.20000000298023224,0.10000000149011612,1495.0,1495.0,1495.0,1495.0,0.0,0.0,0.0,0.0,0.0,0.0,0.0,0.0,1495.0,1495.0,1495.0,1495.0,1.6343400478363037,-0.09078968925229569,-0.07650037570934685,0.02259866437376728,-0.002553093247115612,-0.0018728431314229965,0.0
410,5,-1.0962974556605332e-05,-8.167590749508236e-06,-1.6043126379372552e-05,0.000675470510032028,-0.0008467857260257006,-0.002347528701648116,-0.012449805624783039,0.1327284276485443,0.008186250925064087,-0.002469876781105995,0.010244755074381828,0.0003929601807612926,0.0,0.0,0.0,-0.000618230551481247,0.000648294691927731,-0.0,0.0,0.0,0.0,0.20000000298023224,-0.20000000298023224,0.10000000149011612,1495.0,1495.0,1495.0,1495.0,0.0,0.0,0.0,0.0,0.0,0.0,0.0,0.0,1495.0,1495.0,1495.0,1495.0,1.6343400478363037,-0.09019927428318188,-0.07606529059551963,0.022550175428724624,-0.002553093247115612,-0.0018728431314229965,0.0
415,5,1.2539439708803002e-08,-9.257320016331505e-06,-1.8108588847098872e-05,0.0015872499207034707,-0.00020794669399037957,-0.0006911560194566846,-0.012449640780687332,0.13269256055355072,0.008188726380467415,-0.004102619830518961,0.008355374448001385,0.004058556165546179,0.0,0.0,0.0,0.0010316789848729968,0.0006268066354095936,-0.0,0.0,0.0,0.0,0.20000000298023224,-0.20000000298023224,0.10000000149011612,1495.0,1495.0,1495.0,1495.0,0.0,0.0,0.0,0.0,0.0,0.0,0.0,0.0,1495.0,1495.0,1495.0,1495.0,1.636568307876587,-0.09056407788025941,-0.07594846484781048,0.022546468664297367,-0.002471834421157837,0.0031295877415686846,0.0
421,5,-3.6519263630907517e-06,-8.36644812807208e-06,-1.369484107272001e-05,0.0001951640733750537,-0.0001900833594845608,-0.0008061120170168579,-0.012449640780687332,0.13269256055355072,0.008188726380467415,-0.004102619830518961,0.008355374448001385,0.004058556165546179,0.0,0.0,0.0,0.0010316789848729968,0.0006268066354095936,-0.0,0.0,0.0,0.0,0.20000000298023224,-0.20000000298023224,0.10000000149011612,1495.0,1495.0,1495.0,1495.0,0.0,0.0,0.0,0.0,0.0,0.0,0.0,0.0,1495.0,1495.0,1495.0,1495.0,1.636568307876587,-0.09111123995126183,-0.07594394541836967,0.022524151237646523,-0.002471834421157837,0.0031295877415686846,0.0
426,5,-1.548826003272552e-05,2.5844988158496562e-06,-2.1079380530864e-05,-0.0013422943884506822,-0.0013901470229029655,0.0005636998685076833,-0.012467683292925358,0.13269458711147308,0.008173094131052494,-0.002541318302974105,0.005487000569701195,-0.0006549142999574542,0.0,0.0,0.0,0.00022058619651943445,0.00018116291903425008,-0.0,0.0,0.0,0.0,0.20000000298023224,-0.20000000298023224,0.10000000149011612,1495.0,1495.0,1495.0,1495.0,0.0,0.0,0.0,0.0,0.0,0.0,0.0,0.0,1495.0,1495.0,1495.0,1495.0,1.6284600496292114,-0.09040239392909663,-0.07658604186576383,0.022684080152505743,-0.0007108832942321897,0.0006658309721387923,0.0
431,5,-3.623410975706065e-06,-8.586256626585964e-06,-2.738960574788507e-05,0.0008868640870787203,0.000784431875217706,0.0009827070171013474,-0.012467683292925358,0.13269458711147308,0.008173094131052494,-0.002541318302974105,0.005487000569701195,-0.0006549142999574542,0.0,0.0,0.0,0.00022058619651943445,0.00018116291903425008,-0.0,0.0,0.0,0.0,0.20000000298023224,-0.20000000298023224,0.10000000149011612,1495.0,1495.0,1495.0,1495.0,0.0,0.0,0.0,0.0,0.0,0.0,0.0,0.0,1495.0,1495.0,1495.0,1495.0,1.6284600496292114,-0.0903183792183112,-0.07612455827191236,0.022645754318926764,-0.0007108832942321897,0.0006658309721387923,0.0
436,5,-4.2069518713105936e-06,-6.5421086219430435e-06,-3.189511699019931e-05,0.00028472073609009385,6.847502663731575e-05,0.0009337441879324615,-0.012508505024015903,0.13270404934883118,0.008186308667063713,-0.003444364992901683,0.014058012515306473,0.0006184934754855931,0.0,0.0,0.0,-0.000984846381470561,0.000837405794300139,-0.0,0.0,0.0,0.0,0.20000000298023224,-0.20000000298023224,0.10000000149011612,1495.0,1495.0,1495.0,1495.0,0.0,0.0,0.0,0.0,0.0,0.0,0.0,0.0,1495.0,1495.0,1495.0,1495.0,1.6378384828567505,-0.09088476057441275,-0.07642298820516014,0.022638365520923222,-0.0033049024641513824,-0.002989840228110552,0.0
441,5,-5.525629148905864e-06,-8.17453928902978e-06,-3.427659612498246e-05,-4.435300797922537e-05,0.00022328163322526962,0.0006592749268747866,-0.012508505024015903,0.13270404934883118,0.008186308667063713,-0.003444364992901683,0.014058012515306473,0.0006184934754855931,0.0,0.0,0.0,-0.000984846381470561,0.000837405794300139,-0.0,0.0,0.0,0.0,0.20000000298023224,-0.20000000298023224,0.10000000149011612,1495.0,1495.0,1495.0,1495.0,0.0,0.0,0.0,0.0,0.0,0.0,0.0,0.0,1495.0,1495.0,1495.0,1495.0,1.6378384828567505,-0.09041713061046114,-0.0765255667543014,0.02265679850100289,-0.0033049024641513824,-0.002989840228110552,0.0
446,5,-1.611501102161128e-05,-1.2281462659302633e-05,-1.147753391705919e-05,-0.0012884670868515968,0.0005821434315294027,-0.002472177380695939,-0.012493492104113102,0.13266673684120178,0.008216994814574718,0.0036737185437232256,0.014652857556939125,0.0075629474595189095,0.0,0.0,0.0,-0.0002926295273937285,-5.036777656641789e-05,-0.0,0.0,0.0,0.0,0.20000000298023224,-0.20000000298023224,0.10000000149011612,1495.0,1495.0,1495.0,1495.0,0.0,0.0,0.0,0.0,0.0,0.0,0.0,0.0,1495.0,1495.0,1495.0,1495.0,1.6284600496292114,-0.08992155219693276,-0.07637795228862079,0.02290388391523589,0.0001976431522052735,-0.0008832909516058862,0.0
451,5,-1.858349787653424e-05,-1.5075095689098816e-05,-5.711451649403898e-06,-0.0008116052486002445,0.0005680934409610927,-0.0016808008076623082,-0.012493492104113102,0.13266673684120178,0.008216994814574718,0.0036737185437232256,0.014652857556939125,0.0075629474595189095,0.0,0.0,0.0,-0.0002926295273937285,-5.036777656641789e-05,-0.0,0.0,0.0,0.0,0.20000000298023224,-0.20000000298023224,0.10000000149011612,1495.0,1495.0,1495.0,1495.0,0.0,0.0,0.0,0.0,0.0,0.0,0.0,0.0,1495.0,1495.0,1495.0,1495.0,1.6284600496292114,-0.09008569905601664,-0.07674672654591354,0.022843630158807807,0.0001976431522052735,-0.0008832909516058862,0.0
456,5,-5.461881301016547e-06,-1.4747566638106946e-05,8.331941216965788e-07,0.00124995200894773,0.00018793386698234826,-0.001457677804864943,-0.012493492104113102,0.13266673684120178,0.008216994814574718,0.0036737185437232256,0.014652857556939125,0.0075629474595189095,0.0,0.0,0.0,-0.0007301344885490835,-0.0007981298258528113,-0.0,0.0,0.0,0.0,0.20000000298023224,-0.20000000298023224,0.10000000149011612,1495.0,1495.0,1495.0,1495.0,0.0,0.0,0.0,0.0,0.0,0.0,0.0,0.0,1495.0,1495.0,1495.0,1495.0,1.6361877918243408,-0.08992105397180936,-0.07602872400865317,0.02266136768740998,0.003146722447127104,-0.0022143409587442875,0.0
461,5,-1.0656866834324319e-05,-1.7209127690875903e-05,4.423121481522685e-06,-0.0001234175288118422,0.0003705607377924025,-0.0010138624347746372,-0.012502097524702549,0.13265717029571533,0.008241106756031513,0.0018127172952517867,0.005918104667216539,-0.001502625411376357,0.0,0.0,0.0,-0.0007301344885490835,-0.0007981298258528113,-0.0,0.0,0.0,0.0,0.20000000298023224,-0.20000000298023224,0.10000000149011612,1495.0,1495.0,1495.0,1495.0,0.0,0.0,0.0,0.0,0.0,0.0,0.0,0.0,1495.0,1495.0,1495.0,1495.0,1.6361877918243408,-0.09040672556755718,-0.07574325034947911,0.022521417609109494,0.003146722447127104,-0.0022143409587442875,0.0
466,5,-2.842223921106779e-06,-1.0039815606432967e-05,-3.817408287432045e-05,0.0008883901755325496,-0.0007120930240489542,0.004706119652837515,-0.012502097524702549,0.13265717029571533,0.008241106756031513,0.0018127172952517867,0.005918104667216539,-0.001502625411376357,0.0,0.0,0.0,-0.0004916308680549264,-0.00013301712169777602,-0.0,0.0,0.0,0.0,0.20000000298023224,-0.20000000298023224,0.10000000149011612,1495.0,1495.0,1495.0,1495.0,0.0,0.0,0.0,0.0,0.0,0.0,0.0,0.0,1495.0,1495.0,1495.0,1495.0,1.6300204992294312,-0.09075058856580474,-0.07639524799942535,0.022657477788218652,0.0005224592750892043,-0.0014853908214718103,0.0
471,5,-3.7314382552722236e-06,-3.9178162296593655e-06,-4.004336369689554e-05,0.00024865035084076226,-0.0010194771457463503,0.002106761559844017,-0.012502426281571388,0.13267959654331207,0.008222842589020729,-0.002289967378601432,0.008612202480435371,-0.00039562350139021873,0.0,0.0,0.0,-0.0004916308680549264,-0.00013301712169777602,-0.0,0.0,0.0,0.0,0.20000000298023224,-0.20000000298023224,0.10000000149011612,1495.0,1495.0,1495.0,1495.0,0.0,0.0,0.0,0.0,0.0,0.0,0.0,0.0,1495.0,1495.0,1495.0,1495.0,1.6300204992294312,-0.09109620898062742,-0.07613237880429645,0.022599916594363327,0.0005224592750892043,-0.0014853908214718103,0.0
476,5,-6.452451088989619e-06,1.1464915132819442e-06,-3.893611938110553e-05,-0.0002270613913424313,-0.0010155077325180173,0.0007098353817127645,-0.012502426281571388,0.13267959654331207,0.008222842589020729,-0.002289967378601432,0.008612202480435371,-0.00039562350139021873,0.0,0.0,0.0,0.0012529607629403472,0.00023100918042473495,-0.0,0.0,0.0,0.0,0.20000000298023224,-0.20000000298023224,0.10000000149011612,1495.0,1495.0,1495.0,1495.0,0.0,0.0,0.0,0.0,0.0,0.0,0.0,0.0,1495.0,1495.0,1495.0,1495.0,1.636351466178894,-0.09166927451951594,-0.07637139751421722,0.022625810609810778,-0.0009108720696531236,0.003800339763984084,0.0
481,5,4.89240755996434e-06,-1.1587533208512468e-06,-2.5431791073060594e-05,0.0012705584522336721,-0.00012957374565303326,-0.0013365853810682893,-0.012518892996013165,0.1326276808977127,0.008229522965848446,-0.0015473613748326898,0.013880635611712933,-0.0018301644595339894,0.0,0.0,0.0,0.0012529607629403472,0.00023100918042473495,-0.0,0.0,0.0,0.0,0.20000000298023224,-0.20000000298023224,0.10000000149011612,1495.0,1495.0,1495.0,1495.0,0.0,0.0,0.0,0.0,0.0,0.0,0.0,0.0,1495.0,1495.0,1495.0,1495.0,1.636351466178894,-0.09052735672028485,-0.0758418254164794,0.022617921912340223,-0.0009108720696531236,0.003800339763984084,0.0
487,5,7.036580882413546e-07,-7.624814770679222e-06,-3.2548283343203366e-05,5.573461294261506e-06,0.0007240978884510696,0.000319344864692539,-0.012518892996013165,0.1326276808977127,0.008229522965848446,-0.0015473613748326898,0.013880635611712933,-0.0018301644595339894,0.0,0.0,0.0,0.00015748167061246932,0.0012131065595895052,-0.0,0.0,0.0,0.0,0.20000000298023224,-0.20000000298023224,0.10000000149011612,1495.0,1495.0,1495.0,1495.0,0.0,0.0,0.0,0.0,0.0,0.0,0.0,0.0,1495.0,1495.0,1495.0,1495.0,1.6388072967529297,-0.09053211522480815,-0.07649067397362881,0.022777192658935512,-0.004790475592017174,0.0004783727927133441,0.0
492,5,-5.335423907126824e-07,-1.0144178304472007e-05,-1.4871182429487817e-05,-0.00014623466995544732,0.0005919627728872001,-0.0019935141317546368,-0.012514719739556313,0.13259798288345337,0.008238748647272587,0.0030068804044276476,0.0011983183212578297,0.003617601003497839,0.0,0.0,0.0,0.00015748167061246932,0.0012131065595895052,-0.0,0.0,0.0,0.0,0.20000000298023224,-0.20000000298023224,0.10000000149011612,1495.0,1495.0,1495.0,1495.0,0.0,0.0,0.0,0.0,0.0,0.0,0.0,0.0,1495.0,1495.0,1495.0,1495.0,1.6388072967529297,-0.09046609820651912,-0.07673694356809649,0.022623326860476124,-0.004790475592017174,0.0004783727927133441,0.0
497,5,-1.5368284493888495e-06,-6.956097422516905e-06,-8.679369784658775e-06,-0.00017888819274958223,-0.00014578455011360347,-0.001540423254482448,-0.012514719739556313,0.13259798288345337,0.008238748647272587,0.0030068804044276476,0.0011983183212578297,0.003617601003497839,0.0,0.0,0.0,-0.000752621388528496,-0.00014044578711036593,-0.0,0.0,0.0,0.0,0.20000000298023224,-0.20000000298023224,0.10000000149011612,1495.0,1495.0,1495.0,1495.0,0.0,0.0,0.0,0.0,0.0,0.0,0.0,0.0,1495.0,1495.0,1495.0,1495.0,1.6321059465408325,-0.09043938037638857,-0.07585798631263208,0.02256212497137458,0.0005523430299945176,-0.0022768445778638124,0.0
502,5,-6.648800081165973e-06,-1.1841496416309383e-05,-1.5494124454562552e-05,-0.0006849918863736093,0.0005279339966364205,0.00020160124404355884,-0.012522310018539429,0.13264942169189453,0.008264772593975067,-0.000357974786311388,0.0073113832622766495,0.0013167925644665956,0.0,0.0,0.0,-0.000752621388528496,-0.00014044578711036593,-0.0,0.0,0.0,0.0,0.20000000298023224,-0.20000000298023224,0.10000000149011612,1495.0,1495.0,1495.0,1495.0,0.0,0.0,0.0,0.0,0.0,0.0,0.0,0.0,1495.0,1495.0,1495.0,1495.0,1.6321059465408325,-0.09002417512797099,-0.07664406800182644,0.02269687528118118,0.0005523430299945176,-0.0022768445778638124,0.0
507,5,-1.9979834178229794e-05,-1.0673151336959563e-05,-2.395923002040945e-05,-0.0018737207865342498,7.097220077412203e-05,0.0010964531684294343,-0.012522310018539429,0.13264942169189453,0.008264772593975067,-0.000357974786311388,0.0073113832622766495,0.0013167925644665956,0.0,0.0,0.0,-0.0006752625922672451,-0.0006616536993533373,-0.0,0.0,0.0,0.0,0.20000000298023224,-0.20000000298023224,0.10000000149011612,1495.0,1495.0,1495.0,1495.0,0.0,0.0,0.0,0.0,0.0,0.0,0.0,0.0,1495.0,1495.0,1495.0,1495.0,1.6347392797470093,-0.09021736420058006,-0.07650423318278393,0.022661080927525,0.002606339752674103,-0.0020461133681237698,0.0
512,5,-2.3335858713835478e-05,-1.5187810276984237e-05,-2.6262385290465318e-05,-0.0011522112181410193,0.0005701479967683554,0.0007149599259719253,-0.012532198801636696,0.13268625736236572,0.00825555995106697,0.001103823073208332,0.007380267605185509,-0.002491474850103259,0.0,0.0,0.0,-0.0006752625922672451,-0.0006616536993533373,-0.0,0.0,0.0,0.0,0.20000000298023224,-0.20000000298023224,0.10000000149011612,1495.0,1495.0,1495.0,1495.0,0.0,0.0,0.0,0.0,0.0,0.0,0.0,0.0,1495.0,1495.0,1495.0,1495.0,1.6347392797470093,-0.08983956486109038,-0.07649707300316384,0.022817285126101428,0.002606339752674103,-0.0020461133681237698,0.0
517,5,-2.6042034733109176e-05,-1.7451106032240205e-05,-2.243297603854444e-05,-0.0007856256561353803,0.0004996546194888651,-0.00017354503506794572,-0.012532198801636696,0.13268625736236572,0.00825555995106697,0.001103823073208332,0.007380267605185509,-0.002491474850103259,0.0,0.0,0.0,-0.0007315825205296278,-0.0011266575893387198,-0.0,0.0,0.0,0.0,0.20000000298023224,-0.20000000298023224,0.10000000149011612,1495.0,1495.0,1495.0,1495.0,0.0,0.0,0.0,0.0,0.0,0.0,0.0,0.0,1495.0,1495.0,1495.0,1495.0,1.6392416954040527,-0.09026683737498405,-0.07647609162313722,0.022847043464093837,0.004450272768735886,-0.0022228737361729145,0.0
522,5,-1.0759991710074246e-05,-9.938912626239471e-06,-2.1939129510428756e-05,0.0015195949235931039,-0.0007016013259999454,-0.0001286797341890633,-0.01251137349754572,0.13267825543880463,0.008268711157143116,0.0011719290632754564,0.01167502161115408,0.0032165974844247103,0.0,0.0,0.0,-0.0007315825205296278,-0.0011266575893387198,-0.0,0.0,0.0,0.0,0.20000000298023224,-0.20000000298023224,0.10000000149011612,1495.0,1495.0,1495.0,1495.0,0.0,0.0,0.0,0.0,0.0,0.0,0.0,0.0,1495.0,1495.0,1495.0,1495.0,1.6392416954040527,-0.09044731715497345,-0.07617174047181506,0.022630095892618773,0.004450272768735886,-0.0022228737361729145,0.0
