timestamp,dt,pos_x,pos_y,pos_z,vel_x,vel_y,vel_z,roll,pitch,yaw,agv_x,agv_y,agv_z,x_ref,y_ref,z_ref,roll_ref,pitch_ref,yaw_ref,x_vel_ref,y_vel_ref,z_vel_ref,x_torque,y_torque,z_torque,w0,w1,w2,w3,u0,u1,u2,u3,m0req,m1req,m2req,m3req,thrust0,thrust1,thrust2,thrust3,thrust_ref,roll_vicon,pitch_vicon,yaw_vicon,acc_x,acc_y,acc_z
5,5,0.0,0.0,0.0,-0.001121922512538731,-0.0009103313204832375,-0.003677635919302702,0.0,0.0,0.0,0.0,0.0,0.0,0.0,0.0,0.0,0.0011226935312151909,-0.0010643424466252327,-0.0,0.0,0.0,0.0,0.0,0.0,0.0,0.0,0.0,0.0,0.0,0.0,0.0,0.0,0.0,0.0,0.0,0.0,0.0,0.0,0.0,0.0,0.0,1.6404430866241455,-0.006657963835097578,-0.049776438663958165,-0.031899455507451824,0.004207209218293428,0.003413742408156395,0.0
38,33,0.0,0.0,0.0,0.0031053521670401096,0.0021024614106863737,0.0024138540029525757,0.0,0.0,0.0,0.0,0.0,0.0,0.0,0.0,0.0,0.0011226935312151909,-0.0010643424466252327,-0.0,0.0,0.0,0.0,0.0,0.0,0.0,0.0,0.0,0.0,0.0,0.0,0.0,0.0,0.0,0.0,0.0,0.0,0.0,0.0,0.0,0.0,0.0,1.6404430866241455,-0.0036642434002691683,-0.04869690125135664,-0.031746160799965895,0.004207209218293428,0.003413742408156395,0.0
43,5,0.0,0.0,0.0,-0.0037713702768087387,0.0002724203804973513,-0.003965610172599554,0.0,0.0,0.0,0.0,0.0,0.0,0.0,0.0,0.0,0.0011226935312151909,-0.0010643424466252327,-0.0,0.0,0.0,0.0,0.0,0.0,0.0,0.0,0.0,0.0,0.0,0.0,0.0,0.0,0.0,0.0,0.0,0.0,0.0,0.0,0.0,0.0,0.0,1.6404430866241455,-0.004230917288140031,-0.04978374367184986,-0.031822385186201105,0.014142638072371483,-0.0010215764632448554,0.0
48,5,0.0,0.0,0.0,0.0017299193423241377,0.00014632803504355252,0.002717228140681982,0.0,0.0,0.0,0.0,0.0,0.0,0.0,0.0,0.0,-0.000331192888552323,-0.003526940243318677,-0.0,0.0,0.0,0.0,0.0,0.0,0.0,0.0,0.0,0.0,0.0,0.0,0.0,0.0,0.0,0.0,0.0,0.0,0.0,0.0,0.0,0.0,0.0,1.6641074419021606,-0.0036816345991907235,-0.04873677263391802,-0.031955676702877266,0.014142638072371483,-0.0010215764632448554,0.0
54,6,0.0,0.0,0.0,-0.0007972501334734261,-0.0031253269407898188,-0.0025440179742872715,0.0,0.0,0.0,0.0,0.0,0.0,0.0,0.0,0.0,-0.000331192888552323,-0.003526940243318677,-0.0,0.0,0.0,0.0,0.0,0.0,0.0,0.0,0.0,0.0,0.0,0.0,0.0,0.0,0.0,0.0,0.0,0.0,0.0,0.0,0.0,0.0,0.0,1.6641074419021606,-0.0056079743046410875,-0.049416828972591614,-0.031310779467077623,0.014142638072371483,-0.0010215764632448554,0.0
59,5,3.726412251126021e-05,7.454791557393037e-06,-2.315718484169338e-05,0.00415279483422637,-0.0021447057370096445,0.0017612550873309374,0.0,0.0,0.0,0.0,0.0,0.0,0.0,0.0,0.0,0.0038124658167362213,-0.000748105812817812,-0.0,0.0,0.0,0.0,0.0,0.0,0.0,0.0,0.0,0.0,0.0,0.0,0.0,0.0,0.0,0.0,0.0,0.0,0.0,0.0,0.0,0.0,0.0,1.6584948301315308,-0.005271681851278745,-0.04940007590401877,-0.03076484748639468,0.002989687956869602,0.011719975620508194,0.0
64,5,-3.327055992485839e-06,2.1352179828681983e-05,2.0350973500171676e-05,-0.0032098237425088882,-0.002525568939745426,-0.0045164767652750015,0.0,0.0,0.0,0.0,0.0,0.0,0.0,0.0,0.0,0.0038124658167362213,-0.000748105812817812,-0.0,0.0,0.0,0.0,0.0,0.0,0.0,0.0,0.0,0.0,0.0,0.0,0.0,0.0,0.0,0.0,0.0,0.0,0.0,0.0,0.0,0.0,0.0,1.6584948301315308,-0.007976176007407161,-0.04966210247352032,-0.03145842536684573,0.002989687956869602,0.011719975620508194,0.0
69,5,1.1416777851991355e-05,-2.5413630282855593e-05,-3.754191129701212e-05,0.0004853305290453136,0.004601669497787952,0.005140555091202259,0.0,0.0,0.0,0.0,0.0,0.0,0.0,0.0,0.0,0.0031023966148495674,-0.0030004202853888273,-0.0,0.0,0.0,0.0,0.0,0.0,0.0,0.0,0.0,0.0,0.0,0.0,0.0,0.0,0.0,0.0,0.0,0.0,0.0,0.0,0.0,0.0,0.0,1.6674058437347412,-0.005284363201358401,-0.04918304077251918,-0.03148677322397865,0.012055149301886559,0.009588395245373249,0.0
76,7,2.872368213502341e-06,-1.8983986592502333e-05,-1.5587915186188184e-05,-0.0008311968995258212,0.0010691105853766203,-0.0005782573134638369,0.0,0.0,0.0,0.0,0.0,0.0,0.0,0.0,0.0,0.0031023966148495674,-0.0030004202853888273,-0.0,0.0,0.0,0.0,0.0,0.0,0.0,0.0,0.0,0.0,0.0,0.0,0.0,0.0,0.0,0.0,0.0,0.0,0.0,0.0,0.0,0.0,0.0,1.6674058437347412,-0.005327090259290926,-0.04962452204694399,-0.031336786742214184,0.012055149301886559,0.009588395245373249,0.0
81,5,1.5058826647873502e-05,-2.207622856076341e-05,-1.3862751075066626e-05,0.0011298962635919452,0.0007987133576534688,-0.0004383226332720369,0.0,0.0,0.0,0.0,0.0,0.0,0.0,0.0,0.0,-0.001353443949483335,-0.0007848868262954056,-0.0,0.0,0.0,0.0,0.0,0.0,0.0,0.0,0.0,0.0,0.0,0.0,0.0,0.0,0.0,0.0,0.0,0.0,0.0,0.0,0.0,0.0,0.0,1.6397217512130737,-0.0034971022354297835,-0.04807702469211539,-0.032039875255796324,0.0031011919490993023,-0.0041135684587061405,0.0
86,5,-3.736683720489964e-05,-1.9486318706185557e-05,3.846561230602674e-05,-0.005839121527969837,8.696102668181993e-06,-0.006454732734709978,0.0,0.0,0.0,0.0,0.0,0.0,0.0,0.0,0.0,-0.001353443949483335,-0.0007848868262954056,-0.0,0.0,0.0,0.0,0.0,0.0,0.0,0.0,0.0,0.0,0.0,0.0,0.0,0.0,0.0,0.0,0.0,0.0,0.0,0.0,0.0,0.0,0.0,1.6397217512130737,-0.005470790206033328,-0.04945986064028305,-0.032027348549797365,0.02210235595703125,-0.0001398450549459085,0.0
91,5,-2.7645497539197095e-05,-8.695723408891354e-06,4.2825522541534156e-05,-0.0011690874816849828,-0.001291393069550395,-0.003105082083493471,0.0,0.0,0.0,0.0,0.0,0.0,0.0,0.0,0.0,-4.476482718018815e-05,-0.005442358553409576,-0.0,0.0,0.0,0.0,0.0,0.0,0.0,0.0,0.0,0.0,0.0,0.0,0.0,0.0,0.0,0.0,0.0,0.0,0.0,0.0,0.0,0.0,0.0,1.6853948831558228,-0.0051149662579474085,-0.049152172479127086,-0.031834793954373594,0.02210235595703125,-0.0001398450549459085,0.0
96,5,-4.572582110995427e-05,2.624896660563536e-05,4.952765448251739e-05,-0.0026372738648205996,-0.004709919914603233,-0.0020462884567677975,0.0,0.0,0.0,0.0,0.0,0.0,0.0,0.0,0.0,-4.476482718018815e-05,-0.005442358553409576,-0.0,0.0,0.0,0.0,0.0,0.0,0.0,0.0,0.0,0.0,0.0,0.0,0.0,0.0,0.0,0.0,0.0,0.0,0.0,0.0,0.0,0.0,0.0,1.6853948831558228,-0.008314920571924718,-0.05044300085593458,-0.031655844599410246,0.02210235595703125,-0.0001398450549459085,0.0
101,5,-1.4584532436856534e-05,1.1788254596467596e-05,2.2444670321419835e-05,0.002682045102119446,-0.00014868257858324796,0.0024314424954354763,0.0,0.0,0.0,0.0,0.0,0.0,0.0,0.0,0.0,0.005714608356356621,-0.0025036302395164967,-0.0,0.0,0.0,0.0,0.0,0.0,0.0,0.0,0.0,0.0,0.0,0.0,0.0,0.0,0.0,0.0,0.0,0.0,0.0,0.0,0.0,0.0,0.0,1.6810873746871948,-0.007148956884875923,-0.04993232390816981,-0.03143277554220975,0.01014156173914671,0.017806600779294968,0.0
106,5,8.710199836059473e-06,-1.278531453863252e-05,-3.1239404052030295e-05,0.0038681859150528908,0.0028893554117530584,0.007414666004478931,0.0,0.0,0.0,0.0,0.0,0.0,0.0,0.0,0.0,0.005714608356356621,-0.0025036302395164967,-0.0,0.0,0.0,0.0,0.0,0.0,0.0,0.0,0.0,0.0,0.0,0.0,0.0,0.0,0.0,0.0,0.0,0.0,0.0,0.0,0.0,0.0,0.0,1.6810873746871948,-0.006146984367596125,-0.04989957190252541,-0.030948794955439445,0.01014156173914671,0.017806600779294968,0.0
111,5,4.818152774532791e-06,-6.567307536897715e-06,-6.261453222577984e-07,0.0010802287142723799,0.0004095812910236418,-0.0007077247137203813,0.0,0.0,0.0,0.0,0.0,0.0,0.0,0.0,0.0,-0.0035127659793943167,0.0036060221027582884,-0.0,0.0,0.0,0.0,0.0,0.0,0.0,0.0,0.0,0.0,0.0,0.0,0.0,0.0,0.0,0.0,0.0,0.0,0.0,0.0,0.0,0.0,0.0,1.674889087677002,-0.00479742652401265,-0.049603937405079644,-0.03126120729482733,-0.014553341083228588,-0.010905414819717407,0.0
117,6,-9.757532097864896e-06,-9.419638445251621e-06,5.467142182169482e-05,-0.001316990703344345,0.0005061122355982661,-0.006918797735124826,0.0,0.0,0.0,0.0,0.0,0.0,0.0,0.0,0.0,-0.0035127659793943167,0.0036060221027582884,-0.0,0.0,0.0,0.0,0.0,0.0,0.0,0.0,0.0,0.0,0.0,0.0,0.0,0.0,0.0,0.0,0.0,0.0,0.0,0.0,0.0,0.0,0.0,1.674889087677002,-0.004773366736884022,-0.04838393777552205,-0.03210223826721942,-0.014553341083228588,-0.010905414819717407,0.0
122,5,-1.063239233189961e-05,-3.962672417401336e-05,-1.3881731319997925e-05,-0.0006317794905044138,0.0038272952660918236,0.005458859261125326,0.0,0.0,0.0,0.0,0.0,0.0,0.0,0.0,0.0,-0.000641292950604111,-0.0012631717836484313,-0.0,0.0,0.0,0.0,0.0,0.0,0.0,0.0,0.0,0.0,0.0,0.0,0.0,0.0,0.0,0.0,0.0,0.0,0.0,0.0,0.0,0.0,0.0,1.6402854919433594,-0.003470969952041622,-0.048392600701226335,-0.03250462825298741,0.004992677830159664,-0.0019497746834531426,0.0
128,6,-7.3376609179831576e-06,-1.8259281205246225e-05,-1.3821212633047253e-05,-0.0009662348893471062,-0.00014807668048888445,-0.0007103470852598548,0.0,0.0,0.0,0.0,0.0,0.0,0.0,0.0,0.0,-0.000641292950604111,-0.0012631717836484313,-0.0,0.0,0.0,0.0,0.0,0.0,0.0,0.0,0.0,0.0,0.0,0.0,0.0,0.0,0.0,0.0,0.0,0.0,0.0,0.0,0.0,0.0,0.0,1.6402854919433594,-0.005233876655757849,-0.04983589652641389,-0.031331443181126746,0.004992677830159664,-0.0019497746834531426,0.0
133,5,-7.3376609179831576e-06,-1.8259281205246225e-05,-1.3821212633047253e-05,-0.0009662348893471062,-0.00014807668048888445,-0.0007103470852598548,0.0,0.0,0.0,0.0,0.0,0.0,0.0,0.0,0.0,0.00014998394181020558,-0.0009295860072597861,-0.0,0.0,0.0,0.0,0.0,0.0,0.0,0.0,0.0,0.0,0.0,0.0,0.0,0.0,0.0,0.0,0.0,0.0,0.0,0.0,0.0,0.0,0.0,1.6357659101486206,-0.005233876655757849,-0.04983589652641389,-0.031331443181126746,0.0036640597973018885,0.00045475183287635446,0.0
138,5,-2.8552489311550744e-05,1.8044118405668996e-05,3.618939081206918e-05,-0.00293227331712842,-0.004415638744831085,-0.0062854113057255745,0.0,0.0,0.0,0.0,0.0,0.0,0.0,0.0,0.0,0.00014998394181020558,-0.0009295860072597861,-0.0,0.0,0.0,0.0,0.0,0.0,0.0,0.0,0.0,0.0,0.0,0.0,0.0,0.0,0.0,0.0,0.0,0.0,0.0,0.0,0.0,0.0,0.0,1.6357659101486206,-0.005614995976058003,-0.0489744259724816,-0.03196220965153344,0.0036640597973018885,0.00045475183287635446,0.0
143,5,-8.87323130882578e-06,9.657195732870605e-06,3.873309833579697e-05,0.0004886071546934545,-0.0004984661936759949,-0.00472303619608283,0.0,0.0,0.0,0.0,0.0,0.0,0.0,0.0,0.0,0.005349739454686642,-0.002755396766588092,-0.0,0.0,0.0,0.0,0.0,0.0,0.0,0.0,0.0,0.0,0.0,0.0,0.0,0.0,0.0,0.0,0.0,0.0,0.0,0.0,0.0,0.0,0.0,1.67989182472229,-0.006916830306009296,-0.0496342596977582,-0.03160625949565481,0.011153485625982285,0.016657842323184013,0.0
150,7,-3.330684921820648e-05,-2.4958203539426904e-06,3.3596363209653646e-05,-0.0027365912683308125,0.0012589754769578576,-0.0012728064320981503,0.0,0.0,0.0,0.0,0.0,0.0,0.0,0.0,0.0,0.005349739454686642,-0.002755396766588092,-0.0,0.0,0.0,0.0,0.0,0.0,0.0,0.0,0.0,0.0,0.0,0.0,0.0,0.0,0.0,0.0,0.0,0.0,0.0,0.0,0.0,0.0,0.0,1.67989182472229,-0.006359560224599439,-0.049742074973326555,-0.03193623329478446,0.011153485625982285,0.016657842323184013,0.0
155,5,1.3628117812913842e-05,-2.1885040041524917e-05,3.573147114366293e-05,0.004537559580057859,0.0028302965220063925,-0.0007653355714865029,0.0,0.0,0.0,0.0,0.0,0.0,0.0,0.0,0.0,-0.00154182780534029,-0.002616534009575844,-0.0,0.0,0.0,0.0,0.0,0.0,0.0,0.0,0.0,0.0,0.0,0.0,0.0,0.0,0.0,0.0,0.0,0.0,0.0,0.0,0.0,0.0,0.0,1.6568011045455933,-0.0026167366121418543,-0.04868886294722293,-0.03205724916267834,0.010445943102240562,-0.0047349403612315655,0.0
162,7,5.325621259544278e-07,-2.979824239446316e-05,1.843507561716251e-05,0.00024355710775125772,0.0020817029289901257,0.0017694332636892796,0.0,0.0,0.0,0.0,0.0,0.0,0.0,0.0,0.0,-0.003446560353040695,0.004221130628138781,-0.0,0.0,0.0,0.0,0.0,0.0,0.0,0.0,0.0,0.0,0.0,0.0,0.0,0.0,0.0,0.0,0.0,0.0,0.0,0.0,0.0,0.0,0.0,1.6802473068237305,-0.004205292803130296,-0.04862585359165828,-0.03228529316581553,-0.017090313136577606,-0.010734111070632935,0.0
167,5,1.1715513210219797e-05,-3.68967130270903e-06,-4.427083240443608e-06,0.0014393769670277834,-0.0023003474343568087,0.0034512323327362537,0.0,0.0,0.0,0.0,0.0,0.0,0.0,0.0,0.0,-0.003446560353040695,0.004221130628138781,-0.0,0.0,0.0,0.0,0.0,0.0,0.0,0.0,0.0,0.0,0.0,0.0,0.0,0.0,0.0,0.0,0.0,0.0,0.0,0.0,0.0,0.0,0.0,1.6802473068237305,-0.0047742217185262024,-0.04934250882956982,-0.03151221783768434,-0.017090313136577606,-0.010734111070632935,0.0
172,5,2.4374357963097282e-05,-1.6251138731604442e-05,-5.0915776228066534e-05,0.002094812225550413,0.0005872370093129575,0.006959136109799147,0.0,0.0,0.0,0.0,0.0,0.0,0.0,0.0,0.0,0.002808148739859462,0.0013709034537896514,-0.0,0.0,0.0,0.0,0.0,0.0,0.0,0.0,0.0,0.0,0.0,0.0,0.0,0.0,0.0,0.0,0.0,0.0,0.0,0.0,0.0,0.0,0.0,1.653357982635498,-0.004963745551996527,-0.04881763974570805,-0.031308965143774695,-0.005461649503558874,0.008605864830315113,0.0
177,5,-1.0772493624244817e-05,-2.9261946110636927e-06,-3.326795922475867e-05,-0.003379697445780039,-0.001364098396152258,0.0006659165374003351,0.0,0.0,0.0,0.0,0.0,0.0,0.0,0.0,0.0,0.002808148739859462,0.0013709034537896514,-0.0,0.0,0.0,0.0,0.0,0.0,0.0,0.0,0.0,0.0,0.0,0.0,0.0,0.0,0.0,0.0,0.0,0.0,0.0,0.0,0.0,0.0,0.0,1.653357982635498,-0.005851989028634788,-0.04887852078783717,-0.031757007864823314,-0.005461649503558874,0.008605864830315113,0.0
182,5,-4.6349441618076526e-06,7.487235052394681e-06,1.3284233091326314e-07,-0.0006153729627840221,-0.0017952509224414825,-0.003741729771718383,0.0,0.0,0.0,0.0,0.0,0.0,0.0,0.0,0.0,0.002808148739859462,0.0013709034537896514,-0.0,0.0,0.0,0.0,0.0,0.0,0.0,0.0,0.0,0.0,0.0,0.0,0.0,0.0,0.0,0.0,0.0,0.0,0.0,0.0,0.0,0.0,0.0,1.653357982635498,-0.006127674968010024,-0.04883967442945931,-0.03131600728536676,-0.005461649503558874,0.008605864830315113,0.0
187,5,2.2286982130026445e-05,-1.0094348908751272e-05,1.2629112461581826e-05,0.0029844818636775017,0.0013916896423324943,-0.0029962442349642515,0.0,0.0,0.0,0.0,0.0,0.0,0.0,0.0,0.0,0.0022211524192243814,-0.0005886618164367974,-0.0,0.0,0.0,0.0,0.0,0.0,0.0,0.0,0.0,0.0,0.0,0.0,0.0,0.0,0.0,0.0,0.0,0.0,0.0,0.0,0.0,0.0,0.0,1.64517080783844,-0.004322740646165705,-0.04865965711764653,-0.03105726326636308,0.002333606593310833,0.006773252040147781,0.0
192,5,-2.2521464416058734e-05,-1.833366695791483e-05,-2.4662056148372358e-06,-0.00418322067707777,0.0015453939558938146,0.0006129404064267874,0.0,0.0,0.0,0.0,0.0,0.0,0.0,0.0,0.0,0.0022211524192243814,-0.0005886618164367974,-0.0,0.0,0.0,0.0,0.0,0.0,0.0,0.0,0.0,0.0,0.0,0.0,0.0,0.0,0.0,0.0,0.0,0.0,0.0,0.0,0.0,0.0,0.0,1.64517080783844,-0.004836345894654316,-0.049174556159337066,-0.03223487691916185,0.002333606593310833,0.006773252040147781,0.0
198,5,-2.5314095182693563e-05,-2.6402590265206527e-06,3.6585966881830245e-05,-0.0020084038842469454,-0.0012650513090193272,-0.004441084340214729,0.0,0.0,0.0,0.0,0.0,0.0,0.0,0.0,0.0,-0.0019032537238672376,-0.003926015459001064,-0.0,0.0,0.0,0.0,0.0,0.0,0.0,0.0,0.0,0.0,0.0,0.0,0.0,0.0,0.0,0.0,0.0,0.0,0.0,0.0,0.0,0.0,0.0,1.6713629961013794,-0.005500417532730662,-0.049672290037579434,-0.03171436194826809,0.015811489894986153,-0.005896245129406452,0.0
203,5,3.822990402113646e-05,-1.579354102432262e-05,-3.3710359275573865e-05,0.006821918301284313,0.0010723733576014638,0.006659125443547964,0.0,0.0,0.0,0.0,0.0,0.0,0.0,0.0,0.0,-0.0019032537238672376,-0.003926015459001064,-0.0,0.0,0.0,0.0,0.0,0.0,0.0,0.0,0.0,0.0,0.0,0.0,0.0,0.0,0.0,0.0,0.0,0.0,0.0,0.0,0.0,0.0,0.0,1.6713629961013794,-0.0033564564897908236,-0.04893749034979849,-0.03138366551095055,0.015811489894986153,-0.005896245129406452,0.0
208,5,2.2734554931957973e-06,6.565112926182337e-06,3.3455424272688106e-05,-0.0010752712842077017,-0.0021808224264532328,-0.006374374032020569,0.0,0.0,0.0,0.0,0.0,0.0,0.0,0.0,0.0,-0.0013068134430795908,0.0063106706365942955,-0.0,0.0,0.0,0.0,0.0,0.0,0.0,0.0,0.0,0.0,0.0,0.0,0.0,0.0,0.0,0.0,0.0,0.0,0.0,0.0,0.0,0.0,0.0,1.6961398124694824,-0.006456200250767253,-0.049444634619252754,-0.03162469866700163,-0.025792047381401062,-0.00410850252956152,0.0
213,5,4.306857590563595e-05,-3.2131483749253675e-05,-3.805954975177883e-06,0.004465306177735329,0.0037712627090513706,0.0019216160289943218,0.0,0.0,0.0,0.0,0.0,0.0,0.0,0.0,0.0,-0.0013068134430795908,0.0063106706365942955,-0.0,0.0,0.0,0.0,0.0,0.0,0.0,0.0,0.0,0.0,0.0,0.0,0.0,0.0,0.0,0.0,0.0,0.0,0.0,0.0,0.0,0.0,0.0,1.6961398124694824,-0.003375477808095282,-0.047888348208112254,-0.031965210009418925,-0.025792047381401062,-0.00410850252956152,0.0
218,5,4.306857590563595e-05,-3.2131483749253675e-05,-3.805954975177883e-06,0.004465306177735329,0.0037712627090513706,0.0019216160289943218,0.0,0.0,0.0,0.0,0.0,0.0,0.0,0.0,0.0,-0.0045828609727323055,0.004180717281997204,-0.0,0.0,0.0,0.0,0.0,0.0,0.0,0.0,0.0,0.0,0.0,0.0,0.0,0.0,0.0,0.0,0.0,0.0,0.0,0.0,0.0,0.0,0.0,1.6856971979141235,-0.003375477808095282,-0.047888348208112254,-0.031965210009418925,-0.016981516033411026,-0.014319309033453465,0.0
223,5,-2.404390943411272e-05,-4.575156708597206e-06,2.886059519369155e-05,-0.006460616365075111,-0.0015135351568460464,-0.003748105838894844,0.0,0.0,0.0,0.0,0.0,0.0,0.0,0.0,0.0,-0.0045828609727323055,0.004180717281997204,-0.0,0.0,0.0,0.0,0.0,0.0,0.0,0.0,0.0,0.0,0.0,0.0,0.0,0.0,0.0,0.0,0.0,0.0,0.0,0.0,0.0,0.0,0.0,1.6856971979141235,-0.005404122942313273,-0.049319684233423984,-0.032493750824917546,-0.016981516033411026,-0.014319309033453465,0.0
228,5,1.0162654689338524e-05,-3.6951067158952355e-05,-3.129934339085594e-05,0.0015205410309135914,0.00327969528734684,0.005719950422644615,0.0,0.0,0.0,0.0,0.0,0.0,0.0,0.0,0.0,0.0018003504956141114,-0.005970711819827557,-0.0,0.0,0.0,0.0,0.0,0.0,0.0,0.0,0.0,0.0,0.0,0.0,0.0,0.0,0.0,0.0,0.0,0.0,0.0,0.0,0.0,0.0,0.0,1.6931705474853516,-0.004915214504655666,-0.049170733806580345,-0.03154715530823999,0.024359896779060364,0.005650226958096027,0.0
236,7,-6.228369602467865e-05,1.5563293345621787e-05,3.461690357653424e-05,-0.008085345849394798,-0.004989845212548971,-0.005621969699859619,0.0,0.0,0.0,0.0,0.0,0.0,0.0,0.0,0.0,-0.00405604112893343,0.0014368233969435096,-0.0,0.0,0.0,0.0,0.0,0.0,0.0,0.0,0.0,0.0,0.0,0.0,0.0,0.0,0.0,0.0,0.0,0.0,0.0,0.0,0.0,0.0,0.0,1.6629953384399414,-0.009110703721765789,-0.050598422136656315,-0.03199101311436622,-0.005757614970207214,-0.012502583675086498,0.0
241,5,-1.7029382433975115e-05,-8.715090189070906e-06,6.5989684117084835e-06,0.0021963792387396097,0.0009174679289571941,0.0011133644729852676,0.0,0.0,0.0,0.0,0.0,0.0,0.0,0.0,0.0,-0.00405604112893343,0.0014368233969435096,-0.0,0.0,0.0,0.0,0.0,0.0,0.0,0.0,0.0,0.0,0.0,0.0,0.0,0.0,0.0,0.0,0.0,0.0,0.0,0.0,0.0,0.0,0.0,1.6629953384399414,-0.006665736423891644,-0.049426338911518,-0.03186048715375541,-0.005757614970207214,-0.012502583675086498,0.0
246,5,2.2979076675255783e-05,-2.865181158995256e-06,-3.377248867764138e-05,0.005679566878825426,-0.0003350019105710089,0.005289921071380377,0.0,0.0,0.0,0.0,0.0,0.0,0.0,0.0,0.0,-0.00405604112893343,0.0014368233969435096,-0.0,0.0,0.0,0.0,0.0,0.0,0.0,0.0,0.0,0.0,0.0,0.0,0.0,0.0,0.0,0.0,0.0,0.0,0.0,0.0,0.0,0.0,0.0,1.6629953384399414,-0.00577025365503371,-0.049196377410305504,-0.03100765532277384,-0.021424531936645508,0.0012399927945807576,0.0
251,5,4.951045411871746e-06,-1.679521483310964e-05,-9.630637578084134e-06,0.00010846303484868258,0.0015376032097265124,-0.0007810539682395756,0.0,0.0,0.0,0.0,0.0,0.0,0.0,0.0,0.0,0.00039733140147291124,0.0052808490581810474,-0.0,0.0,0.0,0.0,0.0,0.0,0.0,0.0,0.0,0.0,0.0,0.0,0.0,0.0,0.0,0.0,0.0,0.0,0.0,0.0,0.0,0.0,0.0,1.6836729049682617,-0.005351062199396833,-0.04916602621762575,-0.031234550030579913,-0.021424531936645508,0.0012399927945807576,0.0
256,5,7.768931027385406e-07,-3.068525984417647e-06,1.2701529158221092e-05,-0.0004575130878947675,-0.0010321612935513258,-0.0029922816902399063,0.0,0.0,0.0,0.0,0.0,0.0,0.0,0.0,0.0,0.00039733140147291124,0.0052808490581810474,-0.0,0.0,0.0,0.0,0.0,0.0,0.0,0.0,0.0,0.0,0.0,0.0,0.0,0.0,0.0,0.0,0.0,0.0,0.0,0.0,0.0,0.0,0.0,1.6836729049682617,-0.004738019281560923,-0.049557768080846026,-0.03188490115400539,-0.021424531936645508,0.0012399927945807576,0.0
261,5,-1.8956372514367104e-05,-7.073680535540916e-06,3.1890322134131566e-05,-0.0025509970728307962,6.775403744541109e-05,-0.0034995677415281534,0.0,0.0,0.0,0.0,0.0,0.0,0.0,0.0,0.0,0.001269744010642171,-0.00043386954348534346,-0.0,0.0,0.0,0.0,0.0,0.0,0.0,0.0,0.0,0.0,0.0,0.0,0.0,0.0,0.0,0.0,0.0,0.0,0.0,0.0,0.0,0.0,0.0,1.6371872425079346,-0.005288722453297198,-0.049610470103658315,-0.03233414896551747,0.001711626653559506,0.003853211412206292,0.0
266,5,1.9532635633368045e-05,-2.6075906134792604e-05,-1.8824764993041754e-05,0.003598282113671303,0.0023073686752468348,0.004685983527451754,0.0,0.0,0.0,0.0,0.0,0.0,0.0,0.0,0.0,0.001269744010642171,-0.00043386954348534346,-0.0,0.0,0.0,0.0,0.0,0.0,0.0,0.0,0.0,0.0,0.0,0.0,0.0,0.0,0.0,0.0,0.0,0.0,0.0,0.0,0.0,0.0,0.0,1.6371872425079346,-0.004161991176623141,-0.049062828111684706,-0.031871117672167444,0.001711626653559506,0.003853211412206292,0.0
271,5,-2.6071074898936786e-05,-1.630768383620307e-05,4.9805101298261434e-05,-0.004033132456243038,-0.00024923920864239335,-0.0063611906953155994,0.0,0.0,0.0,0.0,0.0,0.0,0.0,0.0,0.0,-0.0028425802011042833,0.003380793146789074,-0.0,0.0,0.0,0.0,0.0,0.0,0.0,0.0,0.0,0.0,0.0,0.0,0.0,0.0,0.0,0.0,0.0,0.0,0.0,0.0,0.0,0.0,0.0,1.6695425510406494,-0.006160777329747404,-0.04895059402910573,-0.032285507039734256,-0.013600829988718033,-0.00879665743559599,0.0
276,5,5.690709804184735e-05,-3.005132566613611e-05,-8.748582331463695e-05,0.008344127796590328,0.0015495412517338991,0.013930435292422771,0.0,0.0,0.0,0.0,0.0,0.0,0.0,0.0,0.0,-0.0028425802011042833,0.003380793146789074,-0.0,0.0,0.0,0.0,0.0,0.0,0.0,0.0,0.0,0.0,0.0,0.0,0.0,0.0,0.0,0.0,0.0,0.0,0.0,0.0,0.0,0.0,0.0,1.6695425510406494,-0.004423016747462973,-0.04852189490327045,-0.03139565127732233,-0.013600829988718033,-0.00879665743559599,0.0
281,5,1.629883627174422e-05,-2.171304549847264e-05,-5.480676190927625e-05,-0.0015353403287008405,-0.00038077711360529065,0.0016506864922121167,0.0,0.0,0.0,0.0,0.0,0.0,0.0,0.0,0.0,-0.0018831557827070355,0.007659772410988808,-0.0,0.0,0.0,0.0,0.0,0.0,0.0,0.0,0.0,0.0,0.0,0.0,0.0,0.0,0.0,0.0,0.0,0.0,0.0,0.0,0.0,0.0,0.0,1.7122713327407837,-0.0051294201750062135,-0.04878386715175005,-0.03141697796050077,-0.03160351142287254,-0.005976775195449591,0.0
286,5,-8.270543503385852e-07,-3.059465961996466e-05,-3.465110421529971e-05,-0.0026692429091781378,0.0009134829742833972,-0.0017584044253453612,0.0,0.0,0.0,0.0,0.0,0.0,0.0,0.0,0.0,-0.0018831557827070355,0.007659772410988808,-0.0,0.0,0.0,0.0,0.0,0.0,0.0,0.0,0.0,0.0,0.0,0.0,0.0,0.0,0.0,0.0,0.0,0.0,0.0,0.0,0.0,0.0,0.0,1.7122713327407837,-0.006499379775684766,-0.04881781491242923,-0.03157758312419709,-0.03160351142287254,-0.005976775195449591,0.0
291,5,-1.5572819393128157e-05,-5.1513292419258505e-05,-1.6509549823240377e-05,-0.002837189007550478,0.002875629113987088,-0.002880348125472665,0.0,0.0,0.0,0.0,0.0,0.0,0.0,0.0,0.0,-0.0011721013579517603,-0.002511773956939578,-0.0,0.0,0.0,0.0,0.0,0.0,0.0,0.0,0.0,0.0,0.0,0.0,0.0,0.0,0.0,0.0,0.0,0.0,0.0,0.0,0.0,0.0,0.0,1.6545629501342773,-0.006350906435450033,-0.04898821810656848,-0.03210636509577559,0.010014170780777931,-0.0035946518182754517,0.0
297,5,1.2972952390555292e-05,-4.0129056287696585e-05,9.856949873210397e-06,0.002290616976097226,-0.00021585679496638477,-0.004316119477152824,0.0,0.0,0.0,0.0,0.0,0.0,0.0,0.0,0.0,0.0001922752126120031,0.0021793991327285767,-0.0,0.0,0.0,0.0,0.0,0.0,0.0,0.0,0.0,0.0,0.0,0.0,0.0,0.0,0.0,0.0,0.0,0.0,0.0,0.0,0.0,0.0,0.0,1.649271845817566,-0.005016939110971281,-0.04823841042592239,-0.032188417317880996,-0.008661249652504921,0.0005877926014363766,0.0
302,5,-1.0852353625523392e-05,-4.479602284845896e-05,2.6374420485808514e-05,-0.0019427898805588484,0.00047369327512569726,-0.003708544187247753,0.0,0.0,0.0,0.0,0.0,0.0,0.0,0.0,0.0,0.0001922752126120031,0.0021793991327285767,-0.0,0.0,0.0,0.0,0.0,0.0,0.0,0.0,0.0,0.0,0.0,0.0,0.0,0.0,0.0,0.0,0.0,0.0,0.0,0.0,0.0,0.0,0.0,1.649271845817566,-0.004358811122790451,-0.04856389313512549,-0.03276178158509426,-0.008661249652504921,0.0005877926014363766,0.0
307,5,-8.697225894138683e-06,-3.189248309354298e-05,3.894714609486982e-05,-0.0005185006302781403,-0.0013589474838227034,-0.0029921450186520815,0.0,0.0,0.0,0.0,0.0,0.0,0.0,0.0,0.0,0.0001922752126120031,0.0021793991327285767,-0.0,0.0,0.0,0.0,0.0,0.0,0.0,0.0,0.0,0.0,0.0,0.0,0.0,0.0,0.0,0.0,0.0,0.0,0.0,0.0,0.0,0.0,0.0,1.649271845817566,-0.004283967210377102,-0.04920925860879634,-0.03193552179010867,-0.008661249652504921,0.0005877926014363766,0.0
312,5,4.176895527052693e-05,-2.0158124243607745e-05,2.0405492250574753e-05,0.0058485413901507854,-0.0019517019391059875,0.001028140657581389,0.0,0.0,0.0,0.0,0.0,0.0,0.0,0.0,0.0,0.0016182177932932973,-0.0005040693213231862,-0.0,0.0,0.0,0.0,0.0,0.0,0.0,0.0,0.0,0.0,0.0,0.0,0.0,0.0,0.0,0.0,0.0,0.0,0.0,0.0,0.0,0.0,0.0,1.6401447057724,-0.0038958826705516258,-0.04857945886603733,-0.03207073458233375,0.001992157893255353,0.00491957226768136,0.0
317,5,2.1562631445704028e-05,-9.090166713576764e-06,5.888650775887072e-06,-8.534224616596475e-05,-0.0021088356152176857,0.002153277164325118,0.0,0.0,0.0,0.0,0.0,0.0,0.0,0.0,0.0,0.0016182177932932973,-0.0005040693213231862,-0.0,0.0,0.0,0.0,0.0,0.0,0.0,0.0,0.0,0.0,0.0,0.0,0.0,0.0,0.0,0.0,0.0,0.0,0.0,0.0,0.0,0.0,0.0,1.6401447057724,-0.00810000739466001,-0.050348960011623235,-0.031185262879680094,0.001992157893255353,0.00491957226768136,0.0
322,5,2.6716799766290933e-05,-2.4816516088321805e-05,-3.4758413676172495e-05,0.0005843633553013206,0.0010436277370899916,0.005738958716392517,0.0,0.0,0.0,0.0,0.0,0.0,0.0,0.0,0.0,0.0025736140087246895,-5.0723123422358185e-05,-0.0,0.0,0.0,0.0,0.0,0.0,0.0,0.0,0.0,0.0,0.0,0.0,0.0,0.0,0.0,0.0,0.0,0.0,0.0,0.0,0.0,0.0,0.0,1.6470528841018677,-0.006184409087760558,-0.0488236863609947,-0.03139169147152409,0.00020130937627982348,0.007857033982872963,-0.0
327,5,2.9961498512420803e-05,-3.773889329750091e-05,-2.0518320525297895e-05,0.0006231091101653874,0.001968136290088296,0.0005867723957635462,0.0,0.0,0.0,0.0,0.0,0.0,0.0,0.0,0.0,0.0025736140087246895,-5.0723123422358185e-05,-0.0,0.0,0.0,0.0,0.0,0.0,0.0,0.0,0.0,0.0,0.0,0.0,0.0,0.0,0.0,0.0,0.0,0.0,0.0,0.0,0.0,0.0,0.0,1.6470528841018677,-0.004323328172594839,-0.04823357601979086,-0.0319738889242471,0.00020130937627982348,0.007857033982872963,-0.0
332,5,2.22511007450521e-05,-5.5125230574049056e-05,-3.6654204450314865e-05,-0.0006760040996596217,0.002873614663258195,0.002171014901250601,0.0,0.0,0.0,0.0,0.0,0.0,0.0,0.0,0.0,-0.0024853835348039865,0.0006302028778009117,-0.0,0.0,0.0,0.0,0.0,0.0,0.0,0.0,0.0,0.0,0.0,0.0,0.0,0.0,0.0,0.0,0.0,0.0,0.0,0.0,0.0,0.0,0.0,1.6474080085754395,-0.0039448384148042925,-0.04848335777672649,-0.03179005759131909,-0.002501681912690401,-0.007589310873299837,0.0
337,5,-1.9872579287039116e-05,-4.871416967944242e-05,-4.1080991650233045e-05,-0.005325243342667818,0.0003801187558565289,0.001399620552547276,0.0,0.0,0.0,0.0,0.0,0.0,0.0,0.0,0.0,-0.0024853835348039865,0.0006302028778009117,-0.0,0.0,0.0,0.0,0.0,0.0,0.0,0.0,0.0,0.0,0.0,0.0,0.0,0.0,0.0,0.0,0.0,0.0,0.0,0.0,0.0,0.0,0.0,1.6474080085754395,-0.004121293299766732,-0.04936785699324808,-0.031995211853708655,-0.002501681912690401,-0.007589310873299837,0.0
342,5,-1.3113272871123627e-05,-4.457482282305136e-05,1.6488700111949584e-06,-0.001318980474025011,-0.00034467410296201706,-0.0045677353627979755,0.0,0.0,0.0,0.0,0.0,0.0,0.0,0.0,0.0,-0.0005441948305815458,-0.004959492944180965,-0.0,0.0,0.0,0.0,0.0,0.0,0.0,0.0,0.0,0.0,0.0,0.0,0.0,0.0,0.0,0.0,0.0,0.0,0.0,0.0,0.0,0.0,0.0,1.6801588535308838,-0.005226461949353336,-0.048529694108449206,-0.032353194344337574,0.02007879689335823,-0.0016947798430919647,0.0
347,5,-7.546589586127084e-06,-3.477658538031392e-05,-2.2339543647831306e-05,-0.0016092286678031087,-0.0007622559205628932,-0.001483411411754787,0.0,0.0,0.0,0.0,0.0,0.0,0.0,0.0,0.0,-0.0005441948305815458,-0.004959492944180965,-0.0,0.0,0.0,0.0,0.0,0.0,0.0,0.0,0.0,0.0,0.0,0.0,0.0,0.0,0.0,0.0,0.0,0.0,0.0,0.0,0.0,0.0,0.0,1.6801588535308838,-0.006266768359494602,-0.0490298223356985,-0.03151783121681243,0.02007879689335823,-0.0016947798430919647,0.0
353,5,-7.546589586127084e-06,-3.477658538031392e-05,-2.2339543647831306e-05,-0.0016092286678031087,-0.0007622559205628932,-0.001483411411754787,0.0,0.0,0.0,0.0,0.0,0.0,0.0,0.0,0.0,-0.0005441948305815458,-0.004959492944180965,-0.0,0.0,0.0,0.0,0.0,0.0,0.0,0.0,0.0,0.0,0.0,0.0,0.0,0.0,0.0,0.0,0.0,0.0,0.0,0.0,0.0,0.0,0.0,1.6801588535308838,-0.006266768359494602,-0.0490298223356985,-0.03151783121681243,0.02007879689335823,-0.0016947798430919647,0.0
358,5,-9.116692126553971e-06,-3.891746928275097e-06,1.956774758582469e-05,-0.000832103774882853,-0.004011082928627729,-0.005622239783406258,0.0,0.0,0.0,0.0,0.0,0.0,0.0,0.0,0.0,0.0008749107364565134,-0.0015340229729190469,-0.0,0.0,0.0,0.0,0.0,0.0,0.0,0.0,0.0,0.0,0.0,0.0,0.0,0.0,0.0,0.0,0.0,0.0,0.0,0.0,0.0,0.0,0.0,1.6437379121780396,-0.007784316759374152,-0.049264717889274785,-0.031544209309817696,0.006075975485146046,0.002665660111233592,0.0
363,5,3.4858010621974245e-05,-2.7652411517919973e-05,-3.5863107768818736e-05,0.003576451214030385,0.0005946377641521394,0.0013986550038680434,0.0,0.0,0.0,0.0,0.0,0.0,0.0,0.0,0.0,0.0008749107364565134,-0.0015340229729190469,-0.0,0.0,0.0,0.0,0.0,0.0,0.0,0.0,0.0,0.0,0.0,0.0,0.0,0.0,0.0,0.0,0.0,0.0,0.0,0.0,0.0,0.0,0.0,1.6437379121780396,-0.006006843222462118,-0.04929018666081793,-0.03167430753876134,0.006075975485146046,0.002665660111233592,0.0
368,5,3.4858010621974245e-05,-2.7652411517919973e-05,-3.5863107768818736e-05,0.003576451214030385,0.0005946377641521394,0.0013986550038680434,0.0,0.0,0.0,0.0,0.0,0.0,0.0,0.0,0.0,-0.0007732209051027894,0.003394555998966098,-0.0,0.0,0.0,0.0,0.0,0.0,0.0,0.0,0.0,0.0,0.0,0.0,0.0,0.0,0.0,0.0,0.0,0.0,0.0,0.0,0.0,0.0,0.0,1.6631146669387817,-0.006006843222462118,-0.04929018666081793,-0.03167430753876134,-0.013603671453893185,-0.0023836048785597086,0.0
373,5,5.961185888736509e-05,-3.445187758188695e-05,-5.0078073400072753e-05,0.004401042126119137,0.0010537912603467703,0.0022652579937130213,0.0,0.0,0.0,0.0,0.0,0.0,0.0,0.0,0.0,-0.0013363177422434092,0.004176381975412369,-0.0,0.0,0.0,0.0,0.0,0.0,0.0,0.0,0.0,0.0,0.0,0.0,0.0,0.0,0.0,0.0,0.0,0.0,0.0,0.0,0.0,0.0,0.0,1.6725976467132568,-0.003494362783727296,-0.048629917014356074,-0.032207927526709146,-0.016832241788506508,-0.004142948426306248,0.0
378,5,6.018103249516571e-06,-2.8958855182281695e-05,1.031019928632304e-05,-0.004154329653829336,-0.0009632806177251041,-0.0036062365397810936,0.0,0.0,0.0,0.0,0.0,0.0,0.0,0.0,0.0,-0.0013363177422434092,0.004176381975412369,-0.0,0.0,0.0,0.0,0.0,0.0,0.0,0.0,0.0,0.0,0.0,0.0,0.0,0.0,0.0,0.0,0.0,0.0,0.0,0.0,0.0,0.0,0.0,1.6725976467132568,-0.005999033808185389,-0.049272671937853015,-0.032323181235960216,-0.016832241788506508,-0.004142948426306248,0.0
383,5,2.3045311536407098e-05,-4.069400893058628e-05,-4.908009941573255e-05,0.0003815330856014043,0.0010229061590507627,0.005684341304004192,0.0,0.0,0.0,0.0,0.0,0.0,0.0,0.0,0.0,-0.0013381184544414282,0.00039485233719460666,-0.0,0.0,0.0,0.0,0.0,0.0,0.0,0.0,0.0,0.0,0.0,0.0,0.0,0.0,0.0,0.0,0.0,0.0,0.0,0.0,0.0,0.0,0.0,1.6375502347946167,-0.005642473068736046,-0.048817575883138405,-0.03174655789513459,-0.0015580480685457587,-0.004061603453010321,0.0
388,5,2.3045311536407098e-05,-4.069400893058628e-05,-4.908009941573255e-05,0.0003815330856014043,0.0010229061590507627,0.005684341304004192,0.0,0.0,0.0,0.0,0.0,0.0,0.0,0.0,0.0,-0.0013381184544414282,0.00039485233719460666,-0.0,0.0,0.0,0.0,0.0,0.0,0.0,0.0,0.0,0.0,0.0,0.0,0.0,0.0,0.0,0.0,0.0,0.0,0.0,0.0,0.0,0.0,0.0,1.6375502347946167,-0.005642473068736046,-0.048817575883138405,-0.03174655789513459,-0.0015580480685457587,-0.004061603453010321,0.0
393,5,1.0467189895280171e-05,-4.3459702283144e-05,-3.416630352148786e-05,-0.0007769337389618158,0.0013676001690328121,-0.0002547221665736288,0.0,0.0,0.0,0.0,0.0,0.0,0.0,0.0,0.0,-0.0017639833968132734,-0.0007215570658445358,-0.0,0.0,0.0,0.0,0.0,0.0,0.0,0.0,0.0,0.0,0.0,0.0,0.0,0.0,0.0,0.0,0.0,0.0,0.0,0.0,0.0,0.0,0.0,1.6422406435012817,-0.005694057482928747,-0.048139356835893654,-0.03172346826776732,0.002855345606803894,-0.0053695691749453545,0.0
398,5,-1.3230238437245134e-05,-4.313322278903797e-05,-1.7923232007888146e-05,-0.003154464764520526,0.0005078624235466123,-0.0020510577596724033,0.0,0.0,0.0,0.0,0.0,0.0,0.0,0.0,0.0,-0.0017639833968132734,-0.0007215570658445358,-0.0,0.0,0.0,0.0,0.0,0.0,0.0,0.0,0.0,0.0,0.0,0.0,0.0,0.0,0.0,0.0,0.0,0.0,0.0,0.0,0.0,0.0,0.0,1.6422406435012817,-0.006651554037033114,-0.049602242165365455,-0.03185425095133172,0.002855345606803894,-0.0053695691749453545,0.0
403,5,3.3778069337131456e-05,-4.645778244594112e-05,-1.1003106010321062e-05,0.004379210993647575,0.0006020923028700054,-0.0016508381813764572,0.0,0.0,0.0,0.0,0.0,0.0,0.0,0.0,0.0,-0.0017639833968132734,-0.0007215570658445358,-0.0,0.0,0.0,0.0,0.0,0.0,0.0,0.0,0.0,0.0,0.0,0.0,0.0,0.0,0.0,0.0,0.0,0.0,0.0,0.0,0.0,0.0,0.0,1.6422406435012817,-0.0037467092002872204,-0.04792008625647808,-0.031930797204353434,0.002855345606803894,-0.0053695691749453545,0.0
408,5,3.5723305700230412e-06,-4.4000189518556e-05,-5.987358690617839e-06,-0.001873004250228405,-5.407434582593851e-05,-0.001262224861420691,0.0,0.0,0.0,0.0,0.0,0.0,0.0,0.0,0.0,-0.0008121024002321064,0.0041244300082325935,-0.0,0.0,0.0,0.0,0.0,0.0,0.0,0.0,0.0,0.0,0.0,0.0,0.0,0.0,0.0,0.0,0.0,0.0,0.0,0.0,0.0,0.0,0.0,1.671154499053955,-0.004062215008340854,-0.04924176089216934,-0.03207318346711777,-0.016608525067567825,-0.0025155667681246996,0.0
413,5,3.158739855280146e-05,-3.1958457839209586e-05,-3.769972317968495e-05,0.0026126066222786903,-0.0014666374772787094,0.0033005939330905676,0.0,0.0,0.0,0.0,0.0,0.0,0.0,0.0,0.0,-0.0008121024002321064,0.0041244300082325935,-0.0,0.0,0.0,0.0,0.0,0.0,0.0,0.0,0.0,0.0,0.0,0.0,0.0,0.0,0.0,0.0,0.0,0.0,0.0,0.0,0.0,0.0,0.0,1.671154499053955,-0.003436528241828087,-0.0491329773310847,-0.031255608164301035,-0.016608525067567825,-0.0025155667681246996,0.0
418,5,3.120687688351609e-05,-1.8391740013612434e-05,-3.625256067607552e-05,0.0009993796702474356,-0.0022146611008793116,0.0011465779971331358,0.0,0.0,0.0,0.0,0.0,0.0,0.0,0.0,0.0,0.0017333956202492118,0.0024984495248645544,-0.0,0.0,0.0,0.0,0.0,0.0,0.0,0.0,0.0,0.0,0.0,0.0,0.0,0.0,0.0,0.0,0.0,0.0,0.0,0.0,0.0,0.0,0.0,1.6563535928726196,-0.006509272106144941,-0.04859771746890077,-0.03185283460712909,-0.009971820749342442,0.00532180443406105,0.0
423,5,3.638209091150202e-05,-2.45794599322835e-05,-4.3309421016601846e-05,0.0010207777377218008,-0.00014333805302157998,0.001305454527027905,0.0,0.0,0.0,0.0,0.0,0.0,0.0,0.0,0.0,0.0017333956202492118,0.0024984495248645544,-0.0,0.0,0.0,0.0,0.0,0.0,0.0,0.0,0.0,0.0,0.0,0.0,0.0,0.0,0.0,0.0,0.0,0.0,0.0,0.0,0.0,0.0,0.0,1.6563535928726196,-0.005619547932769216,-0.0491262035241598,-0.03171589634989284,-0.009971820749342442,0.00532180443406105,0.0
429,5,1.8800361431203783e-05,-1.2156182265243842e-06,-5.414700717665255e-05,-0.0017014965415000916,-0.00286099617369473,0.001822692109271884,0.0,0.0,0.0,0.0,0.0,0.0,0.0,0.0,0.0,0.0001318249705946073,0.0010215590009465814,-0.0,0.0,0.0,0.0,0.0,0.0,0.0,0.0,0.0,0.0,0.0,0.0,0.0,0.0,0.0,0.0,0.0,0.0,0.0,0.0,0.0,0.0,0.0,1.636732578277588,-0.009107752196889524,-0.0504407565417553,-0.031128449305529767,-0.004028960596770048,0.0003999299951829016,0.0
434,5,2.013275479839649e-05,-3.1677544029662386e-05,-4.27694758400321e-05,-0.000520711240824312,0.002511032857000828,-0.000636227079667151,0.0,0.0,0.0,0.0,0.0,0.0,0.0,0.0,0.0,0.0001318249705946073,0.0010215590009465814,-0.0,0.0,0.0,0.0,0.0,0.0,0.0,0.0,0.0,0.0,0.0,0.0,0.0,0.0,0.0,0.0,0.0,0.0,0.0,0.0,0.0,0.0,0.0,1.636732578277588,-0.0056569093464870065,-0.0493164992562099,-0.031184523865535413,-0.004028960596770048,0.0003999299951829016,0.0
439,5,2.072143161058193e-06,-1.4392289813258685e-05,-1.0256029781885445e-05,-0.002375558018684387,-0.0010698175756260753,-0.004156104288995266,0.0,0.0,0.0,0.0,0.0,0.0,0.0,0.0,0.0,-0.003132466459646821,-0.00046240261872299016,-0.0,0.0,0.0,0.0,0.0,0.0,0.0,0.0,0.0,0.0,0.0,0.0,0.0,0.0,0.0,0.0,0.0,0.0,0.0,0.0,0.0,0.0,0.0,1.652212142944336,-0.005686157669238452,-0.04900432011248489,-0.031666405906630696,0.001840924029238522,-0.009593111462891102,0.0
444,5,-9.079080882656854e-06,-4.382691622595303e-05,-2.2205138520803303e-05,-0.0022883701603859663,0.0031042280606925488,-0.0002285485970787704,0.0,0.0,0.0,0.0,0.0,0.0,0.0,0.0,0.0,-0.003132466459646821,-0.00046240261872299016,-0.0,0.0,0.0,0.0,0.0,0.0,0.0,0.0,0.0,0.0,0.0,0.0,0.0,0.0,0.0,0.0,0.0,0.0,0.0,0.0,0.0,0.0,0.0,1.652212142944336,-0.005331019531251487,-0.04963200035857147,-0.03210078681017327,0.001840924029238522,-0.009593111462891102,0.0
449,5,-4.385903594084084e-05,-2.965595012938138e-05,2.040885556198191e-05,-0.005088942591100931,-0.00045882465201430023,-0.005205098539590836,0.0,0.0,0.0,0.0,0.0,0.0,0.0,0.0,0.0,-0.0038497913628816605,-0.0021505027543753386,-0.0,0.0,0.0,0.0,0.0,0.0,0.0,0.0,0.0,0.0,0.0,0.0,0.0,0.0,0.0,0.0,0.0,0.0,0.0,0.0,0.0,0.0,0.0,1.6654807329177856,-0.006411906149770158,-0.04895278211026176,-0.03224265862426772,0.008630341850221157,-0.011884568259119987,0.0
454,5,-1.9321423678775318e-05,-2.512268110876903e-05,-2.7984337066300213e-05,0.0009089363738894463,-0.0007275220705196261,0.0037251433823257685,0.0,0.0,0.0,0.0,0.0,0.0,0.0,0.0,0.0,-0.0038497913628816605,-0.0021505027543753386,-0.0,0.0,0.0,0.0,0.0,0.0,0.0,0.0,0.0,0.0,0.0,0.0,0.0,0.0,0.0,0.0,0.0,0.0,0.0,0.0,0.0,0.0,0.0,1.6654807329177856,-0.006457148477553367,-0.04966525488932947,-0.03150698229838395,0.008630341850221157,-0.011884568259119987,0.0
459,5,1.271099790756125e-05,-2.6571018679533154e-05,-2.3746879378450103e-05,0.004207465332001448,-0.00011720841575879604,0.0009815626544877887,0.0,0.0,0.0,0.0,0.0,0.0,0.0,0.0,0.0,9.39684032346122e-05,0.003941800910979509,-0.0,0.0,0.0,0.0,0.0,0.0,0.0,0.0,0.0,0.0,0.0,0.0,0.0,0.0,0.0,0.0,0.0,0.0,0.0,0.0,0.0,0.0,0.0,1.6686087846755981,-0.006344305644735616,-0.048865510632566764,-0.031818783756648,-0.015848930925130844,0.00029063300462439656,0.0
464,5,1.0218700481345877e-05,-2.7349429728928953e-05,2.466535624989774e-05,0.001383910421282053,4.65258963231463e-05,-0.0054168435744941235,0.0,0.0,0.0,0.0,0.0,0.0,0.0,0.0,0.0,9.39684032346122e-05,0.003941800910979509,-0.0,0.0,0.0,0.0,0.0,0.0,0.0,0.0,0.0,0.0,0.0,0.0,0.0,0.0,0.0,0.0,0.0,0.0,0.0,0.0,0.0,0.0,0.0,1.6686087846755981,-0.0044932850006720575,-0.04902582136156153,-0.03221015418718992,-0.015848930925130844,0.00029063300462439656,0.0
469,5,6.3314066210296e-05,-1.969099321286194e-05,-3.17013036692515e-05,0.0069250077940523624,-0.0009004019666463137,0.004597261548042297,-0.0071175238117575645,0.04563083499670029,0.0021259321365505457,0.0010740832658484578,0.0014961179113015532,0.0012885655742138624,0.0,0.0,0.0,0.0010379779851064086,0.0064353360794484615,-0.0,0.0,0.0,0.0,0.0321798250079155,-0.022824233397841454,0.0008611366502009332,1495.0,1495.0,1495.0,1495.0,0.0,0.0,0.0,0.0,0.0,0.0,0.0,0.0,1495.0,1495.0,1495.0,1495.0,1.697216272354126,-0.004356679885226213,-0.04866078817716491,-0.03183738270283607,-0.026318253949284554,0.003265380160883069,0.0
474,5,2.0094425053684972e-05,-2.3264939954970032e-05,-1.204814270749921e-05,-0.0024163534399122,6.871284858789295e-05,-0.0005194745026528835,-0.0071175238117575645,0.04563083499670029,0.0021259321365505457,0.0010740832658484578,0.0014961179113015532,0.0012885655742138624,0.0,0.0,0.0,0.0010379779851064086,0.0064353360794484615,-0.0,0.0,0.0,0.0,0.0321798250079155,-0.022824233397841454,0.0008611366502009332,1495.0,1495.0,1495.0,1495.0,0.0,0.0,0.0,0.0,0.0,0.0,0.0,0.0,1495.0,1495.0,1495.0,1495.0,1.697216272354126,-0.0034035926842920163,-0.04945436890108258,-0.03203577062572513,-0.026318253949284554,0.003265380160883069,0.0
479,5,2.5461263248871546e-06,-3.3306903787888587e-05,2.3960888938745484e-05,-0.0030723372474312782,0.0012325209099799395,-0.004528873600065708,-0.007131609600037336,0.04563591629266739,0.0021396127995103598,-0.0005495332879945636,-0.0013306536711752415,0.0023590493947267532,0.0,0.0,0.0,0.0010379779851064086,0.0064353360794484615,-0.0,0.0,0.0,0.0,0.031948674470186234,-0.045671746134757996,0.0008734368020668626,1495.0,1495.0,1495.0,1495.0,0.0,0.0,0.0,0.0,0.0,0.0,0.0,0.0,1495.0,1495.0,1495.0,1495.0,1.697216272354126,-0.004354282378634204,-0.04899654337796683,-0.03248948990276538,-0.026318253949284554,0.003265380160883069,0.0
484,5,7.094716238498222e-06,-1.81990435521584e-05,-2.130633220076561e-05,-0.0006831041537225246,-0.0013199348468333483,0.00362051697447896,-0.007131609600037336,0.04563591629266739,0.0021396127995103598,-0.0005495332879945636,-0.0013306536711752415,0.0023590493947267532,0.0,0.0,0.0,-0.0015630979323759675,-0.0028773725498467684,-0.0,0.0,0.0,0.0,0.031948674470186234,-0.045671746134757996,0.0008734368020668626,1495.0,1495.0,1495.0,1495.0,0.0,0.0,0.0,0.0,0.0,0.0,0.0,0.0,1495.0,1495.0,1495.0,1495.0,1.6595017910003662,-0.005777614332784195,-0.05032772530971793,-0.03168789988426882,0.011506005190312862,-0.004808085039258003,0.0
490,5,-1.7253245459869504e-05,-1.9228476958232932e-05,5.162432330507727e-07,-0.00319499708712101,-0.0004044419329147786,-0.0011705021606758237,-0.007123386021703482,0.0456593818962574,0.002146584214642644,-0.001262734062038362,0.0037655725609511137,-0.004740584641695023,0.0,0.0,0.0,-0.0015630979323759675,-0.0028773725498467684,-0.0,0.0,0.0,0.0,0.002103776903823018,-0.012471932917833328,0.0001558021904202178,1495.0,1495.0,1495.0,1495.0,0.0,0.0,0.0,0.0,0.0,0.0,0.0,0.0,1495.0,1495.0,1495.0,1495.0,1.6595017910003662,-0.006660579400036968,-0.04971475676485747,-0.03204346493587922,0.011506005190312862,-0.004808085039258003,0.0
495,5,9.588356078893412e-06,-1.8141361579182558e-05,-2.2104322852101177e-05,0.0019429933745414019,-0.0002922306885011494,0.0022462671622633934,-0.007123386021703482,0.0456593818962574,0.002146584214642644,-0.001262734062038362,0.0037655725609511137,-0.004740584641695023,0.0,0.0,0.0,0.00045793509343639016,-0.0030211855191737413,-0.0,0.0,0.0,0.0,0.002103776903823018,-0.012471932917833328,0.0001558021904202178,1495.0,1495.0,1495.0,1495.0,0.0,0.0,0.0,0.0,0.0,0.0,0.0,0.0,1495.0,1495.0,1495.0,1495.0,1.6586556434631348,-0.00550602628445418,-0.04931640204606666,-0.03145369822433049,0.012074936181306839,0.0014078898821026087,0.0
500,5,8.729534783924464e-06,-1.77711590367835e-05,-2.5013472622958943e-05,0.0006741387769579887,-0.00016131665324792266,0.0012476049596443772,-0.007123386021703482,0.0456593818962574,0.002146584214642644,-0.001262734062038362,0.0037655725609511137,-0.004740584641695023,0.0,0.0,0.0,0.00045793509343639016,-0.0030211855191737413,-0.0,0.0,0.0,0.0,0.002103776903823018,-0.012471932917833328,0.0001558021904202178,1495.0,1495.0,1495.0,1495.0,0.0,0.0,0.0,0.0,0.0,0.0,0.0,0.0,1495.0,1495.0,1495.0,1495.0,1.6586556434631348,-0.004909434564970176,-0.049047180896430405,-0.031628697693784374,0.012074936181306839,0.0014078898821026087,0.0
505,5,-1.7972703062696382e-05,-3.151748751406558e-05,-1.2023268936900422e-05,-0.002934612799435854,0.001585032674483955,-0.0010597825748845935,-0.007117212284356356,0.045640330761671066,0.0021204922813922167,0.001909405691549182,0.001751260249875486,-0.0010690228082239628,0.0,0.0,0.0,0.00016656177467666566,0.0006550183752551675,-0.0,0.0,0.0,0.0,0.002103776903823018,-0.012471932917833328,0.0001558021904202178,12689.0,14309.0,14715.0,12826.0,0.3562702536582947,0.45990562438964844,0.4879381060600281,0.36449480056762695,0.0,0.0,0.0,0.0,12834.0,14344.0,14782.0,13036.0,1.6328743696212769,-0.006509832065569401,-0.04889534813695707,-0.03210135090704641,-0.0025772592052817345,0.0005041231634095311,0.0
510,5,8.159266144502908e-06,-4.085707769263536e-05,-3.8442954974016175e-05,0.0019619909580796957,0.0017547637689858675,0.002746449550613761,-0.007117212284356356,0.045640330761671066,0.0021204922813922167,0.001909405691549182,0.001751260249875486,-0.0010690228082239628,0.0,0.0,0.0,0.00016656177467666566,0.0006550183752551675,-0.0,0.0,0.0,0.0,0.002103776903823018,-0.012471932917833328,0.0001558021904202178,12689.0,14309.0,14715.0,12826.0,0.3562702536582947,0.45990562438964844,0.4879381060600281,0.36449480056762695,0.0,0.0,0.0,0.0,12834.0,14344.0,14782.0,13036.0,1.6328743696212769,-0.004836121150782721,-0.04882400641839627,-0.03190714381589406,-0.0025772592052817345,0.0005041231634095311,0.0
515,5,-1.0986839697579853e-05,-4.379842721391469e-05,-1.0222279342997354e-05,-0.00151273631490767,0.0010548676364123821,-0.002287901472300291,-0.007127886638045311,0.04564155265688896,0.0021270851138979197,-0.001960854046046734,0.0026716790162026882,0.0009115843567997217,0.0,0.0,0.0,-0.0022220774553716183,0.0018587500089779496,-0.0,0.0,0.0,0.0,0.0024424437433481216,-0.011811033822596073,0.00024656878667883575,12852.0,14328.0,14804.0,13010.0,0.3660934567451477,0.4611632823944092,0.49419456720352173,0.37576496601104736,0.0,0.0,0.0,0.0,12535.0,14430.0,14792.0,12599.0,1.6529936790466309,-0.004983827001088863,-0.04919822337532894,-0.03228876783857872,-0.007403596770018339,-0.006808293983340263,0.0
520,5,3.936073426302755e-06,-4.9745533033274114e-05,-1.3123094504408073e-05,0.001185655128210783,0.0011355995666235685,-0.0005670628161169589,-0.007127886638045311,0.04564155265688896,0.0021270851138979197,-0.001960854046046734,0.0026716790162026882,0.0009115843567997217,0.0,0.0,0.0,-0.0022220774553716183,0.0018587500089779496,-0.0,0.0,0.0,0.0,0.0024424437433481216,-0.011811033822596073,0.00024656878667883575,12852.0,14328.0,14804.0,13010.0,0.3660934567451477,0.4611632823944092,0.49419456720352173,0.37576496601104736,0.0,0.0,0.0,0.0,12535.0,14430.0,14792.0,12599.0,1.6529936790466309,-0.004010937804488396,-0.04861175686525573,-0.032143198686367995,-0.007403596770018339,-0.006808293983340263,0.0
525,5,3.643038508016616e-05,-2.5602066671126522e-05,-4.6619104978162795e-05,0.004373579286038876,-0.0024429759941995144,0.0037926959339529276,-0.007115252781659365,0.045671794563531876,0.0021038514096289873,0.0009484552429057658,-0.0025974640157073736,-0.005205488298088312,0.0,0.0,0.0,-0.001489273738116026,0.0011288331588730216,-0.0,0.0,0.0,0.0,0.0022043169010430574,-0.014693696051836014,0.00035149892210029066,12466.0,14495.0,14754.0,12638.0,0.34304460883140564,0.4726029336452484,0.4906257688999176,0.35322847962379456,0.0,0.0,0.0,0.0,12485.0,14472.0,14774.0,12621.0,1.6430141925811768,-0.005216426393098323,-0.049484269771799254,-0.03180439309988718,-0.0044691236689686775,-0.004535488784313202,0.0
530,5,5.3816962463315576e-05,-5.883233370695962e-06,-3.7435802369145676e-05,0.003835821058601141,-0.0033434503711760044,0.0004150821769144386,-0.007115252781659365,0.045671794563531876,0.0021038514096289873,0.0009484552429057658,-0.0025974640157073736,-0.005205488298088312,0.0,0.0,0.0,-0.001489273738116026,0.0011288331588730216,-0.0,0.0,0.0,0.0,0.0022043169010430574,-0.014693696051836014,0.00035149892210029066,12466.0,14495.0,14754.0,12638.0,0.34304460883140564,0.4726029336452484,0.4906257688999176,0.35322847962379456,0.0,0.0,0.0,0.0,12485.0,14472.0,14774.0,12621.0,1.6430141925811768,-0.005239089958550528,-0.049302139464452485,-0.03135791542885137,-0.0044691236689686775,-0.004535488784313202,0.0
535,5,3.2492695027031004e-05,-2.052034005828318e-06,-3.1525858048553346e-06,-0.001024583587422967,-0.001797124044969678,-0.003947953227907419,-0.0071019879542291164,0.045711539685726166,0.002107955515384674,0.001904781791381538,-0.0015660978388041258,9.600001794751734e-05,0.0,0.0,0.0,0.004020025487989187,0.00363145861774683,-0.0,0.0,0.0,0.0,0.0021760014351457357,-0.013503984548151493,0.00019071502902079374,12495.0,14391.0,14851.0,12600.0,0.3447418808937073,0.46549075841903687,0.49746036529541016,0.35096263885498047,0.0,0.0,0.0,0.0,12434.0,14256.0,14652.0,12616.0,1.6778385639190674,-0.006012597237057474,-0.04947525160187366,-0.031118946770413287,-0.014681779779493809,0.012502170167863369,0.0
541,5,3.125610601273365e-05,-1.3116461559548043e-05,-3.214037178622675e-06,-0.0005582244484685361,0.0006088817026466131,-0.0015718070790171623,-0.0071019879542291164,0.045711539685726166,0.002107955515384674,0.001904781791381538,-0.0015660978388041258,9.600001794751734e-05,0.0,0.0,0.0,0.004020025487989187,0.00363145861774683,-0.0,0.0,0.0,0.0,0.0021760014351457357,-0.013503984548151493,0.00019071502902079374,12495.0,14391.0,14851.0,12600.0,0.3447418808937073,0.46549075841903687,0.49746036529541016,0.35096263885498047,0.0,0.0,0.0,0.0,12434.0,14256.0,14652.0,12616.0,1.6778385639190674,-0.005197350333784339,-0.04949190259121411,-0.031412208394020986,-0.014681779779493809,0.012502170167863369,0.0
546,5,2.4180388209060766e-05,-1.648769830353558e-05,-4.5183958718553185e-05,-0.0010723758023232222,0.0006481010350398719,0.004407667554914951,-0.007111960090696812,0.0457046814262867,0.0020962716080248356,-5.014090129407123e-05,0.00261176866479218,-0.0029445705004036427,0.0,0.0,0.0,-0.0007788419025018811,-0.00048760362551547587,-0.0,0.0,0.0,0.0,0.0021760014351457357,-0.013503984548151493,0.00019071502902079374,12437.0,14257.0,14641.0,12625.0,0.341318279504776,0.45634880661964417,0.4827435314655304,0.3524637520313263,0.0,0.0,0.0,0.0,12423.0,14262.0,14640.0,12634.0,1.6340012550354004,-0.005544471080484786,-0.049357562892982695,-0.031438469364930784,0.0019198666559532285,-0.0023589034099131823,0.0
551,5,-1.6417167216786765e-06,-3.7548161344602704e-05,-2.5358393031638116e-05,-0.003527602879330516,0.0027864957228302956,-0.000616000615991652,-0.007111960090696812,0.0457046814262867,0.0020962716080248356,-5.014090129407123e-05,0.00261176866479218,-0.0029445705004036427,0.0,0.0,0.0,-0.0007788419025018811,-0.00048760362551547587,-0.0,0.0,0.0,0.0,0.0021760014351457357,-0.013503984548151493,0.00019071502902079374,12437.0,14257.0,14641.0,12625.0,0.341318279504776,0.45634880661964417,0.4827435314655304,0.3524637520313263,0.0,0.0,0.0,0.0,12423.0,14262.0,14640.0,12634.0,1.6340012550354004,-0.004219329676522101,-0.048806023135188226,-0.03259514807053143,0.0019198666559532285,-0.0023589034099131823,0.0
556,5,-1.1208889191038907e-05,-2.890806172217708e-05,2.0295258309488418e-06,-0.0025591019075363874,7.778662256896496e-05,-0.003532950533553958,-0.007101790979504585,0.04568859934806824,0.002098815981298685,0.004275912418961525,0.00048154289834201336,0.002949733519926667,0.0,0.0,0.0,-0.0034401179291307926,-0.0032858867198228836,-0.0,0.0,0.0,0.0,0.0014442679239436984,-0.01316597405821085,0.00027662201318889856,12668.0,14302.0,14702.0,12610.0,0.35498571395874023,0.45941638946533203,0.48701900243759155,0.35157257318496704,0.0,0.0,0.0,0.0,12613.0,14343.0,14659.0,12669.0,1.6716870069503784,-0.004736326114402613,-0.04926302208987126,-0.03164152252187383,0.013235979713499546,-0.010659461840987206,0.0
561,5,1.1714655556716025e-05,-3.7983762013027444e-05,-1.7974520233110525e-05,0.0017271846299991012,0.001120198518037796,0.0009873054223135114,-0.007101790979504585,0.04568859934806824,0.002098815981298685,0.004275912418961525,0.00048154289834201336,0.002949733519926667,0.0,0.0,0.0,-0.0034401179291307926,-0.0032858867198228836,-0.0,0.0,0.0,0.0,0.0014442679239436984,-0.01316597405821085,0.00027662201318889856,12668.0,14302.0,14702.0,12610.0,0.35498571395874023,0.45941638946533203,0.48701900243759155,0.35157257318496704,0.0,0.0,0.0,0.0,12613.0,14343.0,14659.0,12669.0,1.6716870069503784,-0.004824498707852516,-0.049474049662638776,-0.031687389945982254,0.013235979713499546,-0.010659461840987206,0.0
566,5,2.1122747057233937e-05,-2.5631514290580526e-05,-4.1921761294361204e-05,0.001819844706915319,-0.0010341901797801256,0.003268590895459056,-0.007112860679626465,0.04570598900318146,0.0020991184283047915,-0.0013253031065687537,0.0010693402728065848,-9.075557500182185e-06,0.0,0.0,0.0,-0.0034401179291307926,-0.0032858867198228836,-0.0,0.0,0.0,0.0,0.0033519980497658253,-0.01269492693245411,0.00027074056561104953,12657.0,14247.0,14864.0,12907.0,0.3543323874473572,0.45568567514419556,0.4983893632888794,0.36943113803863525,0.0,0.0,0.0,0.0,12516.0,14324.0,14635.0,12649.0,1.6716870069503784,-0.004787463111760307,-0.04841779104481803,-0.031099882929235552,-0.006942227482795715,0.003733562072739005,0.0
571,5,3.035149711649865e-05,-2.3972714188857935e-05,-1.3576942365034483e-05,0.0018353878986090422,-0.0006127320812083781,-0.002093941904604435,-0.0071130492724478245,0.045705825090408325,0.002101742895320058,-0.0006783875287510455,0.0015757945366203785,0.0016361124580726027,0.0,0.0,0.0,0.0012229018611833453,0.001749137882143259,-0.0,0.0,0.0,0.0,0.0019971022848039865,-0.013943864963948727,0.00021198492322582752,12460.0,14274.0,14690.0,12544.0,0.3426807224750519,0.45753154158592224,0.4861331880092621,0.3476558029651642,0.0,0.0,0.0,0.0,12619.0,14276.0,14835.0,12945.0,1.6471130847930908,-0.0045079651287343,-0.04870438656410411,-0.03139909912246446,-0.006942227482795715,0.003733562072739005,0.0
576,5,3.731163087650202e-05,-1.9539940694812685e-05,-2.343570849916432e-05,0.0015693714376538992,-0.00077702576527372,0.0003454752149991691,-0.0071130492724478245,0.045705825090408325,0.002101742895320058,-0.0006783875287510455,0.0015757945366203785,0.0016361124580726027,0.0,0.0,0.0,0.0012229018611833453,0.001749137882143259,-0.0,0.0,0.0,0.0,0.0019971022848039865,-0.013943864963948727,0.00021198492322582752,12460.0,14274.0,14690.0,12544.0,0.3426807224750519,0.45753154158592224,0.4861331880092621,0.3476558029651642,0.0,0.0,0.0,0.0,12619.0,14276.0,14835.0,12945.0,1.6471130847930908,-0.005531031528659347,-0.04947686104369004,-0.03100201733520735,-0.006942227482795715,0.003733562072739005,0.0
581,5,1.156224334408762e-05,-2.9645450922544114e-05,-2.257275127703906e-06,-0.00246217823587358,0.0009018508717417717,-0.0024032220244407654,-0.007142446469515562,0.04570895433425903,0.0020951677579432726,0.0004991123569197953,-0.000167242789757438,0.0015611541457474232,0.0,0.0,0.0,0.0009197593317367136,0.0015379202086478472,-0.0,0.0,0.0,0.0,0.0011516502127051353,-0.014741992577910423,0.00029401667416095734,12626.0,14506.0,14829.0,12582.0,0.35247135162353516,0.47336769104003906,0.49595504999160767,0.34989291429519653,0.0,0.0,0.0,0.0,12492.0,14259.0,14706.0,12511.0,1.6439297199249268,-0.004879288488520049,-0.04890905315123934,-0.03216890171809252,-0.0060921222902834415,0.0028026308864355087,0.0
586,5,2.479527029208839e-05,-2.9267412173794582e-05,2.559588938311208e-05,0.0006030919612385333,0.0003153758589178324,-0.00430366862565279,-0.007142446469515562,0.04570895433425903,0.0020951677579432726,0.0004991123569197953,-0.000167242789757438,0.0015611541457474232,0.0,0.0,0.0,0.0009197593317367136,0.0015379202086478472,-0.0,0.0,0.0,0.0,0.0011516502127051353,-0.014741992577910423,0.00029401667416095734,12626.0,14506.0,14829.0,12582.0,0.35247135162353516,0.47336769104003906,0.49595504999160767,0.34989291429519653,0.0,0.0,0.0,0.0,12492.0,14259.0,14706.0,12511.0,1.6439297199249268,-0.003856919673840861,-0.04853464573943005,-0.03231431590794996,-0.0060921222902834415,0.0028026308864355087,0.0
592,5,1.0213409950665664e-05,-2.325371497136075e-05,2.5979130441555753e-05,-0.0015085863415151834,-0.0005954934749752283,-0.0017674562986940145,-0.007142446469515562,0.04570895433425903,0.0020951677579432726,0.0004991123569197953,-0.000167242789757438,0.0015611541457474232,0.0,0.0,0.0,-0.00044511229498311877,0.0006097940495237708,-0.0,0.0,0.0,0.0,0.0011516502127051353,-0.014741992577910423,0.00029401667416095734,12626.0,14506.0,14829.0,12582.0,0.35247135162353516,0.47336769104003906,0.49595504999160767,0.34989291429519653,0.0,0.0,0.0,0.0,12492.0,14259.0,14706.0,12511.0,1.6332166194915771,-0.005121943361096412,-0.04926636258657788,-0.03220484824630934,-0.0023998208343982697,-0.001347478711977601,0.0
597,5,-3.960171670769341e-05,-2.336665966140572e-05,2.7407417292124592e-05,-0.006581250112503767,-0.00022464393987320364,-0.0008783770608715713,-0.0071466220542788506,0.0457034669816494,0.0021192985586822033,0.00048786995466798544,-0.002046162262558937,0.0023159231059253216,0.0,0.0,0.0,-0.00044511229498311877,0.0006097940495237708,-0.0,0.0,0.0,0.0,0.0025873698759824038,-0.013361433520913124,0.0002834936894942075,12535.0,14231.0,14750.0,12669.0,0.34711748361587524,0.454558789730072,0.49037396907806396,0.3550628423690796,0.0,0.0,0.0,0.0,12582.0,14548.0,14783.0,12631.0,1.6332166194915771,-0.0045241403128622425,-0.0493763822320462,-0.0325159033750792,-0.0023998208343982697,-0.001347478711977601,0.0
602,5,8.310975317726843e-06,-1.9568857169360854e-05,-5.744725785916671e-05,0.003117023268714547,-0.0005455937935039401,0.009831210598349571,-0.00714779132977128,0.04571140930056572,0.0021021964494138956,0.004922587890177965,0.00032008724519982934,-0.01951264962553978,0.0,0.0,0.0,0.00022625531710218638,-0.006103026680648327,-0.0,0.0,0.0,0.0,0.0024961293675005436,-0.013363459147512913,0.0002575929102022201,12353.0,14381.0,14587.0,12813.0,0.3364156186580658,0.4647839367389679,0.4789820611476898,0.36374810338020325,0.0,0.0,0.0,0.0,12555.0,14217.0,14750.0,12665.0,1.6929001808166504,-0.005453051359667813,-0.049500885708274475,-0.03116619221749113,0.02489578351378441,0.0007099678623490036,0.0
607,5,-2.2175395315571222e-06,-1.0861436749109998e-05,-6.104979547671974e-05,-1.6612479157629423e-05,-0.0012631280114874244,0.00436478853225708,-0.00714779132977128,0.04571140930056572,0.0021021964494138956,0.004922587890177965,0.00032008724519982934,-0.01951264962553978,0.0,0.0,0.0,0.00022625531710218638,-0.006103026680648327,-0.0,0.0,0.0,0.0,0.0024961293675005436,-0.013363459147512913,0.0002575929102022201,12353.0,14381.0,14587.0,12813.0,0.3364156186580658,0.4647839367389679,0.4789820611476898,0.36374810338020325,0.0,0.0,0.0,0.0,12555.0,14217.0,14750.0,12665.0,1.6929001808166504,-0.006456908596403559,-0.04946183245501945,-0.03161107116356949,0.02489578351378441,0.0007099678623490036,0.0
612,5,1.3303704690770246e-05,-1.7556934835738502e-05,-5.070191400591284e-05,0.0018559042364358902,0.00029820858617313206,0.0005041695549152792,-0.00714779132977128,0.04571140930056572,0.0021021964494138956,0.004922587890177965,0.00032008724519982934,-0.01951264962553978,0.0,0.0,0.0,0.00153873092494905,-1.8436523532727733e-05,-0.0,0.0,0.0,0.0,0.0024961293675005436,-0.013363459147512913,0.0002575929102022201,12353.0,14381.0,14587.0,12813.0,0.3364156186580658,0.4647839367389679,0.4789820611476898,0.36374810338020325,0.0,0.0,0.0,0.0,12555.0,14217.0,14750.0,12665.0,1.6384268999099731,-0.004949529440166007,-0.0493969875306925,-0.031224992244572293,7.278761040652171e-05,0.004673023708164692,0.0
617,5,-4.3456479033920914e-05,-3.6507167351373937e-06,4.6970144467195496e-05,-0.006068860646337271,-0.0015494627878069878,-0.01151897944509983,-0.007160213775932789,0.04572584480047226,0.002150494372472167,0.0015508454525843263,-0.015027118846774101,0.001933591440320015,0.0,0.0,0.0,0.00153873092494905,-1.8436523532727733e-05,-0.0,0.0,0.0,0.0,0.0025838357396423817,-0.013535439036786556,0.0005434409249573946,12428.0,14278.0,14690.0,12559.0,0.3407808244228363,0.45777907967567444,0.4861616790294647,0.3484950363636017,0.0,0.0,0.0,0.0,12648.0,14112.0,14853.0,12333.0,1.6384268999099731,-0.007140607994153552,-0.050123506063011525,-0.032433664335656726,7.278761040652171e-05,0.004673023708164692,0.0
622,5,1.3868755559087731e-05,-4.076886034454219e-05,8.547081051801797e-06,0.004451483953744173,0.0038343919441103935,3.1759561807120917e-06,-0.007160213775932789,0.04572584480047226,0.002150494372472167,0.0015508454525843263,-0.015027118846774101,0.001933591440320015,0.0,0.0,0.0,0.0018475265242159367,-0.005647885613143444,-0.0,0.0,0.0,0.0,0.0025838357396423817,-0.013535439036786556,0.0005434409249573946,12428.0,14278.0,14690.0,12559.0,0.3407808244228363,0.45777907967567444,0.4861616790294647,0.3484950363636017,0.0,0.0,0.0,0.0,12648.0,14112.0,14853.0,12333.0,1.6897077560424805,-0.004127933049602204,-0.04874238836603087,-0.03157762890618391,0.022995684295892715,0.005786425434052944,0.0
627,5,1.5418825569213368e-05,-1.8102495232596993e-05,4.4308741053100675e-05,0.0019666021689772606,-0.0011862068204209208,-0.004290128592401743,-0.0070816520601511,0.04584049805998802,0.002149332081899047,0.008649490773677826,0.010335328988730907,-0.019033130258321762,0.0,0.0,0.0,0.0018475265242159367,-0.005647885613143444,-0.0,0.0,0.0,0.0,0.0019680282566696405,-0.013863901607692242,-3.609103077906184e-05,12330.0,14792.0,14811.0,12913.0,0.3350692391395569,0.49334555864334106,0.49465543031692505,0.3698299527168274,0.0,0.0,0.0,0.0,12617.0,14549.0,15029.0,12659.0,1.6897077560424805,-0.004288804197751742,-0.049387374352077615,-0.03216143747727248,0.022995684295892715,0.005786425434052944,0.0
