timestamp,dt,pos_x,pos_y,pos_z,vel_x,vel_y,vel_z,roll,pitch,yaw,agv_x,agv_y,agv_z,x_ref,y_ref,z_ref,roll_ref,pitch_ref,yaw_ref,x_vel_ref,y_vel_ref,z_vel_ref,x_torque,y_torque,z_torque,w0,w1,w2,w3,u0,u1,u2,u3,m0req,m1req,m2req,m3req,thrust0,thrust1,thrust2,thrust3,thrust_ref,roll_vicon,pitch_vicon,yaw_vicon,acc_x,acc_y,acc_z
5,5,0.0,0.0,0.0,-0.000938713492359966,0.0032162752468138933,0.002008664421737194,0.01719522476196289,0.08151364326477051,0.013205409049987793,-0.001118431449867785,0.0037045085337013006,0.0015375134535133839,0.0,0.0,0.0,-0.0038353451527655125,-0.0008610775112174451,-0.0,0.0,0.0,0.0,-0.023283284157514572,-0.10908693075180054,0.006111983675509691,1495.0,1495.0,1495.0,1495.0,0.0,0.0,0.0,0.0,0.0,0.0,0.0,0.0,1495.0,1495.0,1495.0,1495.0,1.6965763568878174,-0.086390147176189,0.02563210989152338,0.057410527834881084,0.0035201755817979574,-0.012061032466590405,0.0
29,24,0.0,0.0,0.0,-0.000326696754200384,0.0004490972205530852,0.0016809188527986407,0.01719162054359913,0.08151192963123322,0.013202240690588951,0.0031865399796515703,0.007262237835675478,0.0032653738744556904,0.0,0.0,0.0,-0.0038353451527655125,-0.0008610775112174451,-0.0,0.0,0.0,0.0,-0.0229699295014143,-0.10959406197071075,0.005880814976990223,1495.0,1495.0,1495.0,1495.0,0.0,0.0,0.0,0.0,0.0,0.0,0.0,0.0,1495.0,1495.0,1495.0,1495.0,1.6965763568878174,-0.08630040307397589,0.026425428910965852,0.05715073481574404,0.0035201755817979574,-0.012061032466590405,0.0
43,14,0.0,0.0,0.0,0.00040539714973419905,0.001083998242393136,0.001614374341443181,0.017178857699036598,0.0815163403749466,0.013221627101302147,-0.0027911344077438116,0.01012549176812172,-0.002993937348946929,0.0,0.0,0.0,-0.0012923900503665209,0.0003717941290233284,-0.0,0.0,0.0,0.0,-0.0229699295014143,-0.10959406197071075,0.005880814976990223,1495.0,1495.0,1495.0,1495.0,0.0,0.0,0.0,0.0,0.0,0.0,0.0,0.0,1495.0,1495.0,1495.0,1495.0,1.6969064474105835,-0.08654306727275918,0.026764871848605265,0.057280066362777576,-0.001520239282399416,-0.004064993467181921,0.0
50,7,0.0,0.0,0.0,-0.0016000150935724378,0.00026174940285272896,-0.0026666694320738316,0.017178857699036598,0.0815163403749466,0.013221627101302147,-0.0027911344077438116,0.01012549176812172,-0.002993937348946929,0.0,0.0,0.0,-0.0012923900503665209,0.0003717941290233284,-0.0,0.0,0.0,0.0,-0.0229699295014143,-0.10959406197071075,0.005880814976990223,1495.0,1495.0,1495.0,1495.0,0.0,0.0,0.0,0.0,0.0,0.0,0.0,0.0,1495.0,1495.0,1495.0,1495.0,1.6969064474105835,-0.08669217731289092,0.026754062120574403,0.05695723889248532,-0.001520239282399416,-0.004064993467181921,0.0
55,5,0.0,0.0,0.0,0.0007842428749427199,0.0015031725633889437,0.0006963677587918937,0.017178857699036598,0.0815163403749466,0.013221627101302147,-0.0027911344077438116,0.01012549176812172,-0.002993937348946929,0.0,0.0,0.0,-0.0017921470571309328,0.000719237606972456,-0.0,0.0,0.0,0.0,-0.02314283512532711,-0.10984005779027939,0.005821726284921169,1495.0,1495.0,1495.0,1495.0,0.0,0.0,0.0,0.0,0.0,0.0,0.0,0.0,1495.0,1495.0,1495.0,1495.0,1.6969081163406372,-0.08643701620758108,0.026186289015480313,0.05747104777964618,-0.002940910868346691,-0.005636896938085556,0.0
63,7,0.0,0.0,0.0,-0.00015766460273880512,-2.619080987642519e-06,-0.0005538214463740587,0.017178857699036598,0.0815163403749466,0.013221627101302147,-0.0027911344077438116,0.01012549176812172,-0.002993937348946929,0.0,0.0,0.0,-0.0017921470571309328,0.000719237606972456,-0.0,0.0,0.0,0.0,-0.02314283512532711,-0.10984005779027939,0.005821726284921169,1495.0,1495.0,1495.0,1495.0,0.0,0.0,0.0,0.0,0.0,0.0,0.0,0.0,1495.0,1495.0,1495.0,1495.0,1.6969081163406372,-0.08653002942853844,0.02665004423307526,0.057307500058505705,-0.002940910868346691,-0.005636896938085556,0.0
68,5,0.0,0.0,0.0,-4.195097517367685e-06,-0.0008396397461183369,-0.0015617308672517538,0.01718328148126602,0.08148176223039627,0.013205118477344513,0.0029436899349093437,0.010142473503947258,-0.0026488862931728363,0.0,0.0,0.0,0.0010012605926021934,-3.848158030450577e-06,-0.0,0.0,0.0,0.0,-0.023301351815462112,-0.1092633381485939,0.006002876907587051,1495.0,1495.0,1495.0,1495.0,0.0,0.0,0.0,0.0,0.0,0.0,0.0,0.0,1495.0,1495.0,1495.0,1495.0,1.6965579986572266,-0.08614505801924899,0.02733774397469152,0.05704175820946788,1.5731615349068306e-05,0.0031486491207033396,0.0
75,7,9.749514902068768e-06,-1.6079782653832808e-05,-3.956586078857072e-05,0.0011682637268677354,0.0015937179559841752,0.004123210906982422,0.01718328148126602,0.08148176223039627,0.013205118477344513,0.0029436899349093437,0.010142473503947258,-0.0026488862931728363,0.0,0.0,0.0,0.0010012605926021934,-3.848158030450577e-06,-0.0,0.0,0.0,0.0,-0.023301351815462112,-0.1092633381485939,0.006002876907587051,1495.0,1495.0,1495.0,1495.0,0.0,0.0,0.0,0.0,0.0,0.0,0.0,0.0,1495.0,1495.0,1495.0,1495.0,1.6965579986572266,-0.0858238402276627,0.02602180421204169,0.057362166987493544,1.5731615349068306e-05,0.0031486491207033396,0.0
80,5,3.804734433288104e-06,-1.5777322914800607e-05,-2.1096968339406885e-05,-0.000246068142587319,0.0006011921213939786,-0.000566982664167881,0.01716475374996662,0.0815005749464035,0.013204626739025116,-0.00015097419964149594,0.0033790243323892355,0.003414462087675929,0.0,0.0,0.0,0.0010012605926021934,-3.848158030450577e-06,-0.0,0.0,0.0,0.0,-0.023351581767201424,-0.10979942977428436,0.006072915159165859,1495.0,1495.0,1495.0,1495.0,0.0,0.0,0.0,0.0,0.0,0.0,0.0,0.0,1495.0,1495.0,1495.0,1495.0,1.6965579986572266,-0.08682085443667414,0.02653426966708566,0.057428660208649014,1.5731615349068306e-05,0.0031486491207033396,0.0
85,5,1.4335128071252257e-05,-8.65654965309659e-06,-4.654276926885359e-05,0.0011652199318632483,-0.0006140159675851464,0.0028267032466828823,0.01716475374996662,0.0815005749464035,0.013204626739025116,-0.00015097419964149594,0.0033790243323892355,0.003414462087675929,0.0,0.0,0.0,-0.0007445309893228114,-0.00022059734328649938,-0.0,0.0,0.0,0.0,-0.023351581767201424,-0.10979942977428436,0.006072915159165859,1495.0,1495.0,1495.0,1495.0,0.0,0.0,0.0,0.0,0.0,0.0,0.0,0.0,1495.0,1495.0,1495.0,1495.0,1.696547269821167,-0.08582625605257514,0.026325838236234085,0.057308479202623795,0.0009018161799758673,-0.0023413009475916624,0.0
90,5,-5.555336429097224e-06,-1.473517727390572e-06,-6.171090717543848e-06,-0.001920767710544169,-0.0011075702495872974,-0.003713920246809721,0.017179036512970924,0.08151106536388397,0.013223890215158463,-0.0021284508984535933,0.0031804481986910105,-0.002532974584028125,0.0,0.0,0.0,-0.0007445309893228114,-0.00022059734328649938,-0.0,0.0,0.0,0.0,-0.023260094225406647,-0.109618179500103,0.005575258284807205,1495.0,1495.0,1495.0,1495.0,0.0,0.0,0.0,0.0,0.0,0.0,0.0,0.0,1495.0,1495.0,1495.0,1495.0,1.696547269821167,-0.08659637263103602,0.026530344321796146,0.05703650285692098,0.0009018161799758673,-0.0023413009475916624,0.0
95,5,-1.7608876135000173e-07,-1.9570971687699057e-07,-4.599063686328009e-06,-0.00012279738439247012,-0.0005963650764897466,-0.0016742113512009382,0.017179036512970924,0.08151106536388397,0.013223890215158463,-0.0021284508984535933,0.0031804481986910105,-0.002532974584028125,0.0,0.0,0.0,0.0013178588123992085,-0.0017689794767647982,-0.0,0.0,0.0,0.0,-0.023260094225406647,-0.109618179500103,0.005575258284807205,1495.0,1495.0,1495.0,1495.0,0.0,0.0,0.0,0.0,0.0,0.0,0.0,0.0,1495.0,1495.0,1495.0,1495.0,1.696956753730774,-0.08558403701086426,0.02796917805624207,0.057013885233417175,0.007233439479023218,0.004145223647356033,0.0
100,5,1.5733143300167285e-05,-1.7933693015947938e-05,-6.345328438328579e-05,0.0018599889008328319,0.001890011946670711,0.006392821669578552,0.01719021052122116,0.08147955685853958,0.013215853832662106,0.005019987467676401,0.006508144550025463,-0.0018854469526559114,0.0,0.0,0.0,0.0013178588123992085,-0.0017689794767647982,-0.0,0.0,0.0,0.0,-0.023498810827732086,-0.10908035188913345,0.005795113276690245,1495.0,1495.0,1495.0,1495.0,0.0,0.0,0.0,0.0,0.0,0.0,0.0,0.0,1495.0,1495.0,1495.0,1495.0,1.696956753730774,-0.08560912128408012,0.026592551047683377,0.057220039988522785,0.007233439479023218,0.004145223647356033,0.0
105,5,1.3593540870715515e-07,-3.6762933177669765e-06,-3.253400427638553e-05,-0.0011276693549007177,-0.0009548831731081009,-0.0011531849158927798,0.01719021052122116,0.08147955685853958,0.013215853832662106,0.005019987467676401,0.006508144550025463,-0.0018854469526559114,0.0,0.0,0.0,-0.002284912159666419,0.0017271126853302121,-0.0,0.0,0.0,0.0,-0.023498810827732086,-0.10908035188913345,0.005795113276690245,1495.0,1495.0,1495.0,1495.0,0.0,0.0,0.0,0.0,0.0,0.0,0.0,0.0,1495.0,1495.0,1495.0,1495.0,1.6967902183532715,-0.08621850356629075,0.026824540155778367,0.05718045804080853,-0.007061539683490992,-0.0071863033808767796,0.0
110,5,1.753604919940699e-05,-2.5886711227940395e-05,-6.39148274785839e-05,0.0016369458753615618,0.002283297013491392,0.0033044246956706047,0.01718272641301155,0.0814734548330307,0.013207157142460346,-0.002591607626527548,0.004635508172214031,-0.0020839052740484476,0.0,0.0,0.0,-0.002768071601167321,0.0015251482836902142,-0.0,0.0,0.0,0.0,-0.023010004311800003,-0.10934800654649734,0.005904708988964558,1495.0,1495.0,1495.0,1495.0,0.0,0.0,0.0,0.0,0.0,0.0,0.0,0.0,1495.0,1495.0,1495.0,1495.0,1.696608543395996,-0.08531275914479806,0.02627416499920827,0.05751250725533716,-0.006235105451196432,-0.008704954758286476,0.0
115,5,8.000844786693051e-07,-2.645949280122295e-05,-3.262563768657856e-05,-0.0013535373145714402,0.0009820524137467146,-0.002432932611554861,0.01718272641301155,0.0814734548330307,0.013207157142460346,-0.002591607626527548,0.004635508172214031,-0.0020839052740484476,0.0,0.0,0.0,-0.002768071601167321,0.0015251482836902142,-0.0,0.0,0.0,0.0,-0.023010004311800003,-0.10934800654649734,0.005904708988964558,1495.0,1495.0,1495.0,1495.0,0.0,0.0,0.0,0.0,0.0,0.0,0.0,0.0,1495.0,1495.0,1495.0,1495.0,1.696608543395996,-0.08643805378462188,0.026073432207124585,0.05757147971465384,-0.006235105451196432,-0.008704954758286476,0.0
121,5,3.7239694847812643e-06,-3.7631457416864578e-06,1.1935189832001925e-05,-0.00019054875883739442,-0.0023307406809180975,-0.006320472341030836,0.017199331894516945,0.08147323131561279,0.013167188502848148,0.0008552921935915947,0.002959199482575059,-0.002504601376131177,0.0,0.0,0.0,-0.002768071601167321,0.0015251482836902142,-0.0,0.0,0.0,0.0,-0.02308427356183529,-0.10850170254707336,0.005902438424527645,1495.0,1495.0,1495.0,1495.0,0.0,0.0,0.0,0.0,0.0,0.0,0.0,0.0,1495.0,1495.0,1495.0,1495.0,1.696608543395996,-0.0866331861575348,0.027359285449321712,0.056759438163427725,-0.006235105451196432,-0.008704954758286476,0.0
126,5,8.03998034371034e-07,-1.5014537893875968e-05,1.2106543181289453e-05,-0.0006477966089732945,-8.265978249255568e-05,-0.0018841717392206192,0.017199331894516945,0.08147323131561279,0.013167188502848148,0.0008552921935915947,0.002959199482575059,-0.002504601376131177,0.0,0.0,0.0,0.0027740299701690674,-0.00016982985835056752,-0.0,0.0,0.0,0.0,-0.02308427356183529,-0.10850170254707336,0.005902438424527645,1495.0,1495.0,1495.0,1495.0,0.0,0.0,0.0,0.0,0.0,0.0,0.0,0.0,1495.0,1495.0,1495.0,1495.0,1.6957646608352661,-0.08656521119948604,0.026926486381256807,0.05726792437230658,0.000693952664732933,0.008719353005290031,0.0
131,5,8.03998034371034e-07,-1.5014537893875968e-05,1.2106543181289453e-05,-0.0006477966089732945,-8.265978249255568e-05,-0.0018841717392206192,0.017187902703881264,0.0813978984951973,0.013157568871974945,-0.0006005016039125621,0.00820944644510746,0.001619903021492064,0.0,0.0,0.0,0.0027740299701690674,-0.00016982985835056752,-0.0,0.0,0.0,0.0,-0.022916356101632118,-0.10892774909734726,0.00585903087630868,1495.0,1495.0,1495.0,1495.0,0.0,0.0,0.0,0.0,0.0,0.0,0.0,0.0,1495.0,1495.0,1495.0,1495.0,1.6957646608352661,-0.08656521119948604,0.026926486381256807,0.05726792437230658,0.000693952664732933,0.008719353005290031,0.0
136,5,-9.279174264520407e-06,4.341103249316802e-06,3.316328729852103e-05,-0.0014690993120893836,-0.0023557408712804317,-0.003280478063970804,0.017187902703881264,0.0813978984951973,0.013157568871974945,-0.0006005016039125621,0.00820944644510746,0.001619903021492064,0.0,0.0,0.0,7.226445450214669e-05,-0.0005934609798714519,-0.0,0.0,0.0,0.0,-0.022916356101632118,-0.10892774909734726,0.00585903087630868,1495.0,1495.0,1495.0,1495.0,0.0,0.0,0.0,0.0,0.0,0.0,0.0,0.0,1495.0,1495.0,1495.0,1495.0,1.6955556869506836,-0.08674215732666096,0.027647578179465906,0.05694323744051165,0.002424689242616296,0.00022711475321557373,0.0
141,5,1.295032774351057e-07,-7.066215403028764e-06,-2.316448444616981e-05,0.0005414015613496304,0.0004265819152351469,0.005447141360491514,0.017171237617731094,0.08139053732156754,0.013165945187211037,-0.002348350128158927,0.008062927983701229,0.00019292556680738926,0.0,0.0,0.0,7.226445450214669e-05,-0.0005934609798714519,-0.0,0.0,0.0,0.0,-0.022990314289927483,-0.10948025435209274,0.0059118978679180145,1495.0,1495.0,1495.0,1495.0,0.0,0.0,0.0,0.0,0.0,0.0,0.0,0.0,1495.0,1495.0,1495.0,1495.0,1.6955556869506836,-0.08625963505490244,0.026435547829723252,0.05719860628620771,0.002424689242616296,0.00022711475321557373,0.0
146,5,1.1974389053648338e-05,-1.602626252861228e-05,-4.787113721249625e-05,0.0011670389212667942,0.0011386106489226222,0.003294194582849741,0.017171237617731094,0.08139053732156754,0.013165945187211037,-0.002348350128158927,0.008062927983701229,0.00019292556680738926,0.0,0.0,0.0,-0.0005214030388742685,0.0004970739828422666,-0.0,0.0,0.0,0.0,-0.022990314289927483,-0.10948025435209274,0.0059118978679180145,1495.0,1495.0,1495.0,1495.0,0.0,0.0,0.0,0.0,0.0,0.0,0.0,0.0,1495.0,1495.0,1495.0,1495.0,1.6957323551177979,-0.08596776458774708,0.02685967251745042,0.05717481760842849,-0.002031094627454877,-0.0016388505464419723,0.0
151,5,1.1974389053648338e-05,-1.602626252861228e-05,-4.787113721249625e-05,0.0011670389212667942,0.0011386106489226222,0.003294194582849741,0.017171237617731094,0.08139053732156754,0.013165945187211037,-0.002348350128158927,0.008062927983701229,0.00019292556680738926,0.0,0.0,0.0,-0.0005214030388742685,0.0004970739828422666,-0.0,0.0,0.0,0.0,-0.023333242163062096,-0.1090896800160408,0.005673334933817387,1495.0,1495.0,1495.0,1495.0,0.0,0.0,0.0,0.0,0.0,0.0,0.0,0.0,1495.0,1495.0,1495.0,1495.0,1.6957323551177979,-0.08596776458774708,0.02685967251745042,0.05717481760842849,-0.002031094627454877,-0.0016388505464419723,0.0
156,5,-9.555045835440978e-06,1.6027512174332514e-05,5.8272917158319615e-06,-0.002116716466844082,-0.0033910085912793875,-0.005126133561134338,0.017171237617731094,0.08139053732156754,0.013165945187211037,-0.002348350128158927,0.008062927983701229,0.00019292556680738926,0.0,0.0,0.0,-0.0013865976361557841,0.0010872031562030315,-0.0,0.0,0.0,0.0,-0.023333242163062096,-0.1090896800160408,0.005673334933817387,1495.0,1495.0,1495.0,1495.0,0.0,0.0,0.0,0.0,0.0,0.0,0.0,0.0,1495.0,1495.0,1495.0,1495.0,1.6957345008850098,-0.08666247334873971,0.026957586813139443,0.05674430395801823,-0.004442423582077026,-0.004358294885605574,0.0
161,5,8.75460773386294e-06,-2.365732507314533e-05,-4.7535308112856e-05,0.0007546667475253344,0.0031885330099612474,0.0034580326173454523,0.017178377136588097,0.08135289698839188,0.01317577064037323,0.001733982702717185,0.005188101436942816,-0.0010475480230525136,0.0,0.0,0.0,-0.0013865976361557841,0.0010872031562030315,-0.0,0.0,0.0,0.0,-0.023301145061850548,-0.10928746312856674,0.0055959210731089115,1495.0,1495.0,1495.0,1495.0,0.0,0.0,0.0,0.0,0.0,0.0,0.0,0.0,1495.0,1495.0,1495.0,1495.0,1.6957345008850098,-0.08563314054141995,0.02658896529044444,0.05742463116958547,-0.004442423582077026,-0.004358294885605574,0.0
167,5,2.454111017868854e-05,-3.56441451003775e-05,-2.8549546186695807e-05,0.0021962469909340143,0.002713831840083003,-0.0008950784103944898,0.017178377136588097,0.08135289698839188,0.01317577064037323,0.001733982702717185,0.005188101436942816,-0.0010475480230525136,0.0,0.0,0.0,-0.0038451955188065767,0.0007043384248390794,-0.0,0.0,0.0,0.0,-0.023301145061850548,-0.10928746312856674,0.0055959210731089115,1495.0,1495.0,1495.0,1495.0,0.0,0.0,0.0,0.0,0.0,0.0,0.0,0.0,1495.0,1495.0,1495.0,1495.0,1.6959518194198608,-0.08601681822091349,0.026516924615542746,0.05759383452330358,-0.0028783497400581837,-0.012087557464838028,0.0
172,5,3.34780952471192e-06,-9.874263014353346e-06,9.650439096731134e-06,-0.001664697309024632,-0.0020068532321602106,-0.004942029714584351,0.017178377136588097,0.08135289698839188,0.01317577064037323,0.001733982702717185,0.005188101436942816,-0.0010475480230525136,0.0,0.0,0.0,-0.0038451955188065767,0.0007043384248390794,-0.0,0.0,0.0,0.0,-0.023301145061850548,-0.10928746312856674,0.0055959210731089115,1495.0,1495.0,1495.0,1495.0,0.0,0.0,0.0,0.0,0.0,0.0,0.0,0.0,1495.0,1495.0,1495.0,1495.0,1.6959518194198608,-0.08721505948953993,0.026984853939580427,0.057071862643652084,-0.0028783497400581837,-0.012087557464838028,0.0
177,5,1.165069352282444e-05,-2.0544555809465237e-05,-1.401349527441198e-05,0.0003304671263322234,0.00047769388766027987,0.0008628602954559028,0.017159579321742058,0.08133041113615036,0.013195081613957882,9.062209574040025e-05,0.010684505105018616,0.0018613999709486961,0.0,0.0,0.0,0.0023760185576975346,-0.0015226579271256924,-0.0,0.0,0.0,0.0,-0.023009439930319786,-0.10875054448843002,0.006081722676753998,1495.0,1495.0,1495.0,1495.0,0.0,0.0,0.0,0.0,0.0,0.0,0.0,0.0,1495.0,1495.0,1495.0,1495.0,1.696352481842041,-0.08599505219767133,0.02631581021571599,0.05735828968268645,0.006223991047590971,0.0074709136970341206,0.0
182,5,1.2288088328205049e-05,-1.0587697033770382e-05,-9.847564797382802e-06,0.00020867427519988269,-0.001003745594061911,-0.00015476759290322661,0.017159579321742058,0.08133041113615036,0.013195081613957882,9.062209574040025e-05,0.010684505105018616,0.0018613999709486961,0.0,0.0,0.0,0.0023760185576975346,-0.0015226579271256924,-0.0,0.0,0.0,0.0,-0.023009439930319786,-0.10875054448843002,0.006081722676753998,1495.0,1495.0,1495.0,1495.0,0.0,0.0,0.0,0.0,0.0,0.0,0.0,0.0,1495.0,1495.0,1495.0,1495.0,1.696352481842041,-0.08598641319874978,0.026300771570638606,0.05699788784378484,0.006223991047590971,0.0074709136970341206,0.0
187,5,1.6132725022544037e-06,-1.9052624338655733e-05,-1.8816033843904734e-05,-0.001197508187033236,0.0006142930360510945,0.001014309236779809,0.017172938212752342,0.08130182325839996,0.01319153793156147,-0.0010170943569391966,0.0069199479185044765,-0.0021962597966194153,0.0,0.0,0.0,0.0011784721864387393,0.00020804590894840658,-0.0,0.0,0.0,0.0,-0.023166971281170845,-0.10905535519123077,0.005690653342753649,1495.0,1495.0,1495.0,1495.0,0.0,0.0,0.0,0.0,0.0,0.0,0.0,0.0,1495.0,1495.0,1495.0,1495.0,1.6962722539901733,-0.08567964825768336,0.026902831214403525,0.05744733830765805,-0.0008503668941557407,0.0037052989937365055,0.0
192,5,-4.373079718789086e-06,-7.136258773243753e-06,-1.1653741239570081e-05,-0.001197365578263998,-0.001184246619231999,-0.00045375138870440423,0.017172938212752342,0.08130182325839996,0.01319153793156147,-0.0010170943569391966,0.0069199479185044765,-0.0021962597966194153,0.0,0.0,0.0,0.0011784721864387393,0.00020804590894840658,-0.0,0.0,0.0,0.0,-0.023166971281170845,-0.10905535519123077,0.005690653342753649,1495.0,1495.0,1495.0,1495.0,0.0,0.0,0.0,0.0,0.0,0.0,0.0,0.0,1495.0,1495.0,1495.0,1495.0,1.6962722539901733,-0.08605077360260346,0.026383837862214758,0.057326439260095556,-0.0008503668941557407,0.0037052989937365055,0.0
197,5,5.980925834592199e-07,-8.325898306793533e-06,-1.2474941286200192e-05,0.000117594470793847,-0.00033094192622229457,-8.295651787193492e-05,0.01717105694115162,0.08131454139947891,0.013219056650996208,0.0009385828743688762,0.006712955888360739,0.0031327223405241966,0.0,0.0,0.0,0.0013993041357025504,-0.0011039756936952472,-0.0,0.0,0.0,0.0,-0.023134563118219376,-0.10915092378854752,0.006642011925578117,1495.0,1495.0,1495.0,1495.0,0.0,0.0,0.0,0.0,0.0,0.0,0.0,0.0,1495.0,1495.0,1495.0,1495.0,1.696853518486023,-0.08594133436350661,0.026876197504280438,0.05725472009570279,0.004513934254646301,0.004401135724037886,0.0
202,5,6.528587618959136e-06,-9.737855179992039e-06,-4.530755177256651e-05,0.0007586971623823047,3.705807466758415e-05,0.003906730562448502,0.01717105694115162,0.08131454139947891,0.013219056650996208,0.0009385828743688762,0.006712955888360739,0.0031327223405241966,0.0,0.0,0.0,0.0013993041357025504,-0.0011039756936952472,-0.0,0.0,0.0,0.0,-0.023134563118219376,-0.10915092378854752,0.006642011925578117,1495.0,1495.0,1495.0,1495.0,0.0,0.0,0.0,0.0,0.0,0.0,0.0,0.0,1495.0,1495.0,1495.0,1495.0,1.696853518486023,-0.0859878393501716,0.02671739394716501,0.0569691415698077,0.004513934254646301,0.004401135724037886,0.0
207,5,-6.513099833682645e-06,3.919606115232455e-06,-1.5125829122553114e-05,-0.0012615235755220056,-0.0016240720869973302,-0.002059114398434758,0.017161818221211433,0.081329844892025,0.013170852325856686,-0.00075616838876158,0.005980442278087139,-0.006055102683603764,0.0,0.0,0.0,-6.139449396869168e-05,0.0007046773098409176,-0.0,0.0,0.0,0.0,-0.023068711161613464,-0.10963842272758484,0.005121935158967972,1495.0,1495.0,1495.0,1495.0,0.0,0.0,0.0,0.0,0.0,0.0,0.0,0.0,1495.0,1495.0,1495.0,1495.0,1.696851134300232,-0.08708021441509058,0.026604631516401408,0.05701028612552652,-0.002881282940506935,-0.0001930997532326728,0.0
212,5,3.804287587172439e-07,3.356103377427644e-07,-1.608986349310726e-05,0.00032261398155242205,-0.00021954935800749809,-0.0007079617935232818,0.017161818221211433,0.081329844892025,0.013170852325856686,-0.00075616838876158,0.005980442278087139,-0.006055102683603764,0.0,0.0,0.0,-6.139449396869168e-05,0.0007046773098409176,-0.0,0.0,0.0,0.0,-0.023068711161613464,-0.10963842272758484,0.005121935158967972,1495.0,1495.0,1495.0,1495.0,0.0,0.0,0.0,0.0,0.0,0.0,0.0,0.0,1495.0,1495.0,1495.0,1495.0,1.696851134300232,-0.08659140087192235,0.026936597896155722,0.057219020642423374,-0.002881282940506935,-0.0001930997532326728,0.0
217,5,-4.56712041341234e-06,4.160587195656262e-06,-8.859347872203216e-06,-0.00046466029016301036,-0.0005468169692903757,-0.0011508464813232422,0.017160892486572266,0.08129065483808517,0.013167704455554485,-0.0023047388531267643,0.005113927647471428,0.0023026869166642427,0.0,0.0,0.0,0.0002623265900183469,0.00029663575696758926,-0.0,0.0,0.0,0.0,-0.02314070612192154,-0.10911337286233902,0.00613538408651948,1495.0,1495.0,1495.0,1495.0,0.0,0.0,0.0,0.0,0.0,0.0,0.0,0.0,1495.0,1495.0,1495.0,1495.0,1.6958353519439697,-0.08664117343337689,0.026427071806646614,0.05722503089917112,-0.001212157541885972,0.000824583345092833,0.0
223,5,4.66987239633454e-06,2.229823394372943e-06,4.121439360460499e-06,0.0009225749527104199,1.2964880625077058e-05,-0.0020180330611765385,0.017160892486572266,0.08129065483808517,0.013167704455554485,-0.0023047388531267643,0.005113927647471428,0.0023026869166642427,0.0,0.0,0.0,0.0002623265900183469,0.00029663575696758926,-0.0,0.0,0.0,0.0,-0.02314070612192154,-0.10911337286233902,0.00613538408651948,1495.0,1495.0,1495.0,1495.0,0.0,0.0,0.0,0.0,0.0,0.0,0.0,0.0,1495.0,1495.0,1495.0,1495.0,1.6958353519439697,-0.08613716544495947,0.027249503270947398,0.056902850740381046,-0.001212157541885972,0.000824583345092833,0.0
228,5,1.1794088095484767e-05,-2.6179623091593385e-05,-2.3045258785714395e-05,0.001223935978487134,0.003414319595322013,0.002452790504321456,0.01714896783232689,0.08130568265914917,0.013193873688578606,0.00067454221425578,0.0047149923630058765,0.00022928943508304656,0.0,0.0,0.0,-1.1745603842427954e-05,0.0008530240738764405,-0.0,0.0,0.0,0.0,-0.023178253322839737,-0.10919059067964554,0.006059121806174517,1495.0,1495.0,1495.0,1495.0,0.0,0.0,0.0,0.0,0.0,0.0,0.0,0.0,1495.0,1495.0,1495.0,1495.0,1.6957695484161377,-0.08594376310695753,0.026860151818637292,0.057224859781172636,-0.003485619556158781,-3.691906749736518e-05,0.0
233,5,8.483645615342539e-06,-2.459889219608158e-05,-2.535800012992695e-05,9.232125012204051e-05,0.001176040037535131,0.0012586452066898346,0.01714896783232689,0.08130568265914917,0.013193873688578606,0.00067454221425578,0.0047149923630058765,0.00022928943508304656,0.0,0.0,0.0,-1.1745603842427954e-05,0.0008530240738764405,-0.0,0.0,0.0,0.0,-0.023178253322839737,-0.10919059067964554,0.006059121806174517,1495.0,1495.0,1495.0,1495.0,0.0,0.0,0.0,0.0,0.0,0.0,0.0,0.0,1495.0,1495.0,1495.0,1495.0,1.6957695484161377,-0.08578255033311336,0.02676884648703715,0.057306197126498815,-0.003485619556158781,-3.691906749736518e-05,0.0
238,5,-1.8652656308404403e-06,-7.770045158395078e-06,1.741043888614513e-05,-0.0012049408396705985,-0.00154904555529356,-0.004628754686564207,0.01712527684867382,0.08125197887420654,0.013213695026934147,-0.0019152582390233874,0.007799861021339893,0.0029195647221058607,0.0,0.0,0.0,-0.0014458457008004189,9.618880721973255e-05,-0.0,0.0,0.0,0.0,-0.0228582751005888,-0.10836900770664215,0.006063641048967838,1495.0,1495.0,1495.0,1495.0,0.0,0.0,0.0,0.0,0.0,0.0,0.0,0.0,1495.0,1495.0,1495.0,1495.0,1.6963220834732056,-0.08619956556179956,0.02738925018326597,0.05703271600796514,-0.0003931735409423709,-0.00454609515145421,0.0
243,5,7.713751074334141e-06,-2.3342419808614068e-05,-2.6354471629019827e-05,0.0006675056647509336,0.0012490666704252362,0.0034002873580902815,0.01712527684867382,0.08125197887420654,0.013213695026934147,-0.0019152582390233874,0.007799861021339893,0.0029195647221058607,0.0,0.0,0.0,-0.0014458457008004189,9.618880721973255e-05,-0.0,0.0,0.0,0.0,-0.0228582751005888,-0.10836900770664215,0.006063641048967838,1495.0,1495.0,1495.0,1495.0,0.0,0.0,0.0,0.0,0.0,0.0,0.0,0.0,1495.0,1495.0,1495.0,1495.0,1.6963220834732056,-0.08619087602431458,0.02659377366700906,0.05733570821576545,-0.0003931735409423709,-0.00454609515145421,0.0
248,5,-3.146060407743789e-07,-7.37191976440954e-06,-7.586942047055345e-06,-0.0006964005879126489,-0.0014168332563713193,-0.0008919885731302202,0.01711195707321167,0.08123891055583954,0.013219551183283329,0.00019964513194281608,0.007744512055069208,0.0030945257749408484,0.0,0.0,0.0,-0.0015303922118619084,0.0006226958357729018,-0.0,0.0,0.0,0.0,-0.022974379360675812,-0.10868418961763382,0.005957527086138725,1495.0,1495.0,1495.0,1495.0,0.0,0.0,0.0,0.0,0.0,0.0,0.0,0.0,1495.0,1495.0,1495.0,1495.0,1.6967401504516602,-0.08633303233406214,0.02718033851920423,0.05692234305021392,-0.0025459076277911663,-0.004813116043806076,0.0
253,5,2.7680600851454074e-06,-1.4594815183954779e-05,-3.983283750130795e-05,9.135968866758049e-05,0.0003000141296070069,0.003512711962684989,0.01711195707321167,0.08123891055583954,0.013219551183283329,0.00019964513194281608,0.007744512055069208,0.0030945257749408484,0.0,0.0,0.0,-0.0015303922118619084,0.0006226958357729018,-0.0,0.0,0.0,0.0,-0.022974379360675812,-0.10868418961763382,0.005957527086138725,1495.0,1495.0,1495.0,1495.0,0.0,0.0,0.0,0.0,0.0,0.0,0.0,0.0,1495.0,1495.0,1495.0,1495.0,1.6967401504516602,-0.08628076181631263,0.02631477808659059,0.057261436695473795,-0.0025459076277911663,-0.004813116043806076,0.0
258,5,2.8831345844082534e-07,-5.925382993154926e-06,-3.236381962778978e-05,-0.0002610257070045918,-0.0009203262161463499,0.0005088025936856866,0.01710466668009758,0.08122322708368301,0.013223319314420223,0.0015255383914336562,0.0036422223784029484,0.0017249361844733357,0.0,0.0,0.0,-0.0003834699746221304,8.759702177485451e-05,-0.0,0.0,0.0,0.0,-0.023071493953466415,-0.1088549792766571,0.005739918909966946,1495.0,1495.0,1495.0,1495.0,0.0,0.0,0.0,0.0,0.0,0.0,0.0,0.0,1495.0,1495.0,1495.0,1495.0,1.6968612670898438,-0.08597172358697905,0.02658257214591034,0.0573364675097443,-0.0003581686469260603,-0.0012061081361025572,0.0
263,5,6.847365511930548e-06,-1.9277951651019976e-05,-5.2780291298404336e-05,0.0006826759199611843,0.0012341777328401804,0.002653497736901045,0.01710466668009758,0.08122322708368301,0.013223319314420223,0.0015255383914336562,0.0036422223784029484,0.0017249361844733357,0.0,0.0,0.0,-0.0003834699746221304,8.759702177485451e-05,-0.0,0.0,0.0,0.0,-0.023071493953466415,-0.1088549792766571,0.005739918909966946,1495.0,1495.0,1495.0,1495.0,0.0,0.0,0.0,0.0,0.0,0.0,0.0,0.0,1495.0,1495.0,1495.0,1495.0,1.6968612670898438,-0.08604216011545208,0.026408006615612524,0.05733948972980352,-0.0003581686469260603,-0.0012061081361025572,0.0
268,5,8.10073515822296e-07,1.7862985259853303e-06,2.698270691325888e-06,-0.00045140463043935597,-0.0020340390037745237,-0.005596028175204992,0.017107155174016953,0.08125355839729309,0.013220599852502346,-0.0010065899696201086,0.001221783459186554,0.0006185840466059744,0.0,0.0,0.0,-0.0015053892275318503,0.000635376840364188,-0.0,0.0,0.0,0.0,-0.023222515359520912,-0.10939916223287582,0.0057108658365905285,1495.0,1495.0,1495.0,1495.0,0.0,0.0,0.0,0.0,0.0,0.0,0.0,0.0,1495.0,1495.0,1495.0,1495.0,1.6969428062438965,-0.0867718496516069,0.026897624219306797,0.057081969275038516,-0.0025980647187680006,-0.004735046532005072,0.0
273,5,9.95516347757075e-06,-1.3598620171251241e-05,-1.5605330190737732e-05,0.0009168489486910403,0.0010325746843591332,-4.197917223791592e-05,0.017107155174016953,0.08125355839729309,0.013220599852502346,-0.0010065899696201086,0.001221783459186554,0.0006185840466059744,0.0,0.0,0.0,-0.0015053892275318503,0.000635376840364188,-0.0,0.0,0.0,0.0,-0.023222515359520912,-0.10939916223287582,0.0057108658365905285,1495.0,1495.0,1495.0,1495.0,0.0,0.0,0.0,0.0,0.0,0.0,0.0,0.0,1495.0,1495.0,1495.0,1495.0,1.6969428062438965,-0.08591095584486903,0.026856509817963177,0.05734415375307583,-0.0025980647187680006,-0.004735046532005072,0.0
278,5,6.055488938727649e-06,-4.625441761163529e-06,8.056847946136259e-06,-0.00010122138337465003,-0.0006637515616603196,-0.002856252947822213,0.017098471522331238,0.08124600350856781,0.013208484277129173,0.002055827295407653,0.0026398582849651575,-0.0017283643828704953,0.0,0.0,0.0,-0.0012553497217595577,0.0008544808952137828,-0.0,0.0,0.0,0.0,-0.02305285632610321,-0.1086953803896904,0.005400399211794138,1495.0,1495.0,1495.0,1495.0,0.0,0.0,0.0,0.0,0.0,0.0,0.0,0.0,1495.0,1495.0,1495.0,1495.0,1.6966300010681152,-0.08687269655102932,0.02708463698049799,0.05717726023921108,-0.003493341151624918,-0.003947846125811338,0.0
283,5,7.76919478084892e-06,-2.3729568056296557e-05,-4.769881343236193e-05,0.00016515613242518157,0.002026994712650776,0.005548178218305111,0.017098471522331238,0.08124600350856781,0.013208484277129173,0.002055827295407653,0.0026398582849651575,-0.0017283643828704953,0.0,0.0,0.0,-0.0012553497217595577,0.0008544808952137828,-0.0,0.0,0.0,0.0,-0.02305285632610321,-0.1086953803896904,0.005400399211794138,1495.0,1495.0,1495.0,1495.0,0.0,0.0,0.0,0.0,0.0,0.0,0.0,0.0,1495.0,1495.0,1495.0,1495.0,1.6966300010681152,-0.08531320574384496,0.026849044766536385,0.057358459579857905,-0.003493341151624918,-0.003947846125811338,0.0
289,5,1.6147987480508164e-05,-3.366364035173319e-05,-8.422182145295665e-05,0.0010715174721553922,0.0020028864964842796,0.006602032110095024,0.017096225172281265,0.08128312975168228,0.013202187605202198,0.0026935325004160404,0.0018109699012711644,5.40015980732278e-06,0.0,0.0,0.0,-0.0024590694811195135,0.0001620614348212257,-0.0,0.0,0.0,0.0,-0.02321910858154297,-0.10903957486152649,0.006394251715391874,1495.0,1495.0,1495.0,1495.0,0.0,0.0,0.0,0.0,0.0,0.0,0.0,0.0,1495.0,1495.0,1495.0,1495.0,1.696500539779663,-0.0847156281828378,0.026658007830839735,0.05752926469234004,-0.0006624975358135998,-0.007732724770903587,0.0
294,5,-1.1358984011167195e-05,-1.599484858161304e-05,-2.5855588319245726e-05,-0.002872229553759098,-0.0013191004982218146,-0.004363135434687138,0.017096225172281265,0.08128312975168228,0.013202187605202198,0.0026935325004160404,0.0018109699012711644,5.40015980732278e-06,0.0,0.0,0.0,-0.0024590694811195135,0.0001620614348212257,-0.0,0.0,0.0,0.0,-0.02321910858154297,-0.10903957486152649,0.006394251715391874,1495.0,1495.0,1495.0,1495.0,0.0,0.0,0.0,0.0,0.0,0.0,0.0,0.0,1495.0,1495.0,1495.0,1495.0,1.696500539779663,-0.08574351009426488,0.026619115700668796,0.05706958676302139,-0.0006624975358135998,-0.007732724770903587,0.0
299,5,-1.1792216355388518e-05,-1.3875477634428535e-05,-1.9218094166717492e-05,-0.0012008796911686659,-0.0007819645688869059,-0.002541753463447094,0.01711590588092804,0.08129597455263138,0.013241063803434372,0.000823396141640842,0.004900833126157522,0.0019233131315559149,0.0,0.0,0.0,0.0015440123388543725,-0.0026486911810934544,-0.0,0.0,0.0,0.0,-0.02326042391359806,-0.1096760481595993,0.006478509400039911,1495.0,1495.0,1495.0,1495.0,0.0,0.0,0.0,0.0,0.0,0.0,0.0,0.0,1495.0,1495.0,1495.0,1495.0,1.6973222494125366,-0.08642916951173026,0.02670634225745798,0.057047204508651625,0.010832943953573704,0.0048576174303889275,0.0
304,5,8.275640539068263e-06,-2.671689617272932e-05,-4.995214840164408e-05,0.001927791046909988,0.0012281843228265643,0.0026713849510997534,0.01711590588092804,0.08129597455263138,0.013241063803434372,0.000823396141640842,0.004900833126157522,0.0019233131315559149,0.0,0.0,0.0,0.0015440123388543725,-0.0026486911810934544,-0.0,0.0,0.0,0.0,-0.02326042391359806,-0.1096760481595993,0.006478509400039911,1495.0,1495.0,1495.0,1495.0,0.0,0.0,0.0,0.0,0.0,0.0,0.0,0.0,1495.0,1495.0,1495.0,1495.0,1.6973222494125366,-0.08587631833919998,0.026416667514360177,0.057453474978342245,0.010832943953573704,0.0048576174303889275,0.0
309,5,2.1944520085526165e-06,-5.956979293841869e-06,-1.6371393940062262e-05,4.137375799473375e-05,-0.0019999162759631872,-0.0029611364006996155,0.017137693241238594,0.08134467154741287,0.013285313732922077,-0.00020776130259037018,0.003708496456965804,0.005663495045155287,0.0,0.0,0.0,-0.0015101764583960176,0.0017778255278244615,-0.0,0.0,0.0,0.0,-0.02303164266049862,-0.10888617485761642,0.005851537920534611,1495.0,1495.0,1495.0,1495.0,0.0,0.0,0.0,0.0,0.0,0.0,0.0,0.0,1495.0,1495.0,1495.0,1495.0,1.6982507705688477,-0.08624864604382644,0.026678128923687282,0.05719596816910145,-0.007275152951478958,-0.0047537656500935555,0.0
314,5,2.93902053272177e-06,-1.3730593764194055e-06,7.27708811609773e-06,0.00010589770681690425,-0.001350036938674748,-0.004022272303700447,0.017137693241238594,0.08134467154741287,0.013285313732922077,-0.00020776130259037018,0.003708496456965804,0.005663495045155287,0.0,0.0,0.0,-0.0015101764583960176,0.0017778255278244615,-0.0,0.0,0.0,0.0,-0.02303164266049862,-0.10888617485761642,0.005851537920534611,1495.0,1495.0,1495.0,1495.0,0.0,0.0,0.0,0.0,0.0,0.0,0.0,0.0,1495.0,1495.0,1495.0,1495.0,1.6982507705688477,-0.08686154863717246,0.02715646442066256,0.057132049190033514,-0.007275152951478958,-0.0047537656500935555,0.0
319,5,3.546181517322111e-07,-9.512331416772213e-06,-2.2424177586799487e-05,-0.0002677692100405693,0.00043669791193678975,0.0019552430603653193,0.017137693241238594,0.08134467154741287,0.013285313732922077,-0.00020776130259037018,0.003708496456965804,0.005663495045155287,0.0,0.0,0.0,-0.0015101764583960176,0.0017778255278244615,-0.0,0.0,0.0,0.0,-0.02303164266049862,-0.10888617485761642,0.005851537920534611,1495.0,1495.0,1495.0,1495.0,0.0,0.0,0.0,0.0,0.0,0.0,0.0,0.0,1495.0,1495.0,1495.0,1495.0,1.6982507705688477,-0.08659010356464683,0.026755012986276618,0.05732340247878724,-0.007275152951478958,-0.0047537656500935555,0.0
324,5,5.7225643104175106e-06,-1.2420880011632107e-05,-4.450072083272971e-05,0.0005370458238758147,0.0005237049190327525,0.003431282239034772,0.01711605116724968,0.08132699877023697,0.013288184069097042,0.0009132088162004948,0.006322746630758047,-0.00019544070528354496,0.0,0.0,0.0,-0.0005372104933485389,-0.00024479167768731713,-0.0,0.0,0.0,0.0,-0.022893425077199936,-0.10933682322502136,0.005771898198872805,1495.0,1495.0,1495.0,1495.0,0.0,0.0,0.0,0.0,0.0,0.0,0.0,0.0,1495.0,1495.0,1495.0,1495.0,1.698306918144226,-0.0863556068094068,0.025980683971231565,0.05761991058744409,0.0010017622262239456,-0.0016910996055230498,0.0
329,5,1.5558760946277062e-09,-1.0654262041498441e-05,-2.030227733484935e-05,-0.00047170266043394804,-2.5121248654613737e-06,-0.0015313002513721585,0.01711605116724968,0.08132699877023697,0.013288184069097042,0.0009132088162004948,0.006322746630758047,-0.00019544070528354496,0.0,0.0,0.0,-0.0005372104933485389,-0.00024479167768731713,-0.0,0.0,0.0,0.0,-0.022893425077199936,-0.10933682322502136,0.005771898198872805,1495.0,1495.0,1495.0,1495.0,0.0,0.0,0.0,0.0,0.0,0.0,0.0,0.0,1495.0,1495.0,1495.0,1495.0,1.698306918144226,-0.08648759625781796,0.02691914101302177,0.05733966912323308,0.0010017622262239456,-0.0016910996055230498,0.0
334,5,1.541839083074592e-05,-3.51342314388603e-05,-6.779735122108832e-05,0.0016613390762358904,0.0029365913942456245,0.005086889024823904,0.01711532473564148,0.08134498447179794,0.013298148289322853,-0.001182372448965907,0.00010695838864194229,-0.0008014905033633113,0.0,0.0,0.0,-1.6004129065549932e-05,-0.00043214138713665307,-0.0,0.0,0.0,0.0,-0.022989409044384956,-0.10957828164100647,0.006052702199667692,1495.0,1495.0,1495.0,1495.0,0.0,0.0,0.0,0.0,0.0,0.0,0.0,0.0,1495.0,1495.0,1495.0,1495.0,1.6983067989349365,-0.08585004680587097,0.025988517694897417,0.0576094591685177,0.0017684544436633587,-5.03798364661634e-05,0.0
339,5,7.0816813604324125e-06,-2.0248175133019686e-05,-2.0568317268043756e-05,-0.0003358694084454328,-0.0006116900476627052,-0.003632728708907962,0.01711532473564148,0.08134498447179794,0.013298148289322853,-0.001182372448965907,0.00010695838864194229,-0.0008014905033633113,0.0,0.0,0.0,-1.6004129065549932e-05,-0.00043214138713665307,-0.0,0.0,0.0,0.0,-0.022989409044384956,-0.10957828164100647,0.006052702199667692,1495.0,1495.0,1495.0,1495.0,0.0,0.0,0.0,0.0,0.0,0.0,0.0,0.0,1495.0,1495.0,1495.0,1495.0,1.6983067989349365,-0.0860233541107239,0.026859344575304287,0.05718814993529905,0.0017684544436633587,-5.03798364661634e-05,0.0
344,5,2.8148247110948432e-06,-2.384059553151019e-05,-2.9664222438441357e-06,-0.0006463705794885755,0.00018641429778654128,-0.0035653188824653625,0.017097314819693565,0.08134669065475464,0.01331234723329544,-0.0013257249956950545,0.0030849482864141464,0.0017587636830285192,0.0,0.0,0.0,0.0006928147631697357,-0.00029811158310621977,-0.0,0.0,0.0,0.0,-0.02301901765167713,-0.10908795148134232,0.006292793434113264,1495.0,1495.0,1495.0,1495.0,0.0,0.0,0.0,0.0,0.0,0.0,0.0,0.0,1495.0,1495.0,1495.0,1495.0,1.698516845703125,-0.08676213672961933,0.02679718067424256,0.05719619839495662,0.0012201142963021994,0.0021812000777572393,0.0
349,5,-1.1834124507004162e-06,-6.2247431742434856e-06,1.7855803889688104e-05,-0.0007383367046713829,-0.0020393365994095802,-0.003924794495105743,0.017097314819693565,0.08134669065475464,0.01331234723329544,-0.0013257249956950545,0.0030849482864141464,0.0017587636830285192,0.0,0.0,0.0,0.0006928147631697357,-0.00029811158310621977,-0.0,0.0,0.0,0.0,-0.02301901765167713,-0.10908795148134232,0.006292793434113264,1495.0,1495.0,1495.0,1495.0,0.0,0.0,0.0,0.0,0.0,0.0,0.0,0.0,1495.0,1495.0,1495.0,1495.0,1.698516845703125,-0.08638462789565027,0.02702664153302679,0.057134474643338595,0.0012201142963021994,0.0021812000777572393,0.0
355,5,-9.012768714455888e-06,7.453621719832881e-07,3.4333996154600754e-05,-0.001234857365489006,-0.001652147271670401,-0.003547301050275564,0.017097314819693565,0.08134669065475464,0.01331234723329544,-0.0013257249956950545,0.0030849482864141464,0.0017587636830285192,0.0,0.0,0.0,0.0024173660203814507,-0.0006778569659218192,-0.0,0.0,0.0,0.0,-0.022995296865701675,-0.10860215127468109,0.006070185452699661,1495.0,1495.0,1495.0,1495.0,0.0,0.0,0.0,0.0,0.0,0.0,0.0,0.0,1495.0,1495.0,1495.0,1495.0,1.69882071018219,-0.08660368468250591,0.026752533268297848,0.05700167233307131,0.002774828812107444,0.007611981593072414,0.0
360,5,-4.288509444450028e-06,-1.4229574844648596e-05,-1.8066442862618715e-05,7.29681269149296e-05,0.0011361335637047887,0.004869132302701473,0.017097314819693565,0.08134669065475464,0.01331234723329544,-0.0013257249956950545,0.0030849482864141464,0.0017587636830285192,0.0,0.0,0.0,0.0024173660203814507,-0.0006778569659218192,-0.0,0.0,0.0,0.0,-0.022995296865701675,-0.10860215127468109,0.006070185452699661,1495.0,1495.0,1495.0,1495.0,0.0,0.0,0.0,0.0,0.0,0.0,0.0,0.0,1495.0,1495.0,1495.0,1495.0,1.69882071018219,-0.08623866874573759,0.025890082377131224,0.057430803213707415,0.002774828812107444,0.007611981593072414,0.0
365,5,-3.967580596508924e-06,-2.5245012693630997e-06,-1.105556839320343e-05,6.769872561562806e-05,-0.0009501553722657263,0.0011063481215387583,0.017098313197493553,0.08133267611265182,0.013328945264220238,-0.0036574075929820538,0.007156771142035723,-0.0008487000013701618,0.0,0.0,0.0,-0.0013783059548586607,6.118709279689938e-05,-0.0,0.0,0.0,0.0,-0.022940805181860924,-0.10909249633550644,0.005840245168656111,1495.0,1495.0,1495.0,1495.0,0.0,0.0,0.0,0.0,0.0,0.0,0.0,0.0,1495.0,1495.0,1495.0,1495.0,1.6988170146942139,-0.08624639894387699,0.026561601561664705,0.05701292078860721,-0.00025047126109711826,-0.004340108018368483,0.0
370,5,-9.201175430462172e-07,-9.035463335749228e-06,-1.5013752999948338e-05,0.0003927750512957573,0.00040125325904227793,0.0009175213635899127,0.017098313197493553,0.08133267611265182,0.013328945264220238,-0.0036574075929820538,0.007156771142035723,-0.0008487000013701618,0.0,0.0,0.0,-0.0013783059548586607,6.118709279689938e-05,-0.0,0.0,0.0,0.0,-0.022940805181860924,-0.10909249633550644,0.005840245168656111,1495.0,1495.0,1495.0,1495.0,0.0,0.0,0.0,0.0,0.0,0.0,0.0,0.0,1495.0,1495.0,1495.0,1495.0,1.6988170146942139,-0.0869139839044177,0.02692474458057846,0.05737770911128265,-0.00025047126109711826,-0.004340108018368483,0.0
375,5,-5.84433246331173e-06,7.702871698711533e-06,-7.429739071085351e-06,-0.00043379576527513564,-0.0018480988219380379,-0.0005430731107480824,0.017099013552069664,0.08135095983743668,0.013342858292162418,-0.0015866206958889961,0.004601207561790943,0.0009982266929000616,0.0,0.0,0.0,-0.0004939710488542914,0.0003586068341974169,-0.0,0.0,0.0,0.0,-0.0230808537453413,-0.10938052833080292,0.00607931986451149,1495.0,1495.0,1495.0,1495.0,0.0,0.0,0.0,0.0,0.0,0.0,0.0,0.0,1495.0,1495.0,1495.0,1495.0,1.6991651058197021,-0.08634769498992338,0.027046198733436812,0.05697258818934997,-0.0014682702021673322,-0.0015557707520201802,0.0
380,5,1.9843368136207573e-05,-1.9836834326270036e-05,-7.33143970137462e-05,0.0029090058524161577,0.0025655252393335104,0.0076889293268322945,0.017099013552069664,0.08135095983743668,0.013342858292162418,-0.0015866206958889961,0.004601207561790943,0.0009982266929000616,0.0,0.0,0.0,-0.0004939710488542914,0.0003586068341974169,-0.0,0.0,0.0,0.0,-0.0230808537453413,-0.10938052833080292,0.00607931986451149,1495.0,1495.0,1495.0,1495.0,0.0,0.0,0.0,0.0,0.0,0.0,0.0,0.0,1495.0,1495.0,1495.0,1495.0,1.6991651058197021,-0.08488373298424398,0.026489369287442676,0.057560907141374205,-0.0014682702021673322,-0.0015557707520201802,0.0
385,5,3.85777821065858e-06,-4.171822638454614e-06,-1.9874716599588282e-05,-0.0007546684937551618,-0.0008535913657397032,-0.0033371897879987955,0.017100965604186058,0.0813487246632576,0.01336500234901905,-0.003405927447602153,0.006897414568811655,-0.0018902461742982268,0.0,0.0,0.0,-0.0030892149079591036,0.00269063888117671,-0.0,0.0,0.0,0.0,-0.023027393966913223,-0.10874245315790176,0.005992984864860773,1495.0,1495.0,1495.0,1495.0,0.0,0.0,0.0,0.0,0.0,0.0,0.0,0.0,1495.0,1495.0,1495.0,1495.0,1.6994719505310059,-0.08633440534551254,0.027238076943426736,0.05702375222299009,-0.011018404737114906,-0.00973126757889986,0.0
390,5,-2.6143461582250893e-06,-1.0535013643675484e-06,-1.88224803423509e-05,-0.0010785222984850407,-0.0007156350766308606,-0.0014611441874876618,0.017100965604186058,0.0813487246632576,0.01336500234901905,-0.003405927447602153,0.006897414568811655,-0.0018902461742982268,0.0,0.0,0.0,-0.0030892149079591036,0.00269063888117671,-0.0,0.0,0.0,0.0,-0.023027393966913223,-0.10874245315790176,0.005992984864860773,1495.0,1495.0,1495.0,1495.0,0.0,0.0,0.0,0.0,0.0,0.0,0.0,0.0,1495.0,1495.0,1495.0,1495.0,1.6994719505310059,-0.08454355455507949,0.028162684878859288,0.0573878283792403,-0.011018404737114906,-0.00973126757889986,0.0
396,5,-1.3909043445892166e-05,7.408081728499383e-06,-1.7110249245888554e-05,-0.0017867726273834705,-0.0013016440207138658,-0.0007899254560470581,0.017110681161284447,0.08136523514986038,0.01336588803678751,0.0028141122311353683,0.0075363218784332275,0.0015574275748804212,0.0,0.0,0.0,0.0008493878995068371,-0.0009907487547025084,-0.0,0.0,0.0,0.0,-0.023392215371131897,-0.1092938780784607,0.0063540018163621426,1495.0,1495.0,1495.0,1495.0,0.0,0.0,0.0,0.0,0.0,0.0,0.0,0.0,1495.0,1495.0,1495.0,1495.0,1.6999439001083374,-0.08650462291154462,0.026416048367195095,0.05698566331370255,0.004058352671563625,0.0026763882488012314,0.0
401,5,2.896024852816481e-06,-3.2059419027063996e-05,-4.093479219591245e-05,0.0013018990866839886,0.0042154425755143166,0.002542974893003702,0.017110681161284447,0.08136523514986038,0.01336588803678751,0.0028141122311353683,0.0075363218784332275,0.0015574275748804212,0.0,0.0,0.0,0.0008493878995068371,-0.0009907487547025084,-0.0,0.0,0.0,0.0,-0.023392215371131897,-0.1092938780784607,0.0063540018163621426,1495.0,1495.0,1495.0,1495.0,0.0,0.0,0.0,0.0,0.0,0.0,0.0,0.0,1495.0,1495.0,1495.0,1495.0,1.6999439001083374,-0.08580496719775296,0.026661020374547224,0.05790072954846231,0.004058352671563625,0.0026763882488012314,0.0
406,5,6.633568318648031e-06,-2.0281904653529637e-05,-2.009049421758391e-05,0.0009692648891359568,0.00027287518605589867,-0.001484125736169517,0.017121825367212296,0.08133013546466827,0.013375801034271717,0.0005245596403256059,0.013426743447780609,-0.0006143325008451939,0.0,0.0,0.0,-0.005073282402008772,0.0011958610266447067,-0.0,0.0,0.0,0.0,-0.02310912497341633,-0.10866396129131317,0.00619575334712863,1495.0,1495.0,1495.0,1495.0,0.0,0.0,0.0,0.0,0.0,0.0,0.0,0.0,1495.0,1495.0,1495.0,1495.0,1.699965476989746,-0.08622841746595059,0.02615696217494859,0.05732566861554027,-0.004898544400930405,-0.015985798090696335,0.0
411,5,6.587125426449347e-06,-1.8665958123165183e-05,-4.8165215957851615e-06,0.00038213279913179576,-8.476345828967169e-05,-0.002426526974886656,0.017121825367212296,0.08133013546466827,0.013375801034271717,0.0005245596403256059,0.013426743447780609,-0.0006143325008451939,0.0,0.0,0.0,-0.005073282402008772,0.0011958610266447067,-0.0,0.0,0.0,0.0,-0.02310912497341633,-0.10866396129131317,0.00619575334712863,1495.0,1495.0,1495.0,1495.0,0.0,0.0,0.0,0.0,0.0,0.0,0.0,0.0,1495.0,1495.0,1495.0,1495.0,1.699965476989746,-0.08709484222526435,0.026354990690444557,0.057028665814309584,-0.004898544400930405,-0.015985798090696335,0.0
416,5,-7.124467629182618e-06,-3.455338401181507e-06,1.2697066267719492e-05,-0.0014925380237400532,-0.0018591798143461347,-0.003072241321206093,0.017130905762314796,0.08133694529533386,0.013391424901783466,0.0016732930671423674,-0.0016879814211279154,0.005460521671921015,0.0,0.0,0.0,6.777218368370086e-05,0.00035875881440006196,-0.0,0.0,0.0,0.0,-0.023304983973503113,-0.10989419370889664,0.006736296694725752,1495.0,1495.0,1495.0,1495.0,0.0,0.0,0.0,0.0,0.0,0.0,0.0,0.0,1495.0,1495.0,1495.0,1495.0,1.7001512050628662,-0.08710184283344401,0.026727279703338717,0.05704627575112871,-0.0014697450678795576,0.000213573599467054,0.0
421,5,2.089507916025468e-06,-1.769968912412878e-05,-3.1873147236183286e-05,0.0005086618475615978,0.0009656501933932304,0.004119529388844967,0.017130905762314796,0.08133694529533386,0.013391424901783466,0.0016732930671423674,-0.0016879814211279154,0.005460521671921015,0.0,0.0,0.0,6.777218368370086e-05,0.00035875881440006196,-0.0,0.0,0.0,0.0,-0.023304983973503113,-0.10989419370889664,0.006736296694725752,1495.0,1495.0,1495.0,1495.0,0.0,0.0,0.0,0.0,0.0,0.0,0.0,0.0,1495.0,1495.0,1495.0,1495.0,1.7001512050628662,-0.08612909337882188,0.02649132988256769,0.05723697879157569,-0.0014697450678795576,0.000213573599467054,0.0
426,5,-5.752549895987613e-06,-6.975261840125313e-06,-1.009857533063041e-05,-0.0007375822169706225,-0.0009006712352856994,-0.0009651370346546173,0.01709919609129429,0.08138030767440796,0.013408597558736801,-0.00212001777254045,0.0058426992036402225,0.0003061267198063433,0.0,0.0,0.0,-0.0011802907101809978,0.0004684514133259654,-0.0,0.0,0.0,0.0,-0.023082567378878593,-0.10936757922172546,0.006062485743314028,1495.0,1495.0,1495.0,1495.0,0.0,0.0,0.0,0.0,0.0,0.0,0.0,0.0,1495.0,1495.0,1495.0,1495.0,1.7004812955856323,-0.08670620555836744,0.026591363494536554,0.057092920679858335,-0.0019194993656128645,-0.003720225067809224,0.0
431,5,1.3523223060474265e-05,-1.0915607163042296e-05,-4.168759915046394e-05,0.001299993135035038,-0.00046984912478365004,0.0011924372520297766,0.01709919609129429,0.08138030767440796,0.013408597558736801,-0.00212001777254045,0.0058426992036402225,0.0003061267198063433,0.0,0.0,0.0,-0.0011802907101809978,0.0004684514133259654,-0.0,0.0,0.0,0.0,-0.023082567378878593,-0.10936757922172546,0.006062485743314028,1495.0,1495.0,1495.0,1495.0,0.0,0.0,0.0,0.0,0.0,0.0,0.0,0.0,1495.0,1495.0,1495.0,1495.0,1.7004812955856323,-0.08557740299204455,0.027091644510465186,0.05708178588007213,-0.0019194993656128645,-0.003720225067809224,0.0
436,5,1.3523223060474265e-05,-1.0915607163042296e-05,-4.168759915046394e-05,0.001299993135035038,-0.00046984912478365004,0.0011924372520297766,0.01709919609129429,0.08138030767440796,0.013408597558736801,-0.00212001777254045,0.0058426992036402225,0.0003061267198063433,0.0,0.0,0.0,0.0005392871680669487,0.001207765657454729,-0.0,0.0,0.0,0.0,-0.023082567378878593,-0.10936757922172546,0.006062485743314028,1495.0,1495.0,1495.0,1495.0,0.0,0.0,0.0,0.0,0.0,0.0,0.0,0.0,1495.0,1495.0,1495.0,1495.0,1.7008427381515503,-0.08557740299204455,0.027091644510465186,0.05708178588007213,-0.004949924536049366,0.0017001716187223792,0.0
442,5,-2.618687858557678e-06,-4.023027031507809e-06,-6.678289082628908e-06,-0.0014170319773256779,-0.0010150492889806628,-0.003724142210558057,0.017088662832975388,0.08136611431837082,0.013426892459392548,0.0025640511885285378,0.005256853066384792,0.0007880140328779817,0.0,0.0,0.0,0.0005392871680669487,0.001207765657454729,-0.0,0.0,0.0,0.0,-0.022895433008670807,-0.10883065313100815,0.006028847303241491,1495.0,1495.0,1495.0,1495.0,0.0,0.0,0.0,0.0,0.0,0.0,0.0,0.0,1495.0,1495.0,1495.0,1495.0,1.7008427381515503,-0.08742074444767937,0.02636277555001984,0.057003252339863336,-0.004949924536049366,0.0017001716187223792,0.0
447,5,-7.0674423113814555e-06,1.1192032616236247e-06,1.1017173164873384e-05,-0.0009786165319383144,-0.0012689408613368869,-0.0030524146277457476,0.017088662832975388,0.08136611431837082,0.013426892459392548,0.0025640511885285378,0.005256853066384792,0.0007880140328779817,0.0,0.0,0.0,0.001199542311951518,-0.0012996497098356485,-0.0,0.0,0.0,0.0,-0.022895433008670807,-0.10883065313100815,0.006028847303241491,1495.0,1495.0,1495.0,1495.0,0.0,0.0,0.0,0.0,0.0,0.0,0.0,0.0,1495.0,1495.0,1495.0,1495.0,1.7012288570404053,-0.0864433337444093,0.02657998733565189,0.056962208758717145,0.0053277094848454,0.003782567335292697,0.0
452,5,-1.4261384421843104e-05,-2.4688633857294917e-06,2.116019641107414e-05,-0.0012547196820378304,-7.70083352108486e-05,-0.0024381286930292845,0.017074845731258392,0.0813271626830101,0.013432948850095272,-0.002114394214004278,0.004918020684272051,0.0002243817289127037,0.0,0.0,0.0,0.001199542311951518,-0.0012996497098356485,-0.0,0.0,0.0,0.0,-0.023256128653883934,-0.10939318686723709,0.006167328450828791,1495.0,1495.0,1495.0,1495.0,0.0,0.0,0.0,0.0,0.0,0.0,0.0,0.0,1495.0,1495.0,1495.0,1495.0,1.7012288570404053,-0.08658806514928366,0.02673793017360456,0.0570674426360989,0.0053277094848454,0.003782567335292697,0.0
457,5,4.584094767778879e-06,-2.0537851014523767e-05,-3.862527591991238e-05,0.001759569626301527,0.0021374751813709736,0.0061990050598979,0.017074845731258392,0.0813271626830101,0.013432948850095272,-0.002114394214004278,0.004918020684272051,0.0002243817289127037,0.0,0.0,0.0,8.671202522236854e-05,-0.0011667151702567935,-0.0,0.0,0.0,0.0,-0.023256128653883934,-0.10939318686723709,0.006167328450828791,1495.0,1495.0,1495.0,1495.0,0.0,0.0,0.0,0.0,0.0,0.0,0.0,0.0,1495.0,1495.0,1495.0,1495.0,1.701354742050171,-0.08502932141980152,0.026348092025604675,0.05720599930837917,0.0047831228002905846,0.0002734530426096171,0.0
462,5,-4.665299456974026e-06,-7.343394827330485e-06,5.824214895255864e-06,-0.0004060994542669505,-0.0007283446611836553,-0.002854336751624942,0.017088746652007103,0.08132562786340714,0.013421713374555111,4.7115150664467365e-05,0.0016343200113624334,0.002845368580892682,0.0,0.0,0.0,8.671202522236854e-05,-0.0011667151702567935,-0.0,0.0,0.0,0.0,-0.022941356524825096,-0.10948288440704346,0.005864232312887907,1495.0,1495.0,1495.0,1495.0,0.0,0.0,0.0,0.0,0.0,0.0,0.0,0.0,1495.0,1495.0,1495.0,1495.0,1.701354742050171,-0.08629060268206142,0.02685499027009617,0.057019237544633186,0.0047831228002905846,0.0002734530426096171,0.0
467,5,-9.343227134195331e-07,1.5301816347346175e-06,-2.0163408862572396e-06,0.0002852774050552398,-0.0013561670202761889,-0.00020086798758711666,0.017088746652007103,0.08132562786340714,0.013421713374555111,4.7115150664467365e-05,0.0016343200113624334,0.002845368580892682,0.0,0.0,0.0,0.0008528422331437469,-0.00037765444722026587,-0.0,0.0,0.0,0.0,-0.022941356524825096,-0.10948288440704346,0.005864232312887907,1495.0,1495.0,1495.0,1495.0,0.0,0.0,0.0,0.0,0.0,0.0,0.0,0.0,1495.0,1495.0,1495.0,1495.0,1.701117992401123,-0.08621399653253646,0.026665019935353633,0.05704524830744116,0.0015480349538847804,0.002689128741621971,0.0
472,5,1.6660659412082168e-06,-9.050345397554338e-06,-2.984046113851946e-05,0.00042615761049091816,0.0007271963986568153,0.003258547279983759,0.017090974375605583,0.0813564658164978,0.013425586745142937,0.001184073742479086,0.008243396878242493,-0.00017687793297227472,0.0,0.0,0.0,0.0008528422331437469,-0.00037765444722026587,-0.0,0.0,0.0,0.0,-0.023067656904459,-0.1089046522974968,0.005974403582513332,1495.0,1495.0,1495.0,1495.0,0.0,0.0,0.0,0.0,0.0,0.0,0.0,0.0,1495.0,1495.0,1495.0,1495.0,1.701117992401123,-0.08550039614448278,0.026602588996477487,0.05735978600141519,0.0015480349538847804,0.002689128741621971,0.0
477,5,-3.0651870019937633e-06,3.428244326642016e-06,-1.0486300197953824e-05,-0.0003972873091697693,-0.0012065521441400051,-0.001019080402329564,0.017090974375605583,0.0813564658164978,0.013425586745142937,0.001184073742479086,0.008243396878242493,-0.00017687793297227472,0.0,0.0,0.0,-0.0008811658481135964,0.00039220534381456673,-0.0,0.0,0.0,0.0,-0.023067656904459,-0.1089046522974968,0.005974403582513332,1495.0,1495.0,1495.0,1495.0,0.0,0.0,0.0,0.0,0.0,0.0,0.0,0.0,1495.0,1495.0,1495.0,1495.0,1.7011995315551758,-0.08680592571076487,0.026457434234653694,0.057079913499278594,-0.001607757294550538,-0.002778570167720318,0.0
482,5,2.4697486878721975e-05,-2.8499503969214857e-05,-9.948560182237998e-05,0.003172605996951461,0.003348708851262927,0.010272284038364887,0.017090974375605583,0.0813564658164978,0.013425586745142937,0.001184073742479086,0.008243396878242493,-0.00017687793297227472,0.0,0.0,0.0,-0.0008811658481135964,0.00039220534381456673,-0.0,0.0,0.0,0.0,-0.022942127659916878,-0.10899430513381958,0.006125027779489756,1495.0,1495.0,1495.0,1495.0,0.0,0.0,0.0,0.0,0.0,0.0,0.0,0.0,1495.0,1495.0,1495.0,1495.0,1.7011995315551758,-0.08510066312555797,0.02651568416198643,0.05780408415871031,-0.001607757294550538,-0.002778570167720318,0.0
487,5,9.268262147088535e-06,-1.9031830333915423e-06,-4.239439658704214e-05,-0.0005824646796099842,-0.0018520749872550368,-0.002742030890658498,0.017090974375605583,0.0813564658164978,0.013425586745142937,0.001184073742479086,0.008243396878242493,-0.00017687793297227472,0.0,0.0,0.0,-0.0040326849557459354,0.0029355597216635942,-0.0,0.0,0.0,0.0,-0.022942127659916878,-0.10899430513381958,0.006125027779489756,1495.0,1495.0,1495.0,1495.0,0.0,0.0,0.0,0.0,0.0,0.0,0.0,0.0,1495.0,1495.0,1495.0,1495.0,1.701219916343689,-0.08628837545684456,0.026744491957650197,0.05725784232881803,-0.01203369814902544,-0.01271631196141243,0.0
492,5,1.4122871107247192e-05,-1.4029391422809567e-05,-4.820835965801962e-05,0.0003495672717690468,0.000714315043296665,-0.00039913677028380334,0.01710122637450695,0.08131584525108337,0.013419500552117825,0.004679909907281399,0.003461815183982253,0.006458978168666363,0.0,0.0,0.0,-0.0040326849557459354,0.0029355597216635942,-0.0,0.0,0.0,0.0,-0.023274565115571022,-0.10937266051769257,0.006230809260159731,1495.0,1495.0,1495.0,1495.0,0.0,0.0,0.0,0.0,0.0,0.0,0.0,0.0,1495.0,1495.0,1495.0,1495.0,1.701219916343689,-0.08489178839269902,0.02656424322037234,0.057632250250943186,-0.01203369814902544,-0.01271631196141243,0.0
497,5,1.2369488104013726e-05,-2.260918336105533e-06,-2.673427115951199e-05,-7.057906623231247e-05,-0.0011264907661825418,-0.0027365454006940126,0.01710122637450695,0.08131584525108337,0.013419500552117825,0.004679909907281399,0.003461815183982253,0.006458978168666363,0.0,0.0,0.0,-0.0008746445528231561,0.00033891276689246297,-0.0,0.0,0.0,0.0,-0.023274565115571022,-0.10937266051769257,0.006230809260159731,1495.0,1495.0,1495.0,1495.0,0.0,0.0,0.0,0.0,0.0,0.0,0.0,0.0,1495.0,1495.0,1495.0,1495.0,1.7010713815689087,-0.08578843276727958,0.027133658500807515,0.05718809291279586,-0.0013891918351873755,-0.002757798880338669,0.0
502,5,1.5944891629260383e-06,-1.0072439181385562e-05,-2.1552756152232178e-05,-0.0013212314806878567,0.00048678615712560713,-0.0017164001474156976,0.01711333356797695,0.08130248636007309,0.013441831804811954,0.0014631955418735743,0.007241340819746256,0.0007730547804385424,0.0,0.0,0.0,-0.0008746445528231561,0.00033891276689246297,-0.0,0.0,0.0,0.0,-0.023070713505148888,-0.10875757783651352,0.005855045281350613,1495.0,1495.0,1495.0,1495.0,0.0,0.0,0.0,0.0,0.0,0.0,0.0,0.0,1495.0,1495.0,1495.0,1495.0,1.7010713815689087,-0.08634752800956921,0.026673898878429546,0.0571478354052461,-0.0013891918351873755,-0.002757798880338669,0.0
507,5,7.680112190655564e-08,-8.531791536370292e-06,-6.793194273768677e-08,-0.0007106151897460222,9.836799108597916e-06,-0.0032647389452904463,0.01711333356797695,0.08130248636007309,0.013441831804811954,0.0014631955418735743,0.007241340819746256,0.0007730547804385424,0.0,0.0,0.0,-0.0005969825433567166,-0.0012061180314049125,-0.0,0.0,0.0,0.0,-0.023070713505148888,-0.10875757783651352,0.005855045281350613,1495.0,1495.0,1495.0,1495.0,0.0,0.0,0.0,0.0,0.0,0.0,0.0,0.0,1495.0,1495.0,1495.0,1495.0,1.7015420198440552,-0.08618918543930928,0.026913596815134184,0.05726100488629378,0.0049452041275799274,-0.0018828375032171607,0.0
512,5,-1.0693242984416429e-05,-1.2408525435603224e-05,8.501859156240243e-06,-0.0015766513533890247,0.00046914283302612603,-0.00233427039347589,0.01712062768638134,0.08132602274417877,0.013457256369292736,-0.00036046691820956767,0.004328712355345488,0.0048381490632891655,0.0,0.0,0.0,-0.0005969825433567166,-0.0012061180314049125,-0.0,0.0,0.0,0.0,-0.02320626564323902,-0.10942710191011429,0.0065965233370661736,1495.0,1495.0,1495.0,1495.0,0.0,0.0,0.0,0.0,0.0,0.0,0.0,0.0,1495.0,1495.0,1495.0,1495.0,1.7015420198440552,-0.08600727919004997,0.026827318677110475,0.05720481643730267,0.0049452041275799274,-0.0018828375032171607,0.0
517,5,-1.47720638778992e-05,-1.642689966274702e-07,3.069277590839192e-05,-0.0011201190063729882,-0.0012816536473110318,-0.0035966180730611086,0.01712062768638134,0.08132602274417877,0.013457256369292736,-0.00036046691820956767,0.004328712355345488,0.0048381490632891655,0.0,0.0,0.0,-0.0005969825433567166,-0.0012061180314049125,-0.0,0.0,0.0,0.0,-0.02320626564323902,-0.10942710191011429,0.0065965233370661736,1495.0,1495.0,1495.0,1495.0,0.0,0.0,0.0,0.0,0.0,0.0,0.0,0.0,1495.0,1495.0,1495.0,1495.0,1.7015420198440552,-0.08686864929572011,0.027057211295643542,0.05709441070648175,0.0049452041275799274,-0.0018828375032171607,0.0
522,5,4.951950813847361e-06,-1.7963126083486713e-05,-2.418062649667263e-05,0.0019188340520486236,0.0016232014168053865,0.00514616072177887,0.0171197559684515,0.08129356056451797,0.013454768806695938,0.0016222093254327774,0.00991212297230959,-0.0010030473349615932,0.0,0.0,0.0,0.0015226713148877025,-0.0010439463658258319,-0.0,0.0,0.0,0.0,-0.023095231503248215,-0.10847398638725281,0.005957452114671469,1495.0,1495.0,1495.0,1495.0,0.0,0.0,0.0,0.0,0.0,0.0,0.0,0.0,1495.0,1495.0,1495.0,1495.0,1.701867938041687,-0.08555068364744331,0.026653755829103235,0.05757727221200017,0.004281099885702133,0.004803305957466364,0.0
