timestamp,dt,pos_x,pos_y,pos_z,vel_x,vel_y,vel_z,roll,pitch,yaw,agv_x,agv_y,agv_z,x_ref,y_ref,z_ref,roll_ref,pitch_ref,yaw_ref,x_vel_ref,y_vel_ref,z_vel_ref,x_torque,y_torque,z_torque,w0,w1,w2,w3,u0,u1,u2,u3,m0req,m1req,m2req,m3req,thrust0,thrust1,thrust2,thrust3,thrust_ref,roll_vicon,pitch_vicon,yaw_vicon,acc_x,acc_y,acc_z
5,5,0.0,0.0,0.0,-0.0007990776211954653,0.0006724895793013275,0.0018988100346177816,0.004222066141664982,0.12682417035102844,0.0003850832872558385,-0.00048452147166244686,-0.0034484420903027058,-0.0014412772143259645,0.0,0.0,0.0,-0.0008314300794154406,-0.0007599515374749899,-0.0,0.0,0.0,0.0,-0.20000000298023224,-0.20000000298023224,0.0056109060533344746,1495.0,1495.0,1495.0,1495.0,0.0,0.0,0.0,0.0,0.0,0.0,0.0,0.0,1495.0,1495.0,1495.0,1495.0,1.6363742351531982,-0.07334338285356146,-0.03004969912983331,0.15534757745408842,0.00299654109403491,-0.0025218359660357237,0.0
28,23,0.0,0.0,0.0,-0.00021763368567917496,-0.0005514980875886977,0.00039972522063180804,0.004222066141664982,0.12682417035102844,0.0003850832872558385,-0.00048452147166244686,-0.0034484420903027058,-0.0014412772143259645,0.0,0.0,0.0,-0.0008314300794154406,-0.0007599515374749899,-0.0,0.0,0.0,0.0,-0.20000000298023224,-0.20000000298023224,0.0056109060533344746,1495.0,1495.0,1495.0,1495.0,0.0,0.0,0.0,0.0,0.0,0.0,0.0,0.0,1495.0,1495.0,1495.0,1495.0,1.6363742351531982,-0.07294710296121992,-0.029957252340726975,0.1556154565902849,0.00299654109403491,-0.0025218359660357237,0.0
34,5,0.0,0.0,0.0,0.0006757497321814299,-0.0004990586312487721,-0.0013239727122709155,0.004222066141664982,0.12682417035102844,0.0003850832872558385,-0.00048452147166244686,-0.0034484420903027058,-0.0014412772143259645,0.0,0.0,0.0,-0.0008314300794154406,-0.0007599515374749899,-0.0,0.0,0.0,0.0,-0.20000000298023224,-0.20000000298023224,0.0056109060533344746,1495.0,1495.0,1495.0,1495.0,0.0,0.0,0.0,0.0,0.0,0.0,0.0,0.0,1495.0,1495.0,1495.0,1495.0,1.6363742351531982,-0.07324170598292747,-0.030223422197200773,0.15561840617359346,0.00299654109403491,-0.0025218359660357237,0.0
39,5,0.0,0.0,0.0,0.0006757497321814299,-0.0004990586312487721,-0.0013239727122709155,0.004217448178678751,0.1268324851989746,0.0003863527381327003,0.000539884902536869,-0.0020243388134986162,-0.002029074588790536,0.0,0.0,0.0,0.0006177938194014132,0.0006434792885556817,-0.0,0.0,0.0,0.0,-0.20000000298023224,-0.20000000298023224,0.00276192557066679,1495.0,1495.0,1495.0,1495.0,0.0,0.0,0.0,0.0,0.0,0.0,0.0,0.0,1495.0,1495.0,1495.0,1495.0,1.6342962980270386,-0.07324170598292747,-0.030223422197200773,0.15561840617359346,-0.002534061437472701,0.001871469896286726,0.0
44,5,0.0,0.0,0.0,0.0006757497321814299,-0.0004990586312487721,-0.0013239727122709155,0.004214656539261341,0.12684018909931183,0.0003837040567304939,0.0030197466257959604,-0.0029008574783802032,0.001236660871654749,0.0,0.0,0.0,0.0006177938194014132,0.0006434792885556817,-0.0,0.0,0.0,0.0,-0.20000000298023224,-0.20000000298023224,0.03600555285811424,1495.0,1495.0,1495.0,1495.0,0.0,0.0,0.0,0.0,0.0,0.0,0.0,0.0,1495.0,1495.0,1495.0,1495.0,1.6342962980270386,-0.07324170598292747,-0.030223422197200773,0.15561840617359346,-0.002534061437472701,0.001871469896286726,0.0
52,8,1.218842044181656e-06,-1.080483434634516e-05,7.349209226958919e-06,0.0014909612946212292,0.000707464583683759,-0.001973783364519477,0.004214656539261341,0.12684018909931183,0.0003837040567304939,0.0030197466257959604,-0.0029008574783802032,0.001236660871654749,0.0,0.0,0.0,0.0006177938194014132,0.0006434792885556817,-0.0,0.0,0.0,0.0,-0.20000000298023224,-0.20000000298023224,0.03600555285811424,1495.0,1495.0,1495.0,1495.0,0.0,0.0,0.0,0.0,0.0,0.0,0.0,0.0,1495.0,1495.0,1495.0,1495.0,1.6342962980270386,-0.07300795891402692,-0.029902769172210852,0.1557202605592767,-0.002534061437472701,0.001871469896286726,0.0
60,9,-6.191609713823709e-07,-1.601686017238535e-05,-1.0217283488600515e-05,0.0009309613960795105,0.0005966100725345314,0.0016711141215637326,0.004214656539261341,0.12684018909931183,0.0003837040567304939,0.0030197466257959604,-0.0029008574783802032,0.001236660871654749,0.0,0.0,0.0,0.0006177938194014132,0.0006434792885556817,-0.0,0.0,0.0,0.0,-0.20000000298023224,-0.20000000298023224,0.03600555285811424,1495.0,1495.0,1495.0,1495.0,0.0,0.0,0.0,0.0,0.0,0.0,0.0,0.0,1495.0,1495.0,1495.0,1495.0,1.6342962980270386,-0.07332311990501343,-0.030169137690303348,0.15551999266014144,-0.002534061437472701,0.001871469896286726,0.0
65,5,3.2142211239261087e-06,-3.1841962027101545e-06,8.358246304851491e-06,0.0008323903894051909,-0.0013012756826356053,-0.0015606179367750883,0.004230974707752466,0.12684278190135956,0.000423696095822379,-2.7029456759919412e-05,0.009990446269512177,0.004505652468651533,0.0,0.0,0.0,-0.0007663291180506349,0.0008841102244332433,-0.0,0.0,0.0,0.0,-0.20000000298023224,-0.20000000298023224,0.03289521485567093,1495.0,1495.0,1495.0,1495.0,0.0,0.0,0.0,0.0,0.0,0.0,0.0,0.0,1495.0,1495.0,1495.0,1495.0,1.6371207237243652,-0.0734775167694909,-0.030093555929319386,0.15553954020823668,-0.003487697569653392,-0.0023254365660250187,0.0
71,5,1.4255987480282784e-05,-2.756868980213767e-06,-1.5321616956498474e-05,0.0016579681541770697,-0.000571789569221437,0.0022173363249748945,0.004230974707752466,0.12684278190135956,0.000423696095822379,-2.7029456759919412e-05,0.009990446269512177,0.004505652468651533,0.0,0.0,0.0,-0.0007663291180506349,0.0008841102244332433,-0.0,0.0,0.0,0.0,-0.20000000298023224,-0.20000000298023224,0.03289521485567093,1495.0,1495.0,1495.0,1495.0,0.0,0.0,0.0,0.0,0.0,0.0,0.0,0.0,1495.0,1495.0,1495.0,1495.0,1.6371207237243652,-0.07367818590055075,-0.029804525107961735,0.15541638915947287,-0.003487697569653392,-0.0023254365660250187,0.0
76,5,8.408937901549507e-06,4.373343017505249e-06,-1.4714057670062175e-06,-3.845871106022969e-05,-0.00108434131834656,-0.0007750907680019736,0.004235547035932541,0.12685109674930573,0.00045229116221889853,-0.00011318974429741502,0.0027434080839157104,0.002162954304367304,0.0,0.0,0.0,0.0006987521192058921,0.0015895029064267874,-0.0,0.0,0.0,0.0,-0.20000000298023224,-0.20000000298023224,0.024957196786999702,1495.0,1495.0,1495.0,1495.0,0.0,0.0,0.0,0.0,0.0,0.0,0.0,0.0,1495.0,1495.0,1495.0,1495.0,1.6437678337097168,-0.07343672236417058,-0.030336504922767654,0.1554727354774199,-0.006295836064964533,0.002128982450813055,0.0
81,5,4.300325144868111e-06,5.199376573727932e-06,3.447267999945325e-06,-0.0005084170261397958,-0.0005328605766408145,-0.0009002771694213152,0.004235547035932541,0.12685109674930573,0.00045229116221889853,-0.00011318974429741502,0.0027434080839157104,0.002162954304367304,0.0,0.0,0.0,0.0006987521192058921,0.0015895029064267874,-0.0,0.0,0.0,0.0,-0.20000000298023224,-0.20000000298023224,0.024957196786999702,1495.0,1495.0,1495.0,1495.0,0.0,0.0,0.0,0.0,0.0,0.0,0.0,0.0,1495.0,1495.0,1495.0,1495.0,1.6437678337097168,-0.07342898945864185,-0.029984027552843007,0.1554921438376844,-0.006295836064964533,0.002128982450813055,0.0
86,5,1.0506642865948379e-05,4.081178758497117e-06,5.01947533848579e-06,0.0005413913750089705,-7.896046008681878e-05,-0.0005487757734954357,0.004241189919412136,0.12684668600559235,0.0004647417226806283,0.0025027075316756964,-0.002445739461109042,0.00041258265264332294,0.0,0.0,0.0,0.0006694887997582555,-0.0004784204647876322,-0.0,0.0,0.0,0.0,-0.20000000298023224,-0.20000000298023224,0.02645546942949295,1495.0,1495.0,1495.0,1495.0,0.0,0.0,0.0,0.0,0.0,0.0,0.0,0.0,1495.0,1495.0,1495.0,1495.0,1.633255124092102,-0.0733414633367096,-0.03025327815755597,0.1555472335486345,0.0018828492611646652,0.0020267763175070286,0.0
91,5,5.271090685710078e-06,4.6094587560219225e-06,6.9362481553980615e-06,-0.0004117097705602646,-9.497780411038548e-05,-0.0004495230095926672,0.004241189919412136,0.12684668600559235,0.0004647417226806283,0.0025027075316756964,-0.002445739461109042,0.00041258265264332294,0.0,0.0,0.0,0.0006694887997582555,-0.0004784204647876322,-0.0,0.0,0.0,0.0,-0.20000000298023224,-0.20000000298023224,0.02645546942949295,1495.0,1495.0,1495.0,1495.0,0.0,0.0,0.0,0.0,0.0,0.0,0.0,0.0,1495.0,1495.0,1495.0,1495.0,1.633255124092102,-0.07300719428263229,-0.03021041158904553,0.15558959541242232,0.0018828492611646652,0.0020267763175070286,0.0
96,5,1.0923449735855684e-06,-7.796021236572415e-06,-1.0524944627832156e-05,-0.0006661333609372377,0.0014506664592772722,0.0019155339105054736,0.004241189919412136,0.12684668600559235,0.0004647417226806283,0.0025027075316756964,-0.002445739461109042,0.00041258265264332294,0.0,0.0,0.0,0.00012626635725609958,-0.00038568314630538225,-0.0,0.0,0.0,0.0,-0.20000000298023224,-0.20000000298023224,0.030355487018823624,1495.0,1495.0,1495.0,1495.0,0.0,0.0,0.0,0.0,0.0,0.0,0.0,0.0,1495.0,1495.0,1495.0,1495.0,1.6299865245819092,-0.07305419274726321,-0.030152607699205594,0.1555763035427649,0.0015148393576964736,0.0003814874216914177,0.0
101,5,-7.23638677868621e-08,-2.562520649007638e-06,2.853993521512166e-07,-0.00040621840162202716,-4.775346678798087e-05,-0.0005310276756063104,0.004241189919412136,0.12684668600559235,0.0004647417226806283,0.0025027075316756964,-0.002445739461109042,0.00041258265264332294,0.0,0.0,0.0,0.00012626635725609958,-0.00038568314630538225,-0.0,0.0,0.0,0.0,-0.20000000298023224,-0.20000000298023224,0.030355487018823624,1495.0,1495.0,1495.0,1495.0,0.0,0.0,0.0,0.0,0.0,0.0,0.0,0.0,1495.0,1495.0,1495.0,1495.0,1.6299865245819092,-0.07311945935675063,-0.030140974349909047,0.15581820579685138,0.0015148393576964736,0.0003814874216914177,0.0
106,5,-1.2020811482216232e-05,-1.5571542462566867e-05,-3.5535542792786146e-06,-0.001596301095560193,0.0015419811243191361,0.00024826335720717907,0.004248303361237049,0.12688390910625458,0.0004866208473686129,-0.0018031225772574544,0.0029998437967151403,-0.00024405149451922625,0.0,0.0,0.0,5.459567182697356e-05,-0.00038794195279479027,-0.0,0.0,0.0,0.0,-0.20000000298023224,-0.20000000298023224,-0.007888169027864933,1495.0,1495.0,1495.0,1495.0,0.0,0.0,0.0,0.0,0.0,0.0,0.0,0.0,1495.0,1495.0,1495.0,1495.0,1.629906177520752,-0.07333476404450912,-0.03018973910020897,0.15564348953746734,0.0015236360486596823,0.00016494128794874996,0.0
111,5,4.983267444913508e-06,-2.5135159376077354e-05,-8.22175934445113e-06,0.0014019689988344908,0.0017644265899434686,0.000659489945974201,0.004248303361237049,0.12688390910625458,0.0004866208473686129,-0.0018031225772574544,0.0029998437967151403,-0.00024405149451922625,0.0,0.0,0.0,5.459567182697356e-05,-0.00038794195279479027,-0.0,0.0,0.0,0.0,-0.20000000298023224,-0.20000000298023224,-0.007888169027864933,1495.0,1495.0,1495.0,1495.0,0.0,0.0,0.0,0.0,0.0,0.0,0.0,0.0,1495.0,1495.0,1495.0,1495.0,1.629906177520752,-0.07289393602879501,-0.029710496589161833,0.15581795878600982,0.0015236360486596823,0.00016494128794874996,0.0
116,5,6.776514055673033e-06,-8.89541297510732e-06,1.331591306552582e-06,0.0007759772124700248,-0.0012429988710209727,-0.0008826060802675784,0.004248768091201782,0.1268848478794098,0.0004808672529179603,-0.002759371418505907,0.0012444842141121626,0.0025952893774956465,0.0,0.0,0.0,-0.0022100256755948067,0.0013300467981025577,-0.0,0.0,0.0,0.0,-0.20000000298023224,-0.20000000298023224,0.010984981432557106,1495.0,1495.0,1495.0,1495.0,0.0,0.0,0.0,0.0,0.0,0.0,0.0,0.0,1495.0,1495.0,1495.0,1495.0,1.6489911079406738,-0.07336725751427753,-0.03013620890190786,0.15571164306327073,-0.005284890066832304,-0.0067549715749919415,0.0
121,5,1.381924630550202e-05,-3.946717583858117e-07,7.113395895430585e-06,0.0011555186938494444,-0.0015172885032370687,-0.00104685896076262,0.004248768091201782,0.1268848478794098,0.0004808672529179603,-0.002759371418505907,0.0012444842141121626,0.0025952893774956465,0.0,0.0,0.0,-0.0022100256755948067,0.0013300467981025577,-0.0,0.0,0.0,0.0,-0.20000000298023224,-0.20000000298023224,0.010984981432557106,1495.0,1495.0,1495.0,1495.0,0.0,0.0,0.0,0.0,0.0,0.0,0.0,0.0,1495.0,1495.0,1495.0,1495.0,1.6489911079406738,-0.07312437112659136,-0.02969387821040609,0.15579454289667816,-0.005284890066832304,-0.0067549715749919415,0.0
126,5,1.0068256415252108e-05,-1.3827955172018846e-06,9.428642442799173e-06,1.208879257319495e-05,-0.0004883405636064708,-0.0006965731736272573,0.004249542485922575,0.1268807202577591,0.0004892993019893765,-0.0017989862244576216,0.00503339571878314,-0.0005338012124411762,0.0,0.0,0.0,0.0018650119891390204,0.001112216035835445,-0.0,0.0,0.0,0.0,-0.20000000298023224,-0.20000000298023224,0.031198017299175262,1495.0,1495.0,1495.0,1495.0,0.0,0.0,0.0,0.0,0.0,0.0,0.0,0.0,1495.0,1495.0,1495.0,1495.0,1.6452584266662598,-0.07339541643588483,-0.02984795448111166,0.15564630657691989,-0.004409347660839558,0.005687531549483538,0.0
131,5,4.460558557184413e-06,6.176142051117495e-06,2.7692574349202914e-06,-0.0006680882652290165,-0.0011024087434634566,0.0005204969202168286,0.004249542485922575,0.1268807202577591,0.0004892993019893765,-0.0017989862244576216,0.00503339571878314,-0.0005338012124411762,0.0,0.0,0.0,0.0018650119891390204,0.001112216035835445,-0.0,0.0,0.0,0.0,-0.20000000298023224,-0.20000000298023224,0.031198017299175262,1495.0,1495.0,1495.0,1495.0,0.0,0.0,0.0,0.0,0.0,0.0,0.0,0.0,1495.0,1495.0,1495.0,1495.0,1.6452584266662598,-0.07323942605545175,-0.029738179711750228,0.15561666118989798,-0.004409347660839558,0.005687531549483538,0.0
136,5,-1.8843757061404176e-06,-1.7612507008379907e-06,-8.044861488087918e-07,-0.0010286273900419474,0.0005115236272104084,0.0006370479823090136,0.004255049396306276,0.12685246765613556,0.0005105576128698885,0.0020910410676151514,0.0028573109302669764,0.001927453326061368,0.0,0.0,0.0,0.0013720010174438357,-0.0006281416863203049,-0.0,0.0,0.0,0.0,-0.20000000298023224,-0.20000000298023224,0.01414062362164259,1495.0,1495.0,1495.0,1495.0,0.0,0.0,0.0,0.0,0.0,0.0,0.0,0.0,1495.0,1495.0,1495.0,1495.0,1.63890540599823,-0.07316973984324586,-0.030400619308095303,0.15555973804997983,0.002480635419487953,0.004167893435806036,0.0
141,5,-1.3586293334810762e-06,2.5868735065159854e-06,-8.39361655380344e-06,-0.0003483613836579025,-0.00031716545345261693,0.001165514811873436,0.004255049396306276,0.12685246765613556,0.0005105576128698885,0.0020910410676151514,0.0028573109302669764,0.001927453326061368,0.0,0.0,0.0,0.0013720010174438357,-0.0006281416863203049,-0.0,0.0,0.0,0.0,-0.20000000298023224,-0.20000000298023224,0.01414062362164259,1495.0,1495.0,1495.0,1495.0,0.0,0.0,0.0,0.0,0.0,0.0,0.0,0.0,1495.0,1495.0,1495.0,1495.0,1.63890540599823,-0.07360663534334341,-0.030249894874093665,0.15565203610695857,0.002480635419487953,0.004167893435806036,0.0
147,5,1.3068004136584932e-06,2.2150622953631682e-06,-1.6476928067277186e-05,0.00018050700600724667,-8.22488364065066e-05,0.0014362034853547812,0.004250463098287582,0.12685129046440125,0.0005025351420044899,-0.0010836166329681873,-0.0006501215975731611,0.0005540440324693918,0.0,0.0,0.0,0.00039819383528083563,-0.00033434253418818116,-0.0,0.0,0.0,0.0,-0.20000000298023224,-0.20000000298023224,0.02723211795091629,1495.0,1495.0,1495.0,1495.0,0.0,0.0,0.0,0.0,0.0,0.0,0.0,0.0,1495.0,1495.0,1495.0,1495.0,1.6305824518203735,-0.07296600042154133,-0.029927438028456738,0.15555394622024765,0.0013136699562892318,0.0012034992687404156,0.0
152,5,7.42774818718317e-06,-1.8188055719292606e-06,-6.6330935624137055e-06,0.0008067165617831051,0.0004511646111495793,-0.0006067788344807923,0.004250463098287582,0.12685129046440125,0.0005025351420044899,-0.0010836166329681873,-0.0006501215975731611,0.0005540440324693918,0.0,0.0,0.0,0.00039819383528083563,-0.00033434253418818116,-0.0,0.0,0.0,0.0,-0.20000000298023224,-0.20000000298023224,0.02723211795091629,1495.0,1495.0,1495.0,1495.0,0.0,0.0,0.0,0.0,0.0,0.0,0.0,0.0,1495.0,1495.0,1495.0,1495.0,1.6305824518203735,-0.07315750568612699,-0.030454025309455138,0.1558549570158588,0.0013136699562892318,0.0012034992687404156,0.0
157,5,5.510848950507352e-06,-1.0887829375860747e-05,2.8625672712223604e-06,9.265870176022872e-05,0.0012687487760558724,-0.0013821908505633473,0.004250463098287582,0.12685129046440125,0.0005025351420044899,-0.0010836166329681873,-0.0006501215975731611,0.0005540440324693918,0.0,0.0,0.0,-0.0005615096306428313,0.0007781516178511083,-0.0,0.0,0.0,0.0,-0.20000000298023224,-0.20000000298023224,0.02723211795091629,1495.0,1495.0,1495.0,1495.0,0.0,0.0,0.0,0.0,0.0,0.0,0.0,0.0,1495.0,1495.0,1495.0,1495.0,1.6352635622024536,-0.07368593224450753,-0.030325099206361804,0.15566110562945704,-0.0030662233475595713,-0.0017019761726260185,0.0
162,5,8.030052413232625e-06,-5.874006092199124e-06,-5.34264984253241e-07,0.00033936789259314537,-9.415935346623883e-05,-0.00014525646110996604,0.00424967473372817,0.12687017023563385,0.0005046365549787879,0.00019405249622650445,-0.0009694740292616189,0.0020231876987963915,0.0,0.0,0.0,-0.0005615096306428313,0.0007781516178511083,-0.0,0.0,0.0,0.0,-0.20000000298023224,-0.20000000298023224,0.019154606387019157,1495.0,1495.0,1495.0,1495.0,0.0,0.0,0.0,0.0,0.0,0.0,0.0,0.0,1495.0,1495.0,1495.0,1495.0,1.6352635622024536,-0.07305652077485153,-0.030136244782056527,0.1556018449500535,-0.0030662233475595713,-0.0017019761726260185,0.0
167,5,1.0270023267366923e-05,-2.010155913012568e-05,2.478798160154838e-05,0.00040454359259456396,0.001669642748311162,-0.003096772124990821,0.00424967473372817,0.12687017023563385,0.0005046365549787879,0.00019405249622650445,-0.0009694740292616189,0.0020231876987963915,0.0,0.0,0.0,0.00010617150110192597,0.00033542976598255336,-0.0,0.0,0.0,0.0,-0.20000000298023224,-0.20000000298023224,0.019154606387019157,1495.0,1495.0,1495.0,1495.0,0.0,0.0,0.0,0.0,0.0,0.0,0.0,0.0,1495.0,1495.0,1495.0,1495.0,1.6294254064559937,-0.07318774393125473,-0.029594193704659714,0.15550116363171376,-0.0013170066522434354,0.00032066457788459957,0.0
172,5,7.377198016911279e-06,-1.6660798792145215e-05,2.1146188373677433e-05,-0.00018532156536821276,0.0002549656783230603,-0.0008016936480998993,0.004254023544490337,0.12686727941036224,0.0005074028158560395,0.0018013067310675979,0.00568779231980443,0.002005365677177906,0.0,0.0,0.0,0.00010617150110192597,0.00033542976598255336,-0.0,0.0,0.0,0.0,-0.20000000298023224,-0.20000000298023224,-0.01125496719032526,1495.0,1495.0,1495.0,1495.0,0.0,0.0,0.0,0.0,0.0,0.0,0.0,0.0,1495.0,1495.0,1495.0,1495.0,1.6294254064559937,-0.07345498092598686,-0.029924178896744286,0.15563803924529812,-0.0013170066522434354,0.00032066457788459957,0.0
177,5,6.742854111507768e-06,-1.4774674127693288e-05,3.8979345617917716e-07,-0.0001502498926129192,-0.00012434857490006834,0.002170089865103364,0.004254023544490337,0.12686727941036224,0.0005074028158560395,0.0018013067310675979,0.00568779231980443,0.002005365677177906,0.0,0.0,0.0,0.00010617150110192597,0.00033542976598255336,-0.0,0.0,0.0,0.0,-0.20000000298023224,-0.20000000298023224,-0.01125496719032526,1495.0,1495.0,1495.0,1495.0,0.0,0.0,0.0,0.0,0.0,0.0,0.0,0.0,1495.0,1495.0,1495.0,1495.0,1.6294254064559937,-0.07300524773585794,-0.030246145788607584,0.15568190219731246,-0.0013170066522434354,0.00032066457788459957,0.0
182,5,1.3509252312360331e-06,-4.799435373570304e-06,-4.687409273174126e-06,-0.0007071314030326903,-0.0012467681663110852,0.0014773003058508039,0.004257251042872667,0.12684988975524902,0.00047975429333746433,-0.0012907665222883224,0.0035515183117240667,-0.0019458679016679525,0.0,0.0,0.0,0.00012750494352076203,-0.00013407647202257067,-0.0,0.0,0.0,0.0,-0.20000000298023224,-0.20000000298023224,-0.00892502162605524,1495.0,1495.0,1495.0,1495.0,0.0,0.0,0.0,0.0,0.0,0.0,0.0,0.0,1495.0,1495.0,1495.0,1495.0,1.6284600496292114,-0.07291112743945193,-0.030160699684749433,0.15571709982041065,0.0005261160549707711,0.0003848687920253724,0.0
187,5,-7.745743459963705e-06,-3.0332021196954884e-06,-2.6313462512916885e-05,-0.0013744528405368328,-0.0007106552366167307,0.0031860466115176678,0.004257251042872667,0.12684988975524902,0.00047975429333746433,-0.0012907665222883224,0.0035515183117240667,-0.0019458679016679525,0.0,0.0,0.0,0.00012750494352076203,-0.00013407647202257067,-0.0,0.0,0.0,0.0,-0.20000000298023224,-0.20000000298023224,-0.00892502162605524,1495.0,1495.0,1495.0,1495.0,0.0,0.0,0.0,0.0,0.0,0.0,0.0,0.0,1495.0,1495.0,1495.0,1495.0,1.6284600496292114,-0.07290419348483726,-0.03015907968410857,0.15552604726818123,0.0005261160549707711,0.0003848687920253724,0.0
192,5,-1.646343298489228e-05,-1.0330880968467682e-06,-2.7940181098529138e-05,-0.0015959037700667977,-0.0005242757615633309,0.0014696248108521104,0.004254960920661688,0.12682464718818665,0.0004547633870970458,-0.0026197610422968864,-0.0005106971366330981,0.002051000250503421,0.0,0.0,0.0,0.0008702930645085871,-0.0013137381756678224,-0.0,0.0,0.0,0.0,-0.20000000298023224,-0.20000000298023224,0.032230500131845474,1495.0,1495.0,1495.0,1495.0,0.0,0.0,0.0,0.0,0.0,0.0,0.0,0.0,1495.0,1495.0,1495.0,1495.0,1.641565203666687,-0.072859865243595,-0.029763992213533853,0.1556065559915307,0.0051965913735330105,0.0026480862870812416,0.0
197,5,-4.374481250124518e-06,2.105610064973007e-06,-2.126293293258641e-05,0.000812312588095665,-0.000586354115512222,-0.00021341998944990337,0.004254960920661688,0.12682464718818665,0.0004547633870970458,-0.0026197610422968864,-0.0005106971366330981,0.002051000250503421,0.0,0.0,0.0,0.0008702930645085871,-0.0013137381756678224,-0.0,0.0,0.0,0.0,-0.20000000298023224,-0.20000000298023224,0.032230500131845474,1495.0,1495.0,1495.0,1495.0,0.0,0.0,0.0,0.0,0.0,0.0,0.0,0.0,1495.0,1495.0,1495.0,1495.0,1.641565203666687,-0.07310431643611016,-0.030097187405595197,0.15563263406810737,0.0051965913735330105,0.0026480862870812416,0.0
202,5,2.106308329530293e-06,3.0643391255580354e-06,-1.3863785170542542e-05,0.0011026198044419289,-0.0003495891287457198,-0.0009732656762935221,0.004249557387083769,0.12681283056735992,0.00047254309174604714,-0.0018295409390702844,0.0015977504663169384,0.00013306812616065145,0.0,0.0,0.0,0.0007289032218977809,0.000766704382840544,-0.0,0.0,0.0,0.0,-0.20000000298023224,-0.20000000298023224,0.01308450847864151,1495.0,1495.0,1495.0,1495.0,0.0,0.0,0.0,0.0,0.0,0.0,0.0,0.0,1495.0,1495.0,1495.0,1495.0,1.6359072923660278,-0.07345781440571739,-0.030070154835858027,0.1555529867166654,-0.0030223054345697165,0.0022102277725934982,0.0
207,5,4.277736024960177e-06,1.6614438891338068e-06,-4.061030722368741e-06,0.0007016192539595068,2.8511789423646405e-05,-0.0015656367177143693,0.004249557387083769,0.12681283056735992,0.00047254309174604714,-0.0018295409390702844,0.0015977504663169384,0.00013306812616065145,0.0,0.0,0.0,0.0007289032218977809,0.000766704382840544,-0.0,0.0,0.0,0.0,-0.20000000298023224,-0.20000000298023224,0.01308450847864151,1495.0,1495.0,1495.0,1495.0,0.0,0.0,0.0,0.0,0.0,0.0,0.0,0.0,1495.0,1495.0,1495.0,1495.0,1.6359072923660278,-0.07352744803213043,-0.030159829227664046,0.15551571018828766,-0.0030223054345697165,0.0022102277725934982,0.0
212,5,8.643261935503688e-06,-9.640648386266548e-06,2.092237991746515e-05,0.0008045108406804502,0.0013676558155566454,-0.0036242639180272818,0.004234842024743557,0.12683717906475067,0.0005074720247648656,0.00038335827412083745,3.2718257898523007e-06,0.005428084172308445,0.0,0.0,0.0,-3.236304110032506e-05,0.0006746933213435113,-0.0,0.0,0.0,0.0,-0.20000000298023224,-0.20000000298023224,0.05019791051745415,1495.0,1495.0,1495.0,1495.0,0.0,0.0,0.0,0.0,0.0,0.0,0.0,0.0,1495.0,1495.0,1495.0,1495.0,1.632957100868225,-0.07356921933697068,-0.03063696418092908,0.1556267274394451,-0.0026548076421022415,-9.795636287890375e-05,0.0
218,5,1.2042800335620996e-05,-1.3621875041280873e-05,3.075131826335564e-05,0.0007297489210031927,0.0010248094331473112,-0.0026291783433407545,0.004234842024743557,0.12683717906475067,0.0005074720247648656,0.00038335827412083745,3.2718257898523007e-06,0.005428084172308445,0.0,0.0,0.0,-3.236304110032506e-05,0.0006746933213435113,-0.0,0.0,0.0,0.0,-0.20000000298023224,-0.20000000298023224,0.05019791051745415,1495.0,1495.0,1495.0,1495.0,0.0,0.0,0.0,0.0,0.0,0.0,0.0,0.0,1495.0,1495.0,1495.0,1495.0,1.632957100868225,-0.07384362927453415,-0.029932996100352084,0.15553689295933978,-0.0026548076421022415,-9.795636287890375e-05,0.0
223,5,2.2495498797070468e-06,-1.6805221093818545e-05,3.3010117476806045e-05,-0.0008832904859445989,0.0007919254130683839,-0.0013227270683273673,0.004228096455335617,0.12683452665805817,0.0004940883372910321,0.003288715612143278,0.0009123634081333876,0.0027137843426316977,0.0,0.0,0.0,-0.0012898686109110713,0.000709819607436657,-0.0,0.0,0.0,0.0,-0.20000000298023224,-0.20000000298023224,0.020830467343330383,1495.0,1495.0,1495.0,1495.0,0.0,0.0,0.0,0.0,0.0,0.0,0.0,0.0,1495.0,1495.0,1495.0,1495.0,1.6388168334960938,-0.07374974073013883,-0.030058894303713408,0.15548938048867864,-0.0028030439279973507,-0.003918178379535675,0.0
228,5,-2.260934707010165e-06,-1.354629421257414e-05,2.1711402951041237e-05,-0.0008945743320509791,-7.430105324601755e-05,0.0008267547818832099,0.004228096455335617,0.12683452665805817,0.0004940883372910321,0.003288715612143278,0.0009123634081333876,0.0027137843426316977,0.0,0.0,0.0,-0.0012898686109110713,0.000709819607436657,-0.0,0.0,0.0,0.0,-0.20000000298023224,-0.20000000298023224,0.020830467343330383,1495.0,1495.0,1495.0,1495.0,0.0,0.0,0.0,0.0,0.0,0.0,0.0,0.0,1495.0,1495.0,1495.0,1495.0,1.6388168334960938,-0.0734920620811626,-0.029860053022068823,0.1555136605938116,-0.0028030439279973507,-0.003918178379535675,0.0
233,5,-1.0371857570135035e-05,-1.653751496633049e-05,2.136199100277736e-06,-0.0013311405200511217,0.000329225993482396,0.002679726341739297,0.0042451852932572365,0.12686820328235626,0.0005122773582115769,-0.0012081293389201164,-0.000237111424212344,-0.001374212559312582,0.0,0.0,0.0,6.72697278787382e-05,-0.000854634097777307,-0.0,0.0,0.0,0.0,-0.20000000298023224,-0.20000000298023224,0.012147706001996994,1495.0,1495.0,1495.0,1495.0,0.0,0.0,0.0,0.0,0.0,0.0,0.0,0.0,1495.0,1495.0,1495.0,1495.0,1.6349003314971924,-0.07321609771658455,-0.030000340349060052,0.15541626784391332,0.003366846824064851,0.00020385414245538414,0.0
238,5,-1.4993917829997372e-05,-4.93129209644394e-06,-6.127453616500134e-06,-0.0010871033882722259,-0.0012610562844201922,0.0020635288674384356,0.0042451852932572365,0.12686820328235626,0.0005122773582115769,-0.0012081293389201164,-0.000237111424212344,-0.001374212559312582,0.0,0.0,0.0,6.72697278787382e-05,-0.000854634097777307,-0.0,0.0,0.0,0.0,-0.20000000298023224,-0.20000000298023224,0.012147706001996994,1495.0,1495.0,1495.0,1495.0,0.0,0.0,0.0,0.0,0.0,0.0,0.0,0.0,1495.0,1495.0,1495.0,1495.0,1.6349003314971924,-0.0726182652706826,-0.029749555736248354,0.1556948231233561,0.003366846824064851,0.00020385414245538414,0.0
243,5,-1.06119196061627e-05,9.700313057692256e-06,-2.617021709738765e-05,9.099838644033298e-05,-0.002260215114802122,0.0032305431086570024,0.0042451852932572365,0.12686820328235626,0.0005122773582115769,-0.0012081293389201164,-0.000237111424212344,-0.001374212559312582,0.0,0.0,0.0,0.0015440320130437613,-0.0010506354738026857,-0.0,0.0,0.0,0.0,-0.20000000298023224,-0.20000000298023224,0.012147706001996994,1495.0,1495.0,1495.0,1495.0,0.0,0.0,0.0,0.0,0.0,0.0,0.0,0.0,1495.0,1495.0,1495.0,1495.0,1.6427695751190186,-0.07245237841491663,-0.029965246718078157,0.1555552404957574,0.004158914554864168,0.004701551515609026,0.0
248,5,-5.453975518321386e-06,3.567929979908513e-06,-1.8620075934450142e-05,0.0006553526618517935,-0.00016820010205265135,0.00038620029226876795,0.004248230718076229,0.1268678903579712,0.000523916503880173,0.003837194060906768,0.0017806236864998937,-0.002937111770734191,0.0,0.0,0.0,0.0015440320130437613,-0.0010506354738026857,-0.0,0.0,0.0,0.0,-0.20000000298023224,-0.20000000298023224,0.01154455728828907,1495.0,1495.0,1495.0,1495.0,0.0,0.0,0.0,0.0,0.0,0.0,0.0,0.0,1495.0,1495.0,1495.0,1495.0,1.6427695751190186,-0.07296165241930934,-0.029739992383303184,0.15568681121466665,0.004158914554864168,0.004701551515609026,0.0
253,5,-5.7728070714802016e-06,1.9478397916827817e-06,-2.391001362411771e-05,0.00022388130309991539,0.00012713079922832549,0.0007892725989222527,0.004248230718076229,0.1268678903579712,0.000523916503880173,0.003837194060906768,0.0017806236864998937,-0.002937111770734191,0.0,0.0,0.0,0.00021483232558239251,0.0006171348504722118,-0.0,0.0,0.0,0.0,-0.20000000298023224,-0.20000000298023224,0.01154455728828907,1495.0,1495.0,1495.0,1495.0,0.0,0.0,0.0,0.0,0.0,0.0,0.0,0.0,1495.0,1495.0,1495.0,1495.0,1.6325682401657104,-0.0731218637723551,-0.03037204904560763,0.15552726070584674,-0.0024277460761368275,0.0006500990130007267,0.0
258,5,-6.090268470870797e-06,-9.995783329941332e-07,-1.2304280971875414e-05,5.1457114750519395e-05,0.0004045424866490066,-0.0010769788641482592,0.004273906350135803,0.12693212926387787,0.0005206951755098999,-0.00030322233214974403,-0.0036726167891174555,-0.00021378969540819526,0.0,0.0,0.0,0.00021483232558239251,0.0006171348504722118,-0.0,0.0,0.0,0.0,-0.20000000298023224,-0.20000000298023224,0.015058506280183792,1495.0,1495.0,1495.0,1495.0,0.0,0.0,0.0,0.0,0.0,0.0,0.0,0.0,1495.0,1495.0,1495.0,1495.0,1.6325682401657104,-0.07323713854716603,-0.030111865443562653,0.15565704289145757,-0.0024277460761368275,0.0006500990130007267,0.0
263,5,2.393698650848819e-06,1.987637432421252e-07,-1.2135866199969314e-05,0.0010386588983237743,1.801594771677628e-05,-0.0004510012804530561,0.004273906350135803,0.12693212926387787,0.0005206951755098999,-0.00030322233214974403,-0.0036726167891174555,-0.00021378969540819526,0.0,0.0,0.0,-0.0005040523828938603,4.064110544277355e-05,-0.0,0.0,0.0,0.0,-0.20000000298023224,-0.20000000298023224,0.015058506280183792,1495.0,1495.0,1495.0,1495.0,0.0,0.0,0.0,0.0,0.0,0.0,0.0,0.0,1495.0,1495.0,1495.0,1495.0,1.6299024820327759,-0.07328685293535431,-0.030483492515140355,0.155561173882339,-0.00015961694589350373,-0.0015228104311972857,0.0
268,5,-4.85982764075743e-06,-2.031560507020913e-05,3.540853867889382e-06,0.00038276627310551703,0.0014875370543450117,-0.0021666628308594227,0.0042647491209208965,0.12692168354988098,0.0005174397374503314,-7.846309017622843e-05,0.0037673786282539368,-0.0003599596966523677,0.0,0.0,0.0,-0.0005040523828938603,4.064110544277355e-05,-0.0,0.0,0.0,0.0,-0.20000000298023224,-0.20000000298023224,0.007654653396457434,1495.0,1495.0,1495.0,1495.0,0.0,0.0,0.0,0.0,0.0,0.0,0.0,0.0,1495.0,1495.0,1495.0,1495.0,1.6299024820327759,-0.07329969530848424,-0.030132377729891226,0.15557139678993145,-0.00015961694589350373,-0.0015228104311972857,0.0
273,5,-5.358916951081483e-06,-2.2478538085124455e-05,5.276356660033343e-06,9.321577817900106e-05,0.0008545667515136302,-0.0010749255307018757,0.0042647491209208965,0.12692168354988098,0.0005174397374503314,-7.846309017622843e-05,0.0037673786282539368,-0.0003599596966523677,0.0,0.0,0.0,-0.0018700410146266222,0.0003561322810128331,-0.0,0.0,0.0,0.0,-0.20000000298023224,-0.20000000298023224,0.007654653396457434,1495.0,1495.0,1495.0,1495.0,0.0,0.0,0.0,0.0,0.0,0.0,0.0,0.0,1495.0,1495.0,1495.0,1495.0,1.6416467428207397,-0.0730701215319455,-0.02969956593416509,0.15562580754041572,-0.0014087767340242863,-0.005690349265933037,0.0
278,5,-8.417497156187892e-06,-1.9111628716927953e-05,1.6690582924638875e-05,-0.00032974331406876445,-6.220242357812822e-05,-0.0017996772658079863,0.004259016830474138,0.12692728638648987,0.0004932792508043349,0.0006620444473810494,-0.0013607349246740341,-0.0014236093265935779,0.0,0.0,0.0,-0.0018700410146266222,0.0003561322810128331,-0.0,0.0,0.0,0.0,-0.20000000298023224,-0.20000000298023224,-7.288457709364593e-05,1495.0,1495.0,1495.0,1495.0,0.0,0.0,0.0,0.0,0.0,0.0,0.0,0.0,1495.0,1495.0,1495.0,1495.0,1.6416467428207397,-0.07345936653115423,-0.030143602452667086,0.15565427675822432,-0.0014087767340242863,-0.005690349265933037,0.0
284,5,-8.417497156187892e-06,-1.9111628716927953e-05,1.6690582924638875e-05,-0.00032974331406876445,-6.220242357812822e-05,-0.0017996772658079863,0.004259016830474138,0.12692728638648987,0.0004932792508043349,0.0006620444473810494,-0.0013607349246740341,-0.0014236093265935779,0.0,0.0,0.0,4.2295429011574015e-05,-0.00032673616078682244,-0.0,0.0,0.0,0.0,-0.20000000298023224,-0.20000000298023224,-7.288457709364593e-05,1495.0,1495.0,1495.0,1495.0,0.0,0.0,0.0,0.0,0.0,0.0,0.0,0.0,1495.0,1495.0,1495.0,1495.0,1.6292451620101929,-0.07345936653115423,-0.030143602452667086,0.15565427675822432,0.0012827308382838964,0.00012772867921739817,0.0
289,5,-8.07934338808991e-06,-5.906862952542724e-06,-1.1559193808352575e-05,0.00037354117375798523,-0.00078981788828969,0.001142701948992908,0.004254527855664492,0.12690287828445435,0.0005160815198905766,-0.0003902381577063352,0.00515688257291913,-0.000743329175747931,0.0,0.0,0.0,4.2295429011574015e-05,-0.00032673616078682244,-0.0,0.0,0.0,0.0,-0.20000000298023224,-0.20000000298023224,0.03592987731099129,1495.0,1495.0,1495.0,1495.0,0.0,0.0,0.0,0.0,0.0,0.0,0.0,0.0,1495.0,1495.0,1495.0,1495.0,1.6292451620101929,-0.0730793542109855,-0.029687024987819437,0.1555553400618638,0.0012827308382838964,0.00012772867921739817,0.0
294,5,-7.220276074804133e-06,-9.863373634289019e-06,8.985885813217465e-08,0.00025250454200431705,0.00015885409084148705,-0.0009408054756931961,0.004254527855664492,0.12690287828445435,0.0005160815198905766,-0.0003902381577063352,0.00515688257291913,-0.000743329175747931,0.0,0.0,0.0,0.000966736814007163,0.00034439354203641415,-0.0,0.0,0.0,0.0,-0.20000000298023224,-0.20000000298023224,0.03592987731099129,1495.0,1495.0,1495.0,1495.0,0.0,0.0,0.0,0.0,0.0,0.0,0.0,0.0,1495.0,1495.0,1495.0,1495.0,1.6345067024230957,-0.07302646136141318,-0.03018960755916341,0.1556424733413636,-0.0013564175460487604,0.0029288921505212784,0.0
299,5,3.0514840432260826e-07,-9.821491403272375e-06,-2.2378659195965156e-05,0.0010040526976808906,5.851576861459762e-05,0.0023199000861495733,0.004274677950888872,0.1269080489873886,0.000517494510859251,-7.541423838119954e-05,-0.007409346755594015,0.0024956469424068928,0.0,0.0,0.0,0.000966736814007163,0.00034439354203641415,-0.0,0.0,0.0,0.0,-0.20000000298023224,-0.20000000298023224,0.023876631632447243,1495.0,1495.0,1495.0,1495.0,0.0,0.0,0.0,0.0,0.0,0.0,0.0,0.0,1495.0,1495.0,1495.0,1495.0,1.6345067024230957,-0.07285403355265004,-0.03005400737017774,0.15557120557834625,-0.0013564175460487604,0.0029288921505212784,0.0
304,5,-3.152647650495055e-06,2.532995495130308e-06,-1.602872544026468e-05,-1.3314422176335938e-05,-0.001459132065065205,0.00016596786736045033,0.004274677950888872,0.1269080489873886,0.000517494510859251,-7.541423838119954e-05,-0.007409346755594015,0.0024956469424068928,0.0,0.0,0.0,-9.033147944137454e-05,0.0009555558208376169,-0.0,0.0,0.0,0.0,-0.20000000298023224,-0.20000000298023224,0.023876631632447243,1495.0,1495.0,1495.0,1495.0,0.0,0.0,0.0,0.0,0.0,0.0,0.0,0.0,1495.0,1495.0,1495.0,1495.0,1.635995626449585,-0.07281043210746321,-0.030371906219113492,0.15557646607180778,-0.003766951384022832,-0.00027392382617108524,0.0
309,5,2.190532995882677e-06,-1.2029619938402902e-05,-1.1577434634091333e-05,0.0006358558894135058,0.0011638610158115625,-0.0004677677061408758,0.004264953546226025,0.126931294798851,0.0005271026748232543,0.0014630034565925598,0.005559731274843216,-0.0002489069302100688,0.0,0.0,0.0,-9.033147944137454e-05,0.0009555558208376169,-0.0,0.0,0.0,0.0,-0.20000000298023224,-0.20000000298023224,0.037285637110471725,1495.0,1495.0,1495.0,1495.0,0.0,0.0,0.0,0.0,0.0,0.0,0.0,0.0,1495.0,1495.0,1495.0,1495.0,1.635995626449585,-0.07302470578368674,-0.029744586205872038,0.15565483424560778,-0.003766951384022832,-0.00027392382617108524,0.0
314,5,3.1767224299983354e-06,2.603313532745233e-06,-2.621893884224846e-07,0.0003726850845851004,-0.00129040761385113,-0.0015449365600943565,0.004264953546226025,0.126931294798851,0.0005271026748232543,0.0014630034565925598,0.005559731274843216,-0.0002489069302100688,0.0,0.0,0.0,-0.001458210521377623,0.0006066720234230161,-0.0,0.0,0.0,0.0,-0.20000000298023224,-0.20000000298023224,0.037285637110471725,1495.0,1495.0,1495.0,1495.0,0.0,0.0,0.0,0.0,0.0,0.0,0.0,0.0,1495.0,1495.0,1495.0,1495.0,1.6394133567810059,-0.07322286310059496,-0.030005313366471654,0.15550951262310017,-0.0023965907748788595,-0.004431155510246754,0.0
319,5,1.1656256901915185e-05,-1.3393265874128701e-07,2.7516705813468434e-05,0.0011666181962937117,-0.00018769351299852133,-0.003951441962271929,0.004253428429365158,0.12695203721523285,0.0005539088160730898,0.0014038471272215247,-0.0055360132828354836,0.002229435369372368,0.0,0.0,0.0,-0.001458210521377623,0.0006066720234230161,-0.0,0.0,0.0,0.0,-0.20000000298023224,-0.20000000298023224,0.02082917094230652,1495.0,1495.0,1495.0,1495.0,0.0,0.0,0.0,0.0,0.0,0.0,0.0,0.0,1495.0,1495.0,1495.0,1495.0,1.6394133567810059,-0.07323707998484723,-0.030495202744935168,0.15560972681114923,-0.0023965907748788595,-0.004431155510246754,0.0
324,5,-6.770675554435002e-06,-1.1795810678449925e-05,1.027814232656965e-05,-0.001744584646075964,0.0013243480352684855,0.00048805083497427404,0.004253428429365158,0.12695203721523285,0.0005539088160730898,0.0014038471272215247,-0.0055360132828354836,0.002229435369372368,0.0,0.0,0.0,-0.001458210521377623,0.0006066720234230161,-0.0,0.0,0.0,0.0,-0.20000000298023224,-0.20000000298023224,0.02082917094230652,1495.0,1495.0,1495.0,1495.0,0.0,0.0,0.0,0.0,0.0,0.0,0.0,0.0,1495.0,1495.0,1495.0,1495.0,1.6394133567810059,-0.07368246408415499,-0.029454409073669564,0.15545832216025954,-0.0023965907748788595,-0.004431155510246754,0.0
329,5,3.9871827084425604e-07,-1.5811066987225786e-05,1.4421108062379062e-05,0.00016249340842477977,0.0010115698678418994,-0.00030193556449376047,0.004267894197255373,0.12692315876483917,0.0005628613289445639,0.0010453383438289165,0.004140784498304129,0.0014160427963361144,0.0,0.0,0.0,-0.0016470274422317743,-0.0016566257691010833,-0.0,0.0,0.0,0.0,-0.20000000298023224,-0.20000000298023224,0.022047465667128563,1495.0,1495.0,1495.0,1495.0,0.0,0.0,0.0,0.0,0.0,0.0,0.0,0.0,1495.0,1495.0,1495.0,1495.0,1.6481962203979492,-0.07294861125656855,-0.0296716417721203,0.15561930324186501,0.006579371634870768,-0.00503173703327775,0.0
334,5,-1.6058123947004788e-05,-1.1734317013178952e-05,6.9620864451280795e-06,-0.0019098236225545406,-8.45820177346468e-05,0.0007743083988316357,0.004267894197255373,0.12692315876483917,0.0005628613289445639,0.0010453383438289165,0.004140784498304129,0.0014160427963361144,0.0,0.0,0.0,8.264170901384205e-05,-0.0018286071717739105,-0.0,0.0,0.0,0.0,-0.20000000298023224,-0.20000000298023224,0.022047465667128563,1495.0,1495.0,1495.0,1495.0,0.0,0.0,0.0,0.0,0.0,0.0,0.0,0.0,1495.0,1495.0,1495.0,1495.0,1.645414113998413,-0.07321259919983382,-0.029890196611958512,0.15551718441218595,0.007250154856592417,0.00025204787380062044,0.0
340,5,-1.3513107660401147e-05,-1.906720171973575e-05,5.382480139815016e-06,-0.00045852753100916743,0.0008461132529191673,0.0004992760950699449,0.004280667752027512,0.12692660093307495,0.0005644202465191483,-4.393022754811682e-05,0.0012555662542581558,0.002486517885699868,0.0,0.0,0.0,8.264170901384205e-05,-0.0018286071717739105,-0.0,0.0,0.0,0.0,-0.20000000298023224,-0.20000000298023224,0.007345152553170919,1495.0,1495.0,1495.0,1495.0,0.0,0.0,0.0,0.0,0.0,0.0,0.0,0.0,1495.0,1495.0,1495.0,1495.0,1.645414113998413,-0.07336340252575918,-0.029891753239418402,0.15559341405002974,0.007250154856592417,0.00025204787380062044,0.0
345,5,-1.2056475497956853e-05,-1.405306738888612e-05,-2.167681850551162e-05,-8.615171282144729e-06,-0.00026325072394683957,0.003446826245635748,0.004280667752027512,0.12692660093307495,0.0005644202465191483,-4.393022754811682e-05,0.0012555662542581558,0.002486517885699868,0.0,0.0,0.0,0.0003012306697200984,-2.514178595447447e-05,-0.0,0.0,0.0,0.0,-0.20000000298023224,-0.20000000298023224,0.007345152553170919,1495.0,1495.0,1495.0,1495.0,0.0,0.0,0.0,0.0,0.0,0.0,0.0,0.0,1495.0,1495.0,1495.0,1495.0,1.6284600496292114,-0.07275906153360177,-0.03018976823260558,0.15574110566180493,9.86563682090491e-05,0.0009092531981877983,0.0
350,5,-1.9210820028092712e-05,8.988517379293626e-07,-1.968288233911153e-05,-0.0008619673317298293,-0.0018995306454598904,0.0011394582688808441,0.004280667752027512,0.12692660093307495,0.0005644202465191483,-4.393022754811682e-05,0.0012555662542581558,0.002486517885699868,0.0,0.0,0.0,0.0003012306697200984,-2.514178595447447e-05,-0.0,0.0,0.0,0.0,-0.20000000298023224,-0.20000000298023224,0.007345152553170919,1495.0,1495.0,1495.0,1495.0,0.0,0.0,0.0,0.0,0.0,0.0,0.0,0.0,1495.0,1495.0,1495.0,1495.0,1.6284600496292114,-0.07263714939818355,-0.030306638521190116,0.15560598104608891,9.86563682090491e-05,0.0009092531981877983,0.0
355,5,1.6555645743210334e-06,5.236951778897492e-07,-1.317918304266641e-05,0.0021591791883111,-0.0007147934520617127,-0.00032466070842929184,0.004276524763554335,0.12689942121505737,0.0005970344645902514,0.0024891304783523083,0.0030062636360526085,-0.0007483530207537115,0.0,0.0,0.0,0.0003012306697200984,-2.514178595447447e-05,-0.0,0.0,0.0,0.0,-0.20000000298023224,-0.20000000298023224,0.023582257330417633,1495.0,1495.0,1495.0,1495.0,0.0,0.0,0.0,0.0,0.0,0.0,0.0,0.0,1495.0,1495.0,1495.0,1495.0,1.6284600496292114,-0.07290026505377613,-0.02996072407798246,0.1555508069920155,9.86563682090491e-05,0.0009092531981877983,0.0
360,5,8.577188964409288e-06,5.4280258154904e-06,-4.429105501913e-06,0.0016942665679380298,-0.0008744370425119996,-0.001179873594082892,0.004276524763554335,0.12689942121505737,0.0005970344645902514,0.0024891304783523083,0.0030062636360526085,-0.0007483530207537115,0.0,0.0,0.0,0.0008777583716437221,0.0020401596557348967,-0.0,0.0,0.0,0.0,-0.20000000298023224,-0.20000000298023224,0.023582257330417633,1495.0,1495.0,1495.0,1495.0,0.0,0.0,0.0,0.0,0.0,0.0,0.0,0.0,1495.0,1495.0,1495.0,1495.0,1.6488862037658691,-0.07334706150580907,-0.030275790016711674,0.15554701815753375,-0.008105994202196598,0.002682712394744158,0.0
365,5,7.660002665943466e-06,1.1733372957678512e-05,4.248803179507377e-06,0.0005676442524418235,-0.0011064165737479925,-0.0015132984844967723,0.004290214739739895,0.12689746916294098,0.0005992880323901772,0.00037108035758137703,0.004719166085124016,0.003025610698387027,0.0,0.0,0.0,0.0008777583716437221,0.0020401596557348967,-0.0,0.0,0.0,0.0,-0.20000000298023224,-0.20000000298023224,0.02563248760998249,1495.0,1495.0,1495.0,1495.0,0.0,0.0,0.0,0.0,0.0,0.0,0.0,0.0,1495.0,1495.0,1495.0,1495.0,1.6488862037658691,-0.07327402835762194,-0.029655830718411498,0.15561856703359433,-0.008105994202196598,0.002682712394744158,0.0
370,5,1.4650251614511944e-05,1.3186331671022344e-05,3.8132195641082944e-06,0.0010658876271918416,-0.0006169215776026249,-0.0005530493217520416,0.004290214739739895,0.12689746916294098,0.0005992880323901772,0.00037108035758137703,0.004719166085124016,0.003025610698387027,0.0,0.0,0.0,0.001387101481668651,0.000549783930182457,-0.0,0.0,0.0,0.0,-0.20000000298023224,-0.20000000298023224,0.02563248760998249,1495.0,1495.0,1495.0,1495.0,0.0,0.0,0.0,0.0,0.0,0.0,0.0,0.0,1495.0,1495.0,1495.0,1495.0,1.638604998588562,-0.07295482379383694,-0.02979502414771159,0.15543193431754893,-0.0021707897540181875,0.004212993662804365,0.0
375,5,1.1768693184421863e-05,-4.980478479410522e-06,7.811458090145607e-06,8.056799561018124e-05,0.0019332485971972346,-0.000701008306350559,0.004275784827768803,0.1268773078918457,0.0006008510827086866,0.003977073356509209,0.00014387529517989606,-0.002627067966386676,0.0,0.0,0.0,0.001387101481668651,0.000549783930182457,-0.0,0.0,0.0,0.0,-0.20000000298023224,-0.20000000298023224,-0.003060954622924328,1495.0,1495.0,1495.0,1495.0,0.0,0.0,0.0,0.0,0.0,0.0,0.0,0.0,1495.0,1495.0,1495.0,1495.0,1.638604998588562,-0.07363699452379227,-0.029811151763634348,0.15558163573865103,-0.0021707897540181875,0.004212993662804365,0.0
380,5,-6.57297869111062e-06,-8.646096830489114e-06,8.775169590080623e-06,-0.002168773440644145,0.0012131736148148775,-0.00039604873745702207,0.004275784827768803,0.1268773078918457,0.0006008510827086866,0.003977073356509209,0.00014387529517989606,-0.002627067966386676,0.0,0.0,0.0,-0.0023860919754952192,9.253149619325995e-05,-0.0,0.0,0.0,0.0,-0.20000000298023224,-0.20000000298023224,-0.003060954622924328,1495.0,1495.0,1495.0,1495.0,0.0,0.0,0.0,0.0,0.0,0.0,0.0,0.0,1495.0,1495.0,1495.0,1495.0,1.6455036401748657,-0.0737604100137409,-0.028862696252670714,0.15535710013692197,-0.00036689272383227944,-0.007277694530785084,0.0
385,5,-6.722610123688355e-06,-1.2429900380084291e-05,-1.0886101335927378e-06,-0.0008854651241563261,0.0009393258951604366,0.001025233999826014,0.004266197327524424,0.12684769928455353,0.0005914718494750559,-0.00013673760986421257,0.003231080248951912,0.0016357703134417534,0.0,0.0,0.0,-0.0023860919754952192,9.253149619325995e-05,-0.0,0.0,0.0,0.0,-0.20000000298023224,-0.20000000298023224,0.024712447077035904,1495.0,1495.0,1495.0,1495.0,0.0,0.0,0.0,0.0,0.0,0.0,0.0,0.0,1495.0,1495.0,1495.0,1495.0,1.6455036401748657,-0.07304076546632761,-0.029642832251382232,0.1554409211026528,-0.00036689272383227944,-0.007277694530785084,0.0
390,5,1.866118054749677e-06,-1.3227977433416527e-06,1.5456287655979395e-05,0.000676461320836097,-0.0009571220143698156,-0.0015752941835671663,0.004266197327524424,0.12684769928455353,0.0005914718494750559,-0.00013673760986421257,0.003231080248951912,0.0016357703134417534,0.0,0.0,0.0,-0.0011821324005723,-0.0008500756812281907,-0.0,0.0,0.0,0.0,-0.20000000298023224,-0.20000000298023224,0.024712447077035904,1495.0,1495.0,1495.0,1495.0,0.0,0.0,0.0,0.0,0.0,0.0,0.0,0.0,1495.0,1495.0,1495.0,1495.0,1.6390845775604248,-0.07339011776555633,-0.029832567410795905,0.15539258217686108,0.0033574572298675776,-0.0035914997570216656,0.0
395,5,-8.238148438977078e-06,-5.6685048548388295e-06,-4.5496631173591595e-06,-0.0009419274283573031,0.0001386360527249053,0.0017705964855849743,0.004262528847903013,0.12683387100696564,0.0005936773959547281,-0.0018437205580994487,0.003386341268196702,-0.0013688856270164251,0.0,0.0,0.0,-0.0011821324005723,-0.0008500756812281907,-0.0,0.0,0.0,0.0,-0.20000000298023224,-0.20000000298023224,0.0014752860879525542,1495.0,1495.0,1495.0,1495.0,0.0,0.0,0.0,0.0,0.0,0.0,0.0,0.0,1495.0,1495.0,1495.0,1495.0,1.6390845775604248,-0.07279312899365852,-0.029918951611758424,0.15555057749058263,0.0033574572298675776,-0.0035914997570216656,0.0
400,5,7.326534614549018e-07,4.066311703354586e-06,2.7842538656841498e-06,0.0006997252348810434,-0.0011127234902232885,-0.0001718314306344837,0.004262528847903013,0.12683387100696564,0.0005936773959547281,-0.0018437205580994487,0.003386341268196702,-0.0013688856270164251,0.0,0.0,0.0,-0.000181995565071702,-0.0009077482391148806,-0.0,0.0,0.0,0.0,-0.20000000298023224,-0.20000000298023224,0.0014752860879525542,1495.0,1495.0,1495.0,1495.0,0.0,0.0,0.0,0.0,0.0,0.0,0.0,0.0,1495.0,1495.0,1495.0,1495.0,1.6355698108673096,-0.0732884816840901,-0.029961975510137205,0.1554100594446897,0.003577555064111948,-0.0005517450044862926,0.0
405,5,1.2947648428962566e-05,7.196756996563636e-06,-4.76035347674042e-06,0.0017456895438954234,-0.0008207428618334234,0.0008366203401237726,0.00427430821582675,0.12685059010982513,0.0005608646315522492,-0.0009236943442374468,0.0007365302299149334,-0.0005211068782955408,0.0,0.0,0.0,-0.000181995565071702,-0.0009077482391148806,-0.0,0.0,0.0,0.0,-0.20000000298023224,-0.20000000298023224,-0.007301172241568565,1495.0,1495.0,1495.0,1495.0,0.0,0.0,0.0,0.0,0.0,0.0,0.0,0.0,1495.0,1495.0,1495.0,1495.0,1.6355698108673096,-0.07334970726307481,-0.030035348234264146,0.15540271391431773,0.003577555064111948,-0.0005517450044862926,0.0
410,5,1.4180491234583315e-06,5.807436082250206e-06,-5.066298399469815e-06,-0.0006852761143818498,-0.0001615786022739485,0.0003713615005835891,0.00427430821582675,0.12685059010982513,0.0005608646315522492,-0.0009236943442374468,0.0007365302299149334,-0.0005211068782955408,0.0,0.0,0.0,0.001021808828227222,0.001668895478360355,-0.0,0.0,0.0,0.0,-0.20000000298023224,-0.20000000298023224,-0.007301172241568565,1495.0,1495.0,1495.0,1495.0,0.0,0.0,0.0,0.0,0.0,0.0,0.0,0.0,1495.0,1495.0,1495.0,1495.0,1.6455774307250977,-0.07291628553957401,-0.030136450246359164,0.15553246258450298,-0.0066175758838653564,0.0031167101114988327,0.0
416,5,1.062599585566204e-05,4.22660787080531e-06,2.4043008579610614e-06,0.0008308431715704501,0.00012506794882938266,-0.0007479272899217904,0.004258780740201473,0.12685441970825195,0.0005470774485729635,0.00017621352162677795,-0.0015983835328370333,0.0012517118593677878,0.0,0.0,0.0,0.001021808828227222,0.001668895478360355,-0.0,0.0,0.0,0.0,-0.20000000298023224,-0.20000000298023224,-0.0062911901623010635,1495.0,1495.0,1495.0,1495.0,0.0,0.0,0.0,0.0,0.0,0.0,0.0,0.0,1495.0,1495.0,1495.0,1495.0,1.6455774307250977,-0.0729365539224854,-0.02973305759128462,0.1555266680649016,-0.0066175758838653564,0.0031167101114988327,0.0
421,5,8.431833521171939e-06,7.5917623689747415e-06,1.9603812688728794e-05,6.903775647515431e-05,-0.00035379137261770666,-0.0023631122894585133,0.004258780740201473,0.12685441970825195,0.0005470774485729635,0.00017621352162677795,-0.0015983835328370333,0.0012517118593677878,0.0,0.0,0.0,-0.00014734879368916154,0.0008059494430199265,-0.0,0.0,0.0,0.0,-0.20000000298023224,-0.20000000298023224,-0.0062911901623010635,1495.0,1495.0,1495.0,1495.0,0.0,0.0,0.0,0.0,0.0,0.0,0.0,0.0,1495.0,1495.0,1495.0,1495.0,1.6344457864761353,-0.07329773302869717,-0.02987846904443822,0.15550564589307356,-0.003174169920384884,-0.0004464015073608607,0.0
426,5,-5.600645636150148e-06,5.329457508196356e-06,-3.29230397255742e-06,-0.0016562823439016938,0.00012996001169085503,0.0018022890435531735,0.0042565190233290195,0.12684649229049683,0.0005376245826482773,0.0018788534216582775,0.0002849480661097914,-0.0028632045723497868,0.0,0.0,0.0,-0.00014734879368916154,0.0008059494430199265,-0.0,0.0,0.0,0.0,-0.20000000298023224,-0.20000000298023224,0.006903124041855335,1495.0,1495.0,1495.0,1495.0,0.0,0.0,0.0,0.0,0.0,0.0,0.0,0.0,1495.0,1495.0,1495.0,1495.0,1.6344457864761353,-0.07296095577781993,-0.029401651859721652,0.15542343618020268,-0.003174169920384884,-0.0004464015073608607,0.0
431,5,-1.384736037834955e-06,-9.258571481041145e-06,-9.352558663522359e-06,-0.00015660379722248763,0.0018025474855676293,0.001448146183975041,0.0042565190233290195,0.12684649229049683,0.0005376245826482773,0.0018788534216582775,0.0002849480661097914,-0.0028632045723497868,0.0,0.0,0.0,-0.00015063342289067805,-0.001576870447024703,-0.0,0.0,0.0,0.0,-0.20000000298023224,-0.20000000298023224,0.006903124041855335,1495.0,1495.0,1495.0,1495.0,0.0,0.0,0.0,0.0,0.0,0.0,0.0,0.0,1495.0,1495.0,1495.0,1495.0,1.642719030380249,-0.07291101646656407,-0.029750740549323463,0.15554739223159694,0.0062418170273303986,-0.0004586624272633344,0.0
436,5,-3.687832304422045e-06,-1.4386068869498558e-05,-1.3346897276278469e-06,-0.0003390130586922169,0.0013363186735659838,-0.0003828857734333724,0.004270847421139479,0.12684310972690582,0.0005362273077480495,-0.000525765004567802,0.00034736463567242026,0.001297607785090804,0.0,0.0,0.0,-0.00015063342289067805,-0.001576870447024703,-0.0,0.0,0.0,0.0,-0.20000000298023224,-0.20000000298023224,0.016629822552204132,1495.0,1495.0,1495.0,1495.0,0.0,0.0,0.0,0.0,0.0,0.0,0.0,0.0,1495.0,1495.0,1495.0,1495.0,1.642719030380249,-0.07289335144306627,-0.029870184653817848,0.15561217306518332,0.0062418170273303986,-0.0004586624272633344,0.0
441,5,-3.7436257116496563e-06,-1.0655602636688855e-05,-4.090466063644271e-06,-0.00014230042870622128,8.687150693731382e-05,0.00017753886641003191,0.004270847421139479,0.12684310972690582,0.0005362273077480495,-0.000525765004567802,0.00034736463567242026,0.001297607785090804,0.0,0.0,0.0,-0.00015063342289067805,-0.001576870447024703,-0.0,0.0,0.0,0.0,-0.20000000298023224,-0.20000000298023224,0.016629822552204132,1495.0,1495.0,1495.0,1495.0,0.0,0.0,0.0,0.0,0.0,0.0,0.0,0.0,1495.0,1495.0,1495.0,1495.0,1.642719030380249,-0.07329194116751725,-0.029597773365669197,0.15542852151738723,0.0062418170273303986,-0.0004586624272633344,0.0
446,5,-6.327199116640259e-06,-4.741344127978664e-06,9.813403266889509e-06,-0.0003669489815365523,-0.0006749624153599143,-0.001597448717802763,0.004277029540389776,0.12684810161590576,0.0005530044436454773,-0.00028167033451609313,-0.0004355920245870948,-0.002471574116498232,0.0,0.0,0.0,-0.0001275602262467146,-0.00014122940774541348,-0.0,0.0,0.0,0.0,-0.20000000298023224,-0.20000000298023224,0.009137541055679321,1495.0,1495.0,1495.0,1495.0,0.0,0.0,0.0,0.0,0.0,0.0,0.0,0.0,1495.0,1495.0,1495.0,1495.0,1.6284600496292114,-0.07341074500590296,-0.030038644764495612,0.15553301257809526,0.0005541841965168715,-0.00038503564428538084,0.0
451,5,-1.3197975476941792e-06,9.478518450123374e-07,5.948303169134306e-06,0.00045410858001559973,-0.0009526884532533586,-0.00017516754451207817,0.004277029540389776,0.12684810161590576,0.0005530044436454773,-0.00028167033451609313,-0.0004355920245870948,-0.002471574116498232,0.0,0.0,0.0,-0.0001275602262467146,-0.00014122940774541348,-0.0,0.0,0.0,0.0,-0.20000000298023224,-0.20000000298023224,0.009137541055679321,1495.0,1495.0,1495.0,1495.0,0.0,0.0,0.0,0.0,0.0,0.0,0.0,0.0,1495.0,1495.0,1495.0,1495.0,1.6284600496292114,-0.07306904718273334,-0.030061304451636597,0.1555451335071317,0.0005541841965168715,-0.00038503564428538084,0.0
456,5,4.4036255530954804e-06,1.5553031573745102e-07,1.5880157661740668e-05,0.0008684542262926698,-0.00028599679353646934,-0.0012618894688785076,0.00429158378392458,0.1268576830625534,0.0005321457865647972,0.0005428313161246479,-0.0011704782955348492,0.0016521633369848132,0.0,0.0,0.0,0.001179272192530334,0.0004300096770748496,-0.0,0.0,0.0,0.0,-0.20000000298023224,-0.20000000298023224,-0.018768515437841415,1495.0,1495.0,1495.0,1495.0,0.0,0.0,0.0,0.0,0.0,0.0,0.0,0.0,1495.0,1495.0,1495.0,1495.0,1.636488914489746,-0.07324980284349869,-0.02984062116791914,0.15549603308878399,-0.0016956760082393885,0.0035771364346146584,0.0
461,5,7.906107384769712e-06,-8.181876864910009e-07,2.587284689070657e-05,0.0007676794775761664,2.4474388737871777e-06,-0.0017038785153999925,0.00429158378392458,0.1268576830625534,0.0005321457865647972,0.0005428313161246479,-0.0011704782955348492,0.0016521633369848132,0.0,0.0,0.0,0.001179272192530334,0.0004300096770748496,-0.0,0.0,0.0,0.0,-0.20000000298023224,-0.20000000298023224,-0.018768515437841415,1495.0,1495.0,1495.0,1495.0,0.0,0.0,0.0,0.0,0.0,0.0,0.0,0.0,1495.0,1495.0,1495.0,1495.0,1.636488914489746,-0.07334133481346856,-0.0302494079235884,0.15559159951696283,-0.0016956760082393885,0.0035771364346146584,0.0
466,5,3.032702807104215e-06,1.0479553566256072e-05,2.533275619498454e-05,-0.0002777367481030524,-0.0013547498965635896,-0.000616740551777184,0.00429158378392458,0.1268576830625534,0.0005321457865647972,0.0005428313161246479,-0.0011704782955348492,0.0016521633369848132,0.0,0.0,0.0,-4.735311449621804e-06,0.0007423555362038314,-0.0,0.0,0.0,0.0,-0.20000000298023224,-0.20000000298023224,-0.018768515437841415,1495.0,1495.0,1495.0,1495.0,0.0,0.0,0.0,0.0,0.0,0.0,0.0,0.0,1495.0,1495.0,1495.0,1495.0,1.6336780786514282,-0.07338616821565844,-0.02987106352520436,0.15535180059410034,-0.0029223370365798473,-1.4339156223286409e-05,0.0
471,5,3.92246101910132e-06,1.4253188055590726e-05,1.2532532309705857e-06,-4.323734628997045e-06,-0.0009947360958904028,0.0026428441051393747,0.004296890925616026,0.12683376669883728,0.0005295948358252645,-0.0036301668733358383,0.008061455562710762,-0.0039201295003294945,0.0,0.0,0.0,-4.735311449621804e-06,0.0007423555362038314,-0.0,0.0,0.0,0.0,-0.20000000298023224,-0.20000000298023224,-0.008330862037837505,1495.0,1495.0,1495.0,1495.0,0.0,0.0,0.0,0.0,0.0,0.0,0.0,0.0,1495.0,1495.0,1495.0,1495.0,1.6336780786514282,-0.07368975844969518,-0.030223840274463534,0.15548052155626033,-0.0029223370365798473,-1.4339156223286409e-05,0.0
477,5,1.2038319709972711e-06,1.2435043572622817e-06,-4.671848273574142e-06,-0.0003279649536125362,0.0011632675305008888,0.0017681499011814594,0.004296890925616026,0.12683376669883728,0.0005295948358252645,-0.0036301668733358383,0.008061455562710762,-0.0039201295003294945,0.0,0.0,0.0,0.0012557079317048192,1.377013518322201e-06,-0.0,0.0,0.0,0.0,-0.20000000298023224,-0.20000000298023224,-0.008330862037837505,1495.0,1495.0,1495.0,1495.0,0.0,0.0,0.0,0.0,0.0,0.0,0.0,0.0,1495.0,1495.0,1495.0,1495.0,1.6360805034637451,-0.07316099985561227,-0.02980883876493939,0.15531218098048158,-5.4286824706650805e-06,0.0038080415688455105,0.0
482,5,-9.457112355448771e-06,-6.291146291914629e-06,-4.7309745241364e-06,-0.0014104993315413594,0.0013694651424884796,0.0007143550901673734,0.004278876353055239,0.12684589624404907,0.0005014418275095522,0.0009833796648308635,-0.00483992462977767,0.0004958156496286392,0.0,0.0,0.0,0.0012557079317048192,1.377013518322201e-06,-0.0,0.0,0.0,0.0,-0.20000000298023224,-0.20000000298023224,-0.008422110229730606,1495.0,1495.0,1495.0,1495.0,0.0,0.0,0.0,0.0,0.0,0.0,0.0,0.0,1495.0,1495.0,1495.0,1495.0,1.6360805034637451,-0.0734637033351901,-0.02943187109241443,0.15537288370745075,-5.4286824706650805e-06,0.0038080415688455105,0.0
487,5,-7.722439477220178e-06,-6.373130872816546e-06,1.5510517187067308e-05,-0.00035603897413238883,0.0005576242110691965,-0.002143237041309476,0.004278876353055239,0.12684589624404907,0.0005014418275095522,0.0009833796648308635,-0.00483992462977767,0.0004958156496286392,0.0,0.0,0.0,-0.0016948838019743562,-0.0013467787066474557,-0.0,0.0,0.0,0.0,-0.20000000298023224,-0.20000000298023224,-0.008422110229730606,1495.0,1495.0,1495.0,1495.0,0.0,0.0,0.0,0.0,0.0,0.0,0.0,0.0,1495.0,1495.0,1495.0,1495.0,1.6459009647369385,-0.07332743224397999,-0.03025089075483949,0.1555713671092917,0.005341350566595793,-0.005170729011297226,0.0
492,5,-6.875408416817663e-06,-7.639133400516585e-06,6.315943210211117e-06,-4.077181074535474e-05,0.0003749699972104281,0.00024605414364486933,0.004271550569683313,0.12686288356781006,0.0005041089607402682,-0.0016615077620372176,0.004461275413632393,-0.00086834782268852,0.0,0.0,0.0,-0.0016948838019743562,-0.0013467787066474557,-0.0,0.0,0.0,0.0,-0.20000000298023224,-0.20000000298023224,0.0024983733892440796,1495.0,1495.0,1495.0,1495.0,0.0,0.0,0.0,0.0,0.0,0.0,0.0,0.0,1495.0,1495.0,1495.0,1495.0,1.6459009647369385,-0.07347795841884265,-0.02964821030440963,0.15546046861422821,0.005341350566595793,-0.005170729011297226,0.0
497,5,-3.769471959458315e-06,-9.623945516068488e-06,-6.0176166698511224e-06,0.0003564036451280117,0.00038816541200503707,0.0015784488059580326,0.004271550569683313,0.12686288356781006,0.0005041089607402682,-0.0016615077620372176,0.004461275413632393,-0.00086834782268852,0.0,0.0,0.0,-0.0004796148859895766,-4.85602613480296e-05,-0.0,0.0,0.0,0.0,-0.20000000298023224,-0.20000000298023224,0.0024983733892440796,1495.0,1495.0,1495.0,1495.0,0.0,0.0,0.0,0.0,0.0,0.0,0.0,0.0,1495.0,1495.0,1495.0,1495.0,1.6297128200531006,-0.07300950443753983,-0.02962386258915528,0.15542433266771116,0.00019069704285357147,-0.001448812778107822,0.0
502,5,-1.6124282410601154e-05,-3.702227331814356e-06,1.2908652024634648e-05,-0.0013400157913565636,-0.0005553399678319693,-0.0016397727886214852,0.004284684546291828,0.1268211156129837,0.0004932273295708001,0.0004646520537789911,0.0013691498897969723,-0.00707371486350894,0.0,0.0,0.0,-0.0004796148859895766,-4.85602613480296e-05,-0.0,0.0,0.0,0.0,-0.20000000298023224,-0.20000000298023224,-0.012750380672514439,1495.0,1495.0,1495.0,1495.0,0.0,0.0,0.0,0.0,0.0,0.0,0.0,0.0,1495.0,1495.0,1495.0,1495.0,1.6297128200531006,-0.07352107780769081,-0.029357914008917352,0.15526752253858395,0.00019069704285357147,-0.001448812778107822,0.0
507,5,-5.617768692900427e-06,4.922088464809349e-06,1.7839651263784617e-05,0.0007247753674164414,-0.0012570539256557822,-0.0012476289412006736,0.004284684546291828,0.1268211156129837,0.0004932273295708001,0.0004646520537789911,0.0013691498897969723,-0.00707371486350894,0.0,0.0,0.0,0.000677864532917738,-0.0012934845872223377,-0.0,0.0,0.0,0.0,-0.20000000298023224,-0.20000000298023224,-0.012750380672514439,1495.0,1495.0,1495.0,1495.0,0.0,0.0,0.0,0.0,0.0,0.0,0.0,0.0,1495.0,1495.0,1495.0,1495.0,1.6407020092010498,-0.07390132712064913,-0.02970365882548881,0.15536900456872693,0.005113787017762661,0.0020614895038306713,0.0
