timestamp,dt,pos_x,pos_y,pos_z,vel_x,vel_y,vel_z,roll,pitch,yaw,agv_x,agv_y,agv_z,x_ref,y_ref,z_ref,roll_ref,pitch_ref,yaw_ref,x_vel_ref,y_vel_ref,z_vel_ref,x_torque,y_torque,z_torque,w0,w1,w2,w3,u0,u1,u2,u3,m0req,m1req,m2req,m3req,thrust0,thrust1,thrust2,thrust3,thrust_ref,roll_vicon,pitch_vicon,yaw_vicon,acc_x,acc_y,acc_z
5,5,0.0,0.0,0.0,0.0013902566861361265,-0.0006758546805940568,-0.0011235567508265376,0.044251687824726105,0.05488956347107887,-0.007386758457869291,0.0015241188229992986,-0.0007154595223255455,-0.003309500403702259,0.0,0.0,0.0,0.0008329970296472311,0.0013180805835872889,-0.0,0.0,0.0,0.0,-0.01328163594007492,-0.016530217602849007,-0.0008224362973123789,1495.0,1495.0,1495.0,1495.0,0.0,0.0,0.0,0.0,0.0,0.0,0.0,0.0,1495.0,1495.0,1495.0,1495.0,1.6414690017700195,-0.033863535236667464,0.029294931039559824,-0.08330674836122776,-0.005213462747633457,0.0025344551540911198,0.0
28,23,0.0,0.0,0.0,0.0011638154974207282,-0.00043116530287079513,-0.0017003517132252455,0.044251687824726105,0.05488956347107887,-0.007386758457869291,0.0015241188229992986,-0.0007154595223255455,-0.003309500403702259,0.0,0.0,0.0,0.0008329970296472311,0.0013180805835872889,-0.0,0.0,0.0,0.0,-0.01328163594007492,-0.016530217602849007,-0.0008224362973123789,1495.0,1495.0,1495.0,1495.0,0.0,0.0,0.0,0.0,0.0,0.0,0.0,0.0,1495.0,1495.0,1495.0,1495.0,1.6414690017700195,-0.03428048167743921,0.028843678580165857,-0.08278097422083527,-0.005213462747633457,0.0025344551540911198,0.0
34,6,0.0,0.0,0.0,-0.001273362897336483,-0.000724206620361656,0.0008423440158367157,0.044281382113695145,0.05493824556469917,-0.0073733520694077015,0.003982928581535816,-0.006277075037360191,0.001653929241001606,0.0,0.0,0.0,0.0005324191297404468,0.0011054795468226075,-0.0,0.0,0.0,0.0,-0.013105724938213825,-0.016268348321318626,-0.0006763649289496243,1495.0,1495.0,1495.0,1495.0,0.0,0.0,0.0,0.0,0.0,0.0,0.0,0.0,1495.0,1495.0,1495.0,1495.0,1.638373613357544,-0.03413424675747428,0.029018491598575287,-0.08301255849415025,-0.0043643079698085785,0.001616869936697185,0.0
39,5,0.0,0.0,0.0,-0.001273362897336483,-0.000724206620361656,0.0008423440158367157,0.044281382113695145,0.05493824556469917,-0.0073733520694077015,0.003982928581535816,-0.006277075037360191,0.001653929241001606,0.0,0.0,0.0,0.0005324191297404468,0.0011054795468226075,-0.0,0.0,0.0,0.0,-0.013105724938213825,-0.016268348321318626,-0.0006763649289496243,1495.0,1495.0,1495.0,1495.0,0.0,0.0,0.0,0.0,0.0,0.0,0.0,0.0,1495.0,1495.0,1495.0,1495.0,1.638373613357544,-0.03413424675747428,0.029018491598575287,-0.08301255849415025,-0.0043643079698085785,0.001616869936697185,0.0
44,5,1.6317429981427267e-05,2.0881405760064808e-07,1.479693401051918e-05,0.0022255603689700365,-0.00019571874872781336,-0.0018445783061906695,0.044278573244810104,0.05494281277060509,-0.0073566557839512825,-0.0029853384476155043,0.0005303180660121143,0.0031524300575256348,0.0,0.0,0.0,0.0008930383482947946,-0.0012078600702807307,-0.0,0.0,0.0,0.0,-0.012969501316547394,-0.016088105738162994,-0.0006498098955489695,1495.0,1495.0,1495.0,1495.0,0.0,0.0,0.0,0.0,0.0,0.0,0.0,0.0,1495.0,1495.0,1495.0,1495.0,1.6406471729278564,-0.03302412192106015,0.030307759260422968,-0.08368600267409386,0.004775110632181168,0.0027157748118042946,0.0
49,5,2.4295624825754203e-05,3.0362256438820623e-05,-2.127465450030286e-05,0.0018476073164492846,-0.003696700558066368,0.0035907593555748463,0.044278573244810104,0.05494281277060509,-0.0073566557839512825,-0.0029853384476155043,0.0005303180660121143,0.0031524300575256348,0.0,0.0,0.0,0.0008930383482947946,-0.0012078600702807307,-0.0,0.0,0.0,0.0,-0.012969501316547394,-0.016088105738162994,-0.0006498098955489695,1495.0,1495.0,1495.0,1495.0,0.0,0.0,0.0,0.0,0.0,0.0,0.0,0.0,1495.0,1495.0,1495.0,1495.0,1.6406471729278564,-0.032353986861551935,0.028975398227626258,-0.08236380999330259,0.004775110632181168,0.0027157748118042946,0.0
54,5,6.274468432820868e-06,4.338233338785358e-06,-1.619280556042213e-05,-0.0014234958216547966,0.001644202508032322,0.0008264817879535258,0.044262465089559555,0.05492062866687775,-0.007346198428422213,-0.0006520967581309378,-0.0013159984955564141,0.0006336718797683716,0.0,0.0,0.0,0.004537203814834356,0.0017568719340488315,-0.0,0.0,0.0,0.0,-0.013048063963651657,-0.01599791832268238,-0.0007343504694290459,13011.0,15673.0,13545.0,11691.0,0.37579891085624695,0.5573181509971619,0.4093957245349884,0.2989561855792999,0.0,0.0,0.0,0.0,13014.0,15667.0,13541.0,11701.0,1.6682265996932983,-0.0348321522776913,0.02852714052809946,-0.0831590948564886,-0.007062238175421953,0.014029725454747677,0.0
59,5,3.470749106782023e-06,7.655684385099448e-06,-2.1941776140010916e-05,-0.0009058446157723665,0.00025958684273064137,0.0010204692371189594,0.04426165297627449,0.05493853986263275,-0.007336011156439781,0.0011728365207090974,0.004263741429895163,-0.0016822885954752564,0.0,0.0,0.0,0.004537203814834356,0.0017568719340488315,-0.0,0.0,0.0,0.0,-0.013142269104719162,-0.016127681359648705,-0.0007593365153297782,12978.0,15692.0,13504.0,11692.0,0.3738059997558594,0.5587851405143738,0.406757116317749,0.29902535676956177,0.0,0.0,0.0,0.0,12999.0,15674.0,13553.0,11637.0,1.6682265996932983,-0.03477177917185481,0.029017660722378946,-0.08328731257737533,-0.007062238175421953,0.014029725454747677,0.0
64,5,-6.206413672771305e-06,4.0563983816355176e-07,-1.7786929674912244e-05,-0.0015235973987728357,0.0009738401276990771,-9.0393892605789e-05,0.04426165297627449,0.05493853986263275,-0.007336011156439781,0.0011728365207090974,0.004263741429895163,-0.0016822885954752564,0.0,0.0,0.0,-0.0003072233812417835,-0.0008572110091336071,-0.0,0.0,0.0,0.0,-0.013142269104719162,-0.016127681359648705,-0.0007593365153297782,12978.0,15692.0,13504.0,11692.0,0.3738059997558594,0.5587851405143738,0.406757116317749,0.29902535676956177,0.0,0.0,0.0,0.0,12999.0,15674.0,13553.0,11637.0,1.635254979133606,-0.03345381313916917,0.029902293939286232,-0.08379132682250752,0.0033777309581637383,-0.0009312113397754729,0.0
70,5,-1.2870243153884076e-05,-1.4384218957275152e-05,-1.4440061022469308e-05,-0.001409098505973816,0.002164319157600403,-0.00043778179679065943,0.04426727443933487,0.05493622645735741,-0.007364965975284576,0.0004019257321488112,-0.00442379480227828,-0.004832095466554165,0.0,0.0,0.0,-0.0026759165339171886,-0.001344982418231666,-0.0,0.0,0.0,0.0,-0.01303932350128889,-0.016992084681987762,-0.0008576977998018265,12876.0,15778.0,13551.0,11676.0,0.36752498149871826,0.5651878714561462,0.40976226329803467,0.2981720566749573,0.0,0.0,0.0,0.0,13026.0,15717.0,13685.0,11934.0,1.6522691249847412,-0.03519658933537918,0.028833635139069082,-0.08340685766863228,0.005354853812605143,-0.008195227012038231,0.0
76,7,-4.829225872526877e-06,-1.3471395504893735e-05,1.4630055375164375e-05,0.0004012826830148697,0.0007561888196505606,-0.003663526615127921,0.04426727443933487,0.05493622645735741,-0.007364965975284576,0.0004019257321488112,-0.00442379480227828,-0.004832095466554165,0.0,0.0,0.0,-0.0026759165339171886,-0.001344982418231666,-0.0,0.0,0.0,0.0,-0.01303932350128889,-0.016992084681987762,-0.0008576977998018265,12876.0,15778.0,13551.0,11676.0,0.36752498149871826,0.5651878714561462,0.40976226329803467,0.2981720566749573,0.0,0.0,0.0,0.0,13026.0,15717.0,13685.0,11934.0,1.6522691249847412,-0.0344170118472252,0.029294308286892102,-0.08327567007315252,0.005354853812605143,-0.008195227012038231,0.0
81,5,-1.371372945868643e-05,-1.2282182069611736e-05,2.3578866603202187e-05,-0.0009056273847818375,0.00015976993017829955,-0.0025392682291567326,0.04426727443933487,0.05493622645735741,-0.007364965975284576,0.0004019257321488112,-0.00442379480227828,-0.004832095466554165,0.0,0.0,0.0,-0.0026759165339171886,-0.001344982418231666,-0.0,0.0,0.0,0.0,-0.01303932350128889,-0.016992084681987762,-0.0008576977998018265,12876.0,15778.0,13551.0,11676.0,0.36752498149871826,0.5651878714561462,0.40976226329803467,0.2981720566749573,0.0,0.0,0.0,0.0,13026.0,15717.0,13685.0,11934.0,1.6522691249847412,-0.034386830344962795,0.029827676775120892,-0.08369452560789202,0.005354853812605143,-0.008195227012038231,0.0
86,5,9.948229489964433e-06,-1.5478111663469463e-06,8.42081044538645e-06,0.002477184170857072,-0.001224216539412737,0.0008032595505937934,0.044266559183597565,0.054921843111515045,-0.007357118185609579,-0.0009284504922106862,-0.001929237856529653,0.004841348621994257,0.0,0.0,0.0,-0.00021992827532812953,-0.0008809685241430998,-0.0,0.0,0.0,0.0,-0.01191941648721695,-0.015963001176714897,-0.0006120856269262731,13094.0,15656.0,13765.0,11848.0,0.3809158205986023,0.5560435056686401,0.42360490560531616,0.30766236782073975,0.0,0.0,0.0,0.0,12933.0,15737.0,13522.0,11603.0,1.635339617729187,-0.03361852892163335,0.029336329218899754,-0.08298433351342833,0.003471523988991976,-0.0006666494882665575,0.0
91,5,-5.088455736768083e-07,-1.421933211531723e-05,-6.404949544958072e-06,-0.0002639753802213818,0.0010308959754183888,0.0021003950387239456,0.044266559183597565,0.054921843111515045,-0.007357118185609579,-0.0009284504922106862,-0.001929237856529653,0.004841348621994257,0.0,0.0,0.0,-0.00021992827532812953,-0.0008809685241430998,-0.0,0.0,0.0,0.0,-0.01191941648721695,-0.015963001176714897,-0.0006120856269262731,13094.0,15656.0,13765.0,11848.0,0.3809158205986023,0.5560435056686401,0.42360490560531616,0.30766236782073975,0.0,0.0,0.0,0.0,12933.0,15737.0,13522.0,11603.0,1.635339617729187,-0.03398712560732764,0.029294906573798157,-0.08333488074690756,0.003471523988991976,-0.0006666494882665575,0.0
97,5,-5.088455736768083e-07,-1.421933211531723e-05,-6.404949544958072e-06,-0.0002639753802213818,0.0010308959754183888,0.0021003950387239456,0.044276926666498184,0.054889317601919174,-0.0073773511685431,0.0018782533006742597,0.0036787770222872496,-0.004921927582472563,0.0,0.0,0.0,-0.0013000075705349445,-0.00025169647415168583,-0.0,0.0,0.0,0.0,-0.013447949662804604,-0.016619933769106865,-0.0008426799904555082,12916.0,15756.0,13482.0,11644.0,0.36996421217918396,0.5635953545570374,0.40531304478645325,0.296382337808609,0.0,0.0,0.0,0.0,13019.0,15868.0,13538.0,11620.0,1.6367828845977783,-0.03398712560732764,0.029294906573798157,-0.08333488074690756,0.0009927039500325918,-0.003944076132029295,0.0
102,5,6.221868716238532e-06,8.125683052639943e-06,-7.758730134810321e-06,0.0012095925631001592,-0.0023509259335696697,-0.00015235887258313596,0.044276926666498184,0.054889317601919174,-0.0073773511685431,0.0018782533006742597,0.0036787770222872496,-0.004921927582472563,0.0,0.0,0.0,-0.0013000075705349445,-0.00025169647415168583,-0.0,0.0,0.0,0.0,-0.013447949662804604,-0.016619933769106865,-0.0008426799904555082,12916.0,15756.0,13482.0,11644.0,0.36996421217918396,0.5635953545570374,0.40531304478645325,0.296382337808609,0.0,0.0,0.0,0.0,13019.0,15868.0,13538.0,11620.0,1.6367828845977783,-0.03399556325958342,0.02917415652930362,-0.0833025007104071,0.0009927039500325918,-0.003944076132029295,0.0
107,5,9.919200238073245e-06,5.802194664283888e-06,-6.694097464787774e-06,0.0009275167249143124,-0.0006615517777390778,-0.00018869944324251264,0.044290341436862946,0.054916854947805405,-0.007387943100184202,-0.0020076967775821686,0.00017427094280719757,0.00012381814303807914,0.0,0.0,0.0,0.002892349846661091,0.0011475665960460901,-0.0,0.0,0.0,0.0,-0.014147037640213966,-0.016964023932814598,-0.0007046860991977155,13069.0,15822.0,13581.0,11574.0,0.3793941140174866,0.5685575604438782,0.41170352697372437,0.2926139235496521,0.0,0.0,0.0,0.0,13029.0,15852.0,13541.0,11626.0,1.6527565717697144,-0.034071292341842675,0.02944557485228024,-0.08332935911815982,-0.004570216406136751,0.008860682137310505,0.0
112,5,-6.468998435593676e-06,-2.603667098810547e-06,-2.5389525035279803e-05,-0.0015955771086737514,0.0007440826739184558,0.002167971571907401,0.044290341436862946,0.054916854947805405,-0.007387943100184202,-0.0020076967775821686,0.00017427094280719757,0.00012381814303807914,0.0,0.0,0.0,0.002892349846661091,0.0011475665960460901,-0.0,0.0,0.0,0.0,-0.014147037640213966,-0.016964023932814598,-0.0007046860991977155,13069.0,15822.0,13581.0,11574.0,0.3793941140174866,0.5685575604438782,0.41170352697372437,0.2926139235496521,0.0,0.0,0.0,0.0,13029.0,15852.0,13541.0,11626.0,1.6527565717697144,-0.034958575691356464,0.029082114422572344,-0.08339183725016847,-0.004570216406136751,0.008860682137310505,0.0
117,5,1.541900360280124e-06,1.4401381122297607e-05,-1.3142044736014213e-05,0.0003230769943911582,-0.0017429726431146264,-0.000602508953306824,0.04427336901426315,0.05492876097559929,-0.007407727185636759,0.00023038742074277252,-0.0017055637435987592,0.0013629560125991702,0.0,0.0,0.0,-0.0009205117239616811,-0.0015196228632703424,-0.0,0.0,0.0,0.0,-0.013754235580563545,-0.016597814857959747,-0.0006798571557737887,12931.0,15739.0,13536.0,11588.0,0.3709123432636261,0.5622876286506653,0.40876761078834534,0.2933720052242279,0.0,0.0,0.0,0.0,12976.0,15704.0,13573.0,11540.0,1.6437524557113647,-0.03360340273206242,0.029588923145295935,-0.08333391452846109,0.00601899204775691,-0.0028046208899468184,0.0
122,5,-3.193587872374337e-06,-2.101490281347651e-06,-9.620116543374024e-06,-0.00043902776087634265,0.0012831554049625993,-0.0006636350299231708,0.04427336901426315,0.05492876097559929,-0.007407727185636759,0.00023038742074277252,-0.0017055637435987592,0.0013629560125991702,0.0,0.0,0.0,-0.0009205117239616811,-0.0015196228632703424,-0.0,0.0,0.0,0.0,-0.013754235580563545,-0.016597814857959747,-0.0006798571557737887,12931.0,15739.0,13536.0,11588.0,0.3709123432636261,0.5622876286506653,0.40876761078834534,0.2933720052242279,0.0,0.0,0.0,0.0,12976.0,15704.0,13573.0,11540.0,1.6437524557113647,-0.03442166847646449,0.029225603886421928,-0.08357868785663514,0.00601899204775691,-0.0028046208899468184,0.0
127,5,-3.111415026069153e-06,-2.3262539343704702e-06,-6.463924364652485e-07,-0.00016575037443544716,0.0005402338574640453,-0.0013423009077087045,0.04426930099725723,0.05493467301130295,-0.007382773794233799,-0.001852606888860464,0.001744396984577179,0.0022188855800777674,0.0,0.0,0.0,-0.001587117905728519,-0.00042116129770874977,-0.0,0.0,0.0,0.0,-0.012563289143145084,-0.01619589328765869,-0.0006780956173315644,13015.0,15719.0,13531.0,11553.0,0.3760654330253601,0.5607501268386841,0.40850698947906494,0.2914602756500244,0.0,0.0,0.0,0.0,12993.0,15731.0,13515.0,11580.0,1.639588475227356,-0.0344827544861847,0.02917455939741307,-0.08343440450671909,0.001663928502239287,-0.004823388997465372,0.0
132,5,-9.750472599989735e-06,-4.668211659009103e-06,1.374420116917463e-05,-0.0008629870135337114,0.0004971284652128816,-0.002263791626319289,0.04426930099725723,0.05493467301130295,-0.007382773794233799,-0.001852606888860464,0.001744396984577179,0.0022188855800777674,0.0,0.0,0.0,-0.001587117905728519,-0.00042116129770874977,-0.0,0.0,0.0,0.0,-0.012563289143145084,-0.01619589328765869,-0.0006780956173315644,13015.0,15719.0,13531.0,11553.0,0.3760654330253601,0.5607501268386841,0.40850698947906494,0.2914602756500244,0.0,0.0,0.0,0.0,12993.0,15731.0,13515.0,11580.0,1.639588475227356,-0.03502964252641688,0.028877689045483955,-0.08347056407000726,0.001663928502239287,-0.004823388997465372,0.0
137,5,-7.2011557676887605e-06,-4.861160050495528e-06,8.270533726317808e-06,-3.927680882043205e-05,0.00022200521198101342,-0.0002486765442881733,0.044268254190683365,0.054913174360990524,-0.007365608587861061,0.002936671720817685,0.0022180057130753994,0.0012672148877754807,0.0,0.0,0.0,-0.000623219006229192,-0.0008345124078914523,-0.0,0.0,0.0,0.0,-0.013595091179013252,-0.017078785225749016,-0.0006946796202100813,13028.0,15680.0,13645.0,11751.0,0.37684401869773865,0.5578364729881287,0.4158054292201996,0.30227068066596985,0.0,0.0,0.0,0.0,12981.0,15707.0,13599.0,11819.0,1.6360422372817993,-0.03473213370582064,0.028909379934331462,-0.08328536353672146,0.003289872780442238,-0.0018899212591350079,0.0
142,5,1.0226230187981855e-05,3.583595798772876e-06,3.7354748201323673e-06,0.0020755755249410868,-0.0009245686233043671,0.0004447364481166005,0.044268254190683365,0.054913174360990524,-0.007365608587861061,0.002936671720817685,0.0022180057130753994,0.0012672148877754807,0.0,0.0,0.0,-0.000623219006229192,-0.0008345124078914523,-0.0,0.0,0.0,0.0,-0.013595091179013252,-0.017078785225749016,-0.0006946796202100813,13028.0,15680.0,13645.0,11751.0,0.37684401869773865,0.5578364729881287,0.4158054292201996,0.30227068066596985,0.0,0.0,0.0,0.0,12981.0,15707.0,13599.0,11819.0,1.6360422372817993,-0.034414453811003186,0.029079996744369552,-0.0829847048078069,0.003289872780442238,-0.0018899212591350079,0.0
147,5,2.8340541575744282e-06,-6.595410923182499e-06,4.944926786265569e-06,-5.6830907851690426e-05,0.0008516533416695893,3.2760362955741584e-05,0.04425190016627312,0.05490103363990784,-0.007362047675997019,-0.0012803906574845314,-0.002214699052274227,0.002186237834393978,0.0,0.0,0.0,0.001140783540904522,0.0019729887135326862,-0.0,0.0,0.0,0.0,-0.013786298222839832,-0.0167525801807642,-0.000771259015891701,12974.0,15772.0,13490.0,11626.0,0.37351879477500916,0.5648000836372375,0.40583929419517517,0.29543033242225647,0.0,0.0,0.0,0.0,12983.0,15783.0,13580.0,11572.0,1.6489990949630737,-0.034480369985616786,0.029382566162875705,-0.08314664787633129,-0.007839644327759743,0.0034868402872234583,0.0
152,5,-1.3104459867463447e-05,-9.854573363554664e-06,-2.129202584910672e-06,-0.0019353540847077966,0.0007317608688026667,0.0008619996369816363,0.04425190016627312,0.05490103363990784,-0.007362047675997019,-0.0012803906574845314,-0.002214699052274227,0.002186237834393978,0.0,0.0,0.0,0.001140783540904522,0.0019729887135326862,-0.0,0.0,0.0,0.0,-0.013786298222839832,-0.0167525801807642,-0.000771259015891701,12974.0,15772.0,13490.0,11626.0,0.37351879477500916,0.5648000836372375,0.40583929419517517,0.29543033242225647,0.0,0.0,0.0,0.0,12983.0,15783.0,13580.0,11572.0,1.6489990949630737,-0.03386458144229478,0.029953253548700653,-0.08365224025434093,-0.007839644327759743,0.0034868402872234583,0.0
158,5,-5.492059699463425e-06,-4.107895620109048e-06,-1.0936651051451918e-05,0.00013934641901869327,-0.00039689699769951403,0.00140169367659837,0.04422832280397415,0.054907865822315216,-0.007364306598901749,-0.006410283036530018,0.011436878703534603,-0.006539919879287481,0.0,0.0,0.0,-0.0009166317177005112,-0.0018468769267201424,-0.0,0.0,0.0,0.0,-0.013127433136105537,-0.01589461974799633,0.001064527197740972,13605.0,15221.0,14104.0,11067.0,0.41322213411331177,0.5240347981452942,0.44603896141052246,0.2657032012939453,0.0,0.0,0.0,0.0,12912.0,15832.0,13375.0,11746.0,1.6470134258270264,-0.03465747825966286,0.02931149552269911,-0.08321838790017015,0.007329706102609634,-0.002798339817672968,0.0
163,5,-3.5074745028396137e-06,1.1641925084404647e-05,-8.478816198476125e-06,0.0002938887628261,-0.002048737369477749,0.00026573726790957153,0.04422832280397415,0.054907865822315216,-0.007364306598901749,-0.006410283036530018,0.011436878703534603,-0.006539919879287481,0.0,0.0,0.0,-0.0009166317177005112,-0.0018468769267201424,-0.0,0.0,0.0,0.0,-0.013127433136105537,-0.01589461974799633,0.001064527197740972,13605.0,15221.0,14104.0,11067.0,0.41322213411331177,0.5240347981452942,0.44603896141052246,0.2657032012939453,0.0,0.0,0.0,0.0,12912.0,15832.0,13375.0,11746.0,1.6470134258270264,-0.034530692072826275,0.028941876967391107,-0.08296111424731066,0.007329706102609634,-0.002798339817672968,0.0
168,5,3.166018132105819e-06,5.850127308804076e-06,-1.5898669516900554e-05,0.0009183746296912432,-0.0001244791637873277,0.000996677321381867,0.044251151382923126,0.054815441370010376,-0.007142250891774893,-0.00040039795567281544,-0.004366675857454538,0.025203954428434372,0.0,0.0,0.0,0.0025376626290380955,0.00027282684459351003,-0.0,0.0,0.0,0.0,-0.013267498463392258,-0.0159002635627985,-0.002002962399274111,13081.0,15702.0,13547.0,11707.0,0.3801274001598358,0.5595265030860901,0.4094763696193695,0.2998688519001007,0.0,0.0,0.0,0.0,12161.0,16362.0,12756.0,12639.0,1.64695143699646,-0.033375049720701724,0.02959677774836183,-0.08380531073522689,-0.001082725590094924,0.007746800314635038,0.0
173,5,1.202922339871293e-05,2.0592358850990422e-05,-2.3564649382024072e-05,0.0014309344114735723,-0.0018188594840466976,0.0013185885036364198,0.044251151382923126,0.054815441370010376,-0.007142250891774893,-0.00040039795567281544,-0.004366675857454538,0.025203954428434372,0.0,0.0,0.0,0.0025376626290380955,0.00027282684459351003,-0.0,0.0,0.0,0.0,-0.013267498463392258,-0.0159002635627985,-0.002002962399274111,13081.0,15702.0,13547.0,11707.0,0.3801274001598358,0.5595265030860901,0.4094763696193695,0.2998688519001007,0.0,0.0,0.0,0.0,12161.0,16362.0,12756.0,12639.0,1.64695143699646,-0.03415415929694093,0.028744148233028965,-0.08284029850040457,-0.001082725590094924,0.007746800314635038,0.0
178,5,-0.00011013629409717396,-0.0002642135077621788,0.0001789884699974209,-0.013030016794800758,0.03310899809002876,-0.023144230246543884,0.04431738331913948,0.05479789897799492,-0.007598185911774635,0.018186992034316063,0.005152182187885046,0.06836561858654022,0.0,0.0,0.0,0.0022677555680274963,0.0013665861915796995,-0.0,0.0,0.0,0.0,-0.01201653853058815,-0.01660021021962166,-0.003912137355655432,10917.0,17106.0,11791.0,13628.0,0.25797080993652344,0.6697724461555481,0.3044673800468445,0.4147408604621887,0.0,0.0,0.0,0.0,14939.0,13913.0,15379.0,9166.0,1.6496176719665527,-0.04736860720161285,0.03317359832319117,-0.0829865350574518,-0.005432140547782183,0.006934057455509901,0.0
183,5,-0.00012051683734171093,-0.0002751982246991247,0.00016936694737523794,-0.006457671523094177,0.014561766758561134,-0.008103109896183014,0.04431738331913948,0.05479789897799492,-0.007598185911774635,0.018186992034316063,0.005152182187885046,0.06836561858654022,0.0,0.0,0.0,0.0022677555680274963,0.0013665861915796995,-0.0,0.0,0.0,0.0,-0.01201653853058815,-0.01660021021962166,-0.003912137355655432,10917.0,17106.0,11791.0,13628.0,0.25797080993652344,0.6697724461555481,0.3044673800468445,0.4147408604621887,0.0,0.0,0.0,0.0,14939.0,13913.0,15379.0,9166.0,1.6496176719665527,-0.04727938008755554,0.032719330865824015,-0.082404707007965,-0.005432140547782183,0.006934057455509901,0.0
188,5,-0.00011049606837332249,-0.00026128216995857656,0.0001778907753759995,-0.0013805764028802514,0.004154779016971588,-0.004264102317392826,0.04431738331913948,0.05479789897799492,-0.007598185911774635,0.018186992034316063,0.005152182187885046,0.06836561858654022,0.0,0.0,0.0,-0.016921354457736015,-0.005770788062363863,-0.0,0.0,0.0,0.0,-0.01201653853058815,-0.01660021021962166,-0.003912137355655432,10917.0,17106.0,11791.0,13628.0,0.25797080993652344,0.6697724461555481,0.3044673800468445,0.4147408604621887,0.0,0.0,0.0,0.0,14939.0,13913.0,15379.0,9166.0,1.7894525527954102,-0.048259079776212764,0.031990780906094106,-0.08193849707712106,0.02487955614924431,-0.0561211034655571,0.0
193,5,-0.00012851067003794014,-0.00027133224648423493,0.00019202289695385844,-0.002713983180001378,0.0028679214883595705,-0.0034014966804534197,0.04416745901107788,0.05483376979827881,-0.007008761633187532,-0.022200416773557663,-0.0025527740363031626,-0.2076869010925293,0.0,0.0,0.0,-0.016921354457736015,-0.005770788062363863,-0.0,0.0,0.0,0.0,-0.013078214600682259,-0.016576441004872322,0.0038142106495797634,14877.0,13959.0,15419.0,9143.0,0.499359667301178,0.43638384342193604,0.5384702086448669,0.17540393769741058,0.0,0.0,0.0,0.0,11352.0,16928.0,12073.0,13252.0,1.7894525527954102,-0.04873421202985034,0.032447220566030645,-0.08293738578068749,0.02487955614924431,-0.0561211034655571,0.0
198,5,-0.00012999489263165742,-0.00027261345530860126,0.00022622673714067787,-0.0012636998435482383,0.001300913281738758,-0.005465059541165829,0.04423930123448372,0.05485069751739502,-0.008211392909288406,0.04533539339900017,-0.017076857388019562,-0.04941209778189659,0.0,0.0,0.0,-0.003956937231123447,-0.0027049281634390354,-0.0,0.0,0.0,0.0,-0.018742794170975685,-0.01832655817270279,-0.005400903057307005,12538.0,17605.0,12614.0,13063.0,0.34727343916893005,0.7113706469535828,0.3518075942993164,0.37900084257125854,0.0,0.0,0.0,0.0,12318.0,16159.0,13041.0,12470.0,1.6700533628463745,-0.04770583743153301,0.03303505572694863,-0.08307457888173063,0.010885140858590603,-0.012248869054019451,0.0
203,5,-0.00012712074385490268,-0.0002635957789607346,0.00020098571258131415,-0.00016058211622294039,-0.0005617571296170354,0.0008429003646597266,0.04423930123448372,0.05485069751739502,-0.008211392909288406,0.04533539339900017,-0.017076857388019562,-0.04941209778189659,0.0,0.0,0.0,-0.003956937231123447,-0.0027049281634390354,-0.0,0.0,0.0,0.0,-0.018742794170975685,-0.01832655817270279,-0.005400903057307005,12538.0,17605.0,12614.0,13063.0,0.34727343916893005,0.7113706469535828,0.3518075942993164,0.37900084257125854,0.0,0.0,0.0,0.0,12318.0,16159.0,13041.0,12470.0,1.6700533628463745,-0.047843986978943105,0.03196802228276342,-0.08279743260851312,0.010885140858590603,-0.012248869054019451,0.0
208,5,-0.00013025369844399393,-0.0002671797701623291,0.00020504753047134727,-0.00044018635526299477,0.00020537614182103425,-0.00015025846369098872,0.04423930123448372,0.05485069751739502,-0.008211392909288406,0.04533539339900017,-0.017076857388019562,-0.04941209778189659,0.0,0.0,0.0,-0.003956937231123447,-0.0027049281634390354,-0.0,0.0,0.0,0.0,-0.018742794170975685,-0.01832655817270279,-0.005400903057307005,12538.0,17605.0,12614.0,13063.0,0.34727343916893005,0.7113706469535828,0.3518075942993164,0.37900084257125854,0.0,0.0,0.0,0.0,12318.0,16159.0,13041.0,12470.0,1.6700533628463745,-0.04723010703368647,0.03187095022261886,-0.08407543823547409,0.010885140858590603,-0.012248869054019451,0.0
213,5,-0.00013025369844399393,-0.0002671797701623291,0.00020504753047134727,-0.00044018635526299477,0.00020537614182103425,-0.00015025846369098872,0.044250741600990295,0.05561583861708641,-0.008324401453137398,-0.04098847508430481,-0.07816474139690399,-0.22823156416416168,0.0,0.0,0.0,-0.0007401122129522264,-0.0006013130187056959,-0.0,0.0,0.0,0.0,-0.01376709807664156,-0.019788699224591255,-0.0032998397946357727,10857.0,17455.0,11996.0,13406.0,0.2549300193786621,0.6986966729164124,0.3159305453300476,0.40049612522125244,0.0,0.0,0.0,0.0,15001.0,15605.0,15194.0,9862.0,1.6345983743667603,-0.04723010703368647,0.03187095022261886,-0.08407543823547409,0.0023684457410126925,-0.0022424208000302315,0.0
219,5,-0.00016078184125944972,-0.0002623499894980341,0.0002243375638499856,-0.004722747020423412,0.00020932152983732522,-0.0009576190495863557,0.044250741600990295,0.05561583861708641,-0.008324401453137398,-0.04098847508430481,-0.07816474139690399,-0.22823156416416168,0.0,0.0,0.0,-0.0007401122129522264,-0.0006013130187056959,-0.0,0.0,0.0,0.0,-0.01376709807664156,-0.019788699224591255,-0.0032998397946357727,10857.0,17455.0,11996.0,13406.0,0.2549300193786621,0.6986966729164124,0.3159305453300476,0.40049612522125244,0.0,0.0,0.0,0.0,15001.0,15605.0,15194.0,9862.0,1.6345983743667603,-0.047110765711866294,0.02980780735671976,-0.08360946658007222,0.0023684457410126925,-0.0022424208000302315,0.0
224,5,-0.00018815089424606413,-0.00024910393403843045,0.0002603452594485134,-0.005173386074602604,-0.0015057980781421065,-0.004703970160335302,0.044307973235845566,0.05636502057313919,-0.008659761399030685,-0.008417217992246151,-0.19301393628120422,0.11475634574890137,0.0,0.0,0.0,-0.0007181883556768298,-0.004603812005370855,-0.0,0.0,0.0,0.0,-0.014695506542921066,-0.021833017468452454,0.002335081109777093,14039.0,15156.0,15153.0,9483.0,0.4417017996311188,0.519310474395752,0.5190563797950745,0.18998470902442932,0.0,0.0,0.0,0.0,11028.0,17442.0,11965.0,13312.0,1.6763463020324707,-0.04697345639003798,0.029444039461156053,-0.08478070769117434,0.01859651505947113,-0.002231570426374674,0.0
229,5,-0.0002116785035468638,-0.00025039876345545053,0.00029227681807242334,-0.004892667755484581,-0.0004469377745408565,-0.0057133776135742664,0.044307973235845566,0.05636502057313919,-0.008659761399030685,-0.008417217992246151,-0.19301393628120422,0.11475634574890137,0.0,0.0,0.0,-0.0007181883556768298,-0.004603812005370855,-0.0,0.0,0.0,0.0,-0.014695506542921066,-0.021833017468452454,0.002335081109777093,14039.0,15156.0,15153.0,9483.0,0.4417017996311188,0.519310474395752,0.5190563797950745,0.18998470902442932,0.0,0.0,0.0,0.0,11028.0,17442.0,11965.0,13312.0,1.6763463020324707,-0.045645990006678315,0.027819183070188002,-0.08561018310830781,0.01859651505947113,-0.002231570426374674,0.0
234,5,-0.00024246251268777996,-0.0002523208677303046,0.00031612132443115115,-0.005651148036122322,5.187724673305638e-05,-0.005146692506968975,0.04421032965183258,0.05867379903793335,-0.009732658043503761,0.026312462985515594,-0.2308884561061859,-0.12532928586006165,0.0,0.0,0.0,9.458191925659776e-05,-0.004824965260922909,-0.0,0.0,0.0,0.0,-0.014324699528515339,-0.02389121800661087,-0.0050328257493674755,10702.0,17577.0,12671.0,12835.0,0.2471446543931961,0.708984911441803,0.3551793098449707,0.3650374412536621,0.0,0.0,0.0,0.0,11907.0,16827.0,13328.0,12005.0,1.6784584522247314,-0.04715104710094072,0.02547566679100512,-0.08538977881383893,0.01951439119875431,0.0002942573046311736,0.0
239,5,-0.00030042402795515954,-0.0003026468912139535,0.00043782356078736484,-0.009215839207172394,0.006059873849153519,-0.016662942245602608,0.04421032965183258,0.05867379903793335,-0.009732658043503761,0.026312462985515594,-0.2308884561061859,-0.12532928586006165,0.0,0.0,0.0,9.458191925659776e-05,-0.004824965260922909,-0.0,0.0,0.0,0.0,-0.014324699528515339,-0.02389121800661087,-0.0050328257493674755,10702.0,17577.0,12671.0,12835.0,0.2471446543931961,0.708984911441803,0.3551793098449707,0.3650374412536621,0.0,0.0,0.0,0.0,11907.0,16827.0,13328.0,12005.0,1.6784584522247314,-0.04696684312864721,0.028130689199154284,-0.08564118374662949,0.01951439119875431,0.0002942573046311736,0.0
244,5,-0.0003471451054792851,-0.00032417927286587656,0.0004668876063078642,-0.009292867965996265,0.0050078327767550945,-0.010152862407267094,0.044271320104599,0.06077894940972328,-0.009248737245798111,-0.03895095735788345,-0.28653910756111145,-0.15895985066890717,0.0,0.0,0.0,-0.00755173759534955,-0.008624061942100525,-0.0,0.0,0.0,0.0,-0.013359632343053818,-0.026681391522288322,-0.0012306426651775837,11148.0,17250.0,13388.0,12163.0,0.2698950171470642,0.6816320419311523,0.39936065673828125,0.3254585266113281,0.0,0.0,0.0,0.0,13055.0,16002.0,14782.0,10206.0,1.7428005933761597,-0.047372334303763475,0.026056298025517663,-0.08601785870481372,0.03621543571352959,-0.02439470961689949,0.0
249,5,-0.0004312778764870018,-0.000318061065627262,0.0005343034281395376,-0.013813077472150326,0.0012689507566392422,-0.01215104479342699,0.044271320104599,0.06077894940972328,-0.009248737245798111,-0.03895095735788345,-0.28653910756111145,-0.15895985066890717,0.0,0.0,0.0,-0.00755173759534955,-0.008624061942100525,-0.0,0.0,0.0,0.0,-0.013359632343053818,-0.026681391522288322,-0.0012306426651775837,11148.0,17250.0,13388.0,12163.0,0.2698950171470642,0.6816320419311523,0.39936065673828125,0.3254585266113281,0.0,0.0,0.0,0.0,13055.0,16002.0,14782.0,10206.0,1.7428005933761597,-0.047754818797803314,0.02519966970655783,-0.08535830042401343,0.03621543571352959,-0.02439470961689949,0.0
254,5,-0.000524328148458153,-0.00030984479235485196,0.0006082609761506319,-0.016691267490386963,-0.0004783743934240192,-0.013735324144363403,0.04409085214138031,0.06459149718284607,-0.01020661648362875,0.012661133892834187,-0.3914822041988373,0.1474313884973526,0.0,0.0,0.0,-0.001984010450541973,-0.012692039832472801,-0.0,0.0,0.0,0.0,-0.013657008297741413,-0.029630234465003014,0.0014401257503777742,13484.0,15607.0,15759.0,8688.0,0.4054708480834961,0.5524024963378906,0.5638214349746704,0.15676367282867432,0.0,0.0,0.0,0.0,12695.0,16836.0,15079.0,10240.0,1.7714887857437134,-0.04767608766329937,0.025308810281588625,-0.08687032681796215,0.05417628586292267,-0.0065146395936608315,0.0
259,5,-0.0006242375238798559,-0.00033365297713316977,0.0006467558559961617,-0.018665628507733345,0.0026656317058950663,-0.010113514959812164,0.04409085214138031,0.06459149718284607,-0.01020661648362875,0.012661133892834187,-0.3914822041988373,0.1474313884973526,0.0,0.0,0.0,-0.001984010450541973,-0.012692039832472801,-0.0,0.0,0.0,0.0,-0.013657008297741413,-0.029630234465003014,0.0014401257503777742,13484.0,15607.0,15759.0,8688.0,0.4054708480834961,0.5524024963378906,0.5638214349746704,0.15676367282867432,0.0,0.0,0.0,0.0,12695.0,16836.0,15079.0,10240.0,1.7714887857437134,-0.04763258992995934,0.02481803960915227,-0.08710689753750331,0.05417628586292267,-0.0065146395936608315,0.0
264,5,-0.0007023499347269535,-0.00031356283579953015,0.0007318197167478502,-0.016839738935232162,-0.0013445618096739054,-0.014253069646656513,0.043874334543943405,0.06729932129383087,-0.011044698767364025,-0.022332821041345596,-0.28421151638031006,-0.14799313247203827,0.0,0.0,0.0,-0.00350339338183403,-0.01671711541712284,-0.0,0.0,0.0,0.0,-0.014808847568929195,-0.030791109427809715,-0.007105885073542595,9839.0,18564.0,12634.0,13226.0,0.20593494176864624,0.7947334051132202,0.3529658615589142,0.38916629552841187,0.0,0.0,0.0,0.0,12333.0,17068.0,14778.0,11288.0,1.8231544494628906,-0.047233633275189014,0.026262920815677594,-0.08681549370938718,0.07343681156635284,-0.011839116923511028,0.0
269,5,-0.0007706368924118578,-0.000321034574881196,0.0008219532901421189,-0.014930332079529762,0.0003587811952456832,-0.016517257317900658,0.043874334543943405,0.06729932129383087,-0.011044698767364025,-0.022332821041345596,-0.28421151638031006,-0.14799313247203827,0.0,0.0,0.0,-0.00350339338183403,-0.01671711541712284,-0.0,0.0,0.0,0.0,-0.014808847568929195,-0.030791109427809715,-0.007105885073542595,9839.0,18564.0,12634.0,13226.0,0.20593494176864624,0.7947334051132202,0.3529658615589142,0.38916629552841187,0.0,0.0,0.0,0.0,12333.0,17068.0,14778.0,11288.0,1.8231544494628906,-0.04700610648444035,0.028699713122861133,-0.08866166366815159,0.07343681156635284,-0.011839116923511028,0.0
275,5,-0.0007681560819037259,-0.0003865527978632599,0.0007210758049041033,-0.005674433428794146,0.008005701005458832,0.005498393904417753,0.043262261897325516,0.06911855190992355,-0.01070050522685051,-0.07340835779905319,0.025410350412130356,-0.04224636033177376,0.0,0.0,0.0,-0.0009422185248695314,-0.013993067666888237,-0.0,0.0,0.0,0.0,-0.012566011399030685,-0.026452401652932167,0.0025647212751209736,13157.0,16337.0,15017.0,11133.0,0.38486599922180176,0.608173668384552,0.5093371272087097,0.2691120505332947,0.0,0.0,0.0,0.0,10961.0,18178.0,12662.0,14128.0,1.786550760269165,-0.047548816412375634,0.025990074052409686,-0.08779876401360116,0.060237348079681396,-0.0031201497185975313,0.0
280,5,-0.000812571553979069,-0.00037430424708873034,0.0007580259698443115,-0.007599633652716875,0.0017324525397270918,-0.002234657295048237,0.043262261897325516,0.06911855190992355,-0.01070050522685051,-0.07340835779905319,0.025410350412130356,-0.04224636033177376,0.0,0.0,0.0,-0.0009422185248695314,-0.013993067666888237,-0.0,0.0,0.0,0.0,-0.012566011399030685,-0.026452401652932167,0.0025647212751209736,13157.0,16337.0,15017.0,11133.0,0.38486599922180176,0.608173668384552,0.5093371272087097,0.2691120505332947,0.0,0.0,0.0,0.0,10961.0,18178.0,12662.0,14128.0,1.786550760269165,-0.04845213874884945,0.02789204863334868,-0.08676182357914512,0.060237348079681396,-0.0031201497185975313,0.0
285,5,-0.0008369369897991419,-0.00040931112016551197,0.0007607469451613724,-0.005963705945760012,0.004893807228654623,-0.0012203811202198267,0.04253412410616875,0.06751364469528198,-0.011856391094624996,-0.13324309885501862,0.3590972423553467,0.11894042044878006,0.0,0.0,0.0,-0.0026908835861831903,-0.007969909347593784,-0.0,0.0,0.0,0.0,-0.012351352721452713,-0.01818963699042797,-0.0023057833313941956,13747.0,16147.0,14573.0,12230.0,0.42245933413505554,0.5933850407600403,0.4779878258705139,0.3293222188949585,0.0,0.0,0.0,0.0,15145.0,14365.0,15518.0,10927.0,1.7173582315444946,-0.04919853602229859,0.030546325607453812,-0.08624011829059003,0.03298071026802063,-0.008565710857510567,0.0
290,5,-0.0008381154621019959,-0.00043553023715503514,0.0007624353747814894,-0.0025268993340432644,0.00510381767526269,-0.0006907667848281562,0.04253412410616875,0.06751364469528198,-0.011856391094624996,-0.13324309885501862,0.3590972423553467,0.11894042044878006,0.0,0.0,0.0,-0.0026908835861831903,-0.007969909347593784,-0.0,0.0,0.0,0.0,-0.012351352721452713,-0.01818963699042797,-0.0023057833313941956,13747.0,16147.0,14573.0,12230.0,0.42245933413505554,0.5933850407600403,0.4779878258705139,0.3293222188949585,0.0,0.0,0.0,0.0,15145.0,14365.0,15518.0,10927.0,1.7173582315444946,-0.05046014112179594,0.032927303143935424,-0.08554134901310699,0.03298071026802063,-0.008565710857510567,0.0
295,5,-0.0008138398989103734,-0.0004813631239812821,0.0007270363857969642,0.0019023105269297957,0.007541471626609564,0.00397157296538353,0.04041857644915581,0.06109962612390518,-0.01052441168576479,-0.18918949365615845,0.7673054933547974,-0.043409496545791626,0.0,0.0,0.0,-0.006857431959360838,-0.0034522805362939835,-0.0,0.0,0.0,0.0,-0.009815710596740246,-0.006811300292611122,-0.00045240807230584323,13817.0,15570.0,13211.0,13735.0,0.42700645327568054,0.5496810078620911,0.38821759819984436,0.4216456711292267,0.0,0.0,0.0,0.0,14480.0,14824.0,13546.0,13554.0,1.6951760053634644,-0.050164981958935366,0.03698436365352899,-0.08461492962032884,0.014101383276283741,-0.02154659666121006,0.0
300,5,-0.0008100353297777474,-0.0005207211943343282,0.0006425314932130277,0.0012174672447144985,0.007739555556327105,0.011729220859706402,0.04041857644915581,0.06109962612390518,-0.01052441168576479,-0.18918949365615845,0.7673054933547974,-0.043409496545791626,0.0,0.0,0.0,-0.006857431959360838,-0.0034522805362939835,-0.0,0.0,0.0,0.0,-0.009815710596740246,-0.006811300292611122,-0.00045240807230584323,13817.0,15570.0,13211.0,13735.0,0.42700645327568054,0.5496810078620911,0.38821759819984436,0.4216456711292267,0.0,0.0,0.0,0.0,14480.0,14824.0,13546.0,13554.0,1.6951760053634644,-0.05256703476308609,0.039824061240941705,-0.08319141387045334,0.014101383276283741,-0.02154659666121006,0.0
305,5,-0.0008250465616583824,-0.00054215791169554,0.0005883992416784167,-0.0013143569231033325,0.00566823361441493,0.011187553405761719,0.03847133740782738,0.05447256192564964,-0.009847989305853844,-0.29385969042778015,0.9255654811859131,0.08553051948547363,0.0,0.0,0.0,-0.010055530816316605,2.220998067059554e-05,-0.0,0.0,0.0,0.0,-0.008020213805139065,0.0031591327860951424,0.001266717677935958,15065.0,13598.0,13634.0,13025.0,0.5127258896827698,0.4128152132034302,0.41513025760650635,0.37668687105178833,0.0,0.0,0.0,0.0,14010.0,14646.0,12166.0,14441.0,1.7116061449050903,-0.051898903254887406,0.04478252395488008,-0.082967573293751,-9.159715409623459e-05,-0.03190098702907562,-0.0
310,5,-0.0008334041922353208,-0.000530494493432343,0.0005166971241123974,-0.0015286558773368597,0.0008676832658238709,0.013079277239739895,0.03847133740782738,0.05447256192564964,-0.009847989305853844,-0.29385969042778015,0.9255654811859131,0.08553051948547363,0.0,0.0,0.0,-0.010055530816316605,2.220998067059554e-05,-0.0,0.0,0.0,0.0,-0.008020213805139065,0.0031591327860951424,0.001266717677935958,15065.0,13598.0,13634.0,13025.0,0.5127258896827698,0.4128152132034302,0.41513025760650635,0.37668687105178833,0.0,0.0,0.0,0.0,14010.0,14646.0,12166.0,14441.0,1.7116061449050903,-0.0506092694877824,0.050018688807481025,-0.0826892079182413,-9.159715409623459e-05,-0.03190098702907562,-0.0
315,5,-0.0008663400076329708,-0.0005225444911047816,0.0004378854646347463,-0.004563762340694666,-0.0006069297669455409,0.014689109288156033,0.03475979343056679,0.04295820742845535,-0.010248797945678234,-0.3247660994529724,0.9244258999824524,-0.11134085059165955,0.0,0.0,0.0,-0.002012786688283086,-0.002587011316791177,-0.0,0.0,0.0,0.0,-0.008819568902254105,0.008334378711879253,-0.0007101778173819184,13213.0,15256.0,10551.0,15449.0,0.38834258913993835,0.5265311002731323,0.23963430523872375,0.5406679511070251,0.0,0.0,0.0,0.0,15049.0,13381.0,12923.0,13620.0,1.6583632230758667,-0.048054966646375416,0.0550897696428862,-0.08199447428589772,0.010337810032069683,-0.00618707574903965,-0.0
320,5,-0.0008582001901231706,-0.0005291010602377355,0.00047424310469068587,-0.0008487245650030673,0.000544013746548444,0.0015127277001738548,0.03475979343056679,0.04295820742845535,-0.010248797945678234,-0.3247660994529724,0.9244258999824524,-0.11134085059165955,0.0,0.0,0.0,-0.002012786688283086,-0.002587011316791177,-0.0,0.0,0.0,0.0,-0.008819568902254105,0.008334378711879253,-0.0007101778173819184,13213.0,15256.0,10551.0,15449.0,0.38834258913993835,0.5265311002731323,0.23963430523872375,0.5406679511070251,0.0,0.0,0.0,0.0,15049.0,13381.0,12923.0,13620.0,1.6583632230758667,-0.04990053069943596,0.05932692539557468,-0.08515259354166076,0.010337810032069683,-0.00618707574903965,-0.0
325,5,-0.0009195519960485399,-0.0004684094456024468,0.0004395599535200745,-0.007701708935201168,-0.007065386511385441,0.0047670695930719376,0.03238086402416229,0.03606380522251129,-0.009604190476238728,-0.239113911986351,0.7396230101585388,-0.1000450998544693,0.0,0.0,0.0,-0.0016231476329267025,-0.001992556033656001,-0.0,0.0,0.0,0.0,-0.008819568902254105,0.008334378711879253,-0.0007101778173819184,14200.0,14622.0,11793.0,14502.0,0.4525022506713867,0.4813861846923828,0.30461496114730835,0.4731026887893677,0.0,0.0,0.0,0.0,13088.0,15670.0,10553.0,15361.0,1.6510943174362183,-0.04619633916564279,0.06294344420766326,-0.08380684121596245,0.00792744942009449,-0.004967502783983946,-0.0
331,5,-0.0009538091253489256,-0.00044253046507947147,0.00041525589767843485,-0.0071915434673428535,-0.005931631661951542,0.00482331495732069,0.03238086402416229,0.03606380522251129,-0.009604190476238728,-0.239113911986351,0.7396230101585388,-0.1000450998544693,0.0,0.0,0.0,-0.0016231476329267025,-0.001992556033656001,-0.0,0.0,0.0,0.0,-0.008819568902254105,0.008334378711879253,-0.0007101778173819184,14200.0,14622.0,11793.0,14502.0,0.4525022506713867,0.4813861846923828,0.30461496114730835,0.4731026887893677,0.0,0.0,0.0,0.0,13088.0,15670.0,10553.0,15361.0,1.6510943174362183,-0.04445046768837935,0.0653322105290697,-0.08305128174420731,0.00792744942009449,-0.004967502783983946,-0.0
336,5,-0.001028466853313148,-0.00043813756201416254,0.00043829804053530097,-0.011835544370114803,-0.0028998006600886583,-0.000835733488202095,0.029933083802461624,0.0288748387247324,-0.009976997971534729,-0.17749010026454926,0.4162023067474365,0.10366708785295486,0.0,0.0,0.0,0.006181291304528713,-0.007746505551040173,-0.0,0.0,0.0,0.0,-0.006960138212889433,0.0015628221444785595,0.0002537607797421515,14579.0,13547.0,13539.0,12776.0,0.47840064764022827,0.4094701409339905,0.40901654958724976,0.3614758849143982,0.0,0.0,0.0,0.0,13973.0,14178.0,13218.0,13102.0,1.7273473739624023,-0.04192386980002955,0.06721361483346543,-0.08362833539232571,0.03224220871925354,0.019790757447481155,-0.0
341,5,-0.0011470565805211663,-0.0004200160619802773,0.00044834535219706595,-0.0189649797976017,-0.0033345010597258806,-0.0015399683034047484,0.029933083802461624,0.0288748387247324,-0.009976997971534729,-0.17749010026454926,0.4162023067474365,0.10366708785295486,0.0,0.0,0.0,0.006181291304528713,-0.007746505551040173,-0.0,0.0,0.0,0.0,-0.006960138212889433,0.0015628221444785595,0.0002537607797421515,14579.0,13547.0,13539.0,12776.0,0.47840064764022827,0.4094701409339905,0.40901654958724976,0.3614758849143982,0.0,0.0,0.0,0.0,13973.0,14178.0,13218.0,13102.0,1.7273473739624023,-0.041816944076797626,0.06744735099041521,-0.08348200783132523,0.03224220871925354,0.019790757447481155,-0.0
346,5,-0.0012450197245925665,-0.00039264102815650403,0.00046798220137134194,-0.01934157684445381,-0.004618803970515728,-0.0029724088963121176,0.028774689882993698,0.026558170095086098,-0.010261740535497665,-0.13480202853679657,0.09589960426092148,-0.08722534030675888,0.0,0.0,0.0,0.002994731767103076,-0.017539843916893005,-0.0,0.0,0.0,0.0,-0.007276726886630058,-0.004921503830701113,-0.0045286184176802635,11946.0,15906.0,11777.0,14301.0,0.3131166398525238,0.5749337077140808,0.3036938011646271,0.4593501389026642,0.0,0.0,0.0,0.0,13398.0,14662.0,13748.0,12489.0,1.8328255414962769,-0.0390730599016601,0.06829461197565558,-0.08374201470020401,0.07745946943759918,0.010173875838518143,0.0
351,5,-0.0013483052607625723,-0.00038109393790364265,0.0005084620206616819,-0.020130891352891922,-0.003233174094930291,-0.006046541500836611,0.028774689882993698,0.026558170095086098,-0.010261740535497665,-0.13480202853679657,0.09589960426092148,-0.08722534030675888,0.0,0.0,0.0,0.002994731767103076,-0.017539843916893005,-0.0,0.0,0.0,0.0,-0.007276726886630058,-0.004921503830701113,-0.0045286184176802635,11946.0,15906.0,11777.0,14301.0,0.3131166398525238,0.5749337077140808,0.3036938011646271,0.4593501389026642,0.0,0.0,0.0,0.0,13398.0,14662.0,13748.0,12489.0,1.8328255414962769,-0.03802386363461145,0.0688718195088604,-0.08518776235654035,0.07745946943759918,0.010173875838518143,0.0
356,5,-0.0014085567090660334,-0.0004988872678950429,0.0005762887885794044,-0.01528253499418497,0.012841932475566864,-0.01055783312767744,0.026880454272031784,0.02685397118330002,-0.010043042711913586,-0.18723095953464508,-0.14516007900238037,-0.02689184993505478,0.0,0.0,0.0,0.002923215739428997,-0.01863957941532135,-0.0,0.0,0.0,0.0,-0.003827412612736225,-0.013672450557351112,0.0003479564911685884,12786.0,15324.0,14327.0,12959.0,0.36206862330436707,0.5315232872962952,0.4611257016658783,0.37262973189353943,0.0,0.0,0.0,0.0,11840.0,16085.0,13505.0,13781.0,1.8468000888824463,-0.042185711731267374,0.06719167392254095,-0.09051765495305668,0.08294322341680527,0.010006638243794441,0.0
361,5,-0.0015758781228214502,-0.0003318173112347722,0.0005756873288191855,-0.026191579177975655,-0.014911621809005737,-0.004150958266109228,0.026880454272031784,0.02685397118330002,-0.010043042711913586,-0.18723095953464508,-0.14516007900238037,-0.02689184993505478,0.0,0.0,0.0,0.002923215739428997,-0.01863957941532135,-0.0,0.0,0.0,0.0,-0.003827412612736225,-0.013672450557351112,0.0003479564911685884,12786.0,15324.0,14327.0,12959.0,0.36206862330436707,0.5315232872962952,0.4611257016658783,0.37262973189353943,0.0,0.0,0.0,0.0,11840.0,16085.0,13505.0,13781.0,1.8468000888824463,-0.03455403004805825,0.0705085192762584,-0.08612776560579367,0.08294322341680527,0.010006638243794441,0.0
366,5,-0.0017148309852927923,-0.00030981103191152215,0.0005703276256099343,-0.027150971814990044,-0.00860540196299553,-0.001017214497551322,0.02575654909014702,0.028046388179063797,-0.010548889636993408,-0.17536479234695435,-0.21301890909671783,0.06631983071565628,0.0,0.0,0.0,0.015044627711176872,-0.022888898849487305,-0.0,0.0,0.0,0.0,-0.005122794304043055,-0.01764039508998394,-0.0030519033316522837,13181.0,15804.0,15185.0,12716.0,0.3863373398780823,0.5671782493591309,0.5214024186134338,0.3579074740409851,0.0,0.0,0.0,0.0,14007.0,15131.0,15875.0,11768.0,1.9391062259674072,-0.034556485335637155,0.06973059563836112,-0.08551719059139103,0.10692796856164932,0.05407067760825157,0.0
371,5,-0.0018496429547667503,-0.0002754615561570972,0.0005795850302092731,-0.027037829160690308,-0.007564099505543709,-0.0015177781460806727,0.02575654909014702,0.028046388179063797,-0.010548889636993408,-0.17536479234695435,-0.21301890909671783,0.06631983071565628,0.0,0.0,0.0,0.015044627711176872,-0.022888898849487305,-0.0,0.0,0.0,0.0,-0.005122794304043055,-0.01764039508998394,-0.0030519033316522837,13181.0,15804.0,15185.0,12716.0,0.3863373398780823,0.5671782493591309,0.5214024186134338,0.3579074740409851,0.0,0.0,0.0,0.0,14007.0,15131.0,15875.0,11768.0,1.9391062259674072,-0.033732541574696386,0.06986032401370941,-0.08645074324081012,0.10692796856164932,0.05407067760825157,0.0
376,5,-0.0019668370950967073,-0.0002704621874727309,0.0004888820694759488,-0.02487841807305813,-0.003625562647357583,0.010277246125042439,0.02575654909014702,0.028046388179063797,-0.010548889636993408,-0.17536479234695435,-0.21301890909671783,0.06631983071565628,0.0,0.0,0.0,0.007513077929615974,-0.02404777705669403,-0.0,0.0,0.0,0.0,-0.005122794304043055,-0.01764039508998394,-0.0030519033316522837,13181.0,15804.0,15185.0,12716.0,0.3863373398780823,0.5671782493591309,0.5214024186134338,0.3579074740409851,0.0,0.0,0.0,0.0,14007.0,15131.0,15875.0,11768.0,1.926390528678894,-0.04022926570717357,0.06615068553934364,-0.08639084045905243,0.11161358654499054,0.026826459914445877,0.0
381,5,-0.0021446319296956062,-0.00019948840781580657,0.0005518982070498168,-0.03128676861524582,-0.009967080317437649,-0.0034510379191488028,0.02433106116950512,0.02997560426592827,-0.010339518077671528,-0.08141963183879852,-0.09898559749126434,-0.10496358573436737,0.0,0.0,0.0,0.007513077929615974,-0.02404777705669403,-0.0,0.0,0.0,0.0,-0.0017164262244477868,-0.016434241086244583,0.001865310943685472,14390.0,15161.0,16135.0,12778.0,0.4654277563095093,0.5196293592453003,0.5924332141876221,0.3616158962249756,0.0,0.0,0.0,0.0,12456.0,16576.0,14115.0,13872.0,1.926390528678894,-0.04215892766792996,0.06399722678506849,-0.0852356857450516,0.11161358654499054,0.026826459914445877,0.0
386,5,-0.0021943775936961174,-0.00014380486391019076,0.0005065904697403312,-0.018484177067875862,-0.010668857954442501,0.004056510049849749,0.02433106116950512,0.02997560426592827,-0.010339518077671528,-0.08141963183879852,-0.09898559749126434,-0.10496358573436737,0.0,0.0,0.0,0.009904357604682446,-0.027149677276611328,-0.0,0.0,0.0,0.0,-0.0017164262244477868,-0.016434241086244583,0.001865310943685472,14390.0,15161.0,16135.0,12778.0,0.4654277563095093,0.5196293592453003,0.5924332141876221,0.3616158962249756,0.0,0.0,0.0,0.0,12456.0,16576.0,14115.0,13872.0,1.9748926162719727,-0.04037269132815219,0.0667448277691225,-0.08536284451769356,0.129177063703537,0.03625479340553284,0.0
392,5,-0.002297560917213559,-0.00010065655806101859,0.0005108541809022427,-0.019775662571191788,-0.009445338509976864,0.001110958750359714,0.023765286430716515,0.030415575951337814,-0.010180440731346607,-0.07460486888885498,0.04315124452114105,0.08459804952144623,0.0,0.0,0.0,0.009904357604682446,-0.027149677276611328,-0.0,0.0,0.0,0.0,-0.003442486748099327,-0.011344357393682003,-0.0031965342350304127,13538.0,16023.0,14559.0,14261.0,0.40893447399139404,0.5838240385055542,0.4770283102989197,0.4566037058830261,0.0,0.0,0.0,0.0,12775.0,16434.0,14553.0,14677.0,1.9748926162719727,-0.04197309909684916,0.06781147522662724,-0.08434914705690785,0.129177063703537,0.03625479340553284,0.0
397,5,-0.0023723840713500977,-5.7355999160790816e-05,0.0005145656177774072,-0.016889045014977455,-0.008974202908575535,-9.859836609393824e-07,0.023765286430716515,0.030415575951337814,-0.010180440731346607,-0.07460486888885498,0.04315124452114105,0.08459804952144623,0.0,0.0,0.0,0.010038246400654316,-0.019251782447099686,-0.0,0.0,0.0,0.0,-0.003442486748099327,-0.011344357393682003,-0.0031965342350304127,13538.0,16023.0,14559.0,14261.0,0.40893447399139404,0.5838240385055542,0.4770283102989197,0.4566037058830261,0.0,0.0,0.0,0.0,12775.0,16434.0,14553.0,14677.0,1.8725934028625488,-0.042266141887968754,0.06959374477218816,-0.08390272413094643,0.0868595615029335,0.03484148532152176,-0.0
402,5,-0.002423170255497098,-6.451392255257815e-05,0.0004627250600606203,-0.012849953956902027,-0.0027307304553687572,0.006220471113920212,0.022750835865736008,0.028880182653665543,-0.01055535115301609,-0.08746916055679321,0.23032769560813904,0.040838006883859634,0.0,0.0,0.0,0.010038246400654316,-0.019251782447099686,-0.0,0.0,0.0,0.0,-0.003523481311276555,-0.00785814132541418,-0.0016578121576458216,13397.0,16469.0,13949.0,15176.0,0.3999033570289612,0.6185041069984436,0.43571311235427856,0.5207720994949341,0.0,0.0,0.0,0.0,15098.0,14555.0,15914.0,12734.0,1.8725934028625488,-0.045852527317570314,0.06905635346774557,-0.08550837652971867,0.0868595615029335,0.03484148532152176,-0.0
407,5,-0.0025778012350201607,-9.088224942388479e-06,0.0005678228917531669,-0.02369571663439274,-0.00774337537586689,-0.010123549960553646,0.022750835865736008,0.028880182653665543,-0.01055535115301609,-0.08746916055679321,0.23032769560813904,0.040838006883859634,0.0,0.0,0.0,0.0029686761554330587,-0.014263922348618507,-0.0,0.0,0.0,0.0,-0.003523481311276555,-0.00785814132541418,-0.0016578121576458216,13397.0,16469.0,13949.0,15176.0,0.3999033570289612,0.6185041069984436,0.43571311235427856,0.5207720994949341,0.0,0.0,0.0,0.0,15098.0,14555.0,15914.0,12734.0,1.791918396949768,-0.047367758653383545,0.06846295256745256,-0.08503436684998689,0.061587486416101456,0.009860262274742126,-0.0
412,5,-0.0026381080970168114,8.034647908061743e-05,0.0004805240605492145,-0.016715094447135925,-0.013829514384269714,0.006426438223570585,0.022295968607068062,0.026660529896616936,-0.009803399443626404,-0.03263048082590103,0.38995006680488586,-0.12775260210037231,0.0,0.0,0.0,0.0029686761554330587,-0.014263922348618507,-0.0,0.0,0.0,0.0,-0.003270911518484354,-0.0032634458038955927,0.001646443852223456,15594.0,13553.0,15604.0,12736.0,0.5514565706253052,0.40989652276039124,0.5521878004074097,0.3590525686740875,0.0,0.0,0.0,0.0,13158.0,16673.0,13502.0,15556.0,1.791918396949768,-0.04636343041927885,0.07157383229935045,-0.08238049827055724,0.061587486416101456,0.009860262274742126,-0.0
417,5,-0.002713186666369438,0.00014969153562560678,0.00041565916035324335,-0.0156954824924469,-0.013853213749825954,0.010354364290833473,0.022295968607068062,0.026660529896616936,-0.009803399443626404,-0.03263048082590103,0.38995006680488586,-0.12775260210037231,0.0,0.0,0.0,0.015068009495735168,-0.017134256660938263,-0.0,0.0,0.0,0.0,-0.003270911518484354,-0.0032634458038955927,0.001646443852223456,15594.0,13553.0,15604.0,12736.0,0.5514565706253052,0.40989652276039124,0.5521878004074097,0.3590525686740875,0.0,0.0,0.0,0.0,13158.0,16673.0,13502.0,15556.0,1.8718973398208618,-0.04643539198172555,0.07365765329706457,-0.08302328667029202,0.07727315276861191,0.052277714014053345,-0.0
422,5,-0.0027772895991802216,0.00021125633793417364,0.0004079071804881096,-0.013970524072647095,-0.01292906142771244,0.005071982741355896,0.021901501342654228,0.021844252943992615,-0.009657002985477448,-0.05586222559213638,0.4040566384792328,0.16188471019268036,0.0,0.0,0.0,0.015068009495735168,-0.017134256660938263,-0.0,0.0,0.0,0.0,-0.004780253395438194,0.00177145772613585,-0.005120885092765093,13000.0,15719.0,12104.0,15357.0,0.375116229057312,0.5607746839523315,0.3220965266227722,0.5339309573173523,0.0,0.0,0.0,0.0,14238.0,14970.0,14061.0,14433.0,1.8718973398208618,-0.046456754044653936,0.07555753938940075,-0.082763013251113,0.07727315276861191,0.052277714014053345,-0.0
427,5,-0.002874745288863778,0.00026052710018120706,0.00037674346822313964,-0.017282895743846893,-0.01108411606401205,0.005768441129475832,0.021901501342654228,0.021844252943992615,-0.009657002985477448,-0.05586222559213638,0.4040566384792328,0.16188471019268036,0.0,0.0,0.0,0.014487318694591522,-0.015217961743474007,-0.0,0.0,0.0,0.0,-0.004780253395438194,0.00177145772613585,-0.005120885092765093,13000.0,15719.0,12104.0,15357.0,0.375116229057312,0.5607746839523315,0.3220965266227722,0.5339309573173523,0.0,0.0,0.0,0.0,14238.0,14970.0,14061.0,14433.0,1.8480052947998047,-0.04855892399265397,0.07638679731250671,-0.08132418379043707,0.06775623559951782,0.049621760845184326,-0.0
432,5,-0.002956584794446826,0.0003051909152418375,0.0003524408966768533,-0.01673390530049801,-0.009793302975594997,0.005223684012889862,0.020338840782642365,0.013527565635740757,-0.00908083189278841,-0.08054585009813309,0.3767055869102478,-0.045571405440568924,0.0,0.0,0.0,0.014487318694591522,-0.015217961743474007,-0.0,0.0,0.0,0.0,-0.004134439863264561,-2.3032413082546555e-05,0.0030681798234581947,14476.0,14460.0,14391.0,14382.0,0.4713287055492401,0.4702010452747345,0.46548232436180115,0.46488526463508606,0.0,0.0,0.0,0.0,15382.0,13348.0,14838.0,12797.0,1.8480052947998047,-0.04887086284823716,0.07810985333016597,-0.08184205539841229,0.06775623559951782,0.049621760845184326,-0.0
437,5,-0.003058197908103466,0.00036010576877743006,0.0003605880483519286,-0.018887143582105637,-0.010507105849683285,0.0011118142865598202,0.020338840782642365,0.013527565635740757,-0.00908083189278841,-0.08054585009813309,0.3767055869102478,-0.045571405440568924,0.0,0.0,0.0,0.011144038289785385,-0.017671938985586166,-0.0,0.0,0.0,0.0,-0.004134439863264561,-2.3032413082546555e-05,0.0030681798234581947,14476.0,14460.0,14391.0,14382.0,0.4713287055492401,0.4702010452747345,0.46548232436180115,0.46488526463508606,0.0,0.0,0.0,0.0,15382.0,13348.0,14838.0,12797.0,1.858122706413269,-0.047218698434664835,0.0799496032358204,-0.08216338617874225,0.0791153833270073,0.038380373269319534,-0.0
443,5,-0.0031405137851834297,0.0004151884058956057,0.0003447792259976268,-0.017432747408747673,-0.010812758468091488,0.002341785468161106,0.01967882551252842,0.010743585415184498,-0.009705774486064911,-0.05824553593993187,0.22479088604450226,0.27339163422584534,0.0,0.0,0.0,0.011144038289785385,-0.017671938985586166,-0.0,0.0,0.0,0.0,-0.0005965030868537724,-0.0014684497145935893,0.0023374634329229593,15887.0,12712.0,15993.0,12334.0,0.5734916925430298,0.3576286733150482,0.5815532207489014,0.33533164858818054,0.0,0.0,0.0,0.0,12152.0,16456.0,11937.0,16449.0,1.858122706413269,-0.04789159382823198,0.08160091269108649,-0.08098614007711852,0.0791153833270073,0.038380373269319534,-0.0
448,5,-0.003243157407268882,0.00046402489533647895,0.00035899473004974425,-0.019290344789624214,-0.010185481980443,-0.0007691453211009502,0.01967882551252842,0.010743585415184498,-0.009705774486064911,-0.05824553593993187,0.22479088604450226,0.27339163422584534,0.0,0.0,0.0,0.012341001071035862,-0.018353329971432686,-0.0,0.0,0.0,0.0,-0.0005965030868537724,-0.0014684497145935893,0.0023374634329229593,15887.0,12712.0,15993.0,12334.0,0.5734916925430298,0.3576286733150482,0.5815532207489014,0.33533164858818054,0.0,0.0,0.0,0.0,12152.0,16456.0,11937.0,16449.0,1.8715611696243286,-0.047874275804004766,0.08312647116187143,-0.08108257876269519,0.08275864273309708,0.04280977323651314,-0.0
453,5,-0.0033436522353440523,0.0004834517021663487,0.0003489999508019537,-0.0197755079716444,-0.0064054084941744804,0.0008917139493860304,0.01881854422390461,0.008530952036380768,-0.00903728511184454,-0.06493726372718811,0.16808182001113892,-0.18193213641643524,0.0,0.0,0.0,0.012341001071035862,-0.018353329971432686,-0.0,0.0,0.0,0.0,-0.00047398891183547676,-0.003209392772987485,-0.004551059100776911,11852.0,16515.0,12194.0,16112.0,0.3078632950782776,0.6221821308135986,0.32724523544311523,0.5907146334648132,0.0,0.0,0.0,0.0,15932.0,12621.0,16189.0,12108.0,1.8715611696243286,-0.04624335083449874,0.08460232127995332,-0.08193413538166903,0.08275864273309708,0.04280977323651314,-0.0
458,5,-0.0034272857010364532,0.0005314780864864588,0.000366053864127025,-0.017946219071745872,-0.00832532998174429,-0.0016897827154025435,0.01881854422390461,0.008530952036380768,-0.00903728511184454,-0.06493726372718811,0.16808182001113892,-0.18193213641643524,0.0,0.0,0.0,0.007651164662092924,-0.020460817962884903,-0.0,0.0,0.0,0.0,-0.00047398891183547676,-0.003209392772987485,-0.004551059100776911,11852.0,16515.0,12194.0,16112.0,0.3078632950782776,0.6221821308135986,0.32724523544311523,0.5907146334648132,0.0,0.0,0.0,0.0,15932.0,12621.0,16189.0,12108.0,1.8798412084579468,-0.045624331427185624,0.08628790131199161,-0.08076103567960888,0.09267295897006989,0.026659350842237473,-0.0
463,5,-0.003536420641466975,0.0005607913481071591,0.00035394291626289487,-0.020274693146348,-0.006847720593214035,0.0007773985853418708,0.01840643584728241,0.007680284325033426,-0.007508763112127781,-0.028263354673981667,0.030164357274770737,0.20000940561294556,0.0,0.0,0.0,0.007651164662092924,-0.020460817962884903,-0.0,0.0,0.0,0.0,-0.002126383362337947,-0.006697595585137606,0.007605437655001879,16310.0,12501.0,16929.0,11056.0,0.6060330271720886,0.345071017742157,0.6553037166595459,0.2651534080505371,0.0,0.0,0.0,0.0,14249.0,14728.0,14619.0,13897.0,1.8798412084579468,-0.0453629573552366,0.08717882081773301,-0.0806969932925403,0.09267295897006989,0.026659350842237473,-0.0
