timestamp,dt,pos_x,pos_y,pos_z,vel_x,vel_y,vel_z,roll,pitch,yaw,agv_x,agv_y,agv_z,x_ref,y_ref,z_ref,roll_ref,pitch_ref,yaw_ref,x_vel_ref,y_vel_ref,z_vel_ref,x_torque,y_torque,z_torque,w0,w1,w2,w3,u0,u1,u2,u3,m0req,m1req,m2req,m3req,thrust0,thrust1,thrust2,thrust3,thrust_ref,roll_vicon,pitch_vicon,yaw_vicon,acc_x,acc_y,acc_z
5,5,0.0,0.0,0.0,0.0021173255518078804,0.0002798649948090315,-0.0024800896644592285,-0.008472388610243797,0.06030780449509621,-0.003448367351666093,-0.0025680679827928543,-0.0008450544555671513,-3.749837196664885e-05,0.0,0.0,0.0,-0.00034368279739283025,0.0020001097582280636,-0.0,0.0,0.0,0.0,0.002561544068157673,-0.017992237582802773,-0.0002866039576474577,1495.0,1495.0,1495.0,1495.0,0.0,0.0,0.0,0.0,0.0,0.0,0.0,0.0,1495.0,1495.0,1495.0,1495.0,1.6474547386169434,-2.86219304026079,0.367257509096796,-1.573573604229661,-0.007939971052110195,-0.0010494936723262072,0.0
27,22,0.0,0.0,0.0,-0.0015120089519768953,-0.0028803402092307806,-0.002686698455363512,-0.008472388610243797,0.06030780449509621,-0.003448367351666093,-0.0025680679827928543,-0.0008450544555671513,-3.749837196664885e-05,0.0,0.0,0.0,-0.00034368279739283025,0.0020001097582280636,-0.0,0.0,0.0,0.0,0.002561544068157673,-0.017992237582802773,-0.0002866039576474577,1495.0,1495.0,1495.0,1495.0,0.0,0.0,0.0,0.0,0.0,0.0,0.0,0.0,1495.0,1495.0,1495.0,1495.0,1.6474547386169434,-2.8650736742553526,0.3698174536986044,-1.5734027334511445,-0.007939971052110195,-0.0010494936723262072,0.0
32,5,0.0,0.0,0.0,-0.001460193656384945,0.004476812202483416,0.0048240311443805695,-0.008471669629216194,0.06031414121389389,-0.003432139754295349,-0.0009441199363209307,-0.0009161946945823729,-0.0018800257239490747,0.0,0.0,0.0,-0.0054122209548950195,-0.0013579268706962466,-0.0,0.0,0.0,0.0,0.0025378111749887466,-0.018128378316760063,-0.00030138451256789267,1495.0,1495.0,1495.0,1495.0,0.0,0.0,0.0,0.0,0.0,0.0,0.0,0.0,1495.0,1495.0,1495.0,1495.0,1.6734776496887207,-2.8640172480868173,0.3700056404809337,-1.5748652705027029,0.0054757259786129,-0.016788044944405556,0.0
37,5,0.0,0.0,0.0,0.003242180682718754,-0.0014787714462727308,-0.0035603137221187353,-0.008471669629216194,0.06031414121389389,-0.003432139754295349,-0.0009441199363209307,-0.0009161946945823729,-0.0018800257239490747,0.0,0.0,0.0,-0.0054122209548950195,-0.0013579268706962466,-0.0,0.0,0.0,0.0,0.0025378111749887466,-0.018128378316760063,-0.00030138451256789267,1495.0,1495.0,1495.0,1495.0,0.0,0.0,0.0,0.0,0.0,0.0,0.0,0.0,1495.0,1495.0,1495.0,1495.0,1.6734776496887207,-2.8635535041490683,0.36908580465293855,-1.5737046880223506,0.0054757259786129,-0.016788044944405556,0.0
43,5,0.0,0.0,0.0,-0.0002951585629489273,-0.0027961651794612408,-0.002844177419319749,-0.008459223434329033,0.06032335385680199,-0.0034530211705714464,0.00027887363103218377,-0.0004261663416400552,-0.0003019252617377788,0.0,0.0,0.0,-0.0054122209548950195,-0.0013579268706962466,-0.0,0.0,0.0,0.0,0.002395247807726264,-0.017552580684423447,-0.00034682772820815444,1495.0,1495.0,1495.0,1495.0,0.0,0.0,0.0,0.0,0.0,0.0,0.0,0.0,11950.0,14733.0,14791.0,12612.0,1.6734776496887207,-2.865162291343477,0.3688124672208333,-1.5726802134534095,0.0054757259786129,-0.016788044944405556,0.0
48,5,0.0,0.0,0.0,-0.0002951585629489273,-0.0027961651794612408,-0.002844177419319749,-0.008459223434329033,0.06032335385680199,-0.0034530211705714464,0.00027887363103218377,-0.0004261663416400552,-0.0003019252617377788,0.0,0.0,0.0,-0.0054122209548950195,-0.0013579268706962466,-0.0,0.0,0.0,0.0,0.002395247807726264,-0.017552580684423447,-0.00034682772820815444,1495.0,1495.0,1495.0,1495.0,0.0,0.0,0.0,0.0,0.0,0.0,0.0,0.0,11950.0,14733.0,14791.0,12612.0,1.6734776496887207,-2.865162291343477,0.3688124672208333,-1.5726802134534095,0.0054757259786129,-0.016788044944405556,0.0
53,5,-1.0159389603359159e-05,1.803409418243973e-06,4.66715346192359e-06,-0.0020273320842534304,-0.0016820668242871761,-0.005694129038602114,-0.008459223434329033,0.06032335385680199,-0.0034530211705714464,0.00027887363103218377,-0.0004261663416400552,-0.0003019252617377788,0.0,0.0,0.0,0.0034195648040622473,-0.0002776649489533156,-0.0,0.0,0.0,0.0,0.002395247807726264,-0.017552580684423447,-0.00034682772820815444,1495.0,1495.0,1495.0,1495.0,0.0,0.0,0.0,0.0,0.0,0.0,0.0,0.0,11950.0,14733.0,14791.0,12612.0,1.65430748462677,-2.8653060886374173,0.3685372289820405,-1.5727294809298724,0.0011068446328863502,0.010485619306564331,0.0
58,5,-1.5410400010296144e-05,-1.1269609785813373e-05,-2.2308486222755164e-05,-0.0014410540461540222,0.0008959355764091015,0.000959424942266196,-0.00846449751406908,0.06030904874205589,-0.003441994311287999,0.0005527375033125281,-0.000338920159265399,0.0001238006807398051,0.0,0.0,0.0,-0.0011233900440856814,-0.0013861488550901413,-0.0,0.0,0.0,0.0,0.00246598944067955,-0.01755595952272415,-0.0003528334782458842,11955.0,14733.0,14798.0,12599.0,0.31364935636520386,0.4891820549964905,0.49372607469558716,0.35089725255966187,0.0,0.0,0.0,0.0,11946.0,14739.0,14792.0,12608.0,1.643286108970642,-2.864782943510492,0.36925370157742055,-1.573317109344014,0.005488764028996229,-0.003421780653297901,0.0
64,6,-1.0888238648476545e-05,-2.23471324716229e-05,-3.628150443546474e-05,-3.376234963070601e-05,0.0016876768786460161,0.0020605321042239666,-0.00846449751406908,0.06030904874205589,-0.003441994311287999,0.0005527375033125281,-0.000338920159265399,0.0001238006807398051,0.0,0.0,0.0,-0.0011233900440856814,-0.0013861488550901413,-0.0,0.0,0.0,0.0,0.00246598944067955,-0.01755595952272415,-0.0003528334782458842,11955.0,14733.0,14798.0,12599.0,0.31364935636520386,0.4891820549964905,0.49372607469558716,0.35089725255966187,0.0,0.0,0.0,0.0,11946.0,14739.0,14792.0,12608.0,1.643286108970642,-2.8633497768785863,0.3689759209635322,-1.5736961333259716,0.005488764028996229,-0.003421780653297901,0.0
69,5,-6.643324013566598e-06,2.387130371062085e-05,5.340094503480941e-05,0.0004958848585374653,-0.004871141631156206,-0.009937681257724762,-0.00846449751406908,0.06030904874205589,-0.003441994311287999,0.0005527375033125281,-0.000338920159265399,0.0001238006807398051,0.0,0.0,0.0,-0.0011233900440856814,-0.0013861488550901413,-0.0,0.0,0.0,0.0,0.00246598944067955,-0.01755595952272415,-0.0003528334782458842,11955.0,14733.0,14798.0,12599.0,0.31364935636520386,0.4891820549964905,0.49372607469558716,0.35089725255966187,0.0,0.0,0.0,0.0,11946.0,14739.0,14792.0,12608.0,1.643286108970642,-2.8656034053765715,0.36819178472285863,-1.5724208271633462,0.005488764028996229,-0.003421780653297901,0.0
74,5,-4.056518810102716e-05,-1.7730126273818314e-05,-4.877759420196526e-05,-0.003872269531711936,0.0030437151435762644,0.008286352269351482,-0.008462071418762207,0.06031680107116699,-0.003449283307418227,0.002696252427995205,-0.002172966720536351,5.291324850986712e-05,0.0,0.0,0.0,-0.003704893169924617,-0.0036503050941973925,-0.0,0.0,0.0,0.0,0.003616734640672803,-0.01831175573170185,-0.00036485245800577104,11807.0,14755.0,14929.0,12672.0,0.30535954236984253,0.4906882047653198,0.5030117034912109,0.35524803400039673,0.0,0.0,0.0,0.0,12096.0,14993.0,14859.0,12520.0,1.676286220550537,-2.865654667178204,0.3708269134752708,-1.5739004828676122,0.01474433857947588,-0.011511465534567833,0.0
82,8,-1.8767312212730758e-05,-2.21057707676664e-05,-7.464926511602243e-06,0.0010668369941413403,0.0017425634432584047,-0.0016429793322458863,-0.008462071418762207,0.06031680107116699,-0.003449283307418227,0.002696252427995205,-0.002172966720536351,5.291324850986712e-05,0.0,0.0,0.0,-0.003704893169924617,-0.0036503050941973925,-0.0,0.0,0.0,0.0,0.003616734640672803,-0.01831175573170185,-0.00036485245800577104,11807.0,14755.0,14929.0,12672.0,0.30535954236984253,0.4906882047653198,0.5030117034912109,0.35524803400039673,0.0,0.0,0.0,0.0,12096.0,14993.0,14859.0,12520.0,1.676286220550537,-2.864961849325531,0.3691384792963441,-1.5738053782761299,0.01474433857947588,-0.011511465534567833,0.0
88,5,-2.884729838115163e-05,-1.3409924576990306e-05,-4.153843838139437e-05,-0.001122328918427229,-0.0017965259030461311,-0.0029208576306700706,-0.00843844935297966,0.060374267399311066,-0.003467793809249997,0.00018445889872964472,0.0029366686940193176,0.0018708518473431468,0.0,0.0,0.0,0.0021821660920977592,-0.0011003209510818124,-0.0,0.0,0.0,0.0,0.0021914581302553415,-0.018479786813259125,-0.00042919712723232806,11854.0,14811.0,14816.0,12510.0,0.3079923689365387,0.49465134739875793,0.4949967861175537,0.34564557671546936,0.0,0.0,0.0,0.0,11817.0,14755.0,14933.0,12658.0,1.6473429203033447,-2.865349087042403,0.36973738449819105,-1.5735895172782917,0.004367713816463947,0.006663152482360601,0.0
93,5,-2.9895201805629767e-05,1.6422411135863513e-05,-1.09011434688e-05,-0.0005746798124164343,-0.004298490472137928,-0.004844818264245987,-0.00843844935297966,0.060374267399311066,-0.003467793809249997,0.00018445889872964472,0.0029366686940193176,0.0018708518473431468,0.0,0.0,0.0,0.0021821660920977592,-0.0011003209510818124,-0.0,0.0,0.0,0.0,0.0021914581302553415,-0.018479786813259125,-0.00042919712723232806,11854.0,14811.0,14816.0,12510.0,0.3079923689365387,0.49465134739875793,0.4949967861175537,0.34564557671546936,0.0,0.0,0.0,0.0,11817.0,14755.0,14933.0,12658.0,1.6473429203033447,-2.8666385436474706,0.36990548040170224,-1.5728720037578536,0.004367713816463947,0.006663152482360601,0.0
98,5,-1.3713562111661304e-05,-1.0958556231344119e-06,-3.374460357008502e-05,0.001711924676783383,0.00038279572618193924,0.0008032880141399801,-0.00843844935297966,0.060374267399311066,-0.003467793809249997,0.00018445889872964472,0.0029366686940193176,0.0018708518473431468,0.0,0.0,0.0,0.0021821660920977592,-0.0011003209510818124,-0.0,0.0,0.0,0.0,0.0021914581302553415,-0.018479786813259125,-0.00042919712723232806,11854.0,14811.0,14816.0,12510.0,0.3079923689365387,0.49465134739875793,0.4949967861175537,0.34564557671546936,0.0,0.0,0.0,0.0,11817.0,14755.0,14933.0,12658.0,1.6473429203033447,-2.8649601063281196,0.36992783431750886,-1.5733635720288275,0.004367713816463947,0.006663152482360601,0.0
103,5,5.032625267631374e-06,-2.564987198638846e-06,4.677334800362587e-06,0.0029343124479055405,0.0003294140915386379,-0.004289317410439253,-0.00842863880097866,0.06036725640296936,-0.003462047316133976,0.000711947912350297,-0.00347423879429698,-0.0007546936976723373,0.0,0.0,0.0,-0.000473249499918893,0.001602014061063528,-0.0,0.0,0.0,0.0,0.004326067864894867,-0.01816217601299286,-0.00033977837301790714,11829.0,14832.0,14811.0,12514.0,0.30661284923553467,0.4961244463920593,0.49469155073165894,0.34585726261138916,0.0,0.0,0.0,0.0,11891.0,14756.0,15059.0,12794.0,1.6433876752853394,-2.8642779627920247,0.3692604739203211,-1.5730471067176288,-0.006343924906104803,-0.0014415798941627145,0.0
108,5,3.453317276580492e-06,-3.5725672205444425e-05,-4.6392364311032e-05,0.0009842079598456621,0.004111047834157944,0.004412636626511812,-0.00842863880097866,0.06036725640296936,-0.003462047316133976,0.000711947912350297,-0.00347423879429698,-0.0007546936976723373,0.0,0.0,0.0,-0.000473249499918893,0.001602014061063528,-0.0,0.0,0.0,0.0,0.004326067864894867,-0.01816217601299286,-0.00033977837301790714,11829.0,14832.0,14811.0,12514.0,0.30661284923553467,0.4961244463920593,0.49469155073165894,0.34585726261138916,0.0,0.0,0.0,0.0,11891.0,14756.0,15059.0,12794.0,1.6433876752853394,-2.8634810889771245,0.37021275212332583,-1.5747355643541017,-0.006343924906104803,-0.0014415798941627145,0.0
113,5,-8.631627679278608e-06,-1.2528796105470974e-05,-1.7049274902092293e-05,-0.0010565101401880383,-0.001139206113293767,-0.0017561159329488873,-0.008431993424892426,0.060445625334978104,-0.0034937234595417976,0.00015525137132499367,-0.00027696852339431643,-0.004875478334724903,0.0,0.0,0.0,-0.005046499893069267,0.0009222852531820536,-0.0,0.0,0.0,0.0,0.0014434757176786661,-0.01932942122220993,-0.000518011103849858,11935.0,15071.0,14894.0,12584.0,0.31252598762512207,0.5132032632827759,0.500535786151886,0.35002124309539795,0.0,0.0,0.0,0.0,11993.0,15028.0,14957.0,12507.0,1.669145107269287,-2.864897873881819,0.3692786976793543,-1.5730316305919039,-0.0037094170693308115,-0.015613114461302757,0.0
118,5,-1.5145077668421436e-05,-1.473977135901805e-05,-2.5597477360861376e-05,-0.001204218016937375,-0.0001903654629131779,0.0003233380848541856,-0.008431993424892426,0.060445625334978104,-0.0034937234595417976,0.00015525137132499367,-0.00027696852339431643,-0.004875478334724903,0.0,0.0,0.0,-0.005046499893069267,0.0009222852531820536,-0.0,0.0,0.0,0.0,0.0014434757176786661,-0.01932942122220993,-0.000518011103849858,11935.0,15071.0,14894.0,12584.0,0.31252598762512207,0.5132032632827759,0.500535786151886,0.35002124309539795,0.0,0.0,0.0,0.0,11993.0,15028.0,14957.0,12507.0,1.669145107269287,-2.864405394770374,0.37015336362319645,-1.573910934336556,-0.0037094170693308115,-0.015613114461302757,0.0
123,5,-4.3610978650576726e-07,-3.45007429132238e-05,-2.5155310140689835e-05,0.0012833889340981841,0.0022951706778258085,7.627504965057597e-05,-0.008435029536485672,0.060460153967142105,-0.003497692523524165,-0.00031679251696914434,-0.00035843023215420544,-0.002229290781542659,0.0,0.0,0.0,0.0002082984137814492,-0.0011650817468762398,-0.0,0.0,0.0,0.0,0.003207150613889098,-0.01859390363097191,-0.00038630134076811373,11778.0,14777.0,14890.0,12602.0,0.3037506937980652,0.4922545552253723,0.5002625584602356,0.35107511281967163,0.0,0.0,0.0,0.0,11763.0,14791.0,14875.0,12616.0,1.6383427381515503,-2.862281286517586,0.368257570031488,-1.5736244266426314,0.004599524661898613,0.0006325563881546259,0.0
128,5,-1.2897439773951191e-05,-4.937919584335759e-05,-9.976309956982732e-05,-0.0009820041013881564,0.0027034825179725885,0.008983444422483444,-0.008435029536485672,0.060460153967142105,-0.003497692523524165,-0.00031679251696914434,-0.00035843023215420544,-0.002229290781542659,0.0,0.0,0.0,0.0002082984137814492,-0.0011650817468762398,-0.0,0.0,0.0,0.0,0.003207150613889098,-0.01859390363097191,-0.00038630134076811373,11778.0,14777.0,14890.0,12602.0,0.3037506937980652,0.4922545552253723,0.5002625584602356,0.35107511281967163,0.0,0.0,0.0,0.0,11763.0,14791.0,14875.0,12616.0,1.6383427381515503,-2.8627042559075027,0.3708121047835121,-1.5752222045225321,0.004599524661898613,0.0006325563881546259,0.0
133,5,-7.971721061039716e-06,-5.934923319728114e-05,-0.00011676517897285521,0.00019828465883620083,0.002277797320857644,0.005633627530187368,-0.008450305089354515,0.06044197827577591,-0.003522970248013735,-0.0019503271905705333,0.004559273365885019,-0.002714799949899316,0.0,0.0,0.0,-0.003392033278942108,-0.0009409093181602657,-0.0,0.0,0.0,0.0,0.002445036545395851,-0.01766878552734852,-0.00037439638981595635,11894.0,14750.0,14770.0,12602.0,0.31022077798843384,0.4903830885887146,0.4917412996292114,0.3510425090789795,0.0,0.0,0.0,0.0,11878.0,14769.0,14768.0,12596.0,1.655717372894287,-2.862373819053424,0.37019912563109014,-1.5751359581949786,0.0037539054173976183,-0.010410062968730927,0.0
138,5,-1.850526314228773e-05,-3.691345773404464e-05,-0.00010178548109252006,-0.0011847111163660884,-0.0017811739817261696,0.0004558871150948107,-0.008450305089354515,0.06044197827577591,-0.003522970248013735,-0.0019503271905705333,0.004559273365885019,-0.002714799949899316,0.0,0.0,0.0,-0.003392033278942108,-0.0009409093181602657,-0.0,0.0,0.0,0.0,0.002445036545395851,-0.01766878552734852,-0.00037439638981595635,11894.0,14750.0,14770.0,12602.0,0.31022077798843384,0.4903830885887146,0.4917412996292114,0.3510425090789795,0.0,0.0,0.0,0.0,11878.0,14769.0,14768.0,12596.0,1.655717372894287,-2.8640970239785806,0.3715057140421186,-1.5750915169501578,0.0037539054173976183,-0.010410062968730927,0.0
143,5,1.7118336472776718e-06,-2.0488316295086406e-05,-1.0837929949047975e-05,0.001952167134732008,-0.002683486556634307,-0.010731350630521774,-0.008469268679618835,0.06045753136277199,-0.0035360069014132023,-0.0013720033457502723,-0.00675592478364706,0.0038766576908528805,0.0,0.0,0.0,0.002121011959388852,-0.001145078451372683,-0.0,0.0,0.0,0.0,0.0011207901407033205,-0.01808864250779152,-0.0003407924377825111,12117.0,14918.0,14845.0,12534.0,0.3228161931037903,0.5022749900817871,0.49703916907310486,0.34701472520828247,0.0,0.0,0.0,0.0,12142.0,14907.0,14860.0,12504.0,1.6471927165985107,-2.863568724794707,0.36802065865959804,-1.573762351281106,0.004544964525848627,0.006475830916315317,0.0
148,5,2.7878395485458896e-05,-1.4448954061663244e-05,-3.9726969589537475e-06,0.003920854534953833,-0.0017981181154027581,-0.005116368178278208,-0.008469268679618835,0.06045753136277199,-0.0035360069014132023,-0.0013720033457502723,-0.00675592478364706,0.0038766576908528805,0.0,0.0,0.0,0.002121011959388852,-0.001145078451372683,-0.0,0.0,0.0,0.0,0.0011207901407033205,-0.01808864250779152,-0.0003407924377825111,12117.0,14918.0,14845.0,12534.0,0.3228161931037903,0.5022749900817871,0.49703916907310486,0.34701472520828247,0.0,0.0,0.0,0.0,12142.0,14907.0,14860.0,12504.0,1.6471927165985107,-2.8631999521874927,0.3686530848491358,-1.5736460474877574,0.004544964525848627,0.006475830916315317,0.0
153,5,-3.1589734135195613e-06,1.2212131878186483e-05,8.850937774695922e-06,-0.0021561426110565662,-0.003918577451258898,-0.003585383528843522,-0.008475162088871002,0.060465045273303986,-0.0035071405582129955,-0.0019964564125984907,0.0005037794471718371,0.0022303566802293062,0.0,0.0,0.0,0.0021527702920138836,0.0036923191510140896,-0.0,0.0,0.0,0.0,0.002636401215568185,-0.018518002703785896,-0.000304246845189482,11827.0,14743.0,14858.0,12483.0,0.3064647316932678,0.4899032711982727,0.49797534942626953,0.34399938583374023,0.0,0.0,0.0,0.0,11820.0,14746.0,14868.0,12473.0,1.6697677373886108,-2.865356498220764,0.36912357061999596,-1.5728943076435318,-0.01485611405223608,0.006662875879555941,0.0
159,5,-1.855133996286895e-05,-2.723395846260246e-05,-6.822718569310382e-05,-0.002709541004151106,0.003166099777445197,0.007815221324563026,-0.008475162088871002,0.060465045273303986,-0.0035071405582129955,-0.0019964564125984907,0.0005037794471718371,0.0022303566802293062,0.0,0.0,0.0,0.0021527702920138836,0.0036923191510140896,-0.0,0.0,0.0,0.0,0.002636401215568185,-0.018518002703785896,-0.000304246845189482,11827.0,14743.0,14858.0,12483.0,0.3064647316932678,0.4899032711982727,0.49797534942626953,0.34399938583374023,0.0,0.0,0.0,0.0,11820.0,14746.0,14868.0,12473.0,1.6697677373886108,-2.8634986355787855,0.370072700521741,-1.5742224619185103,-0.01485611405223608,0.006662875879555941,0.0
164,5,-1.8540707969805226e-05,3.8355439755832776e-05,2.6590261768433265e-05,-0.0010825404897332191,-0.006604287773370743,-0.008252005092799664,-0.008530480787158012,0.06045615300536156,-0.0032231102231889963,-0.006390156224370003,0.009783471003174782,0.053045399487018585,0.0,0.0,0.0,-0.0038877082988619804,-0.002552779857069254,-0.0,0.0,0.0,0.0,0.0016111070290207863,-0.01842142827808857,0.0015337415970861912,12772.0,14201.0,15470.0,11702.0,0.36127257347106934,0.4525706171989441,0.5422763824462891,0.2995977997779846,0.0,0.0,0.0,0.0,11820.0,14746.0,14868.0,12473.0,1.66849684715271,-2.8679571315735433,0.3699906405367173,-1.5715257799360332,0.010263297706842422,-0.012023353949189186,0.0
169,5,-3.319223833386786e-05,-1.797993536456488e-05,-3.051110434171278e-05,-0.0021911999210715294,0.004118529614061117,0.0035513618495315313,-0.008530480787158012,0.06045615300536156,-0.0032231102231889963,-0.006390156224370003,0.009783471003174782,0.053045399487018585,0.0,0.0,0.0,-0.0038877082988619804,-0.002552779857069254,-0.0,0.0,0.0,0.0,0.0016111070290207863,-0.01842142827808857,0.0015337415970861912,12772.0,14201.0,15470.0,11702.0,0.36127257347106934,0.4525706171989441,0.5422763824462891,0.2995977997779846,0.0,0.0,0.0,0.0,11820.0,14746.0,14868.0,12473.0,1.66849684715271,-2.864437093283742,0.3697885395881483,-1.574054473171844,0.010263297706842422,-0.012023353949189186,0.0
174,5,-3.333550921524875e-05,-9.992529157898389e-06,-7.337982242461294e-05,-0.0008936722879298031,0.000688923173584044,0.006564790848642588,-0.00837833434343338,0.060423966497182846,-0.003815081436187029,0.020054511725902557,-0.03839169815182686,0.1720731556415558,0.0,0.0,0.0,-0.005011117551475763,-0.0020831222645938396,-0.0,0.0,0.0,0.0,0.0027752728201448917,-0.018868064507842064,-0.0014983039582148194,12529.0,14210.0,15512.0,11745.0,0.34674134850502014,0.4531833827495575,0.5453342795372009,0.30193373560905457,0.0,0.0,0.0,0.0,12081.0,14779.0,14908.0,12431.0,1.6735036373138428,-2.8645136771352027,0.37046229397562563,-1.5748011042922874,0.008400159887969494,-0.015544132329523563,0.0
179,5,1.9380899175303057e-05,-1.9153127141180448e-05,-2.4758317522355355e-05,0.005968499928712845,0.0013748409692198038,-0.0032086644787341356,-0.00837833434343338,0.060423966497182846,-0.003815081436187029,0.020054511725902557,-0.03839169815182686,0.1720731556415558,0.0,0.0,0.0,-0.005011117551475763,-0.0020831222645938396,-0.0,0.0,0.0,0.0,0.0027752728201448917,-0.018868064507842064,-0.0014983039582148194,12529.0,14210.0,15512.0,11745.0,0.34674134850502014,0.4531833827495575,0.5453342795372009,0.30193373560905457,0.0,0.0,0.0,0.0,12081.0,14779.0,14908.0,12431.0,1.6735036373138428,-2.8623248851089986,0.36927992932929077,-1.572998725867607,0.008400159887969494,-0.015544132329523563,0.0
184,5,-1.1854175454573124e-06,-4.33370478276629e-05,-7.869646651670337e-05,-8.055799116846174e-05,0.003452007193118334,0.005189112387597561,-0.008782059885561466,0.060591138899326324,-0.003170638345181942,0.019795803353190422,0.06437017768621445,-0.3067484200000763,0.0,0.0,0.0,-0.0016816714778542519,0.005528584588319063,-0.0,0.0,0.0,0.0,0.00398767925798893,-0.016311321407556534,-0.006426674779504538,8018.0,17153.0,11811.0,15700.0,0.13117313385009766,0.6736036539077759,0.30562326312065125,0.5593676567077637,0.0,0.0,0.0,0.0,8907.0,16853.0,12203.0,15266.0,1.6880548000335693,-2.8616567678089706,0.3704046561760006,-1.574039177450138,-0.022487934678792953,-0.005261818878352642,0.0
189,5,-2.18939057958778e-05,-1.3937755284132436e-05,-5.534633601200767e-05,-0.0025172417517751455,-0.0021471125073730946,-0.0007263708976097405,-0.008782059885561466,0.060591138899326324,-0.003170638345181942,0.019795803353190422,0.06437017768621445,-0.3067484200000763,0.0,0.0,0.0,-0.0016816714778542519,0.005528584588319063,-0.0,0.0,0.0,0.0,0.00398767925798893,-0.016311321407556534,-0.006426674779504538,8018.0,17153.0,11811.0,15700.0,0.13117313385009766,0.6736036539077759,0.30562326312065125,0.5593676567077637,0.0,0.0,0.0,0.0,8907.0,16853.0,12203.0,15266.0,1.6880548000335693,-2.864570882818428,0.3698141661444839,-1.5745872715941793,-0.022487934678792953,-0.005261818878352642,0.0
194,5,4.826922122447286e-06,-5.461890282276727e-07,-3.595708903958439e-06,0.002199602546170354,-0.0024658329784870148,-0.006500623654574156,-0.008515419438481331,0.060632653534412384,-0.0030783331021666527,-0.09188555926084518,-0.0669318437576294,0.16112424433231354,0.0,0.0,0.0,0.0025924639776349068,-0.002390976995229721,-0.0,0.0,0.0,0.0,0.0018299429211765528,-0.020651426166296005,0.004770280793309212,13819.0,13171.0,16718.0,10085.0,0.42716115713119507,0.3857164680957794,0.6383199691772461,0.217299222946167,0.0,0.0,0.0,0.0,12842.0,14052.0,15957.0,11371.0,1.6594477891921997,-2.8650131634416733,0.3691738143733416,-1.5727124902843181,0.00956068467348814,0.007974142208695412,0.0
199,5,-2.781014927677461e-06,5.50039840163663e-06,4.3377069232519716e-05,-3.311141699668951e-05,-0.0017119236290454865,-0.008236982859671116,-0.008515419438481331,0.060632653534412384,-0.0030783331021666527,-0.09188555926084518,-0.0669318437576294,0.16112424433231354,0.0,0.0,0.0,0.0025924639776349068,-0.002390976995229721,-0.0,0.0,0.0,0.0,0.0018299429211765528,-0.020651426166296005,0.004770280793309212,13819.0,13171.0,16718.0,10085.0,0.42716115713119507,0.3857164680957794,0.6383199691772461,0.217299222946167,0.0,0.0,0.0,0.0,12842.0,14052.0,15957.0,11371.0,1.6594477891921997,-2.8652351973627113,0.3685862255374147,-1.5722199637576388,0.00956068467348814,0.007974142208695412,0.0
204,5,-8.46661987452535e-06,1.5588329915772192e-05,-1.741026426316239e-05,-0.0006955171702429652,-0.001895321300253272,0.003999686799943447,-0.008389733731746674,0.06061525642871857,-0.003964649513363838,0.12278230488300323,0.009440410882234573,-0.04249824211001396,0.0,0.0,0.0,0.002117341849952936,-3.5378372558625415e-05,-0.0,0.0,0.0,0.0,0.0036820906680077314,-0.01678752526640892,-0.000263199326582253,11042.0,15997.0,13761.0,13459.0,0.2643986940383911,0.5818854570388794,0.4233640432357788,0.40385544300079346,0.0,0.0,0.0,0.0,12377.0,14946.0,14966.0,12169.0,1.643240213394165,-2.86382126559865,0.36951938294726516,-1.5731076874312644,0.0001400844193994999,0.006449113134294748,0.0
210,5,-2.7626803785096854e-05,1.6388374206144363e-05,-2.1631756681017578e-05,-0.002577428938820958,-0.0008541337447240949,0.0021064539905637503,-0.008389733731746674,0.06061525642871857,-0.003964649513363838,0.12278230488300323,0.009440410882234573,-0.04249824211001396,0.0,0.0,0.0,0.002117341849952936,-3.5378372558625415e-05,-0.0,0.0,0.0,0.0,0.0036820906680077314,-0.01678752526640892,-0.000263199326582253,11042.0,15997.0,13761.0,13459.0,0.2643986940383911,0.5818854570388794,0.4233640432357788,0.40385544300079346,0.0,0.0,0.0,0.0,12377.0,14946.0,14966.0,12169.0,1.643240213394165,-2.865660394663142,0.37106100210552545,-1.5732211435484487,0.0001400844193994999,0.006449113134294748,0.0
215,5,-2.338781632715836e-05,2.08350429602433e-05,0.00010160219244426116,-0.0005222930340096354,-0.0008752536959946156,-0.01394549198448658,-0.008606269024312496,0.060686904937028885,-0.0035850813146680593,-0.03969263657927513,0.0255757924169302,-0.0789140909910202,0.0,0.0,0.0,0.0010740262223407626,-0.0024637191090732813,-0.0,0.0,0.0,0.0,0.002801544964313507,-0.018744856119155884,0.0005756953614763916,12381.0,14335.0,15409.0,12104.0,0.3380376398563385,0.46164289116859436,0.5377106666564941,0.3220566213130951,0.0,0.0,0.0,0.0,11161.0,15660.0,13892.0,13850.0,1.6537950038909912,-2.8667084648007015,0.3682977414773963,-1.5711367992258616,0.00981802400201559,0.003292342182248831,0.0
220,5,-1.9581581000238657e-05,-9.332817171525676e-06,3.297218063380569e-05,0.0002478310198057443,0.003270041663199663,0.002657404402270913,-0.008606269024312496,0.060686904937028885,-0.0035850813146680593,-0.03969263657927513,0.0255757924169302,-0.0789140909910202,0.0,0.0,0.0,0.0010740262223407626,-0.0024637191090732813,-0.0,0.0,0.0,0.0,0.002801544964313507,-0.018744856119155884,0.0005756953614763916,12381.0,14335.0,15409.0,12104.0,0.3380376398563385,0.46164289116859436,0.5377106666564941,0.3220566213130951,0.0,0.0,0.0,0.0,11161.0,15660.0,13892.0,13850.0,1.6537950038909912,-2.864256566931625,0.36844399691961144,-1.5731629988902072,0.00981802400201559,0.003292342182248831,0.0
225,5,-1.704985879769083e-05,-6.000295343255857e-06,1.9033110220334493e-05,0.0004029390402138233,0.0009081140160560608,0.00273564993403852,-0.008020114153623581,0.06045927852392197,-0.003822027239948511,-0.055678851902484894,0.023957259953022003,0.06358745694160461,0.0,0.0,0.0,-0.004004358313977718,0.00020532576309051365,-0.0,0.0,0.0,0.0,0.002203445415943861,-0.016496455296874046,-0.002360273851081729,12381.0,14335.0,15409.0,12104.0,0.3380376398563385,0.46164289116859436,0.5377106666564941,0.3220566213130951,0.0,0.0,0.0,0.0,12524.0,14055.0,15607.0,12029.0,1.65916109085083,-2.8646715854658305,0.3703153235662965,-1.5736583457305555,-0.0008208813960663974,-0.012314815074205399,0.0
230,5,-1.0443046448926907e-05,1.6585703633609228e-05,0.00017743668286129832,0.0009539931197650731,-0.0023470742162317038,-0.017914168536663055,-0.008020114153623581,0.06045927852392197,-0.003822027239948511,-0.055678851902484894,0.023957259953022003,0.06358745694160461,0.0,0.0,0.0,-0.004004358313977718,0.00020532576309051365,-0.0,0.0,0.0,0.0,0.002203445415943861,-0.016496455296874046,-0.002360273851081729,12381.0,14335.0,15409.0,12104.0,0.3380376398563385,0.46164289116859436,0.5377106666564941,0.3220566213130951,0.0,0.0,0.0,0.0,12524.0,14055.0,15607.0,12029.0,1.65916109085083,-2.8668085821262985,0.3676194132029429,-1.570851070217847,-0.0008208813960663974,-0.012314815074205399,0.0
235,5,-1.1836510566354264e-05,2.0596791728166863e-05,0.00015693805471528322,0.00021438158000819385,-0.0014201601734384894,-0.004705830942839384,-0.00833055842667818,0.05963931977748871,-0.003917895723134279,0.10137981176376343,0.11660734564065933,-0.10150737315416336,0.0,0.0,0.0,0.0029044970870018005,0.0008842512615956366,-0.0,0.0,0.0,0.0,0.0038001786451786757,-0.014288443140685558,-8.686560613568872e-05,11429.0,14998.0,14089.0,13649.0,0.28477850556373596,0.5079531669616699,0.44500669836997986,0.41605666279792786,0.0,0.0,0.0,0.0,11361.0,15391.0,13932.0,13424.0,1.6516577005386353,-2.864576871644169,0.36666911948701275,-1.5723129304550114,-0.003519214689731598,0.008891979232430458,0.0
240,5,6.869328353786841e-05,3.1896452128421515e-05,0.00025104841915890574,0.009749328717589378,-0.0019240234978497028,-0.013175577856600285,-0.00833055842667818,0.05963931977748871,-0.003917895723134279,0.10137981176376343,0.11660734564065933,-0.10150737315416336,0.0,0.0,0.0,0.0029044970870018005,0.0008842512615956366,-0.0,0.0,0.0,0.0,0.0038001786451786757,-0.014288443140685558,-8.686560613568872e-05,11429.0,14998.0,14089.0,13649.0,0.28477850556373596,0.5079531669616699,0.44500669836997986,0.41605666279792786,0.0,0.0,0.0,0.0,11361.0,15391.0,13932.0,13424.0,1.6516577005386353,-2.865285534321775,0.36332732469035733,-1.5696726008583919,-0.003519214689731598,0.008891979232430458,0.0
245,5,0.00013704781304113567,5.927540041739121e-05,0.0004356185672804713,0.00490722618997097,0.000925761996768415,-0.008939658291637897,-0.00833055842667818,0.05963931977748871,-0.003917895723134279,0.10137981176376343,0.11660734564065933,-0.10150737315416336,0.0,0.0,0.0,0.002308659953996539,0.008876683190464973,-0.0,0.0,0.0,0.0,0.0038001786451786757,-0.014288443140685558,-8.686560613568872e-05,11429.0,14998.0,14089.0,13649.0,0.28477850556373596,0.5079531669616699,0.44500669836997986,0.41605666279792786,0.0,0.0,0.0,0.0,11361.0,15391.0,13932.0,13424.0,1.7269047498703003,-2.8648357255367376,0.35760557472027266,-1.56849734162986,-0.03693721443414688,0.007389860227704048,0.0
250,5,0.0001646824093768373,5.01585855090525e-05,0.0004736596019938588,0.005279041826725006,0.0014643227914348245,-0.008140786550939083,-0.00818556733429432,0.0585479736328125,-0.0032026064582169056,-0.0751577764749527,0.20262326300144196,-0.09148416668176651,0.0,0.0,0.0,0.002308659953996539,0.008876683190464973,-0.0,0.0,0.0,0.0,0.0026935117784887552,-0.010038277134299278,0.0019777496345341206,13995.0,12783.0,15600.0,11693.0,0.4387580156326294,0.36189472675323486,0.5519161820411682,0.2990887761116028,0.0,0.0,0.0,0.0,11378.0,15043.0,13908.0,13825.0,1.7269047498703003,-2.864755253568749,0.35657499258968456,-1.566998646108795,-0.03693721443414688,0.007389860227704048,0.0
255,5,0.0001646824093768373,5.01585855090525e-05,0.0004736596019938588,0.005279041826725006,0.0014643227914348245,-0.008140786550939083,-0.00818556733429432,0.0585479736328125,-0.0032026064582169056,-0.0751577764749527,0.20262326300144196,-0.09148416668176651,0.0,0.0,0.0,-0.0016716043464839458,0.005103699862957001,-0.0,0.0,0.0,0.0,0.0026935117784887552,-0.010038277134299278,0.0019777496345341206,13995.0,12783.0,15600.0,11693.0,0.4387580156326294,0.36189472675323486,0.5519161820411682,0.2990887761116028,0.0,0.0,0.0,0.0,11378.0,15043.0,13908.0,13825.0,1.6833754777908325,-2.864755253568749,0.35657499258968456,-1.566998646108795,-0.02070215344429016,-0.005215820856392384,0.0
260,5,0.00021178489259909838,3.0433415304287337e-05,0.0004845336079597473,0.007763913832604885,0.002952749375253916,-0.0045611965470016,-0.008257260546088219,0.05287422984838486,-0.003440337022766471,-0.0004924489185214043,0.3851693272590637,-0.004174054134637117,0.0,0.0,0.0,-0.0016716043464839458,0.005103699862957001,-0.0,0.0,0.0,0.0,0.003544572042301297,-0.00435591908171773,-0.0022704002913087606,12756.0,14503.0,13836.0,14386.0,0.36029934883117676,0.4731631875038147,0.4282808303833008,0.46516138315200806,0.0,0.0,0.0,0.0,13629.0,13076.0,15337.0,12148.0,1.6833754777908325,-2.8637408075267605,0.35379787817835495,-1.567108053285957,-0.02070215344429016,-0.005215820856392384,0.0
265,5,0.00028154061874374747,5.133100785315037e-05,0.0005031745531596243,0.006740706041455269,-0.0001186106019304134,0.00011702071060426533,-0.008257260546088219,0.05287422984838486,-0.003440337022766471,-0.0004924489185214043,0.3851693272590637,-0.004174054134637117,0.0,0.0,0.0,-0.0016716043464839458,0.005103699862957001,-0.0,0.0,0.0,0.0,0.003544572042301297,-0.00435591908171773,-0.0022704002913087606,12756.0,14503.0,13836.0,14386.0,0.36029934883117676,0.4731631875038147,0.4282808303833008,0.46516138315200806,0.0,0.0,0.0,0.0,13629.0,13076.0,15337.0,12148.0,1.6833754777908325,-2.8630937497432742,0.35248620979903517,-1.5666114237657018,-0.02070215344429016,-0.005215820856392384,0.0
271,5,0.00035122944973409176,3.6253379221307114e-05,0.0005311938584782183,0.011058942414820194,0.0017618710407987237,-0.0033155130222439766,-0.008022583089768887,0.04808451235294342,-0.003127866890281439,0.006705223582684994,0.4333226680755615,-0.09557554870843887,0.0,0.0,0.0,0.00023091756156645715,0.006556487642228603,-0.0,0.0,0.0,0.0,0.002943133469671011,-0.002203701762482524,-0.0002568070194683969,12795.0,14541.0,13389.0,14732.0,0.3626336455345154,0.47579425573349,0.3993954062461853,0.4890814423561096,0.0,0.0,0.0,0.0,13628.0,13768.0,14433.0,13711.0,1.6980626583099365,-2.862737787046518,0.3499469455799432,-1.5652849783396483,-0.026827100664377213,0.0007268071640282869,-0.0
276,5,0.00041567697189748287,2.2662849005428143e-05,0.0005281356279738247,0.01215728186070919,0.0023356121964752674,-0.0009592178976163268,-0.008022583089768887,0.04808451235294342,-0.003127866890281439,0.006705223582684994,0.4333226680755615,-0.09557554870843887,0.0,0.0,0.0,0.00023091756156645715,0.006556487642228603,-0.0,0.0,0.0,0.0,0.002943133469671011,-0.002203701762482524,-0.0002568070194683969,12795.0,14541.0,13389.0,14732.0,0.3626336455345154,0.47579425573349,0.3993954062461853,0.4890814423561096,0.0,0.0,0.0,0.0,13628.0,13768.0,14433.0,13711.0,1.6980626583099365,-2.8612852417664314,0.3469539550356867,-1.5648366656856199,-0.026827100664377213,0.0007268071640282869,-0.0
281,5,0.00046524591743946075,4.714739134215051e-06,0.0005125140305608511,0.010811184532940388,0.003088017925620079,0.0014909030869603157,-0.007756361272186041,0.04488235339522362,-0.0031491676345467567,0.022180553525686264,0.39725857973098755,0.11016928404569626,0.0,0.0,0.0,-0.002652783179655671,0.011315928772091866,-0.0,0.0,0.0,0.0,0.0016302036819979548,-0.0024799355305731297,0.002288440940901637,14471.0,12727.0,15010.0,12746.0,0.4709973931312561,0.3585473299026489,0.5088163018226624,0.35970163345336914,0.0,0.0,0.0,0.0,12400.0,14708.0,13059.0,14574.0,1.755936861038208,-2.859839569459709,0.34684758222334716,-1.5656625400802826,-0.047878462821245193,-0.00863412395119667,0.0
286,5,0.0004345896886661649,9.311796020483598e-06,0.000476039364002645,0.000645727850496769,0.0006835603853687644,0.004973323084414005,-0.007756361272186041,0.04488235339522362,-0.0031491676345467567,0.022180553525686264,0.39725857973098755,0.11016928404569626,0.0,0.0,0.0,-0.002652783179655671,0.011315928772091866,-0.0,0.0,0.0,0.0,0.0016302036819979548,-0.0024799355305731297,0.002288440940901637,14471.0,12727.0,15010.0,12746.0,0.4709973931312561,0.3585473299026489,0.5088163018226624,0.35970163345336914,0.0,0.0,0.0,0.0,12400.0,14708.0,13059.0,14574.0,1.755936861038208,-2.863418854723306,0.34965495443571437,-1.5657519064135885,-0.047878462821245193,-0.00863412395119667,0.0
291,5,0.00042586534982547164,1.3003913409193046e-05,0.0005115534295327961,-0.0007886314415372908,-0.00016962997324299067,-0.0022723565343767405,-0.007397182751446962,0.040417443960905075,-0.003567070933058858,0.03089538961648941,0.3195044994354248,-0.05610071122646332,0.0,0.0,0.0,-0.0008262223564088345,0.0012182457139715552,-0.0,0.0,0.0,0.0,0.0018996988655999303,-0.0025454352144151926,-0.0026549086906015873,12880.0,14908.0,13176.0,14895.0,0.36777549982070923,0.501531183719635,0.3860481381416321,0.5005820393562317,0.0,0.0,0.0,0.0,14238.0,13022.0,14698.0,13076.0,1.6404799222946167,-2.8622749583351474,0.34835540068928456,-1.5666020498728597,-0.004815678112208843,-0.0025123278610408306,-0.0
296,5,0.000456560926977545,2.5625127818784676e-05,0.0005479223909787834,0.0033680186606943607,-0.001582397730089724,-0.005273222457617521,-0.007397182751446962,0.040417443960905075,-0.003567070933058858,0.03089538961648941,0.3195044994354248,-0.05610071122646332,0.0,0.0,0.0,-0.0008262223564088345,0.0012182457139715552,-0.0,0.0,0.0,0.0,0.0018996988655999303,-0.0025454352144151926,-0.0026549086906015873,12880.0,14908.0,13176.0,14895.0,0.36777549982070923,0.501531183719635,0.3860481381416321,0.5005820393562317,0.0,0.0,0.0,0.0,14238.0,13022.0,14698.0,13076.0,1.6404799222946167,-2.8609997900719613,0.34820439825716265,-1.565289065543915,-0.004815678112208843,-0.0025123278610408306,-0.0
301,5,0.0004207887686789036,3.2206862670136616e-05,0.0006011681980453432,-0.0029454538598656654,-0.0014227672945708036,-0.008498786017298698,-0.007309847045689821,0.03866120055317879,-0.0029816210735589266,0.0005937888636253774,0.1429997682571411,-0.10774059593677521,0.0,0.0,0.0,0.001962653361260891,0.0037643141113221645,-0.0,0.0,0.0,0.0,0.0013226775918155909,-0.004630265291780233,-0.0001993188343476504,12930.0,14816.0,13833.0,14340.0,0.3708525598049164,0.4950084984302521,0.42808887362480164,0.4619869291782379,0.0,0.0,0.0,0.0,13710.0,14167.0,14007.0,14104.0,1.66986882686615,-2.8620884114566842,0.34730518960275203,-1.5654991264782032,-0.015146708115935326,0.006074828095734119,0.0
306,5,0.000374661001842469,3.770974217331968e-05,0.0005921548581682146,-0.0067135123535990715,-0.001229452551342547,-0.0023179114796221256,-0.007309847045689821,0.03866120055317879,-0.0029816210735589266,0.0005937888636253774,0.1429997682571411,-0.10774059593677521,0.0,0.0,0.0,0.001962653361260891,0.0037643141113221645,-0.0,0.0,0.0,0.0,0.0013226775918155909,-0.004630265291780233,-0.0001993188343476504,12930.0,14816.0,13833.0,14340.0,0.3708525598049164,0.4950084984302521,0.42808887362480164,0.4619869291782379,0.0,0.0,0.0,0.0,13710.0,14167.0,14007.0,14104.0,1.66986882686615,-2.8612107657794166,0.3483071003666903,-1.5664905489542105,-0.015146708115935326,0.006074828095734119,0.0
311,5,0.0003110517282038927,-3.148263658658834e-06,0.00048127619083970785,-0.010318517684936523,0.004411180038005114,0.012378276325762272,-0.007057195995002985,0.037727318704128265,-0.0034198055509477854,0.012937942519783974,-0.006021304987370968,0.0869477391242981,0.0,0.0,0.0,0.0015385453589260578,-0.005676478147506714,-0.0,0.0,0.0,0.0,0.0008060830878093839,-0.007491244934499264,0.0016055537853389978,14153.0,13711.0,15326.0,12666.0,0.449359267950058,0.42007651925086975,0.5316449403762817,0.3548561632633209,0.0,0.0,0.0,0.0,11947.0,15631.0,12864.0,15190.0,1.6894196271896362,-2.861234586154565,0.35325903328252867,-1.5686922360845434,0.023108171299099922,0.004817881155759096,0.0
316,5,0.0002907113521359861,8.948252070695162e-05,0.0006622928776778281,-0.006568251643329859,-0.009351221844553947,-0.01677069067955017,-0.007057195995002985,0.037727318704128265,-0.0034198055509477854,0.012937942519783974,-0.006021304987370968,0.0869477391242981,0.0,0.0,0.0,0.0015385453589260578,-0.005676478147506714,-0.0,0.0,0.0,0.0,0.0008060830878093839,-0.007491244934499264,0.0016055537853389978,14153.0,13711.0,15326.0,12666.0,0.449359267950058,0.42007651925086975,0.5316449403762817,0.3548561632633209,0.0,0.0,0.0,0.0,11947.0,15631.0,12864.0,15190.0,1.6894196271896362,-2.864086710380786,0.3512022126279029,-1.5660090817255117,0.023108171299099922,0.004817881155759096,0.0
321,5,0.0002527824544813484,5.187377973925322e-05,0.0006544245989061892,-0.007178769446909428,0.0007725600153207779,-0.005764083005487919,-0.006831994745880365,0.03787033632397652,-0.004122599493712187,0.023039942607283592,-0.07138503342866898,-0.061923276633024216,0.0,0.0,0.0,0.011029853485524654,-0.005493713077157736,-0.0,0.0,0.0,0.0,0.0023046485148370266,-0.011586809530854225,-0.003928500693291426,11309.0,15392.0,13520.0,14121.0,0.2783927917480469,0.5365197062492371,0.40776729583740234,0.4471890330314636,0.0,0.0,0.0,0.0,13805.0,14043.0,15047.0,13019.0,1.7393794059753418,-2.86358497138516,0.3507969939587871,-1.5678773999745044,0.023024149239063263,0.035559579730033875,0.0
326,5,0.00022578331117983907,2.3644732209504582e-05,0.0005473234341479838,-0.00611140439286828,0.003696509636938572,0.010546507313847542,-0.006831994745880365,0.03787033632397652,-0.004122599493712187,0.023039942607283592,-0.07138503342866898,-0.061923276633024216,0.0,0.0,0.0,0.011029853485524654,-0.005493713077157736,-0.0,0.0,0.0,0.0,0.0023046485148370266,-0.011586809530854225,-0.003928500693291426,11309.0,15392.0,13520.0,14121.0,0.2783927917480469,0.5365197062492371,0.40776729583740234,0.4471890330314636,0.0,0.0,0.0,0.0,13805.0,14043.0,15047.0,13019.0,1.7393794059753418,-2.8610546290039025,0.35402774446366114,-1.5690941017901254,0.023024149239063263,0.035559579730033875,0.0
332,5,0.00019356801931280643,8.718066237634048e-05,0.0006448940257541835,-0.006310397759079933,-0.006145707797259092,-0.007489868439733982,-0.006530900485813618,0.038682032376527786,-0.0039602648466825485,0.03378419205546379,-0.026763251051306725,-0.11860989779233932,0.0,0.0,0.0,-0.0043708449229598045,-0.005305352155119181,-0.0,0.0,0.0,0.0,0.002356392564252019,-0.012131095863878727,-0.0003834342351183295,11795.0,15050.0,13883.0,13743.0,0.30471038818359375,0.5116406679153442,0.4313434958457947,0.42217427492141724,0.0,0.0,0.0,0.0,10793.0,15785.0,12906.0,14645.0,1.6949020624160767,-2.8653734778653064,0.3532000242728049,-1.567063716851623,0.02166728675365448,-0.013731438666582108,-0.0
337,5,0.00019497906032484025,4.497667760006152e-05,0.0005206468631513417,-0.002354833297431469,0.00260619493201375,0.01191371027380228,-0.006530900485813618,0.038682032376527786,-0.0039602648466825485,0.03378419205546379,-0.026763251051306725,-0.11860989779233932,0.0,0.0,0.0,-0.0043708449229598045,-0.005305352155119181,-0.0,0.0,0.0,0.0,0.002356392564252019,-0.012131095863878727,-0.0003834342351183295,11795.0,15050.0,13883.0,13743.0,0.30471038818359375,0.5116406679153442,0.4313434958457947,0.42217427492141724,0.0,0.0,0.0,0.0,10793.0,15785.0,12906.0,14645.0,1.6949020624160767,-2.8616446028938105,0.3551224580751513,-1.5697816322443285,0.02166728675365448,-0.013731438666582108,-0.0
342,5,0.00017789263802114874,2.556690014898777e-05,0.0005123006412759423,-0.0029923035763204098,0.003371651517227292,0.005767033901065588,-0.006382306572049856,0.03853704407811165,-0.004377600736916065,0.007411082740873098,0.027830174192786217,0.13584576547145844,0.0,0.0,0.0,-0.0030976105481386185,-0.0019384125480428338,-0.0,0.0,0.0,0.0,0.005143443122506142,-0.01287959422916174,0.0021653063595294952,13793.0,13398.0,16082.0,12164.0,0.4254595637321472,0.39998698234558105,0.5884060263633728,0.3255268335342407,0.0,0.0,0.0,0.0,13709.0,13472.0,15941.0,12365.0,1.6589888334274292,-2.862453691684832,0.3557393616367265,-1.5705277405692564,0.007748885080218315,-0.00952527578920126,-0.0
347,5,0.00016514351591467857,4.8432761104777455e-05,0.0004597108345478773,-0.002726815640926361,-0.0013952427543699741,0.008617588318884373,-0.006382306572049856,0.03853704407811165,-0.004377600736916065,0.007411082740873098,0.027830174192786217,0.13584576547145844,0.0,0.0,0.0,-0.0030976105481386185,-0.0019384125480428338,-0.0,0.0,0.0,0.0,0.005143443122506142,-0.01287959422916174,0.0021653063595294952,13793.0,13398.0,16082.0,12164.0,0.4254595637321472,0.39998698234558105,0.5884060263633728,0.3255268335342407,0.0,0.0,0.0,0.0,13709.0,13472.0,15941.0,12365.0,1.6589888334274292,-2.8629683394399073,0.3571869795982976,-1.5704146705313664,0.007748885080218315,-0.00952527578920126,-0.0
352,5,0.00017893791664391756,5.380120637710206e-05,0.0005029393942095339,0.0005646008066833019,-0.0012023105518892407,-0.0017403938109055161,-0.006186469458043575,0.037717241793870926,-0.005029415246099234,0.03703058138489723,0.12379192560911179,-0.11684627830982208,0.0,0.0,0.0,-0.0030976105481386185,-0.0019384125480428338,-0.0,0.0,0.0,0.0,0.004612724296748638,-0.010419969446957111,-0.004813830833882093,10946.0,15854.0,13301.0,15097.0,0.2594965100288391,0.5709613561630249,0.39384740591049194,0.5150741338729858,0.0,0.0,0.0,0.0,12127.0,14986.0,14182.0,14276.0,1.6589888334274292,-2.860576766713386,0.35391396966162547,-1.5700889345468378,0.007748885080218315,-0.00952527578920126,-0.0
357,5,0.00014046589785721153,4.771293606609106e-05,0.0004975313786417246,-0.004390800837427378,0.0002496681408956647,-4.71924759040121e-05,-0.006186469458043575,0.037717241793870926,-0.005029415246099234,0.03703058138489723,0.12379192560911179,-0.11684627830982208,0.0,0.0,0.0,0.0015795561484992504,0.0007867239764891565,-0.0,0.0,0.0,0.0,0.004612724296748638,-0.010419969446957111,-0.004813830833882093,10946.0,15854.0,13301.0,15097.0,0.2594965100288391,0.5709613561630249,0.39384740591049194,0.5150741338729858,0.0,0.0,0.0,0.0,12127.0,14986.0,14182.0,14276.0,1.6412742137908936,-2.863619544558999,0.35557377068168,-1.5699542860785896,-0.0031113927252590656,0.004805343225598335,0.0
362,5,0.00016247107123490423,4.8863923439057544e-05,0.0004426934465300292,0.0008842999814078212,-3.825125168077648e-05,0.006561673246324062,-0.006033184472471476,0.036632515490055084,-0.004282266832888126,-0.021031830459833145,0.1675778180360794,-0.1143074780702591,0.0,0.0,0.0,0.0015795561484992504,0.0007867239764891565,-0.0,0.0,0.0,0.0,0.0006469400832429528,-0.007102862000465393,0.001619019079953432,12561.0,14772.0,13958.0,13680.0,0.34863531589508057,0.4918823838233948,0.4363058805465698,0.4180784821510315,0.0,0.0,0.0,0.0,10880.0,16037.0,12364.0,15121.0,1.6412742137908936,-2.8616915399858605,0.3560125577072769,-1.5699060383598447,-0.0031113927252590656,0.004805343225598335,0.0
367,5,0.0001689007185632363,4.474064917303622e-05,0.0004663199360948056,0.0011252766707912087,0.0004794925916939974,-0.00021050972281955183,-0.006033184472471476,0.036632515490055084,-0.004282266832888126,-0.021031830459833145,0.1675778180360794,-0.1143074780702591,0.0,0.0,0.0,0.0001361350150546059,0.001069725607521832,-0.0,0.0,0.0,0.0,0.0006469400832429528,-0.007102862000465393,0.001619019079953432,12561.0,14772.0,13958.0,13680.0,0.34863531589508057,0.4918823838233948,0.4363058805465698,0.4180784821510315,0.0,0.0,0.0,0.0,10880.0,16037.0,12364.0,15121.0,1.6372522115707397,-2.860381887236245,0.3553843404693792,-1.570865920285928,-0.004220265429466963,0.0004131368768867105,-0.0
372,5,0.0001606691221240908,5.182769746170379e-05,0.00048715207958593965,-0.0005376802291721106,-0.0006586487870663404,-0.0025840606540441513,-0.006033184472471476,0.036632515490055084,-0.004282266832888126,-0.021031830459833145,0.1675778180360794,-0.1143074780702591,0.0,0.0,0.0,0.0001361350150546059,0.001069725607521832,-0.0,0.0,0.0,0.0,0.0006469400832429528,-0.007102862000465393,0.001619019079953432,12561.0,14772.0,13958.0,13680.0,0.34863531589508057,0.4918823838233948,0.4363058805465698,0.4180784821510315,0.0,0.0,0.0,0.0,10880.0,16037.0,12364.0,15121.0,1.6372522115707397,-2.8625894305949897,0.3545763659710806,-1.5694457816353429,-0.004220265429466963,0.0004131368768867105,-0.0
377,5,0.00016520202916581184,5.995896935928613e-05,0.00048185433843173087,0.00032887677662074566,-0.001239212229847908,-0.00039789656875655055,-0.005973510444164276,0.034559957683086395,-0.004989124368876219,-0.001857643248513341,0.1478634774684906,0.16560590267181396,0.0,0.0,0.0,0.000910087488591671,-0.00028486954397521913,-0.0,0.0,0.0,0.0,0.0006469400832429528,-0.007102862000465393,0.001619019079953432,14196.0,12926.0,15244.0,11898.0,0.45223408937454224,0.37059009075164795,0.5256952047348022,0.31046944856643677,0.0,0.0,0.0,0.0,14406.0,12621.0,15539.0,11581.0,1.6338226795196533,-2.8629574611570354,0.3537310652019727,-1.56802620828925,0.0011215086560696363,0.00275610969401896,0.0
382,5,0.0001594498462509364,7.219832332339138e-05,0.0004825546348001808,-0.0005587110063061118,-0.001964407740160823,-0.00024319459043908864,-0.005973510444164276,0.034559957683086395,-0.004989124368876219,-0.001857643248513341,0.1478634774684906,0.16560590267181396,0.0,0.0,0.0,0.000910087488591671,-0.00028486954397521913,-0.0,0.0,0.0,0.0,0.0006469400832429528,-0.007102862000465393,0.001619019079953432,14196.0,12926.0,15244.0,11898.0,0.45223408937454224,0.37059009075164795,0.5256952047348022,0.31046944856643677,0.0,0.0,0.0,0.0,14406.0,12621.0,15539.0,11581.0,1.6338226795196533,-2.863488534898953,0.35412955763201054,-1.5696686218577536,0.0011215086560696363,0.00275610969401896,0.0
388,5,0.00018972718680743128,7.187758455984294e-05,0.0004340067971497774,0.0034097968600690365,-0.0007472740835510194,0.005728462710976601,-0.006157713942229748,0.03339678421616554,-0.005370857659727335,0.03687041997909546,0.15287694334983826,-0.18030571937561035,0.0,0.0,0.0,0.002543472684919834,-0.0003040032461285591,-0.0,0.0,0.0,0.0,0.002205116907134652,-0.00779882725328207,0.003164665075019002,10298.0,15927.0,11773.0,15356.0,0.2273903340101242,0.5765190720558167,0.3035237193107605,0.533841073513031,0.0,0.0,0.0,0.0,11455.0,15185.0,12651.0,14598.0,1.6470489501953125,-2.861114696764854,0.35398338150427927,-1.569786089176221,0.001206521992571652,0.007764996960759163,0.0
393,5,0.00016460829647257924,9.058914292836562e-05,0.0004970312002114952,-0.001650347956456244,-0.0025442964397370815,-0.005271542351692915,-0.006157713942229748,0.03339678421616554,-0.005370857659727335,0.03687041997909546,0.15287694334983826,-0.18030571937561035,0.0,0.0,0.0,0.002543472684919834,-0.0003040032461285591,-0.0,0.0,0.0,0.0,0.002205116907134652,-0.00779882725328207,0.003164665075019002,10298.0,15927.0,11773.0,15356.0,0.2273903340101242,0.5765190720558167,0.3035237193107605,0.533841073513031,0.0,0.0,0.0,0.0,11455.0,15185.0,12651.0,14598.0,1.6470489501953125,-2.863985027650756,0.3536011397734107,-1.5680548071426075,0.001206521992571652,0.007764996960759163,0.0
398,5,0.00014566023310180753,7.187813753262162e-05,0.00047888586414046586,-0.00293390778824687,0.0012276021298021078,6.882305024191737e-05,-0.006056580692529678,0.032072313129901886,-0.004894893616437912,-0.040226876735687256,0.0661451518535614,-0.023346440866589546,0.0,0.0,0.0,0.003270329674705863,-0.0013206290313974023,-0.0,0.0,0.0,0.0,0.0011210498632863164,-0.008126539178192616,-0.0007322433521039784,13539.0,13348.0,14858.0,12243.0,0.40897947549819946,0.39680129289627075,0.4980171322822571,0.330024778842926,0.0,0.0,0.0,0.0,11405.0,15078.0,13003.0,14380.0,1.6564574241638184,-2.862299370208871,0.3538246631175203,-1.5692532503355818,0.005271213129162788,0.01004104595631361,0.0
403,5,0.00011172264930792153,7.587697473354638e-05,0.000501195143442601,-0.0052460734732449055,1.1179754437762313e-05,-0.002649583388119936,-0.006056580692529678,0.032072313129901886,-0.004894893616437912,-0.040226876735687256,0.0661451518535614,-0.023346440866589546,0.0,0.0,0.0,0.003270329674705863,-0.0013206290313974023,-0.0,0.0,0.0,0.0,0.0011210498632863164,-0.008126539178192616,-0.0007322433521039784,13539.0,13348.0,14858.0,12243.0,0.40897947549819946,0.39680129289627075,0.4980171322822571,0.330024778842926,0.0,0.0,0.0,0.0,11405.0,15078.0,13003.0,14380.0,1.6564574241638184,-2.8635934524224487,0.35375932951303835,-1.5695297371084824,0.005271213129162788,0.01004104595631361,0.0
408,5,0.00013083363592159003,7.764359907014295e-05,0.0005062932032160461,0.00019488886755425483,-0.00020752263662870973,-0.0016716014361009002,-0.0058759162202477455,0.031363606452941895,-0.006148099899291992,0.0269207451492548,0.030496355146169662,0.16138671338558197,0.0,0.0,0.0,0.00012138370220782235,-0.00471259281039238,-0.0,0.0,0.0,0.0,0.0026084042619913816,-0.009373821318149567,-0.005944091826677322,9572.0,16359.0,11598.0,15566.0,0.19392751157283783,0.6098928451538086,0.29388749599456787,0.549341082572937,0.0,0.0,0.0,0.0,14294.0,12418.0,15739.0,11196.0,1.6772040128707886,-2.863669734548692,0.3527958530032684,-1.5675995735758819,0.019045663997530937,0.00037735910154879093,0.0
413,5,0.00013430359831545502,9.590579429641366e-05,0.0005385078256949782,0.0004943512612953782,-0.0022744727320969105,-0.0045343926176428795,-0.0058759162202477455,0.031363606452941895,-0.006148099899291992,0.0269207451492548,0.030496355146169662,0.16138671338558197,0.0,0.0,0.0,0.00012138370220782235,-0.00471259281039238,-0.0,0.0,0.0,0.0,0.0026084042619913816,-0.009373821318149567,-0.005944091826677322,9572.0,16359.0,11598.0,15566.0,0.19392751157283783,0.6098928451538086,0.29388749599456787,0.549341082572937,0.0,0.0,0.0,0.0,14294.0,12418.0,15739.0,11196.0,1.6772040128707886,-2.864113744561008,0.35190757958425906,-1.5677086713070436,0.019045663997530937,0.00037735910154879093,0.0
418,5,0.00013261352432891726,5.089089972898364e-05,0.0004975175834260881,-5.067598067398649e-06,0.004491998814046383,0.003105068113654852,-0.005761545617133379,0.03071669675409794,-0.005577822681516409,-0.04131748527288437,0.03628974035382271,0.09591617435216904,0.0,0.0,0.0,0.0029597317334264517,0.0006548380479216576,-0.0,0.0,0.0,0.0,0.0030699672643095255,-0.009463304653763771,0.0044448222033679485,14423.0,12313.0,15975.0,11236.0,0.46766963601112366,0.33409383893013,0.580164909362793,0.27452901005744934,0.0,0.0,0.0,0.0,10240.0,15977.0,12108.0,15163.0,1.651288390159607,-2.862491197541289,0.3514452666627157,-1.5686459419407461,-0.0026055944617837667,0.009059050120413303,0.0
423,5,0.00011626794730545953,9.094224515138194e-05,0.0005651706014759839,-0.001963496906682849,-0.003009362379088998,-0.006876331754028797,-0.005761545617133379,0.03071669675409794,-0.005577822681516409,-0.04131748527288437,0.03628974035382271,0.09591617435216904,0.0,0.0,0.0,0.0029597317334264517,0.0006548380479216576,-0.0,0.0,0.0,0.0,0.0030699672643095255,-0.009463304653763771,0.0044448222033679485,14423.0,12313.0,15975.0,11236.0,0.46766963601112366,0.33409383893013,0.580164909362793,0.27452901005744934,0.0,0.0,0.0,0.0,10240.0,15977.0,12108.0,15163.0,1.651288390159607,-2.8648630279494403,0.35148363561430707,-1.566156705220994,-0.0026055944617837667,0.009059050120413303,0.0
428,5,0.00012773260823450983,4.049047129228711e-05,0.00047446737880818546,0.0005903600831516087,0.004850468132644892,0.00813385285437107,-0.0057127042673528194,0.030085435137152672,-0.006648705340921879,0.044481709599494934,0.07196760922670364,0.07646593451499939,0.0,0.0,0.0,0.003825430991128087,-0.0016750681679695845,-0.0,0.0,0.0,0.0,0.002031516283750534,-0.008287324570119381,-0.0037548858672380447,12414.0,14743.0,13887.0,13644.0,0.3399927020072937,0.4898490309715271,0.4316120743751526,0.4157502055168152,0.0,0.0,0.0,0.0,12529.0,14171.0,14338.0,13357.0,1.6624540090560913,-2.8611167945047433,0.35189359522775504,-1.5685558483046937,0.006710125599056482,0.011787905357778072,0.0
433,5,8.209522638935596e-05,0.00010421480692457408,0.0005756230093538761,-0.0052403416484594345,-0.005706732627004385,-0.008885132148861885,-0.0057127042673528194,0.030085435137152672,-0.006648705340921879,0.044481709599494934,0.07196760922670364,0.07646593451499939,0.0,0.0,0.0,0.003825430991128087,-0.0016750681679695845,-0.0,0.0,0.0,0.0,0.002031516283750534,-0.008287324570119381,-0.0037548858672380447,12414.0,14743.0,13887.0,13644.0,0.3399927020072937,0.4898490309715271,0.4316120743751526,0.4157502055168152,0.0,0.0,0.0,0.0,12529.0,14171.0,14338.0,13357.0,1.6624540090560913,-2.865180944656719,0.3506684225274148,-1.5670144867641143,0.006710125599056482,0.011787905357778072,0.0
438,5,0.0001287828345084563,3.362576899235137e-05,0.0004781234893016517,0.0035063771065324545,0.006187991239130497,0.008145885542035103,-0.005793889984488487,0.029794922098517418,-0.005919211078435183,0.015771860256791115,0.08097226917743683,-0.2553718090057373,0.0,0.0,0.0,0.00695671746507287,-0.004671899601817131,-0.0,0.0,0.0,0.0,0.001999703235924244,-0.009548081085085869,-0.004114652052521706,11066.0,15652.0,12911.0,14690.0,0.265634685754776,0.555728554725647,0.3696742355823517,0.4861665666103363,0.0,0.0,0.0,0.0,14257.0,12936.0,15594.0,11677.0,1.7043161392211914,-2.862946748470336,0.35165094572141886,-1.5674674605604284,0.019185956567525864,0.02197640761733055,0.0
443,5,0.0001243542501470074,1.0024270522990264e-05,0.00047109471051953733,0.0008711208938620985,0.005307376384735107,0.0041018095798790455,-0.005793889984488487,0.029794922098517418,-0.005919211078435183,0.015771860256791115,0.08097226917743683,-0.2553718090057373,0.0,0.0,0.0,0.00695671746507287,-0.004671899601817131,-0.0,0.0,0.0,0.0,0.001999703235924244,-0.009548081085085869,-0.004114652052521706,11066.0,15652.0,12911.0,14690.0,0.265634685754776,0.555728554725647,0.3696742355823517,0.4861665666103363,0.0,0.0,0.0,0.0,14257.0,12936.0,15594.0,11677.0,1.7043161392211914,-2.861882441181936,0.3513216010972416,-1.5682758372776398,0.019185956567525864,0.02197640761733055,0.0
449,5,0.00011149846250191331,2.4430491976090707e-05,0.00048740985221229494,-0.00119424716103822,0.0003942040784750134,-0.0003170937125105411,-0.005528057459741831,0.028795357793569565,-0.0059354850091040134,-0.03405793756246567,0.06077168136835098,0.20441290736198425,0.0,0.0,0.0,-0.006371230352669954,0.0009792058262974024,-0.0,0.0,0.0,0.0,0.0027374308556318283,-0.007888305932283401,0.0049909264780581,14779.0,11848.0,16068.0,11033.0,0.49243974685668945,0.3076387643814087,0.5872732400894165,0.2639366388320923,0.0,0.0,0.0,0.0,9384.0,16502.0,11108.0,15929.0,1.6804049015045166,-2.8620592752765366,0.35075654202331497,-1.5683522099195957,-0.003964888397604227,-0.01984451338648796,-0.0
454,5,0.00012510384840425104,-1.6302326912409626e-05,0.00043093759450130165,0.0011549475602805614,0.005045619793236256,0.0066498322412371635,-0.005528057459741831,0.028795357793569565,-0.0059354850091040134,-0.03405793756246567,0.06077168136835098,0.20441290736198425,0.0,0.0,0.0,-0.006371230352669954,0.0009792058262974024,-0.0,0.0,0.0,0.0,0.0027374308556318283,-0.007888305932283401,0.0049909264780581,14779.0,11848.0,16068.0,11033.0,0.49243974685668945,0.3076387643814087,0.5872732400894165,0.2639366388320923,0.0,0.0,0.0,0.0,9384.0,16502.0,11108.0,15929.0,1.6804049015045166,-2.8604769946030815,0.35212307946640015,-1.568767885961122,-0.003964888397604227,-0.01984451338648796,-0.0
459,5,0.00013233475328888744,3.3935750707314583e-06,0.0004838581953663379,0.001329687307588756,-0.00034526034141890705,-0.0036905391607433558,-0.005528057459741831,0.028795357793569565,-0.0059354850091040134,-0.03405793756246567,0.06077168136835098,0.20441290736198425,0.0,0.0,0.0,-0.006108184810727835,0.0012443331070244312,-0.0,0.0,0.0,0.0,0.0027374308556318283,-0.007888305932283401,0.0049909264780581,14779.0,11848.0,16068.0,11033.0,0.49243974685668945,0.3076387643814087,0.5872732400894165,0.2639366388320923,0.0,0.0,0.0,0.0,9384.0,16502.0,11108.0,15929.0,1.6788642406463623,-2.8623318519276792,0.3502845139512438,-1.5668173770630787,-0.005033799447119236,-0.01900777965784073,-0.0
464,5,0.00011646105122053996,1.1427001481933985e-05,0.0005102099967189133,-0.0013729684287682176,-0.0011021153768524528,-0.004638429265469313,-0.0057411496527493,0.028438903391361237,-0.007283645216375589,0.04367970675230026,0.12306227535009384,-0.045950908213853836,0.0,0.0,0.0,-0.006108184810727835,0.0012443331070244312,-0.0,0.0,0.0,0.0,0.00256874761544168,-0.007342642173171043,-0.006245164666324854,10076.0,16132.0,11814.0,15542.0,0.21688787639141083,0.5921947360038757,0.30578356981277466,0.5475878119468689,0.0,0.0,0.0,0.0,13964.0,12791.0,15479.0,12075.0,1.6788642406463623,-2.8624918025253687,0.3495260399967057,-1.5672217322721702,-0.005033799447119236,-0.01900777965784073,-0.0
