timestamp,dt,pos_x,pos_y,pos_z,vel_x,vel_y,vel_z,roll,pitch,yaw,agv_x,agv_y,agv_z,x_ref,y_ref,z_ref,roll_ref,pitch_ref,yaw_ref,x_vel_ref,y_vel_ref,z_vel_ref,x_torque,y_torque,z_torque,w0,w1,w2,w3,u0,u1,u2,u3,m0req,m1req,m2req,m3req,thrust0,thrust1,thrust2,thrust3,thrust_ref,roll_vicon,pitch_vicon,yaw_vicon,acc_x,acc_y,acc_z
5,5,0.0,0.0,0.0,0.0005220792954787612,-0.0006462821620516479,0.0015920347068458796,0.0040037124417722225,-0.032627370208501816,0.006250221747905016,0.0007795670535415411,-0.001329817925579846,0.0005696853040717542,0.0,0.0,0.0,0.0008000906091183424,0.0004971760208718479,-0.0,0.0,0.0,0.0,-0.0012450608192011714,0.009928317740559578,0.0006257852073758841,1495.0,1495.0,1495.0,1495.0,0.0,0.0,0.0,0.0,0.0,0.0,0.0,0.0,1495.0,1495.0,1495.0,1495.0,1.634202241897583,-0.08299649368537675,0.15153873007325527,0.07023246392739346,-0.001957797445356846,0.0024235581513494253,0.0
29,24,0.0,0.0,0.0,0.0007482859073206782,-0.0004940066137351096,0.0010346646886318922,0.00401632534340024,-0.03263866901397705,0.006245187483727932,0.0005303198122419417,0.004465889185667038,-0.00124970858450979,0.0,0.0,0.0,0.0008000906091183424,0.0004971760208718479,-0.0,0.0,0.0,0.0,-0.0009730259771458805,0.009956398978829384,0.0006514262058772147,1495.0,1495.0,1495.0,1495.0,0.0,0.0,0.0,0.0,0.0,0.0,0.0,0.0,1495.0,1495.0,1495.0,1495.0,1.634202241897583,-0.0829205082643916,0.1509376987790967,0.0700270923761228,-0.001957797445356846,0.0024235581513494253,0.0
41,12,0.0,0.0,0.0,-0.0010316360276192427,0.002425935585051775,-0.0003506196662783623,0.004024786874651909,-0.03262777999043465,0.006250051781535149,-0.00038213690277189016,0.002931205090135336,0.0002731342683546245,0.0,0.0,0.0,-0.0029699832666665316,-0.0009715355699881911,-0.0,0.0,0.0,0.0,-0.0009730259771458805,0.009956398978829384,0.0006514262058772147,1495.0,1495.0,1495.0,1495.0,0.0,0.0,0.0,0.0,0.0,0.0,0.0,0.0,1495.0,1495.0,1495.0,1495.0,1.652529239654541,-0.08305616959198653,0.15172220902753042,0.07035965714907495,0.003868635045364499,-0.009097258560359478,0.0
46,5,0.0,0.0,0.0,-0.0010316360276192427,0.002425935585051775,-0.0003506196662783623,0.004024786874651909,-0.03262777999043465,0.006250051781535149,-0.00038213690277189016,0.002931205090135336,0.0002731342683546245,0.0,0.0,0.0,-0.0029699832666665316,-0.0009715355699881911,-0.0,0.0,0.0,0.0,-0.0009730259771458805,0.009956398978829384,0.0006514262058772147,1495.0,1495.0,1495.0,1495.0,0.0,0.0,0.0,0.0,0.0,0.0,0.0,0.0,1495.0,1495.0,1495.0,1495.0,1.652529239654541,-0.08305616959198653,0.15172220902753042,0.07035965714907495,0.003868635045364499,-0.009097258560359478,0.0
51,5,0.0,0.0,0.0,0.0009260341175831854,0.0011976956157013774,0.0030611781403422356,0.004024786874651909,-0.03262777999043465,0.006250051781535149,-0.00038213690277189016,0.002931205090135336,0.0002731342683546245,0.0,0.0,0.0,-0.0014764622319489717,0.0008781318902038038,-0.0,0.0,0.0,0.0,-0.0009730259771458805,0.009956398978829384,0.0006514262058772147,1495.0,1495.0,1495.0,1495.0,0.0,0.0,0.0,0.0,0.0,0.0,0.0,0.0,1495.0,1495.0,1495.0,1495.0,1.6411457061767578,-0.08314744834402224,0.15157387304733538,0.07022608117857825,-0.0034726278390735388,-0.004491358529776335,0.0
57,6,0.0,0.0,0.0,-0.000723315286450088,-0.0017486753640696406,-0.002802081871777773,0.004024786874651909,-0.03262777999043465,0.006250051781535149,-0.00038213690277189016,0.002931205090135336,0.0002731342683546245,0.0,0.0,0.0,-0.0014764622319489717,0.0008781318902038038,-0.0,0.0,0.0,0.0,-0.0009730259771458805,0.009956398978829384,0.0006514262058772147,1495.0,1495.0,1495.0,1495.0,0.0,0.0,0.0,0.0,0.0,0.0,0.0,0.0,1495.0,1495.0,1495.0,1495.0,1.6411457061767578,-0.08224712615896582,0.1521086639870004,0.0700152643309732,-0.0034726278390735388,-0.004491358529776335,0.0
62,5,0.0,0.0,0.0,3.549269604263827e-05,0.0007952855667099357,0.0013641202822327614,0.004050536546856165,-0.03264142945408821,0.006257020868360996,0.0027573180850595236,-0.0012091022217646241,0.0013209311291575432,0.0,0.0,0.0,-0.0009847681503742933,3.380699854460545e-05,-0.0,0.0,0.0,0.0,-0.0009885703912004828,0.009991399012506008,0.0005451627657748759,14520.0,12610.0,13006.0,13905.0,0.4743471145629883,0.3515610098838806,0.37550556659698486,0.43278855085372925,0.0,0.0,0.0,0.0,14503.0,12629.0,12984.0,13927.0,1.6338491439819336,-0.08343626085113978,0.15143681003250414,0.07002432278596209,-0.00013309760834090412,-0.00298232096247375,0.0
67,5,1.9060967133555096e-06,5.303335456119385e-06,1.6736808902351186e-05,0.0002429286832921207,-0.00031828603823669255,-0.0014627688797190785,0.004050536546856165,-0.03264142945408821,0.006257020868360996,0.0027573180850595236,-0.0012091022217646241,0.0013209311291575432,0.0,0.0,0.0,-0.0009847681503742933,3.380699854460545e-05,-0.0,0.0,0.0,0.0,-0.0009885703912004828,0.009991399012506008,0.0005451627657748759,14520.0,12610.0,13006.0,13905.0,0.4743471145629883,0.3515610098838806,0.37550556659698486,0.43278855085372925,0.0,0.0,0.0,0.0,14503.0,12629.0,12984.0,13927.0,1.6338491439819336,-0.08278102102146594,0.1516858425595677,0.07003451343182013,-0.00013309760834090412,-0.00298232096247375,0.0
72,5,1.7264968846575357e-05,-1.5483616152778268e-05,-2.4455277525703423e-05,0.001940236077643931,0.0023671197704970837,0.004357942845672369,0.004066699184477329,-0.03263532370328903,0.0062577612698078156,0.0025383916217833757,0.002643341664224863,-0.0008751270943321288,0.0,0.0,0.0,-0.0009847681503742933,3.380699854460545e-05,-0.0,0.0,0.0,0.0,-0.0021391892805695534,0.009580899029970169,0.0007575987256132066,14649.0,12777.0,13041.0,13863.0,0.4832835793495178,0.36155998706817627,0.37762629985809326,0.43005937337875366,0.0,0.0,0.0,0.0,14521.0,12597.0,13010.0,13912.0,1.6338491439819336,-0.08308086181738154,0.15118860238638684,0.07017464511704037,-0.00013309760834090412,-0.00298232096247375,0.0
77,5,1.181254174298374e-05,-1.4575930435967166e-05,-2.7949356535827974e-06,0.00012180320482002571,0.0008379256469197571,-0.0008560639107599854,0.004066699184477329,-0.03263532370328903,0.0062577612698078156,0.0025383916217833757,0.002643341664224863,-0.0008751270943321288,0.0,0.0,0.0,-0.002917608944699168,0.0018458851845934987,-0.0,0.0,0.0,0.0,-0.0021391892805695534,0.009580899029970169,0.0007575987256132066,14649.0,12777.0,13041.0,13863.0,0.4832835793495178,0.36155998706817627,0.37762629985809326,0.43005937337875366,0.0,0.0,0.0,0.0,14521.0,12597.0,13010.0,13912.0,1.6571667194366455,-0.08320684212070352,0.1518001549678864,0.07016551457021485,-0.00737090315669775,-0.008961913175880909,0.0
82,5,1.2676677215495147e-05,-3.298756928415969e-05,-3.402611400815658e-05,0.0001524175313534215,0.0025445667561143637,0.003405315801501274,0.004066699184477329,-0.03263532370328903,0.0062577612698078156,0.0025383916217833757,0.002643341664224863,-0.0008751270943321288,0.0,0.0,0.0,-0.002917608944699168,0.0018458851845934987,-0.0,0.0,0.0,0.0,-0.0021391892805695534,0.009580899029970169,0.0007575987256132066,14649.0,12777.0,13041.0,13863.0,0.4832835793495178,0.36155998706817627,0.37762629985809326,0.43005937337875366,0.0,0.0,0.0,0.0,14521.0,12597.0,13010.0,13912.0,1.6571667194366455,-0.08301309784037489,0.15085195437221285,0.07023261800373903,-0.00737090315669775,-0.008961913175880909,0.0
87,5,1.2036275620630477e-05,-2.8235579065949423e-06,-2.75766819868295e-06,-1.5881203580647707e-05,-0.0026018545031547546,-0.002390087116509676,0.004061324521899223,-0.032665956765413284,0.006220465525984764,0.0013660745462402701,0.0003583404759410769,0.003803769825026393,0.0,0.0,0.0,-0.003175237448886037,0.0001611108164070174,-0.0,0.0,0.0,0.0,-0.001680365763604641,0.010109721682965755,0.000654630537610501,14620.0,12648.0,12998.0,13878.0,0.48130378127098083,0.3538080155849457,0.3749910891056061,0.4310428202152252,0.0,0.0,0.0,0.0,14625.0,12643.0,12999.0,13877.0,1.6521493196487427,-0.08311521517827522,0.15145091067502991,0.07009251897576242,-0.0006413922528736293,-0.009723726660013199,0.0
92,5,-8.025676834222395e-06,2.4208565818639727e-08,2.232916267530527e-05,-0.0024137867148965597,-0.0013824737397953868,-0.00396645488217473,0.0040772645734250546,-0.03265872597694397,0.006245057098567486,0.0019403460901230574,0.0011107870377600193,-0.003178549697622657,0.0,0.0,0.0,0.001690885634161532,-0.0022820523008704185,-0.0,0.0,0.0,0.0,-0.0014730511466041207,0.009872841648757458,0.0005715038860216737,14657.0,12792.0,12933.0,14012.0,0.48386892676353455,0.36242809891700745,0.37099847197532654,0.439871221780777,0.0,0.0,0.0,0.0,14494.0,12707.0,12930.0,13910.0,1.6541036367416382,-0.08273195587538709,0.1517965976201513,0.07025224253980564,0.009095764718949795,0.00518424017354846,0.0
101,9,-2.6280158635927364e-06,-5.072351996204816e-07,3.4625277294253465e-06,0.00017856220074463636,2.375396252318751e-05,0.0006829468184150755,0.0040772645734250546,-0.03265872597694397,0.006245057098567486,0.0019403460901230574,0.0011107870377600193,-0.003178549697622657,0.0,0.0,0.0,0.001690885634161532,-0.0022820523008704185,-0.0,0.0,0.0,0.0,-0.0014730511466041207,0.009872841648757458,0.0005715038860216737,14657.0,12792.0,12933.0,14012.0,0.48386892676353455,0.36242809891700745,0.37099847197532654,0.439871221780777,0.0,0.0,0.0,0.0,14494.0,12707.0,12930.0,13910.0,1.6541036367416382,-0.08248281185783005,0.15220159411272613,0.07025367406565218,0.009095764718949795,0.00518424017354846,0.0
106,5,9.474611943005584e-06,-1.322634307143744e-05,-4.904131856164895e-05,0.0015237402403727174,0.0015357945812866092,0.006573640275746584,0.004063587170094252,-0.03262452036142349,0.006229250691831112,-0.0027766660787165165,0.003619121853262186,-0.0038512551691383123,0.0,0.0,0.0,-0.0019092934671789408,0.0014520823024213314,-0.0,0.0,0.0,0.0,-0.0020527911838144064,0.01064358465373516,0.0006628519622609019,14724.0,12718.0,12980.0,13964.0,0.488538533449173,0.3579924404621124,0.37392178177833557,0.43671396374702454,0.0,0.0,0.0,0.0,14687.0,12762.0,12944.0,13996.0,1.647976279258728,-0.08321386834015182,0.15101229041379965,0.0701709651294983,-0.005766246002167463,-0.005832190625369549,0.0
113,6,3.6648614241130417e-06,2.838743739630445e-06,-4.622369942808291e-06,-8.767399413045496e-05,-0.0013134926557540894,-0.00270081777125597,0.004063587170094252,-0.03262452036142349,0.006229250691831112,-0.0027766660787165165,0.003619121853262186,-0.0038512551691383123,0.0,0.0,0.0,-0.0019092934671789408,0.0014520823024213314,-0.0,0.0,0.0,0.0,-0.0020527911838144064,0.01064358465373516,0.0006628519622609019,14724.0,12718.0,12980.0,13964.0,0.488538533449173,0.3579924404621124,0.37392178177833557,0.43671396374702454,0.0,0.0,0.0,0.0,14687.0,12762.0,12944.0,13996.0,1.647976279258728,-0.08312187009597406,0.15172316411735476,0.07011173678153558,-0.005766246002167463,-0.005832190625369549,0.0
118,5,1.410224285791628e-05,-1.0240685696771834e-05,-5.637155845761299e-05,0.0012174162548035383,0.0010441344929859042,0.00512957526370883,0.004069110844284296,-0.032723281532526016,0.006235356442630291,0.0007442625355906785,-0.0005477367085404694,0.0011777475010603666,0.0,0.0,0.0,-0.0013048254186287522,0.0011732567800208926,-0.0,0.0,0.0,0.0,-0.0021968919318169355,0.009928029030561447,0.0006421857397072017,14657.0,12770.0,12997.0,13896.0,0.4838719367980957,0.361111581325531,0.37494975328445435,0.4322160482406616,0.0,0.0,0.0,0.0,14680.0,12745.0,13003.0,13889.0,1.6423178911209106,-0.08376470949063161,0.15092714909558658,0.07036904611975278,-0.00464303232729435,-0.0039720796048641205,0.0
123,5,2.378693170612678e-05,6.727128038619412e-06,-3.05634894175455e-05,0.0016491292044520378,-0.0016184839187189937,-0.0010451379930600524,0.004069110844284296,-0.032723281532526016,0.006235356442630291,0.0007442625355906785,-0.0005477367085404694,0.0011777475010603666,0.0,0.0,0.0,-0.0013048254186287522,0.0011732567800208926,-0.0,0.0,0.0,0.0,-0.0021968919318169355,0.009928029030561447,0.0006421857397072017,14657.0,12770.0,12997.0,13896.0,0.4838719367980957,0.361111581325531,0.37494975328445435,0.4322160482406616,0.0,0.0,0.0,0.0,14680.0,12745.0,13003.0,13889.0,1.6423178911209106,-0.08346361473189166,0.1508974538295895,0.07000430375949804,-0.00464303232729435,-0.0039720796048641205,0.0
128,5,4.470265139389085e-06,7.974916115927044e-06,2.984902312164195e-05,-0.0016583483666181564,-0.0007971280720084906,-0.007667556870728731,0.0040710377506911755,-0.032718319445848465,0.006242493633180857,0.00029793608700856566,0.001309357350692153,0.0017024853732436895,0.0,0.0,0.0,0.0009950054809451103,-0.0015631590504199266,-0.0,0.0,0.0,0.0,-0.0007127090357244015,0.009207210503518581,0.0006111618131399155,14522.0,12731.0,13153.0,13957.0,0.47449713945388794,0.3587607741355896,0.3846186399459839,0.43622708320617676,0.0,0.0,0.0,0.0,14638.0,12702.0,12955.0,13953.0,1.6444462537765503,-0.08254937193113827,0.15178316678463044,0.07017762843724998,0.006194044835865498,0.003032868495211005,0.0
133,5,7.468283001799136e-06,-5.365529887058074e-06,-3.965725738908077e-07,-0.00030357722425833344,0.0012820021947845817,0.0005624488112516701,0.0040710377506911755,-0.032718319445848465,0.006242493633180857,0.00029793608700856566,0.001309357350692153,0.0017024853732436895,0.0,0.0,0.0,0.0009950054809451103,-0.0015631590504199266,-0.0,0.0,0.0,0.0,-0.0007127090357244015,0.009207210503518581,0.0006111618131399155,14522.0,12731.0,13153.0,13957.0,0.47449713945388794,0.3587607741355896,0.3846186399459839,0.43622708320617676,0.0,0.0,0.0,0.0,14638.0,12702.0,12955.0,13953.0,1.6444462537765503,-0.08295082382028823,0.15099004949364409,0.07021715181761552,0.006194044835865498,0.003032868495211005,0.0
138,5,1.091833041755308e-06,1.001689179247478e-05,5.143749149283394e-05,-0.0008866048883646727,-0.00133308966178447,-0.005995107814669609,0.0040876432321965694,-0.03273113816976547,0.006242589093744755,0.0030678396578878164,0.0017963319551199675,0.0016006666701287031,0.0,0.0,0.0,0.0016604079864919186,-0.0008386682602576911,-0.0,0.0,0.0,0.0,-0.0018377595115453005,0.010363246314227581,0.0006717208889313042,14656.0,12688.0,12975.0,13929.0,0.48382332921028137,0.3561849892139435,0.3736015260219574,0.4343664348125458,0.0,0.0,0.0,0.0,14593.0,12687.0,12945.0,13938.0,1.6421446800231934,-0.08283570708642336,0.15241005480841988,0.07002035651600604,0.0033185845240950584,0.0050539905205369,0.0
143,5,-1.6609172234893776e-05,3.339789327583276e-05,7.597078365506604e-05,-0.0024787625297904015,-0.0033389560412615538,-0.005342038348317146,0.0040876432321965694,-0.03273113816976547,0.006242589093744755,0.0030678396578878164,0.0017963319551199675,0.0016006666701287031,0.0,0.0,0.0,0.0016604079864919186,-0.0008386682602576911,-0.0,0.0,0.0,0.0,-0.0018377595115453005,0.010363246314227581,0.0006717208889313042,14656.0,12688.0,12975.0,13929.0,0.48382332921028137,0.3561849892139435,0.3736015260219574,0.4343664348125458,0.0,0.0,0.0,0.0,14593.0,12687.0,12945.0,13938.0,1.6421446800231934,-0.08221632330122465,0.1531447557737168,0.06986421093863811,0.0033185845240950584,0.0050539905205369,0.0
148,5,6.005710474710213e-06,1.0299190762452781e-05,1.2533959306892939e-05,0.0017222808673977852,0.0014362618094310164,0.005475603509694338,0.0040963017381727695,-0.03274412453174591,0.006234878208488226,-0.003086419077590108,0.005613361950963736,-0.00039771280717104673,0.0,0.0,0.0,0.0016604079864919186,-0.0008386682602576911,-0.0,0.0,0.0,0.0,-0.0015878246631473303,0.010377274826169014,0.0006213441956788301,14607.0,12658.0,12954.0,13942.0,0.4803681969642639,0.35438674688339233,0.3723042607307434,0.435258686542511,0.0,0.0,0.0,0.0,14576.0,12704.0,12912.0,13972.0,1.6421446800231934,-0.08263032155490131,0.1519488454593515,0.06991040814062466,0.0033185845240950584,0.0050539905205369,0.0
154,5,1.4594954791391501e-06,2.3619058993062936e-05,3.1972871511243284e-05,0.00014336654567159712,-0.0010238793911412358,-0.00014242807810660452,0.0040963017381727695,-0.03274412453174591,0.006234878208488226,-0.003086419077590108,0.005613361950963736,-0.00039771280717104673,0.0,0.0,0.0,-0.0017441571690142155,0.001634260406717658,-0.0,0.0,0.0,0.0,-0.0015878246631473303,0.010377274826169014,0.0006213441956788301,14607.0,12658.0,12954.0,13942.0,0.4803681969642639,0.35438674688339233,0.3723042607307434,0.435258686542511,0.0,0.0,0.0,0.0,14576.0,12704.0,12912.0,13972.0,1.6485106945037842,-0.08209186858901968,0.15237256954193334,0.0701154631827861,-0.00649178447201848,-0.005329488776624203,0.0
159,5,1.05547205748735e-05,-3.085775233557797e-06,-2.9860368158551864e-05,0.0009766618022695184,0.0017869157018139958,0.003285677870735526,0.004103789571672678,-0.0327724851667881,0.00621400773525238,-0.010559875518083572,0.0007371920510195196,-0.00451295543462038,0.0,0.0,0.0,-0.0017441571690142155,0.001634260406717658,-0.0,0.0,0.0,0.0,-0.0008495684014633298,0.009529556147754192,0.0005975182284601033,14461.0,12728.0,13041.0,13982.0,0.4703063666820526,0.35858556628227234,0.377664715051651,0.43788960576057434,0.0,0.0,0.0,0.0,14402.0,12807.0,13002.0,14008.0,1.6485106945037842,-0.0829311854155574,0.1511154117946055,0.07052115257249637,-0.00649178447201848,-0.005329488776624203,0.0
164,5,-5.858370855094108e-07,3.620854840846732e-05,5.605248952633701e-05,-0.0009462022571824491,-0.0040005529299378395,-0.00899527221918106,0.004103789571672678,-0.0327724851667881,0.00621400773525238,-0.010559875518083572,0.0007371920510195196,-0.00451295543462038,0.0,0.0,0.0,-0.002201189985498786,0.0009377842652611434,-0.0,0.0,0.0,0.0,-0.0008495684014633298,0.009529556147754192,0.0005975182284601033,14461.0,12728.0,13041.0,13982.0,0.4703063666820526,0.35858556628227234,0.377664715051651,0.43788960576057434,0.0,0.0,0.0,0.0,14402.0,12807.0,13002.0,14008.0,1.646565556526184,-0.08209344739530457,0.15261435139434745,0.06913394751652092,-0.003720769425854087,-0.006718069314956665,0.0
169,5,-1.0258338988933247e-05,2.3505050194216892e-05,2.196471359638963e-05,-0.0015391811029985547,-7.58011665311642e-05,0.0004924243548884988,0.004137531854212284,-0.032721299678087234,0.006527552846819162,0.010679665952920914,0.0040654405020177364,0.0031881469767540693,0.0,0.0,0.0,-0.002201189985498786,0.0009377842652611434,-0.0,0.0,0.0,0.0,-0.000854258774779737,0.009755994193255901,0.0026790553238242865,15010.0,12069.0,13593.0,13410.0,0.5088301301002502,0.32011187076568604,0.41243302822113037,0.4007696509361267,0.0,0.0,0.0,0.0,13386.0,13858.0,11728.0,15057.0,1.646565556526184,-0.08333929724418865,0.15140065282720824,0.07073169074982096,-0.003720769425854087,-0.006718069314956665,0.0
174,5,8.392290510528255e-06,8.352332770300563e-06,6.252060416045424e-07,0.0016224031569436193,0.0017880055820569396,0.0027577108703553677,0.004137531854212284,-0.032721299678087234,0.006527552846819162,0.010679665952920914,0.0040654405020177364,0.0031881469767540693,0.0,0.0,0.0,0.00013587823195848614,-0.001473375246860087,-0.0,0.0,0.0,0.0,-0.000854258774779737,0.009755994193255901,0.0026790553238242865,15010.0,12069.0,13593.0,13410.0,0.5088301301002502,0.32011187076568604,0.41243302822113037,0.4007696509361267,0.0,0.0,0.0,0.0,13386.0,13858.0,11728.0,15057.0,1.641593098640442,-0.0834093508345176,0.15108066451783056,0.07011631556278872,0.005828149151057005,0.00041345093632116914,0.0
179,5,1.310301468038233e-05,1.13159467218793e-05,8.463082849630155e-06,0.0012142481282353401,0.00035956865758635104,0.00016253904323093593,0.004177541472017765,-0.03281702473759651,0.005822973325848579,-0.009069304913282394,-0.023832272738218307,0.15203064680099487,0.0,0.0,0.0,0.00013587823195848614,-0.001473375246860087,-0.0,0.0,0.0,0.0,-0.0017052018083631992,0.01012435369193554,0.0025439762976020575,15895.0,11042.0,14464.0,12406.0,0.5741006135940552,0.26439449191093445,0.47050634026527405,0.3395092785358429,0.0,0.0,0.0,0.0,16212.0,10559.0,14865.0,11917.0,1.641593098640442,-0.08282783433704537,0.15167464712070397,0.06981317708423242,0.005828149151057005,0.00041345093632116914,0.0
184,5,-1.3600234524346888e-05,3.092683255090378e-05,4.566852658172138e-05,-0.002718690549954772,-0.0022094789892435074,-0.004399637691676617,0.004177541472017765,-0.03281702473759651,0.005822973325848579,-0.009069304913282394,-0.023832272738218307,0.15203064680099487,0.0,0.0,0.0,-0.00042342534288764,0.0011714163701981306,-0.0,0.0,0.0,0.0,-0.0017052018083631992,0.01012435369193554,0.0025439762976020575,15895.0,11042.0,14464.0,12406.0,0.5741006135940552,0.26439449191093445,0.47050634026527405,0.3395092785358429,0.0,0.0,0.0,0.0,16212.0,10559.0,14865.0,11917.0,1.6387720108032227,-0.08283067104148746,0.15206109043957686,0.07082597220222998,-0.004625743720680475,-0.0012861863942816854,0.0
189,5,-1.6050968042691238e-05,2.0093404600629583e-05,5.0452639698050916e-05,-0.001381564186885953,0.00041621975833550096,-0.0023339486215263605,0.004308705218136311,-0.032834190875291824,0.005863566882908344,0.03347397223114967,0.05436442792415619,-0.18406422436237335,0.0,0.0,0.0,-0.00042342534288764,0.0011714163701981306,-0.0,0.0,0.0,0.0,-0.00237424299120903,0.01102631725370884,-0.003214876400306821,12999.0,14451.0,10776.0,15589.0,0.3750664293766022,0.4695618450641632,0.25086888670921326,0.5510683655738831,0.0,0.0,0.0,0.0,13780.0,13700.0,11709.0,14924.0,1.6387720108032227,-0.08166506129875184,0.1520672079832899,0.06992429885394824,-0.004625743720680475,-0.0012861863942816854,0.0
194,5,1.6617983646938228e-06,-5.745108865085058e-06,-1.5381806406367105e-06,0.0015729062724858522,0.00326710962690413,0.005305319093167782,0.004308705218136311,-0.032834190875291824,0.005863566882908344,0.03347397223114967,0.05436442792415619,-0.18406422436237335,0.0,0.0,0.0,-0.000476923945825547,-0.001332840183749795,-0.0,0.0,0.0,0.0,-0.00237424299120903,0.01102631725370884,-0.003214876400306821,12999.0,14451.0,10776.0,15589.0,0.3750664293766022,0.4695618450641632,0.25086888670921326,0.5510683655738831,0.0,0.0,0.0,0.0,13780.0,13700.0,11709.0,14924.0,1.6405699253082275,-0.08232580954733343,0.1517332741537876,0.07019059133055464,0.0052689556032419205,-0.0014502817066386342,0.0
199,5,-2.1941559680271894e-06,6.654652224824531e-06,1.0316352017980535e-05,0.00016644797869957983,-0.00018112751422449946,0.0006995837902650237,0.004303906578570604,-0.032838124781847,0.006836841348558664,-0.014688018709421158,-0.03179411217570305,0.05174950137734413,0.0,0.0,0.0,-0.000476923945825547,-0.001332840183749795,-0.0,0.0,0.0,0.0,-0.0008841099916025996,0.008459021337330341,0.005708710756152868,15688.0,11160.0,14504.0,12403.0,0.5584922432899475,0.2705279588699341,0.47325068712234497,0.33932220935821533,0.0,0.0,0.0,0.0,13208.0,14047.0,11531.0,15180.0,1.6405699253082275,-0.08290620127347009,0.1514941267026138,0.07021782287018191,0.0052689556032419205,-0.0014502817066386342,0.0
204,5,-1.6118516214191914e-05,3.7333993532229215e-05,6.749347812728956e-05,-0.0016043441137298942,-0.003753972239792347,-0.006581421941518784,0.004303906578570604,-0.032838124781847,0.006836841348558664,-0.014688018709421158,-0.03179411217570305,0.05174950137734413,0.0,0.0,0.0,0.00023716741998214275,0.00015603844076395035,-0.0,0.0,0.0,0.0,-0.0008841099916025996,0.008459021337330341,0.005708710756152868,15688.0,11160.0,14504.0,12403.0,0.5584922432899475,0.2705279588699341,0.47325068712234497,0.33932220935821533,0.0,0.0,0.0,0.0,13208.0,14047.0,11531.0,15180.0,1.6284600496292114,-0.082161415453386,0.15328172265684495,0.06957903182760383,-0.0006122948252595961,0.0007158807711675763,-0.0
209,5,-1.4061010915611405e-05,3.538191594998352e-05,7.954760076245293e-05,-0.00039483694126829505,-0.00126733910292387,-0.004079062957316637,0.00432086456567049,-0.0331319198012352,0.006522598676383495,0.016210610046982765,0.02265186980366707,0.14404605329036713,0.0,0.0,0.0,0.00023716741998214275,0.00015603844076395035,-0.0,0.0,0.0,0.0,-0.0016964201349765062,0.009934407658874989,-2.867385546778678e-06,14837.0,12399.0,13232.0,13640.0,0.4964679777622223,0.339085191488266,0.3895173966884613,0.41549935936927795,0.0,0.0,0.0,0.0,15084.0,12023.0,13495.0,13414.0,1.6284600496292114,-0.08312728933939004,0.15286888723866113,0.07009429226827335,-0.0006122948252595961,0.0007158807711675763,-0.0
214,5,-3.6405872378963977e-06,8.563455594412517e-06,5.315981979947537e-05,0.0010925161186605692,0.0027112793177366257,0.001534908078610897,0.00432086456567049,-0.0331319198012352,0.006522598676383495,0.016210610046982765,0.02265186980366707,0.14404605329036713,0.0,0.0,0.0,0.0016276626847684383,-0.00039425407885573804,-0.0,0.0,0.0,0.0,-0.0016964201349765062,0.009934407658874989,-2.867385546778678e-06,14837.0,12399.0,13232.0,13640.0,0.4964679777622223,0.339085191488266,0.3895173966884613,0.41549935936927795,0.0,0.0,0.0,0.0,15084.0,12023.0,13495.0,13414.0,1.6398173570632935,-0.08271049123650481,0.1519786498321465,0.07047317764985087,0.0015578405000269413,0.00494729820638895,0.0
219,5,-2.0494974251050735e-07,4.945913315168582e-05,0.000120070471893996,0.0008492829510942101,-0.003822969738394022,-0.007415315136313438,0.00432086456567049,-0.0331319198012352,0.006522598676383495,0.016210610046982765,0.02265186980366707,0.14404605329036713,0.0,0.0,0.0,0.0016276626847684383,-0.00039425407885573804,-0.0,0.0,0.0,0.0,-0.0016964201349765062,0.009934407658874989,-2.867385546778678e-06,14837.0,12399.0,13232.0,13640.0,0.4964679777622223,0.339085191488266,0.3895173966884613,0.41549935936927795,0.0,0.0,0.0,0.0,15084.0,12023.0,13495.0,13414.0,1.6398173570632935,-0.08191521763787357,0.15347798840532123,0.06991355801506745,0.0015578405000269413,0.00494729820638895,0.0
225,5,3.423711632422055e-06,3.601981370593421e-05,9.421231516171247e-05,0.0007751525263302028,8.353067823918536e-05,0.00013685334124602377,0.004334669094532728,-0.03315253183245659,0.006156990770250559,0.022775348275899887,0.01980852521955967,0.07062767446041107,0.0,0.0,0.0,0.004730149172246456,0.000793004350271076,-0.0,0.0,0.0,0.0,-0.001134709920734167,0.010879497043788433,-0.0015760925598442554,13947.0,13223.0,12123.0,14612.0,0.43558552861213684,0.3889937102794647,0.32313457131385803,0.48074623942375183,0.0,0.0,0.0,0.0,15411.0,11668.0,13873.0,12985.0,1.6661937236785889,-0.0829917483121295,0.15281546986390052,0.07028013362345055,-0.003183816559612751,0.01460851076990366,0.0
230,5,-2.0931888684572186e-06,-1.1169727258675266e-06,0.0001874072040664032,-0.00035196702810935676,0.004489826504141092,-0.01112864539027214,0.004334669094532728,-0.03315253183245659,0.006156990770250559,0.022775348275899887,0.01980852521955967,0.07062767446041107,0.0,0.0,0.0,0.004730149172246456,0.000793004350271076,-0.0,0.0,0.0,0.0,-0.001134709920734167,0.010879497043788433,-0.0015760925598442554,13947.0,13223.0,12123.0,14612.0,0.43558552861213684,0.3889937102794647,0.32313457131385803,0.48074623942375183,0.0,0.0,0.0,0.0,15411.0,11668.0,13873.0,12985.0,1.6661937236785889,-0.08466907012237387,0.15224527374368252,0.06838563358396467,-0.003183816559612751,0.01460851076990366,0.0
235,5,-2.1164365534787066e-05,5.641549068968743e-05,0.000256877247011289,-0.0024293281603604555,-0.005107964854687452,-0.012787863612174988,0.004377907142043114,-0.03348361700773239,0.006111216731369495,0.0008511815103702247,0.06019369885325432,-0.04029766470193863,0.0,0.0,0.0,-0.005436490289866924,-0.0003305456484667957,-0.0,0.0,0.0,0.0,-0.0007761904271319509,0.009738420136272907,0.0009570717811584473,14210.0,12989.0,12742.0,14204.0,0.4531676471233368,0.3744376003742218,0.35944119095802307,0.4527709186077118,0.0,0.0,0.0,0.0,14807.0,12270.0,13012.0,13811.0,1.6714258193969727,-0.08311777971997789,0.15521877858315283,0.06942910736421924,0.001331263454630971,-0.01684264838695526,0.0
240,5,-3.0300729122245684e-05,1.0183850463363342e-05,0.0002954246592707932,-0.0020680949091911316,0.0035046108532696962,-0.009740835055708885,0.004377907142043114,-0.03348361700773239,0.006111216731369495,0.0008511815103702247,0.06019369885325432,-0.04029766470193863,0.0,0.0,0.0,-0.005436490289866924,-0.0003305456484667957,-0.0,0.0,0.0,0.0,-0.0007761904271319509,0.009738420136272907,0.0009570717811584473,14210.0,12989.0,12742.0,14204.0,0.4531676471233368,0.3744376003742218,0.35944119095802307,0.4527709186077118,0.0,0.0,0.0,0.0,14807.0,12270.0,13012.0,13811.0,1.6714258193969727,-0.08466615651240023,0.152719832914236,0.06850930730118393,0.001331263454630971,-0.01684264838695526,0.0
245,5,-6.786045560147613e-06,4.585838905768469e-05,0.00029925763374194503,0.0019945241510868073,-0.0028791003860533237,-0.004356291610747576,0.00437755836173892,-0.0336763970553875,0.006401181686669588,0.007540907245129347,-0.025724763050675392,-0.07650431990623474,0.0,0.0,0.0,-0.004234770312905312,-0.0019720555283129215,-0.0,0.0,0.0,0.0,0.0002955110976472497,0.0076042418368160725,0.0026908167637884617,14918.0,12233.0,13923.0,13405.0,0.502269983291626,0.32946234941482544,0.4340243339538574,0.40043705701828003,0.0,0.0,0.0,0.0,13313.0,13876.0,11785.0,15028.0,1.667122483253479,-0.08183608965434319,0.15405736130690967,0.06875649630757343,0.007921990938484669,-0.013085898943245411,0.0
250,5,-1.6767136912676506e-05,1.3555752047977876e-05,0.00028439227025955915,-0.00039992123492993414,0.0027246763929724693,4.132690446567722e-05,0.00437755836173892,-0.0336763970553875,0.006401181686669588,0.007540907245129347,-0.025724763050675392,-0.07650431990623474,0.0,0.0,0.0,-0.004234770312905312,-0.0019720555283129215,-0.0,0.0,0.0,0.0,0.0002955110976472497,0.0076042418368160725,0.0026908167637884617,14918.0,12233.0,13923.0,13405.0,0.502269983291626,0.32946234941482544,0.4340243339538574,0.40043705701828003,0.0,0.0,0.0,0.0,13313.0,13876.0,11785.0,15028.0,1.667122483253479,-0.08223285198189621,0.15282586992824113,0.06954560534352534,0.007921990938484669,-0.013085898943245411,0.0
255,5,-7.103340612957254e-05,-2.3158916519605555e-05,0.0003721239627338946,-0.006671920418739319,0.005495630670338869,-0.010511270724236965,0.00425448315218091,-0.03233668953180313,0.005893978290259838,-0.02146756462752819,-0.07195241004228592,0.032519180327653885,0.0,0.0,0.0,-0.003309180261567235,-0.0003995432343799621,-0.0,0.0,0.0,0.0,-0.0029514306224882603,0.008176119066774845,0.00010564075637375936,14682.0,12974.0,13233.0,13751.0,0.48561325669288635,0.37354138493537903,0.3895590603351593,0.422712117433548,0.0,0.0,0.0,0.0,14061.0,13217.0,12999.0,14301.0,1.6535589694976807,-0.08409117964330769,0.15298135590583276,0.06782049868629345,0.001591963111422956,-0.010142551735043526,-0.0
260,5,-5.05614370922558e-05,-7.792618816893082e-06,0.0003412154037505388,-0.00021213211584836245,0.00035429667332209647,-0.0004954813630320132,0.00425448315218091,-0.03233668953180313,0.005893978290259838,-0.02146756462752819,-0.07195241004228592,0.032519180327653885,0.0,0.0,0.0,-0.003309180261567235,-0.0003995432343799621,-0.0,0.0,0.0,0.0,-0.0029514306224882603,0.008176119066774845,0.00010564075637375936,14682.0,12974.0,13233.0,13751.0,0.48561325669288635,0.37354138493537903,0.3895590603351593,0.422712117433548,0.0,0.0,0.0,0.0,14061.0,13217.0,12999.0,14301.0,1.6535589694976807,-0.08207110261282664,0.1527287815822862,0.06866437164660752,0.001591963111422956,-0.010142551735043526,-0.0
265,5,-9.378078539157286e-05,-4.737376002594829e-06,0.0004700921999756247,-0.005271174944937229,-0.00022491050185635686,-0.01566341146826744,0.0042400178499519825,-0.0317692905664444,0.005702896509319544,0.0051574199460446835,-0.02785058133304119,-0.06865572184324265,0.0,0.0,0.0,-0.00045366751146502793,-0.0002733113069552928,-0.0,0.0,0.0,0.0,-0.0029688223730772734,0.008174392394721508,-0.0009066254715435207,14010.0,13685.0,12398.0,14456.0,0.43974724411964417,0.41842398047447205,0.33901700377464294,0.46993425488471985,0.0,0.0,0.0,0.0,15056.0,12518.0,13673.0,13329.0,1.6304736137390137,-0.08193447500665654,0.153749098921973,0.06768973224301647,0.0010737995617091656,-0.0013710710918530822,0.0
270,5,-8.363558299606666e-05,-3.140049011562951e-05,0.0003923295298591256,-0.0008910453761927783,0.0031096094753593206,0.0030661567579954863,0.0042400178499519825,-0.0317692905664444,0.005702896509319544,0.0051574199460446835,-0.02785058133304119,-0.06865572184324265,0.0,0.0,0.0,-0.00045366751146502793,-0.0002733113069552928,-0.0,0.0,0.0,0.0,-0.0029688223730772734,0.008174392394721508,-0.0009066254715435207,14010.0,13685.0,12398.0,14456.0,0.43974724411964417,0.41842398047447205,0.33901700377464294,0.46993425488471985,0.0,0.0,0.0,0.0,15056.0,12518.0,13673.0,13329.0,1.6304736137390137,-0.08206905197424205,0.1529339035757411,0.06851185750878624,0.0010737995617091656,-0.0013710710918530822,0.0
275,5,-0.00011150357750011608,-3.836670293821953e-05,0.00044134206837043166,-0.003700577188283205,0.002079789061099291,-0.004655041731894016,0.004054197575896978,-0.03131316602230072,0.005767000373452902,-0.004220406990498304,-0.07624971121549606,-0.030113812536001205,0.0,0.0,0.0,-0.0038472888991236687,-0.0009508347138762474,-0.0,0.0,0.0,0.0,-0.002099539851769805,0.006807923316955566,0.0006410798523575068,14333.0,13115.0,13052.0,13884.0,0.46150726079940796,0.3822609782218933,0.378354012966156,0.4314367175102234,0.0,0.0,0.0,0.0,14182.0,13420.0,12779.0,14204.0,1.6593953371047974,-0.08139229143497737,0.15333142499727323,0.06837682001821338,0.0038019248750060797,-0.01183344703167677,-0.0
280,5,-0.0001656668318901211,-8.566150063415989e-05,0.00045269966358318925,-0.007979822345077991,0.006507291458547115,-0.0032249283976852894,0.004054197575896978,-0.03131316602230072,0.005767000373452902,-0.004220406990498304,-0.07624971121549606,-0.030113812536001205,0.0,0.0,0.0,-0.0038472888991236687,-0.0009508347138762474,-0.0,0.0,0.0,0.0,-0.002099539851769805,0.006807923316955566,0.0006410798523575068,14333.0,13115.0,13052.0,13884.0,0.46150726079940796,0.3822609782218933,0.378354012966156,0.4314367175102234,0.0,0.0,0.0,0.0,14182.0,13420.0,12779.0,14204.0,1.6593953371047974,-0.08308472652011864,0.1523829883014054,0.06799175141827786,0.0038019248750060797,-0.01183344703167677,-0.0
285,5,-0.00017383438535034657,-8.98862854228355e-05,0.00043096893932670355,-0.004172034095972776,0.003109890967607498,0.0013177156215533614,0.004049185197800398,-0.030320286750793457,0.005471932701766491,-0.019675975665450096,-0.11509541422128677,0.022794676944613457,0.0,0.0,0.0,-0.007747565861791372,-0.0073885745368897915,-0.0,0.0,0.0,0.0,-0.002157689770683646,0.006429924163967371,0.0006446947809308767,14501.0,12937.0,13367.0,13574.0,0.47306060791015625,0.37124520540237427,0.3980056643486023,0.41124749183654785,0.0,0.0,0.0,0.0,13811.0,13712.0,12396.0,14425.0,1.7320913076400757,-0.08176374024174159,0.15193754046556068,0.06832118751013293,0.030836589634418488,-0.024873489513993263,0.0
290,5,-0.00019467966922093183,-0.00014138655387796462,0.00040034856647253036,-0.0041702487505972385,0.007423989474773407,0.0042015318758785725,0.004049185197800398,-0.030320286750793457,0.005471932701766491,-0.019675975665450096,-0.11509541422128677,0.022794676944613457,0.0,0.0,0.0,-0.007747565861791372,-0.0073885745368897915,-0.0,0.0,0.0,0.0,-0.002157689770683646,0.006429924163967371,0.0006446947809308767,14501.0,12937.0,13367.0,13574.0,0.47306060791015625,0.37124520540237427,0.3980056643486023,0.41124749183654785,0.0,0.0,0.0,0.0,13811.0,13712.0,12396.0,14425.0,1.7320913076400757,-0.08224642672582759,0.15031937251245803,0.06854516550482787,0.030836589634418488,-0.024873489513993263,0.0
295,5,-0.0002750830608420074,-8.163164602592587e-05,0.0006233875174075365,-0.011316507123410702,-0.004200994037091732,-0.025084059685468674,0.0039422716945409775,-0.029550455510616302,0.0051348586566746235,0.013313421048223972,-0.08484531939029694,-0.019043365493416786,0.0,0.0,0.0,-0.00900336354970932,-0.004044173751026392,-0.0,0.0,0.0,0.0,-0.0012946964707225561,0.006298549473285675,-0.0006481862510554492,13912.0,13302.0,12790.0,14027.0,0.4332997798919678,0.3939318060874939,0.3623485565185547,0.4408934712409973,0.0,0.0,0.0,0.0,14321.0,12781.0,13351.0,13570.0,1.71489679813385,-0.07977125159119172,0.15362569831969058,0.06714138087115265,0.01671094074845314,-0.028618089854717255,-0.0
301,5,-0.0002772739389911294,-0.00012889351637568325,0.0004743407480418682,-0.004789506085216999,0.003991026431322098,0.007851988077163696,0.0039422716945409775,-0.029550455510616302,0.0051348586566746235,0.013313421048223972,-0.08484531939029694,-0.019043365493416786,0.0,0.0,0.0,-0.00900336354970932,-0.004044173751026392,-0.0,0.0,0.0,0.0,-0.0012946964707225561,0.006298549473285675,-0.0006481862510554492,13912.0,13302.0,12790.0,14027.0,0.4332997798919678,0.3939318060874939,0.3623485565185547,0.4408934712409973,0.0,0.0,0.0,0.0,14321.0,12781.0,13351.0,13570.0,1.71489679813385,-0.08106889779087757,0.15150626630697073,0.06822049881469783,0.01671094074845314,-0.028618089854717255,-0.0
306,5,-0.0003355119551997632,-8.45796093926765e-05,0.0005867764120921493,-0.00890436489135027,-0.0037212581373751163,-0.010351486504077911,0.0039422716945409775,-0.029550455510616302,0.0051348586566746235,0.013313421048223972,-0.08484531939029694,-0.019043365493416786,0.0,0.0,0.0,-0.004994942806661129,-0.004776674788445234,-0.0,0.0,0.0,0.0,-0.0012946964707225561,0.006298549473285675,-0.0006481862510554492,13912.0,13302.0,12790.0,14027.0,0.4332997798919678,0.3939318060874939,0.3623485565185547,0.4408934712409973,0.0,0.0,0.0,0.0,14321.0,12781.0,13351.0,13570.0,1.6931893825531006,-0.07853224685556838,0.15428627398812716,0.06776203233592601,0.019488394260406494,-0.015676219016313553,-0.0
311,5,-0.0003622781950980425,-6.426527397707105e-05,0.0006050521042197943,-0.006773696281015873,-0.003926223609596491,-0.006333677563816309,0.004113100003451109,-0.028648750856518745,0.005042109172791243,-0.005541952792555094,-0.06749660521745682,-0.05049275606870651,0.0,0.0,0.0,-0.004994942806661129,-0.004776674788445234,-0.0,0.0,0.0,0.0,-0.003687627613544464,0.004307609051465988,-8.382444320886862e-06,14276.0,13998.0,13187.0,14144.0,0.45763808488845825,0.43898308277130127,0.3867431879043579,0.44872695207595825,0.0,0.0,0.0,0.0,14353.0,13841.0,12937.0,14196.0,1.6931893825531006,-0.07853279046950902,0.15471361952949175,0.06742349643503294,0.019488394260406494,-0.015676219016313553,-0.0
316,5,-0.0004281763976905495,-0.00010630362521624193,0.0006419430137611926,-0.010617260821163654,0.0034741126000881195,-0.006960382219403982,0.004113100003451109,-0.028648750856518745,0.005042109172791243,-0.005541952792555094,-0.06749660521745682,-0.05049275606870651,0.0,0.0,0.0,0.004535937216132879,-0.006653166841715574,-0.0,0.0,0.0,0.0,-0.003687627613544464,0.004307609051465988,-8.382444320886862e-06,14276.0,13998.0,13187.0,14144.0,0.45763808488845825,0.43898308277130127,0.3867431879043579,0.44872695207595825,0.0,0.0,0.0,0.0,14353.0,13841.0,12937.0,14196.0,1.7090100049972534,-0.07986731805612143,0.15275175246867084,0.06676697841526827,0.027397898957133293,0.014368699863553047,0.0
321,5,-0.00046166396350599825,-8.12643556855619e-05,0.0006537666777148843,-0.008265412412583828,-0.0016150667797774076,-0.0042029921896755695,0.004299761727452278,-0.028332041576504707,0.005116721149533987,-0.0015379638643935323,-0.022160394117236137,-0.0038604438304901123,0.0,0.0,0.0,0.004535937216132879,-0.006653166841715574,-0.0,0.0,0.0,0.0,-0.004471547435969114,0.00685938959941268,0.0011873143957927823,14901.0,13285.0,13448.0,13676.0,0.5010155439376831,0.3928605616092682,0.4031802713871002,0.4178403913974762,0.0,0.0,0.0,0.0,14491.0,13690.0,12948.0,14190.0,1.7090100049972534,-0.07952457802316336,0.1533469395890219,0.06752019134052271,0.027397898957133293,0.014368699863553047,0.0
326,5,-0.000511110934894532,-9.039574069902301e-05,0.0006696573109366,-0.009239801205694675,0.00044973960029892623,-0.003588068764656782,0.004299761727452278,-0.028332041576504707,0.005116721149533987,-0.0015379638643935323,-0.022160394117236137,-0.0038604438304901123,0.0,0.0,0.0,0.0017619446152821183,-0.008105942979454994,-0.0,0.0,0.0,0.0,-0.004471547435969114,0.00685938959941268,0.0011873143957927823,14901.0,13285.0,13448.0,13676.0,0.5010155439376831,0.3928605616092682,0.4031802713871002,0.4178403913974762,0.0,0.0,0.0,0.0,14491.0,13690.0,12948.0,14190.0,1.7171727418899536,-0.0787894709069155,0.15241279519268525,0.06743056186340189,0.03354007378220558,0.00560808228328824,0.0
331,5,-0.0005602560704573989,-0.00010425701475469396,0.0006568009848706424,-0.009593335911631584,0.0018432479118928313,0.0001075306863640435,0.004263201262801886,-0.027774183079600334,0.0050416551530361176,-0.005489861126989126,-0.07877901941537857,0.035280223935842514,0.0,0.0,0.0,0.0017619446152821183,-0.008105942979454994,-0.0,0.0,0.0,0.0,-0.002758341608569026,0.005624186247587204,0.0006100953323766589,14714.0,13114.0,13629.0,13529.0,0.4878721535205841,0.3821617662906647,0.414788156747818,0.4083673059940338,0.0,0.0,0.0,0.0,14700.0,13186.0,13652.0,13452.0,1.7171727418899536,-0.07918876669661208,0.15140688209346678,0.06747453376503153,0.03354007378220558,0.00560808228328824,0.0
336,5,-0.0006042238674126565,-0.00012979039456695318,0.0006843728478997946,-0.009113473817706108,0.003801305079832673,-0.003265614155679941,0.004263201262801886,-0.027774183079600334,0.0050416551530361176,-0.005489861126989126,-0.07877901941537857,0.035280223935842514,0.0,0.0,0.0,-0.002331600757315755,-0.00935754831880331,-0.0,0.0,0.0,0.0,-0.002758341608569026,0.005624186247587204,0.0006100953323766589,14714.0,13114.0,13629.0,13529.0,0.4878721535205841,0.3821617662906647,0.414788156747818,0.4083673059940338,0.0,0.0,0.0,0.0,14700.0,13186.0,13652.0,13452.0,1.7324881553649902,-0.08130497080053742,0.1501396676973339,0.0671295814151042,0.03906400501728058,-0.0074874223209917545,-0.0
341,5,-0.0006542164483107626,-0.00012041455192957073,0.00064923643367365,-0.009644498117268085,0.00039542082231491804,0.002910129027441144,0.0045705013908445835,-0.027058295905590057,0.004987858701497316,0.006211555562913418,-0.10800919681787491,0.00020911174942739308,0.0,0.0,0.0,-0.002331600757315755,-0.00935754831880331,-0.0,0.0,0.0,0.0,-0.0012679718201979995,0.0032836878672242165,0.0006239695940166712,14134.0,13541.0,13587.0,14010.0,0.4480258524417877,0.40914472937583923,0.4120606482028961,0.43977877497673035,0.0,0.0,0.0,0.0,14345.0,13264.0,13942.0,13708.0,1.7324881553649902,-0.07955808857082709,0.15052410214758136,0.06756123163148982,0.03906400501728058,-0.0074874223209917545,-0.0
346,5,-0.0006888129864819348,-9.028094063978642e-05,0.000656450807582587,-0.008009381592273712,-0.003457865212112665,0.0002983215672429651,0.0045705013908445835,-0.027058295905590057,0.004987858701497316,0.006211555562913418,-0.10800919681787491,0.00020911174942739308,0.0,0.0,0.0,-0.0006686330889351666,-0.009526996873319149,-0.0,0.0,0.0,0.0,-0.0012679718201979995,0.0032836878672242165,0.0006239695940166712,14134.0,13541.0,13587.0,14010.0,0.4480258524417877,0.40914472937583923,0.4120606482028961,0.43977877497673035,0.0,0.0,0.0,0.0,14345.0,13264.0,13942.0,13708.0,1.7326394319534302,-0.0797796114341231,0.15039689747119533,0.06728294732689429,0.03977493196725845,-0.0021473586093634367,-0.0
351,5,-0.0007395064458250999,-8.731675916351378e-05,0.0006547929951921105,-0.009286968968808651,-0.0017388473497703671,0.00031827017664909363,0.004708633758127689,-0.025914950296282768,0.005124648101627827,0.03218179568648338,-0.07581178098917007,-0.007490857038646936,0.0,0.0,0.0,-0.0006686330889351666,-0.009526996873319149,-0.0,0.0,0.0,0.0,-0.0018528240034356713,0.0031393037643283606,0.0011036740615963936,14326.0,13546.0,13673.0,13849.0,0.46102175116539,0.409458726644516,0.41760262846946716,0.42908963561058044,0.0,0.0,0.0,0.0,14241.0,13608.0,13604.0,13943.0,1.7326394319534302,-0.07993122246481194,0.14984776939383773,0.06718970494452009,0.03977493196725845,-0.0021473586093634367,-0.0
356,5,-0.0007745544426143169,-0.00010740488505689427,0.0006746608996763825,-0.007920544594526291,0.0017150364583358169,-0.00225683837197721,0.004708633758127689,-0.025914950296282768,0.005124648101627827,0.03218179568648338,-0.07581178098917007,-0.007490857038646936,0.0,0.0,0.0,0.0018813704373314977,-0.009325419552624226,-0.0,0.0,0.0,0.0,-0.0018528240034356713,0.0031393037643283606,0.0011036740615963936,14326.0,13546.0,13673.0,13849.0,0.46102175116539,0.409458726644516,0.41760262846946716,0.42908963561058044,0.0,0.0,0.0,0.0,14241.0,13608.0,13604.0,13943.0,1.7314183712005615,-0.08210610281557294,0.14904498963327298,0.06627276978996441,0.038905881345272064,0.006037879269570112,-0.0
362,5,-0.0008146067848429084,-5.932553904131055e-05,0.0006359227700158954,-0.007974502630531788,-0.005083506926894188,0.00374583899974823,0.004692083224654198,-0.025345435366034508,0.005161446984857321,-0.008955801837146282,-0.06299521774053574,0.02437320537865162,0.0,0.0,0.0,0.0018813704373314977,-0.009325419552624226,-0.0,0.0,0.0,0.0,-0.0014714866410940886,0.0034249729942530394,0.0008435290073975921,14652.0,13391.0,13984.0,13576.0,0.48354220390319824,0.3995664715766907,0.4380388855934143,0.411340594291687,0.0,0.0,0.0,0.0,14666.0,13375.0,13930.0,13633.0,1.7314183712005615,-0.08050332532951299,0.14941794284437762,0.06708653301600528,0.038905881345272064,0.006037879269570112,-0.0
367,5,-0.0008685887441970408,-4.0666167478775606e-05,0.0006503213662654161,-0.009667633101344109,-0.004272527992725372,-0.00022949826961848885,0.004692083224654198,-0.025345435366034508,0.005161446984857321,-0.008955801837146282,-0.06299521774053574,0.02437320537865162,0.0,0.0,0.0,0.005839258432388306,-0.008247993886470795,-0.0,0.0,0.0,0.0,-0.0014714866410940886,0.0034249729942530394,0.0008435290073975921,14652.0,13391.0,13984.0,13576.0,0.48354220390319824,0.3995664715766907,0.4380388855934143,0.411340594291687,0.0,0.0,0.0,0.0,14666.0,13375.0,13930.0,13633.0,1.730896234512329,-0.08012532783533072,0.14815252098977752,0.06704984618399232,0.03440003842115402,0.018734097480773926,-0.0
372,5,-0.0009185359231196344,-3.071146784350276e-05,0.0006585243390873075,-0.009860717691481113,-0.0029035748448222876,-0.0010761551093310118,0.004664403852075338,-0.024702733382582664,0.005313444416970015,-0.00647842139005661,-0.07078531384468079,0.02104327455163002,0.0,0.0,0.0,0.005839258432388306,-0.008247993886470795,-0.0,0.0,0.0,0.0,-0.0014714866410940886,0.0034249729942530394,0.0008435290073975921,14573.0,13418.0,13953.0,13668.0,0.4780440032482147,0.4012658894062042,0.4360140264034271,0.4173155128955841,0.0,0.0,0.0,0.0,14734.0,13250.0,14146.0,13460.0,1.730896234512329,-0.07997068206851898,0.1476354451860708,0.06674700083413261,0.03440003842115402,0.018734097480773926,-0.0
377,5,-0.0010126103879883885,-3.697190550155938e-05,0.0007127272547222674,-0.015233218669891357,-0.00041017754119820893,-0.00693481182679534,0.004664403852075338,-0.024702733382582664,0.005313444416970015,-0.00647842139005661,-0.07078531384468079,0.02104327455163002,0.0,0.0,0.0,0.0033188452944159508,-0.010017077438533306,-0.0,0.0,0.0,0.0,-0.0014714866410940886,0.0034249729942530394,0.0008435290073975921,14573.0,13418.0,13953.0,13668.0,0.4780440032482147,0.4012658894062042,0.4360140264034271,0.4173155128955841,0.0,0.0,0.0,0.0,14734.0,13250.0,14146.0,13460.0,1.7420628070831299,-0.08152838434203312,0.14634445041726002,0.06525670013992965,0.04204816743731499,0.01071662176400423,0.0
382,5,-0.001046904013492167,1.8918264686362818e-05,0.0007017653551883996,-0.010208525694906712,-0.006870891433209181,-0.0014584996970370412,0.004729462321847677,-0.02417732961475849,0.005456956103444099,0.0017286429647356272,-0.08183363080024719,-0.006858482491225004,0.0,0.0,0.0,0.0033188452944159508,-0.010017077438533306,-0.0,0.0,0.0,0.0,0.0005132164806127548,0.0017972749192267656,0.001049018814228475,14343.0,13570.0,13839.0,13859.0,0.4621703624725342,0.41098785400390625,0.42848873138427734,0.42977142333984375,0.0,0.0,0.0,0.0,14209.0,13722.0,13807.0,13879.0,1.7420628070831299,-0.08022100896646067,0.14649932464782825,0.06598938503089198,0.04204816743731499,0.01071662176400423,0.0
387,5,-0.0011213654652237892,1.828677523008082e-05,0.0006841010763309896,-0.013018789701163769,-0.002672577742487192,0.0015363172860816121,0.004729462321847677,-0.02417732961475849,0.005456956103444099,0.0017286429647356272,-0.08183363080024719,-0.006858482491225004,0.0,0.0,0.0,0.007918554358184338,-0.010376090183854103,-0.0,0.0,0.0,0.0,0.0005132164806127548,0.0017972749192267656,0.001049018814228475,14343.0,13570.0,13839.0,13859.0,0.4621703624725342,0.41098785400390625,0.42848873138427734,0.42977142333984375,0.0,0.0,0.0,0.0,14209.0,13722.0,13807.0,13879.0,1.7623871564865112,-0.08014735790953417,0.1459332146202897,0.06592160804875788,0.044062137603759766,0.02586708776652813,0.0
392,5,-0.0011688773520290852,8.294324288726784e-06,0.0006923848995938897,-0.010908935219049454,0.00013006299559492618,-0.00037953178980387747,0.00470251590013504,-0.022862156853079796,0.005587705876678228,-0.009414177387952805,-0.10968425124883652,0.02194085717201233,0.0,0.0,0.0,0.007918554358184338,-0.010376090183854103,-0.0,0.0,0.0,0.0,-0.0003905170888174325,0.0012635629391297698,0.0005811689188703895,14389.0,13560.0,14081.0,13738.0,0.4653424322605133,0.41035887598991394,0.44449344277381897,0.42186805605888367,0.0,0.0,0.0,0.0,14077.0,13669.0,13965.0,13900.0,1.7623871564865112,-0.080599466327406,0.14521692075708237,0.06587961802075501,0.044062137603759766,0.02586708776652813,0.0
397,5,-0.0012562447227537632,-3.3822863770183176e-05,0.0007050143321976066,-0.014847660437226295,0.005106087774038315,-0.001667344942688942,0.00470251590013504,-0.022862156853079796,0.005587705876678228,-0.009414177387952805,-0.10968425124883652,0.02194085717201233,0.0,0.0,0.0,-0.00013695491361431777,-0.01121584977954626,-0.0,0.0,0.0,0.0,-0.0003905170888174325,0.0012635629391297698,0.0005811689188703895,14389.0,13560.0,14081.0,13738.0,0.4653424322605133,0.41035887598991394,0.44449344277381897,0.42186805605888367,0.0,0.0,0.0,0.0,14077.0,13669.0,13965.0,13900.0,1.7525478601455688,-0.0823243443933155,0.14418241980950788,0.06528729084768534,0.04736361652612686,-0.00044489349238574505,0.0
402,5,-0.0012858205009251833,-1.098028678825358e-05,0.0006770160980522633,-0.009488152340054512,-0.000698674179147929,0.0026928505394607782,0.004589483141899109,-0.02132508158683777,0.0056367176584899426,-0.013256557285785675,-0.05317949503660202,-0.011383953504264355,0.0,0.0,0.0,-0.00013695491361431777,-0.01121584977954626,-0.0,0.0,0.0,0.0,0.0013591774040833116,0.0015747321303933859,0.0004111925372853875,14132.0,13740.0,14048.0,14165.0,0.4479449689388275,0.421987920999527,0.4423215091228485,0.4501327574253082,0.0,0.0,0.0,0.0,14585.0,13355.0,14377.0,13420.0,1.7525478601455688,-0.08085956142747866,0.14450325082401405,0.06633753284367672,0.04736361652612686,-0.00044489349238574505,0.0
407,5,-0.0013424333883449435,-8.083537977654487e-06,0.0006863485323265195,-0.010588807985186577,-0.0006270795711316168,-4.2750281863845885e-05,0.004589483141899109,-0.02132508158683777,0.0056367176584899426,-0.013256557285785675,-0.05317949503660202,-0.011383953504264355,0.0,0.0,0.0,0.0007925856625661254,-0.010178144089877605,-0.0,0.0,0.0,0.0,0.0013591774040833116,0.0015747321303933859,0.0004111925372853875,14132.0,13740.0,14048.0,14165.0,0.4479449689388275,0.421987920999527,0.4423215091228485,0.4501327574253082,0.0,0.0,0.0,0.0,14585.0,13355.0,14377.0,13420.0,1.740386962890625,-0.08068940089221067,0.14434257045556498,0.06639475835767433,0.04268337041139603,0.0025568220298737288,-0.0
412,5,-0.001410899916663766,-7.046405698929448e-06,0.0007083463133312762,-0.012451518326997757,-0.0003752876364160329,-0.002656837459653616,0.004589483141899109,-0.02132508158683777,0.0056367176584899426,-0.013256557285785675,-0.05317949503660202,-0.011383953504264355,0.0,0.0,0.0,0.0007925856625661254,-0.010178144089877605,-0.0,0.0,0.0,0.0,0.0007383236661553383,0.0007510023424401879,0.0010957112535834312,14388.0,13793.0,14106.0,13643.0,0.46526530385017395,0.4254537522792816,0.4461560547351837,0.41567274928092957,0.0,0.0,0.0,0.0,14418.0,13465.0,14390.0,13792.0,1.740386962890625,-0.08064204690759864,0.144226824085731,0.06629256696353533,0.04268337041139603,0.0025568220298737288,-0.0
418,5,-0.0015030000358819962,-6.81992169120349e-05,0.0007049673004075885,-0.016032619401812553,0.0071882219053804874,-0.0006572541897185147,0.004589483141899109,-0.02132508158683777,0.0056367176584899426,-0.013256557285785675,-0.05317949503660202,-0.011383953504264355,0.0,0.0,0.0,0.0007925856625661254,-0.010178144089877605,-0.0,0.0,0.0,0.0,0.0007383236661553383,0.0007510023424401879,0.0010957112535834312,14388.0,13793.0,14106.0,13643.0,0.46526530385017395,0.4254537522792816,0.4461560547351837,0.41567274928092957,0.0,0.0,0.0,0.0,14418.0,13465.0,14390.0,13792.0,1.740386962890625,-0.08147246816573679,0.14314307620270922,0.06618879762469078,0.06842486560344696,-0.027333980426192284,0.0
423,5,-0.0015303073450922966,-3.242342427256517e-05,0.000697834650054574,-0.009689918719232082,-0.001417806139215827,0.0005930183106102049,0.004666822496801615,-0.019460704177618027,0.0058535425923764706,-0.0036460859701037407,-0.1063915565609932,0.025258202105760574,0.0,0.0,0.0,-0.008096707984805107,-0.015591912902891636,-0.0,0.0,0.0,0.0,-0.0009978997986763716,0.00022606150014325976,0.0012687182752415538,14498.0,13491.0,14363.0,13368.0,0.4728313088417053,0.4058971405029297,0.4635855555534363,0.3980729579925537,0.0,0.0,0.0,0.0,14212.0,13936.0,13939.0,13852.0,1.8213545083999634,-0.07981039425351204,0.14311501836642262,0.06650417465325423,0.06842486560344696,-0.027333980426192284,0.0
428,5,-0.0015931982779875398,-3.8745936763007194e-05,0.0007142920512706041,-0.011422885581851006,0.0001915791945066303,-0.001737684360705316,0.004666822496801615,-0.019460704177618027,0.0058535425923764706,-0.0036460859701037407,-0.1063915565609932,0.025258202105760574,0.0,0.0,0.0,-0.008096707984805107,-0.015591912902891636,-0.0,0.0,0.0,0.0,-0.0009978997986763716,0.00022606150014325976,0.0012687182752415538,14498.0,13491.0,14363.0,13368.0,0.4728313088417053,0.4058971405029297,0.4635855555534363,0.3980729579925537,0.0,0.0,0.0,0.0,14212.0,13936.0,13939.0,13852.0,1.8213545083999634,-0.07864438726076259,0.14257397531097818,0.066525178561998,0.06842486560344696,-0.027333980426192284,0.0
433,5,-0.0016418154118582606,-5.501746272784658e-05,0.0006993546267040074,-0.010403204709291458,0.002029214520007372,0.001097417902201414,0.00474138418212533,-0.018801266327500343,0.005749719217419624,-0.013346659019589424,-0.0818367525935173,0.003019867232069373,0.0,0.0,0.0,-0.000285900488961488,-0.012150391936302185,-0.0,0.0,0.0,0.0,-0.0011639061849564314,0.0006941460305824876,0.0001444279041606933,14557.0,14387.0,14241.0,13770.0,0.4769159257411957,0.46520277857780457,0.45526590943336487,0.42396989464759827,0.0,0.0,0.0,0.0,14402.0,13645.0,14130.0,13564.0,1.76382315158844,-0.07949524605818274,0.14210228748761677,0.06685905671944208,0.05164003372192383,-0.0009347134036943316,0.0
438,5,-0.0017159191193059087,-8.613872341811657e-05,0.000709613726940006,-0.013053723610937595,0.004546236712485552,-0.0007921238429844379,0.00474138418212533,-0.018801266327500343,0.005749719217419624,-0.013346659019589424,-0.0818367525935173,0.003019867232069373,0.0,0.0,0.0,-0.000285900488961488,-0.012150391936302185,-0.0,0.0,0.0,0.0,-0.0011639061849564314,0.0006941460305824876,0.0001444279041606933,14557.0,14387.0,14241.0,13770.0,0.4769159257411957,0.46520277857780457,0.45526590943336487,0.42396989464759827,0.0,0.0,0.0,0.0,14402.0,13645.0,14130.0,13564.0,1.76382315158844,-0.07986592821218273,0.14174047426647832,0.06642765856864684,0.05164003372192383,-0.0009347134036943316,0.0
443,5,-0.0017517074011266232,-6.71615925966762e-05,0.000713747984264046,-0.009516085498034954,-0.00045876059448346496,-0.0008129591005854309,0.004714337643235922,-0.017942702397704124,0.005740901920944452,-0.00713462196290493,-0.06063235178589821,-0.021987777203321457,0.0,0.0,0.0,-0.005287046544253826,-0.013561160303652287,-0.0,0.0,0.0,0.0,-0.003846794366836548,-0.0006592207937501371,0.0001294774847337976,14150.0,14087.0,13923.0,13950.0,0.44912534952163696,0.4448779225349426,0.4340224862098694,0.43579739332199097,0.0,0.0,0.0,0.0,14771.0,14202.0,14394.0,13574.0,1.7883639335632324,-0.07932795255970715,0.14155514367098665,0.06725479899944459,0.058436647057533264,-0.01752564124763012,0.0
448,5,-0.0018017878755927086,-7.330540393013507e-05,0.0007212723721750081,-0.009816085919737816,0.0005537534016184509,-0.001228112494572997,0.004714337643235922,-0.017942702397704124,0.005740901920944452,-0.00713462196290493,-0.06063235178589821,-0.021987777203321457,0.0,0.0,0.0,-0.005287046544253826,-0.013561160303652287,-0.0,0.0,0.0,0.0,-0.003846794366836548,-0.0006592207937501371,0.0001294774847337976,14150.0,14087.0,13923.0,13950.0,0.44912534952163696,0.4448779225349426,0.4340224862098694,0.43579739332199097,0.0,0.0,0.0,0.0,14771.0,14202.0,14394.0,13574.0,1.7883639335632324,-0.0790839667808166,0.14100545753571433,0.06741736615364377,0.058436647057533264,-0.01752564124763012,0.0
453,5,-0.0018462131265550852,-8.893128688214347e-05,0.0007230996852740645,-0.009257474914193153,0.0020966066513210535,-0.0007105177501216531,0.00467112148180604,-0.017511697486042976,0.005826638080179691,0.013315705582499504,-0.07611528038978577,0.000896720215678215,0.0,0.0,0.0,-0.0007651203195564449,-0.011085012927651405,-0.0,0.0,0.0,0.0,-0.0015305161941796541,0.00031486115767620504,0.0011032815091311932,14598.0,14038.0,14251.0,13571.0,0.47974640130996704,0.4416213631629944,0.4559509754180908,0.4110451936721802,0.0,0.0,0.0,0.0,14229.0,14037.0,13911.0,13931.0,1.751161813735962,-0.07884696869461195,0.1404443588579279,0.0675410008192044,0.046774089336395264,-0.002483501797541976,0.0
458,5,-0.001907594851218164,-0.00010842958727153018,0.0007324583712033927,-0.011068790219724178,0.003178439335897565,-0.00140725530218333,0.00467112148180604,-0.017511697486042976,0.005826638080179691,0.013315705582499504,-0.07611528038978577,0.000896720215678215,0.0,0.0,0.0,-0.0007651203195564449,-0.011085012927651405,-0.0,0.0,0.0,0.0,-0.0015305161941796541,0.00031486115767620504,0.0011032815091311932,14598.0,14038.0,14251.0,13571.0,0.47974640130996704,0.4416213631629944,0.4559509754180908,0.4110451936721802,0.0,0.0,0.0,0.0,14229.0,14037.0,13911.0,13931.0,1.751161813735962,-0.07958165545610428,0.1401992526416036,0.06743063476097985,0.046774089336395264,-0.002483501797541976,0.0
463,5,-0.0019222731934860349,-0.00015408714534714818,0.0006602524663321674,-0.0061889211647212505,0.00675028283149004,0.008101806975901127,0.004702396225184202,-0.016379276290535927,0.005698296707123518,0.005728340707719326,-0.09759005159139633,0.009667453356087208,0.0,0.0,0.0,-0.003818597411736846,-0.01221484411507845,-0.0,0.0,0.0,0.0,-0.0031205613631755114,-0.0010875570587813854,0.0005146430339664221,14302.0,13889.0,14135.0,13585.0,0.4594053626060486,0.43172508478164673,0.44809067249298096,0.41194069385528564,0.0,0.0,0.0,0.0,14305.0,14353.0,13994.0,13819.0,1.7688100337982178,-0.07952225174658095,0.13834024621690197,0.06857584279107776,0.05206034705042839,-0.012519636191427708,0.0
468,5,-0.0019797987770289183,-0.00013457339082378894,0.0007196106016635895,-0.00937864650040865,0.00035846291575580835,-0.0038822521455585957,0.004702396225184202,-0.016379276290535927,0.005698296707123518,0.005728340707719326,-0.09759005159139633,0.009667453356087208,0.0,0.0,0.0,-0.003818597411736846,-0.01221484411507845,-0.0,0.0,0.0,0.0,-0.0031205613631755114,-0.0010875570587813854,0.0005146430339664221,14302.0,13889.0,14135.0,13585.0,0.4594053626060486,0.43172508478164673,0.44809067249298096,0.41194069385528564,0.0,0.0,0.0,0.0,14305.0,14353.0,13994.0,13819.0,1.7688100337982178,-0.07877934640171894,0.1386004569089326,0.06806370601887224,0.05206034705042839,-0.012519636191427708,0.0
474,5,-0.0020501199178397655,-0.0001892609434435144,0.0006299041560851038,-0.007936757989227772,0.0036191879771649837,0.0063001723028719425,0.004748675972223282,-0.015782803297042847,0.005575708579272032,0.0016650659963488579,-0.05132065713405609,-0.017632057890295982,0.0,0.0,0.0,-0.0006442243466153741,-0.010942483320832253,-0.0,0.0,0.0,0.0,-0.0017457092180848122,3.495722194202244e-05,3.726304566953331e-05,14114.0,14073.0,13857.0,13874.0,0.4467351734638214,0.44398900866508484,0.42965391278266907,0.4307837188243866,0.0,0.0,0.0,0.0,14427.0,13748.0,14288.0,13434.0,1.749403953552246,-0.08040266124176705,0.13639124959548962,0.06819927627160945,0.0461263582110405,-0.002088987035676837,0.0
