timestamp,dt,pos_x,pos_y,pos_z,vel_x,vel_y,vel_z,roll,pitch,yaw,agv_x,agv_y,agv_z,x_ref,y_ref,z_ref,roll_ref,pitch_ref,yaw_ref,x_vel_ref,y_vel_ref,z_vel_ref,x_torque,y_torque,z_torque,w0,w1,w2,w3,u0,u1,u2,u3,m0req,m1req,m2req,m3req,thrust0,thrust1,thrust2,thrust3,thrust_ref,roll_vicon,pitch_vicon,yaw_vicon,acc_x,acc_y,acc_z
5,5,0.0,0.0,0.0,0.0003546845109667629,-0.001977823907509446,-0.0023853639140725136,8.519459515810013e-05,0.044126223772764206,0.006248146295547485,0.001763592124916613,0.0009390313061885536,-0.000994074740447104,0.0,0.0,0.0,0.0024307207204401493,0.000335310265654698,-0.0,0.0,0.0,0.0,-6.46771295578219e-05,-0.013146205805242062,0.0006313339108601213,1495.0,1495.0,1495.0,1495.0,0.0,0.0,0.0,0.0,0.0,0.0,0.0,0.0,1495.0,1495.0,1495.0,1495.0,1.6461751461029053,3.0687672791536347,0.27095274948417347,-0.0077887633423396095,-0.0013300669379532337,0.007416839711368084,0.0
27,22,0.0,0.0,0.0,-0.0006805169978179038,-0.001051873667165637,-0.005033313296735287,8.519459515810013e-05,0.044126223772764206,0.006248146295547485,0.001763592124916613,0.0009390313061885536,-0.000994074740447104,0.0,0.0,0.0,0.0024307207204401493,0.000335310265654698,-0.0,0.0,0.0,0.0,-6.46771295578219e-05,-0.013146205805242062,0.0006313339108601213,1495.0,1495.0,1495.0,1495.0,0.0,0.0,0.0,0.0,0.0,0.0,0.0,0.0,1495.0,1495.0,1495.0,1495.0,1.6461751461029053,3.065012683114349,0.27014558546096423,-0.007427711289692336,-0.0013300669379532337,0.007416839711368084,0.0
41,14,0.0,0.0,0.0,-0.0010189522290602326,-0.0003424221067689359,-0.000930968439206481,9.312427573604509e-05,0.044172100722789764,0.006225929595530033,0.00449812738224864,-0.0011600765865296125,-0.0008281664340756834,0.0,0.0,0.0,0.000423271965701133,-0.0009688761783763766,-0.0,0.0,0.0,0.0,-0.0001210122209158726,-0.013347524218261242,0.000603945052716881,1495.0,1495.0,1495.0,1495.0,0.0,0.0,0.0,0.0,0.0,0.0,0.0,0.0,1495.0,1495.0,1495.0,1495.0,1.6366846561431885,3.0662514486808945,0.2703032249413101,-0.007247540772850841,0.003821070771664381,0.0012840828858315945,0.0
48,7,0.0,0.0,0.0,-0.0010189522290602326,-0.0003424221067689359,-0.000930968439206481,9.312427573604509e-05,0.044172100722789764,0.006225929595530033,0.00449812738224864,-0.0011600765865296125,-0.0008281664340756834,0.0,0.0,0.0,0.000423271965701133,-0.0009688761783763766,-0.0,0.0,0.0,0.0,-0.0001210122209158726,-0.013347524218261242,0.000603945052716881,1495.0,1495.0,1495.0,1495.0,0.0,0.0,0.0,0.0,0.0,0.0,0.0,0.0,1495.0,1495.0,1495.0,1495.0,1.6366846561431885,3.0662514486808945,0.2703032249413101,-0.007247540772850841,0.003821070771664381,0.0012840828858315945,0.0
53,5,0.0,0.0,0.0,0.0008726875530555844,-0.0009543197229504585,-0.004993163514882326,9.312427573604509e-05,0.044172100722789764,0.006225929595530033,0.00449812738224864,-0.0011600765865296125,-0.0008281664340756834,0.0,0.0,0.0,0.0011780495988205075,0.0008286769734695554,-0.0,0.0,0.0,0.0,0.0007093116291798651,-0.013206614181399345,0.0006302879774011672,1495.0,1495.0,1495.0,1495.0,0.0,0.0,0.0,0.0,0.0,0.0,0.0,0.0,1495.0,1495.0,1495.0,1495.0,1.6389029026031494,3.0667945269037538,0.27068629122042237,-0.007494243777381621,-0.003272578353062272,0.0035786989610642195,0.0
58,5,0.0,0.0,0.0,0.0007035884773358703,-0.0005299285985529423,-0.004779909737408161,9.312427573604509e-05,0.044172100722789764,0.006225929595530033,0.00449812738224864,-0.0011600765865296125,-0.0008281664340756834,0.0,0.0,0.0,0.0011780495988205075,0.0008286769734695554,-0.0,0.0,0.0,0.0,0.0007093116291798651,-0.013206614181399345,0.0006302879774011672,1495.0,1495.0,1495.0,1495.0,0.0,0.0,0.0,0.0,0.0,0.0,0.0,0.0,1495.0,1495.0,1495.0,1495.0,1.6389029026031494,3.0664997834648218,0.2702126494639349,-0.007537371674552272,-0.003272578353062272,0.0035786989610642195,0.0
63,5,2.8010525056743063e-05,-7.889551852713339e-06,-5.8144905779045075e-05,0.0036426985170692205,0.000734774861484766,0.005065424833446741,8.188381616491824e-05,0.0441964715719223,0.006233316380530596,0.0007773829274810851,-0.002497034380212426,0.0022152189631015062,0.0,0.0,0.0,-0.0009074975387193263,0.003445523791015148,-0.0,0.0,0.0,0.0,0.0007414105930365622,-0.013130420818924904,0.0006118937744759023,1495.0,1495.0,1495.0,1495.0,0.0,0.0,0.0,0.0,0.0,0.0,0.0,0.0,1495.0,1495.0,1495.0,1495.0,1.6638799905776978,3.0692696904686247,0.27098186128543006,-0.008234826305011114,-0.013814275152981281,-0.002798825968056917,0.0
68,5,3.318347444292158e-05,1.3185855095798615e-05,1.411427183484193e-05,0.0020778332836925983,-0.0022351390216499567,-0.00664493115618825,8.188381616491824e-05,0.0441964715719223,0.006233316380530596,0.0007773829274810851,-0.002497034380212426,0.0022152189631015062,0.0,0.0,0.0,-0.0009074975387193263,0.003445523791015148,-0.0,0.0,0.0,0.0,0.0007414105930365622,-0.013130420818924904,0.0006118937744759023,1495.0,1495.0,1495.0,1495.0,0.0,0.0,0.0,0.0,0.0,0.0,0.0,0.0,1495.0,1495.0,1495.0,1495.0,1.6638799905776978,3.0665546102644745,0.2704658593737102,-0.007415011337107247,-0.013814275152981281,-0.002798825968056917,0.0
73,5,3.416951221879572e-05,-1.4100850421527866e-05,-5.723223875975236e-05,0.000949458044487983,0.002380348974838853,0.0059036086313426495,8.188381616491824e-05,0.0441964715719223,0.006233316380530596,0.0007773829274810851,-0.002497034380212426,0.0022152189631015062,0.0,0.0,0.0,-0.0009074975387193263,0.003445523791015148,-0.0,0.0,0.0,0.0,0.0007414105930365622,-0.013130420818924904,0.0006118937744759023,1495.0,1495.0,1495.0,1495.0,0.0,0.0,0.0,0.0,0.0,0.0,0.0,0.0,1495.0,1495.0,1495.0,1495.0,1.6638799905776978,3.0686186636142634,0.271513732147976,-0.007721236242862523,-0.013814275152981281,-0.002798825968056917,0.0
78,5,2.7912790756090544e-05,1.4765917512704618e-05,-3.8467373087769374e-05,-0.00037102351780049503,-0.0025118724443018436,0.00010965936962747946,7.071324944263324e-05,0.0441947877407074,0.006240710150450468,0.0016746209003031254,-0.00031321978894993663,0.003868550295010209,0.0,0.0,0.0,-0.0029401544015854597,0.0009415993699803948,-0.0,0.0,0.0,0.0,0.0006737991934642196,-0.013273604214191437,0.0007461825734935701,12831.0,14185.0,14747.0,12278.0,0.36480990052223206,0.4514927566051483,0.49014243483543396,0.33204784989356995,0.0,0.0,0.0,0.0,1495.0,1495.0,1495.0,1495.0,1.6521711349487305,3.069549170193867,0.27019768050575527,-0.007859668279841997,-0.0037486176006495953,-0.009003940038383007,0.0
83,5,8.192264431272633e-06,7.068048489600187e-06,-6.016613042447716e-05,-0.0025148726999759674,-8.100476406980306e-05,0.0026477149222046137,7.071324944263324e-05,0.0441947877407074,0.006240710150450468,0.0016746209003031254,-0.00031321978894993663,0.003868550295010209,0.0,0.0,0.0,-0.0029401544015854597,0.0009415993699803948,-0.0,0.0,0.0,0.0,0.0006737991934642196,-0.013273604214191437,0.0007461825734935701,12831.0,14185.0,14747.0,12278.0,0.36480990052223206,0.4514927566051483,0.49014243483543396,0.33204784989356995,0.0,0.0,0.0,0.0,1495.0,1495.0,1495.0,1495.0,1.6521711349487305,3.068468017723697,0.2711496197909762,-0.007476725596789365,-0.0037486176006495953,-0.009003940038383007,0.0
88,5,5.083257747173775e-06,8.949534276325721e-06,-6.957373261684552e-05,-0.0013790298253297806,-0.0002581801381893456,0.0021879978012293577,7.74462750996463e-05,0.04418462514877319,0.006245467811822891,0.004564255941659212,-0.0044080703519284725,0.0027381114196032286,0.0,0.0,0.0,0.00011193565296707675,-0.0023588857147842646,-0.0,0.0,0.0,0.0,0.00029563804855570197,-0.012989482842385769,0.0006169338012114167,12819.0,14222.0,14725.0,12242.0,0.36410394310951233,0.45397791266441345,0.4886111319065094,0.3299916684627533,0.0,0.0,0.0,0.0,12827.0,14210.0,14726.0,12246.0,1.6511919498443604,3.0679021241752853,0.27162700216874364,-0.008018730390718784,0.009385468438267708,0.000342589890351519,0.0
93,5,-3.6338340123620583e-06,3.4205468182335608e-06,-2.7786709324573167e-05,-0.0015976629219949245,0.0005602064193226397,-0.00413924315944314,7.74462750996463e-05,0.04418462514877319,0.006245467811822891,0.004564255941659212,-0.0044080703519284725,0.0027381114196032286,0.0,0.0,0.0,0.00011193565296707675,-0.0023588857147842646,-0.0,0.0,0.0,0.0,0.00029563804855570197,-0.012989482842385769,0.0006169338012114167,12819.0,14222.0,14725.0,12242.0,0.36410394310951233,0.45397791266441345,0.4886111319065094,0.3299916684627533,0.0,0.0,0.0,0.0,12827.0,14210.0,14726.0,12246.0,1.6511919498443604,3.067601608222403,0.2708345228469826,-0.00788410432993457,0.009385468438267708,0.000342589890351519,0.0
98,5,-2.2899780560692307e-06,-9.33322462515207e-06,-4.44867109763436e-05,-0.00047780247405171394,0.0017545351292937994,0.00034830268123187125,0.0001029023333103396,0.04417327791452408,0.0062617030926048756,0.0008522538118995726,0.004973567556589842,-0.0015195886371657252,0.0,0.0,0.0,-0.0006836529937572777,-0.0015182994538918138,-0.0,0.0,0.0,0.0,-0.00024880870478227735,-0.0120936194434762,0.0005565499886870384,13027.0,14276.0,14657.0,12510.0,0.37678807973861694,0.4576164484024048,0.483884334564209,0.34559112787246704,0.0,0.0,0.0,0.0,12837.0,14184.0,14680.0,12360.0,1.642997145652771,3.0681691282545436,0.27115412490812135,-0.008106132137167835,0.006010988261550665,-0.00208200141787529,0.0
103,5,-1.344354768662015e-05,-1.790651549526956e-05,-3.258197830291465e-05,-0.0015295493649318814,0.0017306088702753186,-0.0012892468366771936,0.0001029023333103396,0.04417327791452408,0.0062617030926048756,0.0008522538118995726,0.004973567556589842,-0.0015195886371657252,0.0,0.0,0.0,-0.0021547870710492134,-0.0014615945983678102,-0.0,0.0,0.0,0.0,-0.00024880870478227735,-0.0120936194434762,0.0005565499886870384,13027.0,14276.0,14657.0,12510.0,0.37678807973861694,0.4576164484024048,0.483884334564209,0.34559112787246704,0.0,0.0,0.0,0.0,12837.0,14184.0,14680.0,12360.0,1.6495511531829834,3.06849486550647,0.27091856882042753,-0.008185379605515547,0.005809563212096691,-0.006588371936231852,0.0
109,5,1.1612363778112922e-05,-2.4206667148973793e-05,-5.476364094647579e-05,0.0023948897141963243,0.0014482619008049369,0.002146101091057062,0.00010043626389233395,0.044128965586423874,0.006249232217669487,-0.0015061406884342432,-0.0012479041470214725,0.0018455153331160545,0.0,0.0,0.0,-0.0021547870710492134,-0.0014615945983678102,-0.0,0.0,0.0,0.0,-3.4833556128432974e-07,-0.013942267745733261,0.00066634506219998,12846.0,14306.0,14792.0,12285.0,0.36570069193840027,0.4596526324748993,0.49335208535194397,0.3324865400791168,0.0,0.0,0.0,0.0,13032.0,14282.0,14659.0,12495.0,1.6495511531829834,3.069806996865053,0.27253525036819903,-0.008528665661687817,0.005809563212096691,-0.006588371936231852,0.0
114,5,2.104110535583459e-05,-2.6376119421911426e-05,-4.4979384256294e-05,0.002089404733851552,0.0008396388147957623,-0.000315670418785885,0.00010043626389233395,0.044128965586423874,0.006249232217669487,-0.0015061406884342432,-0.0012479041470214725,0.0018455153331160545,0.0,0.0,0.0,-0.0021547870710492134,-0.0014615945983678102,-0.0,0.0,0.0,0.0,-3.4833556128432974e-07,-0.013942267745733261,0.00066634506219998,12846.0,14306.0,14792.0,12285.0,0.36570069193840027,0.4596526324748993,0.49335208535194397,0.3324865400791168,0.0,0.0,0.0,0.0,13032.0,14282.0,14659.0,12495.0,1.6495511531829834,3.0690481488616275,0.27184334544575167,-0.008093498959977501,0.005809563212096691,-0.006588371936231852,0.0
119,5,2.72017641691491e-05,-1.983656511583831e-05,-6.731382745783776e-05,0.0015750410966575146,-0.00044889087439514697,0.002553864847868681,0.00011434003681642935,0.044169746339321136,0.006278804503381252,0.001538109383545816,0.00034287796006537974,0.0004980554804205894,0.0,0.0,0.0,-0.001077616005204618,0.002000990556553006,-0.0,0.0,0.0,0.0,-0.0002459573734086007,-0.013808825984597206,0.0006780854309909046,12841.0,14287.0,14717.0,12262.0,0.3653978109359741,0.45837604999542236,0.4880749583244324,0.33114832639694214,0.0,0.0,0.0,0.0,12830.0,14293.0,14702.0,12284.0,1.6490705013275146,3.069517333888851,0.2717443566577932,-0.007991891934012984,-0.007951254025101662,-0.003293909365311265,0.0
124,5,3.0295441320049576e-05,-4.757696842716541e-06,-8.54683603392914e-05,0.0010012575658038259,-0.001989020500332117,0.0032000900246202946,0.00011434003681642935,0.044169746339321136,0.006278804503381252,0.001538109383545816,0.00034287796006537974,0.0004980554804205894,0.0,0.0,0.0,-0.001077616005204618,0.002000990556553006,-0.0,0.0,0.0,0.0,-0.0002459573734086007,-0.013808825984597206,0.0006780854309909046,12841.0,14287.0,14717.0,12262.0,0.3653978109359741,0.45837604999542236,0.4880749583244324,0.33114832639694214,0.0,0.0,0.0,0.0,12830.0,14293.0,14702.0,12284.0,1.6490705013275146,3.0706467571759846,0.27133728044391314,-0.008479772053549385,-0.007951254025101662,-0.003293909365311265,0.0
129,5,1.211348262586398e-05,-8.55317296100111e-07,-6.520918395835906e-05,-0.0017813319573178887,-0.001263893791474402,-0.001151065225712955,0.00011434003681642935,0.044169746339321136,0.006278804503381252,0.001538109383545816,0.00034287796006537974,0.0004980554804205894,0.0,0.0,0.0,0.0024323659017682076,0.000987255247309804,-0.0,0.0,0.0,0.0,-0.0002459573734086007,-0.013808825984597206,0.0006780854309909046,12841.0,14287.0,14717.0,12262.0,0.3653978109359741,0.45837604999542236,0.4880749583244324,0.33114832639694214,0.0,0.0,0.0,0.0,12830.0,14293.0,14702.0,12284.0,1.6485236883163452,3.0689232437474647,0.2707982193693417,-0.008329805513351995,-0.003921707160770893,0.007432447746396065,0.0
134,5,2.7178934033145197e-05,2.4116263830364915e-06,-7.329514482989907e-05,0.001095321262255311,-0.0008975907112471759,0.0005098892142996192,0.0001150884127127938,0.0441255047917366,0.006277803797274828,0.0011902477126568556,0.005276749841868877,0.002031180541962385,0.0,0.0,0.0,0.0024323659017682076,0.000987255247309804,-0.0,0.0,0.0,0.0,-0.0006765087018720806,-0.01375577598810196,0.0006363512948155403,12925.0,14314.0,14719.0,12252.0,0.3705596923828125,0.46025121212005615,0.48817068338394165,0.3305695652961731,0.0,0.0,0.0,0.0,12912.0,14329.0,14713.0,12256.0,1.6485236883163452,3.0676243194632846,0.27154183591594905,-0.007988847073742684,-0.003921707160770893,0.007432447746396065,0.0
139,5,1.2384388355712872e-05,-3.969410954596242e-06,-9.541180043015629e-05,-0.0013372169341892004,0.0004066881665494293,0.0028579547069966793,0.0001150884127127938,0.0441255047917366,0.006277803797274828,0.0011902477126568556,0.005276749841868877,0.002031180541962385,0.0,0.0,0.0,0.0011112440843135118,0.0010770087828859687,-0.0,0.0,0.0,0.0,-0.0006765087018720806,-0.01375577598810196,0.0006363512948155403,12925.0,14314.0,14719.0,12252.0,0.3705596923828125,0.46025121212005615,0.48817068338394165,0.3305695652961731,0.0,0.0,0.0,0.0,12912.0,14329.0,14713.0,12256.0,1.640490174293518,3.0695645935213705,0.27119936155466223,-0.008286061380141927,-0.004257400054484606,0.0033790257293730974,0.0
144,5,-2.042769153831614e-07,-7.0610617513011675e-06,-5.467266237246804e-05,-0.002045526634901762,0.0005336733884178102,-0.0037455151323229074,9.032386151375249e-05,0.04416478052735329,0.006273528095334768,0.0017267755465582013,-0.00038035906618461013,-0.00013524305541068316,0.0,0.0,0.0,0.0011112440843135118,0.0010770087828859687,-0.0,0.0,0.0,0.0,-0.0003636007313616574,-0.012760689482092857,0.0006112050614319742,12845.0,14205.0,14744.0,12416.0,0.36563950777053833,0.45281022787094116,0.4899618625640869,0.3401120901107788,0.0,0.0,0.0,0.0,12932.0,14255.0,14665.0,12371.0,1.640490174293518,3.069221381082388,0.2712982221229093,-0.008116270778691871,-0.004257400054484606,0.0033790257293730974,0.0
149,5,1.1843523139987155e-07,-1.697049265203532e-05,-6.383799336617813e-05,-0.0007794851553626359,0.001402601134032011,-0.00039836575160734355,9.032386151375249e-05,0.04416478052735329,0.006273528095334768,0.0017267755465582013,-0.00038035906618461013,-0.00013524305541068316,0.0,0.0,0.0,-0.0006682376260869205,-0.0019326778128743172,-0.0,0.0,0.0,0.0,-0.0003636007313616574,-0.012760689482092857,0.0006112050614319742,12845.0,14205.0,14744.0,12416.0,0.36563950777053833,0.45281022787094116,0.4899618625640869,0.3401120901107788,0.0,0.0,0.0,0.0,12932.0,14255.0,14665.0,12371.0,1.6472630500793457,3.068333078426733,0.27252768647598674,-0.008070517236142398,0.007671387866139412,-0.002040339168161154,0.0
154,5,-1.7304512311966391e-06,-1.8342887415201403e-05,-5.904019417357631e-05,-0.0005336604663170874,0.0007257277029566467,-0.0007350824307650328,8.488416642649099e-05,0.04416513070464134,0.006285388953983784,2.280631997564342e-05,0.005023428704589605,-0.0019829643424600363,0.0,0.0,0.0,-0.0006682376260869205,-0.0019326778128743172,-0.0,0.0,0.0,0.0,0.0007039544289000332,-0.012968105264008045,0.0006465965416282415,12834.0,14211.0,14722.0,12447.0,0.3649832308292389,0.4532112181186676,0.4884205162525177,0.341908723115921,0.0,0.0,0.0,0.0,12872.0,14176.0,14767.0,12393.0,1.6472630500793457,3.068575614613933,0.27179364518465476,-0.008147190112576412,0.007671387866139412,-0.002040339168161154,0.0
159,5,-1.7978628648052108e-06,-5.524923835764639e-06,-3.209001079085283e-05,-0.00022155357873998582,-0.0012478645658120513,-0.0035280552692711353,8.488416642649099e-05,0.04416513070464134,0.006285388953983784,2.280631997564342e-05,0.005023428704589605,-0.0019829643424600363,0.0,0.0,0.0,-0.0009313047048635781,-0.0005102100549265742,-0.0,0.0,0.0,0.0,0.0007039544289000332,-0.012968105264008045,0.0006465965416282415,12834.0,14211.0,14722.0,12447.0,0.3649832308292389,0.4532112181186676,0.4884205162525177,0.341908723115921,0.0,0.0,0.0,0.0,12872.0,14176.0,14767.0,12393.0,1.6351511478424072,3.0689405825914022,0.27065954929853064,-0.007852348585083406,0.002010289579629898,-0.0028226571157574654,0.0
164,5,3.981739155278774e-06,-1.1774223821703345e-05,-2.933897303591948e-05,0.0006049308576621115,0.0002507702447474003,-0.0017413465538993478,6.84575570630841e-05,0.04412156715989113,0.006278197281062603,-0.001020337687805295,0.0038050988223403692,0.0014906392898410559,0.0,0.0,0.0,-0.0009313047048635781,-0.0005102100549265742,-0.0,0.0,0.0,0.0,0.00033434966462664306,-0.012909568846225739,0.000642570958007127,12863.0,14172.0,14702.0,12348.0,0.36678576469421387,0.4506187438964844,0.486985981464386,0.33609968423843384,0.0,0.0,0.0,0.0,12857.0,14302.0,14756.0,12255.0,1.6351511478424072,3.067585990607166,0.2714702415758495,-0.007932747743132667,0.002010289579629898,-0.0028226571157574654,0.0
169,5,1.0881806701945607e-05,3.530847720867314e-07,-3.804138759733178e-05,0.0010699804406613111,-0.0013549689901992679,0.0003477510763332248,6.84575570630841e-05,0.04412156715989113,0.006278197281062603,-0.001020337687805295,0.0038050988223403692,0.0014906392898410559,0.0,0.0,0.0,-0.00033227825770154595,0.0005823491374030709,-0.0,0.0,0.0,0.0,0.00033434966462664306,-0.012909568846225739,0.000642570958007127,12863.0,14172.0,14702.0,12348.0,0.36678576469421387,0.4506187438964844,0.486985981464386,0.33609968423843384,0.0,0.0,0.0,0.0,12857.0,14302.0,14756.0,12255.0,1.6325371265411377,3.0667498206569923,0.27173366578739117,-0.007881160863060377,-0.0022908588871359825,-0.0010054801823571324,0.0
175,5,1.1959636140090879e-05,-6.974580173846334e-06,-4.030754280393012e-05,0.0005573317175731063,0.0003373321960680187,0.00041103901457972825,0.00010772761015687138,0.044134337455034256,0.0062274206429719925,0.009335121139883995,0.004251404665410519,-0.02877509407699108,0.0,0.0,0.0,-0.00033227825770154595,0.0005823491374030709,-0.0,0.0,0.0,0.0,-0.00035898637725040317,-0.01393232773989439,0.000292858894681558,12556.0,14581.0,14466.0,12579.0,0.3483564853668213,0.4785842299461365,0.4706384539604187,0.34968388080596924,0.0,0.0,0.0,0.0,12592.0,14455.0,14437.0,12519.0,1.6325371265411377,3.0680614784407956,0.27019018986072835,-0.008516598070608053,-0.0022908588871359825,-0.0010054801823571324,0.0
180,5,3.5170246519555803e-06,3.180230578436749e-06,-5.2395091188373044e-05,-0.0007901807548478246,-0.001083644456230104,0.0016149213770404458,0.00010772761015687138,0.044134337455034256,0.0062274206429719925,0.009335121139883995,0.004251404665410519,-0.02877509407699108,0.0,0.0,0.0,-0.0004308218776714057,0.0005481226253323257,-0.0,0.0,0.0,0.0,-0.00035898637725040317,-0.01393232773989439,0.000292858894681558,12556.0,14581.0,14466.0,12579.0,0.3483564853668213,0.4785842299461365,0.4706384539604187,0.34968388080596924,0.0,0.0,0.0,0.0,12592.0,14455.0,14437.0,12519.0,1.632585883140564,3.067364728783504,0.2722715432910239,-0.007997407440692782,-0.0021562823094427586,-0.0013037138851359487,0.0
185,5,8.514536602888256e-06,-2.4969715013867244e-05,-7.611609908053651e-05,0.00028362919692881405,0.0029445358086377382,0.0034924899227917194,0.00010006843513110653,0.04413852095603943,0.006539229303598404,-0.005447590257972479,-0.0047441995702683926,0.05929742380976677,0.0,0.0,0.0,-0.0004308218776714057,0.0005481226253323257,-0.0,0.0,0.0,0.0,-0.00030313379829749465,-0.013703948818147182,0.002937216544523835,13423.0,13678.0,15214.0,11566.0,0.40156227350234985,0.4179290533065796,0.5234829187393188,0.29217690229415894,0.0,0.0,0.0,0.0,11913.0,14952.0,13833.0,13216.0,1.632585883140564,3.0681177954692105,0.2729022806500415,-0.008106548376763391,-0.0021562823094427586,-0.0013037138851359487,0.0
190,5,4.4872522266814485e-06,-4.616550995706348e-06,-5.343719385564327e-05,-0.000369822490029037,-0.0012645653914660215,-0.0013244731817394495,0.00010006843513110653,0.04413852095603943,0.006539229303598404,-0.005447590257972479,-0.0047441995702683926,0.05929742380976677,0.0,0.0,0.0,-0.0036418414674699306,0.00027838852838613093,-0.0,0.0,0.0,0.0,-0.00030313379829749465,-0.013703948818147182,0.002937216544523835,13423.0,13678.0,15214.0,11566.0,0.40156227350234985,0.4179290533065796,0.5234829187393188,0.29217690229415894,0.0,0.0,0.0,0.0,11913.0,14952.0,13833.0,13216.0,1.6561731100082397,3.068334522796634,0.27089276688214814,-0.008400626280355993,-0.001110979588702321,-0.011179788038134575,0.0
195,5,-5.7947804634750355e-06,-1.0469438166182954e-05,-5.1616054406622425e-05,-0.0013817729195579886,0.0001965202682185918,-0.0007483260123990476,0.00017245592607650906,0.04398410767316818,0.005992204416543245,0.02526245452463627,-0.00517056230455637,0.0877874568104744,0.0,0.0,0.0,-0.0036418414674699306,0.00027838852838613093,-0.0,0.0,0.0,0.0,-0.0004745880432892591,-0.01266185287386179,0.00019785077893175185,13718.0,13407.0,15389.0,11248.0,0.4205625653266907,0.40054190158843994,0.5362805724143982,0.2751520872116089,0.0,0.0,0.0,0.0,14099.0,12958.0,15857.0,10621.0,1.6561731100082397,3.067718283771589,0.27121073738613505,-0.0076854655692995865,-0.001110979588702321,-0.011179788038134575,0.0
200,5,-4.0151817302103154e-06,-2.956913704110775e-06,-7.392289262497798e-05,-0.00033915735548362136,-0.0008228947990573943,0.0023774902801960707,0.00017245592607650906,0.04398410767316818,0.005992204416543245,0.02526245452463627,-0.00517056230455637,0.0877874568104744,0.0,0.0,0.0,-0.0002615227422211319,-0.0013191028265282512,-0.0,0.0,0.0,0.0,-0.0004745880432892591,-0.01266185287386179,0.00019785077893175185,13718.0,13407.0,15389.0,11248.0,0.4205625653266907,0.40054190158843994,0.5362805724143982,0.2751520872116089,0.0,0.0,0.0,0.0,14099.0,12958.0,15857.0,10621.0,1.6400507688522339,3.068027825618708,0.2711135461240574,-0.008221839338959373,0.005212999880313873,-0.000795014959294349,0.0
205,5,-1.0030356861534528e-05,2.1599939827865455e-06,-4.821040784008801e-05,-0.0008574840030632913,-0.0009431868675164878,-0.0021345019340515137,-2.4298939024447463e-05,0.04406297951936722,0.0062782494351267815,-0.026037780568003654,0.03059465065598488,-0.07827842980623245,0.0,0.0,0.0,-0.0002615227422211319,-0.0013191028265282512,-0.0,0.0,0.0,0.0,0.0005768538685515523,-0.012883469462394714,-0.001371630816720426,12020.0,14837.0,13903.0,13178.0,0.3172950744628906,0.49647587537765503,0.4326890707015991,0.3861258625984192,0.0,0.0,0.0,0.0,13252.0,13881.0,14907.0,11873.0,1.6400507688522339,3.0681684552017288,0.2710343150447077,-0.008137277231087021,0.005212999880313873,-0.000795014959294349,0.0
210,5,-1.033609987644013e-05,-5.684150437446078e-06,-4.119892037124373e-05,-0.00037968269316479564,0.0005640225717797875,-0.001695179147645831,-2.4298939024447463e-05,0.04406297951936722,0.0062782494351267815,-0.026037780568003654,0.03059465065598488,-0.07827842980623245,0.0,0.0,0.0,0.0011681073810905218,-0.0008281194604933262,-0.0,0.0,0.0,0.0,0.0005768538685515523,-0.012883469462394714,-0.001371630816720426,12020.0,14837.0,13903.0,13178.0,0.3172950744628906,0.49647587537765503,0.4326890707015991,0.3861258625984192,0.0,0.0,0.0,0.0,13252.0,13881.0,14907.0,11873.0,1.6388380527496338,3.0680856065871716,0.27126109745620375,-0.00868228941477212,0.0032702472526580095,0.0035483562387526035,0.0
215,5,-1.1809547686425503e-05,-1.534099101263564e-05,-3.165853922837414e-05,-0.00032868681591935456,0.0013844299828633666,-0.0018229177221655846,0.00020065145508851856,0.04409969598054886,0.006409878376871347,-0.012247029691934586,0.0005247908411547542,-0.029033049941062927,0.0,0.0,0.0,0.0011681073810905218,-0.0008281194604933262,-0.0,0.0,0.0,0.0,-0.0013706334866583347,-0.013689495623111725,0.00017078101518563926,12684.0,14607.0,14433.0,12610.0,0.35595232248306274,0.4803740382194519,0.46832555532455444,0.35152119398117065,0.0,0.0,0.0,0.0,13312.0,14046.0,14886.0,12058.0,1.6388380527496338,3.069185469790806,0.27191102572124853,-0.00833359158702714,0.0032702472526580095,0.0035483562387526035,0.0
221,5,-9.936159585777204e-06,-5.8381538110552356e-06,-8.734653420106042e-06,9.33317860472016e-05,-0.0005865684943273664,-0.0034800332505255938,0.00020065145508851856,0.04409969598054886,0.006409878376871347,-0.012247029691934586,0.0005247908411547542,-0.029033049941062927,0.0,0.0,0.0,-0.0017352680442854762,-0.00032812892459332943,-0.0,0.0,0.0,0.0,-0.0013706334866583347,-0.013689495623111725,0.00017078101518563926,12684.0,14607.0,14433.0,12610.0,0.35595232248306274,0.4803740382194519,0.46832555532455444,0.35152119398117065,0.0,0.0,0.0,0.0,13312.0,14046.0,14886.0,12058.0,1.6404860019683838,3.0690429688543412,0.27098331740380655,-0.008688101023186904,0.0012970846146345139,-0.005276516079902649,0.0
226,5,-1.169657025457127e-05,9.630490467316122e-07,7.1070148806029465e-06,-0.0001739165891194716,-0.001050771796144545,-0.003293013432994485,0.0003579277836252004,0.04401504993438721,0.0063547976315021515,0.03607559949159622,-0.0026867769192904234,-0.04386001080274582,0.0,0.0,0.0,-0.0017352680442854762,-0.00032812892459332943,-0.0,0.0,0.0,0.0,0.00050893216393888,-0.014428040012717247,0.0014696945436298847,12401.0,14708.0,14284.0,12671.0,0.3392256200313568,0.4874347746372223,0.45817968249320984,0.35521069169044495,0.0,0.0,0.0,0.0,12881.0,14247.0,14738.0,12190.0,1.6404860019683838,3.0689158358012087,0.27105308710916964,-0.008163603135710946,0.0012970846146345139,-0.005276516079902649,0.0
231,5,-2.332399890292436e-05,2.4239157028205227e-06,2.1593583369394764e-05,-0.0014648579526692629,-0.0005956126842647791,-0.0030555936973541975,0.0003579277836252004,0.04401504993438721,0.0063547976315021515,0.03607559949159622,-0.0026867769192904234,-0.04386001080274582,0.0,0.0,0.0,0.0013004906941205263,-0.00018158585589844733,-0.0,0.0,0.0,0.0,0.00050893216393888,-0.014428040012717247,0.0014696945436298847,12401.0,14708.0,14284.0,12671.0,0.3392256200313568,0.4874347746372223,0.45817968249320984,0.35521069169044495,0.0,0.0,0.0,0.0,12881.0,14247.0,14738.0,12190.0,1.6366270780563354,3.0688566307842176,0.2716105151270069,-0.008056348227611018,0.0007161158719100058,0.003945166245102882,0.0
236,5,-3.090574682573788e-05,1.3990186289447593e-06,-4.48349783255253e-06,-0.0014957529492676258,-0.00011525742593221366,0.001907012308947742,0.0003579277836252004,0.04401504993438721,0.0063547976315021515,0.03607559949159622,-0.0026867769192904234,-0.04386001080274582,0.0,0.0,0.0,0.0013004906941205263,-0.00018158585589844733,-0.0,0.0,0.0,0.0,0.00050893216393888,-0.014428040012717247,0.0014696945436298847,12401.0,14708.0,14284.0,12671.0,0.3392256200313568,0.4874347746372223,0.45817968249320984,0.35521069169044495,0.0,0.0,0.0,0.0,12881.0,14247.0,14738.0,12190.0,1.6366270780563354,3.0693232782748896,0.2724575677953704,-0.00891588424107304,0.0007161158719100058,0.003945166245102882,0.0
241,5,-6.111307448009029e-05,1.3744475836574566e-05,4.781271854881197e-05,-0.004223180469125509,-0.001527557848021388,-0.005512741394340992,0.0002935709781013429,0.044139303267002106,0.0065986174158751965,0.007063861936330795,-0.036327581852674484,-0.03600453957915306,0.0,0.0,0.0,0.00014441425446420908,-0.0014610037906095386,-0.0,0.0,0.0,0.0,-0.0006314549827948213,-0.01449152547866106,0.0027402250561863184,12366.0,14615.0,14467.0,12584.0,0.33719685673713684,0.48092690110206604,0.47072717547416687,0.34998711943626404,0.0,0.0,0.0,0.0,11916.0,15049.0,13976.0,13052.0,1.6414649486541748,3.0667407539140714,0.27131892730871704,-0.00804781623861522,0.005778760649263859,0.0004393900453578681,0.0
246,5,-7.664602890145034e-05,6.87270858179545e-06,8.00479538156651e-05,-0.0035532270558178425,0.00021358895173761994,-0.006073324475437403,0.0002935709781013429,0.044139303267002106,0.0065986174158751965,0.007063861936330795,-0.036327581852674484,-0.03600453957915306,0.0,0.0,0.0,0.00014441425446420908,-0.0014610037906095386,-0.0,0.0,0.0,0.0,-0.0006314549827948213,-0.01449152547866106,0.0027402250561863184,12366.0,14615.0,14467.0,12584.0,0.33719685673713684,0.48092690110206604,0.47072717547416687,0.34998711943626404,0.0,0.0,0.0,0.0,11916.0,15049.0,13976.0,13052.0,1.6414649486541748,3.066356782609993,0.2723645723785664,-0.00865398001764478,0.005778760649263859,0.0004393900453578681,0.0
251,5,-9.04187181731686e-05,3.5191864299122244e-05,9.443955786991864e-05,-0.0030740133952349424,-0.003312863176688552,-0.004156322684139013,0.00048202514881268144,0.04450599104166031,0.006653832737356424,-0.01487406250089407,-0.05824526771903038,0.08247654139995575,0.0,0.0,0.0,-0.00024774044868536294,-0.0034303455613553524,-0.0,0.0,0.0,0.0,0.00023385902750305831,-0.013022624887526035,0.0004942003288306296,13349.0,13741.0,15046.0,11823.0,0.3968701958656311,0.42207998037338257,0.5114081501960754,0.30626875162124634,0.0,0.0,0.0,0.0,12381.0,14708.0,14356.0,12616.0,1.6629971265792847,3.0672683508769993,0.2723994294713312,-0.008661087570662142,0.013746128417551517,-0.000763654534239322,0.0
256,5,-0.0001064170355675742,4.466086465981789e-05,0.00012687884736806154,-0.0031494039576500654,-0.0024614250287413597,-0.005555244162678719,0.00048202514881268144,0.04450599104166031,0.006653832737356424,-0.01487406250089407,-0.05824526771903038,0.08247654139995575,0.0,0.0,0.0,-0.00024774044868536294,-0.0034303455613553524,-0.0,0.0,0.0,0.0,0.00023385902750305831,-0.013022624887526035,0.0004942003288306296,13349.0,13741.0,15046.0,11823.0,0.3968701958656311,0.42207998037338257,0.5114081501960754,0.30626875162124634,0.0,0.0,0.0,0.0,12381.0,14708.0,14356.0,12616.0,1.6629971265792847,3.0686874522784047,0.27169632129255583,-0.008441141698435106,0.013746128417551517,-0.000763654534239322,0.0
261,5,-0.00013493378355633467,6.443483289331198e-05,0.00020879690418951213,-0.004681771155446768,-0.003357446752488613,-0.0120522640645504,0.0005174585967324674,0.0444512665271759,0.006308328360319138,0.019266989082098007,0.0358152836561203,0.04590339586138725,0.0,0.0,0.0,0.00306492717936635,-0.0030842390842735767,-0.0,0.0,0.0,0.0,-0.00012382710701785982,-0.011755977757275105,-0.00024829330504871905,13349.0,13741.0,15046.0,11823.0,0.3968701958656311,0.42207998037338257,0.5114081501960754,0.30626875162124634,0.0,0.0,0.0,0.0,13515.0,13554.0,15174.0,11685.0,1.6679424047470093,3.066646310548998,0.27158003736710407,-0.007961210171445788,0.012395905330777168,0.009475639089941978,0.0
266,5,-0.00015402391727548093,6.552743434440345e-05,0.0001840874319896102,-0.00416352367028594,-0.0014740903861820698,-0.001855769194662571,0.0005174585967324674,0.0444512665271759,0.006308328360319138,0.019266989082098007,0.0358152836561203,0.04590339586138725,0.0,0.0,0.0,0.00306492717936635,-0.0030842390842735767,-0.0,0.0,0.0,0.0,-0.00012382710701785982,-0.011755977757275105,-0.00024829330504871905,13349.0,13741.0,15046.0,11823.0,0.3968701958656311,0.42207998037338257,0.5114081501960754,0.30626875162124634,0.0,0.0,0.0,0.0,13515.0,13554.0,15174.0,11685.0,1.6679424047470093,3.067202561480649,0.27191248859835226,-0.009094784204840053,0.012395905330777168,0.009475639089941978,0.0
271,5,-0.00016746259643696249,9.409533231519163e-05,0.00018422459834255278,-0.0032780510373413563,-0.004017783794552088,-0.0007587678846903145,0.0007739877328276634,0.0425441637635231,0.006838955916464329,0.0008523106807842851,0.11208446323871613,0.02001025155186653,0.0,0.0,0.0,0.0018987786024808884,-0.004083357751369476,-0.0,0.0,0.0,0.0,-0.000455791741842404,-0.010117008350789547,0.0023084538988769054,13340.0,13982.0,14821.0,12301.0,0.39632806181907654,0.4378974735736847,0.4954002797603607,0.3333713114261627,0.0,0.0,0.0,0.0,13229.0,13918.0,14691.0,12280.0,1.672996163368225,3.068023700887942,0.27064439579986777,-0.009206682276884388,0.01646123081445694,0.005888129584491253,0.0
276,5,-0.00017922771803569049,0.00010457425378262997,0.00018877408001571894,-0.002723035868257284,-0.002864584093913436,-0.0008494445937685668,0.0007739877328276634,0.0425441637635231,0.006838955916464329,0.0008523106807842851,0.11208446323871613,0.02001025155186653,0.0,0.0,0.0,0.0018987786024808884,-0.004083357751369476,-0.0,0.0,0.0,0.0,-0.000455791741842404,-0.010117008350789547,0.0023084538988769054,13340.0,13982.0,14821.0,12301.0,0.39632806181907654,0.4378974735736847,0.4954002797603607,0.3333713114261627,0.0,0.0,0.0,0.0,13229.0,13918.0,14691.0,12280.0,1.672996163368225,3.066945975987889,0.2718313180098122,-0.009406346033147977,0.01646123081445694,0.005888129584491253,0.0
282,5,-0.00023317948216572404,0.00016356437117792666,0.0003007503692060709,-0.0075634256936609745,-0.008224647492170334,-0.01377693098038435,0.0011626442428678274,0.04079185798764229,0.0068419817835092545,0.036503151059150696,0.13839057087898254,0.05274615064263344,0.0,0.0,0.0,0.003658836241811514,-0.0027849185280501842,-0.0,0.0,0.0,0.0,-0.0008029995369724929,-0.009911386296153069,0.0010242521530017257,13749.0,13577.0,15065.0,12089.0,0.42259785532951355,0.4113985598087311,0.5127495527267456,0.32119646668434143,0.0,0.0,0.0,0.0,12968.0,14390.0,14227.0,12917.0,1.6688016653060913,3.065827581776191,0.2693629398751556,-0.009271814405497257,0.011198650114238262,0.011317604221403599,0.0
287,5,-0.00027161589241586626,0.00017787303659133613,0.0003049994702450931,-0.007637737784534693,-0.005006898660212755,-0.006020666100084782,0.0011626442428678274,0.04079185798764229,0.0068419817835092545,0.036503151059150696,0.13839057087898254,0.05274615064263344,0.0,0.0,0.0,0.003658836241811514,-0.0027849185280501842,-0.0,0.0,0.0,0.0,-0.0008029995369724929,-0.009911386296153069,0.0010242521530017257,13749.0,13577.0,15065.0,12089.0,0.42259785532951355,0.4113985598087311,0.5127495527267456,0.32119646668434143,0.0,0.0,0.0,0.0,12968.0,14390.0,14227.0,12917.0,1.6688016653060913,3.0663430668098033,0.2685782185014993,-0.008916694854703951,0.011198650114238262,0.011317604221403599,0.0
292,5,-0.00033327192068099976,0.00020881061209365726,0.00031404788023792207,-0.01045382022857666,-0.005715268664062023,-0.0034940761979669333,0.0013949397252872586,0.03949286788702011,0.006790936924517155,0.03182939812541008,0.19750995934009552,-0.03816119581460953,0.0,0.0,0.0,0.0069569977931678295,-0.009725535288453102,-0.0,0.0,0.0,0.0,0.00021234815358184278,-0.008991402573883533,-0.0004540423396974802,13004.0,14375.0,14137.0,13159.0,0.37538212537765503,0.4644160866737366,0.44824492931365967,0.38495302200317383,0.0,0.0,0.0,0.0,13702.0,13624.0,15022.0,12143.0,1.7511789798736572,3.0656632542818545,0.2689511189636671,-0.009708183731256603,0.04103728383779526,0.022581594064831734,0.0
297,5,-0.00035695097176358104,0.00021553247643169016,0.0003091388789471239,-0.00702301412820816,-0.0030927315820008516,-0.0008085498120635748,0.0013949397252872586,0.03949286788702011,0.006790936924517155,0.03182939812541008,0.19750995934009552,-0.03816119581460953,0.0,0.0,0.0,0.0069569977931678295,-0.009725535288453102,-0.0,0.0,0.0,0.0,0.00021234815358184278,-0.008991402573883533,-0.0004540423396974802,13004.0,14375.0,14137.0,13159.0,0.37538212537765503,0.4644160866737366,0.44824492931365967,0.38495302200317383,0.0,0.0,0.0,0.0,13702.0,13624.0,15022.0,12143.0,1.7511789798736572,3.0657329776315083,0.2697822711620851,-0.010224476810958115,0.04103728383779526,0.022581594064831734,0.0
302,5,-0.0003944117925129831,0.0002134539681719616,0.0003055761626455933,-0.007304505445063114,-0.0009876710828393698,0.0001041051946231164,0.0016548195853829384,0.03747732564806938,0.007010523229837418,0.021019499748945236,0.16356389224529266,-0.006461980752646923,0.0,0.0,0.0,0.0040351757779717445,-0.0068717291578650475,-0.0,0.0,0.0,0.0,-0.0002591551165096462,-0.009205656126141548,0.0019161263480782509,13307.0,14082.0,14461.0,12815.0,0.3942527174949646,0.4445749521255493,0.4703052043914795,0.3638632893562317,0.0,0.0,0.0,0.0,12820.0,14408.0,14040.0,13338.0,1.7093274593353271,3.0658478037241403,0.2687190186947045,-0.009539104822529529,0.028303246945142746,0.01278480514883995,0.0
307,5,-0.00044539320515468717,0.00023441261146217585,0.00035839222255162895,-0.009039568714797497,-0.002910105511546135,-0.006296284031122923,0.0016548195853829384,0.03747732564806938,0.007010523229837418,0.021019499748945236,0.16356389224529266,-0.006461980752646923,0.0,0.0,0.0,0.0040351757779717445,-0.0068717291578650475,-0.0,0.0,0.0,0.0,-0.0002591551165096462,-0.009205656126141548,0.0019161263480782509,13307.0,14082.0,14461.0,12815.0,0.3942527174949646,0.4445749521255493,0.4703052043914795,0.3638632893562317,0.0,0.0,0.0,0.0,12820.0,14408.0,14040.0,13338.0,1.7093274593353271,3.064563883614541,0.2687896079850629,-0.010093844993135023,0.028303246945142746,0.01278480514883995,0.0
312,5,-0.0004945355467498302,0.0002567016636021435,0.0004444591759238392,-0.00951291061937809,-0.0038387279491871595,-0.012846547178924084,0.0017930195899680257,0.036086007952690125,0.006859679240733385,0.021706577390432358,0.1627187281847,0.04545348510146141,0.0,0.0,0.0,0.003808870678767562,-0.008727291598916054,-0.0,0.0,0.0,0.0,5.407070420915261e-05,-0.007683695759624243,0.0011900096433237195,13814.0,13486.0,14888.0,12351.0,0.426843523979187,0.4056072235107422,0.5000776648521423,0.3362732529640198,0.0,0.0,0.0,0.0,13878.0,13926.0,15335.0,12645.0,1.72870671749115,3.0638373053549963,0.26796564503385034,-0.009985092481343941,0.03635331615805626,0.012204618193209171,0.0
317,5,-0.0005280907498672605,0.0001812686532502994,0.00033045350573956966,-0.007831785827875137,0.007516468875110149,0.00854206271469593,0.0017930195899680257,0.036086007952690125,0.006859679240733385,0.021706577390432358,0.1627187281847,0.04545348510146141,0.0,0.0,0.0,0.003808870678767562,-0.008727291598916054,-0.0,0.0,0.0,0.0,5.407070420915261e-05,-0.007683695759624243,0.0011900096433237195,13814.0,13486.0,14888.0,12351.0,0.426843523979187,0.4056072235107422,0.5000776648521423,0.3362732529640198,0.0,0.0,0.0,0.0,13878.0,13926.0,15335.0,12645.0,1.72870671749115,3.060402754703314,0.27420242806373224,-0.011395426104141399,0.03635331615805626,0.012204618193209171,0.0
322,5,-0.0005727274692617357,0.0001587588485563174,0.0003214493044652045,-0.008489126339554787,0.005707763135433197,0.004497328773140907,0.0017930195899680257,0.036086007952690125,0.006859679240733385,0.021706577390432358,0.1627187281847,0.04545348510146141,0.0,0.0,0.0,0.003808870678767562,-0.008727291598916054,-0.0,0.0,0.0,0.0,5.407070420915261e-05,-0.007683695759624243,0.0011900096433237195,13814.0,13486.0,14888.0,12351.0,0.426843523979187,0.4056072235107422,0.5000776648521423,0.3362732529640198,0.0,0.0,0.0,0.0,13878.0,13926.0,15335.0,12645.0,1.72870671749115,3.0610578770530608,0.2731409950967586,-0.011622570923154411,0.03635331615805626,0.012204618193209171,0.0
327,5,-0.0006145283696241677,0.0001812754780985415,0.000391333713196218,-0.008411756716668606,-0.00041888904524967074,-0.0065871975384652615,0.0020212256349623203,0.03407740592956543,0.006553215440362692,0.025044359266757965,0.18686683475971222,-0.07653248310089111,0.0,0.0,0.0,-0.006384722888469696,-0.008371912874281406,-0.0,0.0,0.0,0.0,0.0009251977899111807,-0.009349055588245392,-0.0012880750000476837,12794.0,14943.0,14178.0,13916.0,0.36259958148002625,0.504012942314148,0.45100733637809753,0.4335591495037079,0.0,0.0,0.0,0.0,13369.0,14353.0,14639.0,13160.0,1.7346022129058838,3.0597967419580536,0.2722556603183103,-0.011028617182171229,0.03499150276184082,-0.020527929067611694,-0.0
332,5,-0.0006719279917888343,0.00016304799646604806,0.0003639719798229635,-0.010252653621137142,0.0020197411067783833,0.0006485278718173504,0.0020212256349623203,0.03407740592956543,0.006553215440362692,0.025044359266757965,0.18686683475971222,-0.07653248310089111,0.0,0.0,0.0,-0.006384722888469696,-0.008371912874281406,-0.0,0.0,0.0,0.0,0.0009251977899111807,-0.009349055588245392,-0.0012880750000476837,12794.0,14943.0,14178.0,13916.0,0.36259958148002625,0.504012942314148,0.45100733637809753,0.4335591495037079,0.0,0.0,0.0,0.0,13369.0,14353.0,14639.0,13160.0,1.7346022129058838,3.0599305423519083,0.272706372099733,-0.01083137113211038,0.03499150276184082,-0.020527929067611694,-0.0
338,5,-0.0007184052956290543,0.0001423519424861297,0.0003281354729551822,-0.009678336791694164,0.0032914236653596163,0.0045597911812365055,0.0020187313202768564,0.03288879618048668,0.006722362246364355,0.011900188401341438,0.155429869890213,-0.026111263781785965,0.0,0.0,0.0,-0.002069025533273816,-0.010052860714495182,-0.0,0.0,0.0,0.0,-0.0026531792245805264,-0.007631056942045689,-0.0003587591927498579,13264.0,14456.0,14530.0,13275.0,0.3915219008922577,0.469939261674881,0.475018173456192,0.3922273814678192,0.0,0.0,0.0,0.0,12611.0,15168.0,13709.0,14103.0,1.740170955657959,3.060780638410779,0.27334863467790027,-0.011401810443169002,0.042152684181928635,-0.0066736857406795025,-0.0
343,5,-0.0007639816612936556,0.000157118309289217,0.00038642724393866956,-0.009340500459074974,-0.00045539450366050005,-0.0051710959523916245,0.0020187313202768564,0.03288879618048668,0.006722362246364355,0.011900188401341438,0.155429869890213,-0.026111263781785965,0.0,0.0,0.0,-0.002069025533273816,-0.010052860714495182,-0.0,0.0,0.0,0.0,-0.0026531792245805264,-0.007631056942045689,-0.0003587591927498579,13264.0,14456.0,14530.0,13275.0,0.3915219008922577,0.469939261674881,0.475018173456192,0.3922273814678192,0.0,0.0,0.0,0.0,12611.0,15168.0,13709.0,14103.0,1.740170955657959,3.0595566398036205,0.2724919883228159,-0.010779568095885745,0.042152684181928635,-0.0066736857406795025,-0.0
348,5,-0.0007926644757390022,0.00013631551701109856,0.00036430454929359257,-0.007178139872848988,0.002314177341759205,0.0005862864782102406,0.0022627077996730804,0.03073769062757492,0.006047640927135944,0.023684587329626083,0.1763065606355667,0.012975429184734821,0.0,0.0,0.0,0.0008027270087040961,-0.009406421333551407,-0.0,0.0,0.0,0.0,-0.0026531792245805264,-0.007631056942045689,-0.0003587591927498579,13951.0,14267.0,14593.0,12790.0,0.4358786940574646,0.45704126358032227,0.4793747663497925,0.36230748891830444,0.0,0.0,0.0,0.0,13959.0,14230.0,14711.0,12686.0,1.7312952280044556,3.0592854926574526,0.2731738564956111,-0.010719988744352529,0.03924107924103737,0.002576009603217244,0.0
353,5,-0.0008442160324193537,0.00011577701661735773,0.0003679381625261158,-0.009057440795004368,0.003390290541574359,-0.00020152014621999115,0.0022627077996730804,0.03073769062757492,0.006047640927135944,0.023684587329626083,0.1763065606355667,0.012975429184734821,0.0,0.0,0.0,0.0008027270087040961,-0.009406421333551407,-0.0,0.0,0.0,0.0,-0.0026531792245805264,-0.007631056942045689,-0.0003587591927498579,13951.0,14267.0,14593.0,12790.0,0.4358786940574646,0.45704126358032227,0.4793747663497925,0.36230748891830444,0.0,0.0,0.0,0.0,13959.0,14230.0,14711.0,12686.0,1.7312952280044556,3.058377787331209,0.2733264241809328,-0.01037494308191133,0.03924107924103737,0.002576009603217244,0.0
358,5,-0.0008801344083622098,0.0001085277326637879,0.00038952374598011374,-0.007933180779218674,0.002226030919700861,-0.0026708762161433697,0.002243140945211053,0.029521003365516663,0.005498428363353014,0.019180772826075554,0.16748283803462982,-0.15079863369464874,0.0,0.0,0.0,-0.0037553696893155575,-0.009242360480129719,-0.0,0.0,0.0,0.0,7.456602179445326e-05,-0.00943491980433464,0.0009475576225668192,13010.0,14713.0,14393.0,13433.0,0.37573474645614624,0.4877879023551941,0.4655866026878357,0.40218597650527954,0.0,0.0,0.0,0.0,12713.0,15343.0,13435.0,14038.0,1.7343229055404663,3.058487274093418,0.2727020078376363,-0.010526908097454863,0.03862384706735611,-0.01207228098064661,0.0
363,5,-0.0009862817823886871,4.774846092914231e-05,0.00038203812437132,-0.009046132676303387,0.006632857024669647,0.0043939268216490746,0.002243140945211053,0.029521003365516663,0.005498428363353014,0.019180772826075554,0.16748283803462982,-0.15079863369464874,0.0,0.0,0.0,-0.0037553696893155575,-0.009242360480129719,-0.0,0.0,0.0,0.0,7.456602179445326e-05,-0.00943491980433464,0.0009475576225668192,13010.0,14713.0,14393.0,13433.0,0.37573474645614624,0.4877879023551941,0.4655866026878357,0.40218597650527954,0.0,0.0,0.0,0.0,12713.0,15343.0,13435.0,14038.0,1.7343229055404663,3.055521917083226,0.27496494259707743,-0.00911332898329239,0.03862384706735611,-0.01207228098064661,0.0
368,5,-0.0009862817823886871,4.774846092914231e-05,0.00038203812437132,-0.009046132676303387,0.006632857024669647,0.0043939268216490746,0.002049042144790292,0.02801622450351715,0.004926171153783798,-0.03903374448418617,0.07396350800991058,-0.04031119868159294,0.0,0.0,0.0,-0.007585414685308933,-0.009335382841527462,-0.0,0.0,0.0,0.0,-0.0018339903326705098,-0.010122771374881268,-0.002942516701295972,13031.0,14928.0,14369.0,13246.0,0.3770428001880646,0.5029563903808594,0.46394404768943787,0.3903796970844269,0.0,0.0,0.0,0.0,11787.0,15727.0,13270.0,14510.0,1.7500839233398438,3.055521917083226,0.27496494259707743,-0.00911332898329239,0.039366256445646286,-0.024605896323919296,-0.0
373,5,-0.0010640228865668178,3.2123727578436956e-05,0.00039167804061435163,-0.012947380542755127,0.004528110846877098,0.0006007816409692168,0.002049042144790292,0.02801622450351715,0.004926171153783798,-0.03903374448418617,0.07396350800991058,-0.04031119868159294,0.0,0.0,0.0,-0.007585414685308933,-0.009335382841527462,-0.0,0.0,0.0,0.0,-0.0018339903326705098,-0.010122771374881268,-0.002942516701295972,13031.0,14928.0,14369.0,13246.0,0.3770428001880646,0.5029563903808594,0.46394404768943787,0.3903796970844269,0.0,0.0,0.0,0.0,11787.0,15727.0,13270.0,14510.0,1.7500839233398438,3.054914104868917,0.2740076474822242,-0.00827549128471871,0.039366256445646286,-0.024605896323919296,-0.0
378,5,-0.0011162919690832496,5.541827704291791e-06,0.0003713520127348602,-0.0114512387663126,0.005001072306185961,0.002679435769096017,0.002043353160843253,0.027596281841397285,0.0037000621668994427,-0.015804097056388855,0.014093181118369102,-0.036986272782087326,0.0,0.0,0.0,-0.005097998306155205,-0.012705891393125057,-0.0,0.0,0.0,0.0,-0.0026066063437610865,-0.01138180773705244,-0.004203824792057276,11137.0,16609.0,12632.0,14863.0,0.2693198323249817,0.6295729279518127,0.3528590202331543,0.498332142829895,0.0,0.0,0.0,0.0,13403.0,14601.0,14687.0,12884.0,1.7777740955352783,3.053382151301089,0.2761338638687926,-0.007567749719035405,0.05442723631858826,-0.016798920929431915,-0.0
383,5,-0.001274801092222333,-2.03223098651506e-05,0.00037063934723846614,-0.014219350181519985,0.003412271849811077,0.003094996325671673,0.002043353160843253,0.027596281841397285,0.0037000621668994427,-0.015804097056388855,0.014093181118369102,-0.036986272782087326,0.0,0.0,0.0,-0.005097998306155205,-0.012705891393125057,-0.0,0.0,0.0,0.0,-0.0026066063437610865,-0.01138180773705244,-0.004203824792057276,11137.0,16609.0,12632.0,14863.0,0.2693198323249817,0.6295729279518127,0.3528590202331543,0.498332142829895,0.0,0.0,0.0,0.0,13403.0,14601.0,14687.0,12884.0,1.7777740955352783,3.0514300992895946,0.27618658949723845,-0.00655498616139855,0.05442723631858826,-0.016798920929431915,-0.0
388,5,-0.001274801092222333,-2.03223098651506e-05,0.00037063934723846614,-0.014219350181519985,0.003412271849811077,0.003094996325671673,0.002043353160843253,0.027596281841397285,0.0037000621668994427,-0.015804097056388855,0.014093181118369102,-0.036986272782087326,0.0,0.0,0.0,-0.003888451959937811,-0.013993036933243275,-0.0,0.0,0.0,0.0,-0.0026066063437610865,-0.01138180773705244,-0.004203824792057276,11137.0,16609.0,12632.0,14863.0,0.2693198323249817,0.6295729279518127,0.3528590202331543,0.498332142829895,0.0,0.0,0.0,0.0,13403.0,14601.0,14687.0,12884.0,1.7902307510375977,3.0514300992895946,0.27618658949723845,-0.00655498616139855,0.0603608638048172,-0.012903048656880856,-0.0
393,5,-0.0014352924190461636,-4.018194886157289e-05,0.0004454356385394931,-0.014573931694030762,0.0021981734316796064,-0.005530872382223606,0.001819138997234404,0.02758299931883812,0.001993571873754263,-0.040802907198667526,-0.014277242124080658,-0.026335937902331352,0.0,0.0,0.0,-0.003888451959937811,-0.013993036933243275,-0.0,0.0,0.0,0.0,-0.0015740953385829926,-0.012712018564343452,0.0002008476440096274,13113.0,15152.0,14681.0,13257.0,0.3821381628513336,0.5190049409866333,0.4855600893497467,0.3910709321498871,0.0,0.0,0.0,0.0,11587.0,16325.0,12904.0,14606.0,1.7902307510375977,3.047845279060292,0.27621731080304696,-0.004459260436651625,0.0603608638048172,-0.012903048656880856,-0.0
398,5,-0.0014808493433520198,-5.224713095230982e-05,0.0004314083489589393,-0.01129640731960535,0.0023270912934094667,-0.0005290750414133072,0.001819138997234404,0.02758299931883812,0.001993571873754263,-0.040802907198667526,-0.014277242124080658,-0.026335937902331352,0.0,0.0,0.0,-0.0025440820027142763,-0.014477042481303215,-0.0,0.0,0.0,0.0,-0.0015740953385829926,-0.012712018564343452,0.0002008476440096274,13113.0,15152.0,14681.0,13257.0,0.3821381628513336,0.5190049409866333,0.4855600893497467,0.3910709321498871,0.0,0.0,0.0,0.0,11587.0,16325.0,12904.0,14606.0,1.793941855430603,3.047794548622065,0.276948251490929,-0.004782676637419172,0.06257826834917068,-0.008459548465907574,0.0
403,5,-0.0015666448744013906,-4.2800355004146695e-05,0.00046658123028464615,-0.014814016409218311,-0.0002027766458922997,-0.004432374145835638,0.0014961387496441603,0.02700149454176426,8.416494529228657e-05,-0.017697107046842575,0.08337198197841644,-0.12456724792718887,0.0,0.0,0.0,-0.0025440820027142763,-0.014477042481303215,-0.0,0.0,0.0,0.0,-0.0016896004090085626,-0.010398555546998978,-0.005388767458498478,12220.0,15949.0,13595.0,14469.0,0.3286989629268646,0.5781649351119995,0.4125576913356781,0.4708091914653778,0.0,0.0,0.0,0.0,12325.0,15761.0,13936.0,14076.0,1.793941855430603,3.0470073975846743,0.27553270289313064,-0.0038497252128176754,0.06257826834917068,-0.008459548465907574,0.0
408,5,-0.0016176269855350256,-7.755614933557808e-05,0.00045039382530376315,-0.01204346027225256,0.004089584574103355,0.00016953660815488547,0.0014961387496441603,0.02700149454176426,8.416494529228657e-05,-0.017697107046842575,0.08337198197841644,-0.12456724792718887,0.0,0.0,0.0,0.00015898268611636013,-0.014830839820206165,-0.0,0.0,0.0,0.0,-0.0016896004090085626,-0.010398555546998978,-0.005388767458498478,12220.0,15949.0,13595.0,14469.0,0.3286989629268646,0.5781649351119995,0.4125576913356781,0.4708091914653778,0.0,0.0,0.0,0.0,12325.0,15761.0,13936.0,14076.0,1.7967073917388916,3.0466071743325145,0.2778098067914929,-0.0028648204760467824,0.06420651078224182,0.0005294631118886173,0.0
413,5,-0.0016776727279648185,-0.00010991211456712335,0.00040511248516850173,-0.012022874318063259,0.005518550053238869,0.00550157530233264,0.0012628567637875676,0.02647663839161396,-0.0004975897027179599,-0.016266504302620888,0.11170604825019836,-0.24793720245361328,0.0,0.0,0.0,0.00015898268611636013,-0.014830839820206165,-0.0,0.0,0.0,0.0,-0.001193082076497376,-0.010184476152062416,-0.003599008312448859,10804.0,16899.0,12297.0,15649.0,0.2522769570350647,0.6529345512390137,0.3331691026687622,0.5555612444877625,0.0,0.0,0.0,0.0,13421.0,14916.0,14782.0,13305.0,1.7967073917388916,3.047785656942834,0.27712694215520006,-0.0029944097838859934,0.06420651078224182,0.0005294631118886173,0.0
418,5,-0.0017553792567923665,-9.650157880969346e-05,0.0004208074533380568,-0.014133940450847149,0.0005981556605547667,0.00031723547726869583,0.0012628567637875676,0.02647663839161396,-0.0004975897027179599,-0.016266504302620888,0.11170604825019836,-0.24793720245361328,0.0,0.0,0.0,0.00015898268611636013,-0.014830839820206165,-0.0,0.0,0.0,0.0,-0.001193082076497376,-0.010184476152062416,-0.003599008312448859,10804.0,16899.0,12297.0,15649.0,0.2522769570350647,0.6529345512390137,0.3331691026687622,0.5555612444877625,0.0,0.0,0.0,0.0,13421.0,14916.0,14782.0,13305.0,1.7967073917388916,3.046705220109541,0.27580476448667757,-0.0021732531941707493,0.06420651078224182,0.0005294631118886173,0.0
423,5,-0.0018164044013246894,-9.901033627102152e-05,0.0004260765854269266,-0.012976584956049919,0.0005403130780905485,-0.0005054004141129553,0.001117084757424891,0.024799412116408348,-0.002091424074023962,-0.044013701379299164,0.1264597773551941,-0.002250694902613759,0.0,0.0,0.0,-0.0008334213052876294,-0.01451342273503542,-0.0,0.0,0.0,0.0,-0.0010300090070813894,-0.009016862139105797,-0.000903384992852807,13408.0,14804.0,14696.0,13638.0,0.4006439447402954,0.4941471815109253,0.4865608811378479,0.415355384349823,0.0,0.0,0.0,0.0,10535.0,17095.0,11837.0,15961.0,1.7929327487945557,3.0445665324092124,0.2753504251278193,-0.0006385288672600644,0.06270040571689606,-0.0027697274927049875,-0.0
428,5,-0.0018390369368717074,-0.0001161301406682469,0.00039952422957867384,-0.007906543090939522,0.00227050157263875,0.0029841221403330564,0.001117084757424891,0.024799412116408348,-0.002091424074023962,-0.044013701379299164,0.1264597773551941,-0.002250694902613759,0.0,0.0,0.0,-0.0008334213052876294,-0.01451342273503542,-0.0,0.0,0.0,0.0,-0.0010300090070813894,-0.009016862139105797,-0.000903384992852807,13408.0,14804.0,14696.0,13638.0,0.4006439447402954,0.4941471815109253,0.4865608811378479,0.415355384349823,0.0,0.0,0.0,0.0,10535.0,17095.0,11837.0,15961.0,1.7929327487945557,3.045284169497426,0.2778152072106793,-0.0016682575000233626,0.06270040571689606,-0.0027697274927049875,-0.0
433,5,-0.0019312783842906356,-9.721682727104053e-05,0.0004349886148702353,-0.014231587760150433,-0.0013613963965326548,-0.003062077797949314,0.0009177745669148862,0.023360785096883774,-0.003934276755899191,0.005839056335389614,0.19693773984909058,-0.23069776594638824,0.0,0.0,0.0,-0.0028444589115679264,-0.009521596133708954,-0.0,0.0,0.0,0.0,-5.707862874260172e-05,-0.0071901194751262665,-0.00779769429937005,10555.0,16997.0,11698.0,16189.0,0.23986810445785522,0.6608547568321228,0.2993466854095459,0.5966378450393677,0.0,0.0,0.0,0.0,12339.0,15678.0,13687.0,14671.0,1.7353413105010986,3.0440224752098306,0.2761672317012571,-0.000866265754844011,0.03981422260403633,-0.009149388410151005,-0.0
438,5,-0.0019742439035326242,-0.00012369250180199742,0.00041736921411938965,-0.010848491452634335,0.0026325213257223368,0.0008894950151443481,0.0009177745669148862,0.023360785096883774,-0.003934276755899191,0.005839056335389614,0.19693773984909058,-0.23069776594638824,0.0,0.0,0.0,-0.0028444589115679264,-0.009521596133708954,-0.0,0.0,0.0,0.0,-5.707862874260172e-05,-0.0071901194751262665,-0.00779769429937005,10555.0,16997.0,11698.0,16189.0,0.23986810445785522,0.6608547568321228,0.2993466854095459,0.5966378450393677,0.0,0.0,0.0,0.0,12339.0,15678.0,13687.0,14671.0,1.7353413105010986,3.0438216465139702,0.2781190816075821,-3.8520449986799264e-05,0.03981422260403633,-0.009149388410151005,-0.0
443,5,-0.002067447640001774,-0.0001246941537829116,0.00047642370918765664,-0.015523855574429035,0.0011732078855857253,-0.0067307413555681705,0.0005723015055991709,0.021775610744953156,-0.005035128444433212,-0.06976503878831863,0.12509247660636902,-0.18173041939735413,0.0,0.0,0.0,-0.003221742110326886,-0.012121970765292645,-0.0,0.0,0.0,0.0,0.000805730524007231,-0.008674218319356441,-0.0016799962613731623,12208.0,15722.0,13586.0,14772.0,0.3280476927757263,0.560979425907135,0.4119798541069031,0.49192577600479126,0.0,0.0,0.0,0.0,12452.0,15706.0,13499.0,14666.0,1.7664967775344849,3.04264368829029,0.27749564174324887,0.0008137886761100988,0.051597077399492264,-0.010548988357186317,-0.0
449,5,-0.0021380807738751173,-0.0001138546213041991,0.0005133976228535175,-0.014685508795082569,-0.000831460754852742,-0.00712916674092412,0.0005723015055991709,0.021775610744953156,-0.005035128444433212,-0.06976503878831863,0.12509247660636902,-0.18173041939735413,0.0,0.0,0.0,-0.003221742110326886,-0.012121970765292645,-0.0,0.0,0.0,0.0,0.000805730524007231,-0.008674218319356441,-0.0016799962613731623,12208.0,15722.0,13586.0,14772.0,0.3280476927757263,0.560979425907135,0.4119798541069031,0.49192577600479126,0.0,0.0,0.0,0.0,12452.0,15706.0,13499.0,14666.0,1.7664967775344849,3.0404102189140874,0.27874562152659693,0.0011103670471795707,0.051597077399492264,-0.010548988357186317,-0.0
454,5,-0.0022367886267602444,-0.00012614367005880922,0.0005340786301530898,-0.017719149589538574,0.001142101245932281,-0.005333387292921543,0.00040900681051425636,0.020691078156232834,-0.006491128355264664,-0.026136647909879684,0.09836333245038986,-0.017768530175089836,0.0,0.0,0.0,0.000746118021197617,-0.01539080310612917,-0.0,0.0,0.0,0.0,-9.915486589306965e-05,-0.007931814529001713,-0.0026883757673203945,13134.0,15065.0,14319.0,13957.0,0.3834328353404999,0.5127336382865906,0.4605477750301361,0.4362185299396515,0.0,0.0,0.0,0.0,10132.0,17209.0,11426.0,16368.0,1.8038249015808105,3.0398937805896638,0.2781903573133257,0.002917573226361458,0.06689447909593582,0.0024946543853729963,0.0
459,5,-0.0023606433533132076,-0.00010823069897014648,0.0006064122426323593,-0.02195023186504841,-0.0016927162650972605,-0.010813388042151928,0.00040900681051425636,0.020691078156232834,-0.006491128355264664,-0.026136647909879684,0.09836333245038986,-0.017768530175089836,0.0,0.0,0.0,0.000746118021197617,-0.01539080310612917,-0.0,0.0,0.0,0.0,-9.915486589306965e-05,-0.007931814529001713,-0.0026883757673203945,13134.0,15065.0,14319.0,13957.0,0.3834328353404999,0.5127336382865906,0.4605477750301361,0.4362185299396515,0.0,0.0,0.0,0.0,10132.0,17209.0,11426.0,16368.0,1.8038249015808105,3.037144144217798,0.27901898482647164,0.0042022990311537615,0.06689447909593582,0.0024946543853729963,0.0
464,5,-0.002449187682941556,-0.00013700108684133738,0.000564154121093452,-0.019405415281653404,0.0027753598988056183,0.0007456238381564617,0.00040900681051425636,0.020691078156232834,-0.006491128355264664,-0.026136647909879684,0.09836333245038986,-0.017768530175089836,0.0,0.0,0.0,0.0016536309849470854,-0.0210813507437706,-0.0,0.0,0.0,0.0,-0.0002258051245007664,-0.007542564533650875,-0.00701128039509058,9385.0,17321.0,10731.0,16406.0,0.1857346147298813,0.6874902248382568,0.2485819309949875,0.6135345101356506,0.0,0.0,0.0,0.0,13425.0,14447.0,14450.0,13315.0,1.87755286693573,3.0386197598282063,0.27828816964769454,0.003694245616011524,0.09536954760551453,0.005754915531724691,0.0
469,5,-0.0025641852989792824,-0.0001099433284252882,0.0006401084247045219,-0.021561868488788605,-0.0021367864683270454,-0.008816272020339966,0.00040900681051425636,0.020691078156232834,-0.006491128355264664,-0.026136647909879684,0.09836333245038986,-0.017768530175089836,0.0,0.0,0.0,0.0016536309849470854,-0.0210813507437706,-0.0,0.0,0.0,0.0,-0.0002258051245007664,-0.007542564533650875,-0.00701128039509058,9385.0,17321.0,10731.0,16406.0,0.1857346147298813,0.6874902248382568,0.2485819309949875,0.6135345101356506,0.0,0.0,0.0,0.0,13425.0,14447.0,14450.0,13315.0,1.87755286693573,3.035232229305009,0.27948104387121014,0.005366655859526889,0.09536954760551453,0.005754915531724691,0.0
