timestamp,dt,pos_x,pos_y,pos_z,vel_x,vel_y,vel_z,roll,pitch,yaw,agv_x,agv_y,agv_z,x_ref,y_ref,z_ref,roll_ref,pitch_ref,yaw_ref,x_vel_ref,y_vel_ref,z_vel_ref,x_torque,y_torque,z_torque,w0,w1,w2,w3,u0,u1,u2,u3,m0req,m1req,m2req,m3req,thrust0,thrust1,thrust2,thrust3,thrust_ref,roll_vicon,pitch_vicon,yaw_vicon,acc_x,acc_y,acc_z
5,5,0.0,0.0,0.0,-0.0023452152963727713,0.0030107181519269943,0.0001714836835162714,0.01040645595639944,0.07794065028429031,-0.024656502529978752,0.0031568061094731092,-0.012996478006243706,0.04533330351114273,0.0,0.0,0.0,-0.00314184557646513,-0.00188258767593652,-0.0,0.0,0.0,0.0,-0.0010432202834635973,-0.007787632755935192,1.212554168183999e-09,1495.0,1495.0,1495.0,1495.0,0.0,0.0,0.0,0.0,0.0,0.0,0.0,0.0,1495.0,1495.0,1495.0,1495.0,1.9386940002441406,-0.24350323456358067,-0.1597914419266018,0.2239385513582744,0.008794557303190231,-0.011290192604064941,0.0
43,38,0.0,0.0,0.0,0.0010286122560501099,-0.0011624840553849936,-0.0016956668114289641,0.01040645595639944,0.07794065028429031,-0.024656502529978752,0.0031568061094731092,-0.012996478006243706,0.04533330351114273,0.0,0.0,0.0,-0.00314184557646513,-0.00188258767593652,-0.0,0.0,0.0,0.0,-0.0010432202834635973,-0.007787632755935192,1.212554168183999e-09,1495.0,1495.0,1495.0,1495.0,0.0,0.0,0.0,0.0,0.0,0.0,0.0,0.0,1495.0,1495.0,1495.0,1495.0,1.9386940002441406,-0.25138711197464136,-0.17155323320071394,0.2202227478627165,0.008794557303190231,-0.011290192604064941,0.0
48,5,0.0,0.0,0.0,0.0005053068744018674,-0.0007709906785748899,-0.0008948473841883242,0.01040645595639944,0.07794065028429031,-0.024656502529978752,0.0031568061094731092,-0.012996478006243706,0.04533330351114273,0.0,0.0,0.0,0.0012183260405436158,0.0008292492129839957,-0.0,0.0,0.0,0.0,-0.0010432202834635973,-0.007787632755935192,1.212554168183999e-09,1495.0,1495.0,1495.0,1495.0,0.0,0.0,0.0,0.0,0.0,0.0,0.0,0.0,1495.0,1495.0,1495.0,1495.0,1.9303958415985107,-0.25235935398345816,-0.17248209149433386,0.22005741561207984,-0.003857295960187912,0.004359315149486065,0.0
53,5,0.0,0.0,0.0,0.0005053068744018674,-0.0007709906785748899,-0.0008948473841883242,0.010381482541561127,0.07807240635156631,-0.024257423356175423,8.12941652839072e-05,-0.011688491329550743,0.04877074062824249,0.0,0.0,0.0,0.0012183260405436158,0.0008292492129839957,-0.0,0.0,0.0,0.0,-0.0010398465674370527,-0.00780709320679307,6.347064540612735e-10,1495.0,1495.0,1495.0,1495.0,0.0,0.0,0.0,0.0,0.0,0.0,0.0,0.0,1495.0,1495.0,1495.0,1495.0,1.9303958415985107,-0.25235935398345816,-0.17248209149433386,0.22005741561207984,-0.003857295960187912,0.004359315149486065,0.0
62,9,0.0,0.0,0.0,-0.0032069585286080837,0.000893228396307677,0.0014944685390219092,0.010381482541561127,0.07807240635156631,-0.024257423356175423,8.12941652839072e-05,-0.011688491329550743,0.04877074062824249,0.0,0.0,0.0,0.0012183260405436158,0.0008292492129839957,-0.0,0.0,0.0,0.0,-0.001040001050569117,-0.007815541699528694,1.7039348820802047e-09,1495.0,1495.0,1495.0,1495.0,0.0,0.0,0.0,0.0,0.0,0.0,0.0,0.0,1495.0,1495.0,1495.0,1495.0,1.9303958415985107,-0.2529347801615093,-0.17260919608492364,0.22126560965580336,0.01202609483152628,-0.0033496064133942127,0.0
67,5,-2.1908694179728627e-05,-6.9251937020453624e-06,-4.1821390368568245e-06,-0.0039118267595767975,0.0011883145198225975,0.0010996441124007106,0.010381482541561127,0.07807240635156631,-0.024257423356175423,8.12941652839072e-05,-0.011688491329550743,0.04877074062824249,0.0,0.0,0.0,-0.0009399805567227304,-0.0025960132479667664,-0.0,0.0,0.0,0.0,-0.001040001050569117,-0.007815541699528694,1.7039348820802047e-09,1495.0,1495.0,1495.0,1495.0,0.0,0.0,0.0,0.0,0.0,0.0,0.0,0.0,1495.0,1495.0,1495.0,1495.0,1.9225006103515625,-0.2534457173919026,-0.17245392573617732,0.22163139548363706,0.01202609483152628,-0.0033496064133942127,0.0
72,5,-2.471311017870903e-05,-1.0833579835889395e-05,-8.572390470362734e-06,-0.0019012606935575604,0.0009443321614526212,0.0009666878031566739,0.010402882471680641,0.07819350808858871,-0.02357950434088707,0.004791752900928259,-0.004116893745958805,0.058453574776649475,0.0,0.0,0.0,-0.0010176198557019234,-0.001579483156092465,-0.0,0.0,0.0,0.0,-0.001040001050569117,-0.007815541699528694,1.7039348820802047e-09,1495.0,1495.0,1495.0,1495.0,0.0,0.0,0.0,0.0,0.0,0.0,0.0,0.0,1495.0,1495.0,1495.0,1495.0,1.9090348482131958,-0.2528886787130676,-0.1723007709171847,0.2220988504157383,0.007265748456120491,-0.0036008735187351704,0.0
77,5,-2.0020119336550124e-05,8.235236919063027e-07,1.5327323126257397e-06,-0.00019734521629288793,-0.0010211195331066847,-0.0008259395835921168,0.010402882471680641,0.07819350808858871,-0.02357950434088707,0.004791752900928259,-0.004116893745958805,0.058453574776649475,0.0,0.0,0.0,-0.0010176198557019234,-0.001579483156092465,-0.0,0.0,0.0,0.0,-0.001040001050569117,-0.007815541699528694,1.7039348820802047e-09,1495.0,1495.0,1495.0,1495.0,0.0,0.0,0.0,0.0,0.0,0.0,0.0,0.0,1495.0,1495.0,1495.0,1495.0,1.9090348482131958,-0.2527870859315593,-0.1722489999329186,0.2218928108428827,0.007265748456120491,-0.0036008735187351704,0.0
82,5,-2.3935197532409802e-05,2.2501852072309703e-05,2.5987112167058513e-05,-0.0005487475427798927,-0.003009847365319729,-0.003264901228249073,0.010448207147419453,0.07824774086475372,-0.023165225982666016,0.007756513077765703,-0.002564452588558197,0.04648320749402046,0.0,0.0,0.0,0.003238712204620242,-0.0004780676099471748,-0.0,0.0,0.0,0.0,-0.0010459090117365122,-0.007824070751667023,1.705028340737158e-09,1495.0,1495.0,1495.0,1495.0,0.0,0.0,0.0,0.0,0.0,0.0,0.0,0.0,1495.0,1495.0,1495.0,1495.0,1.9007896184921265,-0.2525162644387285,-0.1731336457007322,0.2222873371965727,0.0021896413527429104,0.011410734616219997,0.0
87,5,-3.495564669719897e-05,4.892503420705907e-05,2.4813298296066932e-05,-0.0015419531846418977,-0.004374720621854067,-0.001165103050880134,0.010448207147419453,0.07824774086475372,-0.023165225982666016,0.007756513077765703,-0.002564452588558197,0.04648320749402046,0.0,0.0,0.0,0.003238712204620242,-0.0004780676099471748,-0.0,0.0,0.0,0.0,-0.0010459090117365122,-0.007824070751667023,1.705028340737158e-09,1495.0,1495.0,1495.0,1495.0,0.0,0.0,0.0,0.0,0.0,0.0,0.0,0.0,1495.0,1495.0,1495.0,1495.0,1.9007896184921265,-0.25208274802375646,-0.1720623213271644,0.22235913796536066,0.0021896413527429104,0.011410734616219997,0.0
92,5,-3.843299055006355e-05,6.615994789171964e-05,2.5670895411167294e-05,-0.001034062122926116,-0.003818077500909567,-0.0005689528188668191,0.010539527051150799,0.07828449457883835,-0.02268971875309944,0.009838062338531017,-0.0010787805076688528,0.03576471656560898,0.0,0.0,0.0,0.004167184699326754,-0.0008928581955842674,-0.0,0.0,0.0,0.0,-0.0010573666077107191,-0.007826116867363453,-3.5840522216723514e-10,1495.0,1495.0,1495.0,1495.0,0.0,0.0,0.0,0.0,0.0,0.0,0.0,0.0,1495.0,1495.0,1495.0,1495.0,1.9007967710494995,-0.2522904356919981,-0.1724572660310117,0.22197289198601217,0.004089462570846081,0.0146819818764925,0.0
98,5,-6.08860827924218e-05,6.416053656721488e-05,3.5361772461328655e-06,-0.0031079959589987993,-0.0012873021187260747,0.0024285849649459124,0.010539527051150799,0.07828449457883835,-0.02268971875309944,0.009838062338531017,-0.0010787805076688528,0.03576471656560898,0.0,0.0,0.0,0.004167184699326754,-0.0008928581955842674,-0.0,0.0,0.0,0.0,-0.0010573666077107191,-0.007826116867363453,-3.5840522216723514e-10,1495.0,1495.0,1495.0,1495.0,0.0,0.0,0.0,0.0,0.0,0.0,0.0,0.0,1495.0,1495.0,1495.0,1495.0,1.9007967710494995,-0.25204817043980626,-0.17222386698458622,0.22239413971472366,0.004089462570846081,0.0146819818764925,0.0
103,5,-8.410607551923022e-05,5.797012636321597e-05,-1.2534659617813304e-05,-0.004029597155749798,0.00022792821982875466,0.0028999345377087593,0.01059932354837656,0.07814550399780273,-0.022266631945967674,0.003901042276993394,0.00810178741812706,0.012702587060630322,0.0,0.0,0.0,-0.0001527114218333736,-0.0034174094907939434,-0.0,0.0,0.0,0.0,-0.001058396534062922,-0.007817596197128296,-1.0087743973485885e-09,1495.0,1495.0,1495.0,1495.0,0.0,0.0,0.0,0.0,0.0,0.0,0.0,0.0,1495.0,1495.0,1495.0,1495.0,1.891295075416565,-0.2522171673948339,-0.17262292092605086,0.22199399340733045,0.01557425782084465,-0.0005353519227355719,0.0
108,5,-0.00014298639143817127,4.764407640323043e-05,-2.0752055206685327e-05,-0.008677477017045021,0.0013302976731210947,0.0021460610441863537,0.010578093118965626,0.07810498774051666,-0.02224334329366684,-0.004316800739616156,-0.0028756046667695045,-0.0023841005750000477,0.0,0.0,0.0,-0.0013541014632210135,-0.007345900405198336,-0.0,0.0,0.0,0.0,-0.001057823421433568,-0.007810482755303383,2.0085891283549984e-10,1495.0,1495.0,1495.0,1495.0,0.0,0.0,0.0,0.0,0.0,0.0,0.0,0.0,1495.0,1495.0,1495.0,1495.0,1.882866382598877,-0.2511729821543761,-0.17229455236770827,0.22227833804592428,0.03332822024822235,-0.00472583994269371,0.0
116,8,-0.00015006943431217223,3.183054650435224e-05,-2.210622733400669e-05,-0.00432095630094409,0.0024297423660755157,0.0010209252359345555,0.010578093118965626,0.07810498774051666,-0.02224334329366684,-0.004316800739616156,-0.0028756046667695045,-0.0023841005750000477,0.0,0.0,0.0,-0.0013541014632210135,-0.007345900405198336,-0.0,0.0,0.0,0.0,-0.001057823421433568,-0.007810482755303383,2.0085891283549984e-10,1495.0,1495.0,1495.0,1495.0,0.0,0.0,0.0,0.0,0.0,0.0,0.0,0.0,1495.0,1495.0,1495.0,1495.0,1.882866382598877,-0.2510510845934076,-0.17302245863159768,0.2223073753417614,0.03332822024822235,-0.00472583994269371,0.0
121,5,-0.00018961358000524342,1.9977238480350934e-05,-1.9799519577645697e-05,-0.006473679561167955,0.002394293900579214,0.00013156513159628958,0.010578093118965626,0.07810498774051666,-0.02224334329366684,-0.004316800739616156,-0.0028756046667695045,-0.0023841005750000477,0.0,0.0,0.0,-0.0013541014632210135,-0.007345900405198336,-0.0,0.0,0.0,0.0,-0.001057823421433568,-0.007810482755303383,2.0085891283549984e-10,1495.0,1495.0,1495.0,1495.0,0.0,0.0,0.0,0.0,0.0,0.0,0.0,0.0,1495.0,1495.0,1495.0,1495.0,1.882866382598877,-0.2514251559020196,-0.17280605094766552,0.22227406021090287,0.03332822024822235,-0.00472583994269371,0.0
126,5,-0.0002450818719808012,1.4870107406750321e-05,-1.185570999950869e-05,-0.006113896612077951,0.0003633169981185347,-0.0004992267349734902,0.010527468286454678,0.07820398360490799,-0.02227611280977726,0.001430073520168662,-0.025665057823061943,-0.0017702658660709858,0.0,0.0,0.0,-0.0025415923446416855,-0.005582490004599094,-0.0,0.0,0.0,0.0,-0.001053282176144421,-0.007812706753611565,-5.098908517631173e-10,1495.0,1495.0,1495.0,1495.0,0.0,0.0,0.0,0.0,0.0,0.0,0.0,0.0,1495.0,1495.0,1495.0,1495.0,1.8823823928833008,-0.2517373538425291,-0.1724051579009747,0.22264093271484636,0.02532118745148182,-0.008867913857102394,0.0
131,5,-0.00025618498330004513,4.910581537842518e-06,-1.550232627778314e-05,-0.00377793051302433,0.0013404699275270104,0.00023790325212758034,0.010527468286454678,0.07820398360490799,-0.02227611280977726,0.001430073520168662,-0.025665057823061943,-0.0017702658660709858,0.0,0.0,0.0,-0.0025415923446416855,-0.005582490004599094,-0.0,0.0,0.0,0.0,-0.001053282176144421,-0.007812706753611565,-5.098908517631173e-10,1495.0,1495.0,1495.0,1495.0,0.0,0.0,0.0,0.0,0.0,0.0,0.0,0.0,1495.0,1495.0,1495.0,1495.0,1.8823823928833008,-0.2511083641916529,-0.17304158486554294,0.22231923588120006,0.02532118745148182,-0.008867913857102394,0.0
136,5,-0.000282779976259917,2.6856421300180955e-06,1.2435785720299464e-05,-0.00470257131382823,0.0008031806792132556,-0.0032574122305959463,0.01051062811166048,0.07849075645208359,-0.022284409031271935,-0.0031279046088457108,-0.04088108614087105,-0.002805528696626425,0.0,0.0,0.0,-0.0014322331408038735,-0.0034335472155362368,-0.0,0.0,0.0,0.0,-0.0010509282583370805,-0.007849072106182575,-1.7454805378847027e-09,1495.0,1495.0,1495.0,1495.0,0.0,0.0,0.0,0.0,0.0,0.0,0.0,0.0,1495.0,1495.0,1495.0,1495.0,1.8830169439315796,-0.251396916341059,-0.17309564045536274,0.22234011463106718,0.01557929627597332,-0.004998920485377312,0.0
142,6,-0.00032258121063932776,8.121486644085962e-06,-2.500992195564322e-06,-0.0066571785137057304,-0.0003310290339868516,0.0004894484882242978,0.01051062811166048,0.07849075645208359,-0.022284409031271935,-0.0031279046088457108,-0.04088108614087105,-0.002805528696626425,0.0,0.0,0.0,-0.0014322331408038735,-0.0034335472155362368,-0.0,0.0,0.0,0.0,-0.0010509282583370805,-0.007849072106182575,-1.7454805378847027e-09,1495.0,1495.0,1495.0,1495.0,0.0,0.0,0.0,0.0,0.0,0.0,0.0,0.0,1495.0,1495.0,1495.0,1495.0,1.8830169439315796,-0.25061005202547754,-0.17368193288983388,0.22229953386022622,0.01557929627597332,-0.004998920485377312,0.0
147,5,-0.00035555881913751364,2.2057931801100494e-06,-3.434646350797266e-05,-0.006620184984058142,0.000577471568249166,0.004017235711216927,0.010514735244214535,0.07911986857652664,-0.02228158339858055,0.0021035971585661173,-0.05120459944009781,0.0064756558276712894,0.0,0.0,0.0,0.00036866910522803664,-0.00589335709810257,-0.0,0.0,0.0,0.0,-0.0010537855559960008,-0.007957382127642632,2.5348227961075054e-09,1495.0,1495.0,1495.0,1495.0,0.0,0.0,0.0,0.0,0.0,0.0,0.0,0.0,1495.0,1495.0,1495.0,1495.0,1.8832029104232788,-0.2498516104873798,-0.17426754025614974,0.22221050737505268,0.026742946356534958,0.001286892918869853,0.0
152,5,-0.0003960851754527539,-2.0498186131590046e-05,-4.234841981087811e-05,-0.00751123670488596,0.002955466043204069,0.0025671294424682856,0.010514735244214535,0.07911986857652664,-0.02228158339858055,0.0021035971585661173,-0.05120459944009781,0.0064756558276712894,0.0,0.0,0.0,0.00036866910522803664,-0.00589335709810257,-0.0,0.0,0.0,0.0,-0.0010537855559960008,-0.007957382127642632,2.5348227961075054e-09,1495.0,1495.0,1495.0,1495.0,0.0,0.0,0.0,0.0,0.0,0.0,0.0,0.0,1495.0,1495.0,1495.0,1495.0,1.8832029104232788,-0.25157300415084616,-0.17410489316498512,0.22224938473816502,0.026742946356534958,0.001286892918869853,0.0
157,5,-0.00044538232032209635,-3.1308281904784963e-06,-4.868408359470777e-05,-0.008920150808990002,-0.0009018964483402669,0.0017871311865746975,0.010529570281505585,0.07957401126623154,-0.0222228541970253,0.0009174688602797687,-0.05434989556670189,0.00636920565739274,0.0,0.0,0.0,-0.003207204630598426,-0.006688759662210941,-0.0,0.0,0.0,0.0,-0.0010576042113825679,-0.008000067435204983,1.1628205065505881e-09,1495.0,1495.0,1495.0,1495.0,0.0,0.0,0.0,0.0,0.0,0.0,0.0,0.0,1495.0,1495.0,1495.0,1495.0,1.8831653594970703,-0.2505014074204269,-0.17434070235593516,0.22227004848329462,0.03035152144730091,-0.011194953694939613,0.0
162,5,-0.00047609544708393514,-5.226442681305343e-06,-6.343576387735084e-05,-0.007253637071698904,-0.00010928483970928937,0.00248505431227386,0.010529570281505585,0.07957401126623154,-0.0222228541970253,0.0009174688602797687,-0.05434989556670189,0.00636920565739274,0.0,0.0,0.0,-0.003207204630598426,-0.006688759662210941,-0.0,0.0,0.0,0.0,-0.0010576042113825679,-0.008000067435204983,1.1628205065505881e-09,1495.0,1495.0,1495.0,1495.0,0.0,0.0,0.0,0.0,0.0,0.0,0.0,0.0,1495.0,1495.0,1495.0,1495.0,1.8831653594970703,-0.2509281082941945,-0.17382904962620294,0.22268005453933723,0.03035152144730091,-0.011194953694939613,0.0
167,5,-0.0004988625296391547,7.148075383156538e-06,-5.764512752648443e-05,-0.005633501335978508,-0.0015286561101675034,0.0002991453802678734,0.010582765564322472,0.08017521351575851,-0.022162286564707756,0.002230037935078144,-0.04028233140707016,0.003995969891548157,0.0,0.0,0.0,0.0001094595281756483,-0.006577388849109411,-0.0,0.0,0.0,0.0,-0.0010625618742778897,-0.00805208645761013,2.9011202329343178e-09,1495.0,1495.0,1495.0,1495.0,0.0,0.0,0.0,0.0,0.0,0.0,0.0,0.0,1495.0,1495.0,1495.0,1495.0,1.8819769620895386,-0.25024682001325305,-0.17482471159354568,0.22250230353235684,0.029827482998371124,0.00038183561991900206,0.0
172,5,-0.000528025149833411,1.3798123291053344e-05,-3.4067303204210475e-05,-0.005752917844802141,-0.0014094682410359383,-0.002709680935367942,0.010582765564322472,0.08017521351575851,-0.022162286564707756,0.002230037935078144,-0.04028233140707016,0.003995969891548157,0.0,0.0,0.0,0.0001094595281756483,-0.006577388849109411,-0.0,0.0,0.0,0.0,-0.0010625618742778897,-0.00805208645761013,2.9011202329343178e-09,1495.0,1495.0,1495.0,1495.0,0.0,0.0,0.0,0.0,0.0,0.0,0.0,0.0,1495.0,1495.0,1495.0,1495.0,1.8819769620895386,-0.2498324466882746,-0.17520431579212511,0.22263273144510348,0.029827482998371124,0.00038183561991900206,0.0
177,5,-0.0005599669530056417,7.474377525795717e-06,-1.3942789337306749e-05,-0.006134179886430502,0.0001950621954165399,-0.003498814068734646,0.010617255233228207,0.08052130788564682,-0.022107476368546486,0.004354952368885279,-0.03878413885831833,0.00542884087190032,0.0,0.0,0.0,0.001538170501589775,-0.0054033612832427025,-0.0,0.0,0.0,0.0,-0.0010646972805261612,-0.008083784952759743,2.9895368403032307e-09,1495.0,1495.0,1495.0,1495.0,0.0,0.0,0.0,0.0,0.0,0.0,0.0,0.0,1495.0,1495.0,1495.0,1495.0,1.880751371383667,-0.2475808178030218,-0.17769376551586755,0.22255328964589427,0.024487512186169624,0.005362213589251041,0.0
182,5,-0.0005845525301992893,9.416206921741832e-06,8.307853022415657e-06,-0.005403943359851837,-0.00015499464643653482,-0.004069602582603693,0.010617255233228207,0.08052130788564682,-0.022107476368546486,0.004354952368885279,-0.03878413885831833,0.00542884087190032,0.0,0.0,0.0,0.00018193594587501138,-0.005186750553548336,-0.0,0.0,0.0,0.0,-0.0010646972805261612,-0.008083784952759743,2.9895368403032307e-09,1495.0,1495.0,1495.0,1495.0,0.0,0.0,0.0,0.0,0.0,0.0,0.0,0.0,1495.0,1495.0,1495.0,1495.0,1.8796476125717163,-0.24779939268324835,-0.17806591866135674,0.22233122132038657,0.02349209599196911,0.0006338748498819768,0.0
188,6,-0.0006119392928667367,9.425136340723839e-06,-4.235333108226769e-06,-0.005447991658002138,-6.30693684797734e-05,-0.00012265874829608947,0.010617255233228207,0.08052130788564682,-0.022107476368546486,0.004354952368885279,-0.03878413885831833,0.00542884087190032,0.0,0.0,0.0,0.00018193594587501138,-0.005186750553548336,-0.0,0.0,0.0,0.0,-0.0010646972805261612,-0.008083784952759743,2.9895368403032307e-09,1495.0,1495.0,1495.0,1495.0,0.0,0.0,0.0,0.0,0.0,0.0,0.0,0.0,1495.0,1495.0,1495.0,1495.0,1.8796476125717163,-0.2470662246296518,-0.17810078914257493,0.2227557836819463,0.02349209599196911,0.0006338748498819768,0.0
193,5,-0.0006958559970371425,-8.367437658307608e-06,0.00011269415699644014,-0.012249195948243141,0.0021098812576383352,-0.014080602675676346,0.010649513453245163,0.08137159049510956,-0.021917589008808136,0.0018268466228619218,-0.02926551178097725,0.00597958080470562,0.0,0.0,0.0,0.00018193594587501138,-0.005186750553548336,-0.0,0.0,0.0,0.0,-0.0010658808751031756,-0.008137065917253494,3.945802795612963e-09,1495.0,1495.0,1495.0,1495.0,0.0,0.0,0.0,0.0,0.0,0.0,0.0,0.0,1495.0,1495.0,1495.0,1495.0,1.8796476125717163,-0.2632635533883885,-0.1655618514875699,0.22279526738382302,0.02349209599196911,0.0006338748498819768,0.0
198,5,-0.0007192383054643869,4.729603460873477e-06,0.00010773340181913227,-0.007705559488385916,-0.0007276925025507808,-0.00503695011138916,0.010649513453245163,0.08137159049510956,-0.021917589008808136,0.0018268466228619218,-0.02926551178097725,0.00597958080470562,0.0,0.0,0.0,-0.002288436284288764,-0.011012045666575432,-0.0,0.0,0.0,0.0,-0.0010658808751031756,-0.008137065917253494,3.945802795612963e-09,1495.0,1495.0,1495.0,1495.0,0.0,0.0,0.0,0.0,0.0,0.0,0.0,0.0,1495.0,1495.0,1495.0,1495.0,1.8759294748306274,-0.26308015113527394,-0.16478715994796075,0.2230900466810241,0.04977674409747124,-0.007957253605127335,0.0
203,5,-0.000745143333915621,2.750665953499265e-05,0.00010672660573618487,-0.006190822925418615,-0.003024323610588908,-0.0018939650617539883,0.010656319558620453,0.08183953166007996,-0.02182106114923954,0.008122104220092297,-0.02830142341554165,0.008682643994688988,0.0,0.0,0.0,-0.002288436284288764,-0.011012045666575432,-0.0,0.0,0.0,0.0,-0.001064299256540835,-0.008168516680598259,3.1105011899512647e-09,1495.0,1495.0,1495.0,1495.0,0.0,0.0,0.0,0.0,0.0,0.0,0.0,0.0,1495.0,1495.0,1495.0,1495.0,1.8759294748306274,-0.2631160572673232,-0.1649753990697216,0.22324451036116638,0.04977674409747124,-0.007957253605127335,0.0
208,5,-0.0007728257915005088,2.6574836738291197e-05,7.517460471717641e-05,-0.005798230413347483,-0.0010979108046740294,0.003028654493391514,0.010665646754205227,0.08200588822364807,-0.021812958642840385,-0.0006591295823454857,-0.01565747894346714,-0.0031334087252616882,0.0,0.0,0.0,0.003308966988697648,-0.006053030490875244,-0.0,0.0,0.0,0.0,-0.0010664829751476645,-0.008200576528906822,-6.756401549345981e-10,1495.0,1495.0,1495.0,1495.0,0.0,0.0,0.0,0.0,0.0,0.0,0.0,0.0,1495.0,1495.0,1495.0,1495.0,1.8739162683486938,-0.2628401763602,-0.16462611211904823,0.22311211529821393,0.02733190730214119,0.011493432335555553,0.0
213,5,-0.0008009899756871164,1.8933027604361996e-05,7.22137774573639e-05,-0.0056989905424416065,0.00047785291098989546,0.0015667608240619302,0.010665646754205227,0.08200588822364807,-0.021812958642840385,-0.0006591295823454857,-0.01565747894346714,-0.0031334087252616882,0.0,0.0,0.0,0.003308966988697648,-0.006053030490875244,-0.0,0.0,0.0,0.0,-0.0010664829751476645,-0.008200576528906822,-6.756401549345981e-10,1495.0,1495.0,1495.0,1495.0,0.0,0.0,0.0,0.0,0.0,0.0,0.0,0.0,1495.0,1495.0,1495.0,1495.0,1.8739162683486938,-0.2631816114185687,-0.16444898667789215,0.22323029277763454,0.02733190730214119,0.011493432335555553,0.0
219,6,-0.000845276634208858,5.0427424866938964e-05,0.00012013348168693483,-0.007593993563205004,-0.003588186576962471,-0.00512365996837616,0.010665646754205227,0.08200588822364807,-0.021812958642840385,-0.0006591295823454857,-0.01565747894346714,-0.0031334087252616882,0.0,0.0,0.0,-0.0004856775631196797,-0.005713806487619877,-0.0,0.0,0.0,0.0,-0.0010664829751476645,-0.008200576528906822,-6.756401549345981e-10,1495.0,1495.0,1495.0,1495.0,0.0,0.0,0.0,0.0,0.0,0.0,0.0,0.0,1495.0,1495.0,1495.0,1495.0,1.8737397193908691,-0.2640698081061972,-0.16447681222211707,0.22339365412741852,0.025797896087169647,-0.0016868086531758308,-0.0
224,5,-0.000870033516548574,3.415941682760604e-05,0.0001136512728407979,-0.0060084243305027485,0.0005168863572180271,-0.0012715993216261268,0.01068427599966526,0.08225489407777786,-0.021827001124620438,0.0007119504734873772,-0.009452779777348042,-0.005915192887187004,0.0,0.0,0.0,-0.0004856775631196797,-0.005713806487619877,-0.0,0.0,0.0,0.0,-0.0010678903199732304,-0.008218673057854176,4.944767928449778e-10,1495.0,1495.0,1495.0,1495.0,0.0,0.0,0.0,0.0,0.0,0.0,0.0,0.0,1495.0,1495.0,1495.0,1495.0,1.8737397193908691,-0.26353051624892354,-0.16484131254154816,0.2233067628469905,0.025797896087169647,-0.0016868086531758308,-0.0
229,5,-0.0008976570679806173,3.749698225874454e-05,0.00014495578943751752,-0.005718196742236614,-0.00019375342526473105,-0.004265182185918093,0.01070330198854208,0.08236575871706009,-0.02185535803437233,0.0023170451167970896,-0.006556472275406122,0.0009251519804820418,0.0,0.0,0.0,0.00026887343847192824,-0.005847426131367683,-0.0,0.0,0.0,0.0,-0.0010703334119170904,-0.00823657400906086,6.353066406283858e-10,1495.0,1495.0,1495.0,1495.0,0.0,0.0,0.0,0.0,0.0,0.0,0.0,0.0,1495.0,1495.0,1495.0,1495.0,1.874023199081421,-0.26354299498096406,-0.16396861964143247,0.2235695954055501,0.026405179873108864,0.0009339667740277946,0.0
234,5,-0.0009270586888305843,5.931670602876693e-05,0.00017340117483399808,-0.005815471522510052,-0.002695868257433176,-0.005119518376886845,0.01070330198854208,0.08236575871706009,-0.02185535803437233,0.0023170451167970896,-0.006556472275406122,0.0009251519804820418,0.0,0.0,0.0,0.00026887343847192824,-0.005847426131367683,-0.0,0.0,0.0,0.0,-0.0010703334119170904,-0.00823657400906086,6.353066406283858e-10,1495.0,1495.0,1495.0,1495.0,0.0,0.0,0.0,0.0,0.0,0.0,0.0,0.0,1495.0,1495.0,1495.0,1495.0,1.874023199081421,-0.26291659332746936,-0.16314082181357553,0.2237229300639083,0.026405179873108864,0.0009339667740277946,0.0
241,7,-0.000981893390417099,0.00011093363718828186,0.00025355201796628535,-0.005856496747583151,-0.005007198080420494,-0.007562187500298023,0.01070330198854208,0.08236575871706009,-0.02185535803437233,0.0023170451167970896,-0.006556472275406122,0.0009251519804820418,0.0,0.0,0.0,0.00300375884398818,-0.005963022820651531,-0.0,0.0,0.0,0.0,-0.0010703334119170904,-0.00823657400906086,6.353066406283858e-10,1495.0,1495.0,1495.0,1495.0,0.0,0.0,0.0,0.0,0.0,0.0,0.0,0.0,1495.0,1495.0,1495.0,1495.0,1.8746025562286377,-0.2601846859119714,-0.16130667472254503,0.22515629469310616,0.026935376226902008,0.01043714303523302,0.0
246,5,-0.001002112403512001,0.00012975996651221067,0.00025830056983977556,-0.004768877290189266,-0.0042620389722287655,-0.0035947002470493317,0.010737896896898746,0.08247490227222443,-0.021871862933039665,0.0006021011504344642,-0.003280054545029998,-0.000819399137981236,0.0,0.0,0.0,0.00300375884398818,-0.005963022820651531,-0.0,0.0,0.0,0.0,-0.0010734680108726025,-0.008244645781815052,2.0740442696620676e-10,1495.0,1495.0,1495.0,1495.0,0.0,0.0,0.0,0.0,0.0,0.0,0.0,0.0,1495.0,1495.0,1495.0,1495.0,1.8746025562286377,-0.25906612922168165,-0.16003649242558787,0.22576517716341335,0.026935376226902008,0.01043714303523302,0.0
251,5,-0.0010469680419191718,0.00014880851085763425,0.0002818243228830397,-0.007290233857929707,-0.00399064039811492,-0.004260729067027569,0.010760770179331303,0.08255782723426819,-0.021834194660186768,-8.494704525219277e-05,-0.005427534691989422,-0.0009394775843247771,0.0,0.0,0.0,0.004804830066859722,-0.005185527261346579,-0.0,0.0,0.0,0.0,-0.0010761148296296597,-0.00825577788054943,1.0446613712966624e-10,1495.0,1495.0,1495.0,1495.0,0.0,0.0,0.0,0.0,0.0,0.0,0.0,0.0,1495.0,1495.0,1495.0,1495.0,1.874939203262329,-0.25807834117849876,-0.15983544060102386,0.2257451881980288,0.023427452892065048,0.016698241233825684,0.0
256,5,-0.0011065708240494132,0.00018038997950498015,0.00031096546445041895,-0.010068429633975029,-0.005386032164096832,-0.005201227962970734,0.010760770179331303,0.08255782723426819,-0.021834194660186768,-8.494704525219277e-05,-0.005427534691989422,-0.0009394775843247771,0.0,0.0,0.0,0.004804830066859722,-0.005185527261346579,-0.0,0.0,0.0,0.0,-0.0010761148296296597,-0.00825577788054943,1.0446613712966624e-10,1495.0,1495.0,1495.0,1495.0,0.0,0.0,0.0,0.0,0.0,0.0,0.0,0.0,1495.0,1495.0,1495.0,1495.0,1.874939203262329,-0.2582674791326733,-0.15807940227398268,0.22633736362970713,0.023427452892065048,0.016698241233825684,0.0
262,5,-0.0011111261555925012,0.0001881585776573047,0.00027652678545564413,-0.004574006889015436,-0.003086645156145096,0.0020521478727459908,0.010760770179331303,0.08255782723426819,-0.021834194660186768,-8.494704525219277e-05,-0.005427534691989422,-0.0009394775843247771,0.0,0.0,0.0,0.006100240163505077,-0.009716218337416649,-0.0,0.0,0.0,0.0,-0.0010761148296296597,-0.00825577788054943,1.0446613712966624e-10,1495.0,1495.0,1495.0,1495.0,0.0,0.0,0.0,0.0,0.0,0.0,0.0,0.0,1495.0,1495.0,1495.0,1495.0,1.8742589950561523,-0.25699415092405653,-0.1583824543826812,0.2260011330637215,0.04387972131371498,0.02119240164756775,0.0
267,5,-0.0011454614577814937,0.00020627946651075035,0.0002866719150915742,-0.005949846468865871,-0.0034091644920408726,-0.00039655432919971645,0.010791369713842869,0.08270490169525146,-0.021810811012983322,0.004515978507697582,-0.012509791180491447,0.004682202357798815,0.0,0.0,0.0,0.006100240163505077,-0.009716218337416649,-0.0,0.0,0.0,0.0,-0.001077439053915441,-0.008264327421784401,9.340038742422507e-10,1495.0,1495.0,1495.0,1495.0,0.0,0.0,0.0,0.0,0.0,0.0,0.0,0.0,1495.0,1495.0,1495.0,1495.0,1.8742589950561523,-0.2566837108795186,-0.15734658368048143,0.22642079683622632,0.04387972131371498,0.02119240164756775,0.0
272,5,-0.0011728046229109168,0.00021245848620310426,0.0002934880321845412,-0.005661108531057835,-0.002105147810652852,-0.0009765562717802823,0.010791369713842869,0.08270490169525146,-0.021810811012983322,0.004515978507697582,-0.012509791180491447,0.004682202357798815,0.0,0.0,0.0,0.004008688032627106,-0.00634640920907259,-0.0,0.0,0.0,0.0,-0.001077439053915441,-0.008264327421784401,9.340038742422507e-10,1495.0,1495.0,1495.0,1495.0,0.0,0.0,0.0,0.0,0.0,0.0,0.0,0.0,1495.0,1495.0,1495.0,1495.0,1.873718500137329,-0.2573141280940979,-0.15568821513033046,0.22687054815262064,0.028653515502810478,0.013922365382313728,0.0
277,5,-0.0011761665809899569,0.00023737309675198048,0.00031502911588177085,-0.002667889930307865,-0.003831812646239996,-0.0029755528084933758,0.010791369713842869,0.08270490169525146,-0.021810811012983322,0.004515978507697582,-0.012509791180491447,0.004682202357798815,0.0,0.0,0.0,0.004008688032627106,-0.00634640920907259,-0.0,0.0,0.0,0.0,-0.0010806472273543477,-0.00827995128929615,4.717319868063896e-10,1495.0,1495.0,1495.0,1495.0,0.0,0.0,0.0,0.0,0.0,0.0,0.0,0.0,1495.0,1495.0,1495.0,1495.0,1.873718500137329,-0.2570896141805627,-0.15546627172094737,0.2269881436839916,0.028653515502810478,0.013922365382313728,0.0
282,5,-0.0011878706282004714,0.00024593831039965153,0.00035732827382162213,-0.0024716355837881565,-0.0025605515111237764,-0.006266120821237564,0.010791369713842869,0.08270490169525146,-0.021810811012983322,0.004515978507697582,-0.012509791180491447,0.004682202357798815,0.0,0.0,0.0,0.0031555392779409885,-0.003510224400088191,-0.0,0.0,0.0,0.0,-0.0010806472273543477,-0.00827995128929615,4.717319868063896e-10,1495.0,1495.0,1495.0,1495.0,0.0,0.0,0.0,0.0,0.0,0.0,0.0,0.0,1495.0,1495.0,1495.0,1495.0,1.873686671257019,-0.25727840850547995,-0.1548362321179414,0.22712995479521675,0.015848226845264435,0.010959173552691936,0.0
287,5,-0.0011900556273758411,0.0002587981289252639,0.0003850528155453503,-0.0012508584186434746,-0.002567396964877844,-0.00583339249715209,0.010826978832483292,0.08289781212806702,-0.021760402247309685,0.00031540144118480384,-0.0003232879680581391,-0.0012174276635050774,0.0,0.0,0.0,0.0031555392779409885,-0.003510224400088191,-0.0,0.0,0.0,0.0,-0.0010821601608768106,-0.008287061005830765,2.19575899129687e-10,1495.0,1495.0,1495.0,1495.0,0.0,0.0,0.0,0.0,0.0,0.0,0.0,0.0,1495.0,1495.0,1495.0,1495.0,1.873686671257019,-0.256316761824725,-0.15467108574529473,0.22729515127418815,0.015848226845264435,0.010959173552691936,0.0
292,5,-0.0011716110166162252,0.0002601209853310138,0.0004046351241413504,0.0017130168853327632,-0.0011857029749080539,-0.004683234728872776,0.010826978832483292,0.08289781212806702,-0.021760402247309685,0.00031540144118480384,-0.0003232879680581391,-0.0012174276635050774,0.0,0.0,0.0,0.0016947226831689477,-1.5742751202196814e-05,-0.0,0.0,0.0,0.0,-0.0010821601608768106,-0.008287061005830765,2.19575899129687e-10,1495.0,1495.0,1495.0,1495.0,0.0,0.0,0.0,0.0,0.0,0.0,0.0,0.0,1495.0,1495.0,1495.0,1495.0,1.8726552724838257,-0.25715898474956983,-0.1559669850400009,0.22690316578045577,7.103784446371719e-05,0.005882536992430687,0.0
297,5,-0.0011732116108760238,0.00028886939981020987,0.0004024610680062324,0.0004931341973133385,-0.003924092277884483,-0.0016124079702422023,0.010825986973941326,0.0828828439116478,-0.021785082295536995,0.0015741767128929496,0.009227728471159935,-0.004710497334599495,0.0,0.0,0.0,0.0016947226831689477,-1.5742751202196814e-05,-0.0,0.0,0.0,0.0,-0.0010826648212969303,-0.008288287557661533,-8.767351428184966e-11,1495.0,1495.0,1495.0,1495.0,0.0,0.0,0.0,0.0,0.0,0.0,0.0,0.0,1495.0,1495.0,1495.0,1495.0,1.8726552724838257,-0.25719438984717147,-0.15553120761277267,0.2270078529970763,7.103784446371719e-05,0.005882536992430687,0.0
302,5,-0.0011888686567544937,0.0003120868932455778,0.00039406001451425254,-0.001681590685620904,-0.00435573561117053,0.0003631642321124673,0.010825986973941326,0.0828828439116478,-0.021785082295536995,0.0015741767128929496,0.009227728471159935,-0.004710497334599495,0.0,0.0,0.0,0.0016947226831689477,-1.5742751202196814e-05,-0.0,0.0,0.0,0.0,-0.0010826648212969303,-0.008288287557661533,-8.767351428184966e-11,1495.0,1495.0,1495.0,1495.0,0.0,0.0,0.0,0.0,0.0,0.0,0.0,0.0,1495.0,1495.0,1495.0,1495.0,1.8726552724838257,-0.25740706557647525,-0.15361870005748868,0.2276519844259608,7.103784446371719e-05,0.005882536992430687,0.0
307,5,-0.001144498004578054,0.0003095236897934228,0.0003153834259137511,0.004651844967156649,-0.0014347081305459142,0.009586458094418049,0.010875682346522808,0.08287183195352554,-0.021844612434506416,0.0009104454657062888,0.011549155227839947,-0.007863972336053848,0.0,0.0,0.0,0.005200750194489956,-0.00285812234506011,-0.0,0.0,0.0,0.0,-0.0010862632188946009,-0.008287779055535793,-2.1376482528534524e-10,1495.0,1495.0,1495.0,1495.0,0.0,0.0,0.0,0.0,0.0,0.0,0.0,0.0,1495.0,1495.0,1495.0,1495.0,1.873181700706482,-0.25743046337267456,-0.15556023534644883,0.22696431756003949,0.012900488451123238,0.018057219684123993,-0.0
312,5,-0.0011512498604133725,0.0003285440325271338,0.0002980997087433934,0.0010505055543035269,-0.0028563246596604586,0.005908627063035965,0.010875682346522808,0.08287183195352554,-0.021844612434506416,0.0009104454657062888,0.011549155227839947,-0.007863972336053848,0.0,0.0,0.0,0.005200750194489956,-0.00285812234506011,-0.0,0.0,0.0,0.0,-0.0010862632188946009,-0.008287779055535793,-2.1376482528534524e-10,1495.0,1495.0,1495.0,1495.0,0.0,0.0,0.0,0.0,0.0,0.0,0.0,0.0,1495.0,1495.0,1495.0,1495.0,1.873181700706482,-0.25687672901489067,-0.15457008480386236,0.22678645109201676,0.012900488451123238,0.018057219684123993,-0.0
318,5,-0.0011361942160874605,0.0003352611674927175,0.00027518573915585876,0.0022268863394856453,-0.0019485882949084044,0.0051131281070411205,0.010897871106863022,0.08278927206993103,-0.02185395546257496,0.001675790990702808,0.02174360118806362,-0.0034801410511136055,0.0,0.0,0.0,0.0036054716911166906,-0.0005430825985968113,-0.0,0.0,0.0,0.0,-0.001092782011255622,-0.00826448854058981,-1.7499544036070347e-09,1495.0,1495.0,1495.0,1495.0,0.0,0.0,0.0,0.0,0.0,0.0,0.0,0.0,1495.0,1495.0,1495.0,1495.0,1.8743573427200317,-0.25629020645350553,-0.15476785619979028,0.22652768546525098,0.002452829387038946,0.012526257894933224,-0.0
323,5,-0.0011391956359148026,0.0003599982592277229,0.000301803374895826,0.0005305812228471041,-0.003747885813936591,-0.0011488666059449315,0.010897871106863022,0.08278927206993103,-0.02185395546257496,0.001675790990702808,0.02174360118806362,-0.0034801410511136055,0.0,0.0,0.0,0.0036054716911166906,-0.0005430825985968113,-0.0,0.0,0.0,0.0,-0.001092782011255622,-0.00826448854058981,-1.7499544036070347e-09,1495.0,1495.0,1495.0,1495.0,0.0,0.0,0.0,0.0,0.0,0.0,0.0,0.0,1495.0,1495.0,1495.0,1495.0,1.8743573427200317,-0.25603755777627585,-0.15509425140911937,0.22667629701280614,0.002452829387038946,0.012526257894933224,-0.0
328,5,-0.001120021683163941,0.0003765197179745883,0.0003182626096531749,0.0025131122674793005,-0.0034817291889339685,-0.0024346529971808195,0.010930631309747696,0.08239264786243439,-0.021948890760540962,-5.267307278700173e-05,0.02471780776977539,-0.0035321065224707127,0.0,0.0,0.0,0.004617537371814251,-0.0009610038832761347,-0.0,0.0,0.0,0.0,-0.0010934507008641958,-0.008239252492785454,7.652408151592738e-10,1495.0,1495.0,1495.0,1495.0,0.0,0.0,0.0,0.0,0.0,0.0,0.0,0.0,1495.0,1495.0,1495.0,1495.0,1.8745534420013428,-0.25537782375438783,-0.15538785025914514,0.22660587492095924,0.004340804181993008,0.016044050455093384,0.0
333,5,-0.001063871313817799,0.00035698231658898294,0.0002968801709357649,0.007743290159851313,0.0009517978760413826,0.0015920292353257537,0.010930631309747696,0.08239264786243439,-0.021948890760540962,-5.267307278700173e-05,0.02471780776977539,-0.0035321065224707127,0.0,0.0,0.0,0.004617537371814251,-0.0009610038832761347,-0.0,0.0,0.0,0.0,-0.0010934507008641958,-0.008239252492785454,7.652408151592738e-10,1495.0,1495.0,1495.0,1495.0,0.0,0.0,0.0,0.0,0.0,0.0,0.0,0.0,1495.0,1495.0,1495.0,1495.0,1.8745534420013428,-0.25662918484662467,-0.15719039742964253,0.22626347880109177,0.004340804181993008,0.016044050455093384,0.0
338,5,-0.0010553706670179963,0.00038398915785364807,0.0003279418160673231,0.004117388278245926,-0.0028601016383618116,-0.0030905837193131447,0.010927041061222553,0.08218243718147278,-0.021965118125081062,-0.0023927993606776,0.027002688497304916,-0.002995887538418174,0.0,0.0,0.0,-0.00045855462667532265,0.005112567450851202,-0.0,0.0,0.0,0.0,-0.0010936700273305178,-0.008225779049098492,6.894949611258028e-10,1495.0,1495.0,1495.0,1495.0,0.0,0.0,0.0,0.0,0.0,0.0,0.0,0.0,1495.0,1495.0,1495.0,1495.0,1.8764641284942627,-0.2557065077452329,-0.15587833219972638,0.22704108429107855,-0.023116882890462875,-0.001594923553057015,-0.0
343,5,-0.0010416678851470351,0.00040728203020989895,0.00033633006387390196,0.0032912909518927336,-0.003939186688512564,-0.0022428235970437527,0.010927041061222553,0.08218243718147278,-0.021965118125081062,-0.0023927993606776,0.027002688497304916,-0.002995887538418174,0.0,0.0,0.0,-0.00045855462667532265,0.005112567450851202,-0.0,0.0,0.0,0.0,-0.0010936700273305178,-0.008225779049098492,6.894949611258028e-10,1495.0,1495.0,1495.0,1495.0,0.0,0.0,0.0,0.0,0.0,0.0,0.0,0.0,1495.0,1495.0,1495.0,1495.0,1.8764641284942627,-0.25612595417381806,-0.15523939379833576,0.22717304281628486,-0.023116882890462875,-0.001594923553057015,-0.0
348,5,-0.001017349073663354,0.00042078710976056755,0.00035209517227485776,0.004234765190631151,-0.003196283243596554,-0.002788940677419305,0.01091738510876894,0.08196346461772919,-0.021970240399241447,0.0018566336948424578,0.03841422498226166,0.0018025119788944721,0.0,0.0,0.0,0.004893893841654062,0.0014461216051131487,-0.0,0.0,0.0,0.0,-0.0010918027255684137,-0.008196350187063217,-1.863356580145137e-09,1495.0,1495.0,1495.0,1495.0,0.0,0.0,0.0,0.0,0.0,0.0,0.0,0.0,1495.0,1495.0,1495.0,1495.0,1.8767896890640259,-0.2561725393284199,-0.15495107329312607,0.22702324175181715,-0.006539837922900915,0.01702454686164856,0.0
353,5,-0.0010168245062232018,0.0004344007174950093,0.0003500169259496033,0.001756862853653729,-0.0029121481347829103,-0.0008661868050694466,0.01091738510876894,0.08196346461772919,-0.021970240399241447,0.0018566336948424578,0.03841422498226166,0.0018025119788944721,0.0,0.0,0.0,0.004893893841654062,0.0014461216051131487,-0.0,0.0,0.0,0.0,-0.0010918027255684137,-0.008196350187063217,-1.863356580145137e-09,1495.0,1495.0,1495.0,1495.0,0.0,0.0,0.0,0.0,0.0,0.0,0.0,0.0,1495.0,1495.0,1495.0,1495.0,1.8767896890640259,-0.25540219690523036,-0.154000213380272,0.2271572899798034,-0.006539837922900915,0.01702454686164856,0.0
358,5,-0.0009776881197467446,0.00042312726145610213,0.00031443210900761187,0.005399108864367008,0.00018795837240759283,0.003923702985048294,0.010905523784458637,0.08154449611902237,-0.02194829285144806,0.001648066332563758,0.042767807841300964,-0.0028018353041261435,0.0,0.0,0.0,0.00382994394749403,0.00020304889767430723,-0.0,0.0,0.0,0.0,-0.0010910192504525185,-0.008169353008270264,-2.1007808825856955e-09,1495.0,1495.0,1495.0,1495.0,0.0,0.0,0.0,0.0,0.0,0.0,0.0,0.0,1495.0,1495.0,1495.0,1495.0,1.8768818378448486,-0.2556751435733247,-0.15389931891721556,0.2272742181216118,-0.0009183036163449287,0.013324041850864887,0.0
363,5,-0.0009456743719056249,0.0004284813767299056,0.0002998642739839852,0.0060012927278876305,-0.0005673129926435649,0.0033176203723996878,0.010905523784458637,0.08154449611902237,-0.02194829285144806,0.001648066332563758,0.042767807841300964,-0.0028018353041261435,0.0,0.0,0.0,0.00382994394749403,0.00020304889767430723,-0.0,0.0,0.0,0.0,-0.0010910192504525185,-0.008169353008270264,-2.1007808825856955e-09,1495.0,1495.0,1495.0,1495.0,0.0,0.0,0.0,0.0,0.0,0.0,0.0,0.0,1495.0,1495.0,1495.0,1495.0,1.8768818378448486,-0.2556105717856087,-0.15396128879087573,0.2268164251658821,-0.0009183036163449287,0.013324041850864887,0.0
368,5,-0.0009181397035717964,0.00045215393765829504,0.0003153159050270915,0.005704677198082209,-0.003067630808800459,-0.0005271473783068359,0.010905523784458637,0.08154449611902237,-0.02194829285144806,0.001648066332563758,0.042767807841300964,-0.0028018353041261435,0.0,0.0,0.0,0.001293824752792716,0.0038089859299361706,-0.0,0.0,0.0,0.0,-0.0010910192504525185,-0.008169353008270264,-2.1007808825856955e-09,1495.0,1495.0,1495.0,1495.0,0.0,0.0,0.0,0.0,0.0,0.0,0.0,0.0,1495.0,1495.0,1495.0,1495.0,1.876442551612854,-0.25446260982095353,-0.15365510838165133,0.2273172010239758,-0.017222458496689796,0.004500067792832851,-0.0
373,5,-0.0008860942907631397,0.00045891301124356687,0.00031636407948099077,0.006127319764345884,-0.0020381419453769922,-0.0003366412711329758,0.010908585973083973,0.08122140914201736,-0.02189759537577629,0.0049158306792378426,0.05646373704075813,0.010201701894402504,0.0,0.0,0.0,0.001293824752792716,0.0038089859299361706,-0.0,0.0,0.0,0.0,-0.0010899142362177372,-0.008122069761157036,-6.9550711856436465e-09,1495.0,1495.0,1495.0,1495.0,0.0,0.0,0.0,0.0,0.0,0.0,0.0,0.0,1495.0,1495.0,1495.0,1495.0,1.876442551612854,-0.2543633015110445,-0.15273871011728563,0.2276436220631493,-0.017222458496689796,0.004500067792832851,-0.0
378,5,-0.0008353849407285452,0.00046184120583347976,0.0002975014504045248,0.008536052890121937,-0.0011666411301121116,0.002128861378878355,0.010908585973083973,0.08122140914201736,-0.02189759537577629,0.0049158306792378426,0.05646373704075813,0.010201701894402504,0.0,0.0,0.0,0.0029298632871359587,0.003987359814345837,-0.0,0.0,0.0,0.0,-0.0010899142362177372,-0.008122069761157036,-6.9550711856436465e-09,1495.0,1495.0,1495.0,1495.0,0.0,0.0,0.0,0.0,0.0,0.0,0.0,0.0,1495.0,1495.0,1495.0,1495.0,1.8754322528839111,-0.25470961486123844,-0.1527115358637553,0.22757915838053497,-0.018019206821918488,0.010184885933995247,0.0
383,5,-0.0007958339410834014,0.0004739347496069968,0.0003010242653544992,0.008160541765391827,-0.0019178808433935046,0.00042880524415522814,0.010901691392064095,0.08063589036464691,-0.0217303354293108,0.002006872557103634,0.05632106587290764,0.01438038982450962,0.0,0.0,0.0,0.0029298632871359587,0.003987359814345837,-0.0,0.0,0.0,0.0,-0.0010885301744565368,-0.00804148893803358,-9.019757385431149e-09,1495.0,1495.0,1495.0,1495.0,0.0,0.0,0.0,0.0,0.0,0.0,0.0,0.0,1495.0,1495.0,1495.0,1495.0,1.8754322528839111,-0.2556230691535373,-0.15300765939165634,0.2275286276014163,-0.018019206821918488,0.010184885933995247,0.0
388,5,-0.0007687131292186677,0.0004877879982814193,0.0003175019519403577,0.0065187085419893265,-0.0024295428302139044,-0.001805801410228014,0.010901691392064095,0.08063589036464691,-0.0217303354293108,0.002006872557103634,0.05632106587290764,0.01438038982450962,0.0,0.0,0.0,0.002829489763826132,0.005794054362922907,-0.0,0.0,0.0,0.0,-0.0010885301744565368,-0.00804148893803358,-9.019757385431149e-09,1495.0,1495.0,1495.0,1495.0,0.0,0.0,0.0,0.0,0.0,0.0,0.0,0.0,1495.0,1495.0,1495.0,1495.0,1.8720871210098267,-0.25403492820869666,-0.15191138572901625,0.2280302800882394,-0.026137037202715874,0.009818421676754951,-0.0
394,5,-0.0007282403530552983,0.00048139900900423527,0.00032324623316526413,0.007464220747351646,-0.00020513805793598294,-0.0014116339152678847,0.010907734744250774,0.08020039647817612,-0.021634455770254135,0.0025069424882531166,0.05810592696070671,0.017109369859099388,0.0,0.0,0.0,0.002829489763826132,0.005794054362922907,-0.0,0.0,0.0,0.0,-0.001087741693481803,-0.007973780855536461,-3.4128757597784443e-09,1495.0,1495.0,1495.0,1495.0,0.0,0.0,0.0,0.0,0.0,0.0,0.0,0.0,1495.0,1495.0,1495.0,1495.0,1.8720871210098267,-0.25400169368636427,-0.15191476168178084,0.22815393862312136,-0.026137037202715874,0.009818421676754951,-0.0
399,5,-0.0007053858716972172,0.00047554951743222773,0.0003232868912164122,0.005728226155042648,0.0006198856281116605,-0.0005695326253771782,0.010907734744250774,0.08020039647817612,-0.021634455770254135,0.0025069424882531166,0.05810592696070671,0.017109369859099388,0.0,0.0,0.0,0.000991971930488944,0.005302440840750933,-0.0,0.0,0.0,0.0,-0.001087741693481803,-0.007973780855536461,-3.4128757597784443e-09,1495.0,1495.0,1495.0,1495.0,0.0,0.0,0.0,0.0,0.0,0.0,0.0,0.0,1495.0,1495.0,1495.0,1495.0,1.8701473474502563,-0.2551054396505317,-0.15127048932710507,0.22825630479355435,-0.02389468438923359,0.003438615705817938,0.0
404,5,-0.0006531342514790595,0.00046921445755288005,0.000325945409713313,0.008561483584344387,0.0010081615764647722,-0.0005468330346047878,0.010889004915952682,0.07947659492492676,-0.021447984501719475,0.0010066775139421225,0.06930791586637497,0.01013978011906147,0.0,0.0,0.0,0.000991971930488944,0.005302440840750933,-0.0,0.0,0.0,0.0,-0.0010860271286219358,-0.007921024225652218,4.880418735808689e-09,1495.0,1495.0,1495.0,1495.0,0.0,0.0,0.0,0.0,0.0,0.0,0.0,0.0,1495.0,1495.0,1495.0,1495.0,1.8701473474502563,-0.25498050320828547,-0.1520108856413778,0.22806330122311722,-0.02389468438923359,0.003438615705817938,0.0
409,5,-0.0006239835638552904,0.00045852005132474005,0.00032875611213967204,0.006922674365341663,0.0016865931684151292,-0.0005560181452892721,0.010889004915952682,0.07947659492492676,-0.021447984501719475,0.0010066775139421225,0.06930791586637497,0.01013978011906147,0.0,0.0,0.0,-0.00034004723420366645,0.006319280248135328,-0.0,0.0,0.0,0.0,-0.0010860271286219358,-0.007921024225652218,4.880418735808689e-09,1495.0,1495.0,1495.0,1495.0,0.0,0.0,0.0,0.0,0.0,0.0,0.0,0.0,1495.0,1495.0,1495.0,1495.0,1.86640465259552,-0.25586736339509925,-0.15072100325128612,0.22833116183787902,-0.028419891372323036,-0.0011763961520045996,0.0
414,5,-0.0005841320962645113,0.00046625290997326374,0.0003252426686231047,0.007551243994385004,-0.0002533055667299777,0.00019920695922337472,0.010849377140402794,0.07894698530435562,-0.02137710526585579,-0.0036058002151548862,0.06969168782234192,0.008008204400539398,0.0,0.0,0.0,-0.00034004723420366645,0.006319280248135328,-0.0,0.0,0.0,0.0,-0.0010801820317283273,-0.007843361236155033,7.38091365803939e-09,1495.0,1495.0,1495.0,1495.0,0.0,0.0,0.0,0.0,0.0,0.0,0.0,0.0,1495.0,1495.0,1495.0,1495.0,1.86640465259552,-0.25487248638668203,-0.15041581386513023,0.22849377301664592,-0.028419891372323036,-0.0011763961520045996,0.0
419,5,-0.0005420362576842308,0.00047192975762300193,0.00031432550167664886,0.008071999996900558,-0.0007825451903045177,0.0013897423632442951,0.010849377140402794,0.07894698530435562,-0.02137710526585579,-0.0036058002151548862,0.06969168782234192,0.008008204400539398,0.0,0.0,0.0,0.001023962628096342,0.005565054249018431,-0.0,0.0,0.0,0.0,-0.0010801820317283273,-0.007843361236155033,7.38091365803939e-09,1495.0,1495.0,1495.0,1495.0,0.0,0.0,0.0,0.0,0.0,0.0,0.0,0.0,1495.0,1495.0,1495.0,1495.0,1.8649696111679077,-0.25492191903194283,-0.15054113509591036,0.22837584277443648,-0.02500866912305355,0.0035396821331232786,-0.0
424,5,-0.0005199160077609122,0.0004793978005181998,0.0003276571223977953,0.005883230362087488,-0.0012091847602277994,-0.0010438973549753428,0.010780731216073036,0.07820562273263931,-0.021326184272766113,-0.0016690065385773778,0.05897357314825058,0.0013738260604441166,0.0,0.0,0.0,0.002083530882373452,0.004253637511283159,-0.0,0.0,0.0,0.0,-0.001077486202120781,-0.007794619537889957,1.282292405591079e-08,1495.0,1495.0,1495.0,1495.0,0.0,0.0,0.0,0.0,0.0,0.0,0.0,0.0,1495.0,1495.0,1495.0,1495.0,1.8639347553253174,-0.25459939789445307,-0.15060990084643192,0.22804083574191691,-0.0191047266125679,0.00719844363629818,0.0
429,5,-0.00047835850273258984,0.00046860086149536073,0.0003059850132558495,0.007340193260461092,0.0008119595586322248,0.0021830920595675707,0.010780731216073036,0.07820562273263931,-0.021326184272766113,-0.0016690065385773778,0.05897357314825058,0.0013738260604441166,0.0,0.0,0.0,0.002083530882373452,0.004253637511283159,-0.0,0.0,0.0,0.0,-0.001077486202120781,-0.007794619537889957,1.282292405591079e-08,1495.0,1495.0,1495.0,1495.0,0.0,0.0,0.0,0.0,0.0,0.0,0.0,0.0,1495.0,1495.0,1495.0,1495.0,1.8639347553253174,-0.2538771273470464,-0.15102728311482175,0.22809176138247303,-0.0191047266125679,0.00719844363629818,0.0
434,5,-0.0004625758738256991,0.00046266947174444795,0.0003243942919652909,0.0048299930058419704,0.001036551664583385,-0.0013358740834519267,0.010725685395300388,0.07771317660808563,-0.021397309377789497,-0.0026945616118609905,0.049528978765010834,-0.007656686007976532,0.0,0.0,0.0,0.002083530882373452,0.004253637511283159,-0.0,0.0,0.0,0.0,-0.0010710172355175018,-0.007739271968603134,3.751140731367286e-09,1495.0,1495.0,1495.0,1495.0,0.0,0.0,0.0,0.0,0.0,0.0,0.0,0.0,1495.0,1495.0,1495.0,1495.0,1.8639347553253174,-0.2531703893770691,-0.15081798568477758,0.2279010137217107,-0.0191047266125679,0.00719844363629818,0.0
439,5,-0.00044774997513741255,0.0004454421577975154,0.00031633529579266906,0.0037111046258360147,0.00248189945705235,0.0004327277129050344,0.010725685395300388,0.07771317660808563,-0.021397309377789497,-0.0026945616118609905,0.049528978765010834,-0.007656686007976532,0.0,0.0,0.0,-0.00037981124478392303,0.003441422712057829,-0.0,0.0,0.0,0.0,-0.0010710172355175018,-0.007739271968603134,3.751140731367286e-09,1495.0,1495.0,1495.0,1495.0,0.0,0.0,0.0,0.0,0.0,0.0,0.0,0.0,1495.0,1495.0,1495.0,1495.0,1.8653578758239746,-0.2533237686310672,-0.1503103421178861,0.22793361482423002,-0.015468606725335121,-0.00131322315428406,0.0
444,5,-0.00040491591789759696,0.00041375771979801357,0.00030743141542188823,0.006624528206884861,0.004794890992343426,0.001241555786691606,0.010684563778340816,0.07723585516214371,-0.021530315279960632,-0.002143683610484004,0.038690511137247086,-0.00974833033978939,0.0,0.0,0.0,-0.00037981124478392303,0.003441422712057829,-0.0,0.0,0.0,0.0,-0.0010694375960156322,-0.007707225624471903,7.480090324918365e-09,1495.0,1495.0,1495.0,1495.0,0.0,0.0,0.0,0.0,0.0,0.0,0.0,0.0,1495.0,1495.0,1495.0,1495.0,1.8653578758239746,-0.25457906434368793,-0.15087264899221406,0.22764309693116114,-0.015468606725335121,-0.00131322315428406,0.0
449,5,-0.0003779481630772352,0.0004060365608893335,0.00031711795600131154,0.005885941907763481,0.0028444945346564054,-0.0006657615303993225,0.010684563778340816,0.07723585516214371,-0.021530315279960632,-0.002143683610484004,0.038690511137247086,-0.00974833033978939,0.0,0.0,0.0,-0.004526800010353327,0.005001580808311701,-0.0,0.0,0.0,0.0,-0.0010694375960156322,-0.007707225624471903,7.480090324918365e-09,1495.0,1495.0,1495.0,1495.0,0.0,0.0,0.0,0.0,0.0,0.0,0.0,0.0,1495.0,1495.0,1495.0,1495.0,1.8680672645568848,-0.2544443609365354,-0.14964347005617715,0.22767831915861786,-0.022513624280691147,-0.015674354508519173,-0.0
454,5,-0.00033994580735452473,0.0003936355060432106,0.0003294911002740264,0.0069146594032645226,0.0026259254664182663,-0.0017510824836790562,0.01066393032670021,0.07690738141536713,-0.021640563383698463,-0.0033283557277172804,0.03791280835866928,-0.01381618995219469,0.0,0.0,0.0,-0.004526800010353327,0.005001580808311701,-0.0,0.0,0.0,0.0,-0.0010666904272511601,-0.007659334689378738,4.2170161806964757e-10,1495.0,1495.0,1495.0,1495.0,0.0,0.0,0.0,0.0,0.0,0.0,0.0,0.0,1495.0,1495.0,1495.0,1495.0,1.8680672645568848,-0.25449123087864955,-0.1500900023413203,0.22752419193387233,-0.022513624280691147,-0.015674354508519173,-0.0
460,5,-0.000336092576617375,0.00037326585152186453,0.0003341164265293628,0.0032282518222928047,0.0034947283565998077,-0.0012554727727547288,0.01066393032670021,0.07690738141536713,-0.021640563383698463,-0.0033283557277172804,0.03791280835866928,-0.01381618995219469,0.0,0.0,0.0,-0.002206676872447133,0.005316050723195076,-0.0,0.0,0.0,0.0,-0.0010666904272511601,-0.007659334689378738,4.2170161806964757e-10,1495.0,1495.0,1495.0,1495.0,0.0,0.0,0.0,0.0,0.0,0.0,0.0,0.0,1495.0,1495.0,1495.0,1495.0,1.8702739477157593,-0.2544231255568912,-0.14966777155233443,0.22784982311566185,-0.023957591503858566,-0.007649831939488649,0.0
465,5,-0.00030567252542823553,0.0003542585764080286,0.0003141057095490396,0.004941706079989672,0.0036787630524486303,0.001899099675938487,0.0106397969648242,0.07619041204452515,-0.021816059947013855,-0.00011333318252582103,0.026988977566361427,-0.003481730818748474,0.0,0.0,0.0,-0.002206676872447133,0.005316050723195076,-0.0,0.0,0.0,0.0,-0.001064761308953166,-0.007631947752088308,4.909095352445547e-09,1495.0,1495.0,1495.0,1495.0,0.0,0.0,0.0,0.0,0.0,0.0,0.0,0.0,1495.0,1495.0,1495.0,1495.0,1.8702739477157593,-0.25448601655028613,-0.15070200164219444,0.22785544270594033,-0.023957591503858566,-0.007649831939488649,0.0
470,5,-0.00031669746385887265,0.0003471622767392546,0.0003255406627431512,0.0006536907749250531,0.002323061227798462,-0.0006125546642579138,0.0106397969648242,0.07619041204452515,-0.021816059947013855,-0.00011333318252582103,0.026988977566361427,-0.003481730818748474,0.0,0.0,0.0,-0.0034012289252132177,0.0037089274264872074,-0.0,0.0,0.0,0.0,-0.001064761308953166,-0.007631947752088308,4.909095352445547e-09,1495.0,1495.0,1495.0,1495.0,0.0,0.0,0.0,0.0,0.0,0.0,0.0,0.0,1495.0,1495.0,1495.0,1495.0,1.8737949132919312,-0.2544832767700067,-0.15007427743478127,0.22778964293074222,-0.016746297478675842,-0.011813129298388958,-0.0
475,5,-0.00031903141643851995,0.0003269086591899395,0.00031032616971060634,-1.8596789232105948e-05,0.003359659807756543,0.001580715412274003,0.0106397969648242,0.07619041204452515,-0.021816059947013855,-0.00011333318252582103,0.026988977566361427,-0.003481730818748474,0.0,0.0,0.0,-0.0034012289252132177,0.0037089274264872074,-0.0,0.0,0.0,0.0,-0.001064761308953166,-0.007631947752088308,4.909095352445547e-09,1495.0,1495.0,1495.0,1495.0,0.0,0.0,0.0,0.0,0.0,0.0,0.0,0.0,1495.0,1495.0,1495.0,1495.0,1.8737949132919312,-0.2540921635631282,-0.15033314006025364,0.22769947203690086,-0.016746297478675842,-0.011813129298388958,-0.0
480,5,-0.0003244388208258897,0.000315664685331285,0.00029292175895534456,-0.0006563268252648413,0.0026931394822895527,0.002720815362408757,0.010644608177244663,0.07603251934051514,-0.021788321435451508,-0.0063147228211164474,-0.001259292010217905,0.0070972139947116375,0.0,0.0,0.0,-0.0031005721539258957,-0.0004274895181879401,-0.0,0.0,0.0,0.0,-0.0010645604925230145,-0.007603747770190239,2.1664710025959266e-09,1495.0,1495.0,1495.0,1495.0,0.0,0.0,0.0,0.0,0.0,0.0,0.0,0.0,1495.0,1495.0,1495.0,1495.0,1.8732229471206665,-0.2548229470647967,-0.1509883856268235,0.22748989327670768,0.0019295887323096395,-0.010765609331429005,-0.0
485,5,-0.0003363259311299771,0.0003303196863271296,0.00029459019424393773,-0.0016889858525246382,-0.0006813433137722313,0.0008881136309355497,0.010644608177244663,0.07603251934051514,-0.021788321435451508,-0.0063147228211164474,-0.001259292010217905,0.0070972139947116375,0.0,0.0,0.0,-0.0031005721539258957,-0.0004274895181879401,-0.0,0.0,0.0,0.0,-0.0010645604925230145,-0.007603747770190239,2.1664710025959266e-09,1495.0,1495.0,1495.0,1495.0,0.0,0.0,0.0,0.0,0.0,0.0,0.0,0.0,1495.0,1495.0,1495.0,1495.0,1.8732229471206665,-0.2544891093552525,-0.1507959751520436,0.2276239218814531,0.0019295887323096395,-0.010765609331429005,-0.0
490,5,-0.0003480589366517961,0.000331037153955549,0.0002856617793440819,-0.0020835548639297485,-0.00035863384255208075,0.0014266560319811106,0.01068752072751522,0.07610783725976944,-0.02171940729022026,0.0027316047344356775,-0.01922384276986122,0.013232197612524033,0.0,0.0,0.0,0.0012705426197499037,-0.0018379628891125321,-0.0,0.0,0.0,0.0,-0.0010662508429959416,-0.00760602718219161,2.925928943575684e-10,1495.0,1495.0,1495.0,1495.0,0.0,0.0,0.0,0.0,0.0,0.0,0.0,0.0,1495.0,1495.0,1495.0,1495.0,1.8718332052230835,-0.2539517771173246,-0.1510276699593984,0.2277093323375444,0.008290012367069721,0.004408234730362892,-0.0
495,5,-0.00036632741102948785,0.00034173764288425446,0.0003075745771639049,-0.0030256365425884724,-0.0014275097055360675,-0.0020588720217347145,0.01068752072751522,0.07610783725976944,-0.02171940729022026,0.0027316047344356775,-0.01922384276986122,0.013232197612524033,0.0,0.0,0.0,0.0012705426197499037,-0.0018379628891125321,-0.0,0.0,0.0,0.0,-0.0010662508429959416,-0.00760602718219161,2.925928943575684e-10,1495.0,1495.0,1495.0,1495.0,0.0,0.0,0.0,0.0,0.0,0.0,0.0,0.0,1495.0,1495.0,1495.0,1495.0,1.8718332052230835,-0.2540792225639054,-0.15116636839599146,0.2276930516738298,0.008290012367069721,0.004408234730362892,-0.0
500,5,-0.00036558197461999953,0.00034118612529709935,0.0003199353814125061,-0.001120803295634687,-0.0005048245657235384,-0.0023068473674356937,0.010748852975666523,0.0764274001121521,-0.02157657779753208,-0.0031173336319625378,-0.03132003918290138,0.013221347704529762,0.0,0.0,0.0,0.0010990631999447942,-0.0014037268701940775,-0.0,0.0,0.0,0.0,-0.001075956504791975,-0.007630843669176102,1.1651464237871778e-09,1495.0,1495.0,1495.0,1495.0,0.0,0.0,0.0,0.0,0.0,0.0,0.0,0.0,1495.0,1495.0,1495.0,1495.0,1.8689587116241455,-0.25376332127228446,-0.15160207227269618,0.22781112873462614,0.006321698892861605,0.003807419678196311,0.0
505,5,-0.00039596387068741024,0.00034062424674630165,0.00035207191831432283,-0.004094149451702833,-0.00013450343976728618,-0.004779120907187462,0.010748852975666523,0.0764274001121521,-0.02157657779753208,-0.0031173336319625378,-0.03132003918290138,0.013221347704529762,0.0,0.0,0.0,0.0010990631999447942,-0.0014037268701940775,-0.0,0.0,0.0,0.0,-0.001075956504791975,-0.007630843669176102,1.1651464237871778e-09,1495.0,1495.0,1495.0,1495.0,0.0,0.0,0.0,0.0,0.0,0.0,0.0,0.0,1495.0,1495.0,1495.0,1495.0,1.8689587116241455,-0.2536987549745413,-0.1510638738494931,0.22769913881540674,0.006321698892861605,0.003807419678196311,0.0
510,5,-0.00041669150232337415,0.0003306163416709751,0.0003421098808757961,-0.004124974831938744,0.001147148315794766,-0.0007162061519920826,0.010730855166912079,0.07666846364736557,-0.02146642468869686,-0.0011954637011513114,-0.029421498998999596,0.009017707780003548,0.0,0.0,0.0,0.0010990631999447942,-0.0014037268701940775,-0.0,0.0,0.0,0.0,-0.00107563438359648,-0.007655456196516752,-2.1900803393037904e-09,1495.0,1495.0,1495.0,1495.0,0.0,0.0,0.0,0.0,0.0,0.0,0.0,0.0,1495.0,1495.0,1495.0,1495.0,1.8689587116241455,-0.2538894480645201,-0.1511410947115824,0.2278468210574868,0.006321698892861605,0.003807419678196311,0.0
515,5,-0.00044430868001654744,0.0003104823117610067,0.00033588361111469567,-0.004964051768183708,0.0028749434277415276,0.0004606705333571881,0.010730855166912079,0.07666846364736557,-0.02146642468869686,-0.0011954637011513114,-0.029421498998999596,0.009017707780003548,0.0,0.0,0.0,-0.0007064106175675988,-0.0039727347902953625,-0.0,0.0,0.0,0.0,-0.00107563438359648,-0.007655456196516752,-2.1900803393037904e-09,1495.0,1495.0,1495.0,1495.0,0.0,0.0,0.0,0.0,0.0,0.0,0.0,0.0,1495.0,1495.0,1495.0,1495.0,1.8667538166046143,-0.25420232650446395,-0.15152142311795153,0.2280209133464687,0.017870111390948296,-0.002444290090352297,0.0
520,5,-0.00048558786511421204,0.0003074785345233977,0.00032058771466836333,-0.00693912198767066,0.0015104274498298764,0.0020197744015604258,0.010727391578257084,0.07702400535345078,-0.02141025848686695,0.00044662703294306993,-0.030916765332221985,0.00470579881221056,0.0,0.0,0.0,-0.0007064106175675988,-0.0039727347902953625,-0.0,0.0,0.0,0.0,-0.0010729458881542087,-0.00769019452854991,-1.2166980756234125e-09,1495.0,1495.0,1495.0,1495.0,0.0,0.0,0.0,0.0,0.0,0.0,0.0,0.0,1495.0,1495.0,1495.0,1495.0,1.8667538166046143,-0.25501401686982644,-0.15034880481973723,0.2281439437377838,0.017870111390948296,-0.002444290090352297,0.0
526,5,-0.0005484322900883853,0.00031056892476044595,0.00028722878778353333,-0.005780758801847696,-0.0009194614249281585,0.0021228764671832323,0.010727391578257084,0.07702400535345078,-0.02141025848686695,0.00044662703294306993,-0.030916765332221985,0.00470579881221056,0.0,0.0,0.0,-0.0011372175067663193,-0.006407302338629961,-0.0,0.0,0.0,0.0,-0.0010729458881542087,-0.00769019452854991,-1.2166980756234125e-09,1495.0,1495.0,1495.0,1495.0,0.0,0.0,0.0,0.0,0.0,0.0,0.0,0.0,1495.0,1495.0,1495.0,1495.0,1.8656470775604248,-0.25444175602410296,-0.15059190014441373,0.22839983639675834,0.028804035857319832,-0.00393261481076479,-0.0
531,5,-0.0005681317998096347,0.0002928205067291856,0.0002785704273264855,-0.00467624980956316,0.001762023544870317,0.001888155355118215,0.010736444033682346,0.07730986177921295,-0.021401261910796165,0.0012438788544386625,-0.037420619279146194,-0.0009646998951211572,0.0,0.0,0.0,-0.0011372175067663193,-0.006407302338629961,-0.0,0.0,0.0,0.0,-0.0010745315812528133,-0.007716405671089888,-1.0870055966449854e-09,1495.0,1495.0,1495.0,1495.0,0.0,0.0,0.0,0.0,0.0,0.0,0.0,0.0,1495.0,1495.0,1495.0,1495.0,1.8656470775604248,-0.25473535980243284,-0.15149542660929705,0.22805199956286476,0.028804035857319832,-0.00393261481076479,-0.0
