timestamp,dt,pos_x,pos_y,pos_z,vel_x,vel_y,vel_z,roll,pitch,yaw,agv_x,agv_y,agv_z,x_ref,y_ref,z_ref,roll_ref,pitch_ref,yaw_ref,x_vel_ref,y_vel_ref,z_vel_ref,x_torque,y_torque,z_torque,w0,w1,w2,w3,u0,u1,u2,u3,m0req,m1req,m2req,m3req,thrust0,thrust1,thrust2,thrust3,thrust_ref,roll_vicon,pitch_vicon,yaw_vicon,acc_x,acc_y,acc_z
5,5,0.0,0.0,0.0,0.0003768060414586216,7.392938277916983e-05,0.0010767645435407758,0.0,0.0,0.0,0.0,0.0,0.0,0.0,0.0,0.0,-9.177917672786862e-05,0.0003598335024435073,-0.0,0.0,0.0,0.0,0.0,0.0,0.0,0.0,0.0,0.0,0.0,0.0,0.0,0.0,0.0,0.0,0.0,0.0,0.0,0.0,0.0,0.0,0.0,1.629654884338379,0.019572116987056194,0.08025983270082716,-0.06747670699952908,-0.0014130226336419582,-0.00027723517268896103,0.0
31,26,0.0,0.0,0.0,0.00038349436363205314,0.001773544936440885,0.0005091592902317643,0.0,0.0,0.0,0.0,0.0,0.0,0.0,0.0,0.0,-9.177917672786862e-05,0.0003598335024435073,-0.0,0.0,0.0,0.0,0.0,0.0,0.0,0.0,0.0,0.0,0.0,0.0,0.0,0.0,0.0,0.0,0.0,0.0,0.0,0.0,0.0,0.0,0.0,1.629654884338379,0.0197217613002973,0.08013230259200009,-0.06742470244696563,-0.0014130226336419582,-0.00027723517268896103,0.0
36,5,0.0,0.0,0.0,9.558015335642267e-06,-0.0002111376088578254,-0.0002379642246523872,0.0,0.0,0.0,0.0,0.0,0.0,0.0,0.0,0.0,-0.0021822848357260227,0.00036298215854912996,-0.0,0.0,0.0,0.0,0.0,0.0,0.0,0.0,0.0,0.0,0.0,0.0,0.0,0.0,0.0,0.0,0.0,0.0,0.0,0.0,0.0,0.0,0.0,1.644197940826416,0.019494693659652583,0.07996035179815927,-0.0674625079277237,-0.001438103849068284,-0.006650793366134167,0.0
43,7,0.0,0.0,0.0,-0.0003922628238797188,-0.0009750904864631593,-0.000994745409116149,0.0,0.0,0.0,0.0,0.0,0.0,0.0,0.0,0.0,-0.0021822848357260227,0.00036298215854912996,-0.0,0.0,0.0,0.0,0.0,0.0,0.0,0.0,0.0,0.0,0.0,0.0,0.0,0.0,0.0,0.0,0.0,0.0,0.0,0.0,0.0,0.0,0.0,1.644197940826416,0.019235551484693122,0.08028973333094307,-0.06738291829864049,-0.001438103849068284,-0.006650793366134167,0.0
48,5,0.0,0.0,0.0,-0.0003922628238797188,-0.0009750904864631593,-0.000994745409116149,0.0,0.0,0.0,0.0,0.0,0.0,0.0,0.0,0.0,0.0012054999824613333,-0.00037304070428945124,-0.0,0.0,0.0,0.0,0.0,0.0,0.0,0.0,0.0,0.0,0.0,0.0,0.0,0.0,0.0,0.0,0.0,0.0,0.0,0.0,0.0,0.0,0.0,1.636441946029663,0.019235551484693122,0.08028973333094307,-0.06738291829864049,0.0014709855895489454,0.003656589426100254,0.0
54,5,0.0,0.0,0.0,-0.0003922628238797188,-0.0009750904864631593,-0.000994745409116149,0.0,0.0,0.0,0.0,0.0,0.0,0.0,0.0,0.0,0.0012054999824613333,-0.00037304070428945124,-0.0,0.0,0.0,0.0,0.0,0.0,0.0,0.0,0.0,0.0,0.0,0.0,0.0,0.0,0.0,0.0,0.0,0.0,0.0,0.0,0.0,0.0,0.0,1.636441946029663,0.019235551484693122,0.08028973333094307,-0.06738291829864049,0.0014709855895489454,0.003656589426100254,0.0
59,5,4.249827725288924e-06,-1.1824760804302059e-05,2.1212497813394293e-05,-0.00027233624132350087,0.0002063249994534999,-0.00126839114818722,0.0,0.0,0.0,0.0,0.0,0.0,0.0,0.0,0.0,0.0012054999824613333,-0.00037304070428945124,-0.0,0.0,0.0,0.0,0.0,0.0,0.0,0.0,0.0,0.0,0.0,0.0,0.0,0.0,0.0,0.0,0.0,0.0,0.0,0.0,0.0,0.0,0.0,1.636441946029663,0.019485624431050435,0.07979005480107117,-0.06724666831980242,0.0014709855895489454,0.003656589426100254,0.0
66,7,3.1032484457682585e-06,-4.9661402954370715e-06,-9.386036253999919e-06,-0.0005817182827740908,-0.000514225393999368,0.0024375023785978556,0.0,0.0,0.0,0.0,0.0,0.0,0.0,0.0,0.0,0.0012054999824613333,-0.00037304070428945124,-0.0,0.0,0.0,0.0,0.0,0.0,0.0,0.0,0.0,0.0,0.0,0.0,0.0,0.0,0.0,0.0,0.0,0.0,0.0,0.0,0.0,0.0,0.0,1.636441946029663,0.019683488536359633,0.07998129872649457,-0.06734584376423253,0.0014709855895489454,0.003656589426100254,0.0
71,5,6.88248610458686e-06,-4.966137112205615e-06,-1.5647869076929055e-05,0.00022082119539845735,-0.00020569050684571266,0.0017264208290725946,0.0,0.0,0.0,0.0,0.0,0.0,0.0,0.0,0.0,0.0006278275977820158,-0.0005498474347405136,-0.0,0.0,0.0,0.0,0.0,0.0,0.0,0.0,0.0,0.0,0.0,0.0,0.0,0.0,0.0,0.0,0.0,0.0,0.0,0.0,0.0,0.0,0.0,1.6335651874542236,0.019988876026080897,0.08058885686561625,-0.06775566785351693,0.002164364792406559,0.001901014125905931,0.0
76,5,-3.3350870580761693e-06,-4.363448624644661e-06,-2.34459057537606e-05,-0.0011377802584320307,-0.00015459884889423847,0.0016263328725472093,0.0,0.0,0.0,0.0,0.0,0.0,0.0,0.0,0.0,0.0006278275977820158,-0.0005498474347405136,-0.0,0.0,0.0,0.0,0.0,0.0,0.0,0.0,0.0,0.0,0.0,0.0,0.0,0.0,0.0,0.0,0.0,0.0,0.0,0.0,0.0,0.0,0.0,1.6335651874542236,0.019793780287930888,0.08004366917568188,-0.06747406539720627,0.002164364792406559,0.001901014125905931,0.0
81,5,7.256475669237261e-07,4.5995346908966894e-07,-1.7506257790955715e-05,3.217603079974651e-05,-0.0006406477768905461,-6.222470983630046e-05,0.0,0.0,0.0,0.0,0.0,0.0,0.0,0.0,0.0,0.000183092022780329,-0.0010859944159165025,-0.0,0.0,0.0,0.0,0.0,0.0,0.0,0.0,0.0,0.0,0.0,0.0,0.0,0.0,0.0,0.0,0.0,0.0,0.0,0.0,0.0,0.0,0.0,1.6374702453613281,0.019566152891517287,0.07997367584444365,-0.06744066059733578,0.00428501982241869,0.0005557140684686601,0.0
86,5,-6.328194785965024e-07,-3.438512294451357e-06,-1.0433263014419936e-05,-0.00015014562814030796,0.00021155679132789373,-0.0008736492600291967,0.0,0.0,0.0,0.0,0.0,0.0,0.0,0.0,0.0,-0.0002691087720450014,-0.00014437554636970162,-0.0,0.0,0.0,0.0,0.0,0.0,0.0,0.0,0.0,0.0,0.0,0.0,0.0,0.0,0.0,0.0,0.0,0.0,0.0,0.0,0.0,0.0,0.0,1.6284600496292114,0.019349204984368987,0.08009597007359674,-0.0675326374584781,0.0005665296339429915,-0.0008122944855131209,0.0
91,5,4.278047981642885e-06,-8.325187081936747e-06,-8.82426684256643e-06,0.0005292458808980882,0.0006710237357765436,-0.0005425391718745232,0.0,0.0,0.0,0.0,0.0,0.0,0.0,0.0,0.0,-0.0002691087720450014,-0.00014437554636970162,-0.0,0.0,0.0,0.0,0.0,0.0,0.0,0.0,0.0,0.0,0.0,0.0,0.0,0.0,0.0,0.0,0.0,0.0,0.0,0.0,0.0,0.0,0.0,1.6284600496292114,0.019392077206552432,0.08004402885662563,-0.06729467340423707,0.0005665296339429915,-0.0008122944855131209,0.0
96,5,1.0570318409008905e-05,-1.3681733435078058e-05,1.0776576345961075e-05,0.0009667708072811365,0.0009111950057558715,-0.002569116884842515,0.0,0.0,0.0,0.0,0.0,0.0,0.0,0.0,0.0,-0.0002691087720450014,-0.00014437554636970162,-0.0,0.0,0.0,0.0,0.0,0.0,0.0,0.0,0.0,0.0,0.0,0.0,0.0,0.0,0.0,0.0,0.0,0.0,0.0,0.0,0.0,0.0,0.0,1.6284600496292114,0.019585316338419232,0.08002285851446676,-0.06731992629442052,0.0005665296339429915,-0.0008122944855131209,0.0
101,5,4.907205493509537e-06,-1.389859062328469e-05,-1.1306996157145477e-06,-0.0002928652393165976,0.0003905008197762072,0.00040122633799910545,0.0,0.0,0.0,0.0,0.0,0.0,0.0,0.0,0.0,-0.001149185816757381,0.0009323962731286883,-0.0,0.0,0.0,0.0,0.0,0.0,0.0,0.0,0.0,0.0,0.0,0.0,0.0,0.0,0.0,0.0,0.0,0.0,0.0,0.0,0.0,0.0,0.0,1.6395165920257568,0.019188131602732056,0.07962006727360235,-0.06727969590051724,-0.0036835612263530493,-0.003492323448881507,0.0
106,5,1.3394288544077426e-05,-1.3338808457774576e-05,4.5989404497959185e-06,0.0009013038361445069,8.902650733944029e-05,-0.0005270662950351834,0.0,0.0,0.0,0.0,0.0,0.0,0.0,0.0,0.0,-0.001149185816757381,0.0009323962731286883,-0.0,0.0,0.0,0.0,0.0,0.0,0.0,0.0,0.0,0.0,0.0,0.0,0.0,0.0,0.0,0.0,0.0,0.0,0.0,0.0,0.0,0.0,0.0,1.6395165920257568,0.0192660508309784,0.08003369830815373,-0.06744863813099046,-0.0036835612263530493,-0.003492323448881507,0.0
111,5,1.33232260850491e-05,-9.194395715894643e-06,-1.0212609140580753e-06,0.00035199406556785107,-0.0004617188824340701,0.0004635976511053741,0.0,0.0,0.0,0.0,0.0,0.0,0.0,0.0,0.0,-0.00013439862232189626,0.0008765131933614612,-0.0,0.0,0.0,0.0,0.0,0.0,0.0,0.0,0.0,0.0,0.0,0.0,0.0,0.0,0.0,0.0,0.0,0.0,0.0,0.0,0.0,0.0,0.0,1.6351839303970337,0.019262155880521957,0.07996288545108257,-0.06740337699652121,-0.00345363887026906,-0.00040735211223363876,0.0
116,5,1.577912007633131e-05,-1.0106217814609408e-05,-3.2447358080389677e-06,0.00043550494592636824,-7.526895933551714e-05,0.00045225603389553726,0.0,0.0,0.0,0.0,0.0,0.0,0.0,0.0,0.0,7.494630699511617e-05,0.0004378082521725446,-0.0,0.0,0.0,0.0,0.0,0.0,0.0,0.0,0.0,0.0,0.0,0.0,0.0,0.0,0.0,0.0,0.0,0.0,0.0,0.0,0.0,0.0,0.0,1.6304556131362915,0.01968228581663612,0.08014404997649265,-0.0674935122513214,-0.0017200647853314877,0.00022649977472610772,0.0
123,7,1.4062748050491791e-05,-6.305032911768649e-06,-4.786078079632716e-06,-3.1762720027472824e-05,-0.0004862497444264591,0.00036586352507583797,0.0,0.0,0.0,0.0,0.0,0.0,0.0,0.0,0.0,7.494630699511617e-05,0.0004378082521725446,-0.0,0.0,0.0,0.0,0.0,0.0,0.0,0.0,0.0,0.0,0.0,0.0,0.0,0.0,0.0,0.0,0.0,0.0,0.0,0.0,0.0,0.0,0.0,1.6304556131362915,0.01947261467358158,0.08025639645049933,-0.06751136465371682,-0.0017200647853314877,0.00022649977472610772,0.0
128,5,5.440170298243174e-06,-7.778327017149422e-06,-1.7205502444994636e-05,-0.0010474143782630563,-1.77045712916879e-05,0.0016366762574762106,0.0,0.0,0.0,0.0,0.0,0.0,0.0,0.0,0.0,7.494630699511617e-05,0.0004378082521725446,-0.0,0.0,0.0,0.0,0.0,0.0,0.0,0.0,0.0,0.0,0.0,0.0,0.0,0.0,0.0,0.0,0.0,0.0,0.0,0.0,0.0,0.0,0.0,1.6304556131362915,0.019598615643358342,0.07983273681474526,-0.06736849988755547,-0.0017200647853314877,0.00022649977472610772,0.0
133,5,8.555601198168006e-06,-5.617846909444779e-06,-1.2717254321614746e-05,-4.511405495577492e-05,-0.00026633948436938226,0.00011608073691604659,0.0,0.0,0.0,0.0,0.0,0.0,0.0,0.0,0.0,7.718168490100652e-06,-0.0009885316248983145,-0.0,0.0,0.0,0.0,0.0,0.0,0.0,0.0,0.0,0.0,0.0,0.0,0.0,0.0,0.0,0.0,0.0,0.0,0.0,0.0,0.0,0.0,0.0,1.63632333278656,0.019643517949380247,0.08039839664348511,-0.06755877997588453,0.003897727932780981,2.3409487766912207e-05,0.0
138,5,8.281072950921953e-06,-8.955260454968084e-06,-4.137945779802976e-06,-5.098901965538971e-05,0.00029395383899100125,-0.000983084668405354,0.0,0.0,0.0,0.0,0.0,0.0,0.0,0.0,0.0,7.718168490100652e-06,-0.0009885316248983145,-0.0,0.0,0.0,0.0,0.0,0.0,0.0,0.0,0.0,0.0,0.0,0.0,0.0,0.0,0.0,0.0,0.0,0.0,0.0,0.0,0.0,0.0,0.0,1.63632333278656,0.019614775877730074,0.08003557561518973,-0.06737387790013484,0.003897727932780981,2.3409487766912207e-05,0.0
143,5,1.4153370102576446e-05,-5.274900104268454e-06,-2.125184209944564e-06,0.0006842800066806376,-0.00032406169339083135,-0.0006347652524709702,0.0,0.0,0.0,0.0,0.0,0.0,0.0,0.0,0.0,-0.0003814873343799263,-3.7064161006128415e-05,-0.0,0.0,0.0,0.0,0.0,0.0,0.0,0.0,0.0,0.0,0.0,0.0,0.0,0.0,0.0,0.0,0.0,0.0,0.0,0.0,0.0,0.0,0.0,1.6288973093032837,0.01957571644866989,0.0798201105734303,-0.06732710763047278,0.00014547881437465549,-0.0011518140090629458,0.0
148,5,1.913634332595393e-05,-4.868439646088518e-06,-6.952883268240839e-06,0.0008716688025742769,-0.00017839993233792484,0.0003254177572671324,0.0,0.0,0.0,0.0,0.0,0.0,0.0,0.0,0.0,-0.0003814873343799263,-3.7064161006128415e-05,-0.0,0.0,0.0,0.0,0.0,0.0,0.0,0.0,0.0,0.0,0.0,0.0,0.0,0.0,0.0,0.0,0.0,0.0,0.0,0.0,0.0,0.0,0.0,1.6288973093032837,0.01950341283116641,0.08005295253149676,-0.06733092939354779,0.00014547881437465549,-0.0011518140090629458,0.0
154,5,1.725253605400212e-05,1.2222712086895626e-07,-1.036178036883939e-05,0.00012261058145668358,-0.0006702399696223438,0.0005392347811721265,0.0,0.0,0.0,0.0,0.0,0.0,0.0,0.0,0.0,0.00021182269847486168,0.0008564278250560164,-0.0,0.0,0.0,0.0,0.0,0.0,0.0,0.0,0.0,0.0,0.0,0.0,0.0,0.0,0.0,0.0,0.0,0.0,0.0,0.0,0.0,0.0,0.0,1.6350679397583008,0.019880081513896825,0.07975048647663834,-0.06737046436137419,-0.0033742589876055717,0.0006419731071218848,0.0
159,5,1.1254959645157214e-05,-1.3345988918445073e-06,4.006607468909351e-06,-0.0006706648273393512,-9.327687439508736e-05,-0.001508512650616467,0.0,0.0,0.0,0.0,0.0,0.0,0.0,0.0,0.0,0.00021182269847486168,0.0008564278250560164,-0.0,0.0,0.0,0.0,0.0,0.0,0.0,0.0,0.0,0.0,0.0,0.0,0.0,0.0,0.0,0.0,0.0,0.0,0.0,0.0,0.0,0.0,0.0,1.6350679397583008,0.019098596246764892,0.08012504314994737,-0.0673639429445668,-0.0033742589876055717,0.0006419731071218848,0.0
164,5,8.107308531180024e-06,-1.062188675859943e-05,7.934970085443638e-07,-0.00064598408062011,0.0010771637316793203,-0.00021783179545309395,0.0,0.0,0.0,0.0,0.0,0.0,0.0,0.0,0.0,0.00011308834655210376,-0.0006235417095012963,-0.0,0.0,0.0,0.0,0.0,0.0,0.0,0.0,0.0,0.0,0.0,0.0,0.0,0.0,0.0,0.0,0.0,0.0,0.0,0.0,0.0,0.0,0.0,1.632468581199646,0.019218283163575687,0.08022512056539918,-0.06738143277115968,0.0024528002832084894,0.0003421930887270719,0.0
169,5,6.541899438161636e-06,-3.678754410429974e-06,5.1232686928415205e-06,-0.0004462427459657192,-0.00040231033926829696,-0.0006067053182050586,0.0,0.0,0.0,0.0,0.0,0.0,0.0,0.0,0.0,0.00011308834655210376,-0.0006235417095012963,-0.0,0.0,0.0,0.0,0.0,0.0,0.0,0.0,0.0,0.0,0.0,0.0,0.0,0.0,0.0,0.0,0.0,0.0,0.0,0.0,0.0,0.0,0.0,1.632468581199646,0.019452543859665678,0.08021060246020872,-0.06751363127121866,0.0024528002832084894,0.0003421930887270719,0.0
174,5,3.8133709949761396e-06,-1.194219021272147e-05,-1.4950052218409837e-06,-0.0005059204995632172,0.0008306881063617766,0.0005515107768587768,0.0,0.0,0.0,0.0,0.0,0.0,0.0,0.0,0.0,0.0004920257488265634,-0.00041636446258053184,-0.0,0.0,0.0,0.0,0.0,0.0,0.0,0.0,0.0,0.0,0.0,0.0,0.0,0.0,0.0,0.0,0.0,0.0,0.0,0.0,0.0,0.0,0.0,1.6317517757415771,0.020012273088054113,0.08021536372905524,-0.06754795080835496,0.00163711654022336,0.0014881627866998315,0.0
179,5,8.45860722620273e-06,-9.495694939687382e-06,-7.216975518531399e-06,0.00035506015410646796,3.869586726068519e-05,0.000907240726519376,0.0,0.0,0.0,0.0,0.0,0.0,0.0,0.0,0.0,0.0004920257488265634,-0.00041636446258053184,-0.0,0.0,0.0,0.0,0.0,0.0,0.0,0.0,0.0,0.0,0.0,0.0,0.0,0.0,0.0,0.0,0.0,0.0,0.0,0.0,0.0,0.0,0.0,1.6317517757415771,0.019765617253114976,0.08035512507965319,-0.06748633945116894,0.00163711654022336,0.0014881627866998315,0.0
184,5,1.1594769603107125e-05,7.207153203125927e-07,3.668109911814099e-06,0.00051836360944435,-0.0012104909401386976,-0.0009433139348402619,0.0,0.0,0.0,0.0,0.0,0.0,0.0,0.0,0.0,-6.543319614138454e-05,0.00035102941910736263,-0.0,0.0,0.0,0.0,0.0,0.0,0.0,0.0,0.0,0.0,0.0,0.0,0.0,0.0,0.0,0.0,0.0,0.0,0.0,0.0,0.0,0.0,0.0,1.6295257806777954,0.019594650428091547,0.08014087651966727,-0.06744178846599201,-0.0013783408794552088,-0.00019763685122597963,0.0
189,5,1.806333239073865e-05,-2.34922799791093e-06,-9.93196590570733e-06,0.0009835727978497744,-0.00011580317368498072,0.001254683593288064,0.0,0.0,0.0,0.0,0.0,0.0,0.0,0.0,0.0,-6.543319614138454e-05,0.00035102941910736263,-0.0,0.0,0.0,0.0,0.0,0.0,0.0,0.0,0.0,0.0,0.0,0.0,0.0,0.0,0.0,0.0,0.0,0.0,0.0,0.0,0.0,0.0,0.0,1.6295257806777954,0.019266513172766033,0.07983027540688706,-0.06730410064903737,-0.0013783408794552088,-0.00019763685122597963,0.0
194,5,1.4543227734975517e-05,2.4997175387397874e-06,-1.358390727546066e-05,-2.898339334933553e-05,-0.000628194713499397,0.0009401064016856253,0.0,0.0,0.0,0.0,0.0,0.0,0.0,0.0,0.0,0.00013883515202905983,0.0009608787950128317,-0.0,0.0,0.0,0.0,0.0,0.0,0.0,0.0,0.0,0.0,0.0,0.0,0.0,0.0,0.0,0.0,0.0,0.0,0.0,0.0,0.0,0.0,0.0,1.6360893249511719,0.01928633665147115,0.08001276788534582,-0.06748777834408348,-0.003788152476772666,0.00042103190207853913,0.0
199,5,1.7835587641457096e-05,6.81070332575473e-07,-1.6797337593743578e-05,0.0003834899398498237,-3.3040214475477114e-05,0.0007616540533490479,0.0,0.0,0.0,0.0,0.0,0.0,0.0,0.0,0.0,0.00013883515202905983,0.0009608787950128317,-0.0,0.0,0.0,0.0,0.0,0.0,0.0,0.0,0.0,0.0,0.0,0.0,0.0,0.0,0.0,0.0,0.0,0.0,0.0,0.0,0.0,0.0,0.0,1.6360893249511719,0.019505631869814556,0.07968167520341245,-0.06749794905377829,-0.003788152476772666,0.00042103190207853913,0.0
204,5,9.993848834710661e-06,-7.434943540829408e-07,1.1547011126822326e-05,-0.00031984481029212475,0.000436925794929266,-0.001448292750865221,0.0,0.0,0.0,0.0,0.0,0.0,0.0,0.0,0.0,4.2148909415118396e-05,0.00039124980685301125,-0.0,0.0,0.0,0.0,0.0,0.0,0.0,0.0,0.0,0.0,0.0,0.0,0.0,0.0,0.0,0.0,0.0,0.0,0.0,0.0,0.0,0.0,0.0,1.6299316883087158,0.019696321490880464,0.08017392937025068,-0.06747284508388797,-0.001536651630885899,0.00012733983749058098,0.0
209,5,9.993848834710661e-06,-7.434943540829408e-07,1.1547011126822326e-05,-0.00031984481029212475,0.000436925794929266,-0.001448292750865221,0.0,0.0,0.0,0.0,0.0,0.0,0.0,0.0,0.0,4.2148909415118396e-05,0.00039124980685301125,-0.0,0.0,0.0,0.0,0.0,0.0,0.0,0.0,0.0,0.0,0.0,0.0,0.0,0.0,0.0,0.0,0.0,0.0,0.0,0.0,0.0,0.0,0.0,1.6299316883087158,0.019696321490880464,0.08017392937025068,-0.06747284508388797,-0.001536651630885899,0.00012733983749058098,0.0
215,5,1.3501889043254778e-05,8.079150575213134e-06,1.0086943802889436e-05,0.0002930269401986152,-0.0008839470683597028,-0.00040410904330201447,0.0,0.0,0.0,0.0,0.0,0.0,0.0,0.0,0.0,-0.0005433663609437644,-0.00029103990527801216,-0.0,0.0,0.0,0.0,0.0,0.0,0.0,0.0,0.0,0.0,0.0,0.0,0.0,0.0,0.0,0.0,0.0,0.0,0.0,0.0,0.0,0.0,0.0,1.6311805248260498,0.019211426896120803,0.0804830262677604,-0.06755003541419397,0.0011439482914283872,-0.0016428703675046563,0.0
220,5,8.679870916239452e-06,-6.557778306159889e-06,-5.691413207387086e-06,-0.00046143142390064895,0.0014028525911271572,0.0017317592864856124,0.0,0.0,0.0,0.0,0.0,0.0,0.0,0.0,0.0,-0.0005433663609437644,-0.00029103990527801216,-0.0,0.0,0.0,0.0,0.0,0.0,0.0,0.0,0.0,0.0,0.0,0.0,0.0,0.0,0.0,0.0,0.0,0.0,0.0,0.0,0.0,0.0,0.0,1.6311805248260498,0.019726963381794162,0.08004894152114155,-0.06723287638125296,0.0011439482914283872,-0.0016428703675046563,0.0
225,5,9.37293498282088e-06,-1.3908417713537347e-05,-1.4562062460754532e-05,-0.00010140489030163735,0.0014432177413254976,0.0017571815988048911,0.0,0.0,0.0,0.0,0.0,0.0,0.0,0.0,0.0,-0.0005433663609437644,-0.00029103990527801216,-0.0,0.0,0.0,0.0,0.0,0.0,0.0,0.0,0.0,0.0,0.0,0.0,0.0,0.0,0.0,0.0,0.0,0.0,0.0,0.0,0.0,0.0,0.0,1.6311805248260498,0.019816424908668806,0.07982949033440723,-0.06740199861813949,0.0011439482914283872,-0.0016428703675046563,0.0
230,5,9.039561518875416e-06,-1.1586089385673404e-05,2.2562974208995e-06,-8.05667950771749e-05,0.0002986077161040157,-0.0013153305044397712,0.0,0.0,0.0,0.0,0.0,0.0,0.0,0.0,0.0,-0.00180492689833045,-8.301235357066616e-05,-0.0,0.0,0.0,0.0,0.0,0.0,0.0,0.0,0.0,0.0,0.0,0.0,0.0,0.0,0.0,0.0,0.0,0.0,0.0,0.0,0.0,0.0,0.0,1.640662431716919,0.019474792013940787,0.08003705333673986,-0.06745025051753029,0.00032818078761920333,-0.005488920956850052,0.0
235,5,3.8674293136864435e-06,-4.216991783323465e-06,1.715568760118913e-05,-0.00024463230511173606,-0.0004057763144373894,-0.0008171341032721102,0.0,0.0,0.0,0.0,0.0,0.0,0.0,0.0,0.0,-0.00180492689833045,-8.301235357066616e-05,-0.0,0.0,0.0,0.0,0.0,0.0,0.0,0.0,0.0,0.0,0.0,0.0,0.0,0.0,0.0,0.0,0.0,0.0,0.0,0.0,0.0,0.0,0.0,1.640662431716919,0.019392046987384982,0.0802298452492196,-0.06757442622483528,0.00032818078761920333,-0.005488920956850052,0.0
240,5,3.8674293136864435e-06,-4.216991783323465e-06,1.715568760118913e-05,-0.00024463230511173606,-0.0004057763144373894,-0.0008171341032721102,0.0,0.0,0.0,0.0,0.0,0.0,0.0,0.0,0.0,0.0004956946359016001,-0.00022794055985286832,-0.0,0.0,0.0,0.0,0.0,0.0,0.0,0.0,0.0,0.0,0.0,0.0,0.0,0.0,0.0,0.0,0.0,0.0,0.0,0.0,0.0,0.0,0.0,1.6304841041564941,0.019392046987384982,0.0802298452492196,-0.06757442622483528,0.0008955503581091762,0.0014980948762968183,0.0
245,5,2.222943749075057e-06,2.3837449134589406e-06,1.646853343117982e-05,-0.00029519121744669974,-0.0009543989435769618,-0.00024439505068585277,0.0,0.0,0.0,0.0,0.0,0.0,0.0,0.0,0.0,0.0004956946359016001,-0.00022794055985286832,-0.0,0.0,0.0,0.0,0.0,0.0,0.0,0.0,0.0,0.0,0.0,0.0,0.0,0.0,0.0,0.0,0.0,0.0,0.0,0.0,0.0,0.0,0.0,1.6304841041564941,0.019586925856998498,0.07990554828986596,-0.0675470489245815,0.0008955503581091762,0.0014980948762968183,0.0
250,5,1.6652498743496835e-05,2.392966734987567e-06,-1.6347354176105e-05,0.0011694785207509995,0.00013704330194741488,0.002572034252807498,0.0,0.0,0.0,0.0,0.0,0.0,0.0,0.0,0.0,0.0011844875989481807,-0.0002775697794277221,-0.0,0.0,0.0,0.0,0.0,0.0,0.0,0.0,0.0,0.0,0.0,0.0,0.0,0.0,0.0,0.0,0.0,0.0,0.0,0.0,0.0,0.0,0.0,1.63593590259552,0.019336865881688644,0.0801547954644676,-0.06753691049767238,0.001094183186069131,0.0035917421337217093,0.0
255,5,1.3403892808128148e-05,-3.6828744214290055e-06,-1.8946482668980025e-05,7.79586989665404e-05,0.0007839183090254664,0.0013407092774286866,0.0,0.0,0.0,0.0,0.0,0.0,0.0,0.0,0.0,0.0011844875989481807,-0.0002775697794277221,-0.0,0.0,0.0,0.0,0.0,0.0,0.0,0.0,0.0,0.0,0.0,0.0,0.0,0.0,0.0,0.0,0.0,0.0,0.0,0.0,0.0,0.0,0.0,1.63593590259552,0.019639950453634043,0.08007150909729288,-0.0674279747669429,0.001094183186069131,0.0035917421337217093,0.0
260,5,6.640244464506395e-06,-9.367264283355325e-06,-1.9510922356857918e-05,-0.000780454371124506,0.0009956940775737166,0.0006040164735168219,0.0,0.0,0.0,0.0,0.0,0.0,0.0,0.0,0.0,-0.0009775095386430621,9.313540067523718e-05,-0.0,0.0,0.0,0.0,0.0,0.0,0.0,0.0,0.0,0.0,0.0,0.0,0.0,0.0,0.0,0.0,0.0,0.0,0.0,0.0,0.0,0.0,0.0,1.6338427066802979,0.019453026283174833,0.07970994594570575,-0.06737273073666365,-0.00036667115637101233,-0.002960326848551631,0.0
265,5,1.0033515536633786e-05,-5.39370648766635e-06,-1.3704605407838244e-05,9.501082240603864e-05,-7.854934665374458e-05,-0.00045515139936469495,0.0,0.0,0.0,0.0,0.0,0.0,0.0,0.0,0.0,-0.0009775095386430621,9.313540067523718e-05,-0.0,0.0,0.0,0.0,0.0,0.0,0.0,0.0,0.0,0.0,0.0,0.0,0.0,0.0,0.0,0.0,0.0,0.0,0.0,0.0,0.0,0.0,0.0,1.6338427066802979,0.01945274731656235,0.07967156266131203,-0.0673924265067332,-0.00036667115637101233,-0.002960326848551631,0.0
270,5,3.848001142614521e-06,-9.30834994505858e-06,2.8718575322272955e-06,-0.0007042573997750878,0.0004383375053294003,-0.002171236090362072,0.0,0.0,0.0,0.0,0.0,0.0,0.0,0.0,0.0,8.76268750289455e-05,0.00010502412624191493,-0.0,0.0,0.0,0.0,0.0,0.0,0.0,0.0,0.0,0.0,0.0,0.0,0.0,0.0,0.0,0.0,0.0,0.0,0.0,0.0,0.0,0.0,0.0,1.6284600496292114,0.019517776997381272,0.07961801820629807,-0.06742138752753032,-0.00041211466304957867,0.00026449834695085883,0.0
275,5,3.997316611048518e-08,-4.161278866376961e-06,2.8513137294794433e-05,-0.0007386663346551359,-0.000442313525127247,-0.003945447970181704,0.0,0.0,0.0,0.0,0.0,0.0,0.0,0.0,0.0,8.76268750289455e-05,0.00010502412624191493,-0.0,0.0,0.0,0.0,0.0,0.0,0.0,0.0,0.0,0.0,0.0,0.0,0.0,0.0,0.0,0.0,0.0,0.0,0.0,0.0,0.0,0.0,0.0,1.6284600496292114,0.01955958296000423,0.08007253051677789,-0.06757735369327045,-0.00041211466304957867,0.00026449834695085883,0.0
281,5,3.770184548557154e-06,-1.4264196579460986e-05,3.762158257814008e-06,0.00015215881285257638,0.0010354246478527784,0.0013919383054599166,0.0,0.0,0.0,0.0,0.0,0.0,0.0,0.0,0.0,0.000539798173122108,-0.0007030962151475251,-0.0,0.0,0.0,0.0,0.0,0.0,0.0,0.0,0.0,0.0,0.0,0.0,0.0,0.0,0.0,0.0,0.0,0.0,0.0,0.0,0.0,0.0,0.0,1.6344746351242065,0.01967652114788914,0.07975414254130793,-0.06735289569706711,0.0027691388968378305,0.001635377760976553,0.0
286,5,-6.101969347582781e-07,-1.1625425031525083e-05,-5.805652108392678e-06,-0.0004647822352126241,9.751736797625199e-05,0.0017049125162884593,0.0,0.0,0.0,0.0,0.0,0.0,0.0,0.0,0.0,0.000539798173122108,-0.0007030962151475251,-0.0,0.0,0.0,0.0,0.0,0.0,0.0,0.0,0.0,0.0,0.0,0.0,0.0,0.0,0.0,0.0,0.0,0.0,0.0,0.0,0.0,0.0,0.0,1.6344746351242065,0.019560053966067817,0.07974596902906832,-0.0672740212208587,0.0027691388968378305,0.001635377760976553,0.0
291,5,-6.920627129147761e-07,-1.5745633845654083e-06,-3.019010591742699e-06,-0.00019573679310269654,-0.0011670965468510985,0.0003475680132396519,0.0,0.0,0.0,0.0,0.0,0.0,0.0,0.0,0.0,-0.00014229437510948628,-0.0004442743374966085,-0.0,0.0,0.0,0.0,0.0,0.0,0.0,0.0,0.0,0.0,0.0,0.0,0.0,0.0,0.0,0.0,0.0,0.0,0.0,0.0,0.0,0.0,0.0,1.6306264400482178,0.019802929824976938,0.08000343732827345,-0.06745902435596765,0.0017456517089158297,-0.0004300815344322473,0.0
296,5,6.05409422860248e-06,7.217375923573854e-07,2.5229976472473936e-06,0.0007312441011890769,-0.0007423947099596262,-0.0005260137841105461,0.0,0.0,0.0,0.0,0.0,0.0,0.0,0.0,0.0,-0.00014229437510948628,-0.0004442743374966085,-0.0,0.0,0.0,0.0,0.0,0.0,0.0,0.0,0.0,0.0,0.0,0.0,0.0,0.0,0.0,0.0,0.0,0.0,0.0,0.0,0.0,0.0,0.0,1.6306264400482178,0.0194781194514763,0.07995523353923667,-0.06754280056722306,0.0017456517089158297,-0.0004300815344322473,0.0
301,5,5.3928706620354205e-06,-7.459802873199806e-06,-2.32910351769533e-05,0.0002131507935700938,0.0006848269840702415,0.0028872783295810223,0.0,0.0,0.0,0.0,0.0,0.0,0.0,0.0,0.0,0.000918990932404995,0.000704030622728169,-0.0,0.0,0.0,0.0,0.0,0.0,0.0,0.0,0.0,0.0,0.0,0.0,0.0,0.0,0.0,0.0,0.0,0.0,0.0,0.0,0.0,0.0,0.0,1.636422038078308,0.01970067279963693,0.08016508584290062,-0.067661398788201,-0.0027761219535022974,0.0027875006198883057,0.0
306,5,1.1137620276713278e-05,4.067004738317337e-06,-8.474667993141338e-06,0.0007746303454041481,-0.0011092860950157046,-0.0006230526487343013,0.0,0.0,0.0,0.0,0.0,0.0,0.0,0.0,0.0,0.000918990932404995,0.000704030622728169,-0.0,0.0,0.0,0.0,0.0,0.0,0.0,0.0,0.0,0.0,0.0,0.0,0.0,0.0,0.0,0.0,0.0,0.0,0.0,0.0,0.0,0.0,0.0,1.636422038078308,0.019278573022861407,0.07981576734929656,-0.06736628856168683,-0.0027761219535022974,0.0027875006198883057,0.0
311,5,1.2611413694685325e-05,-1.02911212707113e-06,-1.1817731319752056e-05,0.0004867072857450694,0.00016781956946942955,0.00015194651496130973,0.0,0.0,0.0,0.0,0.0,0.0,0.0,0.0,0.0,0.0013759343419224024,0.0007509081624448299,-0.0,0.0,0.0,0.0,0.0,0.0,0.0,0.0,0.0,0.0,0.0,0.0,0.0,0.0,0.0,0.0,0.0,0.0,0.0,0.0,0.0,0.0,0.0,1.6396559476852417,0.01945404592472295,0.08008708573673978,-0.06746646521329551,-0.002966818632557988,0.004181756637990475,0.0
316,5,6.955808203201741e-06,3.4684985621424858e-06,-6.6309830799582414e-06,-0.0004839897155761719,-0.0004725854378193617,-0.0005616311682388186,0.0,0.0,0.0,0.0,0.0,0.0,0.0,0.0,0.0,0.0013759343419224024,0.0007509081624448299,-0.0,0.0,0.0,0.0,0.0,0.0,0.0,0.0,0.0,0.0,0.0,0.0,0.0,0.0,0.0,0.0,0.0,0.0,0.0,0.0,0.0,0.0,0.0,1.6396559476852417,0.019775353957271077,0.08022504889408129,-0.0675784589345346,-0.002966818632557988,0.004181756637990475,0.0
321,5,9.354826033813879e-06,-1.0281118193233851e-05,-2.9213673769845627e-05,9.428627527086064e-05,0.0014609198551625013,0.0024852703791111708,0.0,0.0,0.0,0.0,0.0,0.0,0.0,0.0,0.0,0.0005917970556765795,-0.00045144936302676797,-0.0,0.0,0.0,0.0,0.0,0.0,0.0,0.0,0.0,0.0,0.0,0.0,0.0,0.0,0.0,0.0,0.0,0.0,0.0,0.0,0.0,0.0,0.0,1.6325924396514893,0.019664794936553927,0.07998443056774063,-0.0674968330404898,0.0017759822076186538,0.0017908494919538498,0.0
326,5,1.4891754290147219e-05,-9.894116374198347e-06,-1.3511265933630057e-05,0.0007021458586677909,0.0005379277281463146,-0.0008901808178052306,0.0,0.0,0.0,0.0,0.0,0.0,0.0,0.0,0.0,0.0005917970556765795,-0.00045144936302676797,-0.0,0.0,0.0,0.0,0.0,0.0,0.0,0.0,0.0,0.0,0.0,0.0,0.0,0.0,0.0,0.0,0.0,0.0,0.0,0.0,0.0,0.0,0.0,1.6325924396514893,0.019954407453019223,0.08037561114438324,-0.06750309581261572,0.0017759822076186538,0.0017908494919538498,0.0
331,5,9.962405783880968e-06,-1.4907265722285956e-05,-5.6666744967515115e-06,-0.00031066342489793897,0.0008167490013875067,-0.0012974232668057084,0.0,0.0,0.0,0.0,0.0,0.0,0.0,0.0,0.0,-0.0006837239488959312,0.0006893057143315673,-0.0,0.0,0.0,0.0,0.0,0.0,0.0,0.0,0.0,0.0,0.0,0.0,0.0,0.0,0.0,0.0,0.0,0.0,0.0,0.0,0.0,0.0,0.0,1.6350170373916626,0.019805403094009622,0.08017262696914544,-0.06751632598628719,-0.0027157259173691273,-0.0020721040200442076,0.0
336,5,6.261324870138196e-06,-1.1573383744689636e-05,1.6637894077575766e-05,-0.0005683950730599463,-7.336618728004396e-05,-0.00319551769644022,0.0,0.0,0.0,0.0,0.0,0.0,0.0,0.0,0.0,-0.0006837239488959312,0.0006893057143315673,-0.0,0.0,0.0,0.0,0.0,0.0,0.0,0.0,0.0,0.0,0.0,0.0,0.0,0.0,0.0,0.0,0.0,0.0,0.0,0.0,0.0,0.0,0.0,1.6350170373916626,0.019276645591132898,0.08004706085945563,-0.06742605117247615,-0.0027157259173691273,-0.0020721040200442076,0.0
341,5,7.153903425205499e-06,-1.7003954781102948e-05,1.5632460417691618e-05,-0.00012024860916426405,0.0006223220261745155,-0.0011575550306588411,0.0,0.0,0.0,0.0,0.0,0.0,0.0,0.0,0.0,6.976506119826809e-05,-0.0005332279833965003,-0.0,0.0,0.0,0.0,0.0,0.0,0.0,0.0,0.0,0.0,0.0,0.0,0.0,0.0,0.0,0.0,0.0,0.0,0.0,0.0,0.0,0.0,0.0,1.631465196609497,0.01942522983142773,0.07975917250656825,-0.06751685361104641,0.002096247859299183,0.00021097177523188293,0.0
347,5,6.300903351075249e-06,-1.1903851373062935e-05,2.4220118575613014e-05,-0.00015045946929603815,-0.0003630835562944412,-0.0014935409417375922,0.0,0.0,0.0,0.0,0.0,0.0,0.0,0.0,0.0,6.976506119826809e-05,-0.0005332279833965003,-0.0,0.0,0.0,0.0,0.0,0.0,0.0,0.0,0.0,0.0,0.0,0.0,0.0,0.0,0.0,0.0,0.0,0.0,0.0,0.0,0.0,0.0,0.0,1.631465196609497,0.01968906556875925,0.079990203622606,-0.06733771763644661,0.002096247859299183,0.00021097177523188293,0.0
352,5,1.1733954124792945e-05,-1.7320158804068342e-05,2.4740168100834126e-06,0.0005917822709307075,0.0005047235172241926,0.002012115903198719,0.0,0.0,0.0,0.0,0.0,0.0,0.0,0.0,0.0,0.0004289239877834916,-0.00013465795200318098,-0.0,0.0,0.0,0.0,0.0,0.0,0.0,0.0,0.0,0.0,0.0,0.0,0.0,0.0,0.0,0.0,0.0,0.0,0.0,0.0,0.0,0.0,0.0,1.6295444965362549,0.01969864530870882,0.07978922437735295,-0.06735390068994512,0.0005287496605888009,0.0012955527054145932,0.0
357,5,5.100784619571641e-06,-1.0806667887663934e-05,-1.4814612768532243e-05,-0.0005592673551291227,-0.0005797295598313212,0.0028794819954782724,0.0,0.0,0.0,0.0,0.0,0.0,0.0,0.0,0.0,0.0004289239877834916,-0.00013465795200318098,-0.0,0.0,0.0,0.0,0.0,0.0,0.0,0.0,0.0,0.0,0.0,0.0,0.0,0.0,0.0,0.0,0.0,0.0,0.0,0.0,0.0,0.0,0.0,1.6295444965362549,0.02007551108672523,0.08014472225137284,-0.0675257910749195,0.0005287496605888009,0.0012955527054145932,0.0
362,5,9.540647624817211e-06,-1.7372999536746647e-06,-2.749837040028069e-05,0.00030907662585377693,-0.0013202159898355603,0.0026738436426967382,0.0,0.0,0.0,0.0,0.0,0.0,0.0,0.0,0.0,0.0006980697507970035,-0.0005253913113847375,-0.0,0.0,0.0,0.0,0.0,0.0,0.0,0.0,0.0,0.0,0.0,0.0,0.0,0.0,0.0,0.0,0.0,0.0,0.0,0.0,0.0,0.0,0.0,1.633773684501648,0.01977522071674004,0.08023409674382774,-0.06746534968716013,0.0020683619659394026,0.00211397185921669,0.0
367,5,1.813227208913304e-05,-8.582455848227255e-06,-3.143236608593725e-05,0.0011546254390850663,0.00029333235579542816,0.0015416168607771397,0.0,0.0,0.0,0.0,0.0,0.0,0.0,0.0,0.0,0.0006980697507970035,-0.0005253913113847375,-0.0,0.0,0.0,0.0,0.0,0.0,0.0,0.0,0.0,0.0,0.0,0.0,0.0,0.0,0.0,0.0,0.0,0.0,0.0,0.0,0.0,0.0,0.0,1.633773684501648,0.019522668247214547,0.07986629508011181,-0.06748637852281508,0.0020683619659394026,0.00211397185921669,0.0
372,5,1.3314644093043171e-05,1.8283732288182364e-06,-2.0768120521097444e-05,-0.00011626508785411716,-0.0011319665936753154,-0.0006630626739934087,0.0,0.0,0.0,0.0,0.0,0.0,0.0,0.0,0.0,-0.0003780098631978035,0.001122382702305913,-0.0,0.0,0.0,0.0,0.0,0.0,0.0,0.0,0.0,0.0,0.0,0.0,0.0,0.0,0.0,0.0,0.0,0.0,0.0,0.0,0.0,0.0,0.0,1.638163685798645,0.019361763688978358,0.08040614827645678,-0.06765507849651906,-0.004430472385138273,-0.0011478072265163064,0.0
377,5,1.735466685204301e-05,-7.201036169135477e-06,-5.110744609737594e-07,0.0004382966144476086,0.0006307425210252404,-0.0026960705872625113,0.0,0.0,0.0,0.0,0.0,0.0,0.0,0.0,0.0,-0.0003780098631978035,0.001122382702305913,-0.0,0.0,0.0,0.0,0.0,0.0,0.0,0.0,0.0,0.0,0.0,0.0,0.0,0.0,0.0,0.0,0.0,0.0,0.0,0.0,0.0,0.0,0.0,1.638163685798645,0.019276031818316455,0.08046813120337583,-0.06751744268767366,-0.004430472385138273,-0.0011478072265163064,0.0
382,5,1.7553868019604124e-05,-2.0144218069617637e-05,-2.803465349643375e-06,0.00019922277715522796,0.0018054789397865534,-0.0008033413323573768,0.0,0.0,0.0,0.0,0.0,0.0,0.0,0.0,0.0,-0.0007943299133330584,0.00044198063551448286,-0.0,0.0,0.0,0.0,0.0,0.0,0.0,0.0,0.0,0.0,0.0,0.0,0.0,0.0,0.0,0.0,0.0,0.0,0.0,0.0,0.0,0.0,0.0,1.633804440498352,0.019974535352283197,0.08003739916151995,-0.06756015556344422,-0.0017400233773514628,-0.0024055226240307093,0.0
387,5,1.1960002666455694e-05,-1.5901066944934428e-05,1.079767002920562e-06,-0.0005915746442042291,0.00021301342349033803,-0.0007873243885114789,0.0,0.0,0.0,0.0,0.0,0.0,0.0,0.0,0.0,-0.0007943299133330584,0.00044198063551448286,-0.0,0.0,0.0,0.0,0.0,0.0,0.0,0.0,0.0,0.0,0.0,0.0,0.0,0.0,0.0,0.0,0.0,0.0,0.0,0.0,0.0,0.0,0.0,1.633804440498352,0.01932874747589514,0.07997397285968501,-0.06734003441698122,-0.0017400233773514628,-0.0024055226240307093,0.0
392,5,1.2312978469708469e-05,-1.6026055163820274e-05,7.847133929317351e-06,-0.00019427282677497715,0.00010020397894550115,-0.0011270137038081884,0.0,0.0,0.0,0.0,0.0,0.0,0.0,0.0,0.0,-0.00029319111490622163,-0.0005471132462844253,-0.0,0.0,0.0,0.0,0.0,0.0,0.0,0.0,0.0,0.0,0.0,0.0,0.0,0.0,0.0,0.0,0.0,0.0,0.0,0.0,0.0,0.0,0.0,1.632063388824463,0.019546067680300053,0.08002221915452329,-0.0674821477728842,0.0021516226697713137,-0.0008869444136507809,0.0
397,5,1.0443775863677729e-05,-1.6738313206587918e-05,3.731238393811509e-06,-0.0003020134463440627,0.00012555249850265682,4.310192889533937e-05,0.0,0.0,0.0,0.0,0.0,0.0,0.0,0.0,0.0,-0.00029319111490622163,-0.0005471132462844253,-0.0,0.0,0.0,0.0,0.0,0.0,0.0,0.0,0.0,0.0,0.0,0.0,0.0,0.0,0.0,0.0,0.0,0.0,0.0,0.0,0.0,0.0,0.0,1.632063388824463,0.019732317631959775,0.07991538195221,-0.06741602130574045,0.0021516226697713137,-0.0008869444136507809,0.0
403,5,1.2167776731075719e-05,-1.9100765712209977e-05,-6.832128747191746e-07,8.607476047473028e-05,0.00033371520112268627,0.000546974886674434,0.0,0.0,0.0,0.0,0.0,0.0,0.0,0.0,0.0,-0.00018666106916498393,-0.00027362117543816566,-0.0,0.0,0.0,0.0,0.0,0.0,0.0,0.0,0.0,0.0,0.0,0.0,0.0,0.0,0.0,0.0,0.0,0.0,0.0,0.0,0.0,0.0,0.0,1.6290384531021118,0.020034548190214017,0.07996948506104481,-0.06751962268297591,0.0010740708094090223,-0.0005636293790303171,0.0
408,5,1.0439919606142212e-05,-1.3865398614143487e-05,-1.275480190088274e-05,-0.00017291298718191683,-0.0004947579582221806,0.0016673806821927428,0.0,0.0,0.0,0.0,0.0,0.0,0.0,0.0,0.0,-0.00018666106916498393,-0.00027362117543816566,-0.0,0.0,0.0,0.0,0.0,0.0,0.0,0.0,0.0,0.0,0.0,0.0,0.0,0.0,0.0,0.0,0.0,0.0,0.0,0.0,0.0,0.0,0.0,1.6290384531021118,0.020107973639660277,0.07967479250000947,-0.06739270607546012,0.0010740708094090223,-0.0005636293790303171,0.0
413,5,1.2644451999221928e-05,-5.4276169976219535e-06,-3.6706042010337114e-05,0.00019537874322850257,-0.00121043692342937,0.0035411010030657053,0.0,0.0,0.0,0.0,0.0,0.0,0.0,0.0,0.0,0.0005882800905965269,-0.00015011997311376035,-0.0,0.0,0.0,0.0,0.0,0.0,0.0,0.0,0.0,0.0,0.0,0.0,0.0,0.0,0.0,0.0,0.0,0.0,0.0,0.0,0.0,0.0,0.0,1.6308321952819824,0.019576527704612573,0.07999089630695753,-0.06742904316901717,0.0005899287643842399,0.001778287347406149,0.0
418,5,1.4733240277564619e-05,-2.712072728172643e-06,-4.661313141696155e-05,0.0003288060543127358,-0.0008100401028059423,0.0026052913162857294,0.0,0.0,0.0,0.0,0.0,0.0,0.0,0.0,0.0,0.0005882800905965269,-0.00015011997311376035,-0.0,0.0,0.0,0.0,0.0,0.0,0.0,0.0,0.0,0.0,0.0,0.0,0.0,0.0,0.0,0.0,0.0,0.0,0.0,0.0,0.0,0.0,0.0,1.6308321952819824,0.019578248779519105,0.0798180644846656,-0.06750207636370145,0.0005899287643842399,0.001778287347406149,0.0
423,5,1.990350938285701e-05,-4.1011594476003665e-06,-1.9766106561291963e-05,0.0007519547361880541,-0.0001573256158735603,-0.0021795264910906553,0.0,0.0,0.0,0.0,0.0,0.0,0.0,0.0,0.0,0.0009973329724743962,0.0003338863025419414,-0.0,0.0,0.0,0.0,0.0,0.0,0.0,0.0,0.0,0.0,0.0,0.0,0.0,0.0,0.0,0.0,0.0,0.0,0.0,0.0,0.0,0.0,0.0,1.6346911191940308,0.01914241060153521,0.07988433401165625,-0.06733261305020699,-0.0013151824241504073,0.003021929180249572,0.0
428,5,2.199043592554517e-05,-8.480407814204227e-06,-1.699975473457016e-05,0.0005512131028808653,0.0004625795118045062,-0.0012037729611620307,0.0,0.0,0.0,0.0,0.0,0.0,0.0,0.0,0.0,0.0009973329724743962,0.0003338863025419414,-0.0,0.0,0.0,0.0,0.0,0.0,0.0,0.0,0.0,0.0,0.0,0.0,0.0,0.0,0.0,0.0,0.0,0.0,0.0,0.0,0.0,0.0,0.0,1.6346911191940308,0.01949613186544443,0.07999562433438318,-0.06743867784420046,-0.0013151824241504073,0.003021929180249572,0.0
433,5,1.92617026186781e-05,-7.621916665812023e-06,-2.3444743419531733e-05,-0.00010696267418097705,8.201289165299386e-05,0.00029188962071202695,0.0,0.0,0.0,0.0,0.0,0.0,0.0,0.0,0.0,-0.0005886280559934676,0.0005562101723626256,-0.0,0.0,0.0,0.0,0.0,0.0,0.0,0.0,0.0,0.0,0.0,0.0,0.0,0.0,0.0,0.0,0.0,0.0,0.0,0.0,0.0,0.0,0.0,1.6334083080291748,0.019095727622714324,0.0793814384075083,-0.06731668576545766,-0.00218920037150383,-0.0017821498913690448,0.0
438,5,2.3645501642022282e-05,-1.2094928933947813e-05,7.522951818828005e-06,0.00048327070544473827,0.0005695666186511517,-0.003599367570132017,0.0,0.0,0.0,0.0,0.0,0.0,0.0,0.0,0.0,-0.0005886280559934676,0.0005562101723626256,-0.0,0.0,0.0,0.0,0.0,0.0,0.0,0.0,0.0,0.0,0.0,0.0,0.0,0.0,0.0,0.0,0.0,0.0,0.0,0.0,0.0,0.0,0.0,1.6334083080291748,0.019500359520140786,0.08010519624169017,-0.06731383358398206,-0.00218920037150383,-0.0017821498913690448,0.0
443,5,1.2502860045060515e-05,-1.2795431757695042e-05,2.851190401997883e-06,-0.0011438087094575167,0.0003118870663456619,-0.0008791356813162565,0.0,0.0,0.0,0.0,0.0,0.0,0.0,0.0,0.0,-0.0007275823736563325,0.0004937166231684387,-0.0,0.0,0.0,0.0,0.0,0.0,0.0,0.0,0.0,0.0,0.0,0.0,0.0,0.0,0.0,0.0,0.0,0.0,0.0,0.0,0.0,0.0,0.0,1.6337207555770874,0.01943409211097693,0.07996848683912314,-0.0674247997122779,-0.001943602110259235,-0.002203273819759488,0.0
448,5,7.298416676349007e-06,-2.1331559764803387e-05,7.007880412857048e-06,-0.0010820566676557064,0.0011490900069475174,-0.0008504571160301566,0.0,0.0,0.0,0.0,0.0,0.0,0.0,0.0,0.0,-0.0007275823736563325,0.0004937166231684387,-0.0,0.0,0.0,0.0,0.0,0.0,0.0,0.0,0.0,0.0,0.0,0.0,0.0,0.0,0.0,0.0,0.0,0.0,0.0,0.0,0.0,0.0,0.0,1.6337207555770874,0.019646820382609596,0.0800510148124342,-0.06739479379888762,-0.001943602110259235,-0.002203273819759488,0.0
453,5,-5.518093075806974e-07,-1.3299440070113633e-05,5.494444849318825e-06,-0.0013748498167842627,-0.0005042182165198028,-0.00015857054677326232,0.0,0.0,0.0,0.0,0.0,0.0,0.0,0.0,0.0,-0.0014547037426382303,-0.001015098299831152,-0.0,0.0,0.0,0.0,0.0,0.0,0.0,0.0,0.0,0.0,0.0,0.0,0.0,0.0,0.0,0.0,0.0,0.0,0.0,0.0,0.0,0.0,0.0,1.6419589519500732,0.019514710797896927,0.08028033543645048,-0.06745893159486678,0.004016259219497442,-0.004427362699061632,0.0
458,5,2.9263082979014143e-06,-1.895327659440227e-05,-1.2057283811373054e-06,-0.00013256582315079868,0.00047677295515313745,0.0007405925425700843,0.0,0.0,0.0,0.0,0.0,0.0,0.0,0.0,0.0,-0.0014547037426382303,-0.001015098299831152,-0.0,0.0,0.0,0.0,0.0,0.0,0.0,0.0,0.0,0.0,0.0,0.0,0.0,0.0,0.0,0.0,0.0,0.0,0.0,0.0,0.0,0.0,0.0,1.6419589519500732,0.019830570486008902,0.08014599397739039,-0.06744724660626128,0.004016259219497442,-0.004427362699061632,0.0
464,5,5.740754204452969e-06,-1.8775457647279836e-05,-2.034761564573273e-05,0.000284707173705101,0.00016937102191150188,0.002593263518065214,0.0,0.0,0.0,0.0,0.0,0.0,0.0,0.0,0.0,-0.0006261984817683697,-0.0001220549747813493,-0.0,0.0,0.0,0.0,0.0,0.0,0.0,0.0,0.0,0.0,0.0,0.0,0.0,0.0,0.0,0.0,0.0,0.0,0.0,0.0,0.0,0.0,0.0,1.6310477256774902,0.02012115113397293,0.08001708184638916,-0.06745148671793505,0.00047970470041036606,-0.0018931594677269459,0.0
469,5,7.028982508927584e-06,-8.150690518959891e-06,-1.1826933587144595e-05,0.000268470321316272,-0.0012072237441316247,1.4823510355199687e-05,0.0,0.0,0.0,0.0,0.0,0.0,0.0,0.0,0.0,-0.0006261984817683697,-0.0001220549747813493,-0.0,0.0,0.0,0.0,0.0,0.0,0.0,0.0,0.0,0.0,0.0,0.0,0.0,0.0,0.0,0.0,0.0,0.0,0.0,0.0,0.0,0.0,0.0,1.6310477256774902,0.02018465890564963,0.080340656563569,-0.06741540049829318,0.00047970470041036606,-0.0018931594677269459,0.0
474,5,1.6948632037383504e-05,3.0243377295846585e-06,-2.82482633338077e-05,0.0012977459700778127,-0.001823892816901207,0.0019764890894293785,0.0,0.0,0.0,0.0,0.0,0.0,0.0,0.0,0.0,0.0014757470926269889,0.00026517000515013933,-0.0,0.0,0.0,0.0,0.0,0.0,0.0,0.0,0.0,0.0,0.0,0.0,0.0,0.0,0.0,0.0,0.0,0.0,0.0,0.0,0.0,0.0,0.0,1.6382323503494263,0.019552660465607725,0.07999627724753866,-0.06752049736310256,-0.001046770135872066,0.004481214098632336,0.0
479,5,2.1452091459650546e-05,1.0844017879207968e-06,-4.327761780587025e-05,0.0010595136554911733,-0.0004967648419551551,0.0025941182393580675,0.0,0.0,0.0,0.0,0.0,0.0,0.0,0.0,0.0,0.0014757470926269889,0.00026517000515013933,-0.0,0.0,0.0,0.0,0.0,0.0,0.0,0.0,0.0,0.0,0.0,0.0,0.0,0.0,0.0,0.0,0.0,0.0,0.0,0.0,0.0,0.0,0.0,1.6382323503494263,0.01921525003260096,0.07978265191367787,-0.06740095418996597,-0.001046770135872066,0.004481214098632336,0.0
484,5,1.729509858705569e-05,2.5526760509819724e-06,-2.9661352527909912e-05,-7.503382948925719e-05,-0.0003748988383449614,-0.0005963047733530402,0.0,0.0,0.0,0.0,0.0,0.0,0.0,0.0,0.0,0.00046972744166851044,-4.707276457338594e-05,-0.0,0.0,0.0,0.0,0.0,0.0,0.0,0.0,0.0,0.0,0.0,0.0,0.0,0.0,0.0,0.0,0.0,0.0,0.0,0.0,0.0,0.0,0.0,1.629630208015442,0.01912116133341059,0.0795703965239935,-0.06740012285491523,0.00018484624160919338,0.001418872969225049,0.0
489,5,1.3983902135805693e-05,-4.85865257360274e-06,-1.3392830624070484e-05,-0.00042735703755170107,0.0007393998675979674,-0.0021907445043325424,0.0,0.0,0.0,0.0,0.0,0.0,0.0,0.0,0.0,0.00046972744166851044,-4.707276457338594e-05,-0.0,0.0,0.0,0.0,0.0,0.0,0.0,0.0,0.0,0.0,0.0,0.0,0.0,0.0,0.0,0.0,0.0,0.0,0.0,0.0,0.0,0.0,0.0,1.629630208015442,0.01912760451137467,0.07992113627836993,-0.06749636321221326,0.00018484624160919338,0.001418872969225049,0.0
494,5,9.890211003948934e-06,-9.029131433635484e-06,1.192273248307174e-05,-0.0006621857755817473,0.0007962174713611603,-0.003914165310561657,0.0,0.0,0.0,0.0,0.0,0.0,0.0,0.0,0.0,-0.001001192256808281,-0.0006099310703575611,-0.0,0.0,0.0,0.0,0.0,0.0,0.0,0.0,0.0,0.0,0.0,0.0,0.0,0.0,0.0,0.0,0.0,0.0,0.0,0.0,0.0,0.0,0.0,1.6362577676773071,0.019529810221744142,0.0801518739404455,-0.06741520467208545,0.002404828555881977,-0.0030365302227437496,0.0
499,5,1.7426905287720729e-06,-1.121144578064559e-05,1.3114552530169021e-05,-0.0012425767490640283,0.0005803646636195481,-0.0017086844891309738,0.0,0.0,0.0,0.0,0.0,0.0,0.0,0.0,0.0,-0.001001192256808281,-0.0006099310703575611,-0.0,0.0,0.0,0.0,0.0,0.0,0.0,0.0,0.0,0.0,0.0,0.0,0.0,0.0,0.0,0.0,0.0,0.0,0.0,0.0,0.0,0.0,0.0,1.6362577676773071,0.01963573979444587,0.07994930723764894,-0.06742442997217805,0.002404828555881977,-0.0030365302227437496,0.0
504,5,6.87706869939575e-06,-1.6484344087075442e-05,1.0731429028965067e-05,0.00011909470049431548,0.0008648937800899148,-0.000397499039536342,0.0,0.0,0.0,0.0,0.0,0.0,0.0,0.0,0.0,-0.0011005621636286378,0.00012334296479821205,-0.0,0.0,0.0,0.0,0.0,0.0,0.0,0.0,0.0,0.0,0.0,0.0,0.0,0.0,0.0,0.0,0.0,0.0,0.0,0.0,0.0,0.0,0.0,1.634893536567688,0.019628553961236268,0.08004329404615103,-0.06734653720030039,-0.00048590960795991123,-0.003335127606987953,0.0
509,5,6.54387167742243e-06,-1.6278450857498683e-05,1.3005790606257506e-05,7.65419281378854e-06,0.0003212501760572195,-0.0004319230210967362,0.0,0.0,0.0,0.0,0.0,0.0,0.0,0.0,0.0,-0.0011005621636286378,0.00012334296479821205,-0.0,0.0,0.0,0.0,0.0,0.0,0.0,0.0,0.0,0.0,0.0,0.0,0.0,0.0,0.0,0.0,0.0,0.0,0.0,0.0,0.0,0.0,0.0,1.634893536567688,0.01949349764976143,0.08025643608155608,-0.06753185107359234,-0.00048590960795991123,-0.003335127606987953,0.0
515,5,2.6543457352090627e-06,-1.6754731404944323e-05,-6.602570920222206e-06,-0.0004636814119294286,0.00018565391656011343,0.002180234296247363,0.0,0.0,0.0,0.0,0.0,0.0,0.0,0.0,0.0,-0.0002611747186165303,-0.00043836288386955857,-0.0,0.0,0.0,0.0,0.0,0.0,0.0,0.0,0.0,0.0,0.0,0.0,0.0,0.0,0.0,0.0,0.0,0.0,0.0,0.0,0.0,0.0,0.0,1.6308902502059937,0.019521367753441488,0.07994303349555082,-0.06741623022409612,0.0017227028729394078,-0.0007895223097875714,0.0
520,5,4.623292170435889e-06,-8.041750334086828e-06,6.866910553071648e-06,5.080098344478756e-05,-0.0009712962782941759,-0.0007442440837621689,0.0,0.0,0.0,0.0,0.0,0.0,0.0,0.0,0.0,-0.0002611747186165303,-0.00043836288386955857,-0.0,0.0,0.0,0.0,0.0,0.0,0.0,0.0,0.0,0.0,0.0,0.0,0.0,0.0,0.0,0.0,0.0,0.0,0.0,0.0,0.0,0.0,0.0,1.6308902502059937,0.019816732453163427,0.07983591381869773,-0.06739814576012919,0.0017227028729394078,-0.0007895223097875714,0.0
525,5,6.689108886348549e-06,2.8712522635032656e-06,5.891198270546738e-06,0.000268218427663669,-0.0016980788204818964,-0.00018061215814668685,0.0,0.0,0.0,0.0,0.0,0.0,0.0,0.0,0.0,0.0020953784696757793,0.0002636879216879606,-0.0,0.0,0.0,0.0,0.0,0.0,0.0,0.0,0.0,0.0,0.0,0.0,0.0,0.0,0.0,0.0,0.0,0.0,0.0,0.0,0.0,0.0,0.0,1.6432851552963257,0.019627008876540012,0.08019905416886841,-0.06750740145078206,-0.0010441289050504565,0.006382390391081572,0.0
530,5,7.561947768408572e-06,5.272905582387466e-06,-1.973800607402154e-07,0.0002120280551025644,-0.0009674299508333206,0.0006583845242857933,0.0,0.0,0.0,0.0,0.0,0.0,0.0,0.0,0.0,0.0020953784696757793,0.0002636879216879606,-0.0,0.0,0.0,0.0,0.0,0.0,0.0,0.0,0.0,0.0,0.0,0.0,0.0,0.0,0.0,0.0,0.0,0.0,0.0,0.0,0.0,0.0,0.0,1.6432851552963257,0.0195669337606347,0.08028811973948866,-0.0676299582210921,-0.0010441289050504565,0.006382390391081572,0.0
535,5,1.9183262338628992e-06,4.836875632463489e-06,-1.823707134462893e-05,-0.0007596411742269993,-0.00043918026494793594,0.0012623767834156752,0.0,0.0,0.0,0.0,0.0,0.0,0.0,0.0,0.0,0.0005519313854165375,-0.0007201222470030189,-0.0,0.0,0.0,0.0,0.0,0.0,0.0,0.0,0.0,0.0,0.0,0.0,0.0,0.0,0.0,0.0,0.0,0.0,0.0,0.0,0.0,0.0,0.0,1.6346830129623413,0.019246537011363682,0.08042226609179137,-0.06748723450514774,0.0028365575708448887,0.0016723499866202474,0.0
540,5,8.90745286596939e-06,-5.024829533795128e-06,-3.3285763493040577e-05,0.0005348387639969587,0.0010077324695885181,0.002310793846845627,0.0,0.0,0.0,0.0,0.0,0.0,0.0,0.0,0.0,0.0005519313854165375,-0.0007201222470030189,-0.0,0.0,0.0,0.0,0.0,0.0,0.0,0.0,0.0,0.0,0.0,0.0,0.0,0.0,0.0,0.0,0.0,0.0,0.0,0.0,0.0,0.0,0.0,1.6346830129623413,0.019705672368224056,0.0800416439759189,-0.06755125675517418,0.0028365575708448887,0.0016723499866202474,0.0
545,5,8.90745286596939e-06,-5.024829533795128e-06,-3.3285763493040577e-05,0.0005348387639969587,0.0010077324695885181,0.002310793846845627,0.0,0.0,0.0,0.0,0.0,0.0,0.0,0.0,0.0,0.0005519313854165375,-0.0007201222470030189,-0.0,0.0,0.0,0.0,0.0,0.0,0.0,0.0,0.0,0.0,0.0,0.0,0.0,0.0,0.0,0.0,0.0,0.0,0.0,0.0,0.0,0.0,0.0,1.6346830129623413,0.019705672368224056,0.0800416439759189,-0.06755125675517418,-0.0020562137942761183,-0.0038078296929597855,0.0
550,5,1.1553930562513415e-05,-5.847355623700423e-06,-2.478753003742895e-06,-0.00016666519513819367,-0.000575112528167665,-0.0030659097246825695,0.0,0.0,0.0,0.0,0.0,0.0,0.0,0.0,0.0,-0.0012545583304017782,0.0005211207899264991,-0.0,0.0,0.0,0.0,0.0,0.0,0.0,0.0,0.0,0.0,0.0,0.0,0.0,0.0,0.0,0.0,0.0,0.0,0.0,0.0,0.0,0.0,0.0,1.6374887228012085,0.019259513930049176,0.0800667768012195,-0.06746774481812554,-0.0020562137942761183,-0.0038078296929597855,0.0
555,5,2.404986616966198e-06,-2.258077984151896e-06,2.4290988221764565e-05,-0.001164539367891848,-0.0006607583491131663,-0.004438732750713825,0.0,0.0,0.0,0.0,0.0,0.0,0.0,0.0,0.0,-0.0012545583304017782,0.0005211207899264991,-0.0,0.0,0.0,0.0,0.0,0.0,0.0,0.0,0.0,0.0,0.0,0.0,0.0,0.0,0.0,0.0,0.0,0.0,0.0,0.0,0.0,0.0,0.0,1.6393145322799683,0.019376086314098286,0.08012054116038145,-0.06745961505699598,0.004352209623903036,0.0024642201606184244,0.0
560,5,9.636695494918968e-07,-1.6882711861399002e-05,1.1028747394448146e-05,-0.000638773781247437,0.0014906527940183878,-0.00018402421846985817,0.0,0.0,0.0,0.0,0.0,0.0,0.0,0.0,0.0,0.0008109774207696319,-0.0011017824290320277,-0.0,0.0,0.0,0.0,0.0,0.0,0.0,0.0,0.0,0.0,0.0,0.0,0.0,0.0,0.0,0.0,0.0,0.0,0.0,0.0,0.0,0.0,0.0,1.6393145322799683,0.019602714064563178,0.08005940723899742,-0.06729114016274629,0.004352209623903036,0.0024642201606184244,0.0
566,5,-6.651349394815043e-06,-2.081178354274016e-05,9.172847967420239e-06,-0.0011693118140101433,0.0010677495738491416,0.0001490982249379158,0.0,0.0,0.0,0.0,0.0,0.0,0.0,0.0,0.0,0.0008109774207696319,-0.0011017824290320277,-0.0,0.0,0.0,0.0,0.0,0.0,0.0,0.0,0.0,0.0,0.0,0.0,0.0,0.0,0.0,0.0,0.0,0.0,0.0,0.0,0.0,0.0,0.0,1.6393145322799683,0.019981388180499285,0.0798690617695052,-0.06743781559040016,0.004419939126819372,-0.0041198027320206165,0.0
571,5,-2.4306891646119766e-06,-1.0977643796650227e-05,1.7382581063429825e-05,3.8754504203097895e-05,-0.0007529969443567097,-0.0009255286422558129,0.0,0.0,0.0,0.0,0.0,0.0,0.0,0.0,0.0,-0.0013535041362047195,-0.0011170081561431289,-0.0,0.0,0.0,0.0,0.0,0.0,0.0,0.0,0.0,0.0,0.0,0.0,0.0,0.0,0.0,0.0,0.0,0.0,0.0,0.0,0.0,0.0,0.0,1.6421337127685547,0.019857410499446553,0.08034142697680788,-0.06750935785439086,0.004419939126819372,-0.0041198027320206165,0.0
576,5,-1.1006776503563742e-06,-7.275324151123641e-06,-1.3345891602511983e-05,0.0001751031813910231,-0.0007454770966432989,0.003317205235362053,0.0,0.0,0.0,0.0,0.0,0.0,0.0,0.0,0.0,-0.0013535041362047195,-0.0011170081561431289,-0.0,0.0,0.0,0.0,0.0,0.0,0.0,0.0,0.0,0.0,0.0,0.0,0.0,0.0,0.0,0.0,0.0,0.0,0.0,0.0,0.0,0.0,0.0,1.6421337127685547,0.019990215777785925,0.07991987585497323,-0.0673009340668094,0.004419939126819372,-0.0041198027320206165,0.0
581,5,1.2415464880177751e-05,-1.0533416343605495e-06,-2.052004674624186e-05,0.0016919784247875214,-0.0010448286775499582,0.0021877808030694723,0.0,0.0,0.0,0.0,0.0,0.0,0.0,0.0,0.0,0.0009096835856325924,0.00016568764112889767,-0.0,0.0,0.0,0.0,0.0,0.0,0.0,0.0,0.0,0.0,0.0,0.0,0.0,0.0,0.0,0.0,0.0,0.0,0.0,0.0,0.0,0.0,0.0,1.6334288120269775,0.019652539635077817,0.0800531046504415,-0.06739838417059467,-0.0006521418108604848,0.0027542223688215017,0.0
586,5,2.0393919839989394e-05,-2.820813278958667e-06,-3.464057226665318e-05,0.001634205924347043,-0.00020583489094860852,0.0025695753283798695,0.0,0.0,0.0,0.0,0.0,0.0,0.0,0.0,0.0,0.0009096835856325924,0.00016568764112889767,-0.0,0.0,0.0,0.0,0.0,0.0,0.0,0.0,0.0,0.0,0.0,0.0,0.0,0.0,0.0,0.0,0.0,0.0,0.0,0.0,0.0,0.0,0.0,1.6334288120269775,0.0192598280407492,0.08001176799845418,-0.067325642386452,-0.0006521418108604848,0.0027542223688215017,0.0
591,5,2.0969526303815655e-05,4.336745405453257e-06,-1.1518867722770665e-05,0.0007227550959214568,-0.0009412410436198115,-0.0017467743018642068,0.0,0.0,0.0,0.0,0.0,0.0,0.0,0.0,0.0,0.0002479621907696128,0.001576859038323164,-0.0,0.0,0.0,0.0,0.0,0.0,0.0,0.0,0.0,0.0,0.0,0.0,0.0,0.0,0.0,0.0,0.0,0.0,0.0,0.0,0.0,0.0,0.0,1.6427973508834839,0.01906627938656406,0.08010290870338493,-0.06739000933425392,-0.006242068950086832,0.0007550539448857307,0.0
596,5,1.7149915947811678e-05,1.1788377378252335e-05,6.500635663542198e-06,-0.00016925115778576583,-0.0012706922134384513,-0.0028610501904040575,0.0,0.0,0.0,0.0,0.0,0.0,0.0,0.0,0.0,0.0002479621907696128,0.001576859038323164,-0.0,0.0,0.0,0.0,0.0,0.0,0.0,0.0,0.0,0.0,0.0,0.0,0.0,0.0,0.0,0.0,0.0,0.0,0.0,0.0,0.0,0.0,0.0,1.6427973508834839,0.018747668389598963,0.08045811197508819,-0.06741081269344629,-0.006242068950086832,0.0007550539448857307,0.0
601,5,1.2383447938191239e-05,-4.398576436415169e-07,1.1610906767600682e-05,-0.0006396767566911876,0.0009591113193891943,-0.0017576526151970029,0.0,0.0,0.0,0.0,0.0,0.0,0.0,0.0,0.0,0.0015894926618784666,-0.00013640093675348908,-0.0,0.0,0.0,0.0,0.0,0.0,0.0,0.0,0.0,0.0,0.0,0.0,0.0,0.0,0.0,0.0,0.0,0.0,0.0,0.0,0.0,0.0,0.0,1.6389282941818237,0.018970202949277825,0.08051945135528063,-0.06761086422753267,0.0005386772681958973,0.004828660748898983,0.0
606,5,1.1525681657076348e-05,-1.4693795492348727e-05,-1.6578329677940928e-06,-0.00035880255745723844,0.0020941169932484627,0.000889187736902386,0.0,0.0,0.0,0.0,0.0,0.0,0.0,0.0,0.0,0.0015894926618784666,-0.00013640093675348908,-0.0,0.0,0.0,0.0,0.0,0.0,0.0,0.0,0.0,0.0,0.0,0.0,0.0,0.0,0.0,0.0,0.0,0.0,0.0,0.0,0.0,0.0,0.0,1.6389282941818237,0.019782226538850825,0.08034577029079194,-0.06753110459917644,0.0005386772681958973,0.004828660748898983,0.0
611,5,-1.1802446806541411e-06,-4.473610715649556e-06,9.46200543694431e-06,-0.0016682322602719069,-0.0003887753700837493,-0.000978705589659512,0.0,0.0,0.0,0.0,0.0,0.0,0.0,0.0,0.0,-0.002598417457193136,-0.0003225199761800468,-0.0,0.0,0.0,0.0,0.0,0.0,0.0,0.0,0.0,0.0,0.0,0.0,0.0,0.0,0.0,0.0,0.0,0.0,0.0,0.0,0.0,0.0,0.0,1.6475346088409424,0.019526782806449854,0.08040624119435175,-0.0675458527041634,0.0012803879799321294,-0.00793507695198059,0.0
616,5,-3.186642970831599e-06,-1.0830982319021132e-05,7.896783245087136e-06,-0.0009080606396310031,0.0006073744734749198,-0.00020365558157209307,0.0,0.0,0.0,0.0,0.0,0.0,0.0,0.0,0.0,-0.002598417457193136,-0.0003225199761800468,-0.0,0.0,0.0,0.0,0.0,0.0,0.0,0.0,0.0,0.0,0.0,0.0,0.0,0.0,0.0,0.0,0.0,0.0,0.0,0.0,0.0,0.0,0.0,1.6475346088409424,0.019995633399972932,0.08030336667647042,-0.06750515968636284,0.0012803879799321294,-0.00793507695198059,0.0
621,5,6.938968908798415e-06,-2.117339681717567e-05,-1.5422850992763415e-05,0.0008518491522409022,0.0014840394724160433,0.0027168940287083387,0.0,0.0,0.0,0.0,0.0,0.0,0.0,0.0,0.0,-0.0007707232725806534,-0.0008672803523950279,-0.0,0.0,0.0,0.0,0.0,0.0,0.0,0.0,0.0,0.0,0.0,0.0,0.0,0.0,0.0,0.0,0.0,0.0,0.0,0.0,0.0,0.0,0.0,1.6369909048080444,0.019811429852445418,0.08010129822668316,-0.06737737110545207,0.003421034663915634,-0.0023385852109640837,0.0
627,5,3.89345132134622e-06,-9.069833140529227e-06,1.1185788025613874e-05,-2.47224306804128e-05,-0.0008588117780163884,-0.002106279134750366,0.0,0.0,0.0,0.0,0.0,0.0,0.0,0.0,0.0,-0.0007707232725806534,-0.0008672803523950279,-0.0,0.0,0.0,0.0,0.0,0.0,0.0,0.0,0.0,0.0,0.0,0.0,0.0,0.0,0.0,0.0,0.0,0.0,0.0,0.0,0.0,0.0,0.0,1.6369909048080444,0.0197733166000953,0.08022652443579371,-0.06739309271396147,0.003421034663915634,-0.0023385852109640837,0.0
632,5,1.045834051183192e-05,2.324894467164995e-06,1.4240605196391698e-05,0.0007778977160342038,-0.001710892072878778,-0.0012090896489098668,0.0,0.0,0.0,0.0,0.0,0.0,0.0,0.0,0.0,0.001046177581883967,-1.766351670084987e-05,-0.0,0.0,0.0,0.0,0.0,0.0,0.0,0.0,0.0,0.0,0.0,0.0,0.0,0.0,0.0,0.0,0.0,0.0,0.0,0.0,0.0,0.0,0.0,1.6343501806259155,0.019252257136007655,0.08010832566839404,-0.06750019921883403,6.956230936339125e-05,0.0031692679040133953,0.0
637,5,1.757646350597497e-05,-2.664037765498506e-06,-8.182457349903416e-06,0.001165333902463317,-8.568496559746563e-05,0.002207131590694189,0.0,0.0,0.0,0.0,0.0,0.0,0.0,0.0,0.0,0.001046177581883967,-1.766351670084987e-05,-0.0,0.0,0.0,0.0,0.0,0.0,0.0,0.0,0.0,0.0,0.0,0.0,0.0,0.0,0.0,0.0,0.0,0.0,0.0,0.0,0.0,0.0,0.0,1.6343501806259155,0.019647969530851527,0.07984319492331932,-0.06740721173818631,6.956230936339125e-05,0.0031692679040133953,0.0
642,5,1.5288382201106288e-05,1.81708162472205e-06,1.2146446351835039e-05,0.00019156371126882732,-0.0005720083136111498,-0.001556615810841322,0.0,0.0,0.0,0.0,0.0,0.0,0.0,0.0,0.0,0.0001005498124868609,0.0011321912752464414,-0.0,0.0,0.0,0.0,0.0,0.0,0.0,0.0,0.0,0.0,0.0,0.0,0.0,0.0,0.0,0.0,0.0,0.0,0.0,0.0,0.0,0.0,0.0,1.6378984451293945,0.018984359310277102,0.08004035948216705,-0.06733834238924992,-0.004468467086553574,0.0003052648389711976,0.0
647,5,1.73880052898312e-05,-2.396261152171064e-06,-8.319510925502982e-06,0.0003285803541075438,0.00027679780032485723,0.0018332685576751828,0.0,0.0,0.0,0.0,0.0,0.0,0.0,0.0,0.0,0.0001005498124868609,0.0011321912752464414,-0.0,0.0,0.0,0.0,0.0,0.0,0.0,0.0,0.0,0.0,0.0,0.0,0.0,0.0,0.0,0.0,0.0,0.0,0.0,0.0,0.0,0.0,0.0,1.6378984451293945,0.019175171077988735,0.07998584435825948,-0.06731883988318207,-0.004468467086553574,0.0003052648389711976,0.0
652,5,2.49410168180475e-05,3.0645048809674336e-06,2.498798039596295e-06,0.0010377935832366347,-0.0005445728311315179,-0.0005648896913044155,0.0,0.0,0.0,0.0,0.0,0.0,0.0,0.0,0.0,-0.00034831027733162045,0.00033846189035102725,-0.0,0.0,0.0,0.0,0.0,0.0,0.0,0.0,0.0,0.0,0.0,0.0,0.0,0.0,0.0,0.0,0.0,0.0,0.0,0.0,0.0,0.0,0.0,1.6303496360778809,0.019142671266345394,0.0800616061389506,-0.06740466300091973,-0.0013296655379235744,-0.0010525811230763793,0.0
657,5,1.8389893739367835e-05,3.431248671859066e-07,-3.5277553251944482e-06,-0.0003710174059960991,0.00010873648716369644,0.0004972305614501238,0.0,0.0,0.0,0.0,0.0,0.0,0.0,0.0,0.0,-0.00034831027733162045,0.00033846189035102725,-0.0,0.0,0.0,0.0,0.0,0.0,0.0,0.0,0.0,0.0,0.0,0.0,0.0,0.0,0.0,0.0,0.0,0.0,0.0,0.0,0.0,0.0,0.0,1.6303496360778809,0.019209419548305892,0.08020871029192446,-0.06746426280324168,-0.0013296655379235744,-0.0010525811230763793,0.0
662,5,1.5020439604995772e-05,-5.817806595587172e-06,-2.8891454348922707e-05,-0.0005527414614334702,0.0007828063680790365,0.0032425362151116133,0.0,0.0,0.0,0.0,0.0,0.0,0.0,0.0,0.0,-0.0001348518271697685,-0.00032810840639285743,-0.0,0.0,0.0,0.0,0.0,0.0,0.0,0.0,0.0,0.0,0.0,0.0,0.0,0.0,0.0,0.0,0.0,0.0,0.0,0.0,0.0,0.0,0.0,1.6294136047363281,0.019680152752767154,0.07997731632057685,-0.06745958168626336,0.0012882512528449297,-0.0004072833980899304,0.0
667,5,7.046694463497261e-06,-3.868187832267722e-06,-4.370474471215857e-06,-0.0011779459891840816,7.916829054011032e-05,-0.0016455032164230943,0.0,0.0,0.0,0.0,0.0,0.0,0.0,0.0,0.0,-0.0001348518271697685,-0.00032810840639285743,-0.0,0.0,0.0,0.0,0.0,0.0,0.0,0.0,0.0,0.0,0.0,0.0,0.0,0.0,0.0,0.0,0.0,0.0,0.0,0.0,0.0,0.0,0.0,1.6294136047363281,0.019601139441868566,0.08025919524806979,-0.06738652103968548,0.0012882512528449297,-0.0004072833980899304,0.0
672,5,4.205219283903716e-06,-9.678172318672296e-06,-1.4618010936828796e-05,-0.0008121554274111986,0.0007288654451258481,0.0005715031293220818,0.0,0.0,0.0,0.0,0.0,0.0,0.0,0.0,0.0,-0.00010528029088163748,-0.0011090799234807491,-0.0,0.0,0.0,0.0,0.0,0.0,0.0,0.0,0.0,0.0,0.0,0.0,0.0,0.0,0.0,0.0,0.0,0.0,0.0,0.0,0.0,0.0,0.0,1.6376527547836304,0.01955080845236746,0.07986761139917305,-0.06748071980924708,0.004376596305519342,-0.00031957842293195426,0.0
678,5,6.480925549112726e-06,-1.0505469617783092e-05,-4.182962129561929e-06,-5.177742423256859e-05,0.0003908218059223145,-0.0010236046509817243,0.0,0.0,0.0,0.0,0.0,0.0,0.0,0.0,0.0,-0.00010528029088163748,-0.0011090799234807491,-0.0,0.0,0.0,0.0,0.0,0.0,0.0,0.0,0.0,0.0,0.0,0.0,0.0,0.0,0.0,0.0,0.0,0.0,0.0,0.0,0.0,0.0,0.0,1.6376527547836304,0.019728033589950143,0.08005606737639513,-0.06734167308180812,0.004376596305519342,-0.00031957842293195426,0.0
683,5,8.697236808075104e-06,-8.224012162827421e-06,4.271045781933935e-06,0.0002452464250382036,-0.00011744608491426334,-0.001423922716639936,0.0,0.0,0.0,0.0,0.0,0.0,0.0,0.0,0.0,-0.0005047164740972221,-3.986094816355035e-05,-0.0,0.0,0.0,0.0,0.0,0.0,0.0,0.0,0.0,0.0,0.0,0.0,0.0,0.0,0.0,0.0,0.0,0.0,0.0,0.0,0.0,0.0,0.0,1.6299071311950684,0.019770861611819245,0.08035553010932193,-0.0674446993143463,0.00015655333118047565,-0.0015248209238052368,0.0
688,5,1.1404572433093563e-05,-1.2051572412019596e-05,-7.263308816618519e-06,0.0004229787737131119,0.00041232877993024886,0.0008145534666255116,0.0,0.0,0.0,0.0,0.0,0.0,0.0,0.0,0.0,-0.0005047164740972221,-3.986094816355035e-05,-0.0,0.0,0.0,0.0,0.0,0.0,0.0,0.0,0.0,0.0,0.0,0.0,0.0,0.0,0.0,0.0,0.0,0.0,0.0,0.0,0.0,0.0,0.0,1.6299071311950684,0.019800789937154468,0.07996756609639646,-0.06733579244999302,0.00015655333118047565,-0.0015248209238052368,0.0
693,5,2.0702844267361797e-05,-6.3483516896667425e-06,-5.19166542289895e-06,0.0012849841732531786,-0.0005194550030864775,7.722415466560051e-05,0.0,0.0,0.0,0.0,0.0,0.0,0.0,0.0,0.0,-0.0005335512105375528,0.0004198032838758081,-0.0,0.0,0.0,0.0,0.0,0.0,0.0,0.0,0.0,0.0,0.0,0.0,0.0,0.0,0.0,0.0,0.0,0.0,0.0,0.0,0.0,0.0,0.0,1.6320134401321411,0.019384933568192597,0.08013010420622883,-0.06752094945518425,-0.0016509023262187839,-0.001614017877727747,0.0
698,5,9.926342499966267e-06,-2.374131781834876e-06,-1.5417188478750177e-05,-0.0007791865500621498,-0.0006846883916296065,0.0012579523026943207,0.0,0.0,0.0,0.0,0.0,0.0,0.0,0.0,0.0,-0.0005335512105375528,0.0004198032838758081,-0.0,0.0,0.0,0.0,0.0,0.0,0.0,0.0,0.0,0.0,0.0,0.0,0.0,0.0,0.0,0.0,0.0,0.0,0.0,0.0,0.0,0.0,0.0,1.6320134401321411,0.01929584186212168,0.07979495071010892,-0.0673281288971603,-0.0016509023262187839,-0.001614017877727747,0.0
703,5,1.497100674896501e-05,-2.50896800935152e-06,-1.2242528100614436e-05,0.0002936850651167333,-0.0002576950064394623,0.00012222175428178161,0.0,0.0,0.0,0.0,0.0,0.0,0.0,0.0,0.0,0.000841819157358259,-0.0007267657201737165,-0.0,0.0,0.0,0.0,0.0,0.0,0.0,0.0,0.0,0.0,0.0,0.0,0.0,0.0,0.0,0.0,0.0,0.0,0.0,0.0,0.0,0.0,0.0,1.6361606121063232,0.018777498627732675,0.07985786215935038,-0.06739615616516709,0.002865313086658716,0.0025530140846967697,0.0
708,5,1.857384449976962e-05,2.977037922846648e-07,1.4856001143925823e-05,0.0005498145474120975,-0.00043987861135974526,-0.0032029347494244576,0.0,0.0,0.0,0.0,0.0,0.0,0.0,0.0,0.0,0.000841819157358259,-0.0007267657201737165,-0.0,0.0,0.0,0.0,0.0,0.0,0.0,0.0,0.0,0.0,0.0,0.0,0.0,0.0,0.0,0.0,0.0,0.0,0.0,0.0,0.0,0.0,0.0,1.6361606121063232,0.01887200110914554,0.08017162075926375,-0.06751946698820875,0.002865313086658716,0.0025530140846967697,0.0
