timestamp,dt,pos_x,pos_y,pos_z,vel_x,vel_y,vel_z,roll,pitch,yaw,agv_x,agv_y,agv_z,x_ref,y_ref,z_ref,roll_ref,pitch_ref,yaw_ref,x_vel_ref,y_vel_ref,z_vel_ref,x_torque,y_torque,z_torque,w0,w1,w2,w3,u0,u1,u2,u3,m0req,m1req,m2req,m3req,thrust0,thrust1,thrust2,thrust3,thrust_ref,roll_vicon,pitch_vicon,yaw_vicon,acc_x,acc_y,acc_z
5,5,0.0,0.0,0.0,0.0004553678154479712,0.00012785688159056008,-0.00017128667968790978,0.0001221818820340559,0.34117424488067627,-0.009446674957871437,-0.0014009380247443914,-0.003108145436272025,-0.0026439502835273743,0.0,0.0,0.0,-0.00015863895532675087,0.00043461500899866223,-0.0,0.0,0.0,0.0,-1.0139160622202326e-05,-0.10246576368808746,-0.000953933282289654,1495.0,1495.0,1495.0,1495.0,0.0,0.0,0.0,0.0,0.0,0.0,0.0,0.0,1495.0,1495.0,1495.0,1495.0,1.6305608749389648,-0.07461003160414552,-0.2020888962205013,-0.06708572444027583,-0.0017076293006539345,-0.0004794633132405579,0.0
29,24,0.0,0.0,0.0,9.005596803035587e-05,-0.0013122024247422814,-0.0003270102315582335,0.0001221818820340559,0.34117424488067627,-0.009446674957871437,-0.0014009380247443914,-0.003108145436272025,-0.0026439502835273743,0.0,0.0,0.0,-0.00015863895532675087,0.00043461500899866223,-0.0,0.0,0.0,0.0,-1.0139160622202326e-05,-0.10246576368808746,-0.000953933282289654,1495.0,1495.0,1495.0,1495.0,0.0,0.0,0.0,0.0,0.0,0.0,0.0,0.0,1495.0,1495.0,1495.0,1495.0,1.6305608749389648,-0.0746526771324274,-0.20220933149121514,-0.06703493065331281,-0.0017076293006539345,-0.0004794633132405579,0.0
34,5,0.0,0.0,0.0,-0.0006453522364608943,0.00019443406199570745,0.0008270175312645733,0.00013107366976328194,0.34116312861442566,-0.009487569332122803,3.1102204957278445e-05,0.0035708316136151552,-0.002272913698107004,0.0,0.0,0.0,0.0016196122160181403,8.550264465156943e-05,-0.0,0.0,0.0,0.0,-3.276084316894412e-05,-0.10237777233123779,-0.0009597128955647349,1495.0,1495.0,1495.0,1495.0,0.0,0.0,0.0,0.0,0.0,0.0,0.0,0.0,1495.0,1495.0,1495.0,1495.0,1.6391279697418213,-0.07479712829131055,-0.20226653473119852,-0.0669393721709246,-0.0003377098764758557,0.004920759238302708,0.0
39,5,0.0,0.0,0.0,-0.0006617007311433554,-0.00011621427984209731,0.0002734455920290202,0.00013107366976328194,0.34116312861442566,-0.009487569332122803,3.1102204957278445e-05,0.0035708316136151552,-0.002272913698107004,0.0,0.0,0.0,0.0016196122160181403,8.550264465156943e-05,-0.0,0.0,0.0,0.0,-3.276084316894412e-05,-0.10237777233123779,-0.0009597128955647349,1495.0,1495.0,1495.0,1495.0,0.0,0.0,0.0,0.0,0.0,0.0,0.0,0.0,1495.0,1495.0,1495.0,1495.0,1.6391279697418213,-0.07460734253661488,-0.20230227324242184,-0.06693313868747325,-0.0003377098764758557,0.004920759238302708,0.0
44,5,0.0,0.0,0.0,-0.0006617007311433554,-0.00011621427984209731,0.0002734455920290202,0.0001280623400816694,0.34116238355636597,-0.009488297626376152,-0.001408957177773118,-0.0032460149377584457,-0.000146085221786052,0.0,0.0,0.0,0.00014401458611246198,-0.000630761671345681,-0.0,0.0,0.0,0.0,-6.640030187554657e-05,-0.10227500647306442,-0.0009507059585303068,1495.0,1495.0,1495.0,1495.0,0.0,0.0,0.0,0.0,0.0,0.0,0.0,0.0,1495.0,1495.0,1495.0,1495.0,1.6325846910476685,-0.07460734253661488,-0.20230227324242184,-0.06693313868747325,0.0024813776835799217,0.0004358035512268543,0.0
49,5,0.0,0.0,0.0,-0.0006617007311433554,-0.00011621427984209731,0.0002734455920290202,0.0001280623400816694,0.34116238355636597,-0.009488297626376152,-0.001408957177773118,-0.0032460149377584457,-0.000146085221786052,0.0,0.0,0.0,0.00014401458611246198,-0.000630761671345681,-0.0,0.0,0.0,0.0,-6.640030187554657e-05,-0.10227500647306442,-0.0009507059585303068,1495.0,1495.0,1495.0,1495.0,0.0,0.0,0.0,0.0,0.0,0.0,0.0,0.0,1495.0,1495.0,1495.0,1495.0,1.6325846910476685,-0.07460734253661488,-0.20230227324242184,-0.06693313868747325,0.0024813776835799217,0.0004358035512268543,0.0
57,8,6.807144018239342e-06,-2.9563664156739833e-06,8.79999151948141e-06,0.000688524276483804,0.00012068956857547164,-0.000294216675683856,0.0001280623400816694,0.34116238355636597,-0.009488297626376152,-0.001408957177773118,-0.0032460149377584457,-0.000146085221786052,0.0,0.0,0.0,0.00014401458611246198,-0.000630761671345681,-0.0,0.0,0.0,0.0,-6.640030187554657e-05,-0.10227500647306442,-0.0009507059585303068,1495.0,1495.0,1495.0,1495.0,0.0,0.0,0.0,0.0,0.0,0.0,0.0,0.0,1495.0,1495.0,1495.0,1495.0,1.6325846910476685,-0.07463127331014567,-0.2019902032826971,-0.06703776213480155,0.0024813776835799217,0.0004358035512268543,0.0
62,5,7.197733339125989e-06,-4.15564591094153e-06,7.456104412995046e-06,0.0003222804516553879,0.00019218938541598618,4.357980651548132e-05,0.00011445808922871947,0.34117621183395386,-0.009465805254876614,-0.0005223440821282566,-0.0021622516214847565,0.0015443232841789722,0.0,0.0,0.0,-0.00024615839356556535,0.0003178446786478162,-0.0,0.0,0.0,0.0,-0.00010999541700584814,-0.10229393094778061,-0.0009403544827364385,1495.0,19665.0,19161.0,1495.0,-0.08017612248659134,0.8962188959121704,0.848946213722229,-0.03442811220884323,0.0,0.0,0.0,0.0,1495.0,19667.0,19164.0,1495.0,1.6296899318695068,-0.07497445497310753,-0.2025891872788076,-0.06708434336192913,-0.0012481644516810775,-0.0007435808074660599,-0.0
68,6,9.333557500212919e-06,-1.0835658031282946e-05,1.4730336260981858e-05,0.00038521108217537403,0.0008784771780483425,-0.0008554758969694376,0.00011445808922871947,0.34117621183395386,-0.009465805254876614,-0.0005223440821282566,-0.0021622516214847565,0.0015443232841789722,0.0,0.0,0.0,-0.00024615839356556535,0.0003178446786478162,-0.0,0.0,0.0,0.0,-0.00010999541700584814,-0.10229393094778061,-0.0009403544827364385,1495.0,19665.0,19161.0,1495.0,-0.08017612248659134,0.8962188959121704,0.848946213722229,-0.03442811220884323,0.0,0.0,0.0,0.0,1495.0,19667.0,19164.0,1495.0,1.6296899318695068,-0.07462596517358558,-0.2022292246051218,-0.06698028579812662,-0.0012481644516810775,-0.0007435808074660599,-0.0
73,5,1.2367779163469095e-05,-1.4756732525711413e-05,1.3865489563613664e-05,0.0005181910237297416,0.0008219198789447546,-0.00023840875655878335,0.00011445808922871947,0.34117621183395386,-0.009465805254876614,-0.0005223440821282566,-0.0021622516214847565,0.0015443232841789722,0.0,0.0,0.0,-0.00024615839356556535,0.0003178446786478162,-0.0,0.0,0.0,0.0,-0.00010999541700584814,-0.10229393094778061,-0.0009403544827364385,1495.0,19665.0,19161.0,1495.0,-0.08017612248659134,0.8962188959121704,0.848946213722229,-0.03442811220884323,0.0,0.0,0.0,0.0,1495.0,19667.0,19164.0,1495.0,1.6296899318695068,-0.07462056724309647,-0.20219853471223306,-0.06690746418466736,-0.0012481644516810775,-0.0007435808074660599,-0.0
78,5,6.613774530705996e-06,-1.1652076864265837e-05,7.532277777499985e-06,-0.0004832041449844837,-4.3790732888737693e-05,0.0006646219408139586,0.00012487305502872914,0.3412138521671295,-0.009471534751355648,-0.0007873353315517306,-0.004288884345442057,0.0013674242654815316,0.0,0.0,0.0,-0.001043248106725514,0.0005102287395857275,-0.0,0.0,0.0,0.0,-9.205406240653247e-05,-0.10250528901815414,-0.0009494480327703059,1495.0,19677.0,19171.0,1495.0,-0.08137115091085434,0.8973069190979004,0.8498938083648682,-0.03526864945888519,0.0,0.0,0.0,0.0,1495.0,19672.0,19164.0,1495.0,1.635919451713562,-0.07500314590601842,-0.20214672451940546,-0.06688684296946064,-0.002011307515203953,-0.0031634278129786253,0.0
83,5,9.094043889490422e-06,6.113561084930552e-06,-2.410336946923053e-06,0.0002456915972288698,-0.0012688888236880302,0.001462584245018661,0.00012487305502872914,0.3412138521671295,-0.009471534751355648,-0.0007873353315517306,-0.004288884345442057,0.0013674242654815316,0.0,0.0,0.0,-0.001043248106725514,0.0005102287395857275,-0.0,0.0,0.0,0.0,-9.205406240653247e-05,-0.10250528901815414,-0.0009494480327703059,1495.0,19677.0,19171.0,1495.0,-0.08137115091085434,0.8973069190979004,0.8498938083648682,-0.03526864945888519,0.0,0.0,0.0,0.0,1495.0,19672.0,19164.0,1495.0,1.635919451713562,-0.0745534600628014,-0.20240600628301575,-0.06700078469383818,-0.002011307515203953,-0.0031634278129786253,0.0
88,5,3.13559075948433e-06,1.0142718565475661e-05,-1.6916903405217454e-05,-0.0006167377578094602,-0.000991054461337626,0.002325821667909622,0.0001295267284149304,0.34119510650634766,-0.009460733272135258,-0.0008053819765336812,-0.0005643636686727405,-0.002785861724987626,0.0,0.0,0.0,0.0015773158520460129,0.0002459755924064666,-0.0,0.0,0.0,0.0,-1.8307251593796536e-05,-0.1028546541929245,-0.0009517938597127795,1495.0,19697.0,19193.0,1495.0,-0.08259258419275284,0.8992131352424622,0.8519514203071594,-0.03598722815513611,0.0,0.0,0.0,0.0,1495.0,19694.0,19188.0,1495.0,1.6390116214752197,-0.07474010277794912,-0.2023858978002704,-0.06697205448389472,-0.0009714610641822219,0.004791913088411093,0.0
93,5,4.241931492288131e-06,1.2345101822575089e-05,-2.894204226322472e-05,-0.00011393419845262542,-0.0006607077666558325,0.002373345196247101,0.0001295267284149304,0.34119510650634766,-0.009460733272135258,-0.0008053819765336812,-0.0005643636686727405,-0.002785861724987626,0.0,0.0,0.0,0.0015773158520460129,0.0002459755924064666,-0.0,0.0,0.0,0.0,-1.8307251593796536e-05,-0.1028546541929245,-0.0009517938597127795,1495.0,19697.0,19193.0,1495.0,-0.08259258419275284,0.8992131352424622,0.8519514203071594,-0.03598722815513611,0.0,0.0,0.0,0.0,1495.0,19694.0,19188.0,1495.0,1.6390116214752197,-0.07403598139462975,-0.20212182459847985,-0.06708159698532615,-0.0009714610641822219,0.004791913088411093,0.0
98,5,4.241931492288131e-06,1.2345101822575089e-05,-2.894204226322472e-05,-0.00011393419845262542,-0.0006607077666558325,0.002373345196247101,0.00016455529839731753,0.3412056565284729,-0.009492989629507065,0.002999086631461978,-0.005420988891273737,-0.0026210749056190252,0.0,0.0,0.0,0.0008411154849454761,-0.00010263723379466683,-0.0,0.0,0.0,0.0,-0.00015797840023878962,-0.1026713028550148,-0.0009707982535474002,1495.0,19693.0,19168.0,1495.0,-0.08257566392421722,0.8988634943962097,0.8496185541152954,-0.03621642291545868,0.0,0.0,0.0,0.0,1495.0,19698.0,19194.0,1495.0,1.6327424049377441,-0.07403598139462975,-0.20212182459847985,-0.06708159698532615,0.0004038074694108218,0.002545550698414445,0.0
103,5,2.4308117190230405e-06,-6.564668524333683e-07,7.701626600464806e-06,-0.0004368263762444258,0.0007980066584423184,-0.0029040947556495667,0.00016455529839731753,0.3412056565284729,-0.009492989629507065,0.002999086631461978,-0.005420988891273737,-0.0026210749056190252,0.0,0.0,0.0,0.0008411154849454761,-0.00010263723379466683,-0.0,0.0,0.0,0.0,-0.00015797840023878962,-0.1026713028550148,-0.0009707982535474002,1495.0,19693.0,19168.0,1495.0,-0.08257566392421722,0.8988634943962097,0.8496185541152954,-0.03621642291545868,0.0,0.0,0.0,0.0,1495.0,19698.0,19194.0,1495.0,1.6327424049377441,-0.07482958665256217,-0.20232935853382428,-0.06688007707463238,0.0004038074694108218,0.002545550698414445,0.0
108,5,1.599208735569846e-05,-1.0173829650739208e-05,1.4740459846507292e-05,0.0014526225859299302,0.0014612862141802907,-0.002006297931075096,0.000153580418555066,0.34118083119392395,-0.009514639154076576,0.00028425391064956784,0.000873775570653379,-0.0038599034305661917,0.0,0.0,0.0,-0.0009886369807645679,-0.0004123628605157137,-0.0,0.0,0.0,0.0,-0.0003168974944856018,-0.10254409909248352,-0.0009714174666441977,1495.0,19713.0,19168.0,1495.0,-0.07966144382953644,0.9007007479667664,0.8496304750442505,-0.034750305116176605,0.0,0.0,0.0,0.0,1495.0,19718.0,19168.0,1495.0,1.6349962949752808,-0.07484085287742807,-0.2023738197192335,-0.06702148291216524,0.0016246057348325849,-0.0029961394611746073,0.0
113,5,1.013991186482599e-05,-7.674711014260538e-06,2.295563717780169e-05,-0.00012121206236770377,0.00028462018235586584,-0.0017883403925225139,0.000153580418555066,0.34118083119392395,-0.009514639154076576,0.00028425391064956784,0.000873775570653379,-0.0038599034305661917,0.0,0.0,0.0,-0.0009886369807645679,-0.0004123628605157137,-0.0,0.0,0.0,0.0,-0.0003168974944856018,-0.10254409909248352,-0.0009714174666441977,1495.0,19713.0,19168.0,1495.0,-0.07966144382953644,0.9007007479667664,0.8496304750442505,-0.034750305116176605,0.0,0.0,0.0,0.0,1495.0,19718.0,19168.0,1495.0,1.6349962949752808,-0.07521509746597135,-0.20217525441869402,-0.06707263387486463,0.0016246057348325849,-0.0029961394611746073,0.0
118,5,5.171265456738183e-06,-6.615503934881417e-06,1.588546729180962e-05,-0.0006447224295698106,-1.3256729289423674e-05,0.0001330842642346397,0.00016276883252430707,0.3411455452442169,-0.00953864585608244,-0.0011191318044438958,0.001592162880115211,0.0017101527191698551,0.0,0.0,0.0,-0.0009886369807645679,-0.0004123628605157137,-0.0,0.0,0.0,0.0,0.00016781904560048133,-0.10282211005687714,-0.0009720559464767575,1495.0,19689.0,19222.0,1495.0,-0.0829397439956665,0.8984813690185547,0.8546531200408936,-0.031183170154690742,0.0,0.0,0.0,0.0,1495.0,19690.0,19221.0,1495.0,1.6349962949752808,-0.07471112210984121,-0.20255469397483578,-0.06694454696778171,0.002389125293120742,1.330042323388625e-05,-0.0
123,5,9.733217666507699e-06,-8.930879630497657e-06,6.3358147599501535e-06,0.0002895452780649066,0.00027254235465079546,0.001199191901832819,0.00016276883252430707,0.3411455452442169,-0.00953864585608244,-0.0011191318044438958,0.001592162880115211,0.0017101527191698551,0.0,0.0,0.0,4.396177246235311e-06,-0.0006074426928535104,-0.0,0.0,0.0,0.0,0.00016781904560048133,-0.10282211005687714,-0.0009720559464767575,1495.0,19689.0,19222.0,1495.0,-0.0829397439956665,0.8984813690185547,0.8546531200408936,-0.031183170154690742,0.0,0.0,0.0,0.0,1495.0,19690.0,19221.0,1495.0,1.63223135471344,-0.07467507537986365,-0.20242321698642868,-0.06689386632204505,0.002389125293120742,1.330042323388625e-05,-0.0
128,5,1.2062497262377292e-05,5.0061812544299755e-06,9.751318430062383e-06,0.00039533173548989,-0.0015634302981197834,6.981638580327854e-05,0.00018526744679547846,0.3411109745502472,-0.009545935317873955,0.001967896008864045,-0.000715497590135783,-0.0035828917752951384,0.0,0.0,0.0,0.0019350512884557247,0.0003914380504284054,-0.0,0.0,0.0,0.0,0.00014946373994462192,-0.10299072414636612,-0.0009582355851307511,1495.0,19698.0,19198.0,1495.0,-0.08434955775737762,0.8992860317230225,0.8524248003959656,-0.034618884325027466,0.0,0.0,0.0,0.0,1495.0,19699.0,19204.0,1495.0,1.6422655582427979,-0.07485627257420706,-0.20230886376337637,-0.0670872728811375,-0.0015490216901525855,0.0058903880417346954,-0.0
135,7,7.996071872184984e-06,-8.538239626432187e-07,-1.2489310392993502e-05,-0.00032983842538669705,7.782848115311936e-05,0.0026968021411448717,0.00018526744679547846,0.3411109745502472,-0.009545935317873955,0.001967896008864045,-0.000715497590135783,-0.0035828917752951384,0.0,0.0,0.0,0.0019350512884557247,0.0003914380504284054,-0.0,0.0,0.0,0.0,0.00014946373994462192,-0.10299072414636612,-0.0009582355851307511,1495.0,19698.0,19198.0,1495.0,-0.08434955775737762,0.8992860317230225,0.8524248003959656,-0.034618884325027466,0.0,0.0,0.0,0.0,1495.0,19699.0,19204.0,1495.0,1.6422655582427979,-0.07487509401531474,-0.20251712704796315,-0.06694327461550392,-0.0015490216901525855,0.0058903880417346954,-0.0
140,5,1.5981866454239935e-05,2.035430497926427e-06,-1.0181962352362461e-05,0.0008263599593192339,-0.00031557914917357266,0.0008018389926292002,0.00019142277596984059,0.34110838174819946,-0.009537670761346817,-0.0005130995414219797,-0.0010426193475723267,-0.0039554620161652565,0.0,0.0,0.0,-9.8212985903956e-05,-0.0003038349386770278,-0.0,0.0,0.0,0.0,-0.00038931245217099786,-0.10317947715520859,-0.0009678252972662449,1495.0,19724.0,19202.0,1495.0,-0.08492237329483032,0.9017931222915649,0.8528139591217041,-0.03745346888899803,0.0,0.0,0.0,0.0,1495.0,19739.0,19193.0,1495.0,1.6290820837020874,-0.07450570668697738,-0.20223111217905534,-0.06692712297990627,0.0011927037267014384,-0.0002965653548017144,0.0
145,5,9.560121725371573e-06,3.1178490189631702e-06,-1.6441259504063055e-05,-0.00044006534153595567,-0.00025612188619561493,0.00107185123488307,0.00019142277596984059,0.34110838174819946,-0.009537670761346817,-0.0005130995414219797,-0.0010426193475723267,-0.0039554620161652565,0.0,0.0,0.0,-9.8212985903956e-05,-0.0003038349386770278,-0.0,0.0,0.0,0.0,-0.00038931245217099786,-0.10317947715520859,-0.0009678252972662449,1495.0,19724.0,19202.0,1495.0,-0.08492237329483032,0.9017931222915649,0.8528139591217041,-0.03745346888899803,0.0,0.0,0.0,0.0,1495.0,19739.0,19193.0,1495.0,1.6290820837020874,-0.07433307103617696,-0.20260063437406833,-0.06686258544380982,0.0011927037267014384,-0.0002965653548017144,0.0
151,5,5.219586455496028e-06,1.0277753972331993e-05,8.197718670999166e-06,-0.0006968903471715748,-0.0009616372990421951,-0.002527936827391386,0.00019127895939163864,0.34106871485710144,-0.009590834379196167,-0.0018408703617751598,0.0052012293599545956,-0.008163807913661003,0.0,0.0,0.0,0.0003234041214454919,-0.0004064978566020727,-0.0,0.0,0.0,0.0,1.248884200322209e-05,-0.10315775126218796,-0.0009878083365038037,1495.0,19706.0,19234.0,1495.0,-0.08387733995914459,0.9001066088676453,0.8557635545730591,-0.029727254062891006,0.0,0.0,0.0,0.0,1495.0,19723.0,19204.0,1495.0,1.6308300495147705,-0.07446554820554707,-0.20205144753108148,-0.06691678009275968,0.0015974189154803753,0.0009776036022230983,0.0
156,5,6.024594767950475e-06,1.0902100484599941e-06,-1.0348589057684876e-05,-0.00018215514137409627,0.0007178503437899053,0.001214382122270763,0.00019127895939163864,0.34106871485710144,-0.009590834379196167,-0.0018408703617751598,0.0052012293599545956,-0.008163807913661003,0.0,0.0,0.0,0.0003234041214454919,-0.0004064978566020727,-0.0,0.0,0.0,0.0,1.248884200322209e-05,-0.10315775126218796,-0.0009878083365038037,1495.0,19706.0,19234.0,1495.0,-0.08387733995914459,0.9001066088676453,0.8557635545730591,-0.029727254062891006,0.0,0.0,0.0,0.0,1495.0,19723.0,19204.0,1495.0,1.6308300495147705,-0.07469228255089719,-0.2024803451894141,-0.06709452472986473,0.0015974189154803753,0.0009776036022230983,0.0
161,5,6.036642844264861e-06,-2.774635561308969e-07,-1.2264012184459716e-05,-7.141628884710371e-05,0.0004512609448283911,0.0007156036444939673,0.00019127895939163864,0.34106871485710144,-0.009590834379196167,-0.0018408703617751598,0.0052012293599545956,-0.008163807913661003,0.0,0.0,0.0,-0.0008872296311892569,-0.0001650805352255702,-0.0,0.0,0.0,0.0,0.0004894578596577048,-0.10322673618793488,-0.001006897073239088,1495.0,19748.0,19184.0,1495.0,-0.08814126998186111,0.9040586352348328,0.8511395454406738,-0.03797481209039688,0.0,0.0,0.0,0.0,1495.0,19710.0,19236.0,1495.0,1.6332470178604126,-0.07470902033880902,-0.20202578922915637,-0.06715683188428492,0.0006496799760498106,-0.002685940358787775,0.0
166,5,2.861303585177666e-07,-3.771348019654397e-06,-1.1149487363582011e-05,-0.0007186279981397092,0.000599770515691489,0.00015249849820975214,0.00019127895939163864,0.34106871485710144,-0.009590834379196167,-0.0018408703617751598,0.0052012293599545956,-0.008163807913661003,0.0,0.0,0.0,-0.0008872296311892569,-0.0001650805352255702,-0.0,0.0,0.0,0.0,0.0004894578596577048,-0.10322673618793488,-0.001006897073239088,1495.0,19748.0,19184.0,1495.0,-0.08814126998186111,0.9040586352348328,0.8511395454406738,-0.03797481209039688,0.0,0.0,0.0,0.0,1495.0,19710.0,19236.0,1495.0,1.6332470178604126,-0.07463583402614833,-0.20206648470386332,-0.06721163103855259,0.0006496799760498106,-0.002685940358787775,0.0
171,5,8.348205483343918e-06,4.9923751248570625e-06,-7.16807790013263e-07,0.0006799978436902165,-0.0008117386023513973,-0.001190922106616199,5.24775059602689e-05,0.341195672750473,-0.009223506785929203,-0.011194002814590931,-0.02309645153582096,0.11021601408720016,0.0,0.0,0.0,-0.0008872296311892569,-0.0001650805352255702,-0.0,0.0,0.0,0.0,-1.4234033187676687e-05,-0.10353527963161469,-0.0008220972376875579,1495.0,19675.0,19282.0,1495.0,-0.08256429433822632,0.8964852094650269,0.8630045056343079,-0.046095386147499084,0.0,0.0,0.0,0.0,1495.0,19753.0,19160.0,1495.0,1.6332470178604126,-0.0747800728601869,-0.20229568568722198,-0.06662452387375459,0.0006496799760498106,-0.002685940358787775,0.0
176,5,1.2605849406099878e-05,3.835667484963778e-06,1.488260841142619e-05,0.000782916322350502,-0.00018589053070172668,-0.002348298905417323,5.24775059602689e-05,0.341195672750473,-0.009223506785929203,-0.011194002814590931,-0.02309645153582096,0.11021601408720016,0.0,0.0,0.0,0.001012472785077989,0.0006583071663044393,-0.0,0.0,0.0,0.0,-1.4234033187676687e-05,-0.10353527963161469,-0.0008220972376875579,1495.0,19675.0,19282.0,1495.0,-0.08256429433822632,0.8964852094650269,0.8630045056343079,-0.046095386147499084,0.0,0.0,0.0,0.0,1495.0,19753.0,19160.0,1495.0,1.6366597414016724,-0.07498922446225151,-0.20220979329303668,-0.06753822964881935,-0.0025962027721107006,0.0030714974272996187,0.0
181,5,1.497626453783596e-05,-8.215543857659213e-06,2.6027140847872943e-05,0.0005976164247840643,0.0013717892579734325,-0.0022766634356230497,0.00045577954733744264,0.34121236205101013,-0.01012312714010477,0.02881646901369095,0.009079654701054096,-0.031229935586452484,0.0,0.0,0.0,0.001012472785077989,0.0006583071663044393,-0.0,0.0,0.0,0.0,-0.000308868387946859,-0.103215292096138,-0.001381465932354331,1495.0,19838.0,19067.0,1495.0,-0.09298402070999146,0.9126664400100708,0.8403295874595642,-0.029181938618421555,0.0,0.0,0.0,0.0,1495.0,19702.0,19280.0,1495.0,1.6366597414016724,-0.07438929210705368,-0.20243745756856066,-0.06723051202977116,-0.0025962027721107006,0.0030714974272996187,0.0
186,5,2.332716030650772e-05,-8.802857678347209e-07,1.1812789125542622e-05,0.0012411540374159813,-0.00033151532988995314,0.0007950568688102067,0.00045577954733744264,0.34121236205101013,-0.01012312714010477,0.02881646901369095,0.009079654701054096,-0.031229935586452484,0.0,0.0,0.0,-0.0017059093806892633,0.000587611400987953,-0.0,0.0,0.0,0.0,-0.000308868387946859,-0.103215292096138,-0.001381465932354331,1495.0,19838.0,19067.0,1495.0,-0.09298402070999146,0.9126664400100708,0.8403295874595642,-0.029181938618421555,0.0,0.0,0.0,0.0,1495.0,19702.0,19280.0,1495.0,1.6411693096160889,-0.07471427509340703,-0.20232667589970832,-0.06650266681299845,-0.0023237792775034904,-0.005189404357224703,0.0
191,5,1.0497125913389027e-05,-2.4911948912631487e-06,5.484951543621719e-06,-0.001043142518028617,6.070297604310326e-05,0.0010773632675409317,0.00045577954733744264,0.34121236205101013,-0.01012312714010477,0.02881646901369095,0.009079654701054096,-0.031229935586452484,0.0,0.0,0.0,-0.0017059093806892633,0.000587611400987953,-0.0,0.0,0.0,0.0,-0.000308868387946859,-0.103215292096138,-0.001381465932354331,1495.0,19838.0,19067.0,1495.0,-0.09298402070999146,0.9126664400100708,0.8403295874595642,-0.029181938618421555,0.0,0.0,0.0,0.0,1495.0,19702.0,19280.0,1495.0,1.6411693096160889,-0.07472013723259713,-0.20247425427579843,-0.06694852507676066,-0.0023237792775034904,-0.005189404357224703,0.0
196,5,1.0706796274462249e-05,-1.1002752216882072e-05,-8.34568800200941e-06,-0.000392096524592489,0.0010456680320203304,0.0020906219724565744,4.016168531961739e-05,0.34112563729286194,-0.009464465081691742,-0.03249017149209976,0.023434512317180634,-0.06123412773013115,0.0,0.0,0.0,-7.958034984767437e-05,-0.0009774158243089914,-0.0,0.0,0.0,0.0,0.0003308130835648626,-0.10354239493608475,-0.000724037759937346,1495.0,19680.0,19262.0,1495.0,-0.08392925560474396,0.8976263403892517,0.8583052158355713,-0.038755327463150024,0.0,0.0,0.0,0.0,1495.0,19755.0,19108.0,1495.0,1.6362241506576538,-0.07435560290359185,-0.202448352032674,-0.06716628100971486,0.003853665431961417,-0.0002413555048406124,-0.0
202,5,1.3410756764642429e-05,-6.583591698472446e-07,4.468947281566216e-06,0.0001676366082392633,-0.0008230599341914058,-0.0007015073788352311,4.016168531961739e-05,0.34112563729286194,-0.009464465081691742,-0.03249017149209976,0.023434512317180634,-0.06123412773013115,0.0,0.0,0.0,-7.958034984767437e-05,-0.0009774158243089914,-0.0,0.0,0.0,0.0,0.0003308130835648626,-0.10354239493608475,-0.000724037759937346,1495.0,19680.0,19262.0,1495.0,-0.08392925560474396,0.8976263403892517,0.8583052158355713,-0.038755327463150024,0.0,0.0,0.0,0.0,1495.0,19755.0,19108.0,1495.0,1.6362241506576538,-0.07500415607919905,-0.2021428267358017,-0.06671333011638021,0.003853665431961417,-0.0002413555048406124,-0.0
207,5,1.5958352378220297e-05,3.107406428171089e-06,-2.8509900857898174e-06,0.00037276605144143105,-0.0007811158429831266,0.0005977895343676209,0.00033998346771113575,0.3409906327724457,-0.009563557803630829,0.008734974078834057,-0.0036521076690405607,0.13383114337921143,0.0,0.0,0.0,0.0010176593204960227,0.00017846714763436466,-0.0,0.0,0.0,0.0,-0.0006141230114735663,-0.10292400419712067,-0.001104665221646428,1495.0,19674.0,19272.0,1495.0,-0.0768376812338829,0.8970656394958496,0.8593117594718933,-0.04287997633218765,0.0,0.0,0.0,0.0,1495.0,19652.0,19295.0,1495.0,1.6343282461166382,-0.07462936190953076,-0.2018840090883533,-0.0671067804917451,-0.0007028282852843404,0.003082833718508482,0.0
212,5,3.1620365916751325e-05,-6.459014912252314e-06,-5.638396487483988e-06,0.0020285481587052345,0.0008355242316611111,0.0005736045422963798,0.00033998346771113575,0.3409906327724457,-0.009563557803630829,0.008734974078834057,-0.0036521076690405607,0.13383114337921143,0.0,0.0,0.0,0.0010176593204960227,0.00017846714763436466,-0.0,0.0,0.0,0.0,-0.0006141230114735663,-0.10292400419712067,-0.001104665221646428,1495.0,19674.0,19272.0,1495.0,-0.0768376812338829,0.8970656394958496,0.8593117594718933,-0.04287997633218765,0.0,0.0,0.0,0.0,1495.0,19652.0,19295.0,1495.0,1.6343282461166382,-0.07396192859523029,-0.20155608020761825,-0.06669183387400728,-0.00778151024132967,-0.003168783150613308,0.0
217,5,2.5852621547528543e-05,1.1607697160798125e-05,1.435839269703365e-08,0.00011928982712561265,-0.0018337956862524152,-0.0004488887498155236,0.00026309897657483816,0.34083253145217896,-0.009775455109775066,0.0373351126909256,0.052063412964344025,0.02229844592511654,0.0,0.0,0.0,-0.0010370281524956226,0.001958930166438222,-0.0,0.0,0.0,0.0,0.0008221229654736817,-0.10195036232471466,-0.0010028454707935452,1495.0,19744.0,19105.0,1495.0,-0.07436888664960861,0.9037036895751953,0.8438687324523926,-0.03203427791595459,0.0,0.0,0.0,0.0,1495.0,19716.0,19143.0,1495.0,1.6485174894332886,-0.07435434050056053,-0.20164247689034284,-0.06687154297971458,-0.00778151024132967,-0.003168783150613308,0.0
222,5,3.139228647341952e-05,-1.5870951983742998e-06,-3.6197320696373936e-06,0.0007124756230041385,0.0008498567622154951,0.0002565353352110833,0.00026309897657483816,0.34083253145217896,-0.009775455109775066,0.0373351126909256,0.052063412964344025,0.02229844592511654,0.0,0.0,0.0,-0.0010370281524956226,0.001958930166438222,-0.0,0.0,0.0,0.0,0.0008221229654736817,-0.10195036232471466,-0.0010028454707935452,1495.0,19744.0,19105.0,1495.0,-0.07436888664960861,0.9037036895751953,0.8438687324523926,-0.03203427791595459,0.0,0.0,0.0,0.0,1495.0,19716.0,19143.0,1495.0,1.6485174894332886,-0.07449358415217672,-0.200835980528269,-0.06660086258722743,-0.00778151024132967,-0.003168783150613308,0.0
227,5,3.9719125197734684e-05,-5.1685888138308655e-06,1.2948173207405489e-05,0.0012842111755162477,0.000769721926189959,-0.0018855344969779253,0.0002161995944334194,0.3401637077331543,-0.009562615305185318,-0.03084540367126465,0.08658604323863983,-0.0026566023007035255,0.0,0.0,0.0,-0.0010529793798923492,0.0007211103802546859,-0.0,0.0,0.0,0.0,-0.0012047927593812346,-0.09841965138912201,-0.0009930244414135814,1495.0,19599.0,19149.0,1495.0,-0.08064965158700943,0.8899494409561157,0.8478649854660034,-0.022836513817310333,0.0,0.0,0.0,0.0,1495.0,19598.0,19111.0,1495.0,1.6373562812805176,-0.07426117294375983,-0.200262172479219,-0.0664947145212167,-0.002845093607902527,-0.0031957400497049093,0.0
232,5,6.523992487927899e-05,-1.7467178622609936e-05,9.312466318078805e-06,0.0035761806648224592,0.0017837195191532373,-0.0003179289342369884,0.0002161995944334194,0.3401637077331543,-0.009562615305185318,-0.03084540367126465,0.08658604323863983,-0.0026566023007035255,0.0,0.0,0.0,-0.0010529793798923492,0.0007211103802546859,-0.0,0.0,0.0,0.0,-0.0012047927593812346,-0.09841965138912201,-0.0009930244414135814,1495.0,19599.0,19149.0,1495.0,-0.08064965158700943,0.8899494409561157,0.8478649854660034,-0.022836513817310333,0.0,0.0,0.0,0.0,1495.0,19598.0,19111.0,1495.0,1.6373562812805176,-0.07439127383705803,-0.19935373296314468,-0.06614985097074198,-0.002845093607902527,-0.0031957400497049093,0.0
237,5,9.266789129469544e-05,-1.244847044290509e-05,5.652603067574091e-05,0.004721827805042267,0.00011124284355901182,-0.0057927994057536125,0.0004564679693430662,0.3391464054584503,-0.009478454478085041,0.012371807359158993,0.2395373433828354,-0.0031812116503715515,0.0,0.0,0.0,-0.0021955620031803846,0.003427610732614994,-0.0,0.0,0.0,0.0,-0.000700184318702668,-0.088600292801857,-0.001062221359461546,1495.0,19526.0,18900.0,1495.0,-0.05105994641780853,0.8830277323722839,0.8250540494918823,-0.008504390716552734,0.0,0.0,0.0,0.0,1495.0,19332.0,18822.0,2208.0,1.6672639846801758,-0.07324695388975389,-0.1960987922658932,-0.06644379328364423,-0.013770378194749355,-0.006785126868635416,0.0
242,5,0.0001566040446050465,-1.1948826795560308e-05,7.28446539142169e-05,0.009561070241034031,-1.546012754261028e-05,-0.004275354091078043,0.0004564679693430662,0.3391464054584503,-0.009478454478085041,0.012371807359158993,0.2395373433828354,-0.0031812116503715515,0.0,0.0,0.0,-0.0021955620031803846,0.003427610732614994,-0.0,0.0,0.0,0.0,-0.000700184318702668,-0.088600292801857,-0.001062221359461546,1495.0,19526.0,18900.0,1495.0,-0.05105994641780853,0.8830277323722839,0.8250540494918823,-0.008504390716552734,0.0,0.0,0.0,0.0,1495.0,19332.0,18822.0,2208.0,1.6672639846801758,-0.07286910961109896,-0.19275335954890893,-0.065765271725674,-0.013770378194749355,-0.006785126868635416,0.0
247,5,0.00025951035786420107,-2.4019940610742196e-05,7.316211849683896e-05,0.016173185780644417,0.0014423495158553123,-0.0017482381081208587,0.000440018018707633,0.3338358998298645,-0.009382651187479496,-0.007238912861794233,0.7526258230209351,0.038145337253808975,0.0,0.0,0.0,-2.4698558718228014e-06,0.008836624212563038,-0.0,0.0,0.0,0.0,0.0002110149071086198,-0.06322253495454788,-0.0008828333811834455,2065.0,18834.0,18253.0,5192.0,0.0029513686895370483,0.8190309405326843,0.7672312259674072,0.04814276844263077,0.0,0.0,0.0,0.0,4513.0,18483.0,18004.0,6090.0,1.7243752479553223,-0.07189189265643164,-0.18661965137913664,-0.06492894417235766,-0.0367167629301548,-7.894269401731435e-06,0.0
252,5,0.00040311538032256067,-3.5338420275365934e-05,9.388708713231608e-05,0.023701876401901245,0.001935157342813909,-0.003186291316524148,0.000440018018707633,0.3338358998298645,-0.009382651187479496,-0.007238912861794233,0.7526258230209351,0.038145337253808975,0.0,0.0,0.0,-2.4698558718228014e-06,0.008836624212563038,-0.0,0.0,0.0,0.0,0.0002110149071086198,-0.06322253495454788,-0.0008828333811834455,2065.0,18834.0,18253.0,5192.0,0.0029513686895370483,0.8190309405326843,0.7672312259674072,0.04814276844263077,0.0,0.0,0.0,0.0,4513.0,18483.0,18004.0,6090.0,1.7243752479553223,-0.07064635295092594,-0.17752211634714912,-0.06378560198978978,-0.0367167629301548,-7.894269401731435e-06,0.0
258,5,0.0006113554700277746,-4.864073343924247e-05,9.292161121265963e-05,0.03446955978870392,0.0023703407496213913,-0.0011586593464016914,0.0001881485659396276,0.32458382844924927,-0.009062769822776318,-0.0650663822889328,1.7341221570968628,-0.0035490074660629034,0.0,0.0,0.0,-0.0021532531827688217,0.020251980051398277,-0.0,0.0,0.0,0.0,0.0006856496911495924,-0.02663840353488922,-0.0008052503690123558,8000.0,17461.0,16959.0,9246.0,0.13052363693714142,0.6991958618164062,0.6577954292297363,0.179748997092247,0.0,0.0,0.0,0.0,9301.0,16890.0,16330.0,10256.0,1.8669781684875488,-0.0694115204096269,-0.16504453411518102,-0.062287642136726024,-0.09110201150178909,-0.007451476063579321,0.0
263,5,0.0012270756997168064,-7.963883399497718e-05,-6.503954500658438e-05,0.05964512377977371,0.0021333263721317053,0.015604346059262753,0.0001881485659396276,0.32458382844924927,-0.009062769822776318,-0.0650663822889328,1.7341221570968628,-0.0035490074660629034,0.0,0.0,0.0,-0.0021532531827688217,0.020251980051398277,-0.0,0.0,0.0,0.0,0.0006856496911495924,-0.02663840353488922,-0.0008052503690123558,8000.0,17461.0,16959.0,9246.0,0.13052363693714142,0.6991958618164062,0.6577954292297363,0.179748997092247,0.0,0.0,0.0,0.0,9301.0,16890.0,16330.0,10256.0,1.8669781684875488,-0.06732587336817733,-0.13219065709002945,-0.0595508739287792,-0.09110201150178909,-0.007451476063579321,0.0
268,5,0.0016119700158014894,-8.429106674157083e-05,-0.0002223228511866182,0.07004537433385849,0.001411598059348762,0.025115733966231346,-0.0008368887356482446,0.26795947551727295,-0.008113933727145195,-0.015417957678437233,4.462645053863525,0.07630672305822372,0.0,0.0,0.0,-0.0020634462125599384,0.043355975300073624,-0.0,0.0,0.0,0.0,0.002066157991066575,0.020557858049869537,-0.0006545159267261624,16080.0,12373.0,11935.0,16597.0,0.588190495967865,0.3375958502292633,0.3125278651714325,0.628663957118988,0.0,0.0,0.0,0.0,13096.0,14463.0,14061.0,13858.0,2.206308603286743,-0.06579607285064944,-0.11146090377847799,-0.058157393292252606,-0.23042526841163635,-0.008438541553914547,0.0
273,5,0.0020553539507091045,-0.00015529753000009805,-0.000340216385666281,0.08122420310974121,0.009085413999855518,0.024193517863750458,-0.0008368887356482446,0.26795947551727295,-0.008113933727145195,-0.015417957678437233,4.462645053863525,0.07630672305822372,0.0,0.0,0.0,-0.0020634462125599384,0.043355975300073624,-0.0,0.0,0.0,0.0,0.002066157991066575,0.020557858049869537,-0.0006545159267261624,16080.0,12373.0,11935.0,16597.0,0.588190495967865,0.3375958502292633,0.3125278651714325,0.628663957118988,0.0,0.0,0.0,0.0,13096.0,14463.0,14061.0,13858.0,2.206308603286743,-0.0625404558668642,-0.08623024722960847,-0.055350983262635586,-0.23042526841163635,-0.008438541553914547,0.0
278,5,0.0025262522976845503,-0.00023088045418262482,-0.0004713866801466793,0.088997483253479,0.012704117223620415,0.025417843833565712,-0.0013660372933372855,0.20742997527122498,-0.007332468405365944,-0.0652216225862503,5.737984657287598,0.07682717591524124,0.0,0.0,0.0,-0.007845656014978886,0.05461686849594116,-0.0,0.0,0.0,0.0,0.0014909894671291113,0.06953182816505432,-0.0006211679428815842,20046.0,8656.0,8282.0,20500.0,0.9327376484870911,0.15545612573623657,0.14097070693969727,0.9771440625190735,0.0,0.0,0.0,0.0,17019.0,11060.0,10548.0,17464.0,2.401669979095459,-0.05927519378992099,-0.05758643550910014,-0.052241194580621986,-0.3159095346927643,-0.03492553532123566,0.0
283,5,0.00303062004968524,-0.00025416299467906356,-0.0007084878743626177,0.09612315148115158,0.007875551469624043,0.038619279861450195,-0.0013660372933372855,0.20742997527122498,-0.007332468405365944,-0.0652216225862503,5.737984657287598,0.07682717591524124,0.0,0.0,0.0,-0.007845656014978886,0.05461686849594116,-0.0,0.0,0.0,0.0,0.0014909894671291113,0.06953182816505432,-0.0006211679428815842,20046.0,8656.0,8282.0,20500.0,0.9327376484870911,0.15545612573623657,0.14097070693969727,0.9771440625190735,0.0,0.0,0.0,0.0,17019.0,11060.0,10548.0,17464.0,2.401669979095459,-0.05706461262739441,-0.028029502126216792,-0.050198910677032166,-0.3159095346927643,-0.03492553532123566,0.0
288,5,0.003603121964260936,-0.0002706152154132724,-0.000991828623227775,0.10714948177337646,0.00512448837980628,0.04944860190153122,-0.0018153078854084015,0.15859603881835938,-0.006809235084801912,-0.04331226274371147,6.57444953918457,0.08169995993375778,0.0,0.0,0.0,-0.006597980856895447,0.06192188709974289,-0.0,0.0,0.0,0.0,0.0018405290320515633,0.12206555902957916,-0.0005070636980235577,22378.0,4191.0,2081.0,22618.0,1.1720300912857056,0.02835150621831417,0.0030635278671979904,1.1982249021530151,0.0,0.0,0.0,0.0,20402.0,7666.0,7347.0,20852.0,2.5293619632720947,-0.055481472369064457,0.0013841097699092554,-0.048323159500405735,-0.3771551549434662,-0.0309332013130188,0.0
293,5,0.0041373493149876595,-0.00033455845550633967,-0.0012503552716225386,0.10696706920862198,0.009722985327243805,0.05080263316631317,-0.0018153078854084015,0.15859603881835938,-0.006809235084801912,-0.04331226274371147,6.57444953918457,0.08169995993375778,0.0,0.0,0.0,-0.006597980856895447,0.06192188709974289,-0.0,0.0,0.0,0.0,0.0018405290320515633,0.12206555902957916,-0.0005070636980235577,22378.0,4191.0,2081.0,22618.0,1.1720300912857056,0.02835150621831417,0.0030635278671979904,1.1982249021530151,0.0,0.0,0.0,0.0,20402.0,7666.0,7347.0,20852.0,2.5293619632720947,-0.053734856179521465,0.03427628161453339,-0.04459064056023431,-0.3771551549434662,-0.0309332013130188,0.0
298,5,0.004683134611696005,-0.0003890586958732456,-0.0014824406243860722,0.10828109085559845,0.010429221205413342,0.048171307891607285,-0.002643154002726078,0.07791722565889359,-0.00584813067689538,-0.06102870777249336,6.942648887634277,0.10337831825017929,0.0,0.0,0.0,-0.007874440401792526,0.06708783656358719,-0.0,0.0,0.0,0.0,0.0011378538329154253,0.15390658378601074,-0.000414146896218881,23778.0,1495.0,1495.0,24025.0,1.3288865089416504,-0.139513298869133,-0.14523936808109283,1.3575361967086792,0.0,0.0,0.0,0.0,22893.0,1495.0,1495.0,23142.0,2.6243929862976074,-0.050805584826532586,0.06808961209187965,-0.04114026110227981,-0.4239213466644287,-0.03830442577600479,0.0
303,5,0.005254983436316252,-0.00036464043660089374,-0.001798136974684894,0.11193428933620453,0.0012414958328008652,0.057152073830366135,-0.002643154002726078,0.07791722565889359,-0.00584813067689538,-0.06102870777249336,6.942648887634277,0.10337831825017929,0.0,0.0,0.0,-0.007874440401792526,0.06708783656358719,-0.0,0.0,0.0,0.0,0.0011378538329154253,0.15390658378601074,-0.000414146896218881,23778.0,1495.0,1495.0,24025.0,1.3288865089416504,-0.139513298869133,-0.14523936808109283,1.3575361967086792,0.0,0.0,0.0,0.0,22893.0,1495.0,1495.0,23142.0,2.6243929862976074,-0.05055324821726586,0.09961512074984542,-0.03968111372034172,-0.4239213466644287,-0.03830442577600479,0.0
309,5,-0.011669770814478397,-0.001578676630742848,-0.001832689275033772,0.11193428933620453,0.0012414958328008652,0.057152073830366135,-0.002643154002726078,0.07791722565889359,-0.00584813067689538,-0.06102870777249336,6.942648887634277,0.10337831825017929,0.0,0.0,0.0,-0.0013471352867782116,0.0698157399892807,-0.0,0.0,0.0,0.0,0.0011378538329154253,0.15390658378601074,-0.000414146896218881,23778.0,1495.0,1495.0,24025.0,1.3288865089416504,-0.139513298869133,-0.14523936808109283,1.3575361967086792,0.0,0.0,0.0,0.0,22893.0,1495.0,1495.0,23142.0,2.6694233417510986,0.035092522467746204,-0.26906924012404687,3.0833598924607086,-0.4487138092517853,-0.00666556553915143,0.0
314,5,-0.01110711507499218,-0.0016806629719212651,-0.001516264397650957,0.11229235678911209,0.012734957970678806,-0.015110147185623646,-0.0030746187549084425,0.02262474223971367,-0.005194229539483786,-0.08078653365373611,6.891210079193115,0.11305230855941772,0.0,0.0,0.0,-0.0013471352867782116,0.0698157399892807,-0.0,0.0,0.0,0.0,0.0019928428810089827,0.1824457049369812,-0.00023886717099230736,24747.0,1495.0,1495.0,25000.0,1.443211555480957,-0.19736871123313904,-0.19033274054527283,1.4738517999649048,0.0,0.0,0.0,0.0,24161.0,1495.0,1495.0,24404.0,2.6694233417510986,0.04174688729921681,-0.23404439233765514,3.08259126945156,-0.4487138092517853,-0.00666556553915143,0.0
319,5,-0.010683052241802216,-0.0016624642303213477,-0.0012248937273398042,0.09580456465482712,0.0029101299587637186,-0.04100853577256203,-0.0030746187549084425,0.02262474223971367,-0.005194229539483786,-0.08078653365373611,6.891210079193115,0.11305230855941772,0.0,0.0,0.0,-0.012300009839236736,0.059788331389427185,-0.0,0.0,0.0,0.0,0.0019928428810089827,0.1824457049369812,-0.00023886717099230736,24747.0,1495.0,1495.0,25000.0,1.443211555480957,-0.19736871123313904,-0.19033274054527283,1.4738517999649048,0.0,0.0,0.0,0.0,24161.0,1495.0,1495.0,24404.0,2.5006754398345947,0.04801700866090513,-0.20395468847166723,3.0852492552007122,-0.36002615094184875,-0.05701005458831787,0.0
324,5,-0.010330557823181152,0.0009883499005809426,0.0091183390468359,0.09580456465482712,0.0029101299587637186,-0.04100853577256203,-0.00398150784894824,-0.058429054915905,-0.00408173119649291,-0.04505539685487747,6.646432876586914,0.12350175529718399,0.0,0.0,0.0,-0.012300009839236736,0.059788331389427185,-0.0,0.0,0.0,0.0,0.002186562865972519,0.19526095688343048,-0.00013524443784262985,25656.0,1495.0,1495.0,25823.0,1.554718017578125,-0.25843214988708496,-0.24755319952964783,1.575660228729248,0.0,0.0,0.0,0.0,25679.0,1495.0,1495.0,25979.0,2.5006754398345947,-3.0942477303420333,-0.16791437624993039,-2.990127631225326,-0.36002615094184875,-0.05701005458831787,0.0
329,5,-0.009500579908490181,0.0009272657916881144,0.009261956438422203,0.13791914284229279,0.008494144305586815,-0.03363754600286484,-0.00398150784894824,-0.058429054915905,-0.00408173119649291,-0.04505539685487747,6.646432876586914,0.12350175529718399,0.0,0.0,0.0,-0.012300009839236736,0.059788331389427185,-0.0,0.0,0.0,0.0,0.002186562865972519,0.19526095688343048,-0.00013524443784262985,25656.0,1495.0,1495.0,25823.0,1.554718017578125,-0.25843214988708496,-0.24755319952964783,1.575660228729248,0.0,0.0,0.0,0.0,25679.0,1495.0,1495.0,25979.0,2.5006754398345947,-3.0896582116411886,-0.19376620578923945,-2.9889601117823688,-0.36002615094184875,-0.05701005458831787,0.0
334,5,-0.008616594597697258,0.0007278106641024351,0.009386825375258923,0.16124588251113892,0.027332274243235588,-0.02843923680484295,-0.00465557212010026,-0.11021381616592407,-0.003542461898177862,-0.10088915377855301,6.304368495941162,0.13544796407222748,0.0,0.0,0.0,-0.005343457218259573,0.07147425413131714,-0.0,0.0,0.0,0.0,0.004369598813354969,0.20000000298023224,-0.00011677638394758105,25656.0,1495.0,1495.0,26002.0,1.5546947717666626,-0.2608681917190552,-0.2226019650697708,1.598198652267456,0.0,0.0,0.0,0.0,25455.0,1495.0,1495.0,25529.0,2.7018508911132812,-3.084340371661348,-0.2301971328679003,-2.9849520586053355,-0.4649292826652527,-0.026760149747133255,0.0
339,5,0.00815579853951931,-0.0015726839192211628,-0.0028001414611935616,0.16124588251113892,0.027332274243235588,-0.02843923680484295,-0.00465557212010026,-0.11021381616592407,-0.003542461898177862,-0.10088915377855301,6.304368495941162,0.13544796407222748,0.0,0.0,0.0,-0.005343457218259573,0.07147425413131714,-0.0,0.0,0.0,0.0,0.004369598813354969,0.20000000298023224,-0.00011677638394758105,25656.0,1495.0,1495.0,26002.0,1.5546947717666626,-0.2608681917190552,-0.2226019650697708,1.598198652267456,0.0,0.0,0.0,0.0,25455.0,1495.0,1495.0,25529.0,2.7018508911132812,-0.1067566829854376,0.3184351840820429,-0.03622780952319014,-0.4649292826652527,-0.026760149747133255,0.0
344,5,0.008556431159377098,-0.0016276348615065217,-0.003199283964931965,0.11257427930831909,0.017527025192975998,0.03652140125632286,-0.005382583476603031,-0.18400278687477112,-0.002657755510881543,-0.09700957685709,5.984436511993408,0.07161404937505722,0.0,0.0,0.0,-0.01975613459944725,0.08892635256052017,-0.0,0.0,0.0,0.0,-0.0001102980095311068,0.20000000298023224,-0.00011072573397541419,25460.0,1495.0,1495.0,25524.0,1.5302647352218628,-0.28210970759391785,-0.2857343852519989,1.538254737854004,0.0,0.0,0.0,0.0,25769.0,1495.0,1495.0,26018.0,3.0358684062957764,-0.1087232839767986,0.3452486539445254,-0.03308758308969768,-0.6495431661605835,-0.11115836352109909,0.0
349,5,0.008940975181758404,-0.001504200859926641,-0.003529086709022522,0.09117498248815536,-0.007801269646733999,0.05418489873409271,-0.005382583476603031,-0.18400278687477112,-0.002657755510881543,-0.09700957685709,5.984436511993408,0.07161404937505722,0.0,0.0,0.0,-0.01975613459944725,0.08892635256052017,-0.0,0.0,0.0,0.0,-0.0001102980095311068,0.20000000298023224,-0.00011072573397541419,25460.0,1495.0,1495.0,25524.0,1.5302647352218628,-0.28210970759391785,-0.2857343852519989,1.538254737854004,0.0,0.0,0.0,0.0,25769.0,1495.0,1495.0,26018.0,3.0358684062957764,-0.09768388266540269,0.3744059433249195,-0.02764793555768765,-0.6495431661605835,-0.11115836352109909,0.0
354,5,0.009372304193675518,-0.0014320354675874114,-0.004002898931503296,0.0882294699549675,-0.011780358850955963,0.07853143662214279,-0.006042539142072201,-0.2304992824792862,-0.002104305662214756,-0.030656641349196434,5.660033702850342,0.09371688961982727,0.0,0.0,0.0,0.00442413380369544,0.06353694945573807,-0.0,0.0,0.0,0.0,0.0029911338351666927,0.20000000298023224,3.507536894176155e-05,25816.0,1495.0,1495.0,25972.0,1.5747352838516235,-0.243772953748703,-0.22348344326019287,1.594372034072876,0.0,0.0,0.0,0.0,25830.0,1495.0,1495.0,25957.0,2.556442975997925,-0.09469328646320685,0.3951973094644467,-0.025142563244436894,-0.3911270797252655,0.020963815972208977,0.0
359,5,0.009781314060091972,-0.0012372633209452033,-0.004503372125327587,0.08437296748161316,-0.028084799647331238,0.09146935492753983,-0.006042539142072201,-0.2304992824792862,-0.002104305662214756,-0.030656641349196434,5.660033702850342,0.09371688961982727,0.0,0.0,0.0,0.00442413380369544,0.06353694945573807,-0.0,0.0,0.0,0.0,0.0029911338351666927,0.20000000298023224,3.507536894176155e-05,25816.0,1495.0,1495.0,25972.0,1.5747352838516235,-0.243772953748703,-0.22348344326019287,1.594372034072876,0.0,0.0,0.0,0.0,25830.0,1495.0,1495.0,25957.0,2.556442975997925,-0.08696102691422214,0.4338394092894984,-0.020664517273107072,-0.3911270797252655,0.020963815972208977,0.0
365,5,-0.003301252145320177,0.0009110008832067251,0.008804542012512684,0.08437296748161316,-0.028084799647331238,0.09146935492753983,-0.006565033458173275,-0.2965092957019806,-0.0013727816985920072,-0.10482364147901535,5.294356822967529,0.10693810135126114,0.0,0.0,0.0,0.020928489044308662,0.06056569144129753,-0.0,0.0,0.0,0.0,0.004530972335487604,0.20000000298023224,-0.00013834997662343085,26595.0,1495.0,1495.0,26499.0,1.6742533445358276,-0.14948371052742004,-0.15076392889022827,1.6618627309799194,0.0,0.0,0.0,0.0,26606.0,1495.0,1495.0,26489.0,2.539260149002075,-3.054858426331665,-0.3909450666262724,-2.957240920744353,-0.370275616645813,0.0984908789396286,0.0
370,5,-0.002619158010929823,0.0008694277494214475,0.008566555567085743,0.11560048907995224,-0.0062451474368572235,0.06514601409435272,-0.006565033458173275,-0.2965092957019806,-0.0013727816985920072,-0.10482364147901535,5.294356822967529,0.10693810135126114,0.0,0.0,0.0,0.020928489044308662,0.06056569144129753,-0.0,0.0,0.0,0.0,0.004530972335487604,0.20000000298023224,-0.00013834997662343085,26595.0,1495.0,1495.0,26499.0,1.6742533445358276,-0.14948371052742004,-0.15076392889022827,1.6618627309799194,0.0,0.0,0.0,0.0,26606.0,1495.0,1495.0,26489.0,2.539260149002075,-3.055678777219597,-0.417051909761653,-2.9559955979042605,-0.370275616645813,0.0984908789396286,0.0
375,5,-0.002099183388054371,0.000919568759854883,0.008437993004918098,0.10863716155290604,-0.008514979854226112,0.041485995054244995,-0.0070170010440051556,-0.3371836543083191,-0.0013053960865363479,-0.10614155977964401,4.836512565612793,0.074981689453125,0.0,0.0,0.0,0.005817743018269539,0.066611647605896,-0.0,0.0,0.0,0.0,0.011899427510797977,0.20000000298023224,0.00027853032224811614,25407.0,1495.0,1495.0,25799.0,1.5237687826156616,-0.29199331998825073,-0.24796701967716217,1.5726345777511597,0.0,0.0,0.0,0.0,25391.0,1495.0,1495.0,25815.0,2.6134464740753174,-3.059036058229628,-0.4395850787787201,-2.9589606447488035,-0.41916704177856445,0.028182027861475945,-0.0
380,5,-0.0013521772343665361,0.0007158576627261937,0.008404006250202656,0.13309559226036072,0.021039336919784546,0.020672770217061043,-0.0070170010440051556,-0.3371836543083191,-0.0013053960865363479,-0.10614155977964401,4.836512565612793,0.074981689453125,0.0,0.0,0.0,0.005817743018269539,0.066611647605896,-0.0,0.0,0.0,0.0,0.011899427510797977,0.20000000298023224,0.00027853032224811614,25407.0,1495.0,1495.0,25799.0,1.5237687826156616,-0.29199331998825073,-0.24796701967716217,1.5726345777511597,0.0,0.0,0.0,0.0,25391.0,1495.0,1495.0,25815.0,2.6134464740753174,-3.0443739645880696,-0.466458438153961,-2.9526803050205666,-0.41916704177856445,0.028182027861475945,-0.0
385,5,-0.0009475909173488617,0.0006334505160339177,0.00810707826167345,0.10178859531879425,0.018304593861103058,0.043900493532419205,-0.00795297883450985,-0.39234068989753723,-0.000288763374555856,-0.0258416049182415,4.360005855560303,0.01728210225701332,0.0,0.0,0.0,-0.014649886637926102,0.073979452252388,-0.0,0.0,0.0,0.0,0.011899427510797977,0.20000000298023224,0.00027853032224811614,25231.0,1495.0,1495.0,25904.0,1.5019978284835815,-0.3193919062614441,-0.22915984690189362,1.5858139991760254,0.0,0.0,0.0,0.0,25250.0,1495.0,1495.0,25885.0,2.761296272277832,-3.0586211000098906,-0.48529643078723655,-2.9582223414700146,-0.49173736572265625,-0.07497692108154297,-0.0
390,5,-0.0005229766247794032,0.0006314361235126853,0.007987843826413155,0.09166915714740753,0.00756356306374073,0.03186831995844841,-0.00795297883450985,-0.39234068989753723,-0.000288763374555856,-0.0258416049182415,4.360005855560303,0.01728210225701332,0.0,0.0,0.0,-0.014649886637926102,0.073979452252388,-0.0,0.0,0.0,0.0,0.011899427510797977,0.20000000298023224,0.00027853032224811614,25231.0,1495.0,1495.0,25904.0,1.5019978284835815,-0.3193919062614441,-0.22915984690189362,1.5858139991760254,0.0,0.0,0.0,0.0,25250.0,1495.0,1495.0,25885.0,2.761296272277832,-3.0589111304376297,-0.5059429181115909,-2.9593723911874816,-0.49173736572265625,-0.07497692108154297,-0.0
395,5,-0.00016691135533619672,0.0006855318788439035,0.007877814583480358,0.07939549535512924,-0.0034660641103982925,0.025950809940695763,-0.008244426921010017,-0.4250622093677521,-0.0001720544241834432,-0.1212959736585617,3.7313714027404785,0.19381259381771088,0.0,0.0,0.0,-0.0054773567244410515,0.05771302804350853,-0.0,0.0,0.0,0.0,0.01107876282185316,0.20000000298023224,0.00021704111713916063,25221.0,1495.0,1495.0,25913.0,1.500863790512085,-0.3373783528804779,-0.2111734002828598,1.586948037147522,0.0,0.0,0.0,0.0,25239.0,1495.0,1495.0,25896.0,2.4530632495880127,-3.061625916713196,-0.5230763159583799,-2.960586260538027,-0.3409470021724701,-0.024904875084757805,-0.0
400,5,0.00024344399571418762,0.0007207438466139138,0.007891343906521797,0.08100084215402603,-0.005611860658973455,0.00875686015933752,-0.008244426921010017,-0.4250622093677521,-0.0001720544241834432,-0.1212959736585617,3.7313714027404785,0.19381259381771088,0.0,0.0,0.0,-0.0054773567244410515,0.05771302804350853,-0.0,0.0,0.0,0.0,0.01107876282185316,0.20000000298023224,0.00021704111713916063,25221.0,1495.0,1495.0,25913.0,1.500863790512085,-0.3373783528804779,-0.2111734002828598,1.586948037147522,0.0,0.0,0.0,0.0,25239.0,1495.0,1495.0,25896.0,2.4530632495880127,-3.0583354728740715,-0.5405387699657345,-2.959865544877105,-0.3409470021724701,-0.024904875084757805,-0.0
405,5,0.00065703532891348,0.0006841886206530035,0.007926668040454388,0.08203129470348358,0.002141883596777916,-0.0007361445459537208,-0.00887067150324583,-0.46668753027915955,0.0006386798922903836,-0.08139891922473907,3.1178948879241943,0.0635489970445633,0.0,0.0,0.0,0.005675038788467646,0.053318142890930176,-0.0,0.0,0.0,0.0,-0.00015698987408541143,0.20000000298023224,0.00022589959553442895,25545.0,1495.0,1495.0,25890.0,1.5408010482788086,-0.2837711274623871,-0.22768747806549072,1.584104061126709,0.0,0.0,0.0,0.0,25534.0,1495.0,1495.0,25901.0,2.376343250274658,-3.0546660418040275,-0.5553074845227509,-2.958791315557363,-0.30515697598457336,0.02499667927622795,-0.0
410,5,0.0010720868594944477,0.0006506213103421032,0.008025001734495163,0.08261870592832565,0.004884826950728893,-0.012094555422663689,-0.00887067150324583,-0.46668753027915955,0.0006386798922903836,-0.08139891922473907,3.1178948879241943,0.0635489970445633,0.0,0.0,0.0,0.005675038788467646,0.053318142890930176,-0.0,0.0,0.0,0.0,-0.00015698987408541143,0.20000000298023224,0.00022589959553442895,25545.0,1495.0,1495.0,25890.0,1.5408010482788086,-0.2837711274623871,-0.22768747806549072,1.584104061126709,0.0,0.0,0.0,0.0,25534.0,1495.0,1495.0,25901.0,2.376343250274658,-3.0467902082101115,-0.5686085727443325,-2.9553737847985433,-0.30515697598457336,0.02499667927622795,-0.0
415,5,0.0014721439220011234,0.0006141992635093629,0.008177188225090504,0.08105432987213135,0.006324576213955879,-0.023100238293409348,-0.009427999146282673,-0.4889373481273651,0.0011640567099675536,-0.0059593552723526955,2.4334607124328613,0.04119710996747017,0.0,0.0,0.0,-0.00331835332326591,0.054678577929735184,-0.0,0.0,0.0,0.0,0.0029730373062193394,0.20000000298023224,0.00030431326013058424,26077.0,1495.0,1495.0,25945.0,1.6077860593795776,-0.2188713401556015,-0.21866236627101898,1.5910438299179077,0.0,0.0,0.0,0.0,26097.0,1495.0,1495.0,25926.0,2.3979580402374268,-3.0376231840300165,-0.5813789860699834,-2.951467276993552,-0.3157852590084076,-0.014749296009540558,0.0
420,5,0.0017195988912135363,0.0005940365372225642,0.0083259716629982,0.06211632862687111,0.004949362017214298,-0.0270940363407135,-0.009427999146282673,-0.4889373481273651,0.0011640567099675536,-0.0059593552723526955,2.4334607124328613,0.04119710996747017,0.0,0.0,0.0,-0.00331835332326591,0.054678577929735184,-0.0,0.0,0.0,0.0,0.0029730373062193394,0.20000000298023224,0.00030431326013058424,26077.0,1495.0,1495.0,25945.0,1.6077860593795776,-0.2188713401556015,-0.21866236627101898,1.5910438299179077,0.0,0.0,0.0,0.0,26097.0,1495.0,1495.0,25926.0,2.3979580402374268,-3.032122555525353,-0.5891660578529703,-2.949571485668393,-0.3157852590084076,-0.014749296009540558,0.0
425,5,0.0018829623004421592,0.0005508801550604403,0.008412360213696957,0.04445014148950577,0.007158511318266392,-0.021204208955168724,-0.009796176105737686,-0.5133536458015442,0.0016093769809231162,-0.06358281522989273,1.4838050603866577,0.004988429136574268,0.0,0.0,0.0,-0.0036936290562152863,0.045041169971227646,-0.0,0.0,0.0,0.0,0.005040573887526989,0.18480724096298218,0.00036307619302533567,25336.0,1495.0,1495.0,25455.0,1.5150054693222046,-0.31214261054992676,-0.279507577419281,1.5297080278396606,0.0,0.0,0.0,0.0,25361.0,1495.0,1495.0,25431.0,2.2348268032073975,-3.0286068605961702,-0.5941445979059149,-2.949082253994504,-0.2424686700105667,-0.015300439670681953,0.0
430,5,0.001974294427782297,0.0005184527835808694,0.008544613607227802,0.028739899396896362,0.006754687055945396,-0.0243521798402071,-0.009796176105737686,-0.5133536458015442,0.0016093769809231162,-0.06358281522989273,1.4838050603866577,0.004988429136574268,0.0,0.0,0.0,-0.0036936290562152863,0.045041169971227646,-0.0,0.0,0.0,0.0,0.005040573887526989,0.18480724096298218,0.00036307619302533567,25336.0,1495.0,1495.0,25455.0,1.5150054693222046,-0.31214261054992676,-0.279507577419281,1.5297080278396606,0.0,0.0,0.0,0.0,25361.0,1495.0,1495.0,25431.0,2.2348268032073975,-3.0256239918310066,-0.5943185773880991,-2.9489201487935315,-0.2424686700105667,-0.015300439670681953,0.0
435,5,0.001968544442206621,0.0005281049525365233,0.008686418645083904,0.010805968195199966,0.001543616410344839,-0.026757439598441124,-0.009725088253617287,-0.520458459854126,0.0019737188704311848,-0.052704814821481705,0.025345033034682274,0.09483972936868668,0.0,0.0,0.0,-0.006247802637517452,0.025378113612532616,-0.0,0.0,0.0,0.0,0.001924665062688291,0.13585273921489716,0.00026374327717348933,24239.0,1495.0,1495.0,24470.0,1.3826903104782104,-0.24117794632911682,-0.17526352405548096,1.4100944995880127,0.0,0.0,0.0,0.0,23674.0,1495.0,1495.0,23938.0,1.9415507316589355,-3.024588800181354,-0.5888875110128572,-2.9490481219449936,-0.11871480196714401,-0.022484304383397102,0.0
441,5,0.0019007285591214895,0.0005012513720430434,0.008880536071956158,-0.003815512638539076,0.003839876502752304,-0.03399704769253731,-0.009725088253617287,-0.520458459854126,0.0019737188704311848,-0.052704814821481705,0.025345033034682274,0.09483972936868668,0.0,0.0,0.0,-0.006247802637517452,0.025378113612532616,-0.0,0.0,0.0,0.0,0.001924665062688291,0.13585273921489716,0.00026374327717348933,24239.0,1495.0,1495.0,24470.0,1.3826903104782104,-0.24117794632911682,-0.17526352405548096,1.4100944995880127,0.0,0.0,0.0,0.0,23674.0,1495.0,1495.0,23938.0,1.9415507316589355,-3.020397065953887,-0.5791266376913395,-2.948512805410333,-0.11871480196714401,-0.022484304383397102,0.0
446,5,0.0016246148152276874,0.00024075723194982857,0.00923763494938612,-0.03465985879302025,0.032795246690511703,-0.056450650095939636,-0.009663673117756844,-0.5092356204986572,0.0027779375668615103,-0.0015112180262804031,-2.08823823928833,0.07689683139324188,0.0,0.0,0.0,-0.0037877094000577927,-0.0009421278955414891,-0.0,0.0,0.0,0.0,0.0006169201224111021,0.0590200237929821,0.0003476878337096423,17481.0,11006.0,11346.0,17443.0,0.7008616328239441,0.26257798075675964,0.28036120533943176,0.6977499127388,0.0,0.0,0.0,0.0,21534.0,7216.0,8264.0,21433.0,1.6588859558105469,-3.0280148128685678,-0.5737315515005104,-2.956469600438088,0.0037659548688679934,-0.011646618135273457,0.0
451,5,0.0011238352162763476,0.0003189973358530551,0.009327981621026993,-0.07395749539136887,0.0037292868364602327,-0.03342190384864807,-0.009663673117756844,-0.5092356204986572,0.0027779375668615103,-0.0015112180262804031,-2.08823823928833,0.07689683139324188,0.0,0.0,0.0,-0.0037877094000577927,-0.0009421278955414891,-0.0,0.0,0.0,0.0,0.0006169201224111021,0.0590200237929821,0.0003476878337096423,17481.0,11006.0,11346.0,17443.0,0.7008616328239441,0.26257798075675964,0.28036120533943176,0.6977499127388,0.0,0.0,0.0,0.0,21534.0,7216.0,8264.0,21433.0,1.6588859558105469,-3.033949412604824,-0.5476910514280697,-2.960262120719906,0.0037659548688679934,-0.011646618135273457,0.0
456,5,0.0006486467318609357,0.0003938055597245693,0.0094540910795331,-0.08660562336444855,-0.007485272362828255,-0.02850191481411457,-0.009663673117756844,-0.5092356204986572,0.0027779375668615103,-0.0015112180262804031,-2.08823823928833,0.07689683139324188,0.0,0.0,0.0,-0.002870432799682021,-0.0489458404481411,-0.0,0.0,0.0,0.0,0.0006169201224111021,0.0590200237929821,0.0003476878337096423,17481.0,11006.0,11346.0,17443.0,0.7008616328239441,0.26257798075675964,0.28036120533943176,0.6977499127388,0.0,0.0,0.0,0.0,21534.0,7216.0,8264.0,21433.0,2.2992424964904785,-3.0333787707719746,-0.5178990297564136,-2.9610599821812142,0.27106738090515137,-0.012233187444508076,0.0
461,5,-0.00012035891268169507,0.00039192443364299834,0.009482461959123611,-0.12692292034626007,-0.002768375910818577,-0.014805258251726627,-0.009351656772196293,-0.48393797874450684,0.003542684018611908,0.0372127927839756,-4.485074520111084,-0.05664678290486336,0.0,0.0,0.0,-0.002870432799682021,-0.0489458404481411,-0.0,0.0,0.0,0.0,0.000438985473010689,-0.022451719269156456,0.0004210002371110022,17481.0,11006.0,11346.0,17443.0,0.7008616328239441,0.26257798075675964,0.28036120533943176,0.6977499127388,0.0,0.0,0.0,0.0,16122.0,12964.0,13198.0,16100.0,2.2992424964904785,-3.0390071336386866,-0.4804963991416145,-2.966556846046751,0.27106738090515137,-0.012233187444508076,0.0
466,5,-0.000910643138922751,0.0005009674932807684,0.009497868828475475,-0.1456032693386078,-0.01419251412153244,-0.007770889438688755,-0.009351656772196293,-0.48393797874450684,0.003542684018611908,0.0372127927839756,-4.485074520111084,-0.05664678290486336,0.0,0.0,0.0,0.002483982825651765,-0.07270050793886185,-0.0,0.0,0.0,0.0,0.000438985473010689,-0.022451719269156456,0.0004210002371110022,17481.0,11006.0,11346.0,17443.0,0.7008616328239441,0.26257798075675964,0.28036120533943176,0.6977499127388,0.0,0.0,0.0,0.0,16122.0,12964.0,13198.0,16100.0,2.7226133346557617,-3.0431757810241895,-0.43806227607060183,-2.968058301835583,0.4765312075614929,0.012535518035292625,0.0
471,5,-0.0018957635620608926,0.0005800469662062824,0.009460619650781155,-0.1764557659626007,-0.01516654621809721,0.001361448084935546,-0.008678097277879715,-0.4169830083847046,0.003929382190108299,0.06370686739683151,-6.923157215118408,-0.05926626920700073,0.0,0.0,0.0,0.002483982825651765,-0.07270050793886185,-0.0,0.0,0.0,0.0,-0.00039153589750640094,-0.10421779006719589,0.00039174931589514017,2957.0,22162.0,22303.0,1495.0,0.010843206197023392,1.1487700939178467,1.1639522314071655,-0.024323007091879845,0.0,0.0,0.0,0.0,8364.0,17112.0,17373.0,8584.0,2.7226133346557617,-3.0507814071949593,-0.3941993962811231,-2.972353209958578,0.4765312075614929,0.012535518035292625,0.0
