timestamp,dt,pos_x,pos_y,pos_z,vel_x,vel_y,vel_z,roll,pitch,yaw,agv_x,agv_y,agv_z,x_ref,y_ref,z_ref,roll_ref,pitch_ref,yaw_ref,x_vel_ref,y_vel_ref,z_vel_ref,x_torque,y_torque,z_torque,w0,w1,w2,w3,u0,u1,u2,u3,m0req,m1req,m2req,m3req,thrust0,thrust1,thrust2,thrust3,thrust_ref,roll_vicon,pitch_vicon,yaw_vicon,acc_x,acc_y,acc_z
5,5,0.0,0.0,0.0,0.0005803191452287138,-0.0006126791704446077,-0.0024511036463081837,0.0,0.0,0.0,0.0,0.0,0.0,0.0,0.0,0.0,0.0007584287086501718,0.0005525928572751582,-0.0,0.0,0.0,0.0,0.0,0.0,0.0,0.0,0.0,0.0,0.0,0.0,0.0,0.0,0.0,0.0,0.0,0.0,0.0,0.0,0.0,0.0,0.0,1.6343352794647217,-3.1244547716572013,0.011973457727687663,-3.1179119064650087,-0.0021761967800557613,0.00229754694737494,0.0
28,23,0.0,0.0,0.0,-0.0007752180099487305,0.0011923509882763028,0.0004316007543820888,0.0,0.0,0.0,0.0,0.0,0.0,0.0,0.0,0.0,0.0007584287086501718,0.0005525928572751582,-0.0,0.0,0.0,0.0,0.0,0.0,0.0,0.0,0.0,0.0,0.0,0.0,0.0,0.0,0.0,0.0,0.0,0.0,0.0,0.0,0.0,0.0,0.0,1.6343352794647217,-3.124532714358525,0.010989679084774703,-3.117509910141933,-0.0021761967800557613,0.00229754694737494,0.0
41,13,0.0,0.0,0.0,-0.0007752180099487305,0.0011923509882763028,0.0004316007543820888,0.0,0.0,0.0,0.0,0.0,0.0,0.0,0.0,0.0,-0.0014707085210829973,-0.0007355348207056522,-0.0,0.0,0.0,0.0,0.0,0.0,0.0,0.0,0.0,0.0,0.0,0.0,0.0,0.0,0.0,0.0,0.0,0.0,0.0,0.0,0.0,0.0,0.0,1.640213966369629,-3.124532714358525,0.010989679084774703,-3.117509910141933,0.0029070675373077393,-0.004471316002309322,0.0
50,9,0.0,0.0,0.0,0.0031982336658984423,0.006041065324097872,0.005183988716453314,0.0,0.0,0.0,0.0,0.0,0.0,0.0,0.0,0.0,-0.007211218122392893,0.00293675041757524,-0.0,0.0,0.0,0.0,0.0,0.0,0.0,0.0,0.0,0.0,0.0,0.0,0.0,0.0,0.0,0.0,0.0,0.0,0.0,0.0,0.0,0.0,0.0,1.6948623657226562,-3.122649570914795,0.011156608410706753,-3.1181643847585825,-0.011993376538157463,-0.02265399508178234,0.0
59,9,0.0,0.0,0.0,0.0001589390740264207,-0.0005922721466049552,0.0018138329032808542,0.0,0.0,0.0,0.0,0.0,0.0,0.0,0.0,0.0,-0.007211218122392893,0.00293675041757524,-0.0,0.0,0.0,0.0,0.0,0.0,0.0,0.0,0.0,0.0,0.0,0.0,0.0,0.0,0.0,0.0,0.0,0.0,0.0,0.0,0.0,0.0,0.0,1.6948623657226562,-3.1246193871529493,0.011168159593271904,-3.117574309381387,-0.011993376538157463,-0.02265399508178234,0.0
64,5,0.0,0.0,0.0,-0.0009845644235610962,-0.0020047544967383146,-0.003212474286556244,0.0,0.0,0.0,0.0,0.0,0.0,0.0,0.0,0.0,0.0007342213648371398,0.00015156295557972044,-0.0,0.0,0.0,0.0,0.0,0.0,0.0,0.0,0.0,0.0,0.0,0.0,0.0,0.0,0.0,0.0,0.0,0.0,0.0,0.0,0.0,0.0,0.0,1.631988525390625,-3.1249408987589797,0.011236865080554987,-3.1171586658021035,-0.0005960215348750353,0.0022210206370800734,0.0
69,5,0.0,0.0,0.0,7.508877024520189e-05,0.0028520540799945593,0.004966095555573702,0.0,0.0,0.0,0.0,0.0,0.0,0.0,0.0,0.0,0.0007342213648371398,0.00015156295557972044,-0.0,0.0,0.0,0.0,0.0,0.0,0.0,0.0,0.0,0.0,0.0,0.0,0.0,0.0,0.0,0.0,0.0,0.0,0.0,0.0,0.0,0.0,0.0,1.631988525390625,-3.1247769237195318,0.011636815293962384,-3.1177518965308932,-0.0005960215348750353,0.0022210206370800734,0.0
74,5,2.7751564630307257e-05,-1.8565204300102778e-05,-2.6557963792583905e-05,0.0033602232579141855,0.003368646139279008,0.005173393990844488,0.0,0.0,0.0,0.0,0.0,0.0,0.0,0.0,0.0,-0.003487032139673829,7.062051008688286e-05,-0.0,0.0,0.0,0.0,0.0,0.0,0.0,0.0,0.0,0.0,0.0,0.0,0.0,0.0,0.0,0.0,0.0,0.0,0.0,0.0,0.0,0.0,0.0,1.654726266860962,-3.1230368290541253,0.011656554866043355,-3.1182114687105953,-0.00028158287750557065,-0.010695203207433224,0.0
79,5,-2.7094054075860186e-06,1.0965270121232606e-05,-1.1766165698645636e-05,-0.0023112271446734667,-0.0021961985621601343,0.0002943417348433286,0.0,0.0,0.0,0.0,0.0,0.0,0.0,0.0,0.0,-0.003487032139673829,7.062051008688286e-05,-0.0,0.0,0.0,0.0,0.0,0.0,0.0,0.0,0.0,0.0,0.0,0.0,0.0,0.0,0.0,0.0,0.0,0.0,0.0,0.0,0.0,0.0,0.0,1.654726266860962,-3.1247227967828537,0.011758113336877785,-3.117497179924516,-0.00028158287750557065,-0.010695203207433224,0.0
84,5,-9.194315680360887e-06,1.6646383301122114e-05,5.512680672836723e-06,-0.0017026800196617842,-0.0015602129278704524,-0.001955724786967039,0.0,0.0,0.0,0.0,0.0,0.0,0.0,0.0,0.0,-0.003487032139673829,7.062051008688286e-05,-0.0,0.0,0.0,0.0,0.0,0.0,0.0,0.0,0.0,0.0,0.0,0.0,0.0,0.0,0.0,0.0,0.0,0.0,0.0,0.0,0.0,0.0,0.0,1.654726266860962,-3.124952306805862,0.01191354008294557,-3.117782144328103,0.0064356508664786816,0.005942411720752716,0.0
89,5,6.816409495513653e-06,-5.490812327479944e-06,-1.601118674443569e-05,0.0012402150314301252,0.0020323782227933407,0.001800574129447341,0.0,0.0,0.0,0.0,0.0,0.0,0.0,0.0,0.0,0.0019435974536463618,-0.0016191728645935655,-0.0,0.0,0.0,0.0,0.0,0.0,0.0,0.0,0.0,0.0,0.0,0.0,0.0,0.0,0.0,0.0,0.0,0.0,0.0,0.0,0.0,0.0,0.0,1.6494849920272827,-3.1244998004798896,0.011680581323794428,-3.118049916856741,0.0064356508664786816,0.005942411720752716,0.0
95,5,1.5569934475934133e-05,1.9981764125986956e-05,2.014251185755711e-05,0.0015465088654309511,-0.0022437579464167356,-0.0036182142794132233,0.0,0.0,0.0,0.0,0.0,0.0,0.0,0.0,0.0,0.0019435974536463618,-0.0016191728645935655,-0.0,0.0,0.0,0.0,0.0,0.0,0.0,0.0,0.0,0.0,0.0,0.0,0.0,0.0,0.0,0.0,0.0,0.0,0.0,0.0,0.0,0.0,0.0,1.6494849920272827,-3.1245180616227466,0.011470817570057776,-3.1176860935760065,0.0064356508664786816,0.005942411720752716,0.0
100,5,-1.735324076435063e-05,2.7918735213461332e-05,2.210109778388869e-05,-0.003332177409902215,-0.0018499396974220872,-0.001682315836660564,0.0,0.0,0.0,0.0,0.0,0.0,0.0,0.0,0.0,0.002780722454190254,0.001476783538237214,-0.0,0.0,0.0,0.0,0.0,0.0,0.0,0.0,0.0,0.0,0.0,0.0,0.0,0.0,0.0,0.0,0.0,0.0,0.0,0.0,0.0,0.0,0.0,1.6538052558898926,-3.1261053751699834,0.011626986027145056,-3.11736165567524,-0.005885065067559481,0.008524119853973389,0.0
105,5,1.4308457139122766e-05,2.431058646834572e-06,4.050336883665295e-06,0.0024665328674018383,0.0023185452446341515,0.0014931649202480912,0.0,0.0,0.0,0.0,0.0,0.0,0.0,0.0,0.0,0.002780722454190254,0.001476783538237214,-0.0,0.0,0.0,0.0,0.0,0.0,0.0,0.0,0.0,0.0,0.0,0.0,0.0,0.0,0.0,0.0,0.0,0.0,0.0,0.0,0.0,0.0,0.0,1.6538052558898926,-3.1247235131965,0.011435480390429032,-3.1179791666368324,-0.005885065067559481,0.008524119853973389,0.0
110,5,2.759125709417276e-05,-2.412901449133642e-05,-2.0200111976009794e-05,0.0025805491022765636,0.004114626906812191,0.003507319837808609,0.0,0.0,0.0,0.0,0.0,0.0,0.0,0.0,0.0,-0.0028209388256073,0.0023317434825003147,-0.0,0.0,0.0,0.0,0.0,0.0,0.0,0.0,0.0,0.0,0.0,0.0,0.0,0.0,0.0,0.0,0.0,0.0,0.0,0.0,0.0,0.0,0.0,1.6602383852005005,-3.1236927302680257,0.010842278152133145,-3.117996330093658,-0.0093282675370574,-0.008681037463247776,-0.0
115,5,-9.206630238622893e-06,-1.7893984249894856e-06,-7.483720310119679e-08,-0.003383526811376214,-0.0010349032236263156,-0.0010121050290763378,0.0,0.0,0.0,0.0,0.0,0.0,0.0,0.0,0.0,-0.0028209388256073,0.0023317434825003147,-0.0,0.0,0.0,0.0,0.0,0.0,0.0,0.0,0.0,0.0,0.0,0.0,0.0,0.0,0.0,0.0,0.0,0.0,0.0,0.0,0.0,0.0,0.0,1.6602383852005005,-3.125527978117244,0.011872708949487828,-3.1176310631762307,-0.0093282675370574,-0.008681037463247776,-0.0
120,5,-1.5843150322325528e-05,4.203533080726629e-06,-1.3441047485684976e-05,-0.0021497930865734816,-0.001133113051764667,0.0011991033097729087,0.0,0.0,0.0,0.0,0.0,0.0,0.0,0.0,0.0,0.0012567880330607295,-0.003181309439241886,-0.0,0.0,0.0,0.0,0.0,0.0,0.0,0.0,0.0,0.0,0.0,0.0,0.0,0.0,0.0,0.0,0.0,0.0,0.0,0.0,0.0,0.0,0.0,1.6617761850357056,-3.125006809518482,0.012326813389860582,-3.1179262144461166,0.012738822028040886,0.0038711759261786938,0.0
125,5,-1.9448211787675973e-06,2.9275786346261157e-06,-2.691271447474719e-06,0.0008078822866082191,-0.0003001306904479861,-0.0008103318978101015,0.0,0.0,0.0,0.0,0.0,0.0,0.0,0.0,0.0,0.0012567880330607295,-0.003181309439241886,-0.0,0.0,0.0,0.0,0.0,0.0,0.0,0.0,0.0,0.0,0.0,0.0,0.0,0.0,0.0,0.0,0.0,0.0,0.0,0.0,0.0,0.0,0.0,1.6617761850357056,-3.125252543832178,0.011084428310104305,-3.1175781558914806,0.012738822028040886,0.0038711759261786938,0.0
130,5,3.851277506328188e-05,-3.66004096576944e-05,-4.776044806931168e-05,0.005178064573556185,0.0046233064495027065,0.005084168165922165,0.0,0.0,0.0,0.0,0.0,0.0,0.0,0.0,0.0,0.0003768506576307118,0.0007664957083761692,-0.0,0.0,0.0,0.0,0.0,0.0,0.0,0.0,0.0,0.0,0.0,0.0,0.0,0.0,0.0,0.0,0.0,0.0,0.0,0.0,0.0,0.0,0.0,1.6345059871673584,-3.122200095885857,0.01032611578104885,-3.1183546030343305,-0.003018895396962762,0.0011417324421927333,0.0
135,5,2.0041039533680305e-05,-1.4693402590637561e-05,-2.7497808332554996e-05,-0.00014538246614392847,-0.0007795182755216956,-0.00039784936234354973,0.0,0.0,0.0,0.0,0.0,0.0,0.0,0.0,0.0,0.0003768506576307118,0.0007664957083761692,-0.0,0.0,0.0,0.0,0.0,0.0,0.0,0.0,0.0,0.0,0.0,0.0,0.0,0.0,0.0,0.0,0.0,0.0,0.0,0.0,0.0,0.0,0.0,1.6345059871673584,-3.1234975691615694,0.011162525895282311,-3.1181229669325505,-0.003018895396962762,0.0011417324421927333,0.0
140,5,1.524010826869926e-06,1.111196615966037e-05,-2.6497857561480487e-06,-0.0022801964078098536,-0.0034084515646100044,-0.003140902379527688,0.0,0.0,0.0,0.0,0.0,0.0,0.0,0.0,0.0,0.0009387598838657141,-0.00011047397856600583,-0.0,0.0,0.0,0.0,0.0,0.0,0.0,0.0,0.0,0.0,0.0,0.0,0.0,0.0,0.0,0.0,0.0,0.0,0.0,0.0,0.0,0.0,0.0,1.6335513591766357,-3.124943871433294,0.011920032284882915,-3.1179967475431383,0.0004348550282884389,0.0028424691408872604,0.0
145,5,1.4958138308429625e-05,1.0384995221102145e-05,7.538639692938887e-06,0.0007000167388468981,-0.0012761441757902503,-0.00247897207736969,0.0,0.0,0.0,0.0,0.0,0.0,0.0,0.0,0.0,0.0009387598838657141,-0.00011047397856600583,-0.0,0.0,0.0,0.0,0.0,0.0,0.0,0.0,0.0,0.0,0.0,0.0,0.0,0.0,0.0,0.0,0.0,0.0,0.0,0.0,0.0,0.0,0.0,1.6335513591766357,-3.124894755530508,0.011170751967302509,-3.1177641353885943,0.0004348550282884389,0.0028424691408872604,0.0
150,5,3.1250485335476696e-05,-6.030580152582843e-06,4.1300177144876216e-06,0.002235088497400284,0.001459411345422268,-0.0005825542029924691,0.0,0.0,0.0,0.0,0.0,0.0,0.0,0.0,0.0,0.0015923266764730215,0.0006847950280644,-0.0,0.0,0.0,0.0,0.0,0.0,0.0,0.0,0.0,0.0,0.0,0.0,0.0,0.0,0.0,0.0,0.0,0.0,0.0,0.0,0.0,0.0,0.0,1.6407963037490845,-3.1228037712957235,0.009789902337352704,-3.1178973226404865,-0.0027074883691966534,0.004842783790081739,0.0
155,5,-1.8173428543377668e-05,1.8561848264653236e-05,-9.474137527831772e-07,-0.0050368341617286205,-0.002367326756939292,0.00037627009442076087,0.0,0.0,0.0,0.0,0.0,0.0,0.0,0.0,0.0,0.0015923266764730215,0.0006847950280644,-0.0,0.0,0.0,0.0,0.0,0.0,0.0,0.0,0.0,0.0,0.0,0.0,0.0,0.0,0.0,0.0,0.0,0.0,0.0,0.0,0.0,0.0,0.0,1.6407963037490845,-3.1264951851758256,0.012987617686649947,-3.117634347920307,-0.0027074883691966534,0.004842783790081739,0.0
160,5,2.2706510208081454e-05,-1.1384167009964585e-05,-6.916757683939068e-06,0.0028908587992191315,0.0026465910486876965,0.0008668293594382703,0.0,0.0,0.0,0.0,0.0,0.0,0.0,0.0,0.0,0.002879481064155698,-0.004683684092015028,-0.0,0.0,0.0,0.0,0.0,0.0,0.0,0.0,0.0,0.0,0.0,0.0,0.0,0.0,0.0,0.0,0.0,0.0,0.0,0.0,0.0,0.0,0.0,1.6824527978897095,-3.1242536604961337,0.011332364696520252,-3.117750218444785,0.01898798905313015,0.008979756385087967,0.0
165,5,-4.0982371274367324e-07,2.0992656573071145e-05,3.605618985602632e-05,-0.0016176165081560612,-0.002826582407578826,-0.004810022190213203,0.0,0.0,0.0,0.0,0.0,0.0,0.0,0.0,0.0,0.002879481064155698,-0.004683684092015028,-0.0,0.0,0.0,0.0,0.0,0.0,0.0,0.0,0.0,0.0,0.0,0.0,0.0,0.0,0.0,0.0,0.0,0.0,0.0,0.0,0.0,0.0,0.0,1.6824527978897095,-3.125268680567537,0.011055734320626832,-3.1175026926205436,0.01898798905313015,0.008979756385087967,0.0
170,5,3.343429489177652e-05,-1.3449837751977611e-05,1.0239820767310448e-05,0.003414247650653124,0.0030024664010852575,0.0011739555047824979,0.0,0.0,0.0,0.0,0.0,0.0,0.0,0.0,0.0,0.003484441200271249,-0.0015179029433056712,-0.0,0.0,0.0,0.0,0.0,0.0,0.0,0.0,0.0,0.0,0.0,0.0,0.0,0.0,0.0,0.0,0.0,0.0,0.0,0.0,0.0,0.0,0.0,1.6590847969055176,-3.1228247887197256,0.010159665347006068,-3.1180770336573884,0.006068225018680096,0.010715407319366932,0.0
176,5,-1.0758953976619523e-05,2.2463806089945138e-05,4.6018885768717155e-05,-0.003937490750104189,-0.0031086509115993977,-0.0038239057175815105,0.0,0.0,0.0,0.0,0.0,0.0,0.0,0.0,0.0,0.003484441200271249,-0.0015179029433056712,-0.0,0.0,0.0,0.0,0.0,0.0,0.0,0.0,0.0,0.0,0.0,0.0,0.0,0.0,0.0,0.0,0.0,0.0,0.0,0.0,0.0,0.0,0.0,1.6590847969055176,-3.1249456920315875,0.010789192777310707,-3.1171955502423816,0.006068225018680096,0.010715407319366932,0.0
181,5,1.1667902072076686e-05,-1.6631608446004975e-07,-9.453589882468805e-06,0.0011162263108417392,0.0014721543993800879,0.00512713473290205,0.0,0.0,0.0,0.0,0.0,0.0,0.0,0.0,0.0,0.0037903517950326204,-0.003668851451948285,-0.0,0.0,0.0,0.0,0.0,0.0,0.0,0.0,0.0,0.0,0.0,0.0,0.0,0.0,0.0,0.0,0.0,0.0,0.0,0.0,0.0,0.0,0.0,1.6769044399261475,-3.1245109380898244,0.011463103656052622,-3.1177140851134753,0.014824711717665195,0.01178133487701416,0.0
186,5,8.910839824238792e-06,9.670339977674303e-07,2.0207875422784127e-05,0.00011564309534151107,0.00045285976375453174,-0.0015085218474268913,0.0,0.0,0.0,0.0,0.0,0.0,0.0,0.0,0.0,0.0037903517950326204,-0.003668851451948285,-0.0,0.0,0.0,0.0,0.0,0.0,0.0,0.0,0.0,0.0,0.0,0.0,0.0,0.0,0.0,0.0,0.0,0.0,0.0,0.0,0.0,0.0,0.0,1.6769044399261475,-3.1233163083455806,0.010463093293147319,-3.1174389728395835,0.014824711717665195,0.01178133487701416,0.0
191,5,2.539854722272139e-05,-6.448251042456832e-06,5.71453574593761e-06,0.002024782123044133,0.001070978119969368,0.0011357920011505485,0.0,0.0,0.0,0.0,0.0,0.0,0.0,0.0,0.0,-0.0005600260337814689,0.0001228706823894754,-0.0,0.0,0.0,0.0,0.0,0.0,0.0,0.0,0.0,0.0,0.0,0.0,0.0,0.0,0.0,0.0,0.0,0.0,0.0,0.0,0.0,0.0,0.0,1.6305240392684937,-3.1234319335748015,0.010327035737499674,-3.117912232452432,-0.0004827555676456541,-0.0016925593372434378,0.0
196,5,2.0132711142650805e-05,2.17044839700975e-06,-4.450413143786136e-06,0.00017801264766603708,-0.0006058526923879981,0.001674110651947558,0.0,0.0,0.0,0.0,0.0,0.0,0.0,0.0,0.0,-0.0005600260337814689,0.0001228706823894754,-0.0,0.0,0.0,0.0,0.0,0.0,0.0,0.0,0.0,0.0,0.0,0.0,0.0,0.0,0.0,0.0,0.0,0.0,0.0,0.0,0.0,0.0,0.0,1.6305240392684937,-3.1231211981843474,0.010144366683275194,-3.1178891270936218,-0.0004827555676456541,-0.0016925593372434378,0.0
201,5,2.6603669539326802e-05,-2.639907279444742e-06,-1.6471456092403969e-06,0.0008477200753986835,0.000334901618771255,0.00033325215918011963,0.0,0.0,0.0,0.0,0.0,0.0,0.0,0.0,0.0,0.0007549772853963077,0.00019791096565313637,-0.0,0.0,0.0,0.0,0.0,0.0,0.0,0.0,0.0,0.0,0.0,0.0,0.0,0.0,0.0,0.0,0.0,0.0,0.0,0.0,0.0,0.0,0.0,1.6322969198226929,-3.1237018003921397,0.010273182716345126,-3.117702910580357,-0.0007784321787767112,0.002284238813444972,0.0
206,5,4.0201772208092734e-05,-2.5766803446458653e-05,-3.2694853871362284e-05,0.001970860408619046,0.0029091881588101387,0.0038590258918702602,0.0,0.0,0.0,0.0,0.0,0.0,0.0,0.0,0.0,0.0007549772853963077,0.00019791096565313637,-0.0,0.0,0.0,0.0,0.0,0.0,0.0,0.0,0.0,0.0,0.0,0.0,0.0,0.0,0.0,0.0,0.0,0.0,0.0,0.0,0.0,0.0,0.0,1.6322969198226929,-3.1223461145104543,0.010694530895407658,-3.1181675074308983,-0.0007784321787767112,0.002284238813444972,0.0
211,5,1.8073003957397304e-05,4.217523837724002e-06,2.822246460709721e-05,-0.0018671080470085144,-0.0024344439152628183,-0.005766467656940222,0.0,0.0,0.0,0.0,0.0,0.0,0.0,0.0,0.0,-0.0035871025174856186,0.0019006846705451608,-0.0,0.0,0.0,0.0,0.0,0.0,0.0,0.0,0.0,0.0,0.0,0.0,0.0,0.0,0.0,0.0,0.0,0.0,0.0,0.0,0.0,0.0,0.0,1.662062644958496,-3.1243129868315545,0.010686973486406709,-3.117742759377229,-0.007612132001668215,-0.011050909757614136,0.0
216,5,4.050365532748401e-05,-3.270954766776413e-05,-5.487416638061404e-05,0.0019448349485173821,0.003457471262663603,0.007665008772164583,0.0,0.0,0.0,0.0,0.0,0.0,0.0,0.0,0.0,-0.0035871025174856186,0.0019006846705451608,-0.0,0.0,0.0,0.0,0.0,0.0,0.0,0.0,0.0,0.0,0.0,0.0,0.0,0.0,0.0,0.0,0.0,0.0,0.0,0.0,0.0,0.0,0.0,1.662062644958496,-3.1230032093196765,0.011128160772372742,-3.118344505602554,-0.007612132001668215,-0.011050909757614136,0.0
221,5,-1.2182563295937143e-05,3.4174343454651535e-05,2.7012631107936613e-05,-0.005544412415474653,-0.006643078755587339,-0.006760412361472845,0.0,0.0,0.0,0.0,0.0,0.0,0.0,0.0,0.0,-0.004255046136677265,0.0018715417245402932,-0.0,0.0,0.0,0.0,0.0,0.0,0.0,0.0,0.0,0.0,0.0,0.0,0.0,0.0,0.0,0.0,0.0,0.0,0.0,0.0,0.0,0.0,0.0,1.6667064428329468,-3.1256322218198997,0.01135607590494921,-3.1173011044303465,-0.007516338489949703,-0.013145270757377148,0.0
226,5,-1.4643720533058513e-05,1.8757793441182002e-05,1.2284326658118516e-05,-0.002513103885576129,-0.0008072455530054867,-0.0009367683669552207,0.0,0.0,0.0,0.0,0.0,0.0,0.0,0.0,0.0,-0.004255046136677265,0.0018715417245402932,-0.0,0.0,0.0,0.0,0.0,0.0,0.0,0.0,0.0,0.0,0.0,0.0,0.0,0.0,0.0,0.0,0.0,0.0,0.0,0.0,0.0,0.0,0.0,1.6667064428329468,-3.125785991084245,0.011413367591084526,-3.1174988677160087,-0.007516338489949703,-0.013145270757377148,0.0
231,5,1.4550870218954515e-05,-1.2716531273326837e-05,-2.8556649340316653e-05,0.002498109359294176,0.003454020945355296,0.004526209551841021,0.0,0.0,0.0,0.0,0.0,0.0,0.0,0.0,0.0,-0.004255046136677265,0.0018715417245402932,-0.0,0.0,0.0,0.0,0.0,0.0,0.0,0.0,0.0,0.0,0.0,0.0,0.0,0.0,0.0,0.0,0.0,0.0,0.0,0.0,0.0,0.0,0.0,1.6667064428329468,-3.1238821454676704,0.011115574296268478,-3.1179736312493533,-0.007516338489949703,-0.013145270757377148,0.0
237,5,-1.578021874593105e-05,2.2046477170079015e-05,3.693461258080788e-05,-0.002640486927703023,-0.0027899525593966246,-0.006048467475920916,0.0,0.0,0.0,0.0,0.0,0.0,0.0,0.0,0.0,-0.004208846017718315,0.002349035581573844,-0.0,0.0,0.0,0.0,0.0,0.0,0.0,0.0,0.0,0.0,0.0,0.0,0.0,0.0,0.0,0.0,0.0,0.0,0.0,0.0,0.0,0.0,0.0,1.6692534685134888,-3.124954313701461,0.011357960516531448,-3.117508938370878,-0.009448427706956863,-0.013022415339946747,0.0
242,5,-8.44931219035061e-06,2.293106444994919e-05,2.753603803284932e-05,-0.0001764858898241073,-0.0012221315409988165,-0.0012915581464767456,0.0,0.0,0.0,0.0,0.0,0.0,0.0,0.0,0.0,-0.004208846017718315,0.002349035581573844,-0.0,0.0,0.0,0.0,0.0,0.0,0.0,0.0,0.0,0.0,0.0,0.0,0.0,0.0,0.0,0.0,0.0,0.0,0.0,0.0,0.0,0.0,0.0,1.6692534685134888,-3.1245899517243876,0.011458191846662249,-3.117425321411318,-0.009448427706956863,-0.013022415339946747,0.0
247,5,2.9741391699644737e-05,-2.1402342099463567e-05,-2.0811083231819794e-05,0.004512290004640818,0.004831156227737665,0.005285031162202358,0.0,0.0,0.0,0.0,0.0,0.0,0.0,0.0,0.0,0.0015504483599215746,-0.00017926262808032334,-0.0,0.0,0.0,0.0,0.0,0.0,0.0,0.0,0.0,0.0,0.0,0.0,0.0,0.0,0.0,0.0,0.0,0.0,0.0,0.0,0.0,0.0,0.0,1.6386669874191284,-3.1232293076016377,0.011148076609213282,-3.118112873807747,0.0007078346679918468,0.004709298722445965,0.0
252,5,1.3478842447511852e-05,-1.264714592252858e-05,-1.0954043318633921e-05,-0.00014658989675808698,0.0008818389615043998,0.0009311678004451096,0.0,0.0,0.0,0.0,0.0,0.0,0.0,0.0,0.0,0.0015504483599215746,-0.00017926262808032334,-0.0,0.0,0.0,0.0,0.0,0.0,0.0,0.0,0.0,0.0,0.0,0.0,0.0,0.0,0.0,0.0,0.0,0.0,0.0,0.0,0.0,0.0,0.0,1.6386669874191284,-3.124217886114876,0.011505333788266276,-3.1178843167823547,0.0007078346679918468,0.004709298722445965,0.0
257,5,6.331341865006834e-06,1.841967059590388e-05,2.50312514253892e-05,-0.0009163359645754099,-0.003375282511115074,-0.003945768345147371,0.0,0.0,0.0,0.0,0.0,0.0,0.0,0.0,0.0,-0.0011140811257064342,-0.00012058427091687918,-0.0,0.0,0.0,0.0,0.0,0.0,0.0,0.0,0.0,0.0,0.0,0.0,0.0,0.0,0.0,0.0,0.0,0.0,0.0,0.0,0.0,0.0,0.0,1.6349999904632568,-3.1242350584701346,0.011087643663545015,-3.1179244715870427,0.00047507265117019415,-0.0033763148821890354,0.0
262,5,8.53524761623703e-06,2.5798122806008905e-05,3.8366535591194406e-05,-0.00010206570732407272,-0.0022355273831635714,-0.0031785413157194853,0.0,0.0,0.0,0.0,0.0,0.0,0.0,0.0,0.0,-0.0011140811257064342,-0.00012058427091687918,-0.0,0.0,0.0,0.0,0.0,0.0,0.0,0.0,0.0,0.0,0.0,0.0,0.0,0.0,0.0,0.0,0.0,0.0,0.0,0.0,0.0,0.0,0.0,1.6349999904632568,-3.124112934234265,0.01169237948512653,-3.117738432745242,0.00047507265117019415,-0.0033763148821890354,0.0
267,5,1.83968004421331e-05,-2.1310752345016226e-05,-3.706214192789048e-05,0.0011425601551309228,0.004758854396641254,0.007780024781823158,0.0,0.0,0.0,0.0,0.0,0.0,0.0,0.0,0.0,0.00278944568708539,-8.438275108346716e-05,-0.0,0.0,0.0,0.0,0.0,0.0,0.0,0.0,0.0,0.0,0.0,0.0,0.0,0.0,0.0,0.0,0.0,0.0,0.0,0.0,0.0,0.0,0.0,1.6488710641860962,-3.1242671128017863,0.011594712700493429,-3.1183349977412456,0.00033526684273965657,0.008525348268449306,0.0
272,5,-2.3244103886099765e-06,4.119521690881811e-05,4.88797013531439e-05,-0.0020295213907957077,-0.005597174633294344,-0.007201011758297682,0.0,0.0,0.0,0.0,0.0,0.0,0.0,0.0,0.0,0.00278944568708539,-8.438275108346716e-05,-0.0,0.0,0.0,0.0,0.0,0.0,0.0,0.0,0.0,0.0,0.0,0.0,0.0,0.0,0.0,0.0,0.0,0.0,0.0,0.0,0.0,0.0,0.0,1.6488710641860962,-3.1253411584550905,0.011094483014807198,-3.1172173100619966,0.00033526684273965657,0.008525348268449306,0.0
277,5,1.3293310985318385e-05,-4.872075010098342e-07,2.519043164284085e-06,0.0007693354855291545,0.000960841600317508,-0.0008913181372918189,0.0,0.0,0.0,0.0,0.0,0.0,0.0,0.0,0.0,0.006786686833947897,-0.0018757357029244304,-0.0,0.0,0.0,0.0,0.0,0.0,0.0,0.0,0.0,0.0,0.0,0.0,0.0,0.0,0.0,0.0,0.0,0.0,0.0,0.0,0.0,0.0,0.0,1.6865935325622559,-3.1237559569945006,0.010189486354266515,-3.1176082910467495,0.007622961886227131,0.02121635340154171,0.0
282,5,1.3293310985318385e-05,-4.872075010098342e-07,2.519043164284085e-06,0.0007693354855291545,0.000960841600317508,-0.0008913181372918189,0.0,0.0,0.0,0.0,0.0,0.0,0.0,0.0,0.0,0.006786686833947897,-0.0018757357029244304,-0.0,0.0,0.0,0.0,0.0,0.0,0.0,0.0,0.0,0.0,0.0,0.0,0.0,0.0,0.0,0.0,0.0,0.0,0.0,0.0,0.0,0.0,0.0,1.6865935325622559,-3.1237559569945006,0.010189486354266515,-3.1176082910467495,0.007622961886227131,0.02121635340154171,0.0
287,5,7.13811914465623e-06,3.3306405384792015e-06,8.164970495272428e-06,0.0006863641901873052,0.0009501698659732938,0.0009784088470041752,0.0,0.0,0.0,0.0,0.0,0.0,0.0,0.0,0.0,-0.0011872234754264355,0.0007494257297366858,-0.0,0.0,0.0,0.0,0.0,0.0,0.0,0.0,0.0,0.0,0.0,0.0,0.0,0.0,0.0,0.0,0.0,0.0,0.0,0.0,0.0,0.0,0.0,1.638400673866272,-3.12497872686718,0.011796460700558403,-3.1177032052997644,-0.0029586954042315483,-0.0036054623778909445,0.0
292,5,7.13811914465623e-06,3.3306405384792015e-06,8.164970495272428e-06,0.0006863641901873052,0.0009501698659732938,0.0009784088470041752,0.0,0.0,0.0,0.0,0.0,0.0,0.0,0.0,0.0,-0.0011872234754264355,0.0007494257297366858,-0.0,0.0,0.0,0.0,0.0,0.0,0.0,0.0,0.0,0.0,0.0,0.0,0.0,0.0,0.0,0.0,0.0,0.0,0.0,0.0,0.0,0.0,0.0,1.638400673866272,-3.12497872686718,0.011796460700558403,-3.1177032052997644,-0.0029586954042315483,-0.0036054623778909445,0.0
297,5,6.632660642935662e-06,5.239863185124705e-06,5.452239747683052e-06,0.00021389068569988012,0.0001509612484369427,0.0007168911397457123,0.0,0.0,0.0,0.0,0.0,0.0,0.0,0.0,0.0,-0.0011676299618557096,0.0006623308872804046,-0.0,0.0,0.0,0.0,0.0,0.0,0.0,0.0,0.0,0.0,0.0,0.0,0.0,0.0,0.0,0.0,0.0,0.0,0.0,0.0,0.0,0.0,0.0,1.6376957893371582,-3.1241660323510687,0.011553970518579315,-3.1177427870732126,-0.0026137244421988726,-0.003544433508068323,-0.0
302,5,2.7497078917804174e-05,-4.2525284698058385e-06,-1.34889603486954e-06,0.0008459625532850623,2.0920585939165903e-06,-0.0016584298573434353,0.0,0.0,0.0,0.0,0.0,0.0,0.0,0.0,0.0,-0.0011676299618557096,0.0006623308872804046,-0.0,0.0,0.0,0.0,0.0,0.0,0.0,0.0,0.0,0.0,0.0,0.0,0.0,0.0,0.0,0.0,0.0,0.0,0.0,0.0,0.0,0.0,0.0,1.6376957893371582,-3.123735613394744,0.011159602796181311,-3.1179681441368,-0.0026137244421988726,-0.003544433508068323,-0.0
308,5,2.7497078917804174e-05,-4.2525284698058385e-06,-1.34889603486954e-06,0.0008459625532850623,2.0920585939165903e-06,-0.0016584298573434353,0.0,0.0,0.0,0.0,0.0,0.0,0.0,0.0,0.0,-1.0185653081862256e-05,0.0008438992663286626,-0.0,0.0,0.0,0.0,0.0,0.0,0.0,0.0,0.0,0.0,0.0,0.0,0.0,0.0,0.0,0.0,0.0,0.0,0.0,0.0,0.0,0.0,0.0,1.6347686052322388,-3.123735613394744,0.011159602796181311,-3.1179681441368,-0.0033242888748645782,-3.086410652031191e-05,0.0
313,5,-2.5652893782535102e-06,2.862393193936441e-05,4.10890206694603e-05,-0.0032690991647541523,-0.003944338299334049,-0.005755921825766563,0.0,0.0,0.0,0.0,0.0,0.0,0.0,0.0,0.0,-1.0185653081862256e-05,0.0008438992663286626,-0.0,0.0,0.0,0.0,0.0,0.0,0.0,0.0,0.0,0.0,0.0,0.0,0.0,0.0,0.0,0.0,0.0,0.0,0.0,0.0,0.0,0.0,0.0,1.6347686052322388,-3.1254429748008343,0.011975034492544445,-3.1177774173019634,-0.0033242888748645782,-3.086410652031191e-05,0.0
318,5,9.03467480384279e-07,1.2171879461675417e-05,2.8496824597823434e-05,-0.0009136319276876748,0.0008073093486018479,-0.0023863050155341625,0.0,0.0,0.0,0.0,0.0,0.0,0.0,0.0,0.0,0.004806407727301121,-0.003035270608961582,-0.0,0.0,0.0,0.0,0.0,0.0,0.0,0.0,0.0,0.0,0.0,0.0,0.0,0.0,0.0,0.0,0.0,0.0,0.0,0.0,0.0,0.0,0.0,1.6779961585998535,-3.124393768359888,0.010807167346638185,-3.1173377223528425,0.012272544205188751,0.014949170872569084,0.0
323,5,2.1726049453718588e-05,2.3273908311693958e-07,-2.248110467917286e-05,0.00213325722143054,0.0017556205857545137,0.0051628295332193375,0.0,0.0,0.0,0.0,0.0,0.0,0.0,0.0,0.0,0.004806407727301121,-0.003035270608961582,-0.0,0.0,0.0,0.0,0.0,0.0,0.0,0.0,0.0,0.0,0.0,0.0,0.0,0.0,0.0,0.0,0.0,0.0,0.0,0.0,0.0,0.0,0.0,1.6779961585998535,-3.1233248883059086,0.010587880729478805,-3.117904155755236,0.012272544205188751,0.014949170872569084,0.0
328,5,3.0328810680657625e-05,1.0785146287162206e-07,-8.832295861793682e-06,0.0018856340320780873,0.0007172347395680845,0.0004272747610229999,0.0,0.0,0.0,0.0,0.0,0.0,0.0,0.0,0.0,-0.002146780490875244,0.0020372907165437937,-0.0,0.0,0.0,0.0,0.0,0.0,0.0,0.0,0.0,0.0,0.0,0.0,0.0,0.0,0.0,0.0,0.0,0.0,0.0,0.0,0.0,0.0,0.0,1.6540583372116089,-3.1232453346385056,0.010376982435071793,-3.1176177150467526,-0.008119970560073853,-0.006581826135516167,0.0
333,5,4.164462006883696e-05,-5.118772969581187e-05,-7.95470696175471e-05,0.002112150890752673,0.006442363373935223,0.008656682446599007,0.0,0.0,0.0,0.0,0.0,0.0,0.0,0.0,0.0,-0.002146780490875244,0.0020372907165437937,-0.0,0.0,0.0,0.0,0.0,0.0,0.0,0.0,0.0,0.0,0.0,0.0,0.0,0.0,0.0,0.0,0.0,0.0,0.0,0.0,0.0,0.0,0.0,1.6540583372116089,-3.1222806526720444,0.011216486485650835,-3.1187349922906575,-0.008119970560073853,-0.006581826135516167,0.0
338,5,-3.3936628369701793e-06,2.7048788979300298e-05,1.445756515749963e-05,-0.004559733904898167,-0.006811436731368303,-0.007817883044481277,0.0,0.0,0.0,0.0,0.0,0.0,0.0,0.0,0.0,-0.007778177969157696,0.0019953646697103977,-0.0,0.0,0.0,0.0,0.0,0.0,0.0,0.0,0.0,0.0,0.0,0.0,0.0,0.0,0.0,0.0,0.0,0.0,0.0,0.0,0.0,0.0,0.0,1.6952141523361206,-3.125329463519714,0.011684618703267355,-3.1174120498439706,-0.00815051980316639,-0.024440104141831398,0.0
343,5,-5.763035460404353e-06,1.0991446288244333e-05,9.124709094976424e-07,-0.0021082181483507156,-0.0007976936176419258,-0.0015017418190836906,0.0,0.0,0.0,0.0,0.0,0.0,0.0,0.0,0.0,-0.007778177969157696,0.0019953646697103977,-0.0,0.0,0.0,0.0,0.0,0.0,0.0,0.0,0.0,0.0,0.0,0.0,0.0,0.0,0.0,0.0,0.0,0.0,0.0,0.0,0.0,0.0,0.0,1.6952141523361206,-3.1256904373989287,0.01240534860280626,-3.117680703039838,-0.00815051980316639,-0.024440104141831398,0.0
348,5,5.849984063388547e-06,1.7233316611964256e-05,3.277758150943555e-05,0.0005502750864252448,-0.00106810184661299,-0.004424510058015585,0.0,0.0,0.0,0.0,0.0,0.0,0.0,0.0,0.0,0.0009986873483285308,-0.001997647574171424,-0.0,0.0,0.0,0.0,0.0,0.0,0.0,0.0,0.0,0.0,0.0,0.0,0.0,0.0,0.0,0.0,0.0,0.0,0.0,0.0,0.0,0.0,0.0,1.6487913131713867,-3.124353742949545,0.011544215619919102,-3.1177973229068177,0.007936626672744751,0.0030521342996507883,0.0
353,5,2.0126879462623037e-05,-5.032205535826506e-06,1.1315544725221116e-05,0.0019333374220877886,0.0022446217481046915,0.0008056404767557979,0.0,0.0,0.0,0.0,0.0,0.0,0.0,0.0,0.0,0.0009986873483285308,-0.001997647574171424,-0.0,0.0,0.0,0.0,0.0,0.0,0.0,0.0,0.0,0.0,0.0,0.0,0.0,0.0,0.0,0.0,0.0,0.0,0.0,0.0,0.0,0.0,0.0,1.6487913131713867,-3.1234451879067704,0.010330751443621824,-3.1177943131473222,0.007936626672744751,0.0030521342996507883,0.0
359,5,-8.34716047393158e-06,4.751756932819262e-06,-1.7699874661047943e-05,-0.0026435498148202896,-0.00027622675406746566,0.0038041064981371164,0.0,0.0,0.0,0.0,0.0,0.0,0.0,0.0,0.0,-0.00275102024897933,0.001844776445068419,-0.0,0.0,0.0,0.0,0.0,0.0,0.0,0.0,0.0,0.0,0.0,0.0,0.0,0.0,0.0,0.0,0.0,0.0,0.0,0.0,0.0,0.0,0.0,1.6560852527618408,-3.1248486049985345,0.012073245023217334,-3.117901482528558,-0.007361671421676874,-0.008444695733487606,-0.0
364,5,2.1749390725744888e-05,-1.8201570128439926e-05,-4.780712697538547e-05,0.0025541663635522127,0.0026439086068421602,0.005134512670338154,0.0,0.0,0.0,0.0,0.0,0.0,0.0,0.0,0.0,-0.00275102024897933,0.001844776445068419,-0.0,0.0,0.0,0.0,0.0,0.0,0.0,0.0,0.0,0.0,0.0,0.0,0.0,0.0,0.0,0.0,0.0,0.0,0.0,0.0,0.0,0.0,0.0,1.6560852527618408,-3.123381993400084,0.011227146531448124,-3.1182959412603193,-0.007361671421676874,-0.008444695733487606,-0.0
369,5,-7.17428520147223e-06,1.6216432413784787e-05,-8.366657311853487e-06,-0.0024491746444255114,-0.0030725968535989523,-0.0026790511328727007,0.0,0.0,0.0,0.0,0.0,0.0,0.0,0.0,0.0,-0.0032479409128427505,0.00241965358145535,-0.0,0.0,0.0,0.0,0.0,0.0,0.0,0.0,0.0,0.0,0.0,0.0,0.0,0.0,0.0,0.0,0.0,0.0,0.0,0.0,0.0,0.0,0.0,1.6634690761566162,-3.124737835527587,0.011477467626202324,-3.1178364267321066,-0.009698780253529549,-0.010014517232775688,0.0
374,5,8.549345693609212e-06,6.7375322032603435e-06,1.2099309969926253e-05,0.0009071658714674413,-9.157066961051896e-05,-0.0035275365225970745,0.0,0.0,0.0,0.0,0.0,0.0,0.0,0.0,0.0,-0.0032479409128427505,0.00241965358145535,-0.0,0.0,0.0,0.0,0.0,0.0,0.0,0.0,0.0,0.0,0.0,0.0,0.0,0.0,0.0,0.0,0.0,0.0,0.0,0.0,0.0,0.0,0.0,1.6634690761566162,-3.1237237818246855,0.009826830172823752,-3.117662104868256,-0.009698780253529549,-0.010014517232775688,0.0
379,5,1.8770886526908726e-05,6.662724558736954e-07,-2.7584785129874945e-05,0.0015894512180238962,0.0006919229053892195,0.003351076738908887,0.0,0.0,0.0,0.0,0.0,0.0,0.0,0.0,0.0,0.00012561288895085454,0.0008755886810831726,-0.0,0.0,0.0,0.0,0.0,0.0,0.0,0.0,0.0,0.0,0.0,0.0,0.0,0.0,0.0,0.0,0.0,0.0,0.0,0.0,0.0,0.0,0.0,1.635165810585022,-3.124205947566964,0.01170831186216447,-3.117867045348795,-0.0034499578177928925,0.000380719022359699,0.0
384,5,5.760403382737422e-06,1.9709523257915862e-05,2.081135789921973e-05,-0.0009254775359295309,-0.002008420880883932,-0.00446710642427206,0.0,0.0,0.0,0.0,0.0,0.0,0.0,0.0,0.0,0.00012561288895085454,0.0008755886810831726,-0.0,0.0,0.0,0.0,0.0,0.0,0.0,0.0,0.0,0.0,0.0,0.0,0.0,0.0,0.0,0.0,0.0,0.0,0.0,0.0,0.0,0.0,0.0,1.635165810585022,-3.1240667239716675,0.010647240114871831,-3.117846626744022,-0.0034499578177928925,0.000380719022359699,0.0
389,5,-1.9028448150493205e-06,2.0578580006258562e-05,2.990942266478669e-05,-0.0012897808337584138,-0.000907655106857419,-0.0028786102775484324,0.0,0.0,0.0,0.0,0.0,0.0,0.0,0.0,0.0,0.0025005002971738577,-0.0008654655539430678,-0.0,0.0,0.0,0.0,0.0,0.0,0.0,0.0,0.0,0.0,0.0,0.0,0.0,0.0,0.0,0.0,0.0,0.0,0.0,0.0,0.0,0.0,0.0,1.6484547853469849,-3.124677054402187,0.011160596358482187,-3.117660682709684,0.003437774023041129,0.007640322204679251,0.0
394,5,-9.570567272021435e-06,2.7781672542914748e-05,3.9021106204018e-05,-0.0014360389905050397,-0.001227433211170137,-0.002244846196845174,0.0,0.0,0.0,0.0,0.0,0.0,0.0,0.0,0.0,0.0025005002971738577,-0.0008654655539430678,-0.0,0.0,0.0,0.0,0.0,0.0,0.0,0.0,0.0,0.0,0.0,0.0,0.0,0.0,0.0,0.0,0.0,0.0,0.0,0.0,0.0,0.0,0.0,1.6484547853469849,-3.124792245384746,0.011929414097092212,-3.1176243105439374,0.003437774023041129,0.007640322204679251,0.0
399,5,-5.648334990837611e-06,3.267041392973624e-05,4.180078030913137e-05,-0.0001037477413774468,-0.0010776224080473185,-0.00123149948194623,0.0,0.0,0.0,0.0,0.0,0.0,0.0,0.0,0.0,0.0015595188597217202,-0.001371303340420127,-0.0,0.0,0.0,0.0,0.0,0.0,0.0,0.0,0.0,0.0,0.0,0.0,0.0,0.0,0.0,0.0,0.0,0.0,0.0,0.0,0.0,0.0,0.0,1.6453309059143066,-3.124331441173026,0.01088886326011793,-3.1177627766143816,0.005436733365058899,0.0047561125829815865,0.0
404,5,1.8319145738132647e-06,1.2461426194931846e-05,1.248226089956006e-05,0.0008561308495700359,0.0019940296187996864,0.003025622572749853,0.0,0.0,0.0,0.0,0.0,0.0,0.0,0.0,0.0,0.0015595188597217202,-0.001371303340420127,-0.0,0.0,0.0,0.0,0.0,0.0,0.0,0.0,0.0,0.0,0.0,0.0,0.0,0.0,0.0,0.0,0.0,0.0,0.0,0.0,0.0,0.0,0.0,1.6453309059143066,-3.1245676822642414,0.011726512225610278,-3.1179517029803288,0.005436733365058899,0.0047561125829815865,0.0
409,5,1.9449234969215468e-06,9.058736395672895e-06,-5.611152118945029e-06,0.0003560134209692478,0.001205934677273035,0.0033814585767686367,0.0,0.0,0.0,0.0,0.0,0.0,0.0,0.0,0.0,-0.0024258510675281286,0.0008114477386698127,-0.0,0.0,0.0,0.0,0.0,0.0,0.0,0.0,0.0,0.0,0.0,0.0,0.0,0.0,0.0,0.0,0.0,0.0,0.0,0.0,0.0,0.0,0.0,1.6476452350616455,-3.124597332227903,0.011631954352931398,-3.117975441155445,-0.00322162383235991,-0.007408590987324715,-0.0
414,5,-4.83206440549111e-06,3.247054701205343e-05,1.2157969649706502e-05,-0.0006708331638947129,-0.002327043330296874,-0.0007797112339176238,0.0,0.0,0.0,0.0,0.0,0.0,0.0,0.0,0.0,-0.0024258510675281286,0.0008114477386698127,-0.0,0.0,0.0,0.0,0.0,0.0,0.0,0.0,0.0,0.0,0.0,0.0,0.0,0.0,0.0,0.0,0.0,0.0,0.0,0.0,0.0,0.0,0.0,1.6476452350616455,-3.1244161354124,0.011582925303047708,-3.117504769760285,-0.00322162383235991,-0.007408590987324715,-0.0
420,5,-9.24378946365323e-06,4.1372288251295686e-05,4.301903027226217e-05,-0.0007977402419783175,-0.001999026397243142,-0.004015211481601,0.0,0.0,0.0,0.0,0.0,0.0,0.0,0.0,0.0,0.0029103830456733704,-0.0006388171459548175,-0.0,0.0,0.0,0.0,0.0,0.0,0.0,0.0,0.0,0.0,0.0,0.0,0.0,0.0,0.0,0.0,0.0,0.0,0.0,0.0,0.0,0.0,0.0,1.6508418321609497,-3.123899459616914,0.010096950172246783,-3.1173026145408467,0.002541160210967064,0.008905597031116486,0.0
425,5,2.7309113647788763e-05,-2.5070210085686995e-06,1.616310328245163e-05,0.004067252390086651,0.004465906415134668,0.001616626512259245,0.0,0.0,0.0,0.0,0.0,0.0,0.0,0.0,0.0,0.0029103830456733704,-0.0006388171459548175,-0.0,0.0,0.0,0.0,0.0,0.0,0.0,0.0,0.0,0.0,0.0,0.0,0.0,0.0,0.0,0.0,0.0,0.0,0.0,0.0,0.0,0.0,0.0,1.6508418321609497,-3.1232599493028093,0.009884813684509865,-3.1178536941066564,0.002541160210967064,0.008905597031116486,0.0
430,5,-5.1093620641040616e-06,1.3235467122285627e-05,-1.954234357981477e-05,-0.002263316186144948,-0.00010273594671161845,0.004931304138153791,0.0,0.0,0.0,0.0,0.0,0.0,0.0,0.0,0.0,-0.005359424743801355,0.0037889210507273674,-0.0,0.0,0.0,0.0,0.0,0.0,0.0,0.0,0.0,0.0,0.0,0.0,0.0,0.0,0.0,0.0,0.0,0.0,0.0,0.0,0.0,0.0,0.0,1.6871750354766846,-3.1262055712915386,0.012609134334586906,-3.1176922365185953,-0.015403532423079014,-0.01676035113632679,-0.0
435,5,1.6944586604950018e-05,-4.91364517074544e-06,1.1722629096766468e-05,0.0017411474836990237,0.0021367990411818027,-0.0017792751314118505,0.0,0.0,0.0,0.0,0.0,0.0,0.0,0.0,0.0,-0.005359424743801355,0.0037889210507273674,-0.0,0.0,0.0,0.0,0.0,0.0,0.0,0.0,0.0,0.0,0.0,0.0,0.0,0.0,0.0,0.0,0.0,0.0,0.0,0.0,0.0,0.0,0.0,1.6871750354766846,-3.1237156340667345,0.009599518767761259,-3.117708576594047,-0.015403532423079014,-0.01676035113632679,-0.0
440,5,1.6308697013300844e-05,5.206090008869069e-06,-1.1860625193094165e-07,0.0006201522191986442,-0.00035964857670478523,0.0007092382293194532,0.0,0.0,0.0,0.0,0.0,0.0,0.0,0.0,0.0,-0.0026223650202155113,0.0016619747038930655,-0.0,0.0,0.0,0.0,0.0,0.0,0.0,0.0,0.0,0.0,0.0,0.0,0.0,0.0,0.0,0.0,0.0,0.0,0.0,0.0,0.0,0.0,0.0,1.6539623737335205,-3.124178986321285,0.010570964409172764,-3.117946201577236,-0.0066236937418580055,-0.008039451204240322,0.0
445,5,1.7126962120528333e-05,-2.835916166077368e-05,-4.5251355913933367e-05,0.000346252549206838,0.0038839709013700485,0.005699625238776207,0.0,0.0,0.0,0.0,0.0,0.0,0.0,0.0,0.0,-0.0026223650202155113,0.0016619747038930655,-0.0,0.0,0.0,0.0,0.0,0.0,0.0,0.0,0.0,0.0,0.0,0.0,0.0,0.0,0.0,0.0,0.0,0.0,0.0,0.0,0.0,0.0,0.0,1.6539623737335205,-3.124210275469424,0.01143140206841408,-3.1181162416868506,-0.0066236937418580055,-0.008039451204240322,0.0
450,5,8.425769010500517e-06,1.1778522093663923e-05,2.2098411136539653e-05,-0.0009056420531123877,-0.003262933809310198,-0.0058021219447255135,0.0,0.0,0.0,0.0,0.0,0.0,0.0,0.0,0.0,-0.004767649807035923,0.00034727645106613636,-0.0,0.0,0.0,0.0,0.0,0.0,0.0,0.0,0.0,0.0,0.0,0.0,0.0,0.0,0.0,0.0,0.0,0.0,0.0,0.0,0.0,0.0,0.0,1.6657490730285645,-3.1241771224697015,0.010615040536587303,-3.1177665902038822,-0.001393900834955275,-0.01472039520740509,0.0
455,5,-2.7183323254575953e-06,1.320177580055315e-05,1.1392727174097672e-05,-0.0016995490295812488,-0.0014759639743715525,-0.0010361667955294251,0.0,0.0,0.0,0.0,0.0,0.0,0.0,0.0,0.0,-0.004767649807035923,0.00034727645106613636,-0.0,0.0,0.0,0.0,0.0,0.0,0.0,0.0,0.0,0.0,0.0,0.0,0.0,0.0,0.0,0.0,0.0,0.0,0.0,0.0,0.0,0.0,0.0,1.6657490730285645,-3.1253941861014662,0.01255635874042612,-3.1179850056730425,-0.001393900834955275,-0.01472039520740509,0.0
460,5,-3.7165798403293593e-06,2.2200651073944755e-05,2.2805552362115122e-05,-0.0007996092899702489,-0.0016702505527064204,-0.001784005668014288,0.0,0.0,0.0,0.0,0.0,0.0,0.0,0.0,0.0,0.0018349995370954275,-0.0016076206229627132,-0.0,0.0,0.0,0.0,0.0,0.0,0.0,0.0,0.0,0.0,0.0,0.0,0.0,0.0,0.0,0.0,0.0,0.0,0.0,0.0,0.0,0.0,0.0,1.6487822532653809,-3.12451435488591,0.011314419575954145,-3.117578414699651,0.00638701394200325,0.005607991944998503,0.0
465,5,-9.014874194690492e-06,1.2794412214134354e-05,-5.792846422991715e-06,-0.0009556389995850623,0.000460648414446041,0.002718205563724041,0.0,0.0,0.0,0.0,0.0,0.0,0.0,0.0,0.0,0.0018349995370954275,-0.0016076206229627132,-0.0,0.0,0.0,0.0,0.0,0.0,0.0,0.0,0.0,0.0,0.0,0.0,0.0,0.0,0.0,0.0,0.0,0.0,0.0,0.0,0.0,0.0,0.0,1.6487822532653809,-3.1249193104534974,0.011743398994110078,-3.1178472723782433,0.00638701394200325,0.005607991944998503,0.0
471,5,3.0834546578262234e-06,1.8880726202041842e-05,-1.8428541807224974e-05,0.0010695438832044601,-0.0005460982210934162,0.002603565575554967,0.0,0.0,0.0,0.0,0.0,0.0,0.0,0.0,0.0,-0.0005460673128254712,-0.0009209982817992568,-0.0,0.0,0.0,0.0,0.0,0.0,0.0,0.0,0.0,0.0,0.0,0.0,0.0,0.0,0.0,0.0,0.0,0.0,0.0,0.0,0.0,0.0,0.0,1.6365786790847778,-3.124663954755017,0.012017857819786934,-3.11776779259547,0.003632013686001301,-0.0016565005062147975,0.0
476,5,1.0521206377234193e-06,2.2977832486503758e-05,1.4016752174939029e-05,0.00018405744049232453,-0.0007100921939127147,-0.002852009143680334,0.0,0.0,0.0,0.0,0.0,0.0,0.0,0.0,0.0,-0.0005460673128254712,-0.0009209982817992568,-0.0,0.0,0.0,0.0,0.0,0.0,0.0,0.0,0.0,0.0,0.0,0.0,0.0,0.0,0.0,0.0,0.0,0.0,0.0,0.0,0.0,0.0,0.0,1.6365786790847778,-3.125190198791604,0.010825089181049597,-3.117546998305792,0.003632013686001301,-0.0016565005062147975,0.0
481,5,2.2302008801489137e-05,-2.3366676487057703e-06,-1.5038716810522601e-05,0.002623609732836485,0.0027537031564861536,0.0023458527866750956,0.0,0.0,0.0,0.0,0.0,0.0,0.0,0.0,0.0,-0.0005460673128254712,-0.0009209982817992568,-0.0,0.0,0.0,0.0,0.0,0.0,0.0,0.0,0.0,0.0,0.0,0.0,0.0,0.0,0.0,0.0,0.0,0.0,0.0,0.0,0.0,0.0,0.0,1.6365786790847778,-3.124071294917283,0.011051100337884336,-3.1179615810152432,-0.009962489828467369,-0.010338684543967247,0.0
486,5,-6.088481313781813e-06,8.73256431077607e-06,3.870146883855341e-06,-0.0023574151564389467,-0.00022682658163830638,-0.001330722589045763,0.0,0.0,0.0,0.0,0.0,0.0,0.0,0.0,0.0,-0.003350817132741213,0.0024837700184434652,-0.0,0.0,0.0,0.0,0.0,0.0,0.0,0.0,0.0,0.0,0.0,0.0,0.0,0.0,0.0,0.0,0.0,0.0,0.0,0.0,0.0,0.0,0.0,1.664590835571289,-3.1250924103423747,0.01145943611143794,-3.1176617850665997,-0.009962489828467369,-0.010338684543967247,0.0
491,5,1.3392295841185842e-05,9.416344823875988e-07,1.3103047422191594e-05,0.0013947272673249245,0.0008441809331998229,-0.001640237052924931,0.0,0.0,0.0,0.0,0.0,0.0,0.0,0.0,0.0,-0.003350817132741213,0.0024837700184434652,-0.0,0.0,0.0,0.0,0.0,0.0,0.0,0.0,0.0,0.0,0.0,0.0,0.0,0.0,0.0,0.0,0.0,0.0,0.0,0.0,0.0,0.0,0.0,1.664590835571289,-3.1251965986145462,0.011926076723201515,-3.1178181686565263,-0.009962489828467369,-0.010338684543967247,0.0
496,5,2.3969609173946083e-05,-1.5163218449742999e-05,1.8519540390116163e-05,0.001827168627642095,0.002270254772156477,-0.001306073972955346,0.0,0.0,0.0,0.0,0.0,0.0,0.0,0.0,0.0,-0.0010379280429333448,0.001340443966910243,-0.0,0.0,0.0,0.0,0.0,0.0,0.0,0.0,0.0,0.0,0.0,0.0,0.0,0.0,0.0,0.0,0.0,0.0,0.0,0.0,0.0,0.0,0.0,1.6424928903579712,-3.1238570600828677,0.010188884566834876,-3.1177341808973136,-0.005305224098265171,-0.0031599425710737705,0.0
501,5,9.340559699921869e-06,9.360878152619989e-07,4.181043550488539e-05,-0.001024618512019515,-0.0010238148970529437,-0.0033173372503370047,0.0,0.0,0.0,0.0,0.0,0.0,0.0,0.0,0.0,-0.0010379280429333448,0.001340443966910243,-0.0,0.0,0.0,0.0,0.0,0.0,0.0,0.0,0.0,0.0,0.0,0.0,0.0,0.0,0.0,0.0,0.0,0.0,0.0,0.0,0.0,0.0,0.0,1.6424928903579712,-3.1248993796586313,0.010817111476074007,-3.1174999084706285,-0.005305224098265171,-0.0031599425710737705,0.0
506,5,4.604837158694863e-06,7.4892745942634065e-06,2.7365860660211183e-05,-0.0009781342232599854,-0.0011959082912653685,0.00040641435771249235,0.0,0.0,0.0,0.0,0.0,0.0,0.0,0.0,0.0,0.001264568418264389,-0.0009587196400389075,-0.0,0.0,0.0,0.0,0.0,0.0,0.0,0.0,0.0,0.0,0.0,0.0,0.0,0.0,0.0,0.0,0.0,0.0,0.0,0.0,0.0,0.0,0.0,1.6403907537460327,-3.1247565919343407,0.010946090789559547,-3.1176561312670614,0.00378957437351346,0.0038450146093964577,0.0
511,5,-3.630165565482457e-06,2.6125386284547858e-05,3.7264657294144854e-05,-0.001379454042762518,-0.002714696805924177,-0.001025289879180491,0.0,0.0,0.0,0.0,0.0,0.0,0.0,0.0,0.0,0.001264568418264389,-0.0009587196400389075,-0.0,0.0,0.0,0.0,0.0,0.0,0.0,0.0,0.0,0.0,0.0,0.0,0.0,0.0,0.0,0.0,0.0,0.0,0.0,0.0,0.0,0.0,0.0,1.6403907537460327,-3.1252911121758005,0.01147643170737809,-3.1173891578148245,0.00378957437351346,0.0038450146093964577,0.0
516,5,-1.5143399650696665e-05,-1.6569423451073817e-06,-3.541947080520913e-05,-0.0019333696691319346,0.00224800081923604,0.008311979472637177,0.0,0.0,0.0,0.0,0.0,0.0,0.0,0.0,0.0,0.0033614537678658962,-0.0013002163032069802,-0.0,0.0,0.0,0.0,0.0,0.0,0.0,0.0,0.0,0.0,0.0,0.0,0.0,0.0,0.0,0.0,0.0,0.0,0.0,0.0,0.0,0.0,0.0,1.6570396423339844,-3.125083965669959,0.011701605827394258,-3.117925617338902,0.005191559437662363,0.010324453935027122,0.0
521,5,1.857933784776833e-05,-2.42304231505841e-05,-5.127973054186441e-05,0.0032733806874603033,0.0036080179270356894,0.005228023044764996,0.0,0.0,0.0,0.0,0.0,0.0,0.0,0.0,0.0,0.0033614537678658962,-0.0013002163032069802,-0.0,0.0,0.0,0.0,0.0,0.0,0.0,0.0,0.0,0.0,0.0,0.0,0.0,0.0,0.0,0.0,0.0,0.0,0.0,0.0,0.0,0.0,0.0,1.6570396423339844,-3.1238159592008437,0.01128104232315886,-3.118145451381282,0.005191559437662363,0.010324453935027122,0.0
527,5,-1.7279264284297824e-05,1.8607546735438518e-05,1.7538530300953425e-05,-0.0029936800710856915,-0.003697349224239588,-0.006166981998831034,0.0,0.0,0.0,0.0,0.0,0.0,0.0,0.0,0.0,-0.004399177152663469,0.0030659842304885387,-0.0,0.0,0.0,0.0,0.0,0.0,0.0,0.0,0.0,0.0,0.0,0.0,0.0,0.0,0.0,0.0,0.0,0.0,0.0,0.0,0.0,0.0,0.0,1.6755647659301758,-3.12514907963141,0.011701773336230667,-3.117561573142231,-0.01237878855317831,-0.013662767596542835,0.0
532,5,2.3738086383673362e-05,1.862879616965074e-05,1.5477160559385084e-05,0.003724610200151801,-0.001481489627622068,-0.002219428773969412,0.0,0.0,0.0,0.0,0.0,0.0,0.0,0.0,0.0,-0.004399177152663469,0.0030659842304885387,-0.0,0.0,0.0,0.0,0.0,0.0,0.0,0.0,0.0,0.0,0.0,0.0,0.0,0.0,0.0,0.0,0.0,0.0,0.0,0.0,0.0,0.0,0.0,1.6755647659301758,-3.124060815166086,0.010963243951146904,-3.1177587121073365,-0.01237878855317831,-0.013662767596542835,0.0
537,5,1.142596488534764e-06,1.1951607120863628e-05,1.747511669236701e-05,-0.0012216147733852267,0.0002086668973788619,-0.0011275260476395488,0.0,0.0,0.0,0.0,0.0,0.0,0.0,0.0,0.0,0.0018315290799364448,0.003510395297780633,-0.0,0.0,0.0,0.0,0.0,0.0,0.0,0.0,0.0,0.0,0.0,0.0,0.0,0.0,0.0,0.0,0.0,0.0,0.0,0.0,0.0,0.0,0.0,1.666836142539978,-3.124912396071255,0.010622262380071433,-3.1174809199808076,-0.014099354855716228,0.005658676382154226,0.0
542,5,2.177455826313235e-05,2.1487696812982904e-06,4.37986864199047e-06,0.001987189520150423,0.001259807264432311,0.0011204192414879799,0.0,0.0,0.0,0.0,0.0,0.0,0.0,0.0,0.0,0.0018315290799364448,0.003510395297780633,-0.0,0.0,0.0,0.0,0.0,0.0,0.0,0.0,0.0,0.0,0.0,0.0,0.0,0.0,0.0,0.0,0.0,0.0,0.0,0.0,0.0,0.0,0.0,1.666836142539978,-3.1260941238380995,0.012291605551519355,-3.117882727099635,-0.014099354855716228,0.005658676382154226,0.0
547,5,1.6127094568219036e-05,1.3964893696538638e-05,3.899992861988721e-06,0.00011718015593942255,-0.0009140119655057788,0.0005057528614997864,0.0,0.0,0.0,0.0,0.0,0.0,0.0,0.0,0.0,-0.001540701137855649,0.0019049004185944796,-0.0,0.0,0.0,0.0,0.0,0.0,0.0,0.0,0.0,0.0,0.0,0.0,0.0,0.0,0.0,0.0,0.0,0.0,0.0,0.0,0.0,0.0,0.0,1.649916648864746,-3.1248294735465607,0.011264006472758156,-3.1175471866263735,-0.007573304232209921,-0.004711819346994162,-0.0
552,5,4.5061435230309144e-05,-1.6921614587772638e-05,8.30896260595182e-06,0.0035189930349588394,0.003340776078402996,-0.0003267752763349563,0.0,0.0,0.0,0.0,0.0,0.0,0.0,0.0,0.0,-0.001540701137855649,0.0019049004185944796,-0.0,0.0,0.0,0.0,0.0,0.0,0.0,0.0,0.0,0.0,0.0,0.0,0.0,0.0,0.0,0.0,0.0,0.0,0.0,0.0,0.0,0.0,0.0,1.649916648864746,-3.122352958454528,0.009411356314223596,-3.1178028431393074,-0.007573304232209921,-0.004711819346994162,-0.0
557,5,4.908502887701616e-06,2.3102626073523425e-05,4.671671922551468e-05,-0.0034107547253370285,-0.003466598456725478,-0.00473964074626565,0.0,0.0,0.0,0.0,0.0,0.0,0.0,0.0,0.0,-0.0040635233744978905,0.003330238163471222,-0.0,0.0,0.0,0.0,0.0,0.0,0.0,0.0,0.0,0.0,0.0,0.0,0.0,0.0,0.0,0.0,0.0,0.0,0.0,0.0,0.0,0.0,0.0,1.6755752563476562,-3.1246175455450222,0.010422090143373879,-3.117143976958819,-0.013445802964270115,-0.01262039877474308,0.0
562,5,-2.092597605951596e-05,-8.863927178026643e-06,-2.56662297033472e-05,-0.004464439116418362,0.0024493469391018152,0.006790097337216139,0.0,0.0,0.0,0.0,0.0,0.0,0.0,0.0,0.0,-0.0040635233744978905,0.003330238163471222,-0.0,0.0,0.0,0.0,0.0,0.0,0.0,0.0,0.0,0.0,0.0,0.0,0.0,0.0,0.0,0.0,0.0,0.0,0.0,0.0,0.0,0.0,0.0,1.6755752563476562,-3.1260956134395372,0.0126793128219735,-3.117777738787835,-0.013445802964270115,-0.01262039877474308,0.0
567,5,1.1648459803836886e-05,-1.5107348190213088e-05,-1.1103607903351076e-05,0.002123156562447548,0.0017289493698626757,0.0009685243130661547,0.0,0.0,0.0,0.0,0.0,0.0,0.0,0.0,0.0,-0.002969225635752082,-0.004169439896941185,-0.0,0.0,0.0,0.0,0.0,0.0,0.0,0.0,0.0,0.0,0.0,0.0,0.0,0.0,0.0,0.0,0.0,0.0,0.0,0.0,0.0,0.0,0.0,1.6776608228683472,-3.1233284148332867,0.010693397449495693,-3.117846029085113,0.01685507223010063,-0.009233253076672554,0.0
572,5,1.5454075992238359e-06,-6.745757218595827e-06,-2.9505785278161056e-05,-0.001439579646103084,-0.0013525745598599315,0.0018197958124801517,0.0,0.0,0.0,0.0,0.0,0.0,0.0,0.0,0.0,-0.002969225635752082,-0.004169439896941185,-0.0,0.0,0.0,0.0,0.0,0.0,0.0,0.0,0.0,0.0,0.0,0.0,0.0,0.0,0.0,0.0,0.0,0.0,0.0,0.0,0.0,0.0,0.0,1.6776608228683472,-3.1247984973087632,0.012668841671730326,-3.1180882679833264,0.01685507223010063,-0.009233253076672554,0.0
577,5,4.1346534999320284e-05,-1.497174525866285e-05,-4.371975956019014e-05,0.004200303461402655,0.0004460887867026031,0.0024335950147360563,0.0,0.0,0.0,0.0,0.0,0.0,0.0,0.0,0.0,0.001650744117796421,-0.0013587363064289093,-0.0,0.0,0.0,0.0,0.0,0.0,0.0,0.0,0.0,0.0,0.0,0.0,0.0,0.0,0.0,0.0,0.0,0.0,0.0,0.0,0.0,0.0,0.0,1.6457408666610718,-3.122923465622634,0.011577089883758636,-3.1181003574551065,0.005388250574469566,0.005035578738898039,0.0
583,5,4.1346534999320284e-05,-1.497174525866285e-05,-4.371975956019014e-05,0.004200303461402655,0.0004460887867026031,0.0024335950147360563,0.0,0.0,0.0,0.0,0.0,0.0,0.0,0.0,0.0,0.001650744117796421,-0.0013587363064289093,-0.0,0.0,0.0,0.0,0.0,0.0,0.0,0.0,0.0,0.0,0.0,0.0,0.0,0.0,0.0,0.0,0.0,0.0,0.0,0.0,0.0,0.0,0.0,1.6457408666610718,-3.122923465622634,0.011577089883758636,-3.1181003574551065,0.005388250574469566,0.005035578738898039,0.0
588,5,2.9781920602545142e-05,-1.7692724213702604e-05,-4.9737125664250925e-05,0.0020165995229035616,0.0038266503252089024,0.006101076956838369,0.0,0.0,0.0,0.0,0.0,0.0,0.0,0.0,0.0,0.001650744117796421,-0.0013587363064289093,-0.0,0.0,0.0,0.0,0.0,0.0,0.0,0.0,0.0,0.0,0.0,0.0,0.0,0.0,0.0,0.0,0.0,0.0,0.0,0.0,0.0,0.0,0.0,1.6457408666610718,-3.124274571931057,0.011387980301851564,-3.1180132260337787,0.005388250574469566,0.005035578738898039,0.0
593,5,-2.729294124037551e-07,2.797442448354559e-06,-1.8897651898441836e-05,-0.002799942158162594,-0.0009281597449444234,-0.0012603061040863395,0.0,0.0,0.0,0.0,0.0,0.0,0.0,0.0,0.0,-0.004666986875236034,0.0019203550182282925,-0.0,0.0,0.0,0.0,0.0,0.0,0.0,0.0,0.0,0.0,0.0,0.0,0.0,0.0,0.0,0.0,0.0,0.0,0.0,0.0,0.0,0.0,0.0,1.6700478792190552,-3.125380798719772,0.011843053779862807,-3.117931122906996,-0.007727826479822397,-0.014446784742176533,0.0
598,5,2.6117884772247635e-05,-1.797566255845595e-05,-1.099873952625785e-05,0.0020469208247959614,0.0021215088199824095,-0.0014519919641315937,0.0,0.0,0.0,0.0,0.0,0.0,0.0,0.0,0.0,-0.004666986875236034,0.0019203550182282925,-0.0,0.0,0.0,0.0,0.0,0.0,0.0,0.0,0.0,0.0,0.0,0.0,0.0,0.0,0.0,0.0,0.0,0.0,0.0,0.0,0.0,0.0,0.0,1.6700478792190552,-3.1236607278010093,0.010328943814613668,-3.117845667679218,-0.007727826479822397,-0.014446784742176533,0.0
603,5,1.785895619832445e-05,-7.979129804880358e-06,1.9361477825441398e-05,-0.0001723031746223569,-0.00035098049556836486,-0.004224022850394249,0.0,0.0,0.0,0.0,0.0,0.0,0.0,0.0,0.0,-0.0026236812118440866,0.0019599217921495438,-0.0,0.0,0.0,0.0,0.0,0.0,0.0,0.0,0.0,0.0,0.0,0.0,0.0,0.0,0.0,0.0,0.0,0.0,0.0,0.0,0.0,0.0,0.0,1.6561496257781982,-3.1243225759364797,0.011212379866690925,-3.1180383137348495,-0.007821470499038696,-0.008054123260080814,0.0
608,5,-1.3026492524659261e-06,-8.935364348872099e-06,-1.1086930499004666e-05,-0.0023683137260377407,-2.5644058041507378e-05,0.00196419982239604,0.0,0.0,0.0,0.0,0.0,0.0,0.0,0.0,0.0,-0.0026236812118440866,0.0019599217921495438,-0.0,0.0,0.0,0.0,0.0,0.0,0.0,0.0,0.0,0.0,0.0,0.0,0.0,0.0,0.0,0.0,0.0,0.0,0.0,0.0,0.0,0.0,0.0,1.6561496257781982,-3.1250047685359577,0.012022670274852069,-3.117783469368185,-0.007821470499038696,-0.008054123260080814,0.0
613,5,5.93915865465533e-06,1.2720355471174116e-06,-3.0272406092990423e-06,-7.830859249224886e-05,-0.0012351456098258495,-0.00018148284289054573,0.0,0.0,0.0,0.0,0.0,0.0,0.0,0.0,0.0,1.549682201584801e-05,-0.0022353194653987885,-0.0,0.0,0.0,0.0,0.0,0.0,0.0,0.0,0.0,0.0,0.0,0.0,0.0,0.0,0.0,0.0,0.0,0.0,0.0,0.0,0.0,0.0,0.0,1.6498271226882935,-3.125083867527835,0.012091566018779575,-3.117869486683757,0.008886476047337055,4.739032010547817e-05,0.0
618,5,-3.2160601222130936e-06,1.6313228115905076e-05,1.2987399713892955e-05,-0.0011299496982246637,-0.002299001207575202,-0.001994349993765354,0.0,0.0,0.0,0.0,0.0,0.0,0.0,0.0,0.0,1.549682201584801e-05,-0.0022353194653987885,-0.0,0.0,0.0,0.0,0.0,0.0,0.0,0.0,0.0,0.0,0.0,0.0,0.0,0.0,0.0,0.0,0.0,0.0,0.0,0.0,0.0,0.0,0.0,1.6498271226882935,-3.125370518403755,0.011512319498509104,-3.1173326350156074,0.008886476047337055,4.739032010547817e-05,0.0
623,5,1.3929516740063264e-07,-3.934985215892084e-06,-3.592253051465377e-05,-4.9337239033775404e-05,0.001510184956714511,0.005071451887488365,0.0,0.0,0.0,0.0,0.0,0.0,0.0,0.0,0.0,0.0028449033852666616,-0.0010684324661269784,-0.0,0.0,0.0,0.0,0.0,0.0,0.0,0.0,0.0,0.0,0.0,0.0,0.0,0.0,0.0,0.0,0.0,0.0,0.0,0.0,0.0,0.0,0.0,1.6520118713378906,-3.1250965921295872,0.012369399307385277,-3.118239533743871,0.00425314623862505,0.008711404167115688,0.0
628,5,4.020685810246505e-05,-2.148414023395162e-05,-3.7892208638368174e-05,0.004788372665643692,0.00270997267216444,0.0022649418096989393,0.0,0.0,0.0,0.0,0.0,0.0,0.0,0.0,0.0,0.0028449033852666616,-0.0010684324661269784,-0.0,0.0,0.0,0.0,0.0,0.0,0.0,0.0,0.0,0.0,0.0,0.0,0.0,0.0,0.0,0.0,0.0,0.0,0.0,0.0,0.0,0.0,0.0,1.6520118713378906,-3.1231520324396316,0.010698350508242244,-3.1180903391110424,0.00425314623862505,0.008711404167115688,0.0
633,5,1.5835716112633236e-05,-3.1138374652073253e-06,8.70663825480733e-06,-0.0010091881267726421,-0.0011204472975805402,-0.004685884807258844,0.0,0.0,0.0,0.0,0.0,0.0,0.0,0.0,0.0,-0.0032971170730888844,0.004485120065510273,-0.0,0.0,0.0,0.0,0.0,0.0,0.0,0.0,0.0,0.0,0.0,0.0,0.0,0.0,0.0,0.0,0.0,0.0,0.0,0.0,0.0,0.0,0.0,1.682133436203003,-3.123615489949014,0.010310842978727435,-3.1176247652753144,-0.018179528415203094,-0.01028020866215229,0.0
638,5,1.637042805668898e-05,2.0793941075680777e-05,3.066506906179711e-05,-0.0003395096864551306,-0.003317112335935235,-0.004509365651756525,0.0,0.0,0.0,0.0,0.0,0.0,0.0,0.0,0.0,-0.0032971170730888844,0.004485120065510273,-0.0,0.0,0.0,0.0,0.0,0.0,0.0,0.0,0.0,0.0,0.0,0.0,0.0,0.0,0.0,0.0,0.0,0.0,0.0,0.0,0.0,0.0,0.0,1.682133436203003,-3.123676783621395,0.010514255726009267,-3.1174257731141646,-0.018179528415203094,-0.01028020866215229,0.0
644,5,2.4407720047747716e-05,-2.8326183382887393e-05,-3.1090272386791185e-05,0.0008286709780804813,0.004567570053040981,0.005606894847005606,0.0,0.0,0.0,0.0,0.0,0.0,0.0,0.0,0.0,0.004080348648130894,-0.0002952916547656059,-0.0,0.0,0.0,0.0,0.0,0.0,0.0,0.0,0.0,0.0,0.0,0.0,0.0,0.0,0.0,0.0,0.0,0.0,0.0,0.0,0.0,0.0,0.0,1.659881830215454,-3.123339739071956,0.010913930703906893,-3.1183914793461853,0.0011810726718977094,0.01255396194756031,0.0
649,5,2.9822955184499733e-05,-2.4892911824281327e-05,7.107365149749967e-07,0.0009812966454774141,0.001415035454556346,-0.001573363202624023,0.0,0.0,0.0,0.0,0.0,0.0,0.0,0.0,0.0,0.004080348648130894,-0.0002952916547656059,-0.0,0.0,0.0,0.0,0.0,0.0,0.0,0.0,0.0,0.0,0.0,0.0,0.0,0.0,0.0,0.0,0.0,0.0,0.0,0.0,0.0,0.0,0.0,1.659881830215454,-3.1238925872675694,0.011034791784167946,-3.117861957486427,0.0011810726718977094,0.01255396194756031,0.0
654,5,1.2884435818705242e-05,-3.075560016441159e-05,-3.137357998639345e-05,-0.0016401036409661174,0.001269536791369319,0.0032207726035267115,0.0,0.0,0.0,0.0,0.0,0.0,0.0,0.0,0.0,-0.0017863755347207189,0.0009709774167276919,-0.0,0.0,0.0,0.0,0.0,0.0,0.0,0.0,0.0,0.0,0.0,0.0,0.0,0.0,0.0,0.0,0.0,0.0,0.0,0.0,0.0,0.0,0.0,1.6438190937042236,-3.1248608278630456,0.011368301803507088,-3.1179422787029356,-0.0038460444193333387,-0.005442956928163767,0.0
659,5,1.9424256606725976e-05,-2.064878754026722e-05,-2.6240970328217372e-05,0.00012873705418314785,-0.0007050029817037284,0.0006723960395902395,0.0,0.0,0.0,0.0,0.0,0.0,0.0,0.0,0.0,-0.0017863755347207189,0.0009709774167276919,-0.0,0.0,0.0,0.0,0.0,0.0,0.0,0.0,0.0,0.0,0.0,0.0,0.0,0.0,0.0,0.0,0.0,0.0,0.0,0.0,0.0,0.0,0.0,1.6438190937042236,-3.1244291631017544,0.010621743174773763,-3.117820026151772,-0.0038460444193333387,-0.005442956928163767,0.0
664,5,4.661389084503753e-06,4.7232533688656986e-06,-1.730584517645184e-05,-0.0017200493020936847,-0.00332664605230093,-0.0008032566984184086,0.0,0.0,0.0,0.0,0.0,0.0,0.0,0.0,0.0,0.0008360986830666661,0.00015042000450193882,-0.0,0.0,0.0,0.0,0.0,0.0,0.0,0.0,0.0,0.0,0.0,0.0,0.0,0.0,0.0,0.0,0.0,0.0,0.0,0.0,0.0,0.0,0.0,1.6328003406524658,-3.125069184252792,0.012264890642508117,-3.1178571844645164,-0.0005918210954405367,0.0025304576847702265,0.0
669,5,2.754478009592276e-05,-1.527754466223996e-05,-3.135834413114935e-05,0.002057987032458186,0.0010694373631849885,0.0013649971224367619,0.0,0.0,0.0,0.0,0.0,0.0,0.0,0.0,0.0,0.0008360986830666661,0.00015042000450193882,-0.0,0.0,0.0,0.0,0.0,0.0,0.0,0.0,0.0,0.0,0.0,0.0,0.0,0.0,0.0,0.0,0.0,0.0,0.0,0.0,0.0,0.0,0.0,1.6328003406524658,-3.1231382271849295,0.011287013411764796,-3.1179040010322163,-0.0005918210954405367,0.0025304576847702265,0.0
674,5,4.2996234697056934e-05,-3.906100391759537e-05,-5.6433837016811594e-05,0.002677369397133589,0.00328178983181715,0.0035550580359995365,0.0,0.0,0.0,0.0,0.0,0.0,0.0,0.0,0.0,-0.0013388528022915125,0.0019799990113824606,-0.0,0.0,0.0,0.0,0.0,0.0,0.0,0.0,0.0,0.0,0.0,0.0,0.0,0.0,0.0,0.0,0.0,0.0,0.0,0.0,0.0,0.0,0.0,1.6497893333435059,-3.1221787077204612,0.010951085213389618,-3.118382579728916,-0.007871267385780811,-0.00409420533105731,0.0
679,5,-1.6387224604841322e-05,1.4512656889564823e-05,8.69898394739721e-06,-0.006055067293345928,-0.005116123240441084,-0.006393915507942438,0.0,0.0,0.0,0.0,0.0,0.0,0.0,0.0,0.0,-0.0013388528022915125,0.0019799990113824606,-0.0,0.0,0.0,0.0,0.0,0.0,0.0,0.0,0.0,0.0,0.0,0.0,0.0,0.0,0.0,0.0,0.0,0.0,0.0,0.0,0.0,0.0,0.0,1.6497893333435059,-3.125184155781832,0.011839455637000387,-3.117616837704797,-0.007871267385780811,-0.00409420533105731,0.0
684,5,2.0130879420321435e-05,-1.539748154755216e-05,-3.198400008841418e-05,0.001960145542398095,0.0015427673934027553,0.0023243918549269438,0.0,0.0,0.0,0.0,0.0,0.0,0.0,0.0,0.0,0.0060921660624444485,-0.005544725805521011,-0.0,0.0,0.0,0.0,0.0,0.0,0.0,0.0,0.0,0.0,0.0,0.0,0.0,0.0,0.0,0.0,0.0,0.0,0.0,0.0,0.0,0.0,0.0,1.7061054706573486,-3.1233237177946553,0.01080690265801914,-3.1176436160340217,0.022794369608163834,0.019265543669462204,0.0
689,5,1.847599560278468e-05,-2.690362998691853e-05,-4.762698517879471e-05,0.0005854721530340612,0.0019978447817265987,0.0028069152031093836,0.0,0.0,0.0,0.0,0.0,0.0,0.0,0.0,0.0,0.0060921660624444485,-0.005544725805521011,-0.0,0.0,0.0,0.0,0.0,0.0,0.0,0.0,0.0,0.0,0.0,0.0,0.0,0.0,0.0,0.0,0.0,0.0,0.0,0.0,0.0,0.0,0.0,1.7061054706573486,-3.1238979288692863,0.012171296048797933,-3.1182024335698206,0.022794369608163834,0.019265543669462204,0.0
694,5,3.3609423553571105e-05,-5.03804039908573e-06,-1.1792250006692484e-05,0.00205020047724247,-0.0018247328698635101,-0.003177402075380087,0.0,0.0,0.0,0.0,0.0,0.0,0.0,0.0,0.0,0.002223063027486205,0.0019760706927627325,-0.0,0.0,0.0,0.0,0.0,0.0,0.0,0.0,0.0,0.0,0.0,0.0,0.0,0.0,0.0,0.0,0.0,0.0,0.0,0.0,0.0,0.0,0.0,1.6539572477340698,-3.1241713099019406,0.010550841995355897,-3.1179002807139806,-0.00787548441439867,0.0068152835592627525,0.0
699,5,2.2585076294490136e-05,1.9567545678000897e-05,2.7514326575328596e-05,-0.0005028417217545211,-0.0036825635470449924,-0.0059877499006688595,0.0,0.0,0.0,0.0,0.0,0.0,0.0,0.0,0.0,0.002223063027486205,0.0019760706927627325,-0.0,0.0,0.0,0.0,0.0,0.0,0.0,0.0,0.0,0.0,0.0,0.0,0.0,0.0,0.0,0.0,0.0,0.0,0.0,0.0,0.0,0.0,0.0,1.6539572477340698,-3.124100918519981,0.010576960084020122,-3.1176044661215716,-0.00787548441439867,0.0068152835592627525,0.0
705,5,1.9018932562175905e-06,2.5697003366076387e-05,4.508923666435294e-05,-0.002683118684217334,-0.002208560239523649,-0.004504089243710041,0.0,0.0,0.0,0.0,0.0,0.0,0.0,0.0,0.0,0.002223063027486205,0.0019760706927627325,-0.0,0.0,0.0,0.0,0.0,0.0,0.0,0.0,0.0,0.0,0.0,0.0,0.0,0.0,0.0,0.0,0.0,0.0,0.0,0.0,0.0,0.0,0.0,1.6539572477340698,-3.125354948550952,0.01090100279635431,-3.117397684640595,-0.00787548441439867,0.0068152835592627525,0.0
710,5,-4.53822894996847e-06,1.9482937204884365e-05,1.4172360351949465e-05,-0.0018460621358826756,-0.00013773614773526788,0.0019083893857896328,0.0,0.0,0.0,0.0,0.0,0.0,0.0,0.0,0.0,0.002735695568844676,-0.002510356018319726,-0.0,0.0,0.0,0.0,0.0,0.0,0.0,0.0,0.0,0.0,0.0,0.0,0.0,0.0,0.0,0.0,0.0,0.0,0.0,0.0,0.0,0.0,0.0,1.6612352132797241,-3.1251700018431796,0.011196042306578754,-3.1172940859752063,0.010048847645521164,0.008423768915235996,0.0
715,5,-5.1300376071594656e-06,-1.8546026012700167e-06,-2.1791403923998587e-05,-0.0008094419026747346,0.0025054102297872305,0.005079007241874933,0.0,0.0,0.0,0.0,0.0,0.0,0.0,0.0,0.0,0.002735695568844676,-0.002510356018319726,-0.0,0.0,0.0,0.0,0.0,0.0,0.0,0.0,0.0,0.0,0.0,0.0,0.0,0.0,0.0,0.0,0.0,0.0,0.0,0.0,0.0,0.0,0.0,1.6612352132797241,-3.125330803503592,0.012699005456902421,-3.11801548764154,0.010048847645521164,0.008423768915235996,0.0
720,5,3.223305247956887e-05,-4.1616964153945446e-05,-4.975221963832155e-05,0.004159793723374605,0.0057736472226679325,0.0053869010880589485,0.0,0.0,0.0,0.0,0.0,0.0,0.0,0.0,0.0,-0.0030704783275723457,-0.0007687702891416848,-0.0,0.0,0.0,0.0,0.0,0.0,0.0,0.0,0.0,0.0,0.0,0.0,0.0,0.0,0.0,0.0,0.0,0.0,0.0,0.0,0.0,0.0,0.0,1.652543306350708,-3.1233078508205994,0.011121988555731674,-3.1181445045692824,0.0030612533446401358,-0.009405160322785378,0.0
725,5,8.911641089071054e-06,-1.774374868546147e-05,-3.799247497227043e-05,-0.0011346515966579318,-0.0005553268711082637,0.0007435909938067198,0.0,0.0,0.0,0.0,0.0,0.0,0.0,0.0,0.0,-0.0030704783275723457,-0.0007687702891416848,-0.0,0.0,0.0,0.0,0.0,0.0,0.0,0.0,0.0,0.0,0.0,0.0,0.0,0.0,0.0,0.0,0.0,0.0,0.0,0.0,0.0,0.0,0.0,1.652543306350708,-3.1240433363900593,0.011688465336014045,-3.118135327840348,0.0030612533446401358,-0.009405160322785378,0.0
