timestamp,dt,pos_x,pos_y,pos_z,vel_x,vel_y,vel_z,roll,pitch,yaw,agv_x,agv_y,agv_z,x_ref,y_ref,z_ref,roll_ref,pitch_ref,yaw_ref,x_vel_ref,y_vel_ref,z_vel_ref,x_torque,y_torque,z_torque,w0,w1,w2,w3,u0,u1,u2,u3,m0req,m1req,m2req,m3req,thrust0,thrust1,thrust2,thrust3,thrust_ref,roll_vicon,pitch_vicon,yaw_vicon,acc_x,acc_y,acc_z
5,5,0.0,0.0,0.0,0.0010078013874590397,-0.0009767701849341393,-0.00203624926507473,0.01763739064335823,0.02644665353000164,0.010980277322232723,0.0025927971582859755,0.004890811629593372,-0.0021289424039423466,0.0,0.0,0.0,0.001198080717585981,0.0009508795337751508,-0.0,0.0,0.0,0.0,-0.005284769460558891,-0.007920903153717518,0.0011600451543927193,1495.0,1495.0,1495.0,1495.0,0.0,0.0,0.0,0.0,0.0,0.0,0.0,0.0,1495.0,1495.0,1495.0,1495.0,1.6494122743606567,-0.06455458436564207,0.06316171874041192,0.07517127227167117,-0.0037792553193867207,0.003662888193503022,0.0
29,24,0.0,0.0,0.0,0.0011568560730665922,-0.002426120452582836,0.0020856247283518314,0.01763739064335823,0.02644665353000164,0.010980277322232723,0.0025927971582859755,0.004890811629593372,-0.0021289424039423466,0.0,0.0,0.0,0.001198080717585981,0.0009508795337751508,-0.0,0.0,0.0,0.0,-0.005284769460558891,-0.007920903153717518,0.0011600451543927193,1495.0,1495.0,1495.0,1495.0,0.0,0.0,0.0,0.0,0.0,0.0,0.0,0.0,1495.0,1495.0,1495.0,1495.0,1.6494122743606567,-0.06516345704171692,0.06282087764188418,0.07540899890575457,-0.0037792553193867207,0.003662888193503022,0.0
35,6,0.0,0.0,0.0,-0.0018785640131682158,-0.000627761532086879,-0.0008618119172751904,0.017628416419029236,0.026351485401391983,0.010966428555548191,0.002760443137958646,-0.007145650219172239,-0.00023638224229216576,0.0,0.0,0.0,0.0007699686684645712,-0.001772398129105568,-0.0,0.0,0.0,0.0,-0.004928073845803738,-0.007617110386490822,0.0011020372621715069,1495.0,1495.0,1495.0,1495.0,0.0,0.0,0.0,0.0,0.0,0.0,0.0,0.0,1495.0,1495.0,1495.0,1495.0,1.6494700908660889,-0.06473807935857248,0.06372320573909526,0.07441271171972037,0.007044615224003792,0.0023541057016700506,0.0
56,21,0.0,0.0,0.0,-0.00290129566565156,0.00043699488742277026,-0.0016383958281949162,0.017628416419029236,0.026351485401391983,0.010966428555548191,0.002760443137958646,-0.007145650219172239,-0.00023638224229216576,0.0,0.0,0.0,0.0007699686684645712,-0.001772398129105568,-0.0,0.0,0.0,0.0,-0.004928073845803738,-0.007617110386490822,0.0011020372621715069,1495.0,1495.0,1495.0,1495.0,0.0,0.0,0.0,0.0,0.0,0.0,0.0,0.0,1495.0,1495.0,1495.0,1495.0,1.6494700908660889,-0.0648764766161886,0.06338614320783613,0.07497056824536914,0.007044615224003792,0.0023541057016700506,0.0
61,5,0.0,0.0,0.0,-0.0007539612124674022,0.0011880259262397885,0.001561774406582117,0.017628416419029236,0.026351485401391983,0.010966428555548191,0.002760443137958646,-0.007145650219172239,-0.00023638224229216576,0.0,0.0,0.0,0.0007699686684645712,-0.001772398129105568,-0.0,0.0,0.0,0.0,-0.004928073845803738,-0.007617110386490822,0.0011020372621715069,1495.0,1495.0,1495.0,1495.0,0.0,0.0,0.0,0.0,0.0,0.0,0.0,0.0,1495.0,1495.0,1495.0,1495.0,1.6494700908660889,-0.06484293042885536,0.06283156433968652,0.07558606172396166,0.007044615224003792,0.0023541057016700506,0.0
66,5,0.0,0.0,0.0,-0.0026885266415774822,0.0010619255481287837,-0.0029268874786794186,0.01763586513698101,0.026393748819828033,0.010963465087115765,-0.0004615929792635143,-0.0008028569864109159,-0.002173616085201502,0.0,0.0,0.0,-0.0014574624365195632,-0.00071150396252051,-0.0,0.0,0.0,0.0,-0.004977969918400049,-0.007616625167429447,0.0011066176230087876,13777.0,14056.0,14186.0,12253.0,0.4244042932987213,0.44283798336982727,0.4515651762485504,0.33060482144355774,0.0,0.0,0.0,0.0,13768.0,14066.0,14176.0,12263.0,1.6491172313690186,-0.06524468466323291,0.06309595194200965,0.07505234047897434,0.002827354473993182,-0.004455097019672394,0.0
71,5,1.4427197129407432e-05,-2.9268394428072497e-06,-4.460000491235405e-05,0.0006558529566973448,0.0007759909494780004,0.004181245341897011,0.01763586513698101,0.026393748819828033,0.010963465087115765,-0.0004615929792635143,-0.0008028569864109159,-0.002173616085201502,0.0,0.0,0.0,-0.0014574624365195632,-0.00071150396252051,-0.0,0.0,0.0,0.0,-0.004977969918400049,-0.007616625167429447,0.0011066176230087876,13777.0,14056.0,14186.0,12253.0,0.4244042932987213,0.44283798336982727,0.4515651762485504,0.33060482144355774,0.0,0.0,0.0,0.0,13768.0,14066.0,14176.0,12263.0,1.6491172313690186,-0.06421226251642859,0.06260576945692921,0.07498965985600234,0.002827354473993182,-0.004455097019672394,0.0
76,5,3.422207373660058e-05,-1.5785424693604e-05,-5.071596024208702e-05,0.0026377264875918627,0.0018534266855567694,0.0024064129684120417,0.01763356477022171,0.02638641558587551,0.010948386043310165,-0.0017732966225594282,0.005255752243101597,0.001055561238899827,0.0,0.0,0.0,-0.000957287207711488,0.0006389259360730648,-0.0,0.0,0.0,0.0,-0.005094443913549185,-0.008333304896950722,0.0011111642234027386,13771.0,14081.0,14253.0,12153.0,0.4240194857120514,0.444528728723526,0.45568132400512695,0.3253268003463745,0.0,0.0,0.0,0.0,13775.0,14080.0,14248.0,12155.0,1.6490529775619507,-0.06500422162571134,0.06254585435930984,0.07536448993369393,-0.0025388486683368683,-0.002926073968410492,0.0
81,5,1.3078131814836524e-05,-7.471649496437749e-06,-5.120145033288281e-06,-0.0014821825316175818,-0.0002562824229244143,-0.004508932586759329,0.01763356477022171,0.02638641558587551,0.010948386043310165,-0.0017732966225594282,0.005255752243101597,0.001055561238899827,0.0,0.0,0.0,-0.000957287207711488,0.0006389259360730648,-0.0,0.0,0.0,0.0,-0.005094443913549185,-0.008333304896950722,0.0011111642234027386,13771.0,14081.0,14253.0,12153.0,0.4240194857120514,0.444528728723526,0.45568132400512695,0.3253268003463745,0.0,0.0,0.0,0.0,13775.0,14080.0,14248.0,12155.0,1.6490529775619507,-0.06542169196213808,0.06349009944828486,0.07515709808344481,-0.0025388486683368683,-0.002926073968410492,0.0
86,5,2.628872425702866e-05,-2.8360498163237935e-06,-2.639709782670252e-05,0.0009923981269821525,-0.000658784934785217,0.0007496613543480635,0.017631713300943375,0.026352033019065857,0.010958829894661903,0.00023409430286847055,-0.003965605050325394,0.0007948278798721731,0.0,0.0,0.0,0.0003010201035067439,-0.001380913658067584,-0.0,0.0,0.0,0.0,-0.005031006410717964,-0.008513661101460457,0.001134064164943993,13756.0,14092.0,14268.0,12140.0,0.4230460226535797,0.44521382451057434,0.457074910402298,0.32413533329963684,0.0,0.0,0.0,0.0,13750.0,14096.0,14240.0,12174.0,1.64873206615448,-0.06541436155241674,0.06331890220182454,0.07516603726296879,0.005486158654093742,0.00091992859961465,0.0
93,7,3.21073348459322e-05,1.4998793631093577e-05,-2.9275770430103876e-05,-0.0005318615003488958,-0.0012091296957805753,-0.0010659592226147652,0.017631713300943375,0.026352033019065857,0.010958829894661903,0.00023409430286847055,-0.003965605050325394,0.0007948278798721731,0.0,0.0,0.0,0.0015104934573173523,-0.000457464688224718,-0.0,0.0,0.0,0.0,-0.005031006410717964,-0.008513661101460457,0.001134064164943993,13756.0,14092.0,14268.0,12140.0,0.4230460226535797,0.44521382451057434,0.457074910402298,0.32413533329963684,0.0,0.0,0.0,0.0,13762.0,14093.0,14271.0,12127.0,1.6489551067352295,-0.06543179534360466,0.06359847454673301,0.07484437354040052,0.0018176815938204527,0.004616745747625828,0.0
100,7,2.819768815243151e-05,7.150685632950626e-06,-2.7017624233849347e-05,-0.0006819022237323225,0.0004581210669130087,-0.0006973611889407039,0.017631713300943375,0.026352033019065857,0.010958829894661903,0.00023409430286847055,-0.003965605050325394,0.0007948278798721731,0.0,0.0,0.0,0.0015104934573173523,-0.000457464688224718,-0.0,0.0,0.0,0.0,-0.005031006410717964,-0.008513661101460457,0.001134064164943993,13756.0,14092.0,14268.0,12140.0,0.4230460226535797,0.44521382451057434,0.457074910402298,0.32413533329963684,0.0,0.0,0.0,0.0,13762.0,14093.0,14271.0,12127.0,1.6489551067352295,-0.06541285850398816,0.06344074986214673,0.07502536766046777,0.0018176815938204527,0.004616745747625828,0.0
105,5,4.674739466281608e-05,-4.4857342800241895e-06,-3.047812424483709e-05,0.001953203696757555,0.0015796187799423933,0.00013631547335535288,0.017631713300943375,0.026352033019065857,0.010958829894661903,0.00023409430286847055,-0.003965605050325394,0.0007948278798721731,0.0,0.0,0.0,0.0015104934573173523,-0.000457464688224718,-0.0,0.0,0.0,0.0,-0.005031006410717964,-0.008513661101460457,0.001134064164943993,13756.0,14092.0,14268.0,12140.0,0.4230460226535797,0.44521382451057434,0.457074910402298,0.32413533329963684,0.0,0.0,0.0,0.0,13762.0,14093.0,14271.0,12127.0,1.6489551067352295,-0.06565534533376693,0.0631150910015038,0.07522022348819118,0.0018176815938204527,0.004616745747625828,0.0
110,5,3.40461810992565e-05,-1.7603126252652146e-05,-7.949584687594324e-05,-0.0007428638637065887,0.0022059346083551645,0.005936652887612581,0.017650237306952477,0.026394540444016457,0.010967422276735306,0.001023386954329908,-0.004584361333400011,0.0015418129041790962,0.0,0.0,0.0,-0.0019427123479545116,0.0019048498943448067,-0.0,0.0,0.0,0.0,-0.005779791623353958,-0.0081550944596529,0.0010545847471803427,13811.0,14129.0,14173.0,12140.0,0.42659759521484375,0.44774460792541504,0.45064878463745117,0.3241262435913086,0.0,0.0,0.0,0.0,13829.0,14105.0,14205.0,12109.0,1.6518553495407104,-0.06657398343058357,0.06148634133914649,0.07551298801917332,-0.0075819967314600945,-0.005948241334408522,0.0
115,5,2.669933564902749e-05,4.53572010883363e-06,-3.724257476278581e-05,-0.001178767066448927,-0.0017742877826094627,-0.0026957315858453512,0.017650237306952477,0.026394540444016457,0.010967422276735306,0.001023386954329908,-0.004584361333400011,0.0015418129041790962,0.0,0.0,0.0,-0.0019427123479545116,0.0019048498943448067,-0.0,0.0,0.0,0.0,-0.005779791623353958,-0.0081550944596529,0.0010545847471803427,13811.0,14129.0,14173.0,12140.0,0.42659759521484375,0.44774460792541504,0.45064878463745117,0.3241262435913086,0.0,0.0,0.0,0.0,13829.0,14105.0,14205.0,12109.0,1.6518553495407104,-0.06448280842985564,0.06360982010909878,0.07489188373349046,-0.0075819967314600945,-0.005948241334408522,0.0
120,5,1.5390651242341846e-05,-1.1569511116249487e-05,-2.825484079949092e-05,-0.001828548964112997,0.0012229126878082752,-0.00215682084672153,0.017651405185461044,0.02638036012649536,0.010963632725179195,0.0007424765499308705,0.003787187859416008,-0.0008992335642687976,0.0,0.0,0.0,0.002184821292757988,-0.0010753029491752386,-0.0,0.0,0.0,0.0,-0.004873824771493673,-0.00793240126222372,0.0011707720113918185,13803.0,14020.0,14256.0,12174.0,0.42612770199775696,0.440433531999588,0.4563152492046356,0.3260786235332489,0.0,0.0,0.0,0.0,13866.0,14072.0,14208.0,12102.0,1.6491411924362183,-0.06497567953494922,0.06235496085194691,0.0755927544363737,0.004273064434528351,0.006678542122244835,0.0
125,5,2.363567728025373e-05,1.0939474123006221e-05,-2.6344390789745376e-05,0.0002579836000222713,-0.0022119132336229086,-0.0010919823544099927,0.017651405185461044,0.02638036012649536,0.010963632725179195,0.0007424765499308705,0.003787187859416008,-0.0008992335642687976,0.0,0.0,0.0,0.002184821292757988,-0.0010753029491752386,-0.0,0.0,0.0,0.0,-0.004873824771493673,-0.00793240126222372,0.0011707720113918185,13803.0,14020.0,14256.0,12174.0,0.42612770199775696,0.440433531999588,0.4563152492046356,0.3260786235332489,0.0,0.0,0.0,0.0,13866.0,14072.0,14208.0,12102.0,1.6491411924362183,-0.06485055910968056,0.06273440689100565,0.07496049692601994,0.004273064434528351,0.006678542122244835,0.0
130,5,4.125310078961775e-05,7.575505378554226e-07,-7.46745354263112e-05,0.002217284170910716,0.0003370655176695436,0.005362824071198702,0.017658419907093048,0.026357345283031464,0.011006759479641914,0.002697545802220702,-0.008028779178857803,0.003706414019688964,0.0,0.0,0.0,0.002733358647674322,0.00027631758712232113,-0.0,0.0,0.0,0.0,-0.004935399629175663,-0.008266263641417027,0.0011842872481793165,13926.0,14061.0,14186.0,12118.0,0.4342283010482788,0.4431699514389038,0.45157361030578613,0.3228834867477417,0.0,0.0,0.0,0.0,13781.0,14037.0,14250.0,12187.0,1.649061679840088,-0.06430682847461994,0.06252360380436839,0.07513026193613209,-0.0010979832150042057,0.008354896679520607,0.0
135,5,1.7328753529000096e-05,-1.4513829228235409e-05,-5.044693170930259e-05,-0.001984007889404893,0.0019673919305205345,-0.000762182695325464,0.017658419907093048,0.026357345283031464,0.011006759479641914,0.002697545802220702,-0.008028779178857803,0.003706414019688964,0.0,0.0,0.0,0.002733358647674322,0.00027631758712232113,-0.0,0.0,0.0,0.0,-0.004935399629175663,-0.008266263641417027,0.0011842872481793165,13926.0,14061.0,14186.0,12118.0,0.4342283010482788,0.4431699514389038,0.45157361030578613,0.3228834867477417,0.0,0.0,0.0,0.0,13781.0,14037.0,14250.0,12187.0,1.649061679840088,-0.0646666122252499,0.06282037240830222,0.07512919654973832,-0.0010979832150042057,0.008354896679520607,0.0
140,5,2.9048449505353346e-05,-8.233457265305333e-06,-3.661519076558761e-05,0.0006127603119239211,3.331210245960392e-05,-0.0019646817818284035,0.01765255257487297,0.026335498318076134,0.010996737517416477,0.003475576639175415,0.008751939982175827,-0.0009307261789217591,0.0,0.0,0.0,-0.002432354958727956,-0.0018425866728648543,-0.0,0.0,0.0,0.0,-0.00596596347168088,-0.007192142773419619,0.0010669883340597153,13903.0,14084.0,14107.0,12211.0,0.4326488971710205,0.4447336196899414,0.4462730884552002,0.32819974422454834,0.0,0.0,0.0,0.0,13894.0,14077.0,14158.0,12171.0,1.654097080230713,-0.06604698526675278,0.06324502721548675,0.07516202885742732,0.007344112265855074,-0.007457542233169079,0.0
145,5,3.6918070691172034e-05,-3.699221224451321e-06,-3.342906347825192e-05,0.0011894586496055126,-0.0005307835526764393,-0.0011682080803439021,0.01765255257487297,0.026335498318076134,0.010996737517416477,0.003475576639175415,0.008751939982175827,-0.0009307261789217591,0.0,0.0,0.0,-0.002432354958727956,-0.0018425866728648543,-0.0,0.0,0.0,0.0,-0.00596596347168088,-0.007192142773419619,0.0010669883340597153,13903.0,14084.0,14107.0,12211.0,0.4326488971710205,0.4447336196899414,0.4462730884552002,0.32819974422454834,0.0,0.0,0.0,0.0,13894.0,14077.0,14158.0,12171.0,1.654097080230713,-0.06587715100288018,0.06313472549169086,0.07506604255161227,0.007344112265855074,-0.007457542233169079,0.0
150,5,2.8648937586694956e-05,9.596800737199374e-06,-2.4865526938810945e-05,-0.000516512431204319,-0.0018078361172229052,-0.0014949075412005186,0.017674490809440613,0.026280250400304794,0.011014670133590698,0.0006404462037608027,0.0052128080278635025,6.798634422011673e-05,0.0,0.0,0.0,0.0006442503654398024,0.0011733007850125432,-0.0,0.0,0.0,0.0,-0.005978859029710293,-0.007259073201566935,0.0012132447445765138,13934.0,14052.0,14151.0,12161.0,0.4347270727157593,0.4425690174102783,0.4492190480232239,0.325340211391449,0.0,0.0,0.0,0.0,13921.0,14063.0,14140.0,12177.0,1.6497626304626465,-0.06536024209467592,0.06393746170028522,0.07427481087745919,-0.004664257634431124,0.0019700834527611732,0.0
155,5,3.615211244323291e-05,6.677064902760321e-06,-4.338410872151144e-05,0.0006937760626897216,-0.0003727660805452615,0.0016242667334154248,0.017674490809440613,0.026280250400304794,0.011014670133590698,0.0006404462037608027,0.0052128080278635025,6.798634422011673e-05,0.0,0.0,0.0,0.0006442503654398024,0.0011733007850125432,-0.0,0.0,0.0,0.0,-0.005978859029710293,-0.007259073201566935,0.0012132447445765138,13934.0,14052.0,14151.0,12161.0,0.4347270727157593,0.4425690174102783,0.4492190480232239,0.325340211391449,0.0,0.0,0.0,0.0,13921.0,14063.0,14140.0,12177.0,1.6497626304626465,-0.06502632220463563,0.06389399797507161,0.07503946190929671,-0.004664257634431124,0.0019700834527611732,0.0
160,5,6.14072778262198e-05,1.6868545571924187e-05,-4.365345375845209e-05,0.0033081299625337124,-0.0013720841379836202,0.000682028301525861,0.017657887190580368,0.026262706145644188,0.010991116985678673,0.0036492343060672283,-0.00960072036832571,-0.0003469683288130909,0.0,0.0,0.0,0.00046903337351977825,0.0007045235834084451,-0.0,0.0,0.0,0.0,-0.004522067494690418,-0.00792784709483385,0.0010970979928970337,13758.0,14022.0,14263.0,12218.0,0.42316046357154846,0.4405682384967804,0.45673492550849915,0.3285980522632599,0.0,0.0,0.0,0.0,13712.0,14312.0,14134.0,12169.0,1.6501439809799194,-0.06515018610597433,0.06320728342606573,0.07520102043542881,-0.0028013617265969515,0.0014346108073368669,0.0
166,5,3.6896341043757275e-05,7.138684168239706e-07,-3.780426413868554e-05,-0.0016180600505322218,0.001389727578498423,-0.00042909150943160057,0.017657887190580368,0.026262706145644188,0.010991116985678673,0.0036492343060672283,-0.00960072036832571,-0.0003469683288130909,0.0,0.0,0.0,0.00046903337351977825,0.0007045235834084451,-0.0,0.0,0.0,0.0,-0.004522067494690418,-0.00792784709483385,0.0010970979928970337,13758.0,14022.0,14263.0,12218.0,0.42316046357154846,0.4405682384967804,0.45673492550849915,0.3285980522632599,0.0,0.0,0.0,0.0,13712.0,14312.0,14134.0,12169.0,1.6501439809799194,-0.06522218745735951,0.0634040282926724,0.07432871341115262,-0.0028013617265969515,0.0014346108073368669,0.0
171,5,4.101113518117927e-05,9.072590501091327e-07,-6.434878014260903e-05,-0.00015344878192991018,0.0005326841492205858,0.00301370513625443,0.017763150855898857,0.02637098729610443,0.011147383600473404,0.00918835960328579,-0.0008628226933069527,0.06078634038567543,0.0,0.0,0.0,-0.001703073619864881,-0.0014751545386388898,-0.0,0.0,0.0,0.0,-0.005314812529832125,-0.007415479049086571,-0.0027098834980279207,14188.0,13697.0,14530.0,11780.0,0.45165500044822693,0.41916659474372864,0.4750487506389618,0.3038922846317291,0.0,0.0,0.0,0.0,14352.0,13505.0,14709.0,11575.0,1.6496455669403076,-0.06475313470384256,0.06299547621573343,0.07530071837359627,0.005863801576197147,-0.005207535345107317,0.0
176,5,1.4025226846570149e-05,-1.1810485602836707e-06,-3.894351175404154e-05,-0.0032996886875480413,0.00046367058530449867,-0.001843149890191853,0.017763150855898857,0.02637098729610443,0.011147383600473404,0.00918835960328579,-0.0008628226933069527,0.06078634038567543,0.0,0.0,0.0,-0.001703073619864881,-0.0014751545386388898,-0.0,0.0,0.0,0.0,-0.005314812529832125,-0.007415479049086571,-0.0027098834980279207,14188.0,13697.0,14530.0,11780.0,0.45165500044822693,0.41916659474372864,0.4750487506389618,0.3038922846317291,0.0,0.0,0.0,0.0,14352.0,13505.0,14709.0,11575.0,1.6496455669403076,-0.06488864349014295,0.062712382520729,0.07573567810894645,0.005863801576197147,-0.005207535345107317,0.0
181,5,2.109562228724826e-05,-5.33760612597689e-06,-9.558990313962568e-06,-0.0004714279202744365,0.0006842551520094275,-0.00426340289413929,0.017804857343435287,0.026328954845666885,0.010607374832034111,0.02311420999467373,0.005335787311196327,-0.08526492863893509,0.0,0.0,0.0,-0.0005674234707839787,-0.003075098618865013,-0.0,0.0,0.0,0.0,-0.00428957911208272,-0.007810866925865412,0.003189659211784601,13807.0,13933.0,14300.0,12240.0,0.42638251185417175,0.4346660077571869,0.4592360556125641,0.3298594057559967,0.0,0.0,0.0,0.0,14866.0,13007.0,15192.0,10841.0,1.6593626737594604,-0.06529714006398617,0.06305143323964492,0.07446773767686234,0.012295650318264961,-0.001745247864164412,0.0
186,5,2.476056579325814e-06,-4.387154604046373e-06,-1.0907905561907683e-05,-0.0024229190312325954,0.00015964788326527923,-0.0015434912638738751,0.017804857343435287,0.026328954845666885,0.010607374832034111,0.02311420999467373,0.005335787311196327,-0.08526492863893509,0.0,0.0,0.0,-0.0005674234707839787,-0.003075098618865013,-0.0,0.0,0.0,0.0,-0.00428957911208272,-0.007810866925865412,0.003189659211784601,13807.0,13933.0,14300.0,12240.0,0.42638251185417175,0.4346660077571869,0.4592360556125641,0.3298594057559967,0.0,0.0,0.0,0.0,14866.0,13007.0,15192.0,10841.0,1.6593626737594604,-0.0647962706458111,0.06261865209775333,0.07547305442001882,0.012295650318264961,-0.001745247864164412,0.0
191,5,1.1152556567139982e-07,1.5757186702103354e-05,-5.620881893264595e-06,-0.0012529114028438926,-0.002353461692109704,-0.0012518393341451883,0.01800769940018654,0.026204681023955345,0.010841593146324158,0.02621634490787983,-0.02875274419784546,0.24496592581272125,0.0,0.0,0.0,-0.00020359319751150906,-0.002281034830957651,-0.0,0.0,0.0,0.0,-0.00715795811265707,-0.008733670227229595,0.004182933829724789,15642.0,12226.0,15939.0,9440.0,0.5550302267074585,0.329056978225708,0.5774433016777039,0.18811504542827606,0.0,0.0,0.0,0.0,11583.0,16006.0,11882.0,14377.0,1.6503838300704956,-0.06499706890669989,0.06251833294003378,0.07570567205779412,0.009071276523172855,-0.0006228117272257805,0.0
196,5,-1.4003221622260753e-06,3.564244252629578e-06,1.66970075952122e-05,-0.0006825862801633775,0.0005217683501541615,-0.003178882645443082,0.01800769940018654,0.026204681023955345,0.010841593146324158,0.02621634490787983,-0.02875274419784546,0.24496592581272125,0.0,0.0,0.0,-0.00020359319751150906,-0.002281034830957651,-0.0,0.0,0.0,0.0,-0.00715795811265707,-0.008733670227229595,0.004182933829724789,15642.0,12226.0,15939.0,9440.0,0.5550302267074585,0.329056978225708,0.5774433016777039,0.18811504542827606,0.0,0.0,0.0,0.0,11583.0,16006.0,11882.0,14377.0,1.6503838300704956,-0.06601747967883856,0.06381190701067622,0.07439935549140403,0.009071276523172855,-0.0006228117272257805,0.0
201,5,3.425820978009142e-05,-2.6009878638433293e-05,-6.889195356052369e-05,0.004005989525467157,0.0037576020695269108,0.008999122306704521,0.01800769940018654,0.026204681023955345,0.010841593146324158,0.02621634490787983,-0.02875274419784546,0.24496592581272125,0.0,0.0,0.0,-0.0006347105372697115,-0.0006468672654591501,-0.0,0.0,0.0,0.0,-0.00715795811265707,-0.008733670227229595,0.004182933829724789,15642.0,12226.0,15939.0,9440.0,0.5550302267074585,0.329056978225708,0.5774433016777039,0.18811504542827606,0.0,0.0,0.0,0.0,11583.0,16006.0,11882.0,14377.0,1.646453619003296,-0.06603053758808217,0.06097979379164245,0.07683013494899373,0.002566353417932987,-0.0019370182417333126,0.0
206,5,2.9833889129804447e-05,2.154736648662947e-05,-3.750442556338385e-05,0.0010714773088693619,-0.004203828517347574,-0.00016685412265360355,0.017720051109790802,0.025925982743501663,0.010562065988779068,0.06869378685951233,0.07247201353311539,-0.06388673186302185,0.0,0.0,0.0,-0.0006347105372697115,-0.0006468672654591501,-0.0,0.0,0.0,0.0,-0.005271699279546738,-0.007515105418860912,-0.004211283288896084,12431.0,15445.0,12672.0,13752.0,0.34098702669143677,0.540407121181488,0.35522937774658203,0.4227391481399536,0.0,0.0,0.0,0.0,14605.0,13166.0,15274.0,11070.0,1.646453619003296,-0.06585341128900374,0.062475477006968434,0.07549257419092945,0.002566353417932987,-0.0019370182417333126,0.0
211,5,3.362467759870924e-05,1.635191438253969e-05,1.45302401506342e-05,0.0008834855980239809,-0.0010580772068351507,-0.0063109016045928,0.017720051109790802,0.025925982743501663,0.010562065988779068,0.06869378685951233,0.07247201353311539,-0.06388673186302185,0.0,0.0,0.0,0.005130601115524769,0.00103947171010077,-0.0,0.0,0.0,0.0,-0.005271699279546738,-0.007515105418860912,-0.004211283288896084,12431.0,15445.0,12672.0,13752.0,0.34098702669143677,0.540407121181488,0.35522937774658203,0.4227391481399536,0.0,0.0,0.0,0.0,14605.0,13166.0,15274.0,11070.0,1.6701592206954956,-0.0658636512525505,0.06415390434382345,0.0747986600931038,-0.004183277487754822,0.015882952138781548,0.0
216,5,4.6895867853891104e-05,1.6182419130927883e-05,9.729435078043025e-06,0.001945936819538474,-0.0004028913099318743,-0.0019482640782371163,0.017656655982136726,0.025666648522019386,0.011098304763436317,-0.10843013972043991,0.03361253812909126,-0.1341003030538559,0.0,0.0,0.0,0.005130601115524769,0.00103947171010077,-0.0,0.0,0.0,0.0,-0.0038596505764871836,-0.007891442626714706,0.00014078995445743203,12737.0,14844.0,13381.0,13325.0,0.35913461446762085,0.4969789385795593,0.39888995885849,0.39538031816482544,0.0,0.0,0.0,0.0,13186.0,14688.0,13471.0,12967.0,1.6701592206954956,-0.06613795289322692,0.06369105115553093,0.07547030261063323,-0.004183277487754822,0.015882952138781548,0.0
221,5,6.014111204422079e-05,4.268901830073446e-05,4.197774251224473e-05,0.0023678040597587824,-0.0033419483806937933,-0.004649102687835693,0.017656655982136726,0.025666648522019386,0.011098304763436317,-0.10843013972043991,0.03361253812909126,-0.1341003030538559,0.0,0.0,0.0,0.0005225366330705583,0.0018983579939231277,-0.0,0.0,0.0,0.0,-0.0038596505764871836,-0.007891442626714706,0.00014078995445743203,12737.0,14844.0,13381.0,13325.0,0.35913461446762085,0.4969789385795593,0.39888995885849,0.39538031816482544,0.0,0.0,0.0,0.0,13186.0,14688.0,13471.0,12967.0,1.6519286632537842,-0.06592510073108708,0.06536500988730551,0.07467283114620901,-0.007556505501270294,0.001599987386725843,0.0
227,5,9.905645129038021e-06,4.6516506699845195e-06,0.0001142487526522018,-0.005081134382635355,0.003227704670280218,-0.01053216215223074,0.01792551949620247,0.02500065602362156,0.011275839991867542,0.0027345260605216026,0.07398371398448944,0.06223360076546669,0.0,0.0,0.0,0.0005225366330705583,0.0018983579939231277,-0.0,0.0,0.0,0.0,-0.006828415673226118,-0.0063156550750136375,0.004321873653680086,14937.0,12978.0,14965.0,11024.0,0.5036059617996216,0.37376025319099426,0.505603551864624,0.2634839117527008,0.0,0.0,0.0,0.0,13147.0,14561.0,13282.0,13278.0,1.6519286632537842,-0.06706878435531054,0.06768759195481447,0.07397726184504406,-0.007556505501270294,0.001599987386725843,0.0
232,5,8.303496724693105e-05,5.809175127069466e-05,0.00011382073716958985,0.0067430646158754826,-0.005121730268001556,-0.004161503631621599,0.01792551949620247,0.02500065602362156,0.011275839991867542,0.0027345260605216026,0.07398371398448944,0.06223360076546669,0.0,0.0,0.0,-0.003863740246742964,-0.004675031639635563,-0.0,0.0,0.0,0.0,-0.006828415673226118,-0.0063156550750136375,0.004321873653680086,14937.0,12978.0,14965.0,11024.0,0.5036059617996216,0.37376025319099426,0.505603551864624,0.2634839117527008,0.0,0.0,0.0,0.0,13147.0,14561.0,13282.0,13278.0,1.6864984035491943,-0.06380555845110811,0.06791219804723021,0.07499074670430149,0.01899842359125614,-0.012078150175511837,0.0
237,5,9.625332313589752e-05,8.501902630086988e-05,0.0001617056695977226,0.004283428657799959,-0.005279965233057737,-0.007410794030874968,0.017671097069978714,0.02362060546875,0.010844916105270386,0.027947263792157173,0.23524869978427887,0.0994907021522522,0.0,0.0,0.0,-0.003863740246742964,-0.004675031639635563,-0.0,0.0,0.0,0.0,-0.00396984675899148,-0.0010624844580888748,0.0009964117780327797,14768.0,13070.0,14373.0,12326.0,0.4916439354419708,0.379442423582077,0.4642500579357147,0.33482280373573303,0.0,0.0,0.0,0.0,15089.0,12638.0,14761.0,11914.0,1.6864984035491943,-0.06131435887003032,0.0703236918387115,0.07444205307597498,0.01899842359125614,-0.012078150175511837,0.0
242,5,0.0001254046946996823,0.0001221167913172394,0.0002753536682575941,0.005211535841226578,-0.006563717033714056,-0.016602078452706337,0.017671097069978714,0.02362060546875,0.010844916105270386,0.027947263792157173,0.23524869978427887,0.0994907021522522,0.0,0.0,0.0,-0.003863740246742964,-0.004675031639635563,-0.0,0.0,0.0,0.0,-0.00396984675899148,-0.0010624844580888748,0.0009964117780327797,14768.0,13070.0,14373.0,12326.0,0.4916439354419708,0.379442423582077,0.4642500579357147,0.33482280373573303,0.0,0.0,0.0,0.0,15089.0,12638.0,14761.0,11914.0,1.6864984035491943,-0.06142590031461125,0.07298889274211312,0.07443025860145572,-0.020234672352671623,0.025286037474870682,0.0
247,5,0.00011452092439867556,0.00014196285337675363,0.00032613836810924113,0.0007785625639371574,-0.0050070141442120075,-0.012734995223581791,0.017390474677085876,0.02100902609527111,0.010966496542096138,-0.04760456085205078,0.21831482648849487,-0.056951507925987244,0.0,0.0,0.0,0.007964396849274635,0.004902663640677929,-0.0,0.0,0.0,0.0,-0.005580693483352661,-0.0039205956272780895,0.0026889792643487453,13645.0,14138.0,13151.0,13451.0,0.41581547260284424,0.4483315348625183,0.38445180654525757,0.40332984924316406,0.0,0.0,0.0,0.0,14455.0,13300.0,13945.0,12632.0,1.7128829956054688,-0.060511002591092725,0.07438302625205506,0.07491624430208552,-0.020234672352671623,0.025286037474870682,0.0
252,5,0.0001525525003671646,0.0001741738960845396,0.0003876647097058594,0.004875213373452425,-0.005868131294846535,-0.012477157637476921,0.017390474677085876,0.02100902609527111,0.010966496542096138,-0.04760456085205078,0.21831482648849487,-0.056951507925987244,0.0,0.0,0.0,0.007964396849274635,0.004902663640677929,-0.0,0.0,0.0,0.0,-0.005580693483352661,-0.0039205956272780895,0.0026889792643487453,13645.0,14138.0,13151.0,13451.0,0.41581547260284424,0.4483315348625183,0.38445180654525757,0.40332984924316406,0.0,0.0,0.0,0.0,14455.0,13300.0,13945.0,12632.0,1.7128829956054688,-0.05839255912412496,0.07697713836084821,0.0743695118754393,-0.01912331022322178,0.022964514791965485,0.0
257,5,0.00014543953875545412,0.000164681434398517,0.000392038346035406,0.0010965304682031274,-0.001208157860673964,-0.005515698343515396,0.017013095319271088,0.019631294533610344,0.011440539732575417,-0.05831989645957947,0.12880663573741913,-0.00011294429714325815,0.0,0.0,0.0,0.007261426653712988,0.00465147290378809,-0.0,0.0,0.0,0.0,-0.0018850186606869102,-0.003299797186627984,0.0018802208360284567,14525.0,13641.0,14387.0,12260.0,0.4746965765953064,0.41557079553604126,0.46518903970718384,0.33104199171066284,0.0,0.0,0.0,0.0,13572.0,14560.0,13536.0,13231.0,1.7062147855758667,-0.059399934603628524,0.07599820077394313,0.07587463687601739,-0.01912331022322178,0.022964514791965485,0.0
262,5,0.00012631804565899074,0.00020213915558997542,0.0004774618137162179,-0.001855966285802424,-0.004978189244866371,-0.012457096949219704,0.017013095319271088,0.019631294533610344,0.011440539732575417,-0.05831989645957947,0.12880663573741913,-0.00011294429714325815,0.0,0.0,0.0,0.007261426653712988,0.00465147290378809,-0.0,0.0,0.0,0.0,-0.0018850186606869102,-0.003299797186627984,0.0018802208360284567,14525.0,13641.0,14387.0,12260.0,0.4746965765953064,0.41557079553604126,0.46518903970718384,0.33104199171066284,0.0,0.0,0.0,0.0,13572.0,14560.0,13536.0,13231.0,1.7062147855758667,-0.05754831608439615,0.07887554842373869,0.0762222481095173,-0.01912331022322178,0.022964514791965485,0.0
267,5,0.00014552271750289947,0.00021929311333224177,0.00043856928823515773,0.0015621742932125926,-0.004049751441925764,-0.0003157369792461395,0.016187896952033043,0.01889624074101448,0.011437312699854374,-0.061233822256326675,-0.004321082029491663,0.06978415697813034,0.0,0.0,0.0,0.006345885340124369,-0.0015453713713213801,-0.0,0.0,0.0,0.0,-0.0009297895012423396,-0.005785441026091576,7.9167410149239e-05,14588.0,13294.0,14851.0,12464.0,0.4790768027305603,0.3934122323989868,0.497464120388031,0.3429298400878906,0.0,0.0,0.0,0.0,14688.0,13106.0,15166.0,12158.0,1.6817799806594849,-0.05548648403468861,0.07719622169687976,0.07783380190113862,0.0062624611891806126,0.019781747832894325,0.0
272,5,0.00014989868213888258,0.0002100014389725402,0.000480679766042158,0.0011499838437885046,-0.000504899478983134,-0.005179552361369133,0.016187896952033043,0.01889624074101448,0.011437312699854374,-0.061233822256326675,-0.004321082029491663,0.06978415697813034,0.0,0.0,0.0,0.006345885340124369,-0.0015453713713213801,-0.0,0.0,0.0,0.0,-0.0009297895012423396,-0.005785441026091576,7.9167410149239e-05,14588.0,13294.0,14851.0,12464.0,0.4790768027305603,0.3934122323989868,0.497464120388031,0.3429298400878906,0.0,0.0,0.0,0.0,14688.0,13106.0,15166.0,12158.0,1.6817799806594849,-0.05693098681839685,0.07782649227386515,0.07708430190737835,0.0062624611891806126,0.019781747832894325,0.0
277,5,0.00010490250133443624,0.00025811666273511946,0.0005041384138166904,-0.004939547274261713,-0.005975785199552774,-0.0048868595622479916,0.015475843101739883,0.019122781231999397,0.011431107297539711,-0.08019734174013138,-0.053913891315460205,-0.0485583059489727,0.0,0.0,0.0,0.0009920512093231082,0.001285682083107531,-0.0,0.0,0.0,0.0,-0.001838252879679203,-0.009800917468965054,0.002781483344733715,13984.0,13703.0,15018.0,11975.0,0.43800753355026245,0.4195895791053772,0.5094022154808044,0.31478065252304077,0.0,0.0,0.0,0.0,14148.0,13686.0,14838.0,12451.0,1.6591432094573975,-0.05416330114284185,0.07744785198532479,0.07868886749024583,-0.005140069872140884,0.00305088865570724,0.0
282,5,8.468149462714791e-05,0.00022441889450419694,0.0005634918925352395,-0.004402339458465576,0.0016534167807549238,-0.009077157825231552,0.015475843101739883,0.019122781231999397,0.011431107297539711,-0.08019734174013138,-0.053913891315460205,-0.0485583059489727,0.0,0.0,0.0,0.0009920512093231082,0.001285682083107531,-0.0,0.0,0.0,0.0,-0.001838252879679203,-0.009800917468965054,0.002781483344733715,13984.0,13703.0,15018.0,11975.0,0.43800753355026245,0.4195895791053772,0.5094022154808044,0.31478065252304077,0.0,0.0,0.0,0.0,14148.0,13686.0,14838.0,12451.0,1.6591432094573975,-0.05596157121422485,0.07714147295207399,0.0777038559214099,-0.005140069872140884,0.00305088865570724,0.0
288,5,7.055289461277425e-05,0.00023823911033105105,0.0005188303184695542,-0.003456367878243327,-0.0009970596292987466,0.0017285211943089962,0.01497233472764492,0.02015894651412964,0.011726905591785908,-0.034643251448869705,-0.11915787309408188,0.0036533046513795853,0.0,0.0,0.0,-0.0016021388582885265,-0.003983187023550272,-0.0,0.0,0.0,0.0,-0.003525424748659134,-0.008454360999166965,0.0014680649619549513,14143.0,13576.0,14785.0,11823.0,0.44868969917297363,0.41137248277664185,0.49280673265457153,0.30627429485321045,0.0,0.0,0.0,0.0,12846.0,14737.0,14017.0,13182.0,1.671133041381836,-0.05458805274811337,0.0767708498232584,0.07914268641870266,0.016039540991187096,-0.004962715785950422,0.0
293,5,6.0144408053020015e-05,0.00021707810810767114,0.000567600829526782,0.00038181833224371076,-0.00012907880591228604,-0.001403957954607904,0.01497233472764492,0.02015894651412964,0.011726905591785908,-0.034643251448869705,-0.11915787309408188,0.0036533046513795853,0.0,0.0,0.0,-0.0016021388582885265,-0.003983187023550272,-0.0,0.0,0.0,0.0,-0.003525424748659134,-0.008454360999166965,0.0014680649619549513,14143.0,13576.0,14785.0,11823.0,0.44868969917297363,0.41137248277664185,0.49280673265457153,0.30627429485321045,0.0,0.0,0.0,0.0,12846.0,14737.0,14017.0,13182.0,1.671133041381836,-0.05225419284419019,0.07714018245406094,0.07884260975406744,0.016039540991187096,-0.004962715785950422,0.0
298,5,1.3691192179976497e-05,0.00021348493464756757,0.0006851215148344636,-0.0054216585122048855,0.0003795479715336114,-0.014664068818092346,0.014877778477966785,0.021138612180948257,0.01125645823776722,0.005155103746801615,0.042537420988082886,-0.06141764670610428,0.0,0.0,0.0,0.0005449210293591022,0.00044017296750098467,-0.0,0.0,0.0,0.0,-0.005698606371879578,-0.007238997612148523,-0.0011964876903221011,13183.0,14823.0,13458.0,13165.0,0.3864692449569702,0.4955291748046875,0.40379059314727783,0.3853440284729004,0.0,0.0,0.0,0.0,14299.0,13488.0,14790.0,11728.0,1.665294885635376,-0.05449473291459411,0.07810881157378174,0.07911133001469528,-0.0017663075122982264,0.0016820280579850078,0.0
303,5,3.82830694434233e-06,0.00020392607257235795,0.0006474222172982991,-0.0033522096928209066,0.0012988834641873837,-0.001341708586551249,0.014877778477966785,0.021138612180948257,0.01125645823776722,0.005155103746801615,0.042537420988082886,-0.06141764670610428,0.0,0.0,0.0,0.0005449210293591022,0.00044017296750098467,-0.0,0.0,0.0,0.0,-0.005698606371879578,-0.007238997612148523,-0.0011964876903221011,13183.0,14823.0,13458.0,13165.0,0.3864692449569702,0.4955291748046875,0.40379059314727783,0.3853440284729004,0.0,0.0,0.0,0.0,14299.0,13488.0,14790.0,11728.0,1.665294885635376,-0.054545817721480816,0.07816425753767098,0.07953950063112243,-0.0017663075122982264,0.0016820280579850078,0.0
308,5,-6.015636699885363e-06,0.0002010211901506409,0.0006852746591903269,-0.0025221570394933224,0.0008681392064318061,-0.005078976973891258,0.014877778477966785,0.021138612180948257,0.01125645823776722,0.005155103746801615,0.042537420988082886,-0.06141764670610428,0.0,0.0,0.0,-0.001216083182953298,-0.0031342848669737577,-0.0,0.0,0.0,0.0,-0.005698606371879578,-0.007238997612148523,-0.0011964876903221011,13183.0,14823.0,13458.0,13165.0,0.3864692449569702,0.4955291748046875,0.40379059314727783,0.3853440284729004,0.0,0.0,0.0,0.0,14299.0,13488.0,14790.0,11728.0,1.6611801385879517,-0.05589028281765586,0.07849881907479456,0.07920650102893519,0.012546022422611713,-0.0037444529589265585,0.0
313,5,-4.157494913670234e-06,0.00019787657947745174,0.0006794206565245986,-0.0007858858443796635,0.0007246082532219589,-0.0013291096547618508,0.014850099571049213,0.020653020590543747,0.011652598157525063,-0.018443487584590912,0.09285667538642883,-0.006017649080604315,0.0,0.0,0.0,-0.001216083182953298,-0.0031342848669737577,-0.0,0.0,0.0,0.0,-0.004117229953408241,-0.004353462718427181,0.002514120191335678,14289.0,13549.0,14330.0,12342.0,0.45849907398223877,0.4096594452857971,0.46133482456207275,0.33580154180526733,0.0,0.0,0.0,0.0,14100.0,13920.0,14317.0,12262.0,1.6611801385879517,-0.055823163996014724,0.07893593013080796,0.07968140243935484,0.012546022422611713,-0.0037444529589265585,0.0
318,5,-1.0813104381668381e-05,0.00021610928524751216,0.0007228413014672697,-0.0011130274506285787,-0.0018980810418725014,-0.0057421219535171986,0.014850099571049213,0.020653020590543747,0.011652598157525063,-0.018443487584590912,0.09285667538642883,-0.006017649080604315,0.0,0.0,0.0,-0.0005264588398858905,-0.0007399045280180871,-0.0,0.0,0.0,0.0,-0.004117229953408241,-0.004353462718427181,0.002514120191335678,14289.0,13549.0,14330.0,12342.0,0.45849907398223877,0.4096594452857971,0.46133482456207275,0.33580154180526733,0.0,0.0,0.0,0.0,14100.0,13920.0,14317.0,12262.0,1.6637170314788818,-0.055627410924228037,0.0810014114918754,0.07922708598082356,0.0029662447050213814,-0.00162350048776716,0.0
323,5,-1.4066386029298883e-05,0.00021337662474252284,0.0007087994017638266,-0.0008356047328561544,-0.00043131341226398945,-0.0006118196761235595,0.014885157346725464,0.019557401537895203,0.011448975652456284,-0.008840054273605347,0.06742314994335175,0.06640886515378952,0.0,0.0,0.0,-0.0005264588398858905,-0.0007399045280180871,-0.0,0.0,0.0,0.0,-0.004649752285331488,-0.0037549969274550676,0.0014956527156755328,14491.0,13387.0,14453.0,12136.0,0.4723427891731262,0.3993217349052429,0.4697524309158325,0.3238779306411743,0.0,0.0,0.0,0.0,13241.0,14626.0,13091.0,13597.0,1.6637170314788818,-0.05628033798090821,0.0806138098670969,0.07936027321285767,0.0029662447050213814,-0.00162350048776716,0.0
328,5,-4.4604315917240456e-05,0.0002013935736613348,0.000744484830647707,-0.003998793661594391,0.0012654404854401946,-0.004526980686932802,0.014885157346725464,0.019557401537895203,0.011448975652456284,-0.008840054273605347,0.06742314994335175,0.06640886515378952,0.0,0.0,0.0,0.0009094252018257976,-0.0008021047688089311,-0.0,0.0,0.0,0.0,-0.004649752285331488,-0.0037549969274550676,0.0014956527156755328,14491.0,13387.0,14453.0,12136.0,0.4723427891731262,0.3993217349052429,0.4697524309158325,0.3238779306411743,0.0,0.0,0.0,0.0,13241.0,14626.0,13091.0,13597.0,1.6593902111053467,-0.05722405833512801,0.07986742287310765,0.07889313408159267,0.003207238856703043,0.0027972026728093624,0.0
334,5,-5.4752712458139285e-05,0.00021369651949498802,0.0006627415423281491,-0.002817325061187148,-0.0009701767703518271,0.00799840223044157,0.014587171375751495,0.019457267597317696,0.011123538948595524,-0.023377638310194016,-0.02896880730986595,-0.09493937343358994,0.0,0.0,0.0,0.0009094252018257976,-0.0008021047688089311,-0.0,0.0,0.0,0.0,-0.004150330554693937,-0.006906093098223209,-0.001420443644747138,12837.0,14919.0,13223.0,13513.0,0.3651825189590454,0.5023042559623718,0.38893985748291016,0.40729039907455444,0.0,0.0,0.0,0.0,14453.0,13358.0,14737.0,11792.0,1.6593902111053467,-0.05703486950001488,0.07910775396722672,0.08006218851110887,0.003207238856703043,0.0027972026728093624,0.0
339,5,-0.000103968326584436,0.00015170901315286756,0.0006526149227283895,-0.007032803259789944,0.007050430402159691,0.004414554685354233,0.014587171375751495,0.019457267597317696,0.011123538948595524,-0.023377638310194016,-0.02896880730986595,-0.09493937343358994,0.0,0.0,0.0,0.0015686108963564038,-0.0027190756518393755,-0.0,0.0,0.0,0.0,-0.004150330554693937,-0.006906093098223209,-0.001420443644747138,12837.0,14919.0,13223.0,13513.0,0.3651825189590454,0.5023042559623718,0.38893985748291016,0.40729039907455444,0.0,0.0,0.0,0.0,14453.0,13358.0,14737.0,11792.0,1.657921314239502,-0.060653137218400245,0.07692859118133619,0.07885590639205294,0.010862656868994236,0.004820447880774736,-0.0
344,5,-0.00015665870159864426,0.00018295645713806152,0.0006020130822435021,-0.009135967120528221,-0.000929521513171494,0.00783803965896368,0.01447390392422676,0.020552322268486023,0.011340812779963017,-0.00481930049136281,-0.12860722839832306,-0.004294754471629858,0.0,0.0,0.0,0.0015686108963564038,-0.0027190756518393755,-0.0,0.0,0.0,0.0,-0.004267824813723564,-0.009373067878186703,0.003004635451361537,14017.0,13769.0,14777.0,11765.0,0.4402105510234833,0.4238830506801605,0.49223604798316956,0.3030605614185333,0.0,0.0,0.0,0.0,13883.0,14006.0,14388.0,12200.0,1.657921314239502,-0.05767994992168131,0.07434914195020728,0.08120265641578343,0.010862656868994236,0.004820447880774736,-0.0
349,5,-0.00017027115973178297,0.00016123376553878188,0.0005564212915487587,-0.005287881940603256,0.0022349143400788307,0.008606230840086937,0.01447390392422676,0.020552322268486023,0.011340812779963017,-0.00481930049136281,-0.12860722839832306,-0.004294754471629858,0.0,0.0,0.0,0.001410612603649497,-0.008469090797007084,-0.0,0.0,0.0,0.0,-0.004267824813723564,-0.009373067878186703,0.003004635451361537,14017.0,13769.0,14777.0,11765.0,0.4402105510234833,0.4238830506801605,0.49223604798316956,0.3030605614185333,0.0,0.0,0.0,0.0,13883.0,14006.0,14388.0,12200.0,1.7208937406539917,-0.058589927443964816,0.0736719787209792,0.08022574145737171,0.03511859476566315,0.004499560687690973,-0.0
354,5,-0.00023325247457250953,0.00018880254356190562,0.0006204154924489558,-0.009672909043729305,-0.0024142868351191282,-0.00423680804669857,0.014504820108413696,0.021557144820690155,0.010951122269034386,0.012175368145108223,-0.12762166559696198,0.07793568819761276,0.0,0.0,0.0,0.001410612603649497,-0.008469090797007084,-0.0,0.0,0.0,0.0,-0.0042565930634737015,-0.010231759399175644,0.0015595005825161934,14139.0,13689.0,14920.0,11526.0,0.4483569860458374,0.41865479946136475,0.5023989677429199,0.2899794578552246,0.0,0.0,0.0,0.0,12726.0,14963.0,13565.0,13157.0,1.7208937406539917,-0.05771456513348777,0.07387777659311232,0.08125707709474225,0.03511859476566315,0.004499560687690973,-0.0
359,5,-0.00022447451192419976,0.00015199993504211307,0.0005914650391787291,-0.0028158093336969614,0.0034505969379097223,0.0017793320585042238,0.014504820108413696,0.021557144820690155,0.010951122269034386,0.012175368145108223,-0.12762166559696198,0.07793568819761276,0.0,0.0,0.0,0.003149511758238077,-0.009008102118968964,-0.0,0.0,0.0,0.0,-0.0042565930634737015,-0.010231759399175644,0.0015595005825161934,14139.0,13689.0,14920.0,11526.0,0.4483569860458374,0.41865479946136475,0.5023989677429199,0.2899794578552246,0.0,0.0,0.0,0.0,12726.0,14963.0,13565.0,13157.0,1.7301406860351562,-0.06066094572149828,0.07293298445341617,0.08027358698217989,0.03755420818924904,0.010100244544446468,0.0
364,5,-0.00024462933652102947,0.00016316171968355775,0.000449898827355355,-0.003544903825968504,4.082627856405452e-05,0.017699675634503365,0.014549102634191513,0.022592034190893173,0.010794396512210369,-0.020343365147709846,-0.02012009173631668,-0.1027659997344017,0.0,0.0,0.0,0.003149511758238077,-0.009008102118968964,-0.0,0.0,0.0,0.0,-0.003939051181077957,-0.00881096813827753,-0.0011972798965871334,12699.0,14947.0,13408.0,13336.0,0.35689008235931396,0.5043160319328308,0.4006320834159851,0.39608311653137207,0.0,0.0,0.0,0.0,14025.0,14209.0,14852.0,12232.0,1.7301406860351562,-0.055401651116490425,0.06898787568352618,0.08265979380862067,0.03755420818924904,0.010100244544446468,0.0
369,5,-0.00024818573729135096,0.00013734769891016185,0.000464182929135859,-0.0018447267357259989,0.0031140113715082407,0.005365780554711819,0.014549102634191513,0.022592034190893173,0.010794396512210369,-0.020343365147709846,-0.02012009173631668,-0.1027659997344017,0.0,0.0,0.0,0.00024397042579948902,-0.0036475621163845062,-0.0,0.0,0.0,0.0,-0.003939051181077957,-0.00881096813827753,-0.0011972798965871334,12699.0,14947.0,13408.0,13336.0,0.35689008235931396,0.5043160319328308,0.4006320834159851,0.39608311653137207,0.0,0.0,0.0,0.0,14025.0,14209.0,14852.0,12232.0,1.665393352508545,-0.05811284009743377,0.06923362562463106,0.08047100311944287,0.014637619256973267,0.000753117143176496,-0.0
374,5,-0.0002758628106676042,0.00017363378719892353,0.000461525225546211,-0.004059141967445612,-0.0031087249517440796,0.002465234138071537,0.01442705187946558,0.022540176287293434,0.01145226787775755,-0.04430649057030678,0.04719303175806999,0.01149702537804842,0.0,0.0,0.0,0.00024397042579948902,-0.0036475621163845062,-0.0,0.0,0.0,0.0,-0.003549636574462056,-0.008826223202049732,0.0036687508691102266,14533.0,13621.0,15204.0,11865.0,0.47524264454841614,0.41424843668937683,0.5227707624435425,0.30863186717033386,0.0,0.0,0.0,0.0,12856.0,15227.0,13618.0,13791.0,1.665393352508545,-0.055511476615659874,0.07027156531961376,0.0820514555628127,0.014637619256973267,0.000753117143176496,-0.0
379,5,-0.00029300397727638483,0.00013561830564867705,0.00043531216215342283,-0.00368059566244483,0.003318367525935173,0.004131663590669632,0.01442705187946558,0.022540176287293434,0.01145226787775755,-0.04430649057030678,0.04719303175806999,0.01149702537804842,0.0,0.0,0.0,0.004047721158713102,-0.004129146225750446,-0.0,0.0,0.0,0.0,-0.003549636574462056,-0.008826223202049732,0.0036687508691102266,14533.0,13621.0,15204.0,11865.0,0.47524264454841614,0.41424843668937683,0.5227707624435425,0.30863186717033386,0.0,0.0,0.0,0.0,12856.0,15227.0,13618.0,13791.0,1.6823484897613525,-0.05871431926328451,0.06885285714400982,0.08190397524234598,0.016738761216402054,0.012622138485312462,-0.0
384,5,-0.0003417995758354664,0.00016882349154911935,0.00046802344149909914,-0.007327710743993521,-0.002657275414094329,-0.0022726894821971655,0.014166518114507198,0.0218624547123909,0.011153782717883587,-0.008551990613341331,0.0677981898188591,0.09854845702648163,0.0,0.0,0.0,0.004047721158713102,-0.004129146225750446,-0.0,0.0,0.0,0.0,-0.0031228570733219385,-0.0076174610294401646,0.001372370170429349,14580.0,13619.0,15163.0,12027.0,0.4784877896308899,0.414126455783844,0.519825279712677,0.31770116090774536,0.0,0.0,0.0,0.0,14852.0,12931.0,15210.0,11221.0,1.6823484897613525,-0.05694283796558661,0.06953481353488732,0.08261554304565243,0.016738761216402054,0.012622138485312462,-0.0
390,5,-0.00033220264595001936,0.00010109727008966729,0.0004251135978847742,-0.0017794527811929584,0.007064236328005791,0.004240106325596571,0.014166518114507198,0.0218624547123909,0.011153782717883587,-0.008551990613341331,0.0677981898188591,0.09854845702648163,0.0,0.0,0.0,0.0034399342257529497,-0.007125318516045809,-0.0,0.0,0.0,0.0,-0.0031228570733219385,-0.0076174610294401646,0.001372370170429349,14580.0,13619.0,15163.0,12027.0,0.4784877896308899,0.414126455783844,0.519825279712677,0.31770116090774536,0.0,0.0,0.0,0.0,14852.0,12931.0,15210.0,11221.0,1.710024356842041,-0.0595685908535705,0.0671986832900457,0.08156077124394714,0.029359742999076843,0.01090333703905344,0.0
395,5,-0.0003493322874419391,0.00017156773537863046,0.0004310177464503795,-0.002767337718978524,-0.0056307618506252766,0.0009875436080619693,0.013991715386509895,0.02140835113823414,0.010948632843792439,-0.03373458981513977,0.07906647771596909,-0.1188943162560463,0.0,0.0,0.0,0.0034399342257529497,-0.007125318516045809,-0.0,0.0,0.0,0.0,-0.003702960442751646,-0.006010789889842272,-0.0019268313189968467,12657.0,15033.0,12989.0,13804.0,0.3543625473976135,0.5104425549507141,0.3744378089904785,0.42615044116973877,0.0,0.0,0.0,0.0,13843.0,13975.0,14295.0,12420.0,1.710024356842041,-0.056773743870829,0.0685109977219743,0.08361229729655445,0.029359742999076843,0.01090333703905344,0.0
400,5,-0.00014911733160261065,0.00018597622693050653,0.00018482503946870565,0.022918859496712685,-0.003981323447078466,0.029938142746686935,0.013991715386509895,0.02140835113823414,0.010948632843792439,-0.03373458981513977,0.07906647771596909,-0.1188943162560463,0.0,0.0,0.0,0.007029260043054819,-0.0030138171277940273,-0.0,0.0,0.0,0.0,-0.003702960442751646,-0.006010789889842272,-0.0019268313189968467,12657.0,15033.0,12989.0,13804.0,0.3543625473976135,0.5104425549507141,0.3744378089904785,0.42615044116973877,0.0,0.0,0.0,0.0,13843.0,13975.0,14295.0,12420.0,1.6938810348510742,-0.05398492881013155,0.06547393494191105,0.08579180812576191,0.012300997041165829,0.022069605067372322,-0.0
405,5,-0.0001861315395217389,0.00023409385175909847,0.00021998958254698664,0.004725839477032423,-0.0073666442185640335,0.007755510974675417,0.013752278871834278,0.021300850436091423,0.01136803813278675,-0.022158227860927582,-0.01894170045852661,0.030019590631127357,0.0,0.0,0.0,0.007029260043054819,-0.0030138171277940273,-0.0,0.0,0.0,0.0,-0.0037026023492217064,-0.01084057055413723,0.000496307504363358,14482.0,13288.0,15243.0,11562.0,0.47171035408973694,0.39307281374931335,0.5256290435791016,0.2919362485408783,0.0,0.0,0.0,0.0,12412.0,15215.0,13346.0,13743.0,1.6938810348510742,-0.05130228708463965,0.06638175608197812,0.08638756443702898,0.012300997041165829,0.022069605067372322,-0.0
410,5,-0.000207723249332048,0.00020861531083937734,0.00021519145229831338,-0.0007006687810644507,0.00011076813098043203,0.0036779805086553097,0.013752278871834278,0.021300850436091423,0.01136803813278675,-0.022158227860927582,-0.01894170045852661,0.030019590631127357,0.0,0.0,0.0,0.009095944464206696,0.004038799554109573,-0.0,0.0,0.0,0.0,-0.0037026023492217064,-0.01084057055413723,0.000496307504363358,14482.0,13288.0,15243.0,11562.0,0.47171035408973694,0.39307281374931335,0.5256290435791016,0.2919362485408783,0.0,0.0,0.0,0.0,12412.0,15215.0,13346.0,13743.0,1.7155802249908447,-0.053754901881291395,0.06513214209429165,0.08636302882899775,-0.01669537089765072,0.028923876583576202,-0.0
415,5,-0.00022896108566783369,0.0002361142251174897,0.0002288358664372936,-0.0028288087341934443,-0.0032555623911321163,-0.0001661368296481669,0.01383619662374258,0.021731551736593246,0.010652887634932995,0.03851410746574402,-0.07392038404941559,0.0837181881070137,0.0,0.0,0.0,0.009095944464206696,0.004038799554109573,-0.0,0.0,0.0,0.0,-0.0015318822115659714,-0.01007665041834116,-0.0016300235874950886,14043.0,14104.0,15001.0,11960.0,0.4419364631175995,0.44602224230766296,0.5081445574760437,0.3139210641384125,0.0,0.0,0.0,0.0,14904.0,13082.0,15973.0,10731.0,1.7155802249908447,-0.05289393071828275,0.06484486943067717,0.08684642137763811,-0.01669537089765072,0.028923876583576202,-0.0
420,5,-0.00021036237012594938,0.00019551350851543248,0.00018602950149215758,0.0011003219988197088,0.0035698595456779003,0.00507030775770545,0.01383619662374258,0.021731551736593246,0.010652887634932995,0.03851410746574402,-0.07392038404941559,0.0837181881070137,0.0,0.0,0.0,0.004356078803539276,-0.0029422957450151443,-0.0,0.0,0.0,0.0,-0.0015318822115659714,-0.01007665041834116,-0.0016300235874950886,14043.0,14104.0,15001.0,11960.0,0.4419364631175995,0.44602224230766296,0.5081445574760437,0.3139210641384125,0.0,0.0,0.0,0.0,14904.0,13082.0,15973.0,10731.0,1.6743686199188232,-0.05340339656400255,0.06463143623112723,0.08653178639314728,0.01187092438340187,0.013519258238375187,0.0
425,5,-0.00024058535927906632,0.00022506402456201613,0.00015993556007742882,-0.0031866298522800207,-0.0021181178744882345,0.0051593962125480175,0.01383619662374258,0.021731551736593246,0.010652887634932995,0.03851410746574402,-0.07392038404941559,0.0837181881070137,0.0,0.0,0.0,0.004356078803539276,-0.0029422957450151443,-0.0,0.0,0.0,0.0,-0.0015318822115659714,-0.01007665041834116,-0.0016300235874950886,14043.0,14104.0,15001.0,11960.0,0.4419364631175995,0.44602224230766296,0.5081445574760437,0.3139210641384125,0.0,0.0,0.0,0.0,14904.0,13082.0,15973.0,10731.0,1.6743686199188232,-0.052104760312583466,0.0645278781345445,0.0875548129605679,0.01187092438340187,0.013519258238375187,0.0
430,5,-0.00026691818493418396,0.0002180536976084113,0.00016959139611572027,-0.004434590693563223,-6.007959200360347e-06,0.0009050591615960002,0.01371748186647892,0.022582057863473892,0.010561199858784676,-0.02426479011774063,-0.07538362592458725,-0.1538616418838501,0.0,0.0,0.0,0.0029711597599089146,-0.003300683805719018,-0.0,0.0,0.0,0.0,-0.0015168196987360716,-0.008274238556623459,0.00440890621393919,14738.0,13050.0,15681.0,11525.0,0.48949486017227173,0.37820982933044434,0.557918131351471,0.2899574041366577,0.0,0.0,0.0,0.0,13168.0,14626.0,14250.0,12929.0,1.6694144010543823,-0.05221931211062302,0.06579568015817754,0.0860677450851716,0.013277528807520866,0.009193852543830872,-0.0
435,5,-0.00021435345115605742,0.00020392175065353513,7.983003160916269e-05,0.0045339311473071575,0.001693430240266025,0.011133387684822083,0.01371748186647892,0.022582057863473892,0.010561199858784676,-0.02426479011774063,-0.07538362592458725,-0.1538616418838501,0.0,0.0,0.0,0.0029711597599089146,-0.003300683805719018,-0.0,0.0,0.0,0.0,-0.0015168196987360716,-0.008274238556623459,0.00440890621393919,14738.0,13050.0,15681.0,11525.0,0.48949486017227173,0.37820982933044434,0.557918131351471,0.2899574041366577,0.0,0.0,0.0,0.0,13168.0,14626.0,14250.0,12929.0,1.6694144010543823,-0.05154991662208804,0.06359641585834919,0.08778957529590385,0.013277528807520866,0.009193852543830872,-0.0
440,5,-0.00028083662618882954,0.00020231596136000007,0.00015034768148325384,-0.006164408754557371,0.0008700682665221393,-0.004008763004094362,0.013738690875470638,0.02342037297785282,0.011103248223662376,-0.03323214501142502,-0.09122932702302933,0.060803238302469254,0.0,0.0,0.0,-0.0016839555464684963,0.0039290436543524265,-0.0,0.0,0.0,0.0,-0.002971501089632511,-0.007739332038909197,-0.00028038452728651464,13753.0,14023.0,14494.0,12386.0,0.422806978225708,0.44065725803375244,0.47257834672927856,0.33832603693008423,0.0,0.0,0.0,0.0,12774.0,14957.0,13616.0,13942.0,1.6707724332809448,-0.05154377436081583,0.06634355250870758,0.08681449447785654,-0.015818100422620773,-0.005215021315962076,-0.0
446,5,-0.0001966759591596201,0.00021652925352100283,4.53896755061578e-05,0.007633516564965248,-0.0013575685443356633,0.010991455055773258,0.013738690875470638,0.02342037297785282,0.011103248223662376,-0.03323214501142502,-0.09122932702302933,0.060803238302469254,0.0,0.0,0.0,-0.0016839555464684963,0.0039290436543524265,-0.0,0.0,0.0,0.0,-0.002971501089632511,-0.007739332038909197,-0.00028038452728651464,13753.0,14023.0,14494.0,12386.0,0.422806978225708,0.44065725803375244,0.47257834672927856,0.33832603693008423,0.0,0.0,0.0,0.0,12774.0,14957.0,13616.0,13942.0,1.6707724332809448,-0.04908282785942417,0.06540112047944494,0.08809138201107136,-0.015818100422620773,-0.005215021315962076,-0.0
451,5,-0.00022514359443448484,0.0001712360099190846,3.5500059311743826e-05,-0.00036270919372327626,0.004892162047326565,0.0055833361111581326,0.013579091988503933,0.023617584258317947,0.010569152422249317,-0.021603120490908623,-0.0014205391053110361,-0.1418488323688507,0.0,0.0,0.0,0.001996005419641733,0.0067153507843613625,-0.0,0.0,0.0,0.0,-0.002970069879665971,-0.007901238277554512,-0.0013310383073985577,12405.0,15178.0,13196.0,13738.0,0.3394259214401245,0.5208591222763062,0.3872978091239929,0.42183154821395874,0.0,0.0,0.0,0.0,14914.0,12795.0,15553.0,10982.0,1.7018342018127441,-0.05190437518302906,0.06482958252131177,0.08767337033536525,-0.027538083493709564,0.006296323146671057,-0.0
456,5,-0.00013690133346244693,0.00022552140580955893,-7.491010910598561e-05,0.01044398732483387,-0.0045573837123811245,0.015482555143535137,0.013579091988503933,0.023617584258317947,0.010569152422249317,-0.021603120490908623,-0.0014205391053110361,-0.1418488323688507,0.0,0.0,0.0,0.001996005419641733,0.0067153507843613625,-0.0,0.0,0.0,0.0,-0.002970069879665971,-0.007901238277554512,-0.0013310383073985577,12405.0,15178.0,13196.0,13738.0,0.3394259214401245,0.5208591222763062,0.3872978091239929,0.42183154821395874,0.0,0.0,0.0,0.0,14914.0,12795.0,15553.0,10982.0,1.7018342018127441,-0.04846223202045145,0.06518356187535851,0.089989288301498,-0.027538083493709564,0.006296323146671057,-0.0
461,5,-0.00010096222831634805,0.00033026261371560395,1.1736929081962444e-05,0.008490287698805332,-0.01439189724624157,-0.004204622935503721,0.01360100507736206,0.023682771250605583,0.010888711549341679,-0.01417572796344757,-0.02484475076198578,0.07103563100099564,0.0,0.0,0.0,0.001996005419641733,0.0067153507843613625,-0.0,0.0,0.0,0.0,-0.004956191871315241,-0.005948648788034916,0.004373484756797552,15166.0,12719.0,15323.0,10981.0,0.5200573205947876,0.3580546975135803,0.5314101576805115,0.26125025749206543,0.0,0.0,0.0,0.0,13246.0,14540.0,13810.0,13027.0,1.7018342018127441,-0.04347217696972914,0.07128349635839888,0.08643729745262918,-0.027538083493709564,0.006296323146671057,-0.0
466,5,-8.218058064812794e-05,0.0002037718950305134,-0.00016798921569716185,0.005649913102388382,0.009422128088772297,0.019885288551449776,0.01360100507736206,0.023682771250605583,0.010888711549341679,-0.01417572796344757,-0.02484475076198578,0.07103563100099564,0.0,0.0,0.0,0.016761958599090576,0.007227484602481127,-0.0,0.0,0.0,0.0,-0.004956191871315241,-0.005948648788034916,0.004373484756797552,15166.0,12719.0,15323.0,10981.0,0.5200573205947876,0.3580546975135803,0.5314101576805115,0.26125025749206543,0.0,0.0,0.0,0.0,13246.0,14540.0,13810.0,13027.0,1.7961865663528442,-0.048562115400644826,0.0651418904996323,0.09028990299221828,-0.031277045607566833,0.055801745504140854,0.0
471,5,-5.7596309488872066e-05,0.00023027037968859076,-0.0002410609449725598,0.00521007739007473,0.0005890316097065806,0.016722723841667175,0.01360100507736206,0.023682771250605583,0.010888711549341679,-0.01417572796344757,-0.02484475076198578,0.07103563100099564,0.0,0.0,0.0,0.016761958599090576,0.007227484602481127,-0.0,0.0,0.0,0.0,-0.004763180855661631,-0.00579338101670146,-0.00014078899403102696,14066.0,14033.0,14250.0,12771.0,0.44348958134651184,0.44127896428108215,0.4558655321598053,0.36120012402534485,0.0,0.0,0.0,0.0,13022.0,14828.0,13324.0,13448.0,1.7961865663528442,-0.04694136650145006,0.06495872463532475,0.09174456063435396,-0.031277045607566833,0.055801745504140854,0.0
476,5,-8.91918534762226e-05,0.00017152813961729407,-0.00020838499767705798,-0.0017074344214051962,0.007284682709723711,0.0027679763734340668,0.01360100507736206,0.023682771250605583,0.010888711549341679,-0.01417572796344757,-0.02484475076198578,0.07103563100099564,0.0,0.0,0.0,-0.00029773800633847713,0.004752960056066513,-0.0,0.0,0.0,0.0,-0.004763180855661631,-0.00579338101670146,-0.00014078899403102696,14066.0,14033.0,14250.0,12771.0,0.44348958134651184,0.44127896428108215,0.4558655321598053,0.36120012402534485,0.0,0.0,0.0,0.0,13022.0,14828.0,13324.0,13448.0,1.6777074337005615,-0.0501789268273719,0.06416470000534208,0.09062071473724176,-0.0192145686596632,-0.0009258892387151718,0.0
481,5,-4.502879164647311e-05,0.00024224226945079863,-0.00025851308600977063,0.0046165939420461655,-0.005571823567152023,0.007122559007257223,0.013278418220579624,0.024147598072886467,0.00999640952795744,-0.046861905604600906,-0.017252761870622635,-0.16277997195720673,0.0,0.0,0.0,-0.00029773800633847713,0.004752960056066513,-0.0,0.0,0.0,0.0,-0.0023847275879234076,-0.006305626127868891,-0.001142883556894958,13060.0,14782.0,13642.0,13628.0,0.3788423240184784,0.49263277649879456,0.4156081974506378,0.4147509038448334,0.0,0.0,0.0,0.0,15294.0,12650.0,15632.0,11041.0,1.6777074337005615,-0.04643525377401849,0.06580128193086475,0.09132387108229556,-0.0192145686596632,-0.0009258892387151718,0.0
