timestamp,dt,pos_x,pos_y,pos_z,vel_x,vel_y,vel_z,roll,pitch,yaw,agv_x,agv_y,agv_z,x_ref,y_ref,z_ref,roll_ref,pitch_ref,yaw_ref,x_vel_ref,y_vel_ref,z_vel_ref,x_torque,y_torque,z_torque,w0,w1,w2,w3,u0,u1,u2,u3,m0req,m1req,m2req,m3req,thrust0,thrust1,thrust2,thrust3,thrust_ref,roll_vicon,pitch_vicon,yaw_vicon,acc_x,acc_y,acc_z
5,5,0.0,0.0,0.0,0.000919884245377034,0.00012510205851867795,-0.0006694762269034982,0.008362707681953907,0.29815319180488586,0.0008077215170487761,0.001034952700138092,0.0007040112395770848,0.001593964989297092,0.0,0.0,0.0,-0.0001547810825286433,0.0008754740701988339,-0.0,0.0,0.0,0.0,-0.0024693994782865047,-0.08946193754673004,-2.852582292689476e-05,1495.0,1495.0,1495.0,1495.0,0.0,0.0,0.0,0.0,0.0,0.0,0.0,0.0,1495.0,1495.0,1495.0,1495.0,1.6351940631866455,-0.08143713856170903,-0.18740314943050035,-0.06537396520251015,-0.003449565963819623,-0.00046913273399695754,0.0
31,26,0.0,0.0,0.0,-0.0014544592704623938,-0.0009487735806033015,-0.0037160413339734077,0.008362707681953907,0.29815319180488586,0.0008077215170487761,0.001034952700138092,0.0007040112395770848,0.001593964989297092,0.0,0.0,0.0,-0.0001547810825286433,0.0008754740701988339,-0.0,0.0,0.0,0.0,-0.0024693994782865047,-0.08946193754673004,-2.852582292689476e-05,1495.0,1495.0,1495.0,1495.0,0.0,0.0,0.0,0.0,0.0,0.0,0.0,0.0,1495.0,1495.0,1495.0,1495.0,1.6351940631866455,-0.078162579899092,-0.18473430012484948,-0.065736136856358,-0.003449565963819623,-0.00046913273399695754,0.0
37,6,0.0,0.0,0.0,0.0018370716134086251,-0.0008256039582192898,0.0004633610078599304,0.008362707681953907,0.29815319180488586,0.0008077215170487761,0.001034952700138092,0.0007040112395770848,0.001593964989297092,0.0,0.0,0.0,0.0011679943418130279,-0.001377325621433556,-0.0,0.0,0.0,0.0,-0.0024693994782865047,-0.08946193754673004,-2.852582292689476e-05,1495.0,1495.0,1495.0,1495.0,0.0,0.0,0.0,0.0,0.0,0.0,0.0,0.0,1495.0,1495.0,1495.0,1495.0,1.6434054374694824,-0.08157402580848998,-0.18667350803525465,-0.06557498295473495,0.005454222206026316,0.0035579008981585503,0.0
42,5,0.0,0.0,0.0,-0.000546485825907439,-0.0011812264565378428,-0.005754794459789991,0.008362707681953907,0.29815319180488586,0.0008077215170487761,0.001034952700138092,0.0007040112395770848,0.001593964989297092,0.0,0.0,0.0,0.0011679943418130279,-0.001377325621433556,-0.0,0.0,0.0,0.0,-0.0024693994782865047,-0.08946193754673004,-2.852582292689476e-05,1495.0,1495.0,1495.0,1495.0,0.0,0.0,0.0,0.0,0.0,0.0,0.0,0.0,1495.0,1495.0,1495.0,1495.0,1.6434054374694824,-0.07916108630441981,-0.1847405851340248,-0.06572506255597917,0.005454222206026316,0.0035579008981585503,0.0
47,5,0.0,0.0,0.0,0.0004267034528311342,-0.0004570670716930181,-0.0035024455282837152,0.008375171571969986,0.2981501519680023,0.0008171359659172595,0.0007747070048935711,0.0028451282996684313,0.002971087582409382,0.0,0.0,0.0,0.0014580768765881658,-0.0005188991781324148,-0.0,0.0,0.0,0.0,-0.0025982616934925318,-0.08909968286752701,9.836679237196222e-05,1495.0,1495.0,1495.0,1495.0,0.0,0.0,0.0,0.0,0.0,0.0,0.0,0.0,1495.0,1495.0,1495.0,1495.0,1.6389878988265991,-0.08001809007775541,-0.18506920116135225,-0.06567359345004946,0.00204932177439332,0.004429599270224571,0.0
54,7,1.663521834416315e-05,2.1315199774107896e-05,1.6928470358834602e-05,0.002166907535865903,-0.0027406506706029177,-0.00343239470385015,0.008375171571969986,0.2981501519680023,0.0008171359659172595,0.0007747070048935711,0.0028451282996684313,0.002971087582409382,0.0,0.0,0.0,0.003375034546479583,0.0020523881539702415,-0.0,0.0,0.0,0.0,-0.0025982616934925318,-0.08909968286752701,9.836679237196222e-05,1495.0,1495.0,1495.0,1495.0,0.0,0.0,0.0,0.0,0.0,0.0,0.0,0.0,1495.0,1495.0,1495.0,1495.0,1.6616084575653076,-0.08172804120099329,-0.18499954118022802,-0.06577762330004996,-0.008217454887926579,0.01039474830031395,0.0
63,9,2.45941828325158e-06,-1.1748577890102752e-05,-2.9084738343954086e-05,-0.002120120683684945,0.0005556296673603356,0.002537687309086323,0.008375171571969986,0.2981501519680023,0.0008171359659172595,0.0007747070048935711,0.0028451282996684313,0.002971087582409382,0.0,0.0,0.0,0.003375034546479583,0.0020523881539702415,-0.0,0.0,0.0,0.0,-0.0025982616934925318,-0.08909968286752701,9.836679237196222e-05,1495.0,1495.0,1495.0,1495.0,0.0,0.0,0.0,0.0,0.0,0.0,0.0,0.0,1495.0,1495.0,1495.0,1495.0,1.6616084575653076,-0.08076048630257004,-0.18605776807620175,-0.06568594563713534,-0.008217454887926579,0.01039474830031395,0.0
68,5,2.45941828325158e-06,-1.1748577890102752e-05,-2.9084738343954086e-05,-0.002120120683684945,0.0005556296673603356,0.002537687309086323,0.008373902179300785,0.29814454913139343,0.0008839492802508175,-0.0010565905831754208,0.0008730960544198751,0.004056475590914488,0.0,0.0,0.0,-0.0007032335270196199,-0.0019986259285360575,-0.0,0.0,0.0,0.0,-0.0026006177067756653,-0.08910626173019409,0.0002502702409401536,1495.0,1495.0,1495.0,1495.0,0.0,0.0,0.0,0.0,0.0,0.0,0.0,0.0,1495.0,1495.0,1495.0,1495.0,1.6480319499969482,-0.08076048630257004,-0.18605776807620175,-0.06568594563713534,0.00793685857206583,-0.0021481949370354414,0.0
73,5,-2.0791238057427108e-05,1.4863149772281758e-05,4.184553290542681e-06,-0.001987169962376356,-0.002149745589122176,-0.0027346708811819553,0.008373902179300785,0.29814454913139343,0.0008839492802508175,-0.0010565905831754208,0.0008730960544198751,0.004056475590914488,0.0,0.0,0.0,-0.0007032335270196199,-0.0019986259285360575,-0.0,0.0,0.0,0.0,-0.0026006177067756653,-0.08910626173019409,0.0002502702409401536,1495.0,1495.0,1495.0,1495.0,0.0,0.0,0.0,0.0,0.0,0.0,0.0,0.0,1495.0,1495.0,1495.0,1495.0,1.6480319499969482,-0.07939484606830542,-0.18542417233055378,-0.06557396540119184,0.00793685857206583,-0.0021481949370354414,0.0
78,5,-2.0791238057427108e-05,1.4863149772281758e-05,4.184553290542681e-06,-0.001987169962376356,-0.002149745589122176,-0.0027346708811819553,0.008408738300204277,0.2981782555580139,0.000877344748005271,0.00255398266017437,0.0029592651408165693,-0.0028668271843343973,0.0,0.0,0.0,0.0026532369665801525,-0.0018963100155815482,-0.0,0.0,0.0,0.0,-0.002070407150313258,-0.08955441415309906,0.0001133867262979038,3234.0,18921.0,18752.0,1495.0,0.014103994704782963,0.8269723057746887,0.8116310834884644,-0.009301957674324512,0.0,0.0,0.0,0.0,2927.0,18952.0,18714.0,1495.0,1.6558499336242676,-0.07939484606830542,-0.18542417233055378,-0.06557396540119184,0.007566245272755623,0.008143378421664238,0.0
83,5,6.310893923000549e-07,-1.4292832020146307e-05,-7.810271199559793e-05,0.00177581119351089,0.0026388196274638176,0.008780603297054768,0.008408738300204277,0.2981782555580139,0.000877344748005271,0.00255398266017437,0.0029592651408165693,-0.0028668271843343973,0.0,0.0,0.0,0.0026532369665801525,-0.0018963100155815482,-0.0,0.0,0.0,0.0,-0.002070407150313258,-0.08955441415309906,0.0001133867262979038,3234.0,18921.0,18752.0,1495.0,0.014103994704782963,0.8269723057746887,0.8116310834884644,-0.009301957674324512,0.0,0.0,0.0,0.0,2927.0,18952.0,18714.0,1495.0,1.6558499336242676,-0.08153934912396618,-0.1871996205072222,-0.06557839378663607,0.007566245272755623,0.008143378421664238,0.0
88,5,-3.6834779848504695e-07,1.2564716598717496e-05,-5.012931796954945e-05,0.0005903920391574502,-0.0021673780865967274,0.00015543369227088988,0.008377295918762684,0.2980941832065582,0.0008817690541036427,0.0022425006609410048,0.0031221110839396715,0.0013114168541505933,0.0,0.0,0.0,-0.0032450836151838303,0.001667484873905778,-0.0,0.0,0.0,0.0,-0.0015130540123209357,-0.08869635313749313,0.00014422426465898752,3747.0,18875.0,18794.0,1945.0,0.021163513883948326,0.8228200078010559,0.8154258131980896,0.0021990861278027296,0.0,0.0,0.0,0.0,3332.0,18864.0,18747.0,1495.0,1.6582225561141968,-0.08212260082292412,-0.1863616978868326,-0.06591672045126382,-0.006662759464234114,-0.00997414905577898,0.0
94,6,-1.1481391993584111e-05,-6.206529633345781e-06,-5.340080679161474e-05,-0.0008264408679679036,0.0018141336040571332,0.0017786219250410795,0.008377295918762684,0.2980941832065582,0.0008817690541036427,0.0022425006609410048,0.0031221110839396715,0.0013114168541505933,0.0,0.0,0.0,-0.0032450836151838303,0.001667484873905778,-0.0,0.0,0.0,0.0,-0.0015130540123209357,-0.08869635313749313,0.00014422426465898752,3747.0,18875.0,18794.0,1945.0,0.021163513883948326,0.8228200078010559,0.8154258131980896,0.0021990861278027296,0.0,0.0,0.0,0.0,3332.0,18864.0,18747.0,1495.0,1.6582225561141968,-0.07970022769811445,-0.18610224086883384,-0.0653952797956145,-0.006662759464234114,-0.00997414905577898,0.0
99,5,-1.2416216122801416e-05,-3.566227405826794e-06,-5.565703759202734e-06,-0.00044275520485825837,0.0004088171699550003,-0.005028763320297003,0.008377090096473694,0.2981013059616089,0.0008738645701669157,-0.0014326594537124038,0.0013634118949994445,0.0010141913080587983,0.0,0.0,0.0,-0.0022407379001379013,-0.000797230692114681,-0.0,0.0,0.0,0.0,-0.0027282561641186476,-0.09013679623603821,8.16710598883219e-06,3357.0,18973.0,18757.0,1495.0,0.01568552851676941,0.8317317366600037,0.8120641112327576,-0.01144940871745348,0.0,0.0,0.0,0.0,3363.0,18973.0,18765.0,1495.0,1.6461691856384277,-0.07865770985778313,-0.1849945800319784,-0.06531764910715632,0.003162344917654991,-0.0068371230736374855,0.0
104,5,1.6493877410539426e-05,-6.461097655119374e-05,-0.00010324750473955646,0.0032921091187745333,0.007488896604627371,0.009710310958325863,0.008395836688578129,0.29812923073768616,0.0008461126126348972,0.00011357282346580178,-0.0002039061364484951,-0.003103153081610799,0.0,0.0,0.0,-0.008976278826594353,0.003019484458491206,-0.0,0.0,0.0,0.0,-0.0017917341319844127,-0.0903327614068985,0.00020790804410353303,3725.0,18953.0,18748.0,1495.0,0.02083701640367508,0.8298700451850891,0.8112865090370178,-0.0158243365585804,0.0,0.0,0.0,0.0,2819.0,18991.0,18791.0,1495.0,1.7093029022216797,-0.08152386198375172,-0.18774654824365786,-0.06525756466993007,-0.012436139397323132,-0.028438935056328773,0.0
112,8,1.849829641287215e-05,1.5519079170189798e-05,5.43509449926205e-05,0.0015573740238323808,-0.006620048079639673,-0.01502768974751234,0.008395836688578129,0.29812923073768616,0.0008461126126348972,0.00011357282346580178,-0.0002039061364484951,-0.003103153081610799,0.0,0.0,0.0,-0.008976278826594353,0.003019484458491206,-0.0,0.0,0.0,0.0,-0.0017917341319844127,-0.0903327614068985,0.00020790804410353303,3725.0,18953.0,18748.0,1495.0,0.02083701640367508,0.8298700451850891,0.8112865090370178,-0.0158243365585804,0.0,0.0,0.0,0.0,2819.0,18991.0,18791.0,1495.0,1.7093029022216797,-0.08147980133894524,-0.18478249525041746,-0.06609431030092079,-0.012436139397323132,-0.028438935056328773,0.0
117,5,5.6699104789004195e-06,-3.179858686053194e-05,-3.212559022358619e-05,-0.0009164567454718053,0.0030301008373498917,0.00436610821634531,0.00840246956795454,0.29811543226242065,0.000860061845742166,-0.0029987050220370293,0.0012672512093558908,0.004591057077050209,0.0,0.0,0.0,0.00792977400124073,0.0014550343621522188,-0.0,0.0,0.0,0.0,-0.003216535085812211,-0.08985652029514313,0.00013304701133165509,5315.0,19156.0,18774.0,1495.0,0.05092959851026535,0.8484895825386047,0.8135990500450134,-0.003715305123478174,0.0,0.0,0.0,0.0,3602.0,18971.0,18724.0,1495.0,1.69480299949646,-0.08131862059967865,-0.1858373194320965,-0.06579966797685788,-0.00594197167083621,0.024910377338528633,0.0
122,5,3.299595164207858e-06,-2.182014759455342e-05,-5.530006455956027e-05,-0.0006510205566883087,1.46275542647345e-05,0.004527380224317312,0.00840246956795454,0.29811543226242065,0.000860061845742166,-0.0029987050220370293,0.0012672512093558908,0.004591057077050209,0.0,0.0,0.0,0.00792977400124073,0.0014550343621522188,-0.0,0.0,0.0,0.0,-0.003216535085812211,-0.08985652029514313,0.00013304701133165509,5315.0,19156.0,18774.0,1495.0,0.05092959851026535,0.8484895825386047,0.8135990500450134,-0.003715305123478174,0.0,0.0,0.0,0.0,3602.0,18971.0,18724.0,1495.0,1.69480299949646,-0.08206301709094295,-0.18699070026221012,-0.06546315998947415,-0.00594197167083621,0.024910377338528633,0.0
128,5,1.2114083801861852e-05,-7.217956863314612e-06,-4.931518924422562e-05,0.0007973304600454867,-0.0017464117845520377,0.0010927669936791062,0.008392367511987686,0.29814520478248596,0.0008511000778526068,-0.0003897153364960104,-0.0008512715576216578,0.0015248456038534641,0.0,0.0,0.0,-5.7871307944878936e-05,-0.000616036937572062,-0.0,0.0,0.0,0.0,-0.005220711696892977,-0.08891069889068604,1.823548154789023e-05,3716.0,18933.0,18981.0,3193.0,0.020707299932837486,0.8280466794967651,0.8324427604675293,0.013606319203972816,0.0,0.0,0.0,0.0,5178.0,19189.0,18758.0,1495.0,1.6323405504226685,-0.08204765625960325,-0.1860517138578734,-0.06560059703687819,0.0024230892304331064,-0.00017509858298581094,0.0
133,6,-6.6198722379340325e-06,9.566979315422941e-06,-5.156721090315841e-05,-0.0019291425123810768,-0.0027127570938318968,0.0007073493907228112,0.008392367511987686,0.29814520478248596,0.0008511000778526068,-0.0003897153364960104,-0.0008512715576216578,0.0015248456038534641,0.0,0.0,0.0,-5.7871307944878936e-05,-0.000616036937572062,-0.0,0.0,0.0,0.0,-0.005220711696892977,-0.08891069889068604,1.823548154789023e-05,3716.0,18933.0,18981.0,3193.0,0.020707299932837486,0.8280466794967651,0.8324427604675293,0.013606319203972816,0.0,0.0,0.0,0.0,5178.0,19189.0,18758.0,1495.0,1.6323405504226685,-0.08126858050398163,-0.1865775394744948,-0.06542859343969572,0.0024230892304331064,-0.00017509858298581094,0.0
138,5,3.979928806074895e-06,-1.64837583724875e-05,-0.00011795814498327672,0.0005003191181458533,0.002040985506027937,0.008249851875007153,0.008392367511987686,0.29814520478248596,0.0008511000778526068,-0.0003897153364960104,-0.0008512715576216578,0.0015248456038534641,0.0,0.0,0.0,0.003323798766359687,-0.0018179845064878464,-0.0,0.0,0.0,0.0,-0.005220711696892977,-0.08891069889068604,1.823548154789023e-05,3716.0,18933.0,18981.0,3193.0,0.020707299932837486,0.8280466794967651,0.8324427604675293,0.013606319203972816,0.0,0.0,0.0,0.0,5178.0,19189.0,18758.0,1495.0,1.6597107648849487,-0.08206768176675078,-0.18743323535348316,-0.06543515554044065,0.007270626723766327,0.010225256904959679,0.0
143,5,1.6382435887862812e-06,-3.5735243727685884e-05,-0.00012633118603844196,-8.087459718808532e-05,0.0031265723519027233,0.004304705653339624,0.008387778885662556,0.29818686842918396,0.000830579549074173,-0.0006307336734607816,0.00404349947348237,-0.0013100475771352649,0.0,0.0,0.0,0.003323798766359687,-0.0018179845064878464,-0.0,0.0,0.0,0.0,-0.00016275116649921983,-0.08953645825386047,6.44518740955391e-06,3550.0,18959.0,18957.0,3368.0,0.01830574870109558,0.8303971886634827,0.8302802443504333,0.015819843858480453,0.0,0.0,0.0,0.0,3586.0,18950.0,18977.0,3253.0,1.6597107648849487,-0.08095945209554628,-0.1873398312308229,-0.06566638611488634,0.007270626723766327,0.010225256904959679,0.0
148,5,-6.057259724912001e-06,-6.422068508982193e-06,-6.327743176370859e-05,-0.0009558102465234697,-0.002266951836645603,-0.005844568368047476,0.008387778885662556,0.29818686842918396,0.000830579549074173,-0.0006307336734607816,0.00404349947348237,-0.0013100475771352649,0.0,0.0,0.0,-0.003879099851474166,-7.36368601792492e-05,-0.0,0.0,0.0,0.0,-0.00016275116649921983,-0.08953645825386047,6.44518740955391e-06,3550.0,18959.0,18957.0,3368.0,0.01830574870109558,0.8303971886634827,0.8302802443504333,0.015819843858480453,0.0,0.0,0.0,0.0,3586.0,18950.0,18977.0,3253.0,1.6580361127853394,-0.0802717440044968,-0.18653751515143582,-0.0654419051633497,0.00029419673955999315,-0.011921516619622707,0.0
153,5,1.4142126474325778e-06,-1.1647469364106655e-05,-3.71195055777207e-05,0.0005142525769770145,-0.0002797326596919447,-0.005476778373122215,0.008369836956262589,0.298169881105423,0.0008505714940838516,0.0004690258065238595,0.0046123480424284935,0.004095941781997681,0.0,0.0,0.0,-0.003879099851474166,-7.36368601792492e-05,-0.0,0.0,0.0,0.0,-0.0026006491389125586,-0.0900883749127388,9.264695836463943e-05,3225.0,18894.0,18743.0,1495.0,0.013995821587741375,0.8244798183441162,0.8107931613922119,-0.016928281635046005,0.0,0.0,0.0,0.0,3188.0,18944.0,18874.0,1495.0,1.6580361127853394,-0.08074534418617332,-0.18640147244298025,-0.06546782567997446,0.00029419673955999315,-0.011921516619622707,0.0
158,5,-1.5444074961123988e-05,-8.39243693917524e-06,9.481368579145055e-06,-0.0017112416680902243,-0.002351591596379876,-0.006630489137023687,0.008369836956262589,0.298169881105423,0.0008505714940838516,0.0004690258065238595,0.0046123480424284935,0.004095941781997681,0.0,0.0,0.0,-0.003879099851474166,-7.36368601792492e-05,-0.0,0.0,0.0,0.0,-0.0026006491389125586,-0.0900883749127388,9.264695836463943e-05,3225.0,18894.0,18743.0,1495.0,0.013995821587741375,0.8244798183441162,0.8107931613922119,-0.016928281635046005,0.0,0.0,0.0,0.0,3188.0,18944.0,18874.0,1495.0,1.6580361127853394,-0.07981856866354013,-0.18656377797807672,-0.06520081286777388,0.006502080243080854,0.008771955035626888,0.0
163,5,-3.4894658256234834e-06,-3.2704250770621e-05,-1.3068701264273841e-05,0.000750056526158005,0.001976781291887164,5.381279333960265e-05,0.008372493088245392,0.2981569170951843,0.00085236388258636,0.0016825248021632433,-0.001855930546298623,0.0016997280763462186,0.0,0.0,0.0,0.002858954481780529,-0.0016301242867484689,-0.0,0.0,0.0,0.0,-0.001578505034558475,-0.09050887823104858,0.00010948411363642663,3128.0,18960.0,18878.0,1495.0,0.012811058200895786,0.8305643200874329,0.8230895400047302,-0.006754172034561634,0.0,0.0,0.0,0.0,3928.0,19030.0,18760.0,1495.0,1.6553188562393188,-0.08050151159119966,-0.1861953882405404,-0.06523628932304323,0.006502080243080854,0.008771955035626888,0.0
168,5,-3.4894658256234834e-06,-3.2704250770621e-05,-1.3068701264273841e-05,0.000750056526158005,0.001976781291887164,5.381279333960265e-05,0.008372493088245392,0.2981569170951843,0.00085236388258636,0.0016825248021632433,-0.001855930546298623,0.0016997280763462186,0.0,0.0,0.0,0.002858954481780529,-0.0016301242867484689,-0.0,0.0,0.0,0.0,-0.001578505034558475,-0.09050887823104858,0.00010948411363642663,3128.0,18960.0,18878.0,1495.0,0.012811058200895786,0.8305643200874329,0.8230895400047302,-0.006754172034561634,0.0,0.0,0.0,0.0,3928.0,19030.0,18760.0,1495.0,1.6553188562393188,-0.08050151159119966,-0.1861953882405404,-0.06523628932304323,-0.002793526276946068,-0.007593273185193539,0.0
174,5,1.2299172340135556e-05,-1.5791993064340204e-05,-3.7363588489824906e-05,0.002192009938880801,-0.0016522080404683948,0.00154703832231462,0.008376838639378548,0.2982240617275238,0.0008264321368187666,-0.0001535802148282528,-0.0016787545755505562,-0.0006420090794563293,0.0,0.0,0.0,-0.0024862736463546753,0.0007036065799184144,-0.0,0.0,0.0,0.0,-0.0036696733441203833,-0.09022176265716553,-0.00013177662913221866,3654.0,19073.0,18716.0,1495.0,0.01979263871908188,0.8408437967300415,0.8083487749099731,-0.010949049144983292,0.0,0.0,0.0,0.0,3844.0,19055.0,18730.0,1495.0,1.647678017616272,-0.08155802385494738,-0.18595963076140248,-0.06566620490813523,-0.002793526276946068,-0.007593273185193539,0.0
179,5,2.2530843125423416e-05,7.828894922567997e-06,-5.670191967510618e-05,0.002104604383930564,-0.0034953898284584284,0.0029394151642918587,0.008376838639378548,0.2982240617275238,0.0008264321368187666,-0.0001535802148282528,-0.0016787545755505562,-0.0006420090794563293,0.0,0.0,0.0,0.004254906438291073,0.001995190279558301,-0.0,0.0,0.0,0.0,-0.0036696733441203833,-0.09022176265716553,-0.00013177662913221866,3654.0,19073.0,18716.0,1495.0,0.01979263871908188,0.8408437967300415,0.8083487749099731,-0.010949049144983292,0.0,0.0,0.0,0.0,3844.0,19055.0,18730.0,1495.0,1.6674025058746338,-0.08334539643135225,-0.18599843806570113,-0.06562347781960702,-0.008016271516680717,0.013150328770279884,0.0
184,5,1.8372795238974504e-05,8.497591807099525e-06,-7.229483162518591e-05,0.0003428760392125696,-0.0014783994993194938,0.003046915866434574,0.008480041287839413,0.2982083261013031,0.0006712367758154869,0.0005473913042806089,0.0025714635848999023,0.006136266514658928,0.0,0.0,0.0,0.004254906438291073,0.001995190279558301,-0.0,0.0,0.0,0.0,-0.0017551936907693744,-0.0905599445104599,-0.0006217440241016448,2243.0,19044.0,18768.0,1495.0,0.004212033934891224,0.8382183909416199,0.8131030201911926,-0.00021455343812704086,0.0,0.0,0.0,0.0,4816.0,18642.0,19173.0,1495.0,1.6674025058746338,-0.08304130928201392,-0.18664939072595435,-0.06525829416934169,-0.008016271516680717,0.013150328770279884,0.0
189,5,2.741052594501525e-05,-1.6730022252886556e-05,-9.173373109661043e-05,0.0012216779869049788,0.0024359538219869137,0.003551434027031064,0.008480041287839413,0.2982083261013031,0.0006712367758154869,0.0005473913042806089,0.0025714635848999023,0.006136266514658928,0.0,0.0,0.0,0.004254906438291073,0.001995190279558301,-0.0,0.0,0.0,0.0,-0.0017551936907693744,-0.0905599445104599,-0.0006217440241016448,2243.0,19044.0,18768.0,1495.0,0.004212033934891224,0.8382183909416199,0.8131030201911926,-0.00021455343812704086,0.0,0.0,0.0,0.0,4816.0,18642.0,19173.0,1495.0,1.6674025058746338,-0.08192214130826583,-0.18655353043184286,-0.06577984927098404,-0.008016271516680717,0.013150328770279884,0.0
194,5,-7.583038495795336e-06,-1.240463802787417e-06,-5.73035104025621e-05,-0.0037105565425008535,-0.0008843654650263488,-0.002711053006350994,0.008414888754487038,0.2981659471988678,0.0007796671707183123,0.004271125420928001,0.014164588414132595,-0.06171518936753273,0.0,0.0,0.0,-0.0030100694857537746,0.001187472022138536,-0.0,0.0,0.0,0.0,-0.0030446352902799845,-0.08967718482017517,0.0005693853599950671,1495.0,19225.0,18441.0,3115.0,-0.0037056468427181244,0.8549310564994812,0.7837960720062256,0.012656579725444317,0.0,0.0,0.0,0.0,1495.0,19516.0,18169.0,4394.0,1.6538373231887817,-0.08095575300448402,-0.18673366971244243,-0.06516920613012474,-0.004732231609523296,-0.009227342903614044,0.0
199,5,7.647326128790155e-06,3.937481778848451e-06,-6.654734897892922e-05,0.0003434211830608547,-0.0009750996832735837,2.4839595425873995e-05,0.008414888754487038,0.2981659471988678,0.0007796671707183123,0.004271125420928001,0.014164588414132595,-0.06171518936753273,0.0,0.0,0.0,-0.0030100694857537746,0.001187472022138536,-0.0,0.0,0.0,0.0,-0.0030446352902799845,-0.08967718482017517,0.0005693853599950671,1495.0,19225.0,18441.0,3115.0,-0.0037056468427181244,0.8549310564994812,0.7837960720062256,0.012656579725444317,0.0,0.0,0.0,0.0,1495.0,19516.0,18169.0,4394.0,1.6538373231887817,-0.08185404666543625,-0.18668376133078274,-0.06538946718223028,-0.004732231609523296,-0.009227342903614044,0.0
204,5,-1.1359772543073632e-05,2.336981015105266e-05,1.1237666512897704e-05,-0.0021434833761304617,-0.00272191921249032,-0.009324266575276852,0.008543679490685463,0.2982824742794037,0.000900078215636313,-0.028193417936563492,-0.006841898430138826,0.10183319449424744,0.0,0.0,0.0,0.0012125514913350344,0.0003373286745045334,-0.0,0.0,0.0,0.0,-0.003798522287979722,-0.08967991173267365,-0.002085528103634715,6258.0,18267.0,19537.0,1495.0,0.0747685581445694,0.7684208750724792,0.8840887546539307,-0.05987567827105522,0.0,0.0,0.0,0.0,5395.0,18459.0,19317.0,1495.0,1.636359453201294,-0.07825716790683929,-0.18416463429945537,-0.06576508243656483,-0.001330097671598196,0.003677792614325881,0.0
209,5,2.0377468899823725e-05,1.5521207387791947e-05,2.5490817279205658e-05,0.002951075555756688,-0.0001469354028813541,-0.005440084263682365,0.008543679490685463,0.2982824742794037,0.000900078215636313,-0.028193417936563492,-0.006841898430138826,0.10183319449424744,0.0,0.0,0.0,0.0012125514913350344,0.0003373286745045334,-0.0,0.0,0.0,0.0,-0.003798522287979722,-0.08967991173267365,-0.002085528103634715,6258.0,18267.0,19537.0,1495.0,0.0747685581445694,0.7684208750724792,0.8840887546539307,-0.05987567827105522,0.0,0.0,0.0,0.0,5395.0,18459.0,19317.0,1495.0,1.636359453201294,-0.08162802072283878,-0.1854588030721924,-0.0661648859607263,-0.001330097671598196,0.003677792614325881,0.0
214,5,-4.964206709701102e-06,-3.239589568693191e-05,-4.8212601541308686e-05,-0.0018605708610266447,0.005691278260201216,0.006668376736342907,0.008714024908840656,0.29827168583869934,0.000520873349159956,0.06158890947699547,-0.00823543407022953,-0.07370719313621521,0.0,0.0,0.0,0.00020717192091979086,0.002801364054903388,-0.0,0.0,0.0,0.0,-0.003798522287979722,-0.08967991173267365,-0.002085528103634715,1495.0,19585.0,18134.0,4436.0,-0.02427605725824833,0.8885929584503174,0.7568005919456482,0.032719798386096954,0.0,0.0,0.0,0.0,1495.0,19386.0,18407.0,2769.0,1.6560664176940918,-0.08059495784916387,-0.1863086853506308,-0.06527314992290319,-0.011178888380527496,0.0006359415128827095,0.0
219,5,-2.978350948978914e-06,-2.212358776887413e-05,-1.2581228475028183e-05,-0.0005059256218373775,0.0010438342578709126,-0.0016084142262116075,0.008714024908840656,0.29827168583869934,0.000520873349159956,0.06158890947699547,-0.00823543407022953,-0.07370719313621521,0.0,0.0,0.0,0.00020717192091979086,0.002801364054903388,-0.0,0.0,0.0,0.0,-0.003798522287979722,-0.08967991173267365,-0.002085528103634715,1495.0,19585.0,18134.0,4436.0,-0.02427605725824833,0.8885929584503174,0.7568005919456482,0.032719798386096954,0.0,0.0,0.0,0.0,1495.0,19386.0,18407.0,2769.0,1.6560664176940918,-0.08064662843425105,-0.1876464757937914,-0.06551751717638507,-0.011178888380527496,0.0006359415128827095,0.0
224,5,6.414274139387999e-06,-3.801123966695741e-05,-1.6707248505554162e-05,0.0009247447596862912,0.002324051922187209,-0.0001482433726778254,0.008451420813798904,0.2983822226524353,0.0008995264652185142,-0.0723804458975792,0.019831687211990356,0.014514388516545296,0.0,0.0,0.0,-0.001329613383859396,-0.00048479760880582035,-0.0,0.0,0.0,0.0,-0.0015478867571800947,-0.09056659787893295,0.002088985638692975,4742.0,18492.0,19162.0,1495.0,0.03862261399626732,0.7882798910140991,0.8491137027740479,-0.03965676948428154,0.0,0.0,0.0,0.0,1495.0,19378.0,18207.0,4872.0,1.6378669738769531,-0.08114583760046407,-0.18703094396631015,-0.06559383573646956,0.0019133331952616572,-0.004036568570882082,0.0
229,5,1.820373290684074e-05,-1.190828606922878e-05,-3.086095966864377e-05,0.0017846330301836133,-0.002202733652666211,0.00163914798758924,0.008451420813798904,0.2983822226524353,0.0008995264652185142,-0.0723804458975792,0.019831687211990356,0.014514388516545296,0.0,0.0,0.0,-0.001329613383859396,-0.00048479760880582035,-0.0,0.0,0.0,0.0,-0.0015478867571800947,-0.09056659787893295,0.002088985638692975,4742.0,18492.0,19162.0,1495.0,0.03862261399626732,0.7882798910140991,0.8491137027740479,-0.03965676948428154,0.0,0.0,0.0,0.0,1495.0,19378.0,18207.0,4872.0,1.6378669738769531,-0.08274986869058923,-0.18701913922782398,-0.06549885519073227,0.0019133331952616572,-0.004036568570882082,0.0
234,5,1.3515518730855547e-05,-5.495430377777666e-05,-0.00011609775538090616,0.0001512675080448389,0.004284428898245096,0.010884075425565243,0.00866190530359745,0.2980961203575134,0.0006438983837142587,0.0063423654064536095,0.01443052850663662,0.09719137847423553,0.0,0.0,0.0,0.0026718531735241413,0.001703781308606267,-0.0,0.0,0.0,0.0,-0.0024300382938236,-0.08889207243919373,-0.0023556409869343042,5811.0,18536.0,19138.0,1495.0,0.06291820108890533,0.7922576069831848,0.8468437194824219,-0.04595308378338814,0.0,0.0,0.0,0.0,6347.0,18238.0,19426.0,1495.0,1.6545753479003906,-0.0819987963498858,-0.18760519060857966,-0.06586911838796937,-0.006792827043682337,0.008194203488528728,0.0
239,5,3.188278788002208e-05,-3.71731621271465e-05,-0.0001049613201757893,0.0022645792923867702,-0.00041996565414592624,0.0030172576662153006,0.00866190530359745,0.2980961203575134,0.0006438983837142587,0.0063423654064536095,0.01443052850663662,0.09719137847423553,0.0,0.0,0.0,0.0026718531735241413,0.001703781308606267,-0.0,0.0,0.0,0.0,-0.0024300382938236,-0.08889207243919373,-0.0023556409869343042,5811.0,18536.0,19138.0,1495.0,0.06291820108890533,0.7922576069831848,0.8468437194824219,-0.04595308378338814,0.0,0.0,0.0,0.0,6347.0,18238.0,19426.0,1495.0,1.6545753479003906,-0.08107992102214956,-0.1864015931441307,-0.06575394746277644,-0.006792827043682337,0.008194203488528728,0.0
244,5,2.1515794287552126e-05,1.1348727639415301e-05,-5.6171946198446676e-05,-0.00033820749376900494,-0.0059906127862632275,-0.004647822119295597,0.00846525002270937,0.29770928621292114,0.00027107010828331113,0.062088947743177414,0.08887976408004761,-0.09829305857419968,0.0,0.0,0.0,0.00044799086754210293,0.0021807535085827112,-0.0,0.0,0.0,0.0,-0.0010501545621082187,-0.0867730975151062,0.0012333065969869494,1495.0,19694.0,17750.0,5896.0,-0.049819014966487885,0.8989519476890564,0.7236396670341492,0.06509441882371902,0.0,0.0,0.0,0.0,3137.0,19123.0,18369.0,1914.0,1.6495269536972046,-0.0794199123129571,-0.18446055303973546,-0.06547966059787493,-0.008667971938848495,0.0013697367394343019,0.0
250,5,5.924850847804919e-05,-3.5624186693894444e-06,-7.790744712110609e-05,0.00439264252781868,-0.0006069075898267329,0.0007491314900107682,0.00846525002270937,0.29770928621292114,0.00027107010828331113,0.062088947743177414,0.08887976408004761,-0.09829305857419968,0.0,0.0,0.0,0.00044799086754210293,0.0021807535085827112,-0.0,0.0,0.0,0.0,-0.0010501545621082187,-0.0867730975151062,0.0012333065969869494,1495.0,19694.0,17750.0,5896.0,-0.049819014966487885,0.8989519476890564,0.7236396670341492,0.06509441882371902,0.0,0.0,0.0,0.0,3137.0,19123.0,18369.0,1914.0,1.6495269536972046,-0.08077616915361738,-0.1842060356349558,-0.06595715271793404,-0.008667971938848495,0.0013697367394343019,0.0
255,5,9.204748494084924e-05,-2.3785791825048364e-07,-3.653889871202409e-05,0.005692934151738882,-0.0006417102995328605,-0.004664573352783918,0.008505010977387428,0.2961939871311188,0.00021358506637625396,-0.0818810984492302,0.2135673314332962,-0.054276738315820694,0.0,0.0,0.0,0.0007280043791979551,0.004170695319771767,-0.0,0.0,0.0,0.0,-0.003942299168556929,-0.07827174663543701,0.0006101179751567543,3549.0,18765.0,18509.0,4481.0,0.018293675035238266,0.8128476142883301,0.7898752093315125,0.03355884552001953,0.0,0.0,0.0,0.0,1495.0,19260.0,17718.0,6960.0,1.6715624332427979,-0.07922757869157018,-0.18141178531511423,-0.06574257576473844,-0.016798928380012512,0.00225561554543674,0.0
260,5,0.00016389992379117757,-4.26070619141683e-05,-5.1354789320612326e-05,0.010899465531110764,0.0048276204615831375,-8.792275912128389e-05,0.008505010977387428,0.2961939871311188,0.00021358506637625396,-0.0818810984492302,0.2135673314332962,-0.054276738315820694,0.0,0.0,0.0,0.0007280043791979551,0.004170695319771767,-0.0,0.0,0.0,0.0,-0.003942299168556929,-0.07827174663543701,0.0006101179751567543,3549.0,18765.0,18509.0,4481.0,0.018293675035238266,0.8128476142883301,0.7898752093315125,0.03355884552001953,0.0,0.0,0.0,0.0,1495.0,19260.0,17718.0,6960.0,1.6715624332427979,-0.07768690953020327,-0.17792177364674397,-0.06536810072693947,-0.016798928380012512,0.00225561554543674,0.0
265,5,0.0002516426320653409,-8.374463504878804e-05,-8.737472671782598e-05,0.014888911508023739,0.006867557298392057,0.004287223797291517,0.008970322087407112,0.29313722252845764,9.266678534913808e-05,0.04415286332368851,0.5621373057365417,0.030490601435303688,0.0,0.0,0.0,-0.005660217721015215,0.00991866271942854,-0.0,0.0,0.0,0.0,-0.001128012896515429,-0.06132272630929947,0.00020372620201669633,9774.0,16865.0,17622.0,7281.0,0.20296037197113037,0.6501557230949402,0.7127645015716553,0.10568181425333023,0.0,0.0,0.0,0.0,7032.0,17997.0,17777.0,6480.0,1.7479639053344727,-0.07955751087749072,-0.17398116853113965,-0.06452075795583094,-0.041775669902563095,-0.018338758498430252,0.0
270,5,0.00042913900688290596,-8.824734686641023e-05,-8.835773769533262e-05,0.02725513093173504,0.0032873479649424553,0.0018328509759157896,0.008970322087407112,0.29313722252845764,9.266678534913808e-05,0.04415286332368851,0.5621373057365417,0.030490601435303688,0.0,0.0,0.0,-0.005660217721015215,0.00991866271942854,-0.0,0.0,0.0,0.0,-0.001128012896515429,-0.06132272630929947,0.00020372620201669633,9774.0,16865.0,17622.0,7281.0,0.20296037197113037,0.6501557230949402,0.7127645015716553,0.10568181425333023,0.0,0.0,0.0,0.0,7032.0,17997.0,17777.0,6480.0,1.7479639053344727,-0.08080896854389888,-0.16969655309413756,-0.06361628385507703,-0.041775669902563095,-0.018338758498430252,0.0
275,5,0.0005986680625937879,-0.00017696863505989313,-0.00018661639478523284,0.031245538964867592,0.011961492709815502,0.012524179182946682,0.008508911356329918,0.2824419438838959,0.0002897102094721049,0.017073506489396095,1.1980650424957275,0.05945780500769615,0.0,0.0,0.0,-0.003633728716522455,0.022812185809016228,-0.0,0.0,0.0,0.0,-0.0055927699431777,-0.03545968234539032,-0.002305443864315748,11687.0,16483.0,15013.0,12077.0,0.29876312613487244,0.6195951104164124,0.509047269821167,0.3205583989620209,0.0,0.0,0.0,0.0,10128.0,16789.0,16914.0,8621.0,1.9025133848190308,-0.0781057030418771,-0.16215170897446907,-0.06277290864838438,-0.10456973314285278,-0.012814068235456944,0.0
280,5,0.0007689225603826344,-0.0003818507248070091,-0.00047291614464484155,0.03292875736951828,0.029370447620749474,0.03936564177274704,0.008508911356329918,0.2824419438838959,0.0002897102094721049,0.017073506489396095,1.1980650424957275,0.05945780500769615,0.0,0.0,0.0,-0.003633728716522455,0.022812185809016228,-0.0,0.0,0.0,0.0,-0.0055927699431777,-0.03545968234539032,-0.002305443864315748,11687.0,16483.0,15013.0,12077.0,0.29876312613487244,0.6195951104164124,0.509047269821167,0.3205583989620209,0.0,0.0,0.0,0.0,10128.0,16789.0,16914.0,8621.0,1.9025133848190308,-0.06799103548720072,-0.1487953767135074,-0.06213197685678098,-0.10456973314285278,-0.012814068235456944,0.0
285,5,0.0010645672446116805,-0.00039836892392486334,-0.0005952392821200192,0.048648860305547714,0.013730362989008427,0.03042503446340561,0.008508911356329918,0.2824419438838959,0.0002897102094721049,0.017073506489396095,1.1980650424957275,0.05945780500769615,0.0,0.0,0.0,-0.029357219114899635,0.02570326067507267,-0.0,0.0,0.0,0.0,-0.0055927699431777,-0.03545968234539032,-0.002305443864315748,11687.0,16483.0,15013.0,12077.0,0.29876312613487244,0.6195951104164124,0.509047269821167,0.3205583989620209,0.0,0.0,0.0,0.0,10128.0,16789.0,16914.0,8621.0,2.063215970993042,-0.06679909410411343,-0.13712179015705372,-0.06056245584203248,-0.12771733105182648,-0.11224184930324554,0.0
290,5,0.0014538834802806377,-0.0005094202351756394,-0.0007940829964354634,0.06617749482393265,0.01881830021739006,0.03603125736117363,0.008776466362178326,0.2363162487745285,0.0005297604948282242,-0.015924938023090363,3.2238221168518066,-0.08084890246391296,0.0,0.0,0.0,-0.029357219114899635,0.02570326067507267,-0.0,0.0,0.0,0.0,-0.0034802949521690607,0.0024540803860872984,0.0005953946383669972,14913.0,14641.0,13330.0,15196.0,0.50191330909729,0.4827152192592621,0.3956855833530426,0.522199273109436,0.0,0.0,0.0,0.0,13825.0,14612.0,15643.0,11425.0,2.063215970993042,-0.06353457193628889,-0.11984413346795089,-0.05959416538360655,-0.12771733105182648,-0.11224184930324554,0.0
295,5,0.001826531603001058,-0.000597811711486429,-0.0008472443441860378,0.07118877023458481,0.01813429780304432,0.020791862159967422,0.008776466362178326,0.2363162487745285,0.0005297604948282242,-0.015924938023090363,3.2238221168518066,-0.08084890246391296,0.0,0.0,0.0,-0.017299730330705643,0.04647978022694588,-0.0,0.0,0.0,0.0,-0.0034802949521690607,0.0024540803860872984,0.0005953946383669972,14913.0,14641.0,13330.0,15196.0,0.50191330909729,0.4827152192592621,0.3956855833530426,0.522199273109436,0.0,0.0,0.0,0.0,13825.0,14612.0,15643.0,11425.0,2.288431167602539,-0.0572480107548684,-0.10095463676698936,-0.05555535567677947,-0.2561724781990051,-0.07337471097707748,0.0
300,5,0.0022441709879785776,-0.0006045147310942411,-0.0009964372729882598,0.0785922259092331,0.008058086037635803,0.02621990256011486,0.00894002616405487,0.20582571625709534,0.0012059297878295183,-0.022016389295458794,4.308966159820557,0.0833960473537445,0.0,0.0,0.0,-0.017299730330705643,0.04647978022694588,-0.0,0.0,0.0,0.0,-0.003785636043176055,0.03880718722939491,0.002013435820117593,19243.0,11042.0,12082.0,16506.0,0.856550931930542,0.2643972635269165,0.3207988739013672,0.6214688420295715,0.0,0.0,0.0,0.0,15556.0,14034.0,12122.0,16096.0,2.288431167602539,-0.054788455608667616,-0.07777747625734077,-0.05434769879362311,-0.2561724781990051,-0.07337471097707748,0.0
306,5,0.002693956019356847,-0.0006757826777175069,-0.0011753878789022565,0.08541110157966614,0.011775384657084942,0.03196202963590622,0.00894002616405487,0.20582571625709534,0.0012059297878295183,-0.022016389295458794,4.308966159820557,0.0833960473537445,0.0,0.0,0.0,-0.007597688119858503,0.05352108180522919,-0.0,0.0,0.0,0.0,-0.003785636043176055,0.03880718722939491,0.002013435820117593,19243.0,11042.0,12082.0,16506.0,0.856550931930542,0.2643972635269165,0.3207988739013672,0.6214688420295715,0.0,0.0,0.0,0.0,15556.0,14034.0,12122.0,16096.0,2.3823068141937256,-0.05426868188237996,-0.05579548011643257,-0.05243934676309618,-0.3070821464061737,-0.03354904055595398,0.0
311,5,0.003213538322597742,-0.0006713149487040937,-0.0012656672624871135,0.09651432931423187,0.004174030851572752,0.023618334904313087,0.008625240996479988,0.14885255694389343,0.0019657525699585676,0.015394109301269054,5.115132808685303,0.07095937430858612,0.0,0.0,0.0,-0.007597688119858503,0.05352108180522919,-0.0,0.0,0.0,0.0,-0.011504236608743668,0.07836847752332687,-0.00022941379575058818,21069.0,9088.0,9173.0,19751.0,1.03434157371521,0.173081174492836,0.17664377391338348,0.9043646454811096,0.0,0.0,0.0,0.0,19338.0,10916.0,9899.0,17839.0,2.3823068141937256,-0.05536703089316693,-0.02572582195631574,-0.051755961688906574,-0.3070821464061737,-0.03354904055595398,0.0
316,5,0.0036550445947796106,-0.0007581676472909749,-0.0015285802073776722,0.09158647060394287,0.012091933749616146,0.040996890515089035,0.008625240996479988,0.14885255694389343,0.0019657525699585676,0.015394109301269054,5.115132808685303,0.07095937430858612,0.0,0.0,0.0,-0.004122363869100809,0.06224251911044121,-0.0,0.0,0.0,0.0,-0.011504236608743668,0.07836847752332687,-0.00022941379575058818,21069.0,9088.0,9173.0,19751.0,1.03434157371521,0.173081174492836,0.17664377391338348,0.9043646454811096,0.0,0.0,0.0,0.0,19338.0,10916.0,9899.0,17839.0,2.532846212387085,-0.053455345939957585,0.0020049635597696553,-0.050216693549069956,-0.3796328008174896,-0.019353585317730904,0.0
321,5,0.004159670323133469,-0.0009236345067620277,-0.0018957804422825575,0.09718968719244003,0.024692798033356667,0.06046278402209282,0.008445123210549355,0.10582530498504639,0.002821889240294695,0.0036150391679257154,5.520442962646484,-0.033401377499103546,0.0,0.0,0.0,-0.004122363869100809,0.06224251911044121,-0.0,0.0,0.0,0.0,-0.0072119953110814095,0.11046809703111649,0.0008783041266724467,22056.0,6253.0,1495.0,21491.0,1.1374131441116333,0.07463977485895157,-0.001473254058510065,1.0778515338897705,0.0,0.0,0.0,0.0,21980.0,6229.0,9125.0,19816.0,2.532846212387085,-0.044558620198208804,0.028867859751439826,-0.0464314550206386,-0.3796328008174896,-0.019353585317730904,0.0
326,5,0.004635148216038942,-0.00102133397012949,-0.0022181542590260506,0.09593319892883301,0.021601051092147827,0.06286997348070145,0.008445123210549355,0.10582530498504639,0.002821889240294695,0.0036150391679257154,5.520442962646484,-0.033401377499103546,0.0,0.0,0.0,-0.020490100607275963,0.0625477060675621,-0.0,0.0,0.0,0.0,-0.0072119953110814095,0.11046809703111649,0.0008783041266724467,22056.0,6253.0,1495.0,21491.0,1.1374131441116333,0.07463977485895157,-0.001473254058510065,1.0778515338897705,0.0,0.0,0.0,0.0,21980.0,6229.0,9125.0,19816.0,2.5724825859069824,-0.045796275487886,0.053634563287900464,-0.04569702175775082,-0.38738366961479187,-0.09768994897603989,0.0
331,5,0.00514658959582448,-0.001120633794926107,-0.002391861518844962,0.09974624961614609,0.020556407049298286,0.045992858707904816,0.008955061435699463,0.04126931354403496,0.004225495737046003,0.04506226256489754,5.2554473876953125,0.12424544990062714,0.0,0.0,0.0,-0.020490100607275963,0.0625477060675621,-0.0,0.0,0.0,0.0,-0.004563197027891874,0.12996047735214233,0.003544289618730545,23860.0,1495.0,7958.0,21825.0,1.3383647203445435,-0.04733578860759735,0.12899033725261688,1.1128268241882324,0.0,0.0,0.0,0.0,22578.0,5108.0,1495.0,22170.0,2.5724825859069824,-0.04089811409001402,0.08118540291463597,-0.04552732587956884,-0.38738366961479187,-0.09768994897603989,0.0
336,5,0.005531045142561197,-0.0012238695053383708,-0.0025537600740790367,0.08603319525718689,0.02061084285378456,0.03782495856285095,0.008955061435699463,0.04126931354403496,0.004225495737046003,0.04506226256489754,5.2554473876953125,0.12424544990062714,0.0,0.0,0.0,-0.017310187220573425,0.06440109759569168,-0.0,0.0,0.0,0.0,-0.004563197027891874,0.12996047735214233,0.003544289618730545,23860.0,1495.0,7958.0,21825.0,1.3383647203445435,-0.04733578860759735,0.12899033725261688,1.1128268241882324,0.0,0.0,0.0,0.0,22578.0,5108.0,1495.0,22170.0,2.5953521728515625,-0.03717735736197209,0.10371489222521085,-0.043655757303958174,-0.402416855096817,-0.08326590806245804,0.0
341,5,0.005891595501452684,-0.0013363811885938048,-0.0026320924516767263,0.07767932862043381,0.02174573950469494,0.02452988363802433,0.009792797267436981,0.002994971349835396,0.004554069600999355,0.2292672097682953,4.319703102111816,0.12729749083518982,0.0,0.0,0.0,-0.017310187220573425,0.06440109759569168,-0.0,0.0,0.0,0.0,-0.0064275069162249565,0.12635186314582825,-0.00019921641796827316,23477.0,4187.0,6710.0,21915.0,1.2944005727767944,0.028282538056373596,0.08776754140853882,1.1223955154418945,0.0,0.0,0.0,0.0,23431.0,3235.0,5279.0,22446.0,2.5953521728515625,-0.034017110625585,0.12377385677133228,-0.0421613082392094,-0.402416855096817,-0.08326590806245804,0.0
346,5,0.006269471254199743,-0.0013936328468844295,-0.002863026224076748,0.07641681283712387,0.015568498522043228,0.03752400353550911,0.009792797267436981,0.002994971349835396,0.004554069600999355,0.2292672097682953,4.319703102111816,0.12729749083518982,0.0,0.0,0.0,-0.019659921526908875,0.05510120093822479,-0.0,0.0,0.0,0.0,-0.0064275069162249565,0.12635186314582825,-0.00019921641796827316,23477.0,4187.0,6710.0,21915.0,1.2944005727767944,0.028282538056373596,0.08776754140853882,1.1223955154418945,0.0,0.0,0.0,0.0,23431.0,3235.0,5279.0,22446.0,2.440316677093506,-0.028834160878234403,0.1399533383814378,-0.04136463509772818,-0.3237840533256531,-0.08891718834638596,0.0
351,5,0.006527859251946211,-0.0014959706459194422,-0.00295877899043262,0.061573293060064316,0.018507929518818855,0.026499930769205093,0.014981243759393692,-0.03977050259709358,0.006179106887429953,0.5937074422836304,2.9529178142547607,-0.056430406868457794,0.0,0.0,0.0,-0.019659921526908875,0.05510120093822479,-0.0,0.0,0.0,0.0,-0.01703122816979885,0.10936133563518524,0.002703658305108547,22526.0,11011.0,6862.0,21017.0,1.1882115602493286,0.26283448934555054,0.09239142388105392,1.0290452241897583,0.0,0.0,0.0,0.0,22353.0,11920.0,7571.0,20719.0,2.440316677093506,-0.02651193968542871,0.15216807957579195,-0.04193576363566193,-0.3237840533256531,-0.08891718834638596,0.0
356,5,0.006741528399288654,-0.0016152405878528953,-0.0030482907313853502,0.05026957020163536,0.021715568378567696,0.021341392770409584,0.014981243759393692,-0.03977050259709358,0.006179106887429953,0.5937074422836304,2.9529178142547607,-0.056430406868457794,0.0,0.0,0.0,-0.018105676397681236,0.04788946360349655,-0.0,0.0,0.0,0.0,-0.01703122816979885,0.10936133563518524,0.002703658305108547,22526.0,11011.0,6862.0,21017.0,1.1882115602493286,0.26283448934555054,0.09239142388105392,1.0290452241897583,0.0,0.0,0.0,0.0,22353.0,11920.0,7571.0,20719.0,2.3142385482788086,-0.023044914849761854,0.1605619124875118,-0.04137206461698308,-0.26690873503685,-0.07765837758779526,0.0
362,5,0.0068147755227983,-0.0017471208702772856,-0.0029852334409952164,0.02889750711619854,0.024511851370334625,0.0009696833440102637,0.022275710478425026,-0.05670410022139549,0.00787641666829586,1.165168285369873,1.4745306968688965,0.2323814183473587,0.0,0.0,0.0,-0.018105676397681236,0.04788946360349655,-0.0,0.0,0.0,0.0,-0.025590930134058,0.08052905648946762,0.007109696976840496,23521.0,10688.0,12782.0,17323.0,1.2994279861450195,0.2464226335287094,0.3618292808532715,0.6876723766326904,0.0,0.0,0.0,0.0,22167.0,12899.0,11287.0,16800.0,2.3142385482788086,-0.01554095595430385,0.16617940495410544,-0.04056289544646259,-0.26690873503685,-0.07765837758779526,0.0
367,5,0.006860935129225254,-0.0018383736023679376,-0.002927374094724655,0.017098167911171913,0.02075507678091526,-0.0065552531741559505,0.022275710478425026,-0.05670410022139549,0.00787641666829586,1.165168285369873,1.4745306968688965,0.2323814183473587,0.0,0.0,0.0,-0.026322580873966217,0.029111433774232864,-0.0,0.0,0.0,0.0,-0.025590930134058,0.08052905648946762,0.007109696976840496,23521.0,10688.0,12782.0,17323.0,1.2994279861450195,0.2464226335287094,0.3618292808532715,0.6876723766326904,0.0,0.0,0.0,0.0,22167.0,12899.0,11287.0,16800.0,2.0819919109344482,-0.005711567744672301,0.1708445587811369,-0.039831664488237294,-0.14597642421722412,-0.10156052559614182,0.0
372,5,0.006897744257003069,-0.0019436997827142477,-0.002751158317551017,0.011256320402026176,0.02094116434454918,-0.02376798540353775,0.04031289741396904,-0.06503365933895111,0.009001168422400951,1.795824408531189,0.10084253549575806,0.13844497501850128,0.0,0.0,0.0,-0.026322580873966217,0.029111433774232864,-0.0,0.0,0.0,0.0,-0.041481196880340576,0.04615719988942146,0.00024505244800820947,21190.0,15574.0,11770.0,15443.0,1.0467612743377686,0.5499761700630188,0.3033386766910553,0.5402404069900513,0.0,0.0,0.0,0.0,21873.0,14375.0,13689.0,11949.0,2.0819919109344482,0.0013763225236512395,0.1703885822013662,-0.04078639216931222,-0.14597642421722412,-0.10156052559614182,0.0
377,5,0.006914566271007061,-0.002205351833254099,-0.002692505484446883,0.006521217990666628,0.03977472707629204,-0.016545560210943222,0.04031289741396904,-0.06503365933895111,0.009001168422400951,1.795824408531189,0.10084253549575806,0.13844497501850128,0.0,0.0,0.0,-0.026322580873966217,0.029111433774232864,-0.0,0.0,0.0,0.0,-0.041481196880340576,0.04615719988942146,0.00024505244800820947,21190.0,15574.0,11770.0,15443.0,1.0467612743377686,0.5499761700630188,0.3033386766910553,0.5402404069900513,0.0,0.0,0.0,0.0,21873.0,14375.0,13689.0,11949.0,2.0819919109344482,0.011748784716190133,0.1655959843600708,-0.04252740576474509,-0.14597642421722412,-0.10156052559614182,0.0
382,5,0.006885297130793333,-0.0023810516577214003,-0.002545230556279421,-0.0009038062999024987,0.036993853747844696,-0.02429119311273098,0.0579397976398468,-0.06150195375084877,0.010580443777143955,2.509549379348755,-0.7018235325813293,0.08535417914390564,0.0,0.0,0.0,-0.04204927012324333,0.012563735246658325,-0.0,0.0,0.0,0.0,-0.05768723413348198,0.019856130704283714,0.005889753345400095,1495.0,1495.0,1495.0,1495.0,0.0,0.0,0.0,0.0,0.0,0.0,0.0,0.0,1495.0,1495.0,1495.0,1495.0,2.070929765701294,0.024346356113348396,0.16148751515486753,-0.043008179009900095,-0.06263838708400726,-0.16132430732250214,0.0
387,5,0.006809568032622337,-0.002631169743835926,-0.002400477882474661,-0.00944904237985611,0.04481171816587448,-0.02708681859076023,0.0579397976398468,-0.06150195375084877,0.010580443777143955,2.509549379348755,-0.7018235325813293,0.08535417914390564,0.0,0.0,0.0,-0.04204927012324333,0.012563735246658325,-0.0,0.0,0.0,0.0,-0.05768723413348198,0.019856130704283714,0.005889753345400095,1495.0,1495.0,1495.0,1495.0,0.0,0.0,0.0,0.0,0.0,0.0,0.0,0.0,1495.0,1495.0,1495.0,1495.0,2.070929765701294,0.03707173096679868,0.15839714832605784,-0.04226251128312255,-0.06263838708400726,-0.16132430732250214,0.0
392,5,0.006810987833887339,-0.003172216471284628,-0.0026138012763112783,-0.003609215375036001,0.08285028487443924,0.014764100313186646,0.09117546677589417,-0.05208268389105797,0.011762124486267567,2.932281970977783,-0.7982838153839111,0.2096175253391266,0.0,0.0,0.0,-0.04706624895334244,0.0004357348079793155,-0.0,0.0,0.0,0.0,-0.20000000298023224,-0.20000000298023224,0.10000000149011612,1495.0,1495.0,1495.0,1495.0,0.0,0.0,0.0,0.0,0.0,0.0,0.0,0.0,1495.0,1495.0,1495.0,1495.0,2.0940592288970947,0.04034067808954861,0.148446318595592,-0.04846538046208778,-0.002196250483393669,-0.18256422877311707,0.0
397,5,0.0067877694964408875,-0.0033837775699794292,-0.0028098782058805227,-0.004229888319969177,0.05852745473384857,0.029434865340590477,0.09117546677589417,-0.05208268389105797,0.011762124486267567,2.932281970977783,-0.7982838153839111,0.2096175253391266,0.0,0.0,0.0,-0.04706624895334244,0.0004357348079793155,-0.0,0.0,0.0,0.0,-0.20000000298023224,-0.20000000298023224,0.10000000149011612,1495.0,1495.0,1495.0,1495.0,0.0,0.0,0.0,0.0,0.0,0.0,0.0,0.0,1495.0,1495.0,1495.0,1495.0,2.0940592288970947,0.05454044475780411,0.14097725067092873,-0.04739925012233375,-0.002196250483393669,-0.18256422877311707,0.0
402,5,0.0066715809516608715,-0.0035973237827420235,-0.002929725218564272,-0.015634603798389435,0.04903654009103775,0.02615557238459587,0.09117546677589417,-0.05208268389105797,0.011762124486267567,2.932281970977783,-0.7982838153839111,0.2096175253391266,0.0,0.0,0.0,-0.057736270129680634,0.004044273868203163,-0.0,0.0,0.0,0.0,-0.20000000298023224,-0.20000000298023224,0.10000000149011612,1495.0,1495.0,1495.0,1495.0,0.0,0.0,0.0,0.0,0.0,0.0,0.0,0.0,1495.0,1495.0,1495.0,1495.0,2.227567434310913,0.05811155933154891,0.13668667056695988,-0.04977509812406967,-0.021671943366527557,-0.23814941942691803,0.0
407,5,0.0067200069315731525,-0.0035808044485747814,-0.003125696210190654,-0.0004427302337717265,0.017632300034165382,0.03397875279188156,0.11279014497995377,-0.04598972573876381,0.012096183374524117,2.2700538635253906,-0.7383607029914856,0.09384582936763763,0.0,0.0,0.0,-0.057736270129680634,0.004044273868203163,-0.0,0.0,0.0,0.0,-0.20000000298023224,-0.20000000298023224,0.10000000149011612,1495.0,1495.0,1495.0,1495.0,0.0,0.0,0.0,0.0,0.0,0.0,0.0,0.0,1495.0,1495.0,1495.0,1495.0,2.227567434310913,0.065685630222417,0.1337641904042092,-0.047135345289450944,-0.021671943366527557,-0.23814941942691803,0.0
412,5,0.0066770706325769424,-0.0036526492331176996,-0.003193056909367442,-0.0053294566459953785,0.015674276277422905,0.021674804389476776,0.11279014497995377,-0.04598972573876381,0.012096183374524117,2.2700538635253906,-0.7383607029914856,0.09384582936763763,0.0,0.0,0.0,-0.024768520146608353,0.007881459780037403,-0.0,0.0,0.0,0.0,-0.20000000298023224,-0.20000000298023224,0.10000000149011612,1495.0,1495.0,1495.0,1495.0,0.0,0.0,0.0,0.0,0.0,0.0,0.0,0.0,1495.0,1495.0,1495.0,1495.0,1.8711494207382202,0.06580724137402218,0.13336279414428043,-0.04831599408574131,-0.03552461043000221,-0.08588877320289612,0.0
417,5,0.006786351557821035,-0.003587071318179369,-0.0032313503324985504,0.010981920175254345,-0.0015996458241716027,0.013265128247439861,0.12990762293338776,-0.03740786015987396,0.01334439404308796,0.6430846452713013,-0.6211415529251099,0.24562053382396698,0.0,0.0,0.0,-0.024768520146608353,0.007881459780037403,-0.0,0.0,0.0,0.0,-0.20000000298023224,-0.20000000298023224,0.10000000149011612,1495.0,1495.0,1495.0,1495.0,0.0,0.0,0.0,0.0,0.0,0.0,0.0,0.0,1495.0,1495.0,1495.0,1495.0,1.8711494207382202,0.06674144339655301,0.1284358103765587,-0.04577949641166874,-0.03552461043000221,-0.08588877320289612,0.0
423,5,0.006793977227061987,-0.0035823925863951445,-0.0031678860541433096,0.0053078788332641125,-0.001201302744448185,-0.0023096578661352396,0.12990762293338776,-0.03740786015987396,0.01334439404308796,0.6430846452713013,-0.6211415529251099,0.24562053382396698,0.0,0.0,0.0,-0.004056336358189583,0.01778748631477356,-0.0,0.0,0.0,0.0,-0.20000000298023224,-0.20000000298023224,0.10000000149011612,1495.0,1495.0,1495.0,1495.0,0.0,0.0,0.0,0.0,0.0,0.0,0.0,0.0,1495.0,1495.0,1495.0,1495.0,1.837561845779419,0.06652832440893393,0.12546487686588095,-0.04486492278615818,-0.0787556990981102,-0.01381599996238947,0.0
428,5,0.006806291174143553,-0.0037204741965979338,-0.002957357559353113,0.0011283576022833586,0.0139324851334095,-0.021294275298714638,0.1298086941242218,-0.0319911390542984,0.01393851451575756,-0.1687747687101364,-0.6471087336540222,0.20039846003055573,0.0,0.0,0.0,-0.004056336358189583,0.01778748631477356,-0.0,0.0,0.0,0.0,-0.20000000298023224,-0.20000000298023224,0.10000000149011612,1495.0,1495.0,1495.0,1495.0,0.0,0.0,0.0,0.0,0.0,0.0,0.0,0.0,1495.0,1495.0,1495.0,1495.0,1.837561845779419,0.060058650399601884,0.11799081622791724,-0.04746890106524243,-0.0787556990981102,-0.01381599996238947,0.0
433,5,0.006806291174143553,-0.0037204741965979338,-0.002957357559353113,0.0011283576022833586,0.0139324851334095,-0.021294275298714638,0.1298086941242218,-0.0319911390542984,0.01393851451575756,-0.1687747687101364,-0.6471087336540222,0.20039846003055573,0.0,0.0,0.0,-0.021256061270833015,0.00941922515630722,-0.0,0.0,0.0,0.0,-0.20000000298023224,-0.20000000298023224,0.10000000149011612,1495.0,1495.0,1495.0,1495.0,0.0,0.0,0.0,0.0,0.0,0.0,0.0,0.0,1495.0,1495.0,1495.0,1495.0,1.8481981754302979,0.060058650399601884,0.11799081622791724,-0.04746890106524243,-0.04193832725286484,-0.07280822843313217,0.0
438,5,0.006988031789660454,-0.0036954039242118597,-0.002966376719996333,0.013580914586782455,0.004666382446885109,-0.006631751544773579,0.12960609793663025,-0.023384787142276764,0.014621289446949959,0.10143831372261047,-0.13367170095443726,0.03851763904094696,0.0,0.0,0.0,-0.021256061270833015,0.00941922515630722,-0.0,0.0,0.0,0.0,-0.20000000298023224,-0.06689310818910599,0.10000000149011612,1495.0,1495.0,1495.0,1495.0,0.0,0.0,0.0,0.0,0.0,0.0,0.0,0.0,1495.0,1495.0,1495.0,1495.0,1.8481981754302979,0.06661894030422265,0.11988255595956276,-0.04556911201189471,-0.04193832725286484,-0.07280822843313217,0.0
443,5,0.007066893391311169,-0.003728847485035658,-0.002938415389508009,0.014895780012011528,0.005879761651158333,-0.006008060649037361,0.12960609793663025,-0.023384787142276764,0.014621289446949959,0.10143831372261047,-0.13367170095443726,0.03851763904094696,0.0,0.0,0.0,-0.01087380200624466,0.019770972430706024,-0.0,0.0,0.0,0.0,-0.20000000298023224,-0.06689310818910599,0.10000000149011612,1495.0,1495.0,1495.0,1495.0,0.0,0.0,0.0,0.0,0.0,0.0,0.0,0.0,1495.0,1495.0,1495.0,1495.0,1.882218837738037,0.06688503296300183,0.1195029893265949,-0.045526265201900847,-0.08965945243835449,-0.03793539106845856,0.0
448,5,0.00712785217911005,-0.0037497221492230892,-0.002921477658674121,0.013273345306515694,0.004856881685554981,-0.004435748793184757,0.1296859234571457,-0.022503362968564034,0.014778806827962399,-0.11654402315616608,-0.019798988476395607,-0.004517339635640383,0.0,0.0,0.0,-0.01087380200624466,0.019770972430706024,-0.0,0.0,0.0,0.0,-0.20000000298023224,0.20000000298023224,0.10000000149011612,1495.0,1495.0,1495.0,1495.0,0.0,0.0,0.0,0.0,0.0,0.0,0.0,0.0,1495.0,1495.0,1495.0,1495.0,1.882218837738037,0.066036488403716,0.11965488471918147,-0.045714366434262264,-0.08965945243835449,-0.03793539106845856,0.0
453,5,0.007192207034677267,-0.003774990327656269,-0.0029533563647419214,0.013031914830207825,0.004974913317710161,0.0020511376205831766,0.1296859234571457,-0.022503362968564034,0.014778806827962399,-0.11654402315616608,-0.019798988476395607,-0.004517339635640383,0.0,0.0,0.0,-0.011166839860379696,0.019689742475748062,-0.0,0.0,0.0,0.0,-0.20000000298023224,0.20000000298023224,0.10000000149011612,1495.0,1495.0,1495.0,1495.0,0.0,0.0,0.0,0.0,0.0,0.0,0.0,0.0,1495.0,1495.0,1495.0,1495.0,1.882412314414978,0.06612223461125495,0.11985166098960293,-0.04537637459868272,-0.08930002152919769,-0.038961637765169144,0.0
458,5,0.007277739234268665,-0.003775260178372264,-0.0030180257745087147,0.01547666173428297,0.002022353233769536,0.008580782450735569,0.12966422736644745,-0.02309647761285305,0.01506330817937851,0.005986838601529598,0.16948267817497253,0.03810662031173706,0.0,0.0,0.0,-0.011166839860379696,0.019689742475748062,-0.0,0.0,0.0,0.0,-0.20000000298023224,0.20000000298023224,0.10000000149011612,1495.0,1495.0,1495.0,1495.0,0.0,0.0,0.0,0.0,0.0,0.0,0.0,0.0,1495.0,1495.0,1495.0,1495.0,1.882412314414978,0.06559062930960549,0.12106859202885813,-0.045612656180264735,-0.08930002152919769,-0.038961637765169144,0.0
463,5,0.007365181110799313,-0.0037985900416970253,-0.0030642636120319366,0.016683682799339294,0.0036085357423871756,0.008980859071016312,0.12966422736644745,-0.02309647761285305,0.01506330817937851,0.005986838601529598,0.16948267817497253,0.03810662031173706,0.0,0.0,0.0,-0.008109237998723984,0.021552445366978645,-0.0,0.0,0.0,0.0,-0.20000000298023224,0.20000000298023224,0.10000000149011612,1495.0,1495.0,1495.0,1495.0,0.0,0.0,0.0,0.0,0.0,0.0,0.0,0.0,1495.0,1495.0,1495.0,1495.0,1.8951730728149414,0.06514909195997008,0.12214303252645121,-0.04537105722784498,-0.09841231256723404,-0.028485827147960663,0.0
468,5,0.007423115894198418,-0.0038195913657546043,-0.0030919788405299187,0.013625654391944408,0.003963565919548273,0.00691817095503211,0.1293005645275116,-0.02596399188041687,0.015535462647676468,0.02814502641558647,0.2758937478065491,0.06126397103071213,0.0,0.0,0.0,-0.008109237998723984,0.021552445366978645,-0.0,0.0,0.0,0.0,-0.20000000298023224,0.20000000298023224,0.10000000149011612,1495.0,1495.0,1495.0,1495.0,0.0,0.0,0.0,0.0,0.0,0.0,0.0,0.0,1495.0,1495.0,1495.0,1495.0,1.8951730728149414,0.06510800714381322,0.12303211268584154,-0.04507555610393746,-0.09841231256723404,-0.028485827147960663,0.0
473,5,0.007426678203046322,-0.003950593061745167,-0.002952250186353922,0.005877727176994085,0.017305651679635048,-0.014000160619616508,0.1293005645275116,-0.02596399188041687,0.015535462647676468,0.02814502641558647,0.2758937478065491,0.06126397103071213,0.0,0.0,0.0,-0.010301473550498486,0.02030513621866703,-0.0,0.0,0.0,0.0,-0.20000000298023224,0.20000000298023224,0.10000000149011612,1495.0,1495.0,1495.0,1495.0,0.0,0.0,0.0,0.0,0.0,0.0,0.0,0.0,1495.0,1495.0,1495.0,1495.0,1.8866037130355835,0.05840234511129813,0.12195899111298739,-0.04845043726768648,-0.09229658544063568,-0.03602256625890732,0.0
478,5,0.007557048927992582,-0.003882159013301134,-0.003057449357584119,0.017995569854974747,-0.0012898589484393597,0.007023821119219065,0.1293199211359024,-0.028143445029854774,0.015311246737837791,-0.05434395372867584,0.25112396478652954,-0.03610817342996597,0.0,0.0,0.0,-0.010301473550498486,0.02030513621866703,-0.0,0.0,0.0,0.0,-0.20000000298023224,0.20000000298023224,-0.10000000149011612,1495.0,1495.0,1495.0,1495.0,0.0,0.0,0.0,0.0,0.0,0.0,0.0,0.0,1495.0,1495.0,1495.0,1495.0,1.8866037130355835,0.06462297365096516,0.12587229945514258,-0.04571447680057439,-0.09229658544063568,-0.03602256625890732,0.0
484,5,0.007631844375282526,-0.003944068681448698,-0.0030679418705403805,0.016173655167222023,0.006913214921951294,0.004068620037287474,0.1293199211359024,-0.028143445029854774,0.015311246737837791,-0.05434395372867584,0.25112396478652954,-0.03610817342996597,0.0,0.0,0.0,-0.0046965074725449085,0.02370736375451088,-0.0,0.0,0.0,0.0,-0.20000000298023224,0.20000000298023224,-0.10000000149011612,1495.0,1495.0,1495.0,1495.0,0.0,0.0,0.0,0.0,0.0,0.0,0.0,0.0,1495.0,1495.0,1495.0,1495.0,1.9160798788070679,0.06561212863618376,0.12697679421910849,-0.045702155242725286,-0.10944685339927673,-0.016679931432008743,0.0
489,5,0.007642155513167381,-0.0040793162770569324,-0.0030040994752198458,0.00770680233836174,0.01899501122534275,-0.006033620797097683,0.1293197125196457,-0.03088206797838211,0.015240076929330826,0.014209521003067493,0.23365209996700287,-0.05478782206773758,0.0,0.0,0.0,-0.0046965074725449085,0.02370736375451088,-0.0,0.0,0.0,0.0,-0.20000000298023224,0.20000000298023224,-0.10000000149011612,1495.0,1495.0,1495.0,1495.0,0.0,0.0,0.0,0.0,0.0,0.0,0.0,0.0,1495.0,1495.0,1495.0,1495.0,1.9160798788070679,0.06185178988283102,0.12864949053580715,-0.04765667038202543,-0.10944685339927673,-0.016679931432008743,0.0
500,12,0.007888704538345337,-0.00411992659792304,-0.003063874552026391,0.018875060603022575,0.008457339368760586,0.0017344718798995018,0.1293197125196457,-0.03088206797838211,0.015240076929330826,0.014209521003067493,0.23365209996700287,-0.05478782206773758,0.0,0.0,0.0,-0.02617846243083477,0.015314556658267975,-0.0,0.0,0.0,0.0,-0.20000000298023224,0.20000000298023224,-0.10000000149011612,1495.0,1495.0,1495.0,1495.0,0.0,0.0,0.0,0.0,0.0,0.0,0.0,0.0,1495.0,1495.0,1495.0,1495.0,1.934448003768921,0.06833234576779919,0.13020868399800753,-0.044445276406940654,-0.0713588073849678,-0.09384683519601822,0.0
