timestamp,dt,pos_x,pos_y,pos_z,vel_x,vel_y,vel_z,roll,pitch,yaw,agv_x,agv_y,agv_z,x_ref,y_ref,z_ref,roll_ref,pitch_ref,yaw_ref,x_vel_ref,y_vel_ref,z_vel_ref,x_torque,y_torque,z_torque,w0,w1,w2,w3,u0,u1,u2,u3,m0req,m1req,m2req,m3req,thrust0,thrust1,thrust2,thrust3,thrust_ref,roll_vicon,pitch_vicon,yaw_vicon,acc_x,acc_y,acc_z
5,5,0.0,0.0,0.0,0.0014720901381224394,-0.002499005990102887,0.0011667250655591488,-0.026176992803812027,0.0806836411356926,-0.011641521006822586,0.004349170718342066,-0.006253235507756472,0.0012520089512690902,0.0,0.0,0.0,0.003040462965145707,0.0013777309795841575,-0.0,0.0,0.0,0.0,0.007799986749887466,-0.024363625794649124,-0.001151307369582355,1495.0,1495.0,1495.0,1495.0,0.0,0.0,0.0,0.0,0.0,0.0,0.0,0.0,1495.0,1495.0,1495.0,1495.0,1.662843942642212,3.1296950674483557,0.006210382040025409,3.0997806631068756,-0.00552033819258213,0.009371272288262844,0.0
31,26,0.0,0.0,0.0,-0.0030689293053001165,-0.0040501998737454414,-0.01433511171489954,-0.026176992803812027,0.0806836411356926,-0.011641521006822586,0.004349170718342066,-0.006253235507756472,0.0012520089512690902,0.0,0.0,0.0,0.003040462965145707,0.0013777309795841575,-0.0,0.0,0.0,0.0,0.007799986749887466,-0.024363625794649124,-0.001151307369582355,1495.0,1495.0,1495.0,1495.0,0.0,0.0,0.0,0.0,0.0,0.0,0.0,0.0,1495.0,1495.0,1495.0,1495.0,1.662843942642212,3.127822491642184,0.004813133983992231,3.100014724914277,-0.00552033819258213,0.009371272288262844,0.0
36,5,0.0,0.0,0.0,0.0020502761472016573,0.00016453221905976534,-0.00321837211959064,-0.02616495080292225,0.08072330057621002,-0.011630445718765259,-0.002664779545739293,0.0010316979605704546,7.574624760309234e-05,0.0,0.0,0.0,0.0048855082131922245,-0.002847603289410472,-0.0,0.0,0.0,0.0,0.008746513165533543,-0.023787587881088257,-0.0010872571729123592,1495.0,1495.0,1495.0,1495.0,0.0,0.0,0.0,0.0,0.0,0.0,0.0,0.0,1495.0,1495.0,1495.0,1495.0,1.6772297620773315,3.1289485190521553,0.00452518992944083,3.0997219976350663,0.011508485302329063,0.015188249759376049,0.0
41,5,0.0,0.0,0.0,-0.00024522189050912857,-0.004573332145810127,-0.011541369371116161,-0.02616495080292225,0.08072330057621002,-0.011630445718765259,-0.002664779545739293,0.0010316979605704546,7.574624760309234e-05,0.0,0.0,0.0,0.0048855082131922245,-0.002847603289410472,-0.0,0.0,0.0,0.0,0.008746513165533543,-0.023787587881088257,-0.0010872571729123592,1495.0,1495.0,1495.0,1495.0,0.0,0.0,0.0,0.0,0.0,0.0,0.0,0.0,1495.0,1495.0,1495.0,1495.0,1.6772297620773315,3.129944505797281,0.002308717620144599,3.1005270423511258,0.011508485302329063,0.015188249759376049,0.0
46,5,0.0,0.0,0.0,-0.00024522189050912857,-0.004573332145810127,-0.011541369371116161,-0.02620859257876873,0.08071557432413101,-0.011669154278934002,-0.0026227061171084642,0.0019743016455322504,-0.0013154014013707638,0.0,0.0,0.0,0.0048855082131922245,-0.002847603289410472,-0.0,0.0,0.0,0.0,0.008793577551841736,-0.023723330348730087,-0.0012282059760764241,1495.0,1495.0,1495.0,1495.0,0.0,0.0,0.0,0.0,0.0,0.0,0.0,0.0,10503.0,15172.0,15520.0,12973.0,1.6772297620773315,3.129944505797281,0.002308717620144599,3.1005270423511258,0.011508485302329063,0.015188249759376049,0.0
51,5,-1.1347297913744114e-05,-5.427280598269135e-07,-9.146803495241329e-05,-0.0016201940597966313,-0.0018357922090217471,0.00542036397382617,-0.02620859257876873,0.08071557432413101,-0.011669154278934002,-0.0026227061171084642,0.0019743016455322504,-0.0013154014013707638,0.0,0.0,0.0,0.005533209536224604,-0.00022822481696493924,-0.0,0.0,0.0,0.0,0.008793577551841736,-0.023723330348730087,-0.0012282059760764241,1495.0,1495.0,1495.0,1495.0,0.0,0.0,0.0,0.0,0.0,0.0,0.0,0.0,10503.0,15172.0,15520.0,12973.0,1.6721775531768799,3.1273685987154156,0.006227481060211694,3.09995245523089,0.0009195820894092321,0.017149996012449265,0.0
56,5,-1.1305019143037498e-05,-2.6493364202906378e-05,-0.00011803833331214264,-0.0006430041394196451,0.0023797594476491213,0.005356581415981054,-0.02620859257876873,0.08071557432413101,-0.011669154278934002,-0.0026227061171084642,0.0019743016455322504,-0.0013154014013707638,0.0,0.0,0.0,0.005533209536224604,-0.00022822481696493924,-0.0,0.0,0.0,0.0,0.00932573527097702,-0.02509206347167492,-0.0012440923601388931,10451.0,15213.0,15484.0,13010.0,0.23476654291152954,0.5234293341636658,0.543257474899292,0.37577641010284424,0.0,0.0,0.0,0.0,10503.0,15172.0,15520.0,12973.0,1.6721775531768799,3.126538029998689,0.006423879203225155,3.0996670067744865,0.0009195820894092321,0.017149996012449265,0.0
61,5,2.0095058061997406e-05,-5.6255081290146336e-05,-0.00017251957615371794,0.0035108074080199003,0.004523309413343668,0.008680381812155247,-0.02620859257876873,0.08071557432413101,-0.011669154278934002,-0.0026227061171084642,0.0019743016455322504,-0.0013154014013707638,0.0,0.0,0.0,-0.0029405071400105953,-0.0006168588879518211,-0.0,0.0,0.0,0.0,0.00932573527097702,-0.02509206347167492,-0.0012440923601388931,10451.0,15213.0,15484.0,13010.0,0.23476654291152954,0.5234293341636658,0.543257474899292,0.37577641010284424,0.0,0.0,0.0,0.0,10503.0,15172.0,15520.0,12973.0,1.6640756130218506,3.127994689303315,0.006914502045844601,3.0994024107431724,0.0024734826292842627,-0.009069903753697872,0.0
66,5,-1.198047903017141e-05,-3.6714736779686064e-05,-0.0001417248568031937,-0.002444741316139698,-0.0005355171742849052,-0.0002232135011581704,-0.02620859257876873,0.08071557432413101,-0.011669154278934002,-0.0026227061171084642,0.0019743016455322504,-0.0013154014013707638,0.0,0.0,0.0,-0.0029405071400105953,-0.0006168588879518211,-0.0,0.0,0.0,0.0,0.00932573527097702,-0.02509206347167492,-0.0012440923601388931,10451.0,15213.0,15484.0,13010.0,0.23476654291152954,0.5234293341636658,0.543257474899292,0.37577641010284424,0.0,0.0,0.0,0.0,10503.0,15172.0,15520.0,12973.0,1.6640756130218506,3.1258217285673813,0.007423811319254331,3.099587208411134,0.0024734826292842627,-0.009069903753697872,0.0
72,5,1.0785553968162276e-05,-5.49291871720925e-05,-0.00016208866145461798,0.0017540274420753121,0.0019715270027518272,0.0023543706629425287,-0.026221560314297676,0.08071179687976837,-0.011644785292446613,-0.0005004410049878061,0.0022519396152347326,-0.002080080797895789,0.0,0.0,0.0,0.0005856099305674434,-0.0023031230084598064,-0.0,0.0,0.0,0.0,0.009531116113066673,-0.024218255653977394,-0.0012672251323238015,10468.0,15141.0,15416.0,13080.0,0.23559489846229553,0.5182472467422485,0.5382829904556274,0.38005247712135315,0.0,0.0,0.0,0.0,10511.0,15106.0,15450.0,13047.0,1.6638330221176147,3.1270177012937883,0.008038829155388732,3.099175442820829,0.009233754128217697,0.0018060371512547135,0.0
79,7,2.5570283469278365e-05,-3.9461712731281295e-05,-0.0001329942315351218,0.0037353825755417347,0.0021286793053150177,0.0035708474460989237,-0.026221560314297676,0.08071179687976837,-0.011644785292446613,-0.0005004410049878061,0.0022519396152347326,-0.002080080797895789,0.0,0.0,0.0,0.0005856099305674434,-0.0023031230084598064,-0.0,0.0,0.0,0.0,0.009531116113066673,-0.024218255653977394,-0.0012672251323238015,10468.0,15141.0,15416.0,13080.0,0.23559489846229553,0.5182472467422485,0.5382829904556274,0.38005247712135315,0.0,0.0,0.0,0.0,10511.0,15106.0,15450.0,13047.0,1.6638330221176147,3.130305118107033,0.005721851834448878,3.099569844971259,0.009233754128217697,0.0018060371512547135,0.0
84,5,2.0777986264874926e-06,-5.795170000055805e-05,-0.0001458828046452254,-0.0013249452458694577,0.003070270176976919,0.00297496747225523,-0.026221560314297676,0.08071179687976837,-0.011644785292446613,-0.0005004410049878061,0.0022519396152347326,-0.002080080797895789,0.0,0.0,0.0,-0.002649094443768263,0.0035160069819539785,-0.0,0.0,0.0,0.0,0.009531116113066673,-0.024218255653977394,-0.0012672251323238015,10468.0,15141.0,15416.0,13080.0,0.23559489846229553,0.5182472467422485,0.5382829904556274,0.38005247712135315,0.0,0.0,0.0,0.0,10511.0,15106.0,15450.0,13047.0,1.669959545135498,3.1276048197084134,0.007244551979968219,3.0992766810318653,-0.014148329384624958,-0.008199946023523808,0.0
89,5,1.0045238013844937e-05,-4.1440300265094265e-05,-0.00011228777293581516,0.0004261145950295031,-0.0007532595773227513,-0.0028414162807166576,-0.02624334581196308,0.08066829293966293,-0.011639456264674664,0.0021231898572295904,0.0009091080282814801,0.0008151305373758078,0.0,0.0,0.0,-0.002649094443768263,0.0035160069819539785,-0.0,0.0,0.0,0.0,0.008104972541332245,-0.02485542558133602,-0.00128824298735708,10686.0,15241.0,15282.0,12815.0,0.24632634222507477,0.5254517197608948,0.5284618139266968,0.36383572220802307,0.0,0.0,0.0,0.0,10675.0,15249.0,15277.0,12821.0,1.669959545135498,3.1289741972479432,0.0053749326329155045,3.0998030673879806,-0.014148329384624958,-0.008199946023523808,0.0
94,5,-4.385305601317668e-06,-2.0201467123115435e-05,-7.783647015457973e-05,-0.0015612193383276463,-0.0028499639593064785,-0.005270722322165966,-0.02624334581196308,0.08066829293966293,-0.011639456264674664,0.0021231898572295904,0.0009091080282814801,0.0008151305373758078,0.0,0.0,0.0,0.0008420528611168265,0.0004124513652641326,-0.0,0.0,0.0,0.0,0.008104972541332245,-0.02485542558133602,-0.00128824298735708,10686.0,15241.0,15282.0,12815.0,0.24632634222507477,0.5254517197608948,0.5284618139266968,0.36383572220802307,0.0,0.0,0.0,0.0,10675.0,15249.0,15277.0,12821.0,1.6634379625320435,3.1274020523177106,0.005828766117947535,3.0997849501160597,-0.0016532216686755419,0.002596297301352024,0.0
99,5,-3.0789550464760396e-07,-5.620886440738104e-05,-0.00015820014232303947,-0.00013519852655008435,0.003180901985615492,0.0075353519059717655,-0.026253707706928253,0.08064735680818558,-0.011663204059004784,-0.0006055925623513758,0.002604505280032754,-0.0027867804747074842,0.0,0.0,0.0,0.0008420528611168265,0.0004124513652641326,-0.0,0.0,0.0,0.0,0.007034366950392723,-0.023347854614257812,-0.0011259001912549138,10802.0,15191.0,15242.0,12923.0,0.25216999650001526,0.5218608379364014,0.525528609752655,0.3704001009464264,0.0,0.0,0.0,0.0,10520.0,15225.0,15367.0,12864.0,1.6634379625320435,3.1254001977209036,0.008403467450179431,3.0990524126799333,-0.0016532216686755419,0.002596297301352024,0.0
104,5,1.571067150507588e-05,-6.41444930806756e-05,-0.0002355222823098302,0.0018681486835703254,0.0022246362641453743,0.012292797677218914,-0.026253707706928253,0.08064735680818558,-0.011663204059004784,-0.0006055925623513758,0.002604505280032754,-0.0027867804747074842,0.0,0.0,0.0,-0.0039679910987615585,-0.00012686023546848446,-0.0,0.0,0.0,0.0,0.007034366950392723,-0.023347854614257812,-0.0011259001912549138,10802.0,15191.0,15242.0,12923.0,0.25216999650001526,0.5218608379364014,0.525528609752655,0.3704001009464264,0.0,0.0,0.0,0.0,10520.0,15225.0,15367.0,12864.0,1.663954734802246,3.1248193242710616,0.011089937405429401,3.0988764971198104,0.0005086458404548466,-0.012238232418894768,0.0
110,5,2.3406391846947372e-05,-3.341846650073421e-06,-5.786721158074215e-05,0.0016707457834854722,-0.0064064632169902325,-0.016401490196585655,-0.026253707706928253,0.08064735680818558,-0.011663204059004784,-0.0006055925623513758,0.002604505280032754,-0.0027867804747074842,0.0,0.0,0.0,-0.0039679910987615585,-0.00012686023546848446,-0.0,0.0,0.0,0.0,0.007034366950392723,-0.023347854614257812,-0.0011259001912549138,10802.0,15191.0,15242.0,12923.0,0.25216999650001526,0.5218608379364014,0.525528609752655,0.3704001009464264,0.0,0.0,0.0,0.0,10520.0,15225.0,15367.0,12864.0,1.663954734802246,3.130585223505677,0.003062651151607275,3.099823908194655,0.0005086458404548466,-0.012238232418894768,0.0
115,5,-1.9715332655323436e-07,-1.3613766896014567e-05,-0.0001189468166558072,-0.0021641270723193884,-0.0013299547135829926,0.0007689568446949124,-0.026245057582855225,0.08069299906492233,-0.011677009053528309,0.0040502967312932014,-0.0021804904099553823,0.0038935181219130754,0.0,0.0,0.0,0.007650868035852909,0.0015676583861932158,-0.0,0.0,0.0,0.0,0.00810581911355257,-0.024209747090935707,-0.0011456222273409367,10630.0,15144.0,15353.0,12881.0,0.24354851245880127,0.5184151530265808,0.5336135625839233,0.36786073446273804,0.0,0.0,0.0,0.0,10740.0,15219.0,15210.0,12979.0,1.6927498579025269,3.1270421658746925,0.007274653236582238,3.0996152065402915,-0.006394155789166689,0.024005144834518433,0.0
120,5,2.4024737285799347e-05,-6.412252696463838e-05,-0.0001989714364754036,0.002040975959971547,0.005529068876057863,0.009910535998642445,-0.02626229077577591,0.08072017878293991,-0.011668425984680653,0.0004696240066550672,-0.0016445762012153864,-0.004288570489734411,0.0,0.0,0.0,0.007650868035852909,0.0015676583861932158,-0.0,0.0,0.0,0.0,0.008186420425772667,-0.02430182695388794,-0.0012433986412361264,10642.0,15301.0,15226.0,12844.0,0.24413155019283295,0.5298290848731995,0.5243940353393555,0.365600049495697,0.0,0.0,0.0,0.0,10617.0,15143.0,15357.0,12887.0,1.6927498579025269,3.1280319574783886,0.007477585283670868,3.098628702361178,-0.006394155789166689,0.024005144834518433,0.0
125,5,6.853900231362786e-06,-3.439598367549479e-05,-0.00011731210543075576,-0.001244109938852489,-0.0013555572368204594,-0.005834904965013266,-0.02626229077577591,0.08072017878293991,-0.011668425984680653,0.0004696240066550672,-0.0016445762012153864,-0.004288570489734411,0.0,0.0,0.0,-0.006746205035597086,0.0019160525407642126,-0.0,0.0,0.0,0.0,0.008186420425772667,-0.02430182695388794,-0.0012433986412361264,10642.0,15301.0,15226.0,12844.0,0.24413155019283295,0.5298290848731995,0.5243940353393555,0.365600049495697,0.0,0.0,0.0,0.0,10617.0,15143.0,15357.0,12887.0,1.6864187717437744,3.129050830294789,0.005047505063157593,3.0995273557537497,-0.00778600387275219,-0.02108761854469776,0.0
130,5,-1.6390154996770434e-05,3.141908109682845e-06,-4.712673035101034e-05,-0.003286930499598384,-0.005046769976615906,-0.010756206698715687,-0.02626229077577591,0.08072017878293991,-0.011668425984680653,0.0004696240066550672,-0.0016445762012153864,-0.004288570489734411,0.0,0.0,0.0,-0.006746205035597086,0.0019160525407642126,-0.0,0.0,0.0,0.0,0.008186420425772667,-0.02430182695388794,-0.0012433986412361264,10642.0,15301.0,15226.0,12844.0,0.24413155019283295,0.5298290848731995,0.5243940353393555,0.365600049495697,0.0,0.0,0.0,0.0,10617.0,15143.0,15357.0,12887.0,1.6864187717437744,3.1284088492983093,0.00515410436848177,3.1002197098418325,-0.00778600387275219,-0.02108761854469776,0.0
135,5,1.20352106023347e-05,-4.768409417010844e-05,-6.241664232220501e-05,0.0020962716080248356,0.004080412443727255,-0.0024676930624991655,-0.026225022971630096,0.08072850853204727,-0.011672550812363625,0.0004952860763296485,-0.0023646813351660967,-0.0037014896515756845,0.0,0.0,0.0,-0.006746205035597086,0.0019160525407642126,-0.0,0.0,0.0,0.0,0.006646827328950167,-0.02441604807972908,-0.0012106684735044837,10664.0,15291.0,15235.0,12827.0,0.24524645507335663,0.5291101932525635,0.5250075459480286,0.36459052562713623,0.0,0.0,0.0,0.0,10669.0,15285.0,15236.0,12829.0,1.6864187717437744,3.1298623656753453,0.003943884153265225,3.0994266371684005,-0.00778600387275219,-0.02108761854469776,0.0
140,5,1.2720921404252294e-05,-4.7907582484185696e-05,-0.0001225432934006676,0.0009207939729094505,0.0016589834121987224,0.006228120531886816,-0.026225022971630096,0.08072850853204727,-0.011672550812363625,0.0004952860763296485,-0.0023646813351660967,-0.0037014896515756845,0.0,0.0,0.0,-0.005019438918679953,0.001966535346582532,-0.0,0.0,0.0,0.0,0.006646827328950167,-0.02441604807972908,-0.0012106684735044837,10664.0,15291.0,15235.0,12827.0,0.24524645507335663,0.5291101932525635,0.5250075459480286,0.36459052562713623,0.0,0.0,0.0,0.0,10669.0,15285.0,15236.0,12829.0,1.6729626655578613,3.1277648480361036,0.006698158656983221,3.0992767291716254,-0.007927462458610535,-0.015564912930130959,0.0
145,5,4.600424290401861e-06,-1.6660889741615392e-05,-7.739497232250869e-05,-0.0006061421008780599,-0.0030860097613185644,-0.0029265505727380514,-0.02622690238058567,0.08071455359458923,-0.01169497985392809,0.003139285836368799,0.0008332915604114532,0.0003389297635294497,0.0,0.0,0.0,-0.005019438918679953,0.001966535346582532,-0.0,0.0,0.0,0.0,0.010203056037425995,-0.0237822737544775,-0.001150685828179121,10600.0,15117.0,15527.0,13203.0,0.24208097159862518,0.5164957046508789,0.5464377403259277,0.3877354562282562,0.0,0.0,0.0,0.0,10521.0,15165.0,15494.0,13249.0,1.6729626655578613,3.1284590422345784,0.0051889952012731,3.100018222422847,-0.007927462458610535,-0.015564912930130959,0.0
150,5,2.86082035927393e-06,-4.488700506044552e-05,-0.00014267832739278674,-0.00045120928552933037,0.0021527300123125315,0.006663382053375244,-0.02622690238058567,0.08071455359458923,-0.01169497985392809,0.003139285836368799,0.0008332915604114532,0.0003389297635294497,0.0,0.0,0.0,0.003720557549968362,-0.00056030775886029,-0.0,0.0,0.0,0.0,0.010203056037425995,-0.0237822737544775,-0.001150685828179121,10600.0,15117.0,15527.0,13203.0,0.24208097159862518,0.5164957046508789,0.5464377403259277,0.3877354562282562,0.0,0.0,0.0,0.0,10521.0,15165.0,15494.0,13249.0,1.664628267288208,3.12846333240124,0.006197090178111657,3.099228110915488,0.002247464144602418,0.011479739099740982,0.0
156,5,-2.721392775129061e-06,-1.200342558149714e-05,-0.00012202498328406364,-0.0008503493154421449,-0.0030849375762045383,0.0001869524858193472,-0.02620779536664486,0.08073751628398895,-0.011683224700391293,0.0018833423964679241,0.00048149615759029984,-0.0006024898029863834,0.0,0.0,0.0,0.003720557549968362,-0.00056030775886029,-0.0,0.0,0.0,0.0,0.0058300490491092205,-0.023859389126300812,-0.0012333745835348964,10912.0,15372.0,15233.0,12895.0,0.25774604082107544,0.5350643992424011,0.5248889327049255,0.3687193989753723,0.0,0.0,0.0,0.0,10828.0,15272.0,15232.0,12865.0,1.664628267288208,3.1288468121921897,0.0056396937830548695,3.0997599511817344,0.002247464144602418,0.011479739099740982,0.0
161,5,-6.490921805379912e-06,-7.401620678137988e-05,-0.00023965229047462344,-0.0007924832170829177,0.0062075587920844555,0.014190057292580605,-0.02620779536664486,0.08073751628398895,-0.011683224700391293,0.0018833423964679241,0.00048149615759029984,-0.0006024898029863834,0.0,0.0,0.0,0.0037281012628227472,-0.0007987787248566747,-0.0,0.0,0.0,0.0,0.0058300490491092205,-0.023859389126300812,-0.0012333745835348964,10912.0,15372.0,15233.0,12895.0,0.25774604082107544,0.5350643992424011,0.5248889327049255,0.3687193989753723,0.0,0.0,0.0,0.0,10828.0,15272.0,15232.0,12865.0,1.6643790006637573,3.1258019732248328,0.009049869154944512,3.098724550603434,0.0032035207841545343,0.011501292698085308,0.0
166,5,1.9478663944028085e-06,-2.1990696041029878e-05,-0.0001445533416699618,0.0006956613506190479,-0.003760037710890174,-0.005735850892961025,-0.02616424486041069,0.08075972646474838,-0.01165435928851366,0.012184572406113148,-0.0015141124604269862,0.02015060745179653,0.0,0.0,0.0,0.0037281012628227472,-0.0007987787248566747,-0.0,0.0,0.0,0.0,0.006326021160930395,-0.023968027904629707,-0.0012839429546147585,10947.0,15213.0,15310.0,12742.0,0.25953271985054016,0.5234540104866028,0.530511200428009,0.35946473479270935,0.0,0.0,0.0,0.0,10880.0,14878.0,15662.0,12629.0,1.6643790006637573,3.126449238102168,0.0077656388564248165,3.0994253084460714,0.0032035207841545343,0.011501292698085308,0.0
171,5,3.067602665396407e-05,-1.8846465536626056e-05,-0.00012251401494722813,0.0037256437353789806,-0.0018813228234648705,-0.004939058795571327,-0.02616424486041069,0.08075972646474838,-0.01165435928851366,0.012184572406113148,-0.0015141124604269862,0.02015060745179653,0.0,0.0,0.0,0.004531311336904764,0.0006532701081596315,-0.0,0.0,0.0,0.0,0.006326021160930395,-0.023968027904629707,-0.0012839429546147585,10947.0,15213.0,15310.0,12742.0,0.25953271985054016,0.5234540104866028,0.530511200428009,0.35946473479270935,0.0,0.0,0.0,0.0,10880.0,14878.0,15662.0,12629.0,1.6642268896102905,3.1296422312505396,0.005422933513311211,3.1000654661314786,-0.0026197070255875587,0.013977911323308945,0.0
176,5,-2.088332621497102e-05,-4.131580340072105e-07,-9.317576041212305e-05,-0.0046968646347522736,-0.0029645259492099285,-0.005496214143931866,-0.02613605558872223,0.08077195286750793,-0.011699782684445381,-0.002922668121755123,0.009930513799190521,-0.08503331989049911,0.0,0.0,0.0,0.004531311336904764,0.0006532701081596315,-0.0,0.0,0.0,0.0,0.008977369405329227,-0.024461541324853897,-0.00280109909363091,9396.0,15819.0,14683.0,13777.0,0.18621358275413513,0.5683126449584961,0.48567521572113037,0.42442676424980164,0.0,0.0,0.0,0.0,10880.0,14878.0,15662.0,12629.0,1.6642268896102905,3.126723698950875,0.00724651903238947,3.099464180801126,-0.0026197070255875587,0.013977911323308945,0.0
181,5,6.5676549638737924e-06,-3.38445242960006e-05,-0.00012414272350724787,0.001415371778421104,0.002825953299179673,0.001517549273557961,-0.02613605558872223,0.08077195286750793,-0.011699782684445381,-0.002922668121755123,0.009930513799190521,-0.08503331989049911,0.0,0.0,0.0,0.0035641298163682222,-0.004373433534055948,-0.0,0.0,0.0,0.0,0.008977369405329227,-0.024461541324853897,-0.00280109909363091,9396.0,15819.0,14683.0,13777.0,0.18621358275413513,0.5683126449584961,0.48567521572113037,0.42442676424980164,0.0,0.0,0.0,0.0,10880.0,14878.0,15662.0,12629.0,1.6822372674942017,3.1282305116776965,0.006346512582608384,3.099447454611438,0.017727909609675407,0.011113417334854603,0.0
186,5,1.9239980701968307e-06,-3.535136056598276e-05,-8.904993592295796e-05,8.909924872568808e-06,0.001311201718635857,-0.003604114754125476,-0.026212593540549278,0.08085598051548004,-0.011182038113474846,-0.010381098836660385,-0.014187340624630451,0.04857846722006798,0.0,0.0,0.0,0.0035641298163682222,-0.004373433534055948,-0.0,0.0,0.0,0.0,0.009012090042233467,-0.025204721838235855,0.002524309791624546,11693.0,14222.0,16324.0,11786.0,0.2990674078464508,0.45398154854774475,0.6071231961250305,0.30420687794685364,0.0,0.0,0.0,0.0,9907.0,15507.0,15036.0,13397.0,1.6822372674942017,3.126802047751029,0.005477283952242466,3.1003851081264284,0.017727909609675407,0.011113417334854603,0.0
191,5,7.158841981436126e-06,-4.2897838284261525e-05,-8.912730845622718e-05,0.0006317452061921358,0.001430058036930859,-0.001432361314073205,-0.026212593540549278,0.08085598051548004,-0.011182038113474846,-0.010381098836660385,-0.014187340624630451,0.04857846722006798,0.0,0.0,0.0,-0.0016679952386766672,1.1089891813753638e-05,-0.0,0.0,0.0,0.0,0.009012090042233467,-0.025204721838235855,0.002524309791624546,11693.0,14222.0,16324.0,11786.0,0.2990674078464508,0.45398154854774475,0.6071231961250305,0.30420687794685364,0.0,0.0,0.0,0.0,9907.0,15507.0,15036.0,13397.0,1.653711199760437,3.1292737532299064,0.005678694357878919,3.0993144791543012,-4.419145261636004e-05,-0.005112845450639725,0.0
196,5,1.3221907465776894e-05,-8.894316852092743e-05,-0.00021666628890670836,0.0009802660206332803,0.006097463425248861,0.01473173312842846,-0.026103787124156952,0.08077726513147354,-0.012030969373881817,0.008475972339510918,-0.01724618673324585,0.0745687410235405,0.0,0.0,0.0,-0.0016679952386766672,1.1089891813753638e-05,-0.0,0.0,0.0,0.0,0.009075007401406765,-0.024114016443490982,-0.001638131681829691,10899.0,14838.0,15674.0,12637.0,0.25708749890327454,0.49655988812446594,0.5574345588684082,0.35314491391181946,0.0,0.0,0.0,0.0,11778.0,14143.0,16387.0,11704.0,1.653711199760437,3.1274119144250365,0.008584558019674825,3.0989300308082397,-4.419145261636004e-05,-0.005112845450639725,0.0
201,5,1.3111736052451306e-07,-9.56594740273431e-05,-0.0002356885961489752,-0.001178788486868143,0.0032449415884912014,0.008175370283424854,-0.026103787124156952,0.08077726513147354,-0.012030969373881817,0.008475972339510918,-0.01724618673324585,0.0745687410235405,0.0,0.0,0.0,-0.007458090782165527,0.0009208615520037711,-0.0,0.0,0.0,0.0,0.009075007401406765,-0.024114016443490982,-0.001638131681829691,10899.0,14838.0,15674.0,12637.0,0.25708749890327454,0.49655988812446594,0.5574345588684082,0.35314491391181946,0.0,0.0,0.0,0.0,11778.0,14143.0,16387.0,11704.0,1.6895726919174194,3.127893580050413,0.009900001781116052,3.098844399876778,-0.003748961491510272,-0.023356392979621887,0.0
206,5,-1.1319720215396956e-05,-2.5314275262644514e-05,-0.00012649214477278292,-0.0018456157995387912,-0.007143447175621986,-0.009833425283432007,-0.026151081547141075,0.08100611716508865,-0.012047380208969116,0.014476570300757885,-0.0009477876010350883,-0.11641890555620193,0.0,0.0,0.0,-0.007458090782165527,0.0009208615520037711,-0.0,0.0,0.0,0.0,0.009267019107937813,-0.026156621053814888,-0.003441976150497794,8520.0,16414.0,14341.0,14250.0,0.15012535452842712,0.6142171621322632,0.4620475769042969,0.45584723353385925,0.0,0.0,0.0,0.0,9889.0,15696.0,15174.0,13310.0,1.6895726919174194,3.128793628622975,0.00675997735538355,3.10034659364291,-0.003748961491510272,-0.023356392979621887,0.0
212,5,-1.0271020073560067e-05,-6.703003691654885e-06,-9.160891931969672e-05,-0.0006124023930169642,-0.0050907316617667675,-0.008119357749819756,-0.026151081547141075,0.08100611716508865,-0.012047380208969116,0.014476570300757885,-0.0009477876010350883,-0.11641890555620193,0.0,0.0,0.0,0.008456735871732235,-0.0017047799192368984,-0.0,0.0,0.0,0.0,0.009267019107937813,-0.026156621053814888,-0.003441976150497794,8520.0,16414.0,14341.0,14250.0,0.15012535452842712,0.6142171621322632,0.4620475769042969,0.45584723353385925,0.0,0.0,0.0,0.0,9889.0,15696.0,15174.0,13310.0,1.6999833583831787,3.1271746428098472,0.006992447756678874,3.1006478313748658,0.006983113940805197,0.026646891608834267,0.0
217,5,-1.7044745618477464e-05,-4.09183521696832e-05,-0.00011934030771953985,-0.001057807938195765,0.0020695494022220373,8.002347021829337e-05,-0.025961900129914284,0.08130697160959244,-0.012009792029857635,-0.026395456865429878,-0.05851535126566887,0.003976221662014723,0.0,0.0,0.0,0.008456735871732235,-0.0017047799192368984,-0.0,0.0,0.0,0.0,0.005114256404340267,-0.02648049406707287,-0.003832347458228469,10484.0,15234.0,15437.0,12626.0,0.23638561367988586,0.5249813199043274,0.539821982383728,0.35252222418785095,0.0,0.0,0.0,0.0,10133.0,15410.0,15243.0,12929.0,1.6999833583831787,3.128347770967697,0.006769612260604099,3.1002899167041083,0.006983113940805197,0.026646891608834267,0.0
222,5,-1.1035381248802878e-05,-0.00013457958993967623,-0.00027291662991046906,0.0002980004937853664,0.012067168951034546,0.018461167812347412,-0.025961900129914284,0.08130697160959244,-0.012009792029857635,-0.026395456865429878,-0.05851535126566887,0.003976221662014723,0.0,0.0,0.0,-0.0025784873869270086,-0.0010082339867949486,-0.0,0.0,0.0,0.0,0.005114256404340267,-0.02648049406707287,-0.003832347458228469,10484.0,15234.0,15437.0,12626.0,0.23638561367988586,0.5249813199043274,0.539821982383728,0.35252222418785095,0.0,0.0,0.0,0.0,10133.0,15410.0,15243.0,12929.0,1.6713026762008667,3.1258147582632976,0.01114023673425111,3.0988641156480923,0.004060381557792425,-0.007987811230123043,0.0
227,5,-6.952771855139872e-06,-3.941883551306091e-05,-5.852018148289062e-05,0.0006091133109293878,-0.006592423655092716,-0.018343105912208557,-0.025961900129914284,0.08130697160959244,-0.012009792029857635,-0.026395456865429878,-0.05851535126566887,0.003976221662014723,0.0,0.0,0.0,-0.0025784873869270086,-0.0010082339867949486,-0.0,0.0,0.0,0.0,0.005114256404340267,-0.02648049406707287,-0.003832347458228469,10484.0,15234.0,15437.0,12626.0,0.23638561367988586,0.5249813199043274,0.539821982383728,0.35252222418785095,0.0,0.0,0.0,0.0,10133.0,15410.0,15243.0,12929.0,1.6713026762008667,3.128828395517861,0.00572208179884224,3.100685096733818,0.004060381557792425,-0.007987811230123043,0.0
232,5,-5.514917575055733e-05,-4.946013359585777e-05,-7.502987864427269e-05,-0.005539923440665007,-0.001432013581506908,-0.005356078967452049,-0.02588348463177681,0.08213059604167938,-0.012605169788002968,0.06110677123069763,-0.08782505989074707,-0.04369615390896797,0.0,0.0,0.0,0.00781237194314599,0.0005508726462721825,-0.0,0.0,0.0,0.0,0.010844261385500431,-0.027592483907938004,-0.002419237280264497,9804.0,16233.0,14725.0,13345.0,0.20432648062705994,0.6000145077705383,0.48860183358192444,0.39662984013557434,0.0,0.0,0.0,0.0,10697.0,15679.0,15298.0,12673.0,1.6921173334121704,3.1281615773429463,0.007720334209684061,3.1007283339850704,-0.0022460545878857374,0.024502698332071304,0.0
237,5,-6.242440576897934e-05,-6.914457480888814e-05,-1.58231814566534e-05,-0.0030889969784766436,0.0017893275944516063,-0.009247235022485256,-0.02588348463177681,0.08213059604167938,-0.012605169788002968,0.06110677123069763,-0.08782505989074707,-0.04369615390896797,0.0,0.0,0.0,0.00781237194314599,0.0005508726462721825,-0.0,0.0,0.0,0.0,0.010844261385500431,-0.027592483907938004,-0.002419237280264497,9804.0,16233.0,14725.0,13345.0,0.20432648062705994,0.6000145077705383,0.48860183358192444,0.39662984013557434,0.0,0.0,0.0,0.0,10697.0,15679.0,15298.0,12673.0,1.6921173334121704,3.129560471115805,0.005987200170885704,3.101206413624547,-0.0022460545878857374,0.024502698332071304,0.0
242,5,-9.152343409368768e-05,-7.74607906350866e-05,2.3726668587187305e-05,-0.004727481864392757,0.0017136763781309128,-0.008444876410067081,-0.02569139190018177,0.08271841704845428,-0.012743703089654446,-0.02942604385316372,-0.07727449387311935,-0.039803702384233475,0.0,0.0,0.0,-0.0022684268187731504,-0.002934365766122937,-0.0,0.0,0.0,0.0,0.005964836571365595,-0.02731671929359436,-0.0017621673177927732,9552.0,15743.0,15419.0,13490.0,0.19305124878883362,0.5626193284988403,0.5384531617164612,0.4058595597743988,0.0,0.0,0.0,0.0,9574.0,15822.0,15298.0,13521.0,1.6868367195129395,3.1312561239740875,0.0055662264309682625,3.1012361089272886,0.011927171610295773,-0.007092603482306004,0.0
247,5,-9.302917897002771e-05,-0.0001537887001177296,-6.868646596558392e-05,-0.0020716821309179068,0.009844820946455002,0.007711626123636961,-0.02569139190018177,0.08271841704845428,-0.012743703089654446,-0.02942604385316372,-0.07727449387311935,-0.039803702384233475,0.0,0.0,0.0,-0.0022684268187731504,-0.002934365766122937,-0.0,0.0,0.0,0.0,0.005964836571365595,-0.02731671929359436,-0.0017621673177927732,9552.0,15743.0,15419.0,13490.0,0.19305124878883362,0.5626193284988403,0.5384531617164612,0.4058595597743988,0.0,0.0,0.0,0.0,9574.0,15822.0,15298.0,13521.0,1.6868367195129395,3.13023624878996,0.009856075808132216,3.0996424676070458,0.011927171610295773,-0.007092603482306004,0.0
252,5,-0.0001370167883578688,-0.00017835042672231793,-7.173829362727702e-05,-0.006107185501605272,0.006885334383696318,0.0034508693497627974,-0.025335464626550674,0.08346352726221085,-0.013045232743024826,0.01956631802022457,-0.06340830028057098,0.016444172710180283,0.0,0.0,0.0,-0.011780845001339912,-0.001987066585570574,-0.0,0.0,0.0,0.0,0.005964836571365595,-0.02731671929359436,-0.0017621673177927732,10813.0,15285.0,15651.0,12316.0,0.2527308464050293,0.5286306142807007,0.555698573589325,0.33424264192581177,0.0,0.0,0.0,0.0,9666.0,15899.0,14960.0,13296.0,1.7295902967453003,3.1275498041525234,0.011145821259932246,3.0998533900858076,0.008280892856419086,-0.03776678442955017,0.0
257,5,-0.00012876572145614773,-0.00019968913693446666,-4.223571886541322e-05,-0.0014527472667396069,0.005314779467880726,-0.0021599610336124897,-0.025335464626550674,0.08346352726221085,-0.013045232743024826,0.01956631802022457,-0.06340830028057098,0.016444172710180283,0.0,0.0,0.0,-0.011780845001339912,-0.001987066585570574,-0.0,0.0,0.0,0.0,0.005964836571365595,-0.02731671929359436,-0.0017621673177927732,10813.0,15285.0,15651.0,12316.0,0.2527308464050293,0.5286306142807007,0.555698573589325,0.33424264192581177,0.0,0.0,0.0,0.0,9666.0,15899.0,14960.0,13296.0,1.7295902967453003,3.128890623332033,0.009164410504566477,3.0996181388558326,0.008280892856419086,-0.03776678442955017,0.0
262,5,-0.00014344310329761356,-0.0002075504744425416,-6.5978738348349e-06,-0.00234238407574594,0.0030692717991769314,-0.005140526220202446,-0.025567224249243736,0.08362986892461777,-0.013254811055958271,0.003833671798929572,0.013146918267011642,0.03562445566058159,0.0,0.0,0.0,-0.00668401038274169,-0.0015051255468279123,-0.0,0.0,0.0,0.0,0.007069577928632498,-0.023388683795928955,-9.815211524255574e-05,10811.0,14955.0,15826.0,12847.0,0.252627432346344,0.5049024224281311,0.5688148140907288,0.36577266454696655,0.0,0.0,0.0,0.0,10307.0,15366.0,15385.0,13298.0,1.6976436376571655,3.126703647259937,0.008984218746944866,3.1004554154518615,0.0061568887904286385,-0.02103227935731411,0.0
267,5,-0.00012829377374146134,-0.0002459827810525894,-3.26203262375202e-05,0.0008809650898911059,0.005839587654918432,0.0010664837900549173,-0.025567224249243736,0.08362986892461777,-0.013254811055958271,0.003833671798929572,0.013146918267011642,0.03562445566058159,0.0,0.0,0.0,-0.00668401038274169,-0.0015051255468279123,-0.0,0.0,0.0,0.0,0.007069577928632498,-0.023388683795928955,-9.815211524255574e-05,10811.0,14955.0,15826.0,12847.0,0.252627432346344,0.5049024224281311,0.5688148140907288,0.36577266454696655,0.0,0.0,0.0,0.0,10307.0,15366.0,15385.0,13298.0,1.6976436376571655,3.1280410039550164,0.008933132757987973,3.099613975686384,0.0061568887904286385,-0.02103227935731411,0.0
272,5,-0.00013583684631157666,-0.00030723464442417026,-8.298136526718736e-05,-0.0005527816829271615,0.009686057455837727,0.0064699179492890835,-0.025463730096817017,0.082796111702919,-0.013302823528647423,0.02558535896241665,0.13940048217773438,-0.04228530824184418,0.0,0.0,0.0,-0.00738622946664691,0.0006344121065922081,-0.0,0.0,0.0,0.0,0.002449207240715623,-0.01747775450348854,-0.0014952378114685416,11808.0,15415.0,14680.0,13405.0,0.30545860528945923,0.5382226705551147,0.48546114563941956,0.4004478454589844,0.0,0.0,0.0,0.0,11112.0,15179.0,15127.0,13089.0,1.6986615657806396,3.1257764974809144,0.011292296784964689,3.09823353624344,-0.00259667937643826,-0.023255785927176476,0.0
277,5,-0.00012720694940071553,-0.00034549128031358123,-5.4308882681652904e-05,0.0008144740713760257,0.008465219289064407,-0.000852730474434793,-0.025463730096817017,0.082796111702919,-0.013302823528647423,0.02558535896241665,0.13940048217773438,-0.04228530824184418,0.0,0.0,0.0,-0.00738622946664691,0.0006344121065922081,-0.0,0.0,0.0,0.0,0.002449207240715623,-0.01747775450348854,-0.0014952378114685416,11808.0,15415.0,14680.0,13405.0,0.30545860528945923,0.5382226705551147,0.48546114563941956,0.4004478454589844,0.0,0.0,0.0,0.0,11112.0,15179.0,15127.0,13089.0,1.6986615657806396,3.1256103311543137,0.009946387286576616,3.098776308270205,-0.00259667937643826,-0.023255785927176476,0.0
282,5,-0.0001305632176809013,-0.0003457448328845203,-2.7527890779310837e-05,-7.696230750298128e-05,0.0034165140241384506,-0.0035548110026866198,-0.02427801303565502,0.07583848387002945,-0.01252096425741911,0.02864818274974823,0.4899272918701172,0.13124193251132965,0.0,0.0,0.0,-0.00738622946664691,0.0006344121065922081,-0.0,0.0,0.0,0.0,0.004508691839873791,-0.012448536232113838,0.0003825747990049422,13268.0,13641.0,15500.0,12514.0,0.3917715549468994,0.4155837297439575,0.5444586277008057,0.34582972526550293,0.0,0.0,0.0,0.0,12667.0,14688.0,15175.0,12883.0,1.6986615657806396,3.124852631021775,0.008762056097057968,3.0990532116530973,-0.00259667937643826,-0.023255785927176476,0.0
287,5,-0.00010964918328681961,-0.0003938739246223122,7.567407010355964e-05,0.0013959914213046432,0.0037764154840260744,-0.00978319626301527,-0.02427801303565502,0.07583848387002945,-0.01252096425741911,0.02864818274974823,0.4899272918701172,0.13124193251132965,0.0,0.0,0.0,-0.0047208042815327644,-0.000248806580202654,-0.0,0.0,0.0,0.0,0.004508691839873791,-0.012448536232113838,0.0003825747990049422,13268.0,13641.0,15500.0,12514.0,0.3917715549468994,0.4155837297439575,0.5444586277008057,0.34582972526550293,0.0,0.0,0.0,0.0,12667.0,14688.0,15175.0,12883.0,1.682137370109558,3.124458591677756,0.0032376150807643424,3.0983422717758575,0.0010084871901199222,-0.0147191621363163,0.0
292,5,-0.00010964918328681961,-0.0003938739246223122,7.567407010355964e-05,0.0013959914213046432,0.0037764154840260744,-0.00978319626301527,-0.023956557735800743,0.07084786891937256,-0.012298942543566227,0.04094123840332031,0.6825820803642273,0.04578646272420883,0.0,0.0,0.0,-0.0047208042815327644,-0.000248806580202654,-0.0,0.0,0.0,0.0,0.0049356273375451565,-0.005660750437527895,-0.00023964217689353973,12970.0,13922.0,14357.0,13821.0,0.37330007553100586,0.433898389339447,0.46316421031951904,0.4272809624671936,0.0,0.0,0.0,0.0,12666.0,14161.0,14738.0,13451.0,1.682137370109558,3.124458591677756,0.0032376150807643424,3.0983422717758575,0.0010084871901199222,-0.0147191621363163,0.0
297,5,-3.917352660209872e-05,-0.0004983633407391608,2.6057371087517822e-06,0.0051901680417358875,0.01145994197577238,0.006879112683236599,-0.023956557735800743,0.07084786891937256,-0.012298942543566227,0.04094123840332031,0.6825820803642273,0.04578646272420883,0.0,0.0,0.0,-0.005253667011857033,0.00114541151560843,-0.0,0.0,0.0,0.0,0.0049356273375451565,-0.005660750437527895,-0.00023964217689353973,12970.0,13922.0,14357.0,13821.0,0.37330007553100586,0.433898389339447,0.46316421031951904,0.4272809624671936,0.0,0.0,0.0,0.0,12666.0,14161.0,14738.0,13451.0,1.677445888519287,3.1200004257085214,0.002632465575939661,3.0964796309271176,-0.004629732575267553,-0.016334882006049156,0.0
302,5,-2.7506068363436498e-05,-0.0004798748414032161,5.9370824601501226e-05,0.003476161975413561,0.0023653539828956127,-0.004060165490955114,-0.023798039183020592,0.06191679462790489,-0.011592480354011059,0.0024983584880828857,0.7863749265670776,0.056027378886938095,0.0,0.0,0.0,-0.005253667011857033,0.00114541151560843,-0.0,0.0,0.0,0.0,0.005117926746606827,-1.4227182873582933e-05,0.0006359121180139482,13455.0,13178.0,14271.0,13940.0,0.4035854637622833,0.38615772128105164,0.45728394389152527,0.4351102411746979,0.0,0.0,0.0,0.0,13438.0,13517.0,14435.0,13710.0,1.677445888519287,3.117601904898721,0.0009177525632646463,3.096302982023259,-0.004629732575267553,-0.016334882006049156,0.0
308,5,-2.7506068363436498e-05,-0.0004798748414032161,5.9370824601501226e-05,0.003476161975413561,0.0023653539828956127,-0.004060165490955114,-0.023798039183020592,0.06191679462790489,-0.011592480354011059,0.0024983584880828857,0.7863749265670776,0.056027378886938095,0.0,0.0,0.0,-0.003715513041242957,0.0031965572852641344,-0.0,0.0,0.0,0.0,0.005117926746606827,-1.4227182873582933e-05,0.0006359121180139482,13455.0,13178.0,14271.0,13940.0,0.4035854637622833,0.38615772128105164,0.45728394389152527,0.4351102411746979,0.0,0.0,0.0,0.0,13438.0,13517.0,14435.0,13710.0,1.6724562644958496,3.117601904898721,0.0009177525632646463,3.096302982023259,-0.012882063165307045,-0.0115180853754282,0.0
313,5,2.8904074497404508e-05,-0.0005246944492682815,0.00022820259619038552,0.005016588140279055,0.003533559385687113,-0.01463688351213932,-0.023643895983695984,0.05516047775745392,-0.011260094121098518,0.005481790751218796,0.830256998538971,0.10145111382007599,0.0,0.0,0.0,-0.003715513041242957,0.0031965572852641344,-0.0,0.0,0.0,0.0,0.0057565150782465935,0.004032105207443237,0.001225752173922956,14240.0,12324.0,14362.0,13771.0,0.45517903566360474,0.3347472548484802,0.4635072350502014,0.42401236295700073,0.0,0.0,0.0,0.0,13345.0,13339.0,13915.0,14248.0,1.6724562644958496,3.1172643124656823,-0.009770348343823598,3.0963059811426596,-0.012882063165307045,-0.0115180853754282,0.0
318,5,4.9055135605158284e-05,-0.0006035600090399384,0.00018226509564556181,0.004424762446433306,0.010877289809286594,-0.0003422542358748615,-0.023643895983695984,0.05516047775745392,-0.011260094121098518,0.005481790751218796,0.830256998538971,0.10145111382007599,0.0,0.0,0.0,-0.005145824979990721,0.004650108516216278,-0.0,0.0,0.0,0.0,0.0057565150782465935,0.004032105207443237,0.001225752173922956,14240.0,12324.0,14362.0,13771.0,0.45517903566360474,0.3347472548484802,0.4635072350502014,0.42401236295700073,0.0,0.0,0.0,0.0,13345.0,13339.0,13915.0,14248.0,1.692922830581665,3.1173907280338353,-0.010088078341151583,3.095085358123566,-0.018969018012285233,-0.016147200018167496,0.0
323,5,4.9055135605158284e-05,-0.0006035600090399384,0.00018226509564556181,0.004424762446433306,0.010877289809286594,-0.0003422542358748615,-0.023652642965316772,0.04556781053543091,-0.011020914651453495,0.01598416268825531,0.7676348686218262,0.01949203759431839,0.0,0.0,0.0,-0.005145824979990721,0.004650108516216278,-0.0,0.0,0.0,0.0,0.005467998795211315,0.00476034777238965,-0.0013054718729108572,13263.0,13308.0,13288.0,14797.0,0.3914949893951416,0.39428257942199707,0.39302223920822144,0.4936564564704895,0.0,0.0,0.0,0.0,13878.0,12737.0,13966.0,14169.0,1.692922830581665,3.1173907280338353,-0.010088078341151583,3.095085358123566,-0.018969018012285233,-0.016147200018167496,0.0
328,5,2.689597567950841e-05,-0.0006217972841113806,0.0003037242859136313,0.0007305615581572056,0.006875014863908291,-0.0018793476046994328,-0.023652642965316772,0.04556781053543091,-0.011020914651453495,0.01598416268825531,0.7676348686218262,0.01949203759431839,0.0,0.0,0.0,-0.013585368171334267,0.003993596415966749,-0.0,0.0,0.0,0.0,0.005467998795211315,0.00476034777238965,-0.0013054718729108572,13263.0,13308.0,13288.0,14797.0,0.3914949893951416,0.39428257942199707,0.39302223920822144,0.4936564564704895,0.0,0.0,0.0,0.0,13878.0,12737.0,13966.0,14169.0,1.75226628780365,3.115195005620154,-0.015401499739209467,3.09511829795267,-0.01686067506670952,-0.044122062623500824,0.0
333,5,1.7381087673129514e-05,-0.0007061680662445724,0.00026452093152329326,-0.0008495618822053075,0.012874499894678593,0.003952664788812399,-0.02361193858087063,0.040118198841810226,-0.010374154895544052,0.014206185936927795,0.5827208757400513,0.04953934997320175,0.0,0.0,0.0,-0.013585368171334267,0.003993596415966749,-0.0,0.0,0.0,0.0,0.006089012138545513,0.00378730078227818,0.0013875353615731,13878.0,12643.0,14182.0,13962.0,0.43105190992355347,0.35352420806884766,0.4512960910797119,0.4365840554237366,0.0,0.0,0.0,0.0,13680.0,12866.0,13786.0,14347.0,1.75226628780365,3.1148003528112036,-0.016293237826545213,3.0946897659354837,-0.01686067506670952,-0.044122062623500824,0.0
338,5,-2.2742431610822678e-05,-0.0007424669456668198,0.0003462521708570421,-0.005154646933078766,0.009505661204457283,-0.008226682431995869,-0.02361193858087063,0.040118198841810226,-0.010374154895544052,0.014206185936927795,0.5827208757400513,0.04953934997320175,0.0,0.0,0.0,-0.015945427119731903,-0.0007269251509569585,-0.0,0.0,0.0,0.0,0.006089012138545513,0.00378730078227818,0.0013875353615731,13878.0,12643.0,14182.0,13962.0,0.43105190992355347,0.35352420806884766,0.4512960910797119,0.4365840554237366,0.0,0.0,0.0,0.0,13680.0,12866.0,13786.0,14347.0,1.7655482292175293,3.116088480735268,-0.020863409594963276,3.0945754151935447,0.003092188388109207,-0.05217841640114784,0.0
343,5,-6.71201923978515e-05,-0.000831945682875812,0.0002789551217574626,-0.007387190591543913,0.014539713971316814,0.004784971009939909,-0.023287957534193993,0.03504490852355957,-0.010006556287407875,0.040826085954904556,0.2739313542842865,0.11288092285394669,0.0,0.0,0.0,-0.015945427119731903,-0.0007269251509569585,-0.0,0.0,0.0,0.0,0.005026772152632475,-0.0015426406171172857,0.0004301182343624532,13752.0,13087.0,14714.0,13426.0,0.42279207706451416,0.3805164098739624,0.48782533407211304,0.40178900957107544,0.0,0.0,0.0,0.0,13132.0,13645.0,13519.0,14689.0,1.7655482292175293,3.1160132075334075,-0.01921834212383973,3.0941124575527,0.003092188388109207,-0.05217841640114784,0.0
348,5,-0.00010588533768896013,-0.0009217610349878669,0.0002576271945144981,-0.00760669307783246,0.016593730077147484,0.0044733393006026745,-0.023287957534193993,0.03504490852355957,-0.010006556287407875,0.040826085954904556,0.2739313542842865,0.11288092285394669,0.0,0.0,0.0,-0.01772012747824192,-0.0064733559265732765,-0.0,0.0,0.0,0.0,0.005026772152632475,-0.0015426406171172857,0.0004301182343624532,13752.0,13087.0,14714.0,13426.0,0.42279207706451416,0.3805164098739624,0.48782533407211304,0.40178900957107544,0.0,0.0,0.0,0.0,13132.0,13645.0,13519.0,14689.0,1.8000439405441284,3.1169338521952152,-0.01937318413364199,3.0933503391150983,0.02807328850030899,-0.05911765620112419,0.0
353,5,-0.00021668736007995903,-0.0009962123585864902,0.0002517494431231171,-0.01633892022073269,0.015571651980280876,0.002494668122380972,-0.023288067430257797,0.0340544618666172,-0.009767775423824787,0.03075728379189968,0.0006165197119116783,-0.010416528210043907,0.0,0.0,0.0,-0.01772012747824192,-0.0064733559265732765,-0.0,0.0,0.0,0.0,0.00300183636136353,-0.008045149967074394,-0.001609645551070571,12570.0,14927.0,14215.0,14114.0,0.34914731979370117,0.5028863549232483,0.45349425077438354,0.4467383623123169,0.0,0.0,0.0,0.0,14118.0,13487.0,15028.0,13232.0,1.8000439405441284,3.118292734552697,-0.017649366505879758,3.092103191690063,0.02807328850030899,-0.05911765620112419,0.0
358,5,-0.0003082609036937356,-0.0010759386932477355,0.00024178685271181166,-0.017524391412734985,0.01579582318663597,0.0021933778189122677,-0.023288067430257797,0.0340544618666172,-0.009767775423824787,0.03075728379189968,0.0006165197119116783,-0.010416528210043907,0.0,0.0,0.0,-0.01772012747824192,-0.0064733559265732765,-0.0,0.0,0.0,0.0,0.00300183636136353,-0.008045149967074394,-0.001609645551070571,12570.0,14927.0,14215.0,14114.0,0.34914731979370117,0.5028863549232483,0.45349425077438354,0.4467383623123169,0.0,0.0,0.0,0.0,14118.0,13487.0,15028.0,13232.0,1.8000439405441284,3.1183548532499152,-0.017419804517265085,3.0918162256591644,0.02807328850030899,-0.05911765620112419,0.0
364,5,-0.00040092438575811684,-0.0011850777082145214,0.00020813976880162954,-0.01812937669456005,0.019415004178881645,0.00491500087082386,-0.02298177406191826,0.035348471254110336,-0.008963499218225479,0.02744152769446373,-0.20706623792648315,0.05684390664100647,0.0,0.0,0.0,-0.018773173913359642,-0.014939123764634132,-0.0,0.0,0.0,0.0,0.0019055753946304321,-0.015137889422476292,0.0016471761045977473,13248.0,14550.0,15564.0,12574.0,0.39054080843925476,0.4764179587364197,0.5491790175437927,0.3494105041027069,0.0,0.0,0.0,0.0,12771.0,14992.0,14626.0,13635.0,1.8731523752212524,3.1204096513495054,-0.016727250700380062,3.091219349603665,0.06741514056921005,-0.06517379730939865,0.0
369,5,-0.0004965275293216109,-0.0012225997634232044,0.0002863313420675695,-0.01872412860393524,0.01226864568889141,-0.007416989654302597,-0.02298177406191826,0.035348471254110336,-0.008963499218225479,0.02744152769446373,-0.20706623792648315,0.05684390664100647,0.0,0.0,0.0,-0.018773173913359642,-0.014939123764634132,-0.0,0.0,0.0,0.0,0.0019055753946304321,-0.015137889422476292,0.0016471761045977473,13248.0,14550.0,15564.0,12574.0,0.39054080843925476,0.4764179587364197,0.5491790175437927,0.3494105041027069,0.0,0.0,0.0,0.0,12771.0,14992.0,14626.0,13635.0,1.8731523752212524,3.1197647993220756,-0.0190354476579594,3.0918229373680797,0.06741514056921005,-0.06517379730939865,0.0
374,5,-0.0006170583073981106,-0.0012783210258930922,0.00028993497835472226,-0.021953346207737923,0.011594018898904324,-0.0033992298413068056,-0.02276100590825081,0.03678833693265915,-0.008894038386642933,0.05842028930783272,-0.20286035537719727,0.10829077661037445,0.0,0.0,0.0,-0.01527461688965559,-0.016248485073447227,-0.0,0.0,0.0,0.0,0.0007810332463122904,-0.018205590546131134,9.939993105945177e-06,13260.0,14932.0,15743.0,12464.0,0.39130860567092896,0.5032442808151245,0.5625600814819336,0.34293103218078613,0.0,0.0,0.0,0.0,13717.0,15043.0,16388.0,12231.0,1.8635387420654297,3.1212152362019636,-0.01897447338845136,3.0912089568446697,0.07295136153697968,-0.05275779217481613,0.0
379,5,-0.0007275686366483569,-0.0013163996627554297,0.0002911736082751304,-0.022042574360966682,0.009207039140164852,-0.0015083297621458769,-0.02276100590825081,0.03678833693265915,-0.008894038386642933,0.05842028930783272,-0.20286035537719727,0.10829077661037445,0.0,0.0,0.0,-0.01527461688965559,-0.016248485073447227,-0.0,0.0,0.0,0.0,0.0007810332463122904,-0.018205590546131134,9.939993105945177e-06,13260.0,14932.0,15743.0,12464.0,0.39130860567092896,0.5032442808151245,0.5625600814819336,0.34293103218078613,0.0,0.0,0.0,0.0,13717.0,15043.0,16388.0,12231.0,1.8635387420654297,3.1209147115673885,-0.017737750599640393,3.0913818745723693,0.07295136153697968,-0.05275779217481613,0.0
384,5,-0.0008244452765211463,-0.0013612944167107344,0.0003496045828796923,-0.020442228764295578,0.009070189669728279,-0.007615047972649336,-0.02276100590825081,0.03678833693265915,-0.008894038386642933,0.05842028930783272,-0.20286035537719727,0.10829077661037445,0.0,0.0,0.0,-0.011999235488474369,-0.01914096809923649,-0.0,0.0,0.0,0.0,0.0007810332463122904,-0.018205590546131134,9.939993105945177e-06,13260.0,14932.0,15743.0,12464.0,0.39130860567092896,0.5032442808151245,0.5625600814819336,0.34293103218078613,0.0,0.0,0.0,0.0,13717.0,15043.0,16388.0,12231.0,1.8793375492095947,3.1207194993160683,-0.020567856040274404,3.090732178209024,0.08666880428791046,-0.041797276586294174,0.0
389,5,-0.0008815726614557207,-0.0014209424844011664,0.0003323325072415173,-0.015032178722321987,0.01078584510833025,-0.0009733696933835745,-0.02238074131309986,0.038296300917863846,-0.008531194180250168,0.028801247477531433,-0.04340935871005058,-0.04291953146457672,0.0,0.0,0.0,-0.011999235488474369,-0.01914096809923649,-0.0,0.0,0.0,0.0,0.0008643345790915191,-0.017865994945168495,-0.0023284286726266146,12262.0,16214.0,14832.0,14122.0,0.3311517834663391,0.5985859632492065,0.4961682856082916,0.447246253490448,0.0,0.0,0.0,0.0,12427.0,15910.0,15052.0,13950.0,1.8793375492095947,3.121842566569728,-0.020820599389675468,3.0908786107445576,0.08666880428791046,-0.041797276586294174,0.0
394,5,-0.0009385943412780762,-0.0014535610098391771,0.0003898028808180243,-0.012855473905801773,0.008228562772274017,-0.007285792380571365,-0.02238074131309986,0.038296300917863846,-0.008531194180250168,0.028801247477531433,-0.04340935871005058,-0.04291953146457672,0.0,0.0,0.0,-0.014219745062291622,-0.013868086040019989,-0.0,0.0,0.0,0.0,0.0008643345790915191,-0.017865994945168495,-0.0023284286726266146,12262.0,16214.0,14832.0,14122.0,0.3311517834663391,0.5985859632492065,0.4961682856082916,0.447246253490448,0.0,0.0,0.0,0.0,12427.0,15910.0,15052.0,13950.0,1.8325387239456177,3.1210219787969917,-0.023552326756213996,3.0918228785135384,0.06122992932796478,-0.04829775542020798,0.0
399,5,-0.0009945313213393092,-0.0015119857853278518,0.00041715256520546973,-0.011854629032313824,0.010302393697202206,-0.006196280010044575,-0.022177739068865776,0.03745272755622864,-0.007780903019011021,-0.002347201807424426,0.15466855466365814,0.06677263230085373,0.0,0.0,0.0,-0.014219745062291622,-0.013868086040019989,-0.0,0.0,0.0,0.0,0.0020967021118849516,-0.0134524405002594,0.0021337184589356184,14019.0,14499.0,15913.0,12995.0,0.4403565526008606,0.4728843569755554,0.5754619240760803,0.37483590841293335,0.0,0.0,0.0,0.0,12681.0,15632.0,14635.0,14473.0,1.8325387239456177,3.120455143762347,-0.02400738740854251,3.0911104694610976,0.06122992932796478,-0.04829775542020798,0.0
404,5,-0.0010580765083432198,-0.0015192527789622545,0.000556300044991076,-0.012367265298962593,0.004992990754544735,-0.019176211208105087,-0.022177739068865776,0.03745272755622864,-0.007780903019011021,-0.002347201807424426,0.15466855466365814,0.06677263230085373,0.0,0.0,0.0,-0.014021645300090313,-0.011463241651654243,-0.0,0.0,0.0,0.0,0.0020967021118849516,-0.0134524405002594,0.0021337184589356184,14019.0,14499.0,15913.0,12995.0,0.4403565526008606,0.4728843569755554,0.5754619240760803,0.37483590841293335,0.0,0.0,0.0,0.0,12681.0,15632.0,14635.0,14473.0,1.8081380128860474,3.1187351508431043,-0.027431190535062752,3.0922174364848045,0.0499388724565506,-0.04699084535241127,0.0
409,5,-0.0010733106173574924,-0.0015894480748102069,0.0005965436575934291,-0.006775009911507368,0.010420635342597961,-0.012499717995524406,-0.021996550261974335,0.03457096964120865,-0.007739492226392031,0.04969225823879242,0.3033352792263031,0.1296643763780594,0.0,0.0,0.0,-0.014021645300090313,-0.011463241651654243,-0.0,0.0,0.0,0.0,0.0026246586348861456,-0.009390795603394508,-0.00035856274189427495,14102.0,14486.0,15598.0,13551.0,0.44590118527412415,0.4719734489917755,0.551723301410675,0.4097396433353424,0.0,0.0,0.0,0.0,14903.0,13654.0,16262.0,12742.0,1.8081380128860474,3.120059450030408,-0.03141495378948242,3.0923498615170124,0.0499388724565506,-0.04699084535241127,0.0
414,5,-0.0011064751306548715,-0.001657226588577032,0.0005600010044872761,-0.006689738016575575,0.01230167131870985,-0.0006147638778202236,-0.021996550261974335,0.03457096964120865,-0.007739492226392031,0.04969225823879242,0.3033352792263031,0.1296643763780594,0.0,0.0,0.0,-0.014520950615406036,-0.007310908753424883,-0.0,0.0,0.0,0.0,0.0026246586348861456,-0.009390795603394508,-0.00035856274189427495,14102.0,14486.0,15598.0,13551.0,0.44590118527412415,0.4719734489917755,0.551723301410675,0.4097396433353424,0.0,0.0,0.0,0.0,14903.0,13654.0,16262.0,12742.0,1.7784839868545532,3.120564564673318,-0.0314981378734664,3.091291918405679,0.031327344477176666,-0.0478658564388752,0.0
419,5,-0.0011495619546622038,-0.0016724022570997477,0.0006452127709053457,-0.007846316322684288,0.006741756107658148,-0.010471321642398834,-0.02185753546655178,0.03175286203622818,-0.007422786671668291,0.021518025547266006,0.3878292143344879,-0.08814030140638351,0.0,0.0,0.0,-0.014520950615406036,-0.007310908753424883,-0.0,0.0,0.0,0.0,0.0018924723844975233,-0.0033336279448121786,0.004388007335364819,12797.0,15365.0,13752.0,15061.0,0.36273708939552307,0.5345466136932373,0.4227711856365204,0.5124838352203369,0.0,0.0,0.0,0.0,13260.0,15046.0,13973.0,14781.0,1.7784839868545532,3.1201868604238507,-0.03459853806577323,3.0917484137567244,0.031327344477176666,-0.0478658564388752,0.0
425,5,-0.001201086095534265,-0.0017014858312904835,0.0006486537167802453,-0.009321416728198528,0.006186731159687042,-0.0046014380641281605,-0.02185753546655178,0.03175286203622818,-0.007422786671668291,0.021518025547266006,0.3878292143344879,-0.08814030140638351,0.0,0.0,0.0,-0.010592964477837086,-0.008440373465418816,-0.0,0.0,0.0,0.0,0.0018924723844975233,-0.0033336279448121786,0.004388007335364819,12797.0,15365.0,13752.0,15061.0,0.36273708939552307,0.5345466136932373,0.4227711856365204,0.5124838352203369,0.0,0.0,0.0,0.0,13260.0,15046.0,13973.0,14781.0,1.7587835788726807,3.118909314484609,-0.035132180157395776,3.0927519575050235,0.03576814755797386,-0.03453215956687927,0.0
430,5,-0.0012433927040547132,-0.0017508910968899727,0.0006485082558356225,-0.008805370889604092,0.00840332917869091,-0.0018231213325634599,-0.021383866667747498,0.02713397517800331,-0.00658852094784379,0.022722240537405014,0.3551176190376282,0.12184299528598785,0.0,0.0,0.0,-0.010592964477837086,-0.008440373465418816,-0.0,0.0,0.0,0.0,0.0012071332894265652,-0.0005576586117967963,-0.0016611057799309492,15132.0,12900.0,15830.0,12625.0,0.5175324082374573,0.3690371513366699,0.5691589117050171,0.3524095416069031,0.0,0.0,0.0,0.0,13906.0,14202.0,14479.0,14179.0,1.7587835788726807,3.119840698086465,-0.03597876432961629,3.091491905621354,0.03576814755797386,-0.03453215956687927,0.0
435,5,-0.0013215665239840746,-0.001765248249284923,0.0007242909050546587,-0.012903005816042423,0.005084190517663956,-0.009823167696595192,-0.021383866667747498,0.02713397517800331,-0.00658852094784379,0.022722240537405014,0.3551176190376282,0.12184299528598785,0.0,0.0,0.0,-0.012496408075094223,-0.009306039661169052,-0.0,0.0,0.0,0.0,0.0012071332894265652,-0.0005576586117967963,-0.0016611057799309492,15132.0,12900.0,15830.0,12625.0,0.5175324082374573,0.3690371513366699,0.5691589117050171,0.3524095416069031,0.0,0.0,0.0,0.0,13906.0,14202.0,14479.0,14179.0,1.778825044631958,3.119718370398805,-0.039536034915368064,3.0915404391905024,0.0398850254714489,-0.041200876235961914,0.0
440,5,-0.0014073775382712483,-0.0017824098467826843,0.0006803234573453665,-0.015458522364497185,0.004093061201274395,0.0013468287652358413,-0.021029161289334297,0.02426435612142086,-0.0070357113145291805,0.04906068742275238,0.33224403858184814,0.06780300289392471,0.0,0.0,0.0,-0.012496408075094223,-0.009306039661169052,-0.0,0.0,0.0,0.0,0.003051289590075612,-0.0031784777529537678,-0.00010752056550700217,13799.0,14196.0,14155.0,14178.0,0.4258444309234619,0.4522125720977783,0.44943422079086304,0.45099276304244995,0.0,0.0,0.0,0.0,15208.0,12658.0,15532.0,12654.0,1.778825044631958,3.1188439191624187,-0.037978985098226586,3.092101698920296,0.0398850254714489,-0.041200876235961914,0.0
445,5,-0.0014627550262957811,-0.0018440077546983957,0.0006360739353112876,-0.012828700244426727,0.009028967469930649,0.005848675034940243,-0.021029161289334297,0.02426435612142086,-0.0070357113145291805,0.04906068742275238,0.33224403858184814,0.06780300289392471,0.0,0.0,0.0,-0.007504565641283989,-0.015050403773784637,-0.0,0.0,0.0,0.0,0.003051289590075612,-0.0031784777529537678,-0.00010752056550700217,13799.0,14196.0,14155.0,14178.0,0.4258444309234619,0.4522125720977783,0.44943422079086304,0.45099276304244995,0.0,0.0,0.0,0.0,15208.0,12658.0,15532.0,12654.0,1.812867522239685,3.12028555662975,-0.03731909938104924,3.091192467523095,0.06574118137359619,-0.0252169631421566,-0.0
450,5,-0.0015814068028703332,-0.0017928510205820203,0.0007004252984188497,-0.0193696990609169,-0.0025272094644606113,-0.00538269616663456,-0.020607473328709602,0.020947232842445374,-0.006356095429509878,-0.007307994179427624,0.22326281666755676,-0.10566160082817078,0.0,0.0,0.0,-0.007504565641283989,-0.015050403773784637,-0.0,0.0,0.0,0.0,0.001718883286230266,-0.007044349797070026,0.004142050165683031,15105.0,12708.0,16317.0,11694.0,0.5156509876251221,0.3573928773403168,0.60662442445755,0.29915669560432434,0.0,0.0,0.0,0.0,12037.0,15395.0,12970.0,15310.0,1.812867522239685,3.118145423536447,-0.03644215265577471,3.091168370719946,0.06574118137359619,-0.0252169631421566,-0.0
455,5,-0.001694215345196426,-0.0017434953479096293,0.0007888860418461263,-0.02128490060567856,-0.0069335754960775375,-0.012768370099365711,-0.020607473328709602,0.020947232842445374,-0.006356095429509878,-0.007307994179427624,0.22326281666755676,-0.10566160082817078,0.0,0.0,0.0,-0.0001332190731773153,-0.018341707065701485,-0.0,0.0,0.0,0.0,0.001718883286230266,-0.007044349797070026,0.004142050165683031,15105.0,12708.0,16317.0,11694.0,0.5156509876251221,0.3573928773403168,0.60662442445755,0.29915669560432434,0.0,0.0,0.0,0.0,12037.0,15395.0,12970.0,15310.0,1.8412011861801147,3.1203668229373966,-0.03817213585969592,3.0930622621472526,0.08137079328298569,-0.00045464897993952036,0.0
460,5,-0.001847676234319806,-0.0017151188803836703,0.0009258307400159538,-0.02692926861345768,-0.006178601644933224,-0.02154070883989334,-0.01982511766254902,0.01981336623430252,-0.006049707066267729,0.051370736211538315,-0.06967382878065109,-0.0650264099240303,0.0,0.0,0.0,-0.0001332190731773153,-0.018341707065701485,-0.0,0.0,0.0,0.0,0.003466095542535186,-0.01151682436466217,-0.004458748269826174,11578.0,16041.0,13899.0,14920.0,0.2928106486797333,0.5852605104446411,0.43244436383247375,0.5023520588874817,0.0,0.0,0.0,0.0,14408.0,13456.0,15743.0,12515.0,1.8412011861801147,3.120248902484887,-0.03986931420727621,3.0940305822617122,0.08137079328298569,-0.00045464897993952036,0.0
465,5,-0.0020335791632533073,-0.0016617714427411556,0.0010757569689303637,-0.033080048859119415,-0.008873134851455688,-0.02660742774605751,-0.01982511766254902,0.01981336623430252,-0.006049707066267729,0.051370736211538315,-0.06967382878065109,-0.0650264099240303,0.0,0.0,0.0,0.0038394236471503973,-0.024043304845690727,-0.0,0.0,0.0,0.0,0.003466095542535186,-0.01151682436466217,-0.004458748269826174,11578.0,16041.0,13899.0,14920.0,0.2928106486797333,0.5852605104446411,0.43244436383247375,0.5023520588874817,0.0,0.0,0.0,0.0,14408.0,13456.0,15743.0,12515.0,1.9193986654281616,3.1199656073053674,-0.040973324939848045,3.0941109951013925,0.11119012534618378,0.013659595511853695,0.0
470,5,-0.0021846569143235683,-0.0015815712977200747,0.0012039248831570148,-0.03136136382818222,-0.01317326445132494,-0.026023127138614655,-0.019427524879574776,0.020802099257707596,-0.004601959604769945,0.018672330304980278,-0.15146902203559875,-0.026321347802877426,0.0,0.0,0.0,0.0038394236471503973,-0.024043304845690727,-0.0,0.0,0.0,0.0,0.0054430654272437096,-0.01594650000333786,0.00291187921538949,13171.0,14701.0,15981.0,13207.0,0.3856848478317261,0.48689934611320496,0.5806275606155396,0.38798946142196655,0.0,0.0,0.0,0.0,13785.0,14274.0,15781.0,12833.0,1.9193986654281616,3.1209576347811896,-0.04183840552669562,3.0955923301521153,0.11119012534618378,0.013659595511853695,0.0
