timestamp,dt,pos_x,pos_y,pos_z,vel_x,vel_y,vel_z,roll,pitch,yaw,agv_x,agv_y,agv_z,x_ref,y_ref,z_ref,roll_ref,pitch_ref,yaw_ref,x_vel_ref,y_vel_ref,z_vel_ref,x_torque,y_torque,z_torque,w0,w1,w2,w3,u0,u1,u2,u3,m0req,m1req,m2req,m3req,thrust0,thrust1,thrust2,thrust3,thrust_ref,roll_vicon,pitch_vicon,yaw_vicon,acc_x,acc_y,acc_z
5,5,0.0,0.0,0.0,0.0,-0.0,-0.0,0.09468226134777069,0.43512269854545593,-0.01415377575904131,0.0017204286996275187,-0.00594548974186182,0.002943510189652443,0.0,0.0,0.0,-0.0,-0.0,-0.0,0.0,0.0,0.0,-0.20000000298023224,-0.20000000298023224,-0.10000000149011612,1495.0,1495.0,1495.0,1495.0,0.0,0.0,0.0,0.0,0.0,0.0,0.0,0.0,1495.0,1495.0,1495.0,1495.0,1.716249704360962,0.0,0.0,0.0,0.0,0.0,0.0
33,28,0.0,0.0,0.0,0.0,-0.0,-0.0,0.09468226134777069,0.43512269854545593,-0.01415377575904131,0.0017204286996275187,-0.00594548974186182,0.002943510189652443,0.0,0.0,0.0,-0.0,-0.0,-0.0,0.0,0.0,0.0,-0.20000000298023224,-0.20000000298023224,-0.10000000149011612,1495.0,1495.0,1495.0,1495.0,0.0,0.0,0.0,0.0,0.0,0.0,0.0,0.0,1495.0,1495.0,1495.0,1495.0,1.716249704360962,0.0,0.0,0.0,0.0,0.0,0.0
38,5,0.0,0.0,0.0,0.0,-0.0,-0.0,0.09468789398670197,0.43513351678848267,-0.014140505343675613,2.2970070858718827e-05,-0.005507913418114185,-0.004035934340208769,0.0,0.0,0.0,-0.0,-0.0,-0.0,0.0,0.0,0.0,-0.20000000298023224,-0.20000000298023224,-0.10000000149011612,1495.0,1495.0,1495.0,1495.0,0.0,0.0,0.0,0.0,0.0,0.0,0.0,0.0,1495.0,1495.0,1495.0,1495.0,1.7164905071258545,0.0,0.0,0.0,0.0,0.0,0.0
44,6,0.0,0.0,0.0,0.0,-0.0,-0.0,0.09468789398670197,0.43513351678848267,-0.014140505343675613,2.2970070858718827e-05,-0.005507913418114185,-0.004035934340208769,0.0,0.0,0.0,-0.0,-0.0,-0.0,0.0,0.0,0.0,-0.20000000298023224,-0.20000000298023224,-0.10000000149011612,1495.0,1495.0,1495.0,1495.0,0.0,0.0,0.0,0.0,0.0,0.0,0.0,0.0,1495.0,1495.0,1495.0,1495.0,1.7164905071258545,0.0,0.0,0.0,0.0,0.0,0.0
49,5,0.0,0.0,0.0,0.0,-0.0,-0.0,0.09468789398670197,0.43513351678848267,-0.014140505343675613,2.2970070858718827e-05,-0.005507913418114185,-0.004035934340208769,0.0,0.0,0.0,-0.0,-0.0,-0.0,0.0,0.0,0.0,-0.20000000298023224,-0.20000000298023224,-0.10000000149011612,1495.0,1495.0,1495.0,1495.0,0.0,0.0,0.0,0.0,0.0,0.0,0.0,0.0,1495.0,1495.0,1495.0,1495.0,1.7162123918533325,0.0,0.0,0.0,0.0,0.0,0.0
54,5,0.0,0.0,0.0,0.0,-0.0,-0.0,0.09467322379350662,0.4351573884487152,-0.014147724956274033,0.0017079958925023675,-0.0018364288844168186,-0.0021426838357001543,0.0,0.0,0.0,-0.0,-0.0,-0.0,0.0,0.0,0.0,-0.20000000298023224,-0.20000000298023224,-0.10000000149011612,1495.0,1495.0,1495.0,1495.0,0.0,0.0,0.0,0.0,0.0,0.0,0.0,0.0,1495.0,1495.0,1495.0,1495.0,1.7163636684417725,0.0,0.0,0.0,0.0,0.0,0.0
59,5,0.0,0.0,0.0,0.0,-0.0,-0.0,0.09467322379350662,0.435122549533844,-0.01416621170938015,-0.0011084520956501365,0.0009007265325635672,0.0022767221089452505,0.0,0.0,0.0,-0.0,-0.0,-0.0,0.0,0.0,0.0,-0.20000000298023224,-0.20000000298023224,-0.10000000149011612,1495.0,1495.0,1495.0,1495.0,0.0,0.0,0.0,0.0,0.0,0.0,0.0,0.0,1495.0,1495.0,1495.0,1495.0,1.7167510986328125,0.0,0.0,0.0,0.0,0.0,0.0
66,7,0.0,0.0,0.0,0.0,-0.0,-0.0,0.09467322379350662,0.435122549533844,-0.01416621170938015,-0.0011084520956501365,0.0009007265325635672,0.0022767221089452505,0.0,0.0,0.0,-0.0,-0.0,-0.0,0.0,0.0,0.0,-0.20000000298023224,-0.20000000298023224,-0.10000000149011612,1495.0,1495.0,1495.0,1495.0,0.0,0.0,0.0,0.0,0.0,0.0,0.0,0.0,1495.0,1495.0,1495.0,1495.0,1.7167510986328125,0.0,0.0,0.0,0.0,0.0,0.0
71,5,0.0,0.0,0.0,0.0,-0.0,-0.0,0.09467322379350662,0.435122549533844,-0.01416621170938015,-0.0011084520956501365,0.0009007265325635672,0.0022767221089452505,0.0,0.0,0.0,-0.0,-0.0,-0.0,0.0,0.0,0.0,-0.20000000298023224,-0.20000000298023224,-0.10000000149011612,1495.0,1495.0,1495.0,1495.0,0.0,0.0,0.0,0.0,0.0,0.0,0.0,0.0,1495.0,1495.0,1495.0,1495.0,1.7167510986328125,0.0,0.0,0.0,0.0,0.0,0.0
76,5,0.0,0.0,0.0,0.0,-0.0,-0.0,0.09466177225112915,0.43515148758888245,-0.01418775599449873,-0.0019143824465572834,-0.008598459884524345,0.00010756298433989286,0.0,0.0,0.0,-0.0,-0.0,-0.0,0.0,0.0,0.0,-0.20000000298023224,-0.20000000298023224,-0.10000000149011612,1495.0,1495.0,1495.0,1495.0,0.0,0.0,0.0,0.0,0.0,0.0,0.0,0.0,1495.0,1495.0,1495.0,1495.0,1.7172026634216309,0.0,0.0,0.0,0.0,0.0,0.0
81,6,0.0,0.0,0.0,0.0,-0.0,-0.0,0.09466177225112915,0.43515148758888245,-0.01418775599449873,-0.0019143824465572834,-0.008598459884524345,0.00010756298433989286,0.0,0.0,0.0,-0.0,-0.0,-0.0,0.0,0.0,0.0,-0.20000000298023224,-0.20000000298023224,-0.10000000149011612,1495.0,1495.0,1495.0,1495.0,0.0,0.0,0.0,0.0,0.0,0.0,0.0,0.0,1495.0,1495.0,1495.0,1495.0,1.7172026634216309,0.0,0.0,0.0,0.0,0.0,0.0
87,5,0.0,0.0,0.0,0.0,-0.0,-0.0,0.09465523064136505,0.43516919016838074,-0.014181884936988354,0.0004500944050960243,0.0005362687516026199,-3.2699692383175716e-05,0.0,0.0,0.0,-0.0,-0.0,-0.0,0.0,0.0,0.0,-0.20000000298023224,-0.20000000298023224,-0.10000000149011612,1495.0,1495.0,1495.0,1495.0,0.0,0.0,0.0,0.0,0.0,0.0,0.0,0.0,1495.0,1495.0,1495.0,1495.0,1.7170796394348145,0.0,0.0,0.0,0.0,0.0,0.0
92,5,0.0,0.0,0.0,0.0,-0.0,-0.0,0.09465523064136505,0.43516919016838074,-0.014181884936988354,0.0004500944050960243,0.0005362687516026199,-3.2699692383175716e-05,0.0,0.0,0.0,-0.0,-0.0,-0.0,0.0,0.0,0.0,-0.20000000298023224,-0.20000000298023224,-0.10000000149011612,1495.0,1495.0,1495.0,1495.0,0.0,0.0,0.0,0.0,0.0,0.0,0.0,0.0,1495.0,1495.0,1495.0,1495.0,1.7170796394348145,0.0,0.0,0.0,0.0,0.0,0.0
97,5,0.0,0.0,0.0,0.0,-0.0,-0.0,0.0946580097079277,0.435145765542984,-0.014184250496327877,-0.0015512889949604869,0.0009006852051243186,-0.0030358266085386276,0.0,0.0,0.0,-0.0,-0.0,-0.0,0.0,0.0,0.0,-0.20000000298023224,-0.20000000298023224,-0.10000000149011612,1495.0,1495.0,1495.0,1495.0,0.0,0.0,0.0,0.0,0.0,0.0,0.0,0.0,1495.0,1495.0,1495.0,1495.0,1.717129111289978,0.0,0.0,0.0,0.0,0.0,0.0
102,5,0.0,0.0,0.0,0.0,-0.0,-0.0,0.0946580097079277,0.435145765542984,-0.014184250496327877,-0.0015512889949604869,0.0009006852051243186,-0.0030358266085386276,0.0,0.0,0.0,-0.0,-0.0,-0.0,0.0,0.0,0.0,-0.20000000298023224,-0.20000000298023224,-0.10000000149011612,1495.0,1495.0,1495.0,1495.0,0.0,0.0,0.0,0.0,0.0,0.0,0.0,0.0,1495.0,1495.0,1495.0,1495.0,1.717129111289978,0.0,0.0,0.0,0.0,0.0,0.0
107,5,0.0,0.0,0.0,0.0,-0.0,-0.0,0.09466182440519333,0.4351508617401123,-0.014197236858308315,-0.0005864526028744876,-0.008928951807320118,0.003715107450261712,0.0,0.0,0.0,-0.0,-0.0,-0.0,0.0,0.0,0.0,-0.20000000298023224,-0.20000000298023224,-0.10000000149011612,1495.0,1495.0,1495.0,1495.0,0.0,0.0,0.0,0.0,0.0,0.0,0.0,0.0,1495.0,1495.0,1495.0,1495.0,1.717129111289978,0.0,0.0,0.0,0.0,0.0,0.0
112,5,0.0,0.0,0.0,0.0,-0.0,-0.0,0.09466182440519333,0.4351508617401123,-0.014197236858308315,-0.0005864526028744876,-0.008928951807320118,0.003715107450261712,0.0,0.0,0.0,-0.0,-0.0,-0.0,0.0,0.0,0.0,-0.20000000298023224,-0.20000000298023224,-0.10000000149011612,1495.0,1495.0,1495.0,1495.0,0.0,0.0,0.0,0.0,0.0,0.0,0.0,0.0,1495.0,1495.0,1495.0,1495.0,1.717129111289978,0.0,0.0,0.0,0.0,0.0,0.0
117,5,0.0,0.0,0.0,0.0,-0.0,-0.0,0.09466288238763809,0.4351508915424347,-0.014210457913577557,-0.002848536940291524,0.0015704422257840633,0.0033541377633810043,0.0,0.0,0.0,-0.0,-0.0,-0.0,0.0,0.0,0.0,-0.20000000298023224,-0.20000000298023224,-0.10000000149011612,1495.0,1495.0,1495.0,1495.0,0.0,0.0,0.0,0.0,0.0,0.0,0.0,0.0,1495.0,1495.0,1495.0,1495.0,1.7174012660980225,0.0,0.0,0.0,0.0,0.0,0.0
123,6,0.0,0.0,0.0,0.0,-0.0,-0.0,0.09466288238763809,0.4351508915424347,-0.014210457913577557,-0.002848536940291524,0.0015704422257840633,0.0033541377633810043,0.0,0.0,0.0,-0.0,-0.0,-0.0,0.0,0.0,0.0,-0.20000000298023224,-0.20000000298023224,-0.10000000149011612,1495.0,1495.0,1495.0,1495.0,0.0,0.0,0.0,0.0,0.0,0.0,0.0,0.0,1495.0,1495.0,1495.0,1495.0,1.7174012660980225,0.0,0.0,0.0,0.0,0.0,0.0
128,5,0.0,0.0,0.0,0.0,-0.0,-0.0,0.09462367743253708,0.4351220726966858,-0.01419068779796362,-0.0008307031821459532,0.002978418953716755,-0.002230035373941064,0.0,0.0,0.0,-0.0,-0.0,-0.0,0.0,0.0,0.0,-0.20000000298023224,-0.20000000298023224,-0.10000000149011612,1495.0,1495.0,1495.0,1495.0,0.0,0.0,0.0,0.0,0.0,0.0,0.0,0.0,1495.0,1495.0,1495.0,1495.0,1.7176783084869385,0.0,0.0,0.0,0.0,0.0,0.0
134,5,0.0,0.0,0.0,0.0,-0.0,-0.0,0.09462367743253708,0.4351220726966858,-0.01419068779796362,-0.0008307031821459532,0.002978418953716755,-0.002230035373941064,0.0,0.0,0.0,-0.0,-0.0,-0.0,0.0,0.0,0.0,-0.20000000298023224,-0.20000000298023224,-0.10000000149011612,1495.0,1495.0,1495.0,1495.0,0.0,0.0,0.0,0.0,0.0,0.0,0.0,0.0,1495.0,1495.0,1495.0,1495.0,1.7176783084869385,0.0,0.0,0.0,0.0,0.0,0.0
139,5,0.0,0.0,0.0,0.0,-0.0,-0.0,0.09462367743253708,0.4351220726966858,-0.01419068779796362,-0.0008307031821459532,0.002978418953716755,-0.002230035373941064,0.0,0.0,0.0,-0.0,-0.0,-0.0,0.0,0.0,0.0,-0.20000000298023224,-0.20000000298023224,-0.10000000149011612,1495.0,1495.0,1495.0,1495.0,0.0,0.0,0.0,0.0,0.0,0.0,0.0,0.0,1495.0,1495.0,1495.0,1495.0,1.7176783084869385,0.0,0.0,0.0,0.0,0.0,0.0
144,5,0.0,0.0,0.0,0.0,-0.0,-0.0,0.09463317692279816,0.43511804938316345,-0.014211362227797508,0.0017685292987152934,-0.0006164293736219406,0.0018729688599705696,0.0,0.0,0.0,-0.0,-0.0,-0.0,0.0,0.0,0.0,-0.20000000298023224,-0.20000000298023224,-0.10000000149011612,1495.0,1495.0,1495.0,1495.0,0.0,0.0,0.0,0.0,0.0,0.0,0.0,0.0,1495.0,1495.0,1495.0,1495.0,1.7172640562057495,0.0,0.0,0.0,0.0,0.0,0.0
149,5,0.0,0.0,0.0,0.0,-0.0,-0.0,0.09463317692279816,0.43511804938316345,-0.014211362227797508,0.0017685292987152934,-0.0006164293736219406,0.0018729688599705696,0.0,0.0,0.0,-0.0,-0.0,-0.0,0.0,0.0,0.0,-0.20000000298023224,-0.20000000298023224,-0.10000000149011612,1495.0,1495.0,1495.0,1495.0,0.0,0.0,0.0,0.0,0.0,0.0,0.0,0.0,1495.0,1495.0,1495.0,1495.0,1.7172640562057495,0.0,0.0,0.0,0.0,0.0,0.0
154,5,0.0,0.0,0.0,0.0,-0.0,-0.0,0.09461704641580582,0.43513789772987366,-0.014186174608767033,0.0003463272878434509,-0.009054032154381275,0.0024607237428426743,0.0,0.0,0.0,-0.0,-0.0,-0.0,0.0,0.0,0.0,-0.20000000298023224,-0.20000000298023224,-0.10000000149011612,1495.0,1495.0,1495.0,1495.0,0.0,0.0,0.0,0.0,0.0,0.0,0.0,0.0,1495.0,1495.0,1495.0,1495.0,1.717697262763977,0.0,0.0,0.0,0.0,0.0,0.0
159,5,0.0,0.0,0.0,0.0,-0.0,-0.0,0.09461704641580582,0.43513789772987366,-0.014186174608767033,0.0003463272878434509,-0.009054032154381275,0.0024607237428426743,0.0,0.0,0.0,-0.0,-0.0,-0.0,0.0,0.0,0.0,-0.20000000298023224,-0.20000000298023224,-0.10000000149011612,1495.0,1495.0,1495.0,1495.0,0.0,0.0,0.0,0.0,0.0,0.0,0.0,0.0,1495.0,1495.0,1495.0,1495.0,1.717697262763977,0.0,0.0,0.0,0.0,0.0,0.0
164,5,0.0,0.0,0.0,0.0,-0.0,-0.0,0.09462635964155197,0.435183584690094,-0.01416634302586317,-0.0029979413375258446,0.0007825933862477541,0.0015271580778062344,0.0,0.0,0.0,-0.0,-0.0,-0.0,0.0,0.0,0.0,-0.20000000298023224,-0.20000000298023224,-0.10000000149011612,1495.0,1495.0,1495.0,1495.0,0.0,0.0,0.0,0.0,0.0,0.0,0.0,0.0,1495.0,1495.0,1495.0,1495.0,1.7171695232391357,0.0,0.0,0.0,0.0,0.0,0.0
169,5,0.0,0.0,0.0,0.0,-0.0,-0.0,0.09462635964155197,0.435183584690094,-0.01416634302586317,-0.0029979413375258446,0.0007825933862477541,0.0015271580778062344,0.0,0.0,0.0,-0.0,-0.0,-0.0,0.0,0.0,0.0,-0.20000000298023224,-0.20000000298023224,-0.10000000149011612,1495.0,1495.0,1495.0,1495.0,0.0,0.0,0.0,0.0,0.0,0.0,0.0,0.0,1495.0,1495.0,1495.0,1495.0,1.7171695232391357,0.0,0.0,0.0,0.0,0.0,0.0
174,5,0.0,0.0,0.0,0.0,-0.0,-0.0,0.09464136511087418,0.4351482391357422,-0.014176796190440655,6.20510327280499e-05,0.0032601708080619574,-0.000988216488622129,0.0,0.0,0.0,-0.0,-0.0,-0.0,0.0,0.0,0.0,-0.20000000298023224,-0.20000000298023224,-0.10000000149011612,1495.0,1495.0,1495.0,1495.0,0.0,0.0,0.0,0.0,0.0,0.0,0.0,0.0,1495.0,1495.0,1495.0,1495.0,1.7169729471206665,0.0,0.0,0.0,0.0,0.0,0.0
179,5,0.0,0.0,0.0,0.0,-0.0,-0.0,0.09464136511087418,0.4351482391357422,-0.014176796190440655,6.20510327280499e-05,0.0032601708080619574,-0.000988216488622129,0.0,0.0,0.0,-0.0,-0.0,-0.0,0.0,0.0,0.0,-0.20000000298023224,-0.20000000298023224,-0.10000000149011612,1495.0,1495.0,1495.0,1495.0,0.0,0.0,0.0,0.0,0.0,0.0,0.0,0.0,1495.0,1495.0,1495.0,1495.0,1.7169729471206665,0.0,0.0,0.0,0.0,0.0,0.0
185,5,0.0,0.0,0.0,0.0,-0.0,-0.0,0.09463775157928467,0.4351772665977478,-0.014164104126393795,0.00014297832967713475,-0.006111234426498413,0.004395299591124058,0.0,0.0,0.0,-0.0,-0.0,-0.0,0.0,0.0,0.0,-0.20000000298023224,-0.20000000298023224,-0.10000000149011612,1495.0,1495.0,1495.0,1495.0,0.0,0.0,0.0,0.0,0.0,0.0,0.0,0.0,1495.0,1495.0,1495.0,1495.0,1.7169729471206665,0.0,0.0,0.0,0.0,0.0,0.0
190,5,0.0,0.0,0.0,0.0,-0.0,-0.0,0.09463775157928467,0.4351772665977478,-0.014164104126393795,0.00014297832967713475,-0.006111234426498413,0.004395299591124058,0.0,0.0,0.0,-0.0,-0.0,-0.0,0.0,0.0,0.0,-0.20000000298023224,-0.20000000298023224,-0.10000000149011612,1495.0,1495.0,1495.0,1495.0,0.0,0.0,0.0,0.0,0.0,0.0,0.0,0.0,1495.0,1495.0,1495.0,1495.0,1.7169729471206665,0.0,0.0,0.0,0.0,0.0,0.0
195,5,0.0,0.0,0.0,0.0,-0.0,-0.0,0.09464035928249359,0.4351907968521118,-0.014147787354886532,0.0016737545374780893,0.0009606620296835899,1.7203485185746104e-05,0.0,0.0,0.0,-0.0,-0.0,-0.0,0.0,0.0,0.0,-0.20000000298023224,-0.20000000298023224,-0.10000000149011612,1495.0,1495.0,1495.0,1495.0,0.0,0.0,0.0,0.0,0.0,0.0,0.0,0.0,1495.0,1495.0,1495.0,1495.0,1.7167069911956787,0.0,0.0,0.0,0.0,0.0,0.0
200,5,0.0,0.0,0.0,0.0,-0.0,-0.0,0.09464035928249359,0.4351907968521118,-0.014147787354886532,0.0016737545374780893,0.0009606620296835899,1.7203485185746104e-05,0.0,0.0,0.0,-0.0,-0.0,-0.0,0.0,0.0,0.0,-0.20000000298023224,-0.20000000298023224,-0.10000000149011612,1495.0,1495.0,1495.0,1495.0,0.0,0.0,0.0,0.0,0.0,0.0,0.0,0.0,1495.0,1495.0,1495.0,1495.0,1.7167069911956787,0.0,0.0,0.0,0.0,0.0,0.0
205,5,0.0,0.0,0.0,0.0,-0.0,-0.0,0.09462279081344604,0.4351164400577545,-0.014108147472143173,-0.00023481999232899398,0.002740168245509267,0.00037211275775916874,0.0,0.0,0.0,-0.0,-0.0,-0.0,0.0,0.0,0.0,-0.20000000298023224,-0.20000000298023224,-0.10000000149011612,1495.0,1495.0,1495.0,1495.0,0.0,0.0,0.0,0.0,0.0,0.0,0.0,0.0,1495.0,1495.0,1495.0,1495.0,1.7163649797439575,0.0,0.0,0.0,0.0,0.0,0.0
210,5,0.0,0.0,0.0,0.0,-0.0,-0.0,0.09462279081344604,0.4351164400577545,-0.014108147472143173,-0.00023481999232899398,0.002740168245509267,0.00037211275775916874,0.0,0.0,0.0,-0.0,-0.0,-0.0,0.0,0.0,0.0,-0.20000000298023224,-0.20000000298023224,-0.10000000149011612,1495.0,1495.0,1495.0,1495.0,0.0,0.0,0.0,0.0,0.0,0.0,0.0,0.0,1495.0,1495.0,1495.0,1495.0,1.7163649797439575,0.0,0.0,0.0,0.0,0.0,0.0
215,5,0.0,0.0,0.0,0.0,-0.0,-0.0,0.09460151195526123,0.4351073205471039,-0.014084176160395145,0.0010554248001426458,-0.009545073844492435,0.0033076931722462177,0.0,0.0,0.0,-0.0,-0.0,-0.0,0.0,0.0,0.0,-0.20000000298023224,-0.20000000298023224,-0.10000000149011612,1495.0,1495.0,1495.0,1495.0,0.0,0.0,0.0,0.0,0.0,0.0,0.0,0.0,1495.0,1495.0,1495.0,1495.0,1.7155340909957886,0.0,0.0,0.0,0.0,0.0,0.0
220,5,0.0,0.0,0.0,0.0,-0.0,-0.0,0.09460151195526123,0.4351073205471039,-0.014084176160395145,0.0010554248001426458,-0.009545073844492435,0.0033076931722462177,0.0,0.0,0.0,-0.0,-0.0,-0.0,0.0,0.0,0.0,-0.20000000298023224,-0.20000000298023224,-0.10000000149011612,1495.0,1495.0,1495.0,1495.0,0.0,0.0,0.0,0.0,0.0,0.0,0.0,0.0,1495.0,1495.0,1495.0,1495.0,1.7155340909957886,0.0,0.0,0.0,0.0,0.0,0.0
225,5,0.0,0.0,0.0,0.0,-0.0,-0.0,0.09460613131523132,0.4351615309715271,-0.014085507020354271,-0.001129794749431312,-0.0009730838937684894,0.0008764745434746146,0.0,0.0,0.0,-0.0,-0.0,-0.0,0.0,0.0,0.0,-0.20000000298023224,-0.20000000298023224,-0.10000000149011612,1495.0,1495.0,1495.0,1495.0,0.0,0.0,0.0,0.0,0.0,0.0,0.0,0.0,1495.0,1495.0,1495.0,1495.0,1.7150315046310425,0.0,0.0,0.0,0.0,0.0,0.0
230,5,0.0,0.0,0.0,0.0,-0.0,-0.0,0.09460613131523132,0.4351615309715271,-0.014085507020354271,-0.001129794749431312,-0.0009730838937684894,0.0008764745434746146,0.0,0.0,0.0,-0.0,-0.0,-0.0,0.0,0.0,0.0,-0.20000000298023224,-0.20000000298023224,-0.10000000149011612,1495.0,1495.0,1495.0,1495.0,0.0,0.0,0.0,0.0,0.0,0.0,0.0,0.0,1495.0,1495.0,1495.0,1495.0,1.7150315046310425,0.0,0.0,0.0,0.0,0.0,0.0
235,5,0.0,0.0,0.0,0.0,-0.0,-0.0,0.09459840506315231,0.4351436495780945,-0.014074773527681828,0.0006567108212038875,0.0036676896270364523,0.002951252507045865,0.0,0.0,0.0,-0.0,-0.0,-0.0,0.0,0.0,0.0,-0.20000000298023224,-0.20000000298023224,-0.10000000149011612,1495.0,1495.0,1495.0,1495.0,0.0,0.0,0.0,0.0,0.0,0.0,0.0,0.0,1495.0,1495.0,1495.0,1495.0,1.7150593996047974,0.0,0.0,0.0,0.0,0.0,0.0
241,5,0.0,0.0,0.0,0.0,-0.0,-0.0,0.09459840506315231,0.4351436495780945,-0.014074773527681828,0.0006567108212038875,0.0036676896270364523,0.002951252507045865,0.0,0.0,0.0,-0.0,-0.0,-0.0,0.0,0.0,0.0,-0.20000000298023224,-0.20000000298023224,-0.10000000149011612,1495.0,1495.0,1495.0,1495.0,0.0,0.0,0.0,0.0,0.0,0.0,0.0,0.0,1495.0,1495.0,1495.0,1495.0,1.7150593996047974,0.0,0.0,0.0,0.0,0.0,0.0
246,5,0.0,0.0,0.0,0.0,-0.0,-0.0,0.09461145102977753,0.43509185314178467,-0.014063965529203415,0.0027604270726442337,-0.0028451369144022465,-0.00255431211553514,0.0,0.0,0.0,-0.0,-0.0,-0.0,0.0,0.0,0.0,-0.20000000298023224,-0.20000000298023224,-0.10000000149011612,1495.0,1495.0,1495.0,1495.0,0.0,0.0,0.0,0.0,0.0,0.0,0.0,0.0,1495.0,1495.0,1495.0,1495.0,1.7148343324661255,0.0,0.0,0.0,0.0,0.0,0.0
251,5,0.0,0.0,0.0,0.0,-0.0,-0.0,0.09461145102977753,0.43509185314178467,-0.014063965529203415,0.0027604270726442337,-0.0028451369144022465,-0.00255431211553514,0.0,0.0,0.0,-0.0,-0.0,-0.0,0.0,0.0,0.0,-0.20000000298023224,-0.20000000298023224,-0.10000000149011612,1495.0,1495.0,1495.0,1495.0,0.0,0.0,0.0,0.0,0.0,0.0,0.0,0.0,1495.0,1495.0,1495.0,1495.0,1.7148343324661255,0.0,0.0,0.0,0.0,0.0,0.0
256,5,0.0,0.0,0.0,0.0,-0.0,-0.0,0.09461405128240585,0.4351300001144409,-0.014062737114727497,0.0015553697012364864,-0.005876320414245129,0.00027759253862313926,0.0,0.0,0.0,-0.0,-0.0,-0.0,0.0,0.0,0.0,-0.20000000298023224,-0.20000000298023224,-0.10000000149011612,1495.0,1495.0,1495.0,1495.0,0.0,0.0,0.0,0.0,0.0,0.0,0.0,0.0,1495.0,1495.0,1495.0,1495.0,1.7146077156066895,0.0,0.0,0.0,0.0,0.0,0.0
261,5,0.0,0.0,0.0,0.0,-0.0,-0.0,0.09461405128240585,0.4351300001144409,-0.014062737114727497,0.0015553697012364864,-0.005876320414245129,0.00027759253862313926,0.0,0.0,0.0,-0.0,-0.0,-0.0,0.0,0.0,0.0,-0.20000000298023224,-0.20000000298023224,-0.10000000149011612,1495.0,1495.0,1495.0,1495.0,0.0,0.0,0.0,0.0,0.0,0.0,0.0,0.0,1495.0,1495.0,1495.0,1495.0,1.7146077156066895,0.0,0.0,0.0,0.0,0.0,0.0
266,5,0.0,0.0,0.0,0.0,-0.0,-0.0,0.09460389614105225,0.435165137052536,-0.014050757512450218,-0.00415094755589962,0.00042262894567102194,0.0015977289294824004,0.0,0.0,0.0,-0.0,-0.0,-0.0,0.0,0.0,0.0,-0.20000000298023224,-0.20000000298023224,-0.10000000149011612,1495.0,1495.0,1495.0,1495.0,0.0,0.0,0.0,0.0,0.0,0.0,0.0,0.0,1495.0,1495.0,1495.0,1495.0,1.7145819664001465,0.0,0.0,0.0,0.0,0.0,0.0
271,5,0.0,0.0,0.0,0.0,-0.0,-0.0,0.09460389614105225,0.435165137052536,-0.014050757512450218,-0.00415094755589962,0.00042262894567102194,0.0015977289294824004,0.0,0.0,0.0,-0.0,-0.0,-0.0,0.0,0.0,0.0,-0.20000000298023224,-0.20000000298023224,-0.10000000149011612,1495.0,1495.0,1495.0,1495.0,0.0,0.0,0.0,0.0,0.0,0.0,0.0,0.0,1495.0,1495.0,1495.0,1495.0,1.7145819664001465,0.0,0.0,0.0,0.0,0.0,0.0
276,5,0.0,0.0,0.0,0.0,-0.0,-0.0,0.09458624571561813,0.43514591455459595,-0.014043270610272884,-0.001411674078553915,0.005550965666770935,0.0003335864457767457,0.0,0.0,0.0,-0.0,-0.0,-0.0,0.0,0.0,0.0,-0.20000000298023224,-0.20000000298023224,-0.10000000149011612,1495.0,1495.0,1495.0,1495.0,0.0,0.0,0.0,0.0,0.0,0.0,0.0,0.0,1495.0,1495.0,1495.0,1495.0,1.714330792427063,0.0,0.0,0.0,0.0,0.0,0.0
281,5,0.0,0.0,0.0,0.0,-0.0,-0.0,0.09458624571561813,0.43514591455459595,-0.014043270610272884,-0.001411674078553915,0.005550965666770935,0.0003335864457767457,0.0,0.0,0.0,-0.0,-0.0,-0.0,0.0,0.0,0.0,-0.20000000298023224,-0.20000000298023224,-0.10000000149011612,1495.0,1495.0,1495.0,1495.0,0.0,0.0,0.0,0.0,0.0,0.0,0.0,0.0,1495.0,1495.0,1495.0,1495.0,1.714330792427063,0.0,0.0,0.0,0.0,0.0,0.0
286,5,0.0,0.0,0.0,0.0,-0.0,-0.0,0.09458624571561813,0.43514591455459595,-0.014043270610272884,-0.001411674078553915,0.005550965666770935,0.0003335864457767457,0.0,0.0,0.0,-0.0,-0.0,-0.0,0.0,0.0,0.0,-0.20000000298023224,-0.20000000298023224,-0.10000000149011612,1495.0,1495.0,1495.0,1495.0,0.0,0.0,0.0,0.0,0.0,0.0,0.0,0.0,1495.0,1495.0,1495.0,1495.0,1.7141737937927246,0.0,0.0,0.0,0.0,0.0,0.0
291,5,0.0,0.0,0.0,0.0,-0.0,-0.0,0.09457249194383621,0.43511804938316345,-0.0140523761510849,-0.0030512104276567698,-0.0025829768273979425,0.0018987121293321252,0.0,0.0,0.0,-0.0,-0.0,-0.0,0.0,0.0,0.0,-0.20000000298023224,-0.20000000298023224,-0.10000000149011612,1495.0,1495.0,1495.0,1495.0,0.0,0.0,0.0,0.0,0.0,0.0,0.0,0.0,1495.0,1495.0,1495.0,1495.0,1.7141737937927246,0.0,0.0,0.0,0.0,0.0,0.0
296,5,0.0,0.0,0.0,0.0,-0.0,-0.0,0.09457249194383621,0.43511804938316345,-0.0140523761510849,-0.0030512104276567698,-0.0025829768273979425,0.0018987121293321252,0.0,0.0,0.0,-0.0,-0.0,-0.0,0.0,0.0,0.0,-0.20000000298023224,-0.20000000298023224,-0.10000000149011612,1495.0,1495.0,1495.0,1495.0,0.0,0.0,0.0,0.0,0.0,0.0,0.0,0.0,1495.0,1495.0,1495.0,1495.0,1.714364767074585,0.0,0.0,0.0,0.0,0.0,0.0
301,5,0.0,0.0,0.0,0.0,-0.0,-0.0,0.09455091506242752,0.4351273775100708,-0.01402550283819437,0.00023681152379140258,-0.004484083037823439,-0.0015887209447100759,0.0,0.0,0.0,-0.0,-0.0,-0.0,0.0,0.0,0.0,-0.20000000298023224,-0.20000000298023224,-0.10000000149011612,1495.0,1495.0,1495.0,1495.0,0.0,0.0,0.0,0.0,0.0,0.0,0.0,0.0,1495.0,1495.0,1495.0,1495.0,1.714364767074585,0.0,0.0,0.0,0.0,0.0,0.0
306,5,0.0,0.0,0.0,0.0,-0.0,-0.0,0.09455091506242752,0.4351273775100708,-0.01402550283819437,0.00023681152379140258,-0.004484083037823439,-0.0015887209447100759,0.0,0.0,0.0,-0.0,-0.0,-0.0,0.0,0.0,0.0,-0.20000000298023224,-0.20000000298023224,-0.10000000149011612,1495.0,1495.0,1495.0,1495.0,0.0,0.0,0.0,0.0,0.0,0.0,0.0,0.0,1495.0,1495.0,1495.0,1495.0,1.7138011455535889,0.0,0.0,0.0,0.0,0.0,0.0
311,5,0.0,0.0,0.0,0.0,-0.0,-0.0,0.09454944729804993,0.43514907360076904,-0.014030317775905132,-0.0006932688993401825,0.0003898654831573367,0.0003060891176573932,0.0,0.0,0.0,-0.0,-0.0,-0.0,0.0,0.0,0.0,-0.20000000298023224,-0.20000000298023224,-0.10000000149011612,1495.0,1495.0,1495.0,1495.0,0.0,0.0,0.0,0.0,0.0,0.0,0.0,0.0,1495.0,1495.0,1495.0,1495.0,1.7138011455535889,0.0,0.0,0.0,0.0,0.0,0.0
316,5,0.0,0.0,0.0,0.0,-0.0,-0.0,0.09454944729804993,0.43514907360076904,-0.014030317775905132,-0.0006932688993401825,0.0003898654831573367,0.0003060891176573932,0.0,0.0,0.0,-0.0,-0.0,-0.0,0.0,0.0,0.0,-0.20000000298023224,-0.20000000298023224,-0.10000000149011612,1495.0,1495.0,1495.0,1495.0,0.0,0.0,0.0,0.0,0.0,0.0,0.0,0.0,1495.0,1495.0,1495.0,1495.0,1.7139021158218384,0.0,0.0,0.0,0.0,0.0,0.0
321,5,0.0,0.0,0.0,0.0,-0.0,-0.0,0.09455487877130508,0.4351317286491394,-0.014028784818947315,-0.000823351030703634,0.0020878538489341736,2.4717477572266944e-05,0.0,0.0,0.0,-0.0,-0.0,-0.0,0.0,0.0,0.0,-0.20000000298023224,-0.20000000298023224,-0.10000000149011612,1495.0,1495.0,1495.0,1495.0,0.0,0.0,0.0,0.0,0.0,0.0,0.0,0.0,1495.0,1495.0,1495.0,1495.0,1.7139021158218384,0.0,0.0,0.0,0.0,0.0,0.0
327,5,0.0,0.0,0.0,0.0,-0.0,-0.0,0.09455487877130508,0.4351317286491394,-0.014028784818947315,-0.000823351030703634,0.0020878538489341736,2.4717477572266944e-05,0.0,0.0,0.0,-0.0,-0.0,-0.0,0.0,0.0,0.0,-0.20000000298023224,-0.20000000298023224,-0.10000000149011612,1495.0,1495.0,1495.0,1495.0,0.0,0.0,0.0,0.0,0.0,0.0,0.0,0.0,1495.0,1495.0,1495.0,1495.0,1.7139021158218384,0.0,0.0,0.0,0.0,0.0,0.0
332,5,0.0,0.0,0.0,0.0,-0.0,-0.0,0.09457310289144516,0.4351504147052765,-0.014044045470654964,0.00027580265305005014,-0.008982942439615726,-0.0017896083882078528,0.0,0.0,0.0,-0.0,-0.0,-0.0,0.0,0.0,0.0,-0.20000000298023224,-0.20000000298023224,-0.10000000149011612,1495.0,1495.0,1495.0,1495.0,0.0,0.0,0.0,0.0,0.0,0.0,0.0,0.0,1495.0,1495.0,1495.0,1495.0,1.7138699293136597,0.0,0.0,0.0,0.0,0.0,0.0
337,5,0.0,0.0,0.0,0.0,-0.0,-0.0,0.09457310289144516,0.4351504147052765,-0.014044045470654964,0.00027580265305005014,-0.008982942439615726,-0.0017896083882078528,0.0,0.0,0.0,-0.0,-0.0,-0.0,0.0,0.0,0.0,-0.20000000298023224,-0.20000000298023224,-0.10000000149011612,1495.0,1495.0,1495.0,1495.0,0.0,0.0,0.0,0.0,0.0,0.0,0.0,0.0,1495.0,1495.0,1495.0,1495.0,1.7138699293136597,0.0,0.0,0.0,0.0,0.0,0.0
342,5,0.0,0.0,0.0,0.0,-0.0,-0.0,0.09456178545951843,0.4351610541343689,-0.014040015637874603,-0.004436785355210304,-0.00546090817078948,-0.0019154540495947003,0.0,0.0,0.0,-0.0,-0.0,-0.0,0.0,0.0,0.0,-0.20000000298023224,-0.20000000298023224,-0.10000000149011612,1495.0,1495.0,1495.0,1495.0,0.0,0.0,0.0,0.0,0.0,0.0,0.0,0.0,1495.0,1495.0,1495.0,1495.0,1.7141900062561035,0.0,0.0,0.0,0.0,0.0,0.0
347,5,0.0,0.0,0.0,0.0,-0.0,-0.0,0.09456178545951843,0.4351610541343689,-0.014040015637874603,-0.004436785355210304,-0.00546090817078948,-0.0019154540495947003,0.0,0.0,0.0,-0.0,-0.0,-0.0,0.0,0.0,0.0,-0.20000000298023224,-0.20000000298023224,-0.10000000149011612,1495.0,1495.0,1495.0,1495.0,0.0,0.0,0.0,0.0,0.0,0.0,0.0,0.0,1495.0,1495.0,1495.0,1495.0,1.7141900062561035,0.0,0.0,0.0,0.0,0.0,0.0
352,5,0.0,0.0,0.0,0.0,-0.0,-0.0,0.09454841166734695,0.4351765215396881,-0.014037528075277805,-7.392300176434219e-07,0.004652165342122316,-0.0029928432777523994,0.0,0.0,0.0,-0.0,-0.0,-0.0,0.0,0.0,0.0,-0.20000000298023224,-0.20000000298023224,-0.10000000149011612,1495.0,1495.0,1495.0,1495.0,0.0,0.0,0.0,0.0,0.0,0.0,0.0,0.0,1495.0,1495.0,1495.0,1495.0,1.714105486869812,0.0,0.0,0.0,0.0,0.0,0.0
357,5,0.0,0.0,0.0,0.0,-0.0,-0.0,0.09454841166734695,0.4351765215396881,-0.014037528075277805,-7.392300176434219e-07,0.004652165342122316,-0.0029928432777523994,0.0,0.0,0.0,-0.0,-0.0,-0.0,0.0,0.0,0.0,-0.20000000298023224,-0.20000000298023224,-0.10000000149011612,1495.0,1495.0,1495.0,1495.0,0.0,0.0,0.0,0.0,0.0,0.0,0.0,0.0,1495.0,1495.0,1495.0,1495.0,1.714105486869812,0.0,0.0,0.0,0.0,0.0,0.0
362,5,0.0,0.0,0.0,0.0,-0.0,-0.0,0.09455721080303192,0.43517524003982544,-0.014047868549823761,0.0001583965786267072,-0.0022078934125602245,-0.005361287388950586,0.0,0.0,0.0,-0.0,-0.0,-0.0,0.0,0.0,0.0,-0.20000000298023224,-0.20000000298023224,-0.10000000149011612,1495.0,1495.0,1495.0,1495.0,0.0,0.0,0.0,0.0,0.0,0.0,0.0,0.0,1495.0,1495.0,1495.0,1495.0,1.7140533924102783,0.0,0.0,0.0,0.0,0.0,0.0
367,5,0.0,0.0,0.0,0.0,-0.0,-0.0,0.09455721080303192,0.43517524003982544,-0.014047868549823761,0.0001583965786267072,-0.0022078934125602245,-0.005361287388950586,0.0,0.0,0.0,-0.0,-0.0,-0.0,0.0,0.0,0.0,-0.20000000298023224,-0.20000000298023224,-0.10000000149011612,1495.0,1495.0,1495.0,1495.0,0.0,0.0,0.0,0.0,0.0,0.0,0.0,0.0,1495.0,1495.0,1495.0,1495.0,1.7140533924102783,0.0,0.0,0.0,0.0,0.0,0.0
372,5,0.0,0.0,0.0,0.0,-0.0,-0.0,0.09455648809671402,0.43520334362983704,-0.014034274965524673,-0.0023490358144044876,-0.004197136964648962,0.004756547044962645,0.0,0.0,0.0,-0.0,-0.0,-0.0,0.0,0.0,0.0,-0.20000000298023224,-0.20000000298023224,-0.10000000149011612,1495.0,1495.0,1495.0,1495.0,0.0,0.0,0.0,0.0,0.0,0.0,0.0,0.0,1495.0,1495.0,1495.0,1495.0,1.7139850854873657,0.0,0.0,0.0,0.0,0.0,0.0
377,5,0.0,0.0,0.0,0.0,-0.0,-0.0,0.09455648809671402,0.43520334362983704,-0.014034274965524673,-0.0023490358144044876,-0.004197136964648962,0.004756547044962645,0.0,0.0,0.0,-0.0,-0.0,-0.0,0.0,0.0,0.0,-0.20000000298023224,-0.20000000298023224,-0.10000000149011612,1495.0,1495.0,1495.0,1495.0,0.0,0.0,0.0,0.0,0.0,0.0,0.0,0.0,1495.0,1495.0,1495.0,1495.0,1.7139850854873657,0.0,0.0,0.0,0.0,0.0,0.0
382,5,0.0,0.0,0.0,0.0,-0.0,-0.0,0.09455619007349014,0.43523094058036804,-0.014042343944311142,-0.0015790433390066028,-0.0010507312836125493,0.0006600403576157987,0.0,0.0,0.0,-0.0,-0.0,-0.0,0.0,0.0,0.0,-0.20000000298023224,-0.20000000298023224,-0.10000000149011612,1495.0,1495.0,1495.0,1495.0,0.0,0.0,0.0,0.0,0.0,0.0,0.0,0.0,1495.0,1495.0,1495.0,1495.0,1.7141543626785278,0.0,0.0,0.0,0.0,0.0,0.0
387,5,0.0,0.0,0.0,0.0,-0.0,-0.0,0.09455619007349014,0.43523094058036804,-0.014042343944311142,-0.0015790433390066028,-0.0010507312836125493,0.0006600403576157987,0.0,0.0,0.0,-0.0,-0.0,-0.0,0.0,0.0,0.0,-0.20000000298023224,-0.20000000298023224,-0.10000000149011612,1495.0,1495.0,1495.0,1495.0,0.0,0.0,0.0,0.0,0.0,0.0,0.0,0.0,1495.0,1495.0,1495.0,1495.0,1.7141543626785278,0.0,0.0,0.0,0.0,0.0,0.0
392,5,0.0,0.0,0.0,0.0,-0.0,-0.0,0.09455689042806625,0.43521806597709656,-0.014032642357051373,-0.0005765421665273607,-0.012480518780648708,0.0010403896449133754,0.0,0.0,0.0,-0.0,-0.0,-0.0,0.0,0.0,0.0,-0.20000000298023224,-0.20000000298023224,-0.10000000149011612,1495.0,1495.0,1495.0,1495.0,0.0,0.0,0.0,0.0,0.0,0.0,0.0,0.0,1495.0,1495.0,1495.0,1495.0,1.7139508724212646,0.0,0.0,0.0,0.0,0.0,0.0
398,5,0.0,0.0,0.0,0.0,-0.0,-0.0,0.09455689042806625,0.43521806597709656,-0.014032642357051373,-0.0005765421665273607,-0.012480518780648708,0.0010403896449133754,0.0,0.0,0.0,-0.0,-0.0,-0.0,0.0,0.0,0.0,-0.20000000298023224,-0.20000000298023224,-0.10000000149011612,1495.0,1495.0,1495.0,1495.0,0.0,0.0,0.0,0.0,0.0,0.0,0.0,0.0,1495.0,1495.0,1495.0,1495.0,1.7139508724212646,0.0,0.0,0.0,0.0,0.0,0.0
403,5,0.0,0.0,0.0,0.0,-0.0,-0.0,0.09454606473445892,0.4352896511554718,-0.014005628414452076,0.0003325883881188929,-0.0038745314814150333,0.0016243112040683627,0.0,0.0,0.0,-0.0,-0.0,-0.0,0.0,0.0,0.0,-0.20000000298023224,-0.20000000298023224,-0.10000000149011612,1495.0,1495.0,1495.0,1495.0,0.0,0.0,0.0,0.0,0.0,0.0,0.0,0.0,1495.0,1495.0,1495.0,1495.0,1.7133842706680298,0.0,0.0,0.0,0.0,0.0,0.0
408,5,0.0,0.0,0.0,0.0,-0.0,-0.0,0.09454606473445892,0.4352896511554718,-0.014005628414452076,0.0003325883881188929,-0.0038745314814150333,0.0016243112040683627,0.0,0.0,0.0,-0.0,-0.0,-0.0,0.0,0.0,0.0,-0.20000000298023224,-0.20000000298023224,-0.10000000149011612,1495.0,1495.0,1495.0,1495.0,0.0,0.0,0.0,0.0,0.0,0.0,0.0,0.0,1495.0,1495.0,1495.0,1495.0,1.7133842706680298,0.0,0.0,0.0,0.0,0.0,0.0
413,5,0.0,0.0,0.0,0.0,-0.0,-0.0,0.0945608913898468,0.4352995455265045,-0.0140315480530262,-0.0004177067312411964,0.003667214186862111,-0.0014133604709059,0.0,0.0,0.0,-0.0,-0.0,-0.0,0.0,0.0,0.0,-0.20000000298023224,-0.20000000298023224,-0.10000000149011612,1495.0,1495.0,1495.0,1495.0,0.0,0.0,0.0,0.0,0.0,0.0,0.0,0.0,1495.0,1495.0,1495.0,1495.0,1.7139278650283813,0.0,0.0,0.0,0.0,0.0,0.0
418,5,0.0,0.0,0.0,0.0,-0.0,-0.0,0.0945608913898468,0.4352995455265045,-0.0140315480530262,-0.0004177067312411964,0.003667214186862111,-0.0014133604709059,0.0,0.0,0.0,-0.0,-0.0,-0.0,0.0,0.0,0.0,-0.20000000298023224,-0.20000000298023224,-0.10000000149011612,1495.0,1495.0,1495.0,1495.0,0.0,0.0,0.0,0.0,0.0,0.0,0.0,0.0,1495.0,1495.0,1495.0,1495.0,1.7139278650283813,0.0,0.0,0.0,0.0,0.0,0.0
423,5,0.0,0.0,0.0,0.0,-0.0,-0.0,0.09456685930490494,0.43522053956985474,-0.014032543636858463,0.0013154455227777362,-0.00020923427655361593,-0.0021809411700814962,0.0,0.0,0.0,-0.0,-0.0,-0.0,0.0,0.0,0.0,-0.20000000298023224,-0.20000000298023224,-0.10000000149011612,1495.0,1495.0,1495.0,1495.0,0.0,0.0,0.0,0.0,0.0,0.0,0.0,0.0,1495.0,1495.0,1495.0,1495.0,1.7139278650283813,0.0,0.0,0.0,0.0,0.0,0.0
428,5,0.0,0.0,0.0,0.0,-0.0,-0.0,0.09456685930490494,0.43522053956985474,-0.014032543636858463,0.0013154455227777362,-0.00020923427655361593,-0.0021809411700814962,0.0,0.0,0.0,-0.0,-0.0,-0.0,0.0,0.0,0.0,-0.20000000298023224,-0.20000000298023224,-0.10000000149011612,1495.0,1495.0,1495.0,1495.0,0.0,0.0,0.0,0.0,0.0,0.0,0.0,0.0,1495.0,1495.0,1495.0,1495.0,1.7139488458633423,0.0,0.0,0.0,0.0,0.0,0.0
433,5,0.0,0.0,0.0,0.0,-0.0,-0.0,0.09457962214946747,0.4352376461029053,-0.014067246578633785,-0.00274163531139493,-0.00879610888659954,0.0030483512673527002,0.0,0.0,0.0,-0.0,-0.0,-0.0,0.0,0.0,0.0,-0.20000000298023224,-0.20000000298023224,-0.10000000149011612,1495.0,1495.0,1495.0,1495.0,0.0,0.0,0.0,0.0,0.0,0.0,0.0,0.0,1495.0,1495.0,1495.0,1495.0,1.7139488458633423,0.0,0.0,0.0,0.0,0.0,0.0
438,5,0.0,0.0,0.0,0.0,-0.0,-0.0,0.09457962214946747,0.4352376461029053,-0.014067246578633785,-0.00274163531139493,-0.00879610888659954,0.0030483512673527002,0.0,0.0,0.0,-0.0,-0.0,-0.0,0.0,0.0,0.0,-0.20000000298023224,-0.20000000298023224,-0.10000000149011612,1495.0,1495.0,1495.0,1495.0,0.0,0.0,0.0,0.0,0.0,0.0,0.0,0.0,1495.0,1495.0,1495.0,1495.0,1.7146764993667603,0.0,0.0,0.0,0.0,0.0,0.0
443,5,0.0,0.0,0.0,0.0,-0.0,-0.0,0.09457962214946747,0.4352376461029053,-0.014067246578633785,-0.00274163531139493,-0.00879610888659954,0.0030483512673527002,0.0,0.0,0.0,-0.0,-0.0,-0.0,0.0,0.0,0.0,-0.20000000298023224,-0.20000000298023224,-0.10000000149011612,1495.0,1495.0,1495.0,1495.0,0.0,0.0,0.0,0.0,0.0,0.0,0.0,0.0,1495.0,1495.0,1495.0,1495.0,1.7146764993667603,0.0,0.0,0.0,0.0,0.0,0.0
448,5,0.0,0.0,0.0,0.0,-0.0,-0.0,0.0945834219455719,0.43528348207473755,-0.014079486019909382,0.001115562510676682,-0.0010225147707387805,0.00019555141625460237,0.0,0.0,0.0,-0.0,-0.0,-0.0,0.0,0.0,0.0,-0.20000000298023224,-0.20000000298023224,-0.10000000149011612,1495.0,1495.0,1495.0,1495.0,0.0,0.0,0.0,0.0,0.0,0.0,0.0,0.0,1495.0,1495.0,1495.0,1495.0,1.7146764993667603,0.0,0.0,0.0,0.0,0.0,0.0
453,5,0.0,0.0,0.0,0.0,-0.0,-0.0,0.0945834219455719,0.43528348207473755,-0.014079486019909382,0.001115562510676682,-0.0010225147707387805,0.00019555141625460237,0.0,0.0,0.0,-0.0,-0.0,-0.0,0.0,0.0,0.0,-0.20000000298023224,-0.20000000298023224,-0.10000000149011612,1495.0,1495.0,1495.0,1495.0,0.0,0.0,0.0,0.0,0.0,0.0,0.0,0.0,1495.0,1495.0,1495.0,1495.0,1.7146764993667603,0.0,0.0,0.0,0.0,0.0,0.0
459,5,0.0,0.0,0.0,0.0,-0.0,-0.0,0.09459087252616882,0.4352598190307617,-0.014077072031795979,0.0014951181365177035,0.0039694649167358875,0.0009432380902580917,0.0,0.0,0.0,-0.0,-0.0,-0.0,0.0,0.0,0.0,-0.20000000298023224,-0.20000000298023224,-0.10000000149011612,1495.0,1495.0,1495.0,1495.0,0.0,0.0,0.0,0.0,0.0,0.0,0.0,0.0,1495.0,1495.0,1495.0,1495.0,1.714933156967163,0.0,0.0,0.0,0.0,0.0,0.0
464,5,0.0,0.0,0.0,0.0,-0.0,-0.0,0.09459087252616882,0.4352598190307617,-0.014077072031795979,0.0014951181365177035,0.0039694649167358875,0.0009432380902580917,0.0,0.0,0.0,-0.0,-0.0,-0.0,0.0,0.0,0.0,-0.20000000298023224,-0.20000000298023224,-0.10000000149011612,1495.0,1495.0,1495.0,1495.0,0.0,0.0,0.0,0.0,0.0,0.0,0.0,0.0,1495.0,1495.0,1495.0,1495.0,1.714933156967163,0.0,0.0,0.0,0.0,0.0,0.0
469,5,0.0,0.0,0.0,0.0,-0.0,-0.0,0.09461849927902222,0.4352633059024811,-0.01407633163034916,0.001177596510387957,-0.007605609484016895,-0.0026180704589933157,0.0,0.0,0.0,-0.0,-0.0,-0.0,0.0,0.0,0.0,-0.20000000298023224,-0.20000000298023224,-0.10000000149011612,1495.0,1495.0,1495.0,1495.0,0.0,0.0,0.0,0.0,0.0,0.0,0.0,0.0,1495.0,1495.0,1495.0,1495.0,1.7148826122283936,0.0,0.0,0.0,0.0,0.0,0.0
474,5,0.0,0.0,0.0,0.0,-0.0,-0.0,0.09461849927902222,0.4352633059024811,-0.01407633163034916,0.001177596510387957,-0.007605609484016895,-0.0026180704589933157,0.0,0.0,0.0,-0.0,-0.0,-0.0,0.0,0.0,0.0,-0.20000000298023224,-0.20000000298023224,-0.10000000149011612,1495.0,1495.0,1495.0,1495.0,0.0,0.0,0.0,0.0,0.0,0.0,0.0,0.0,1495.0,1495.0,1495.0,1495.0,1.7148826122283936,0.0,0.0,0.0,0.0,0.0,0.0
479,5,0.0,0.0,0.0,0.0,-0.0,-0.0,0.09460974484682083,0.43529030680656433,-0.014042621478438377,-0.0018920904258266091,-0.005982238333672285,0.0003207577974535525,0.0,0.0,0.0,-0.0,-0.0,-0.0,0.0,0.0,0.0,-0.20000000298023224,-0.20000000298023224,-0.10000000149011612,1495.0,1495.0,1495.0,1495.0,0.0,0.0,0.0,0.0,0.0,0.0,0.0,0.0,1495.0,1495.0,1495.0,1495.0,1.7148669958114624,0.0,0.0,0.0,0.0,0.0,0.0
484,5,0.0,0.0,0.0,0.0,-0.0,-0.0,0.09460974484682083,0.43529030680656433,-0.014042621478438377,-0.0018920904258266091,-0.005982238333672285,0.0003207577974535525,0.0,0.0,0.0,-0.0,-0.0,-0.0,0.0,0.0,0.0,-0.20000000298023224,-0.20000000298023224,-0.10000000149011612,1495.0,1495.0,1495.0,1495.0,0.0,0.0,0.0,0.0,0.0,0.0,0.0,0.0,1495.0,1495.0,1495.0,1495.0,1.7148669958114624,0.0,0.0,0.0,0.0,0.0,0.0
489,5,0.0,0.0,0.0,0.0,-0.0,-0.0,0.09460341930389404,0.43531957268714905,-0.014057016000151634,0.0006849444471299648,0.00011391477892175317,-0.0005709718680009246,0.0,0.0,0.0,-0.0,-0.0,-0.0,0.0,0.0,0.0,-0.20000000298023224,-0.20000000298023224,-0.10000000149011612,1495.0,1495.0,1495.0,1495.0,0.0,0.0,0.0,0.0,0.0,0.0,0.0,0.0,1495.0,1495.0,1495.0,1495.0,1.7144620418548584,0.0,0.0,0.0,0.0,0.0,0.0
494,5,0.0,0.0,0.0,0.0,-0.0,-0.0,0.09460341930389404,0.43531957268714905,-0.014057016000151634,0.0006849444471299648,0.00011391477892175317,-0.0005709718680009246,0.0,0.0,0.0,-0.0,-0.0,-0.0,0.0,0.0,0.0,-0.20000000298023224,-0.20000000298023224,-0.10000000149011612,1495.0,1495.0,1495.0,1495.0,0.0,0.0,0.0,0.0,0.0,0.0,0.0,0.0,1495.0,1495.0,1495.0,1495.0,1.7144620418548584,0.0,0.0,0.0,0.0,0.0,0.0
499,5,0.0,0.0,0.0,0.0,-0.0,-0.0,0.09460043162107468,0.4352544844150543,-0.014037350192666054,0.0029762298800051212,-0.0016761081060394645,0.0032837081234902143,0.0,0.0,0.0,-0.0,-0.0,-0.0,0.0,0.0,0.0,-0.20000000298023224,-0.20000000298023224,-0.10000000149011612,1495.0,1495.0,1495.0,1495.0,0.0,0.0,0.0,0.0,0.0,0.0,0.0,0.0,1495.0,1495.0,1495.0,1495.0,1.7140495777130127,0.0,0.0,0.0,0.0,0.0,0.0
504,5,0.0,0.0,0.0,0.0,-0.0,-0.0,0.09460043162107468,0.4352544844150543,-0.014037350192666054,0.0029762298800051212,-0.0016761081060394645,0.0032837081234902143,0.0,0.0,0.0,-0.0,-0.0,-0.0,0.0,0.0,0.0,-0.20000000298023224,-0.20000000298023224,-0.10000000149011612,1495.0,1495.0,1495.0,1495.0,0.0,0.0,0.0,0.0,0.0,0.0,0.0,0.0,1495.0,1495.0,1495.0,1495.0,1.7140495777130127,0.0,0.0,0.0,0.0,0.0,0.0
509,5,0.0,0.0,0.0,0.0,-0.0,-0.0,0.0945909321308136,0.435282826423645,-0.013980046845972538,-0.0006525734206661582,-0.008244226686656475,0.0020246636122465134,0.0,0.0,0.0,-0.0,-0.0,-0.0,0.0,0.0,0.0,-0.20000000298023224,-0.20000000298023224,-0.10000000149011612,1495.0,1495.0,1495.0,1495.0,0.0,0.0,0.0,0.0,0.0,0.0,0.0,0.0,1495.0,1495.0,1495.0,1495.0,1.7128477096557617,0.0,0.0,0.0,0.0,0.0,0.0
514,5,0.0,0.0,0.0,0.0,-0.0,-0.0,0.0945909321308136,0.435282826423645,-0.013980046845972538,-0.0006525734206661582,-0.008244226686656475,0.0020246636122465134,0.0,0.0,0.0,-0.0,-0.0,-0.0,0.0,0.0,0.0,-0.20000000298023224,-0.20000000298023224,-0.10000000149011612,1495.0,1495.0,1495.0,1495.0,0.0,0.0,0.0,0.0,0.0,0.0,0.0,0.0,1495.0,1495.0,1495.0,1495.0,1.7128477096557617,0.0,0.0,0.0,0.0,0.0,0.0
520,5,0.0,0.0,0.0,0.0,-0.0,-0.0,0.09458623826503754,0.4353136122226715,-0.013969020918011665,-0.0009983733762055635,-0.001421576365828514,-0.0009165542433038354,0.0,0.0,0.0,-0.0,-0.0,-0.0,0.0,0.0,0.0,-0.20000000298023224,-0.20000000298023224,-0.10000000149011612,1495.0,1495.0,1495.0,1495.0,0.0,0.0,0.0,0.0,0.0,0.0,0.0,0.0,1495.0,1495.0,1495.0,1495.0,1.7126163244247437,0.0,0.0,0.0,0.0,0.0,0.0
525,5,0.0,0.0,0.0,0.0,-0.0,-0.0,0.09458623826503754,0.4353136122226715,-0.013969020918011665,-0.0009983733762055635,-0.001421576365828514,-0.0009165542433038354,0.0,0.0,0.0,-0.0,-0.0,-0.0,0.0,0.0,0.0,-0.20000000298023224,-0.20000000298023224,-0.10000000149011612,1495.0,1495.0,1495.0,1495.0,0.0,0.0,0.0,0.0,0.0,0.0,0.0,0.0,1495.0,1495.0,1495.0,1495.0,1.7126163244247437,0.0,0.0,0.0,0.0,0.0,0.0
530,5,0.0,0.0,0.0,0.0,-0.0,-0.0,0.09459702670574188,0.43529924750328064,-0.014013015665113926,-0.002505380427464843,0.005143170244991779,-0.0042173052206635475,0.0,0.0,0.0,-0.0,-0.0,-0.0,0.0,0.0,0.0,-0.20000000298023224,-0.20000000298023224,-0.10000000149011612,1495.0,1495.0,1495.0,1495.0,0.0,0.0,0.0,0.0,0.0,0.0,0.0,0.0,1495.0,1495.0,1495.0,1495.0,1.7135392427444458,0.0,0.0,0.0,0.0,0.0,0.0
535,5,0.0,0.0,0.0,0.0,-0.0,-0.0,0.09459702670574188,0.43529924750328064,-0.014013015665113926,-0.002505380427464843,0.005143170244991779,-0.0042173052206635475,0.0,0.0,0.0,-0.0,-0.0,-0.0,0.0,0.0,0.0,-0.20000000298023224,-0.20000000298023224,-0.10000000149011612,1495.0,1495.0,1495.0,1495.0,0.0,0.0,0.0,0.0,0.0,0.0,0.0,0.0,1495.0,1495.0,1495.0,1495.0,1.7135392427444458,0.0,0.0,0.0,0.0,0.0,0.0
540,5,0.0,0.0,0.0,0.0,-0.0,-0.0,0.0946071520447731,0.435253769159317,-0.014009007252752781,0.00020974784274585545,-0.003439106047153473,0.0015788989840075374,0.0,0.0,0.0,-0.0,-0.0,-0.0,0.0,0.0,0.0,-0.20000000298023224,-0.20000000298023224,-0.10000000149011612,1495.0,1495.0,1495.0,1495.0,0.0,0.0,0.0,0.0,0.0,0.0,0.0,0.0,1495.0,1495.0,1495.0,1495.0,1.7134552001953125,0.0,0.0,0.0,0.0,0.0,0.0
545,5,0.0,0.0,0.0,0.0,-0.0,-0.0,0.0946071520447731,0.435253769159317,-0.014009007252752781,0.00020974784274585545,-0.003439106047153473,0.0015788989840075374,0.0,0.0,0.0,-0.0,-0.0,-0.0,0.0,0.0,0.0,-0.20000000298023224,-0.20000000298023224,-0.10000000149011612,1495.0,1495.0,1495.0,1495.0,0.0,0.0,0.0,0.0,0.0,0.0,0.0,0.0,1495.0,1495.0,1495.0,1495.0,1.7134552001953125,0.0,0.0,0.0,0.0,0.0,0.0
550,5,0.0,0.0,0.0,0.0,-0.0,-0.0,0.09462656080722809,0.4352683424949646,-0.014017184264957905,0.002745135687291622,-0.008059496060013771,0.003550067078322172,0.0,0.0,0.0,-0.0,-0.0,-0.0,0.0,0.0,0.0,-0.20000000298023224,-0.20000000298023224,-0.10000000149011612,1495.0,1495.0,1495.0,1495.0,0.0,0.0,0.0,0.0,0.0,0.0,0.0,0.0,1495.0,1495.0,1495.0,1495.0,1.7134552001953125,0.0,0.0,0.0,0.0,0.0,0.0
555,5,0.0,0.0,0.0,0.0,-0.0,-0.0,0.09462656080722809,0.4352683424949646,-0.014017184264957905,0.002745135687291622,-0.008059496060013771,0.003550067078322172,0.0,0.0,0.0,-0.0,-0.0,-0.0,0.0,0.0,0.0,-0.20000000298023224,-0.20000000298023224,-0.10000000149011612,1495.0,1495.0,1495.0,1495.0,0.0,0.0,0.0,0.0,0.0,0.0,0.0,0.0,1495.0,1495.0,1495.0,1495.0,1.7136266231536865,0.0,0.0,0.0,0.0,0.0,0.0
560,5,0.0,0.0,0.0,0.0,-0.0,-0.0,0.09463045001029968,0.43524450063705444,-0.01400801446288824,-0.0005795562174171209,0.010781273245811462,-0.0028611153829842806,0.0,0.0,0.0,-0.0,-0.0,-0.0,0.0,0.0,0.0,-0.20000000298023224,-0.20000000298023224,-0.10000000149011612,1495.0,1495.0,1495.0,1495.0,0.0,0.0,0.0,0.0,0.0,0.0,0.0,0.0,1495.0,1495.0,1495.0,1495.0,1.7136266231536865,0.0,0.0,0.0,0.0,0.0,0.0
565,5,0.0,0.0,0.0,0.0,-0.0,-0.0,0.09463045001029968,0.43524450063705444,-0.01400801446288824,-0.0005795562174171209,0.010781273245811462,-0.0028611153829842806,0.0,0.0,0.0,-0.0,-0.0,-0.0,0.0,0.0,0.0,-0.20000000298023224,-0.20000000298023224,-0.10000000149011612,1495.0,1495.0,1495.0,1495.0,0.0,0.0,0.0,0.0,0.0,0.0,0.0,0.0,1495.0,1495.0,1495.0,1495.0,1.7134343385696411,0.0,0.0,0.0,0.0,0.0,0.0
570,5,0.0,0.0,0.0,0.0,-0.0,-0.0,0.09463045001029968,0.43524450063705444,-0.01400801446288824,-0.0005795562174171209,0.010781273245811462,-0.0028611153829842806,0.0,0.0,0.0,-0.0,-0.0,-0.0,0.0,0.0,0.0,-0.20000000298023224,-0.20000000298023224,-0.10000000149011612,1495.0,1495.0,1495.0,1495.0,0.0,0.0,0.0,0.0,0.0,0.0,0.0,0.0,1495.0,1495.0,1495.0,1495.0,1.7134343385696411,0.0,0.0,0.0,0.0,0.0,0.0
575,5,0.0,0.0,0.0,0.0,-0.0,-0.0,0.09463033825159073,0.43521904945373535,-0.013992360793054104,0.0004942783853039145,-0.005745090078562498,0.001215874683111906,0.0,0.0,0.0,-0.0,-0.0,-0.0,0.0,0.0,0.0,-0.20000000298023224,-0.20000000298023224,-0.10000000149011612,1495.0,1495.0,1495.0,1495.0,0.0,0.0,0.0,0.0,0.0,0.0,0.0,0.0,1495.0,1495.0,1495.0,1495.0,1.7131060361862183,0.0,0.0,0.0,0.0,0.0,0.0
580,5,0.0,0.0,0.0,0.0,-0.0,-0.0,0.09463033825159073,0.43521904945373535,-0.013992360793054104,0.0004942783853039145,-0.005745090078562498,0.001215874683111906,0.0,0.0,0.0,-0.0,-0.0,-0.0,0.0,0.0,0.0,-0.20000000298023224,-0.20000000298023224,-0.10000000149011612,1495.0,1495.0,1495.0,1495.0,0.0,0.0,0.0,0.0,0.0,0.0,0.0,0.0,1495.0,1495.0,1495.0,1495.0,1.7131060361862183,0.0,0.0,0.0,0.0,0.0,0.0
586,5,0.0,0.0,0.0,0.0,-0.0,-0.0,0.09462419897317886,0.4352823495864868,-0.013969095423817635,0.0005941329291090369,-0.0075391377322375774,0.001878752140328288,0.0,0.0,0.0,-0.0,-0.0,-0.0,0.0,0.0,0.0,-0.20000000298023224,-0.20000000298023224,-0.10000000149011612,1495.0,1495.0,1495.0,1495.0,0.0,0.0,0.0,0.0,0.0,0.0,0.0,0.0,1495.0,1495.0,1495.0,1495.0,1.7126178741455078,0.0,0.0,0.0,0.0,0.0,0.0
591,5,0.0,0.0,0.0,0.0,-0.0,-0.0,0.09462419897317886,0.4352823495864868,-0.013969095423817635,0.0005941329291090369,-0.0075391377322375774,0.001878752140328288,0.0,0.0,0.0,-0.0,-0.0,-0.0,0.0,0.0,0.0,-0.20000000298023224,-0.20000000298023224,-0.10000000149011612,1495.0,1495.0,1495.0,1495.0,0.0,0.0,0.0,0.0,0.0,0.0,0.0,0.0,1495.0,1495.0,1495.0,1495.0,1.7126178741455078,0.0,0.0,0.0,0.0,0.0,0.0
596,5,0.0,0.0,0.0,0.0,-0.0,-0.0,0.09463655203580856,0.43532538414001465,-0.013995341956615448,0.001647679484449327,0.001154210651293397,-0.001798171317204833,0.0,0.0,0.0,-0.0,-0.0,-0.0,0.0,0.0,0.0,-0.20000000298023224,-0.20000000298023224,-0.10000000149011612,1495.0,1495.0,1495.0,1495.0,0.0,0.0,0.0,0.0,0.0,0.0,0.0,0.0,1495.0,1495.0,1495.0,1495.0,1.7131685018539429,0.0,0.0,0.0,0.0,0.0,0.0
601,5,0.0,0.0,0.0,0.0,-0.0,-0.0,0.09463655203580856,0.43532538414001465,-0.013995341956615448,0.001647679484449327,0.001154210651293397,-0.001798171317204833,0.0,0.0,0.0,-0.0,-0.0,-0.0,0.0,0.0,0.0,-0.20000000298023224,-0.20000000298023224,-0.10000000149011612,1495.0,1495.0,1495.0,1495.0,0.0,0.0,0.0,0.0,0.0,0.0,0.0,0.0,1495.0,1495.0,1495.0,1495.0,1.7131685018539429,0.0,0.0,0.0,0.0,0.0,0.0
606,5,0.0,0.0,0.0,0.0,-0.0,-0.0,0.09464675933122635,0.4352877140045166,-0.013978649862110615,0.0002734268200583756,0.0020462279208004475,-0.0018238386837765574,0.0,0.0,0.0,-0.0,-0.0,-0.0,0.0,0.0,0.0,-0.20000000298023224,-0.20000000298023224,-0.10000000149011612,1495.0,1495.0,1495.0,1495.0,0.0,0.0,0.0,0.0,0.0,0.0,0.0,0.0,1495.0,1495.0,1495.0,1495.0,1.7128183841705322,0.0,0.0,0.0,0.0,0.0,0.0
611,5,0.0,0.0,0.0,0.0,-0.0,-0.0,0.09464675933122635,0.4352877140045166,-0.013978649862110615,0.0002734268200583756,0.0020462279208004475,-0.0018238386837765574,0.0,0.0,0.0,-0.0,-0.0,-0.0,0.0,0.0,0.0,-0.20000000298023224,-0.20000000298023224,-0.10000000149011612,1495.0,1495.0,1495.0,1495.0,0.0,0.0,0.0,0.0,0.0,0.0,0.0,0.0,1495.0,1495.0,1495.0,1495.0,1.7128183841705322,0.0,0.0,0.0,0.0,0.0,0.0
616,5,0.0,0.0,0.0,0.0,-0.0,-0.0,0.09464569389820099,0.43529966473579407,-0.013977166265249252,-0.0035901321098208427,-0.0066262707114219666,-0.001759696751832962,0.0,0.0,0.0,-0.0,-0.0,-0.0,0.0,0.0,0.0,-0.20000000298023224,-0.20000000298023224,-0.10000000149011612,1495.0,1495.0,1495.0,1495.0,0.0,0.0,0.0,0.0,0.0,0.0,0.0,0.0,1495.0,1495.0,1495.0,1495.0,1.7128183841705322,0.0,0.0,0.0,0.0,0.0,0.0
621,5,0.0,0.0,0.0,0.0,-0.0,-0.0,0.09464569389820099,0.43529966473579407,-0.013977166265249252,-0.0035901321098208427,-0.0066262707114219666,-0.001759696751832962,0.0,0.0,0.0,-0.0,-0.0,-0.0,0.0,0.0,0.0,-0.20000000298023224,-0.20000000298023224,-0.10000000149011612,1495.0,1495.0,1495.0,1495.0,0.0,0.0,0.0,0.0,0.0,0.0,0.0,0.0,1495.0,1495.0,1495.0,1495.0,1.7127872705459595,0.0,0.0,0.0,0.0,0.0,0.0
626,5,0.0,0.0,0.0,0.0,-0.0,-0.0,0.09464339911937714,0.43538573384284973,-0.01398595329374075,-0.001381426234729588,-0.006139133591204882,0.0045804549008607864,0.0,0.0,0.0,-0.0,-0.0,-0.0,0.0,0.0,0.0,-0.20000000298023224,-0.20000000298023224,-0.10000000149011612,1495.0,1495.0,1495.0,1495.0,0.0,0.0,0.0,0.0,0.0,0.0,0.0,0.0,1495.0,1495.0,1495.0,1495.0,1.7127872705459595,0.0,0.0,0.0,0.0,0.0,0.0
631,5,0.0,0.0,0.0,0.0,-0.0,-0.0,0.09464339911937714,0.43538573384284973,-0.01398595329374075,-0.001381426234729588,-0.006139133591204882,0.0045804549008607864,0.0,0.0,0.0,-0.0,-0.0,-0.0,0.0,0.0,0.0,-0.20000000298023224,-0.20000000298023224,-0.10000000149011612,1495.0,1495.0,1495.0,1495.0,0.0,0.0,0.0,0.0,0.0,0.0,0.0,0.0,1495.0,1495.0,1495.0,1495.0,1.712971568107605,0.0,0.0,0.0,0.0,0.0,0.0
636,5,0.0,0.0,0.0,0.0,-0.0,-0.0,0.09464029967784882,0.43538418412208557,-0.013980045914649963,0.0017304600914940238,0.005551483947783709,-0.0012924656039103866,0.0,0.0,0.0,-0.0,-0.0,-0.0,0.0,0.0,0.0,-0.20000000298023224,-0.20000000298023224,-0.10000000149011612,1495.0,1495.0,1495.0,1495.0,0.0,0.0,0.0,0.0,0.0,0.0,0.0,0.0,1495.0,1495.0,1495.0,1495.0,1.712971568107605,0.0,0.0,0.0,0.0,0.0,0.0
641,5,0.0,0.0,0.0,0.0,-0.0,-0.0,0.09464029967784882,0.43538418412208557,-0.013980045914649963,0.0017304600914940238,0.005551483947783709,-0.0012924656039103866,0.0,0.0,0.0,-0.0,-0.0,-0.0,0.0,0.0,0.0,-0.20000000298023224,-0.20000000298023224,-0.10000000149011612,1495.0,1495.0,1495.0,1495.0,0.0,0.0,0.0,0.0,0.0,0.0,0.0,0.0,1495.0,1495.0,1495.0,1495.0,1.7128475904464722,0.0,0.0,0.0,0.0,0.0,0.0
646,5,0.0,0.0,0.0,0.0,-0.0,-0.0,0.09461703151464462,0.4352949857711792,-0.013958320952951908,-0.001403328264132142,0.003538259072229266,0.0020961076952517033,0.0,0.0,0.0,-0.0,-0.0,-0.0,0.0,0.0,0.0,-0.20000000298023224,-0.20000000298023224,-0.10000000149011612,1495.0,1495.0,1495.0,1495.0,0.0,0.0,0.0,0.0,0.0,0.0,0.0,0.0,1495.0,1495.0,1495.0,1495.0,1.7128475904464722,0.0,0.0,0.0,0.0,0.0,0.0
651,5,0.0,0.0,0.0,0.0,-0.0,-0.0,0.09461703151464462,0.4352949857711792,-0.013958320952951908,-0.001403328264132142,0.003538259072229266,0.0020961076952517033,0.0,0.0,0.0,-0.0,-0.0,-0.0,0.0,0.0,0.0,-0.20000000298023224,-0.20000000298023224,-0.10000000149011612,1495.0,1495.0,1495.0,1495.0,0.0,0.0,0.0,0.0,0.0,0.0,0.0,0.0,1495.0,1495.0,1495.0,1495.0,1.7123918533325195,0.0,0.0,0.0,0.0,0.0,0.0
656,5,0.0,0.0,0.0,0.0,-0.0,-0.0,0.09458757936954498,0.43532606959342957,-0.013958762399852276,-0.0031615146435797215,-0.0065085976384580135,0.0005240340833552182,0.0,0.0,0.0,-0.0,-0.0,-0.0,0.0,0.0,0.0,-0.20000000298023224,-0.20000000298023224,-0.10000000149011612,1495.0,1495.0,1495.0,1495.0,0.0,0.0,0.0,0.0,0.0,0.0,0.0,0.0,1495.0,1495.0,1495.0,1495.0,1.7123918533325195,0.0,0.0,0.0,0.0,0.0,0.0
662,5,0.0,0.0,0.0,0.0,-0.0,-0.0,0.09458757936954498,0.43532606959342957,-0.013958762399852276,-0.0031615146435797215,-0.0065085976384580135,0.0005240340833552182,0.0,0.0,0.0,-0.0,-0.0,-0.0,0.0,0.0,0.0,-0.20000000298023224,-0.20000000298023224,-0.10000000149011612,1495.0,1495.0,1495.0,1495.0,0.0,0.0,0.0,0.0,0.0,0.0,0.0,0.0,1495.0,1495.0,1495.0,1495.0,1.7124011516571045,0.0,0.0,0.0,0.0,0.0,0.0
667,5,0.0,0.0,0.0,0.0,-0.0,-0.0,0.09458757936954498,0.43532606959342957,-0.013958762399852276,-0.0031615146435797215,-0.0065085976384580135,0.0005240340833552182,0.0,0.0,0.0,-0.0,-0.0,-0.0,0.0,0.0,0.0,-0.20000000298023224,-0.20000000298023224,-0.10000000149011612,1495.0,1495.0,1495.0,1495.0,0.0,0.0,0.0,0.0,0.0,0.0,0.0,0.0,1495.0,1495.0,1495.0,1495.0,1.7124011516571045,0.0,0.0,0.0,0.0,0.0,0.0
672,5,0.0,0.0,0.0,0.0,-0.0,-0.0,0.09455450624227524,0.43536219000816345,-0.01394735462963581,-0.0034033905249089003,-0.0018949557561427355,0.0017187896883115172,0.0,0.0,0.0,-0.0,-0.0,-0.0,0.0,0.0,0.0,-0.20000000298023224,-0.20000000298023224,-0.10000000149011612,1495.0,1495.0,1495.0,1495.0,0.0,0.0,0.0,0.0,0.0,0.0,0.0,0.0,1495.0,1495.0,1495.0,1495.0,1.7121617794036865,0.0,0.0,0.0,0.0,0.0,0.0
677,5,0.0,0.0,0.0,0.0,-0.0,-0.0,0.09455450624227524,0.43536219000816345,-0.01394735462963581,-0.0034033905249089003,-0.0018949557561427355,0.0017187896883115172,0.0,0.0,0.0,-0.0,-0.0,-0.0,0.0,0.0,0.0,-0.20000000298023224,-0.20000000298023224,-0.10000000149011612,1495.0,1495.0,1495.0,1495.0,0.0,0.0,0.0,0.0,0.0,0.0,0.0,0.0,1495.0,1495.0,1495.0,1495.0,1.7121617794036865,0.0,0.0,0.0,0.0,0.0,0.0
682,5,0.0,0.0,0.0,0.0,-0.0,-0.0,0.09457125514745712,0.43534913659095764,-0.013936837203800678,-0.002370325615629554,-0.001715810620225966,-0.00011734832514775917,0.0,0.0,0.0,-0.0,-0.0,-0.0,0.0,0.0,0.0,-0.20000000298023224,-0.20000000298023224,-0.10000000149011612,1495.0,1495.0,1495.0,1495.0,0.0,0.0,0.0,0.0,0.0,0.0,0.0,0.0,1495.0,1495.0,1495.0,1495.0,1.711941123008728,0.0,0.0,0.0,0.0,0.0,0.0
687,5,0.0,0.0,0.0,0.0,-0.0,-0.0,0.09457125514745712,0.43534913659095764,-0.013936837203800678,-0.002370325615629554,-0.001715810620225966,-0.00011734832514775917,0.0,0.0,0.0,-0.0,-0.0,-0.0,0.0,0.0,0.0,-0.20000000298023224,-0.20000000298023224,-0.10000000149011612,1495.0,1495.0,1495.0,1495.0,0.0,0.0,0.0,0.0,0.0,0.0,0.0,0.0,1495.0,1495.0,1495.0,1495.0,1.711941123008728,0.0,0.0,0.0,0.0,0.0,0.0
692,5,0.0,0.0,0.0,0.0,-0.0,-0.0,0.0945400521159172,0.43539416790008545,-0.013912874273955822,-0.0012776250950992107,-0.002421603538095951,-0.0009856022661551833,0.0,0.0,0.0,-0.0,-0.0,-0.0,0.0,0.0,0.0,-0.20000000298023224,-0.20000000298023224,-0.10000000149011612,1495.0,1495.0,1495.0,1495.0,0.0,0.0,0.0,0.0,0.0,0.0,0.0,0.0,1495.0,1495.0,1495.0,1495.0,1.711941123008728,0.0,0.0,0.0,0.0,0.0,0.0
697,5,0.0,0.0,0.0,0.0,-0.0,-0.0,0.0945400521159172,0.43539416790008545,-0.013912874273955822,-0.0012776250950992107,-0.002421603538095951,-0.0009856022661551833,0.0,0.0,0.0,-0.0,-0.0,-0.0,0.0,0.0,0.0,-0.20000000298023224,-0.20000000298023224,-0.10000000149011612,1495.0,1495.0,1495.0,1495.0,0.0,0.0,0.0,0.0,0.0,0.0,0.0,0.0,1495.0,1495.0,1495.0,1495.0,1.711941123008728,0.0,0.0,0.0,0.0,0.0,0.0
702,5,0.0,0.0,0.0,0.0,-0.0,-0.0,0.09453187137842178,0.4353998303413391,-0.013910292647778988,-0.0024865735322237015,0.0005913740606047213,-0.00287710246630013,0.0,0.0,0.0,-0.0,-0.0,-0.0,0.0,0.0,0.0,-0.20000000298023224,-0.20000000298023224,-0.10000000149011612,1495.0,1495.0,1495.0,1495.0,0.0,0.0,0.0,0.0,0.0,0.0,0.0,0.0,1495.0,1495.0,1495.0,1495.0,1.7114382982254028,0.0,0.0,0.0,0.0,0.0,0.0
707,5,0.0,0.0,0.0,0.0,-0.0,-0.0,0.09453187137842178,0.4353998303413391,-0.013910292647778988,-0.0024865735322237015,0.0005913740606047213,-0.00287710246630013,0.0,0.0,0.0,-0.0,-0.0,-0.0,0.0,0.0,0.0,-0.20000000298023224,-0.20000000298023224,-0.10000000149011612,1495.0,1495.0,1495.0,1495.0,0.0,0.0,0.0,0.0,0.0,0.0,0.0,0.0,1495.0,1495.0,1495.0,1495.0,1.7114382982254028,0.0,0.0,0.0,0.0,0.0,0.0
712,5,0.0,0.0,0.0,0.0,-0.0,-0.0,0.09453187137842178,0.4353998303413391,-0.013910292647778988,-0.0024865735322237015,0.0005913740606047213,-0.00287710246630013,0.0,0.0,0.0,-0.0,-0.0,-0.0,0.0,0.0,0.0,-0.20000000298023224,-0.20000000298023224,-0.10000000149011612,1495.0,1495.0,1495.0,1495.0,0.0,0.0,0.0,0.0,0.0,0.0,0.0,0.0,1495.0,1495.0,1495.0,1495.0,1.7113840579986572,0.0,0.0,0.0,0.0,0.0,0.0
717,5,0.0,0.0,0.0,0.0,-0.0,-0.0,0.09453187137842178,0.4353998303413391,-0.013910292647778988,-0.0024865735322237015,0.0005913740606047213,-0.00287710246630013,0.0,0.0,0.0,-0.0,-0.0,-0.0,0.0,0.0,0.0,-0.20000000298023224,-0.20000000298023224,-0.10000000149011612,1495.0,1495.0,1495.0,1495.0,0.0,0.0,0.0,0.0,0.0,0.0,0.0,0.0,1495.0,1495.0,1495.0,1495.0,1.7113840579986572,0.0,0.0,0.0,0.0,0.0,0.0
722,5,0.0,0.0,0.0,0.0,-0.0,-0.0,0.09454499930143356,0.43543046712875366,-0.013906532898545265,0.001977431820705533,-0.007156438194215298,0.0049626571126282215,0.0,0.0,0.0,-0.0,-0.0,-0.0,0.0,0.0,0.0,-0.20000000298023224,-0.20000000298023224,-0.10000000149011612,1495.0,1495.0,1495.0,1495.0,0.0,0.0,0.0,0.0,0.0,0.0,0.0,0.0,1495.0,1495.0,1495.0,1495.0,1.7113051414489746,0.0,0.0,0.0,0.0,0.0,0.0
728,5,0.0,0.0,0.0,0.0,-0.0,-0.0,0.09454499930143356,0.43543046712875366,-0.013906532898545265,0.001977431820705533,-0.007156438194215298,0.0049626571126282215,0.0,0.0,0.0,-0.0,-0.0,-0.0,0.0,0.0,0.0,-0.20000000298023224,-0.20000000298023224,-0.10000000149011612,1495.0,1495.0,1495.0,1495.0,0.0,0.0,0.0,0.0,0.0,0.0,0.0,0.0,1495.0,1495.0,1495.0,1495.0,1.7113051414489746,0.0,0.0,0.0,0.0,0.0,0.0
733,5,0.0,0.0,0.0,0.0,-0.0,-0.0,0.09454993903636932,0.43544772267341614,-0.013926060870289803,0.0002568260533735156,-0.0033050167839974165,-0.0014142460422590375,0.0,0.0,0.0,-0.0,-0.0,-0.0,0.0,0.0,0.0,-0.20000000298023224,-0.20000000298023224,-0.10000000149011612,1495.0,1495.0,1495.0,1495.0,0.0,0.0,0.0,0.0,0.0,0.0,0.0,0.0,1495.0,1495.0,1495.0,1495.0,1.7113051414489746,0.0,0.0,0.0,0.0,0.0,0.0
738,5,0.0,0.0,0.0,0.0,-0.0,-0.0,0.09454993903636932,0.43544772267341614,-0.013926060870289803,0.0002568260533735156,-0.0033050167839974165,-0.0014142460422590375,0.0,0.0,0.0,-0.0,-0.0,-0.0,0.0,0.0,0.0,-0.20000000298023224,-0.20000000298023224,-0.10000000149011612,1495.0,1495.0,1495.0,1495.0,0.0,0.0,0.0,0.0,0.0,0.0,0.0,0.0,1495.0,1495.0,1495.0,1495.0,1.7113051414489746,0.0,0.0,0.0,0.0,0.0,0.0
743,5,0.0,0.0,0.0,0.0,-0.0,-0.0,0.09453483670949936,0.4353949725627899,-0.013900124467909336,-0.0015924241160973907,0.009084249846637249,0.0021256397012621164,0.0,0.0,0.0,-0.0,-0.0,-0.0,0.0,0.0,0.0,-0.20000000298023224,-0.20000000298023224,-0.10000000149011612,1495.0,1495.0,1495.0,1495.0,0.0,0.0,0.0,0.0,0.0,0.0,0.0,0.0,1495.0,1495.0,1495.0,1495.0,1.7117149829864502,0.0,0.0,0.0,0.0,0.0,0.0
748,5,0.0,0.0,0.0,0.0,-0.0,-0.0,0.09453483670949936,0.4353949725627899,-0.013900124467909336,-0.0015924241160973907,0.009084249846637249,0.0021256397012621164,0.0,0.0,0.0,-0.0,-0.0,-0.0,0.0,0.0,0.0,-0.20000000298023224,-0.20000000298023224,-0.10000000149011612,1495.0,1495.0,1495.0,1495.0,0.0,0.0,0.0,0.0,0.0,0.0,0.0,0.0,1495.0,1495.0,1495.0,1495.0,1.7117149829864502,0.0,0.0,0.0,0.0,0.0,0.0
753,5,0.0,0.0,0.0,0.0,-0.0,-0.0,0.09453726559877396,0.43537527322769165,-0.01390483696013689,0.0006576970918104053,-0.005271922331303358,-5.645144483423792e-06,0.0,0.0,0.0,-0.0,-0.0,-0.0,0.0,0.0,0.0,-0.20000000298023224,-0.20000000298023224,-0.10000000149011612,1495.0,1495.0,1495.0,1495.0,0.0,0.0,0.0,0.0,0.0,0.0,0.0,0.0,1495.0,1495.0,1495.0,1495.0,1.7111706733703613,0.0,0.0,0.0,0.0,0.0,0.0
758,5,0.0,0.0,0.0,0.0,-0.0,-0.0,0.09453726559877396,0.43537527322769165,-0.01390483696013689,0.0006576970918104053,-0.005271922331303358,-5.645144483423792e-06,0.0,0.0,0.0,-0.0,-0.0,-0.0,0.0,0.0,0.0,-0.20000000298023224,-0.20000000298023224,-0.10000000149011612,1495.0,1495.0,1495.0,1495.0,0.0,0.0,0.0,0.0,0.0,0.0,0.0,0.0,1495.0,1495.0,1495.0,1495.0,1.7111706733703613,0.0,0.0,0.0,0.0,0.0,0.0
763,5,0.0,0.0,0.0,0.0,-0.0,-0.0,0.09454197436571121,0.43543899059295654,-0.013904604129493237,-0.000476634333608672,-0.008189499378204346,0.006017756648361683,0.0,0.0,0.0,-0.0,-0.0,-0.0,0.0,0.0,0.0,-0.20000000298023224,-0.20000000298023224,-0.10000000149011612,1495.0,1495.0,1495.0,1495.0,0.0,0.0,0.0,0.0,0.0,0.0,0.0,0.0,1495.0,1495.0,1495.0,1495.0,1.7112696170806885,0.0,0.0,0.0,0.0,0.0,0.0
768,5,0.0,0.0,0.0,0.0,-0.0,-0.0,0.09454197436571121,0.43543899059295654,-0.013904604129493237,-0.000476634333608672,-0.008189499378204346,0.006017756648361683,0.0,0.0,0.0,-0.0,-0.0,-0.0,0.0,0.0,0.0,-0.20000000298023224,-0.20000000298023224,-0.10000000149011612,1495.0,1495.0,1495.0,1495.0,0.0,0.0,0.0,0.0,0.0,0.0,0.0,0.0,1495.0,1495.0,1495.0,1495.0,1.7112696170806885,0.0,0.0,0.0,0.0,0.0,0.0
773,5,0.0,0.0,0.0,0.0,-0.0,-0.0,0.09454197436571121,0.43543899059295654,-0.013904604129493237,-0.000476634333608672,-0.008189499378204346,0.006017756648361683,0.0,0.0,0.0,-0.0,-0.0,-0.0,0.0,0.0,0.0,-0.20000000298023224,-0.20000000298023224,-0.10000000149011612,1495.0,1495.0,1495.0,1495.0,0.0,0.0,0.0,0.0,0.0,0.0,0.0,0.0,1495.0,1495.0,1495.0,1495.0,1.7112696170806885,0.0,0.0,0.0,0.0,0.0,0.0
778,5,0.0,0.0,0.0,0.0,-0.0,-0.0,0.09452566504478455,0.4354664087295532,-0.01389876939356327,0.0013446317752823234,0.005412300582975149,0.00289603928104043,0.0,0.0,0.0,-0.0,-0.0,-0.0,0.0,0.0,0.0,-0.20000000298023224,-0.20000000298023224,-0.10000000149011612,1495.0,1495.0,1495.0,1495.0,0.0,0.0,0.0,0.0,0.0,0.0,0.0,0.0,1495.0,1495.0,1495.0,1495.0,1.711264729499817,0.0,0.0,0.0,0.0,0.0,0.0
784,5,0.0,0.0,0.0,0.0,-0.0,-0.0,0.09452566504478455,0.4354664087295532,-0.01389876939356327,0.0013446317752823234,0.005412300582975149,0.00289603928104043,0.0,0.0,0.0,-0.0,-0.0,-0.0,0.0,0.0,0.0,-0.20000000298023224,-0.20000000298023224,-0.10000000149011612,1495.0,1495.0,1495.0,1495.0,0.0,0.0,0.0,0.0,0.0,0.0,0.0,0.0,1495.0,1495.0,1495.0,1495.0,1.711264729499817,0.0,0.0,0.0,0.0,0.0,0.0
789,5,0.0,0.0,0.0,0.0,-0.0,-0.0,0.09454816579818726,0.4353938400745392,-0.013895038515329361,0.0022824255283921957,0.0044402144849300385,-0.002267681760713458,0.0,0.0,0.0,-0.0,-0.0,-0.0,0.0,0.0,0.0,-0.20000000298023224,-0.20000000298023224,-0.10000000149011612,1495.0,1495.0,1495.0,1495.0,0.0,0.0,0.0,0.0,0.0,0.0,0.0,0.0,1495.0,1495.0,1495.0,1495.0,1.7111421823501587,0.0,0.0,0.0,0.0,0.0,0.0
794,5,0.0,0.0,0.0,0.0,-0.0,-0.0,0.09454816579818726,0.4353938400745392,-0.013895038515329361,0.0022824255283921957,0.0044402144849300385,-0.002267681760713458,0.0,0.0,0.0,-0.0,-0.0,-0.0,0.0,0.0,0.0,-0.20000000298023224,-0.20000000298023224,-0.10000000149011612,1495.0,1495.0,1495.0,1495.0,0.0,0.0,0.0,0.0,0.0,0.0,0.0,0.0,1495.0,1495.0,1495.0,1495.0,1.7111421823501587,0.0,0.0,0.0,0.0,0.0,0.0
799,5,0.0,0.0,0.0,0.0,-0.0,-0.0,0.09452831745147705,0.4353545606136322,-0.013888316228985786,-0.000736416841391474,0.0016470502596348524,0.006702668499201536,0.0,0.0,0.0,-0.0,-0.0,-0.0,0.0,0.0,0.0,-0.20000000298023224,-0.20000000298023224,-0.10000000149011612,1495.0,1495.0,1495.0,1495.0,0.0,0.0,0.0,0.0,0.0,0.0,0.0,0.0,1495.0,1495.0,1495.0,1495.0,1.7109228372573853,0.0,0.0,0.0,0.0,0.0,0.0
