timestamp,dt,pos_x,pos_y,pos_z,vel_x,vel_y,vel_z,roll,pitch,yaw,agv_x,agv_y,agv_z,x_ref,y_ref,z_ref,roll_ref,pitch_ref,yaw_ref,x_vel_ref,y_vel_ref,z_vel_ref,x_torque,y_torque,z_torque,w0,w1,w2,w3,u0,u1,u2,u3,m0req,m1req,m2req,m3req,thrust0,thrust1,thrust2,thrust3,thrust_ref,roll_vicon,pitch_vicon,yaw_vicon,acc_x,acc_y,acc_z
5,5,0.0,0.0,0.0,-0.0005925056175328791,-0.001771812210790813,-0.020983221009373665,0.05639501288533211,-0.02087232656776905,-0.0007237825775519013,0.003379202913492918,0.0018279515206813812,0.0008951895870268345,0.0,0.0,0.0,0.0021794300992041826,-0.000560628017410636,-0.0,0.0,0.0,0.0,-0.01699351705610752,0.006214475259184837,2.054928700090386e-05,1495.0,1495.0,1495.0,1495.0,0.0,0.0,0.0,0.0,0.0,0.0,0.0,0.0,1495.0,1495.0,1495.0,1495.0,1.6447430849075317,0.028560566487352175,-0.1981350786283934,3.1093142041309516,0.002221896080300212,0.006644295994192362,0.0
27,22,0.0,0.0,0.0,0.006067776586860418,0.006537043023854494,0.01975126564502716,0.05639501288533211,-0.02087232656776905,-0.0007237825775519013,0.003379202913492918,0.0018279515206813812,0.0008951895870268345,0.0,0.0,0.0,0.0021794300992041826,-0.000560628017410636,-0.0,0.0,0.0,0.0,-0.01699351705610752,0.006214475259184837,2.054928700090386e-05,1495.0,1495.0,1495.0,1495.0,0.0,0.0,0.0,0.0,0.0,0.0,0.0,0.0,1495.0,1495.0,1495.0,1495.0,1.6447430849075317,0.03112263595215671,-0.20466313303313127,3.111632950900368,0.002221896080300212,0.006644295994192362,0.0
32,5,0.0,0.0,0.0,0.004007208626717329,0.0050900778733193874,0.022453779354691505,0.05638892576098442,-0.020897692069411278,-0.0007517921039834619,-0.0006587899988517165,-0.003890453837811947,0.0015065339393913746,0.0,0.0,0.0,0.0021794300992041826,-0.000560628017410636,-0.0,0.0,0.0,0.0,-0.016291838139295578,0.00597549881786108,-0.00011358229676261544,1495.0,1495.0,1495.0,1495.0,0.0,0.0,0.0,0.0,0.0,0.0,0.0,0.0,1495.0,1495.0,1495.0,1495.0,1.6447430849075317,0.03344582390381334,-0.20647150969811748,3.1123471190428775,0.002221896080300212,0.006644295994192362,0.0
37,5,0.0,0.0,0.0,-0.0033952987287193537,-0.005357271991670132,-0.01894034445285797,0.05638892576098442,-0.020897692069411278,-0.0007517921039834619,-0.0006587899988517165,-0.003890453837811947,0.0015065339393913746,0.0,0.0,0.0,-0.006088891066610813,0.0036873684730380774,-0.0,0.0,0.0,0.0,-0.016291838139295578,0.00597549881786108,-0.00011358229676261544,1495.0,1495.0,1495.0,1495.0,0.0,0.0,0.0,0.0,0.0,0.0,0.0,0.0,1495.0,1495.0,1495.0,1495.0,1.6912733316421509,0.031048208530983466,-0.2016121581546899,3.109827749454208,-0.015027032233774662,-0.019087791442871094,0.0
42,5,0.0,0.0,0.0,-0.0033952987287193537,-0.005357271991670132,-0.01894034445285797,0.05638892576098442,-0.020897692069411278,-0.0007517921039834619,-0.0006587899988517165,-0.003890453837811947,0.0015065339393913746,0.0,0.0,0.0,-0.006088891066610813,0.0036873684730380774,-0.0,0.0,0.0,0.0,-0.016291838139295578,0.00597549881786108,-0.00011358229676261544,1495.0,1495.0,1495.0,1495.0,0.0,0.0,0.0,0.0,0.0,0.0,0.0,0.0,1495.0,1495.0,1495.0,1495.0,1.6912733316421509,0.031048208530983466,-0.2016121581546899,3.109827749454208,-0.015027032233774662,-0.019087791442871094,0.0
48,5,0.0,0.0,0.0,0.0015299278311431408,0.008716658689081669,0.0289711095392704,0.056403748691082,-0.020841330289840698,-0.0007475997554138303,-0.0005162025336176157,-0.0019069751724600792,-0.0023857804480940104,0.0,0.0,0.0,0.006413679104298353,-0.0031268165912479162,-0.0,0.0,0.0,0.0,-0.01630239747464657,0.006099413614720106,-0.00012345162394922227,14973.0,14264.0,11886.0,12949.0,0.5061475038528442,0.45684343576431274,0.3097572922706604,0.37199491262435913,0.0,0.0,0.0,0.0,1495.0,1495.0,1495.0,1495.0,1.6899139881134033,0.03053980392203509,-0.20532056975221394,3.1109041481525144,0.01273236982524395,0.02008976973593235,0.0
53,5,0.0,0.0,0.0,-0.002161528216674924,-0.008066465146839619,-0.022237619385123253,0.05641249567270279,-0.020824294537305832,-0.0007551132002845407,0.0025583691895008087,0.002816869644448161,-0.001410241355188191,0.0,0.0,0.0,0.009543558582663536,-0.0019672189373522997,-0.0,0.0,0.0,0.0,-0.016261950135231018,0.006196686066687107,-7.337575516430661e-05,14973.0,14255.0,11891.0,12953.0,0.5061809420585632,0.45621222257614136,0.3100787401199341,0.37227118015289307,0.0,0.0,0.0,0.0,14996.0,14238.0,11915.0,12923.0,1.710045337677002,0.030323174788181872,-0.19821744918460713,3.109310059889683,0.008105730637907982,0.03024924360215664,0.0
60,8,5.9990998124703765e-05,-0.00011169014760525897,-0.00031629399745725095,0.003955493681132793,0.0022098864428699017,0.01674903742969036,0.05641249567270279,-0.020824294537305832,-0.0007551132002845407,0.0025583691895008087,0.002816869644448161,-0.001410241355188191,0.0,0.0,0.0,0.009543558582663536,-0.0019672189373522997,-0.0,0.0,0.0,0.0,-0.016261950135231018,0.006196686066687107,-7.337575516430661e-05,14973.0,14255.0,11891.0,12953.0,0.5061809420585632,0.45621222257614136,0.3100787401199341,0.37227118015289307,0.0,0.0,0.0,0.0,14996.0,14238.0,11915.0,12923.0,1.710045337677002,0.03352758576488061,-0.20582776326074553,3.112108699671618,0.008105730637907982,0.03024924360215664,0.0
66,5,-2.543882601457881e-06,-8.824744145385921e-05,-0.00013888128160033375,-0.005921988282352686,-0.0019291698699817061,-0.01458991039544344,0.05641530454158783,-0.020853273570537567,-0.0007722264272160828,-0.0015019843121990561,0.0023977947421371937,-0.0020416625775396824,0.0,0.0,0.0,0.0021564438939094543,-0.005461961962282658,-0.0,0.0,0.0,0.0,-0.01502443477511406,0.005329500883817673,-0.00011148547491757199,15007.0,14396.0,12247.0,13163.0,0.508585512638092,0.4658431112766266,0.33026084303855896,0.3852245509624481,0.0,0.0,0.0,0.0,14948.0,14284.0,11873.0,12967.0,1.6883991956710815,0.02920882613435753,-0.20328508054984953,3.11022951490762,0.022221457213163376,0.006748717278242111,0.0
72,6,4.201396586722694e-05,-0.00011392682790756226,-0.0002742134383879602,0.0029781467746943235,0.0023098578676581383,0.010403895750641823,0.05641530454158783,-0.020853273570537567,-0.0007722264272160828,-0.0015019843121990561,0.0023977947421371937,-0.0020416625775396824,0.0,0.0,0.0,0.0021564438939094543,-0.005461961962282658,-0.0,0.0,0.0,0.0,-0.01502443477511406,0.005329500883817673,-0.00011148547491757199,15007.0,14396.0,12247.0,13163.0,0.508585512638092,0.4658431112766266,0.33026084303855896,0.3852245509624481,0.0,0.0,0.0,0.0,14948.0,14284.0,11873.0,12967.0,1.6883991956710815,0.029635883986268825,-0.20587870392209992,3.1112058077116482,0.022221457213163376,0.006748717278242111,0.0
77,5,5.729199074266944e-06,-9.695254993857816e-05,-0.00022266307496465743,-0.003162913490086794,-0.001112969359382987,-0.0020244859624654055,0.05641530454158783,-0.020853273570537567,-0.0007722264272160828,-0.0015019843121990561,0.0023977947421371937,-0.0020416625775396824,0.0,0.0,0.0,-0.0030090061482042074,0.002840378787368536,-0.0,0.0,0.0,0.0,-0.01502443477511406,0.005329500883817673,-0.00011148547491757199,15007.0,14396.0,12247.0,13163.0,0.508585512638092,0.4658431112766266,0.33026084303855896,0.3852245509624481,0.0,0.0,0.0,0.0,14948.0,14284.0,11873.0,12967.0,1.6655253171920776,0.029163214053371946,-0.20506875655737133,3.110605973968265,-0.011399265378713608,-0.009289272129535675,0.0
82,5,5.729199074266944e-06,-9.695254993857816e-05,-0.00022266307496465743,-0.003162913490086794,-0.001112969359382987,-0.0020244859624654055,0.05640236288309097,-0.020833216607570648,-0.0007809862727299333,0.0018390597542747855,-0.0017787960823625326,0.0028593025635927916,0.0,0.0,0.0,-0.0030090061482042074,0.002840378787368536,-0.0,0.0,0.0,0.0,-0.014098377898335457,0.005536099895834923,-3.617820766521618e-05,15070.0,14363.0,12428.0,13281.0,0.513093888759613,0.46355485916137695,0.34081971645355225,0.3925768733024597,0.0,0.0,0.0,0.0,14997.0,14401.0,12249.0,13167.0,1.6655253171920776,0.029163214053371946,-0.20506875655737133,3.110605973968265,-0.011399265378713608,-0.009289272129535675,0.0
87,5,-2.8691658826573985e-07,-0.00011064067075494677,-0.0001848160318331793,-0.0023338021710515022,0.004564016591757536,0.009873307310044765,0.05640236288309097,-0.020833216607570648,-0.0007809862727299333,0.0018390597542747855,-0.0017787960823625326,0.0028593025635927916,0.0,0.0,0.0,0.0011833246098831296,-0.002958660013973713,-0.0,0.0,0.0,0.0,-0.014098377898335457,0.005536099895834923,-3.617820766521618e-05,15070.0,14363.0,12428.0,13281.0,0.513093888759613,0.46355485916137695,0.34081971645355225,0.3925768733024597,0.0,0.0,0.0,0.0,14997.0,14401.0,12249.0,13167.0,1.6592485904693604,0.027214096816980532,-0.20421929776583056,3.1104518211855456,0.011829257011413574,0.003639349015429616,0.0
92,5,4.989715671399608e-05,-0.00012375613732729107,-0.00022214661294128746,0.0050885677337646484,0.003399462904781103,0.00842899177223444,0.056406714022159576,-0.020846594125032425,-0.000763353134971112,-0.0018500502919778228,-0.0013736221008002758,-0.0006220798823051155,0.0,0.0,0.0,0.0011833246098831296,-0.002958660013973713,-0.0,0.0,0.0,0.0,-0.01790090650320053,0.007011178880929947,-3.502043546177447e-05,15046.0,14504.0,12225.0,12994.0,0.511397659778595,0.4732312262058258,0.329027384519577,0.37474295496940613,0.0,0.0,0.0,0.0,15060.0,14497.0,12242.0,12969.0,1.6592485904693604,0.030136908475265147,-0.20371748330240697,3.1116578240785358,0.011829257011413574,0.003639349015429616,0.0
97,5,2.4147417207132094e-05,-0.00011566107423277572,-0.00019198878726456314,-0.001054541440680623,0.0003883769386447966,-0.00024734262842684984,0.056406714022159576,-0.020846594125032425,-0.000763353134971112,-0.0018500502919778228,-0.0013736221008002758,-0.0006220798823051155,0.0,0.0,0.0,0.0011833246098831296,-0.002958660013973713,-0.0,0.0,0.0,0.0,-0.01790090650320053,0.007011178880929947,-3.502043546177447e-05,15046.0,14504.0,12225.0,12994.0,0.511397659778595,0.4732312262058258,0.329027384519577,0.37474295496940613,0.0,0.0,0.0,0.0,15060.0,14497.0,12242.0,12969.0,1.6592485904693604,0.029119123545020324,-0.2036380273308151,3.110856717799477,0.011829257011413574,0.003639349015429616,0.0
102,5,2.6847106710192747e-05,-7.05541533534415e-05,-0.000240466179093346,-9.785395377548411e-05,-0.0052574798464775085,0.005718350410461426,0.05642794445157051,-0.02080054208636284,-0.0007527500856667757,0.0008272378472611308,-0.004537431988865137,0.0022480718325823545,0.0,0.0,0.0,-0.0006898721912875772,-0.000968455511610955,-0.0,0.0,0.0,0.0,-0.01660006120800972,0.005445300601422787,6.810652848798782e-05,15230.0,14346.0,11830.0,12946.0,0.5246306657791138,0.46242234110832214,0.3066740930080414,0.37179824709892273,0.0,0.0,0.0,0.0,15243.0,14332.0,11845.0,12932.0,1.637569785118103,0.0324806474362988,-0.20342693142600196,3.111004670811324,0.0038214768283069134,-0.0020940012764185667,0.0
107,5,3.514629861456342e-05,-2.241804395453073e-05,-9.545568173052743e-05,0.0009567613014951348,-0.007879325188696384,-0.015113919973373413,0.05642794445157051,-0.02080054208636284,-0.0007527500856667757,0.0008272378472611308,-0.004537431988865137,0.0022480718325823545,0.0,0.0,0.0,-0.0006898721912875772,-0.000968455511610955,-0.0,0.0,0.0,0.0,-0.01660006120800972,0.005445300601422787,6.810652848798782e-05,15230.0,14346.0,11830.0,12946.0,0.5246306657791138,0.46242234110832214,0.3066740930080414,0.37179824709892273,0.0,0.0,0.0,0.0,15243.0,14332.0,11845.0,12932.0,1.637569785118103,0.03126956143782964,-0.2007853779301164,3.1095272738379447,0.0038214768283069134,-0.0020940012764185667,0.0
112,5,2.567396040831227e-05,-8.500148396706209e-05,-0.0002385575498919934,-0.0007539759390056133,0.004358282312750816,0.011126657016575336,0.05641946196556091,-0.020803144201636314,-0.0007178829400800169,-0.001113062142394483,0.0010788071667775512,0.005456945393234491,0.0,0.0,0.0,0.009306725114583969,0.0009201240027323365,-0.0,0.0,0.0,0.0,-0.017229704186320305,0.005975713022053242,-5.1307706598890945e-06,15067.0,14309.0,12074.0,12852.0,0.5129129886627197,0.4598778188228607,0.3203882873058319,0.3660695254802704,0.0,0.0,0.0,0.0,15047.0,14337.0,12048.0,12870.0,1.7056409120559692,0.031203019345846867,-0.20398142005710646,3.1109410038440846,-0.0037815251853317022,0.029422640800476074,0.0
117,5,2.21508635149803e-05,-0.00010883768845815212,-0.00024843780556693673,-0.000724361976608634,0.004603658337146044,0.005636293441057205,0.05641946196556091,-0.020803144201636314,-0.0007178829400800169,-0.001113062142394483,0.0010788071667775512,0.005456945393234491,0.0,0.0,0.0,0.009306725114583969,0.0009201240027323365,-0.0,0.0,0.0,0.0,-0.017229704186320305,0.005975713022053242,-5.1307706598890945e-06,15067.0,14309.0,12074.0,12852.0,0.5129129886627197,0.4598778188228607,0.3203882873058319,0.3660695254802704,0.0,0.0,0.0,0.0,15047.0,14337.0,12048.0,12870.0,1.7056409120559692,0.03097966176947764,-0.2041237112370283,3.111140649653121,-0.0037815251853317022,0.029422640800476074,0.0
122,5,7.880543307692278e-06,-7.355288107646629e-05,-0.00015804797294549644,-0.0020021831151098013,-0.0023927134461700916,-0.008592262864112854,0.056400179862976074,-0.02079736813902855,-0.0006657183985225856,-0.0022331462241709232,0.00015198778419289738,-0.0014141630381345749,0.0,0.0,0.0,-0.005755538586527109,-0.0006429025088436902,-0.0,0.0,0.0,0.0,-0.01416164729744196,0.006510342471301556,-3.234932592022233e-05,15102.0,14304.0,12310.0,13347.0,0.5154175758361816,0.45955461263656616,0.3339022397994995,0.3967664837837219,0.0,0.0,0.0,0.0,15020.0,14273.0,11834.0,12813.0,1.6745352745056152,0.02988362399802666,-0.20277779728611878,3.1100500971474614,0.0025940844789147377,-0.01786423660814762,0.0
128,5,-1.9497003449941985e-05,-6.391022179741412e-05,-0.00010999479127349332,-0.004086178727447987,-0.0021142051555216312,-0.009203287772834301,0.056400179862976074,-0.02079736813902855,-0.0006657183985225856,-0.0022331462241709232,0.00015198778419289738,-0.0014141630381345749,0.0,0.0,0.0,-0.005755538586527109,-0.0006429025088436902,-0.0,0.0,0.0,0.0,-0.01416164729744196,0.006510342471301556,-3.234932592022233e-05,15102.0,14304.0,12310.0,13347.0,0.5154175758361816,0.45955461263656616,0.3339022397994995,0.3967664837837219,0.0,0.0,0.0,0.0,15020.0,14273.0,11834.0,12813.0,1.6745352745056152,0.02891688331106249,-0.2016974273552944,3.1093976502936247,0.0025940844789147377,-0.01786423660814762,0.0
133,5,9.447668162465561e-06,-9.471325029153377e-05,-0.00020132951613049954,0.0018388890894129872,0.0028506817761808634,0.007278853096067905,0.05640128627419472,-0.020763326436281204,-0.0006914311088621616,-0.0024538293946534395,-0.00714828260242939,-0.004374610725790262,0.0,0.0,0.0,0.002443786943331361,-0.0038293669931590557,-0.0,0.0,0.0,0.0,-0.018749918788671494,0.005942042917013168,-0.00010829412349266931,15197.0,14549.0,11841.0,12894.0,0.5222917795181274,0.47634392976760864,0.30725234746932983,0.3686472177505493,0.0,0.0,0.0,0.0,15083.0,14330.0,12275.0,13374.0,1.6722075939178467,0.030765268968044768,-0.2033463678649159,3.110731077205472,0.015430028550326824,0.007574628107249737,0.0
138,5,1.4153051779430825e-06,-3.0155757485772483e-05,-8.503378921886906e-05,-0.0002283279609400779,-0.006606626324355602,-0.011043946258723736,0.05640128627419472,-0.020763326436281204,-0.0006914311088621616,-0.0024538293946534395,-0.00714828260242939,-0.004374610725790262,0.0,0.0,0.0,0.002443786943331361,-0.0038293669931590557,-0.0,0.0,0.0,0.0,-0.018749918788671494,0.005942042917013168,-0.00010829412349266931,15197.0,14549.0,11841.0,12894.0,0.5222917795181274,0.47634392976760864,0.30725234746932983,0.3686472177505493,0.0,0.0,0.0,0.0,15083.0,14330.0,12275.0,13374.0,1.6722075939178467,0.03158924570080012,-0.1995733192000372,3.1095746513249454,0.015430028550326824,0.007574628107249737,0.0
143,5,-2.5462884877924807e-05,-2.1821650079800747e-05,1.4958116480556782e-05,-0.0033167139627039433,-0.0036427436862140894,-0.016416607424616814,0.05640128627419472,-0.020763326436281204,-0.0006914311088621616,-0.0024538293946534395,-0.00714828260242939,-0.004374610725790262,0.0,0.0,0.0,0.007845350541174412,-0.00020799337653443217,-0.0,0.0,0.0,0.0,-0.016303256154060364,0.005116548854857683,-0.00012220829376019537,15013.0,14426.0,12097.0,12976.0,0.5090225338935852,0.4678575396537781,0.321693480014801,0.3736340403556824,0.0,0.0,0.0,0.0,15205.0,14543.0,11840.0,12893.0,1.6921601295471191,0.03090205666748397,-0.1972057753366041,3.1089504756648356,0.0008480657124891877,0.024606751278042793,0.0
148,5,4.620786421583034e-05,-9.710864833323285e-05,-0.0002647724759299308,0.007273804396390915,0.007577341981232166,0.02700102888047695,0.05640128627419472,-0.020763326436281204,-0.0006914311088621616,-0.0024538293946534395,-0.00714828260242939,-0.004374610725790262,0.0,0.0,0.0,0.007845350541174412,-0.00020799337653443217,-0.0,0.0,0.0,0.0,-0.016303256154060364,0.005116548854857683,-0.00012220829376019537,15013.0,14426.0,12097.0,12976.0,0.5090225338935852,0.4678575396537781,0.321693480014801,0.3736340403556824,0.0,0.0,0.0,0.0,15205.0,14543.0,11840.0,12893.0,1.6921601295471191,0.03284473708978901,-0.20399611707871176,3.1116034609710685,0.0008480657124891877,0.024606751278042793,0.0
153,5,1.7338247744191904e-06,-6.501613825093955e-05,-5.6222059356514364e-05,-0.002427363069728017,-0.000820163928437978,-0.014225638471543789,0.056444521993398666,-0.020737946033477783,-0.0007967251585796475,0.004767783917486668,-0.0031574915628880262,-0.02516605332493782,0.0,0.0,0.0,-0.009013256058096886,0.006593307480216026,-0.0,0.0,0.0,0.0,-0.014856294728815556,0.006034771911799908,-0.00038913346361368895,14890.0,14511.0,12019.0,13412.0,0.5002386569976807,0.473757266998291,0.3172534108161926,0.40091079473495483,0.0,0.0,0.0,0.0,15027.0,14412.0,12106.0,12966.0,1.7329844236373901,0.0302794840384031,-0.19929225546145304,3.1097752962333054,-0.027531450614333153,-0.02895171009004116,0.0
158,5,2.669355490070302e-05,-7.923279190436006e-05,-0.00022953901498112828,0.0020242223981767893,0.0013779331929981709,0.015107778832316399,0.056444521993398666,-0.020737946033477783,-0.0007967251585796475,0.004767783917486668,-0.0031574915628880262,-0.02516605332493782,0.0,0.0,0.0,-0.009013256058096886,0.006593307480216026,-0.0,0.0,0.0,0.0,-0.014856294728815556,0.006034771911799908,-0.00038913346361368895,14890.0,14511.0,12019.0,13412.0,0.5002386569976807,0.473757266998291,0.3172534108161926,0.40091079473495483,0.0,0.0,0.0,0.0,15027.0,14412.0,12106.0,12966.0,1.7329844236373901,0.03131253926619821,-0.20336324550712587,3.111248339887878,-0.027531450614333153,-0.02895171009004116,0.0
163,5,1.884824814624153e-05,-0.0001440678461221978,-0.00022888042440172285,-0.00013174788909964263,0.008331379853188992,0.005964080803096294,0.05638720840215683,-0.02069815993309021,-0.0005167422932572663,-0.002810399979352951,-0.013002105988562107,0.04306850954890251,0.0,0.0,0.0,-0.0018311422318220139,0.001944372896105051,-0.0,0.0,0.0,0.0,-0.019693462178111076,0.007850352674722672,0.0018447826150804758,16146.0,14062.0,12615.0,12493.0,0.5933052897453308,0.4432108402252197,0.35186275839805603,0.344605416059494,0.0,0.0,0.0,0.0,14904.0,14469.0,12034.0,13430.0,1.6516355276107788,0.030221983585337044,-0.20401056489937197,3.111906599544406,-0.007738283835351467,-0.005605887621641159,0.0
168,5,3.304294659756124e-05,-0.0001284142053918913,-0.00026223904569633305,0.001650664722546935,0.001454113982617855,0.006388667970895767,0.05638720840215683,-0.02069815993309021,-0.0005167422932572663,-0.002810399979352951,-0.013002105988562107,0.04306850954890251,0.0,0.0,0.0,-0.0018311422318220139,0.001944372896105051,-0.0,0.0,0.0,0.0,-0.019693462178111076,0.007850352674722672,0.0018447826150804758,16146.0,14062.0,12615.0,12493.0,0.5933052897453308,0.4432108402252197,0.35186275839805603,0.344605416059494,0.0,0.0,0.0,0.0,14904.0,14469.0,12034.0,13430.0,1.6516355276107788,0.029776557725236966,-0.20529274125609104,3.1111074815406687,-0.007738283835351467,-0.005605887621641159,0.0
173,5,-2.4899462005123496e-05,-8.437114593107253e-05,-0.0001874052541097626,-0.006292823236435652,-0.00470352079719305,-0.006424588616937399,0.05636945739388466,-0.020809071138501167,-0.0009736011852510273,0.026631444692611694,-0.0015086986823007464,0.09234434366226196,0.0,0.0,0.0,-0.0020152388606220484,0.0016030030092224479,-0.0,0.0,0.0,0.0,-0.017786595970392227,0.0072565325535833836,-0.0015081643359735608,15307.0,14169.0,11907.0,12752.0,0.5302665829658508,0.4503841996192932,0.3109318017959595,0.3600528836250305,0.0,0.0,0.0,0.0,15338.0,14919.0,11533.0,13520.0,1.6497695446014404,0.028129634232110488,-0.2051913280599986,3.1096822939940902,-0.006372479721903801,-0.006162512581795454,0.0
179,5,-2.9684719265787862e-05,-3.409116061448003e-06,-6.964974454604089e-05,-0.0030913602095097303,-0.011596851982176304,-0.016700496897101402,0.05636945739388466,-0.020809071138501167,-0.0009736011852510273,0.026631444692611694,-0.0015086986823007464,0.09234434366226196,0.0,0.0,0.0,-0.0020152388606220484,0.0016030030092224479,-0.0,0.0,0.0,0.0,-0.017786595970392227,0.0072565325535833836,-0.0015081643359735608,15307.0,14169.0,11907.0,12752.0,0.5302665829658508,0.4503841996192932,0.3109318017959595,0.3600528836250305,0.0,0.0,0.0,0.0,15338.0,14919.0,11533.0,13520.0,1.6497695446014404,0.03353973234986659,-0.19927371102926925,3.109132347964616,-0.006372479721903801,-0.006162512581795454,0.0
184,5,2.310044874320738e-05,-0.0001268111082026735,-0.00026670179795473814,0.005097676068544388,0.01016949862241745,0.016966046765446663,0.05636945739388466,-0.020809071138501167,-0.0009736011852510273,0.026631444692611694,-0.0015086986823007464,0.09234434366226196,0.0,0.0,0.0,0.013428007252514362,-0.002793598920106888,-0.0,0.0,0.0,0.0,-0.017786595970392227,0.0072565325535833836,-0.0015081643359735608,15307.0,14169.0,11907.0,12752.0,0.5302665829658508,0.4503841996192932,0.3109318017959595,0.3600528836250305,0.0,0.0,0.0,0.0,15338.0,14919.0,11533.0,13520.0,1.7464433908462524,0.030947350548529623,-0.20496956754434154,3.1104694189941666,0.011755219660699368,0.043466124683618546,0.0
189,5,-1.6384261471102946e-05,-9.300636884290725e-05,-0.00019780779257416725,-0.0026990948244929314,1.1230356903979555e-05,-0.0014808601699769497,0.056359995156526566,-0.020649243146181107,-0.0005631710519082844,-0.012911079451441765,0.02521151304244995,-0.2034829556941986,0.0,0.0,0.0,0.013428007252514362,-0.002793598920106888,-0.0,0.0,0.0,0.0,-0.0171677079051733,0.006924976594746113,-0.00435559032484889,13222.0,16045.0,9125.0,14922.0,0.3889312446117401,0.5855334997177124,0.17461422085762024,0.502556562423706,0.0,0.0,0.0,0.0,16456.0,12815.0,13431.0,11115.0,1.7464433908462524,0.02972941751291827,-0.2036214447800835,3.1105197135221734,0.011755219660699368,0.043466124683618546,0.0
194,5,-5.053673157817684e-05,-2.196556124545168e-05,-3.529114474076778e-05,-0.005177934188395739,-0.008520404808223248,-0.020094342529773712,0.056359995156526566,-0.020649243146181107,-0.0005631710519082844,-0.012911079451441765,0.02521151304244995,-0.2034829556941986,0.0,0.0,0.0,-0.00018183825886808336,-0.0025629037991166115,-0.0,0.0,0.0,0.0,-0.0171677079051733,0.006924976594746113,-0.00435559032484889,13222.0,16045.0,9125.0,14922.0,0.3889312446117401,0.5855334997177124,0.17461422085762024,0.502556562423706,0.0,0.0,0.0,0.0,16456.0,12815.0,13431.0,11115.0,1.6534461975097656,0.031553453951982384,-0.19803967984171875,3.1087961143232636,0.010211129672825336,-0.0005572933587245643,0.0
199,5,-1.777619036147371e-05,-1.754668846842833e-05,-0.00011803217785200104,0.001860090997070074,-0.0039384267292916775,0.001891187159344554,0.0565798357129097,-0.020832736045122147,-0.0005099308909848332,-0.019627390429377556,-0.02101786993443966,-0.034091684967279434,0.0,0.0,0.0,-0.00018183825886808336,-0.0025629037991166115,-0.0,0.0,0.0,0.0,-0.01793893240392208,0.006351742427796125,0.002386736450716853,15360.0,14056.0,12165.0,12538.0,0.5341550707817078,0.4428054988384247,0.32554706931114197,0.3472619354724884,0.0,0.0,0.0,0.0,13701.0,15685.0,9655.0,14521.0,1.6534461975097656,0.03252807518684261,-0.1991933230252222,3.109133436223679,0.010211129672825336,-0.0005572933587245643,0.0
204,5,-2.9829358027200215e-05,-5.177813000045717e-05,-0.00010601686517475173,-0.0007023435900919139,0.0025324022863060236,-0.0006853630766272545,0.0565798357129097,-0.020832736045122147,-0.0005099308909848332,-0.019627390429377556,-0.02101786993443966,-0.034091684967279434,0.0,0.0,0.0,0.004740129690617323,0.001709701376967132,-0.0,0.0,0.0,0.0,-0.01793893240392208,0.006351742427796125,0.002386736450716853,15360.0,14056.0,12165.0,12538.0,0.5341550707817078,0.4428054988384247,0.32554706931114197,0.3472619354724884,0.0,0.0,0.0,0.0,13701.0,15685.0,9655.0,14521.0,1.6695574522018433,0.031171871072924656,-0.1991565623062565,3.1096154535059517,-0.006878099404275417,0.014668887481093407,0.0
209,5,2.825936462613754e-05,-0.00010911928984569386,-0.00023799377959221601,0.006689709145575762,0.007893900386989117,0.015563084743916988,0.0566214919090271,-0.020895224064588547,-0.0007273142109625041,0.015794895589351654,0.0033237896859645844,0.030123522505164146,0.0,0.0,0.0,0.004740129690617323,0.001709701376967132,-0.0,0.0,0.0,0.0,-0.013448185287415981,0.005779384169727564,0.0008561607683077455,15568.0,14010.0,13104.0,13008.0,0.5494980216026306,0.4397711455821991,0.3815741240978241,0.37560006976127625,0.0,0.0,0.0,0.0,14200.0,15313.0,11601.0,14445.0,1.6695574522018433,0.030530249585400036,-0.20387064511771874,3.1108730544930636,-0.006878099404275417,0.014668887481093407,0.0
214,5,-2.9064078262308612e-05,7.788450602674857e-06,-2.112980291713029e-05,-0.004202929325401783,-0.010871369391679764,-0.019798442721366882,0.0566214919090271,-0.020895224064588547,-0.0007273142109625041,0.015794895589351654,0.0033237896859645844,0.030123522505164146,0.0,0.0,0.0,-0.009412314742803574,0.006050573196262121,-0.0,0.0,0.0,0.0,-0.013448185287415981,0.005779384169727564,0.0008561607683077455,15568.0,14010.0,13104.0,13008.0,0.5494980216026306,0.4397711455821991,0.3815741240978241,0.37560006976127625,0.0,0.0,0.0,0.0,14200.0,15313.0,11601.0,14445.0,1.731431007385254,0.03209276180988545,-0.19741007245764383,3.108515488744651,-0.025242462754249573,-0.03020637109875679,0.0
219,5,1.13480091386009e-05,-0.00016376152052544057,-0.00031153191230259836,0.00316827860660851,0.016237448900938034,0.026928875595331192,0.05656164139509201,-0.020959265530109406,-0.0007530927541665733,-0.015782741829752922,0.005835845600813627,0.017725776880979538,0.0,0.0,0.0,-0.009412314742803574,0.006050573196262121,-0.0,0.0,0.0,0.0,-0.016968367621302605,0.0058190482668578625,-0.0002974574454128742,15101.0,14278.0,11998.0,12822.0,0.5153327584266663,0.45777764916419983,0.3160838186740875,0.3642519414424896,0.0,0.0,0.0,0.0,15130.0,14299.0,12008.0,12754.0,1.731431007385254,0.02951174750967669,-0.20775819805236823,3.111469064975034,-0.025242462754249573,-0.03020637109875679,0.0
224,5,5.7894601923180744e-05,-0.00018430364434607327,-0.00035485535045154393,0.0068529024720191956,0.008960035629570484,0.015970362350344658,0.05656164139509201,-0.020959265530109406,-0.0007530927541665733,-0.015782741829752922,0.005835845600813627,0.017725776880979538,0.0,0.0,0.0,-0.018590398132801056,0.0027642096392810345,-0.0,0.0,0.0,0.0,-0.016968367621302605,0.0058190482668578625,-0.0002974574454128742,15101.0,14278.0,11998.0,12822.0,0.5153327584266663,0.45777764916419983,0.3160838186740875,0.3642519414424896,0.0,0.0,0.0,0.0,15130.0,14299.0,12008.0,12754.0,1.7935234308242798,0.031799075448395095,-0.2087438738672461,3.1126798217139893,-0.011944124475121498,-0.061795782297849655,0.0
230,5,2.6594743758323602e-05,-0.00019717146642506123,-0.00024858087999746203,-0.001014821813441813,0.005128153134137392,-0.006364790722727776,0.056524988263845444,-0.02088545821607113,-0.0008929678588174284,-0.00016295260866172612,0.020240843296051025,-0.005391285289078951,0.0,0.0,0.0,-0.018590398132801056,0.0027642096392810345,-0.0,0.0,0.0,0.0,-0.01577853225171566,0.006760929245501757,-0.0006547525990754366,14978.0,14375.0,11814.0,13286.0,0.5065240263938904,0.46435272693634033,0.3057464361190796,0.39293426275253296,0.0,0.0,0.0,0.0,15130.0,14246.0,12123.0,12705.0,1.7935234308242798,0.029708153165711983,-0.20759268490441246,3.1122470556906463,-0.011944124475121498,-0.061795782297849655,0.0
235,5,1.2438424164429307e-05,-0.00014782017387915403,-0.00024972809478640556,-0.002104687038809061,-0.003870895365253091,-0.0024082509335130453,0.056524988263845444,-0.02088545821607113,-0.0008929678588174284,-0.00016295260866172612,0.020240843296051025,-0.005391285289078951,0.0,0.0,0.0,-0.006519737187772989,-0.0009029590291902423,-0.0,0.0,0.0,0.0,-0.01577853225171566,0.006760929245501757,-0.0006547525990754366,14978.0,14375.0,11814.0,13286.0,0.5065240263938904,0.46435272693634033,0.3057464361190796,0.39293426275253296,0.0,0.0,0.0,0.0,15130.0,14246.0,12123.0,12705.0,1.6815065145492554,0.03042299749317512,-0.20827339479954207,3.1115159458704276,0.003658551722764969,-0.02032036893069744,0.0
240,5,7.114912932593143e-06,-0.000161090079927817,-0.00022348576749209315,-0.0014806962572038174,4.403201455716044e-05,-0.0041123791597783566,0.056196749210357666,-0.020866187289357185,-0.0008313340949825943,-0.013310406357049942,-0.023932330310344696,-0.009026502259075642,0.0,0.0,0.0,-0.006519737187772989,-0.0009029590291902423,-0.0,0.0,0.0,0.0,-0.01945590041577816,0.007719597313553095,4.0245100535685197e-05,15564.0,14685.0,11889.0,13183.0,0.5492340922355652,0.48578375577926636,0.30994054675102234,0.3864726722240448,0.0,0.0,0.0,0.0,15722.0,14514.0,11957.0,13122.0,1.6815065145492554,0.031009782133622304,-0.20939062388454602,3.1125405693594224,0.003658551722764969,-0.02032036893069744,0.0
245,5,-3.7404995964607224e-05,-0.00016087635594885796,-0.000187703815754503,-0.005934667773544788,-8.035168320930097e-06,-0.005938786547631025,0.056196749210357666,-0.020866187289357185,-0.0008313340949825943,-0.013310406357049942,-0.023932330310344696,-0.009026502259075642,0.0,0.0,0.0,-0.00034751853672787547,-0.0013941555516794324,-0.0,0.0,0.0,0.0,-0.01945590041577816,0.007719597313553095,4.0245100535685197e-05,15564.0,14685.0,11889.0,13183.0,0.5492340922355652,0.48578375577926636,0.30994054675102234,0.3864726722240448,0.0,0.0,0.0,0.0,15722.0,14514.0,11957.0,13122.0,1.6409711837768555,0.028028680299404345,-0.2118437554964229,3.1109485869930937,0.005512694828212261,-0.001057030400261283,0.0
250,5,-5.6321769079659134e-05,-0.00015338195953518152,-0.00017661674064584076,-0.00464387983083725,-0.0009025404579006135,-0.0037059630267322063,0.05544581264257431,-0.02037520706653595,-0.0007644370780326426,-0.17269447445869446,-0.09648904204368591,0.017090609297156334,0.0,0.0,0.0,-0.00034751853672787547,-0.0013941555516794324,-0.0,0.0,0.0,0.0,-0.02042374759912491,0.004839274100959301,0.000634607917163521,15809.0,14910.0,12634.0,12938.0,0.5675802230834961,0.5016601085662842,0.3529621362686157,0.371320903301239,0.0,0.0,0.0,0.0,15376.0,14848.0,11791.0,13309.0,1.6409711837768555,0.026713184364732107,-0.21447074928069865,3.1116797397427525,0.005512694828212261,-0.001057030400261283,0.0
255,5,-0.00011597250704653561,-0.00018912553787231445,5.3643601859221235e-05,-0.006848231889307499,0.003863785183057189,-0.023814940825104713,0.05544581264257431,-0.02037520706653595,-0.0007644370780326426,-0.17269447445869446,-0.09648904204368591,0.017090609297156334,0.0,0.0,0.0,0.0008167531923390925,-0.004393556620925665,-0.0,0.0,0.0,0.0,-0.02042374759912491,0.004839274100959301,0.000634607917163521,15809.0,14910.0,12634.0,12938.0,0.5675802230834961,0.5016601085662842,0.3529621362686157,0.371320903301239,0.0,0.0,0.0,0.0,15376.0,14848.0,11791.0,13309.0,1.6741276979446411,0.024615465591087113,-0.21188442321740603,3.1128230987636085,0.017723731696605682,0.0025344742462038994,0.0
260,5,-0.00011597250704653561,-0.00018912553787231445,5.3643601859221235e-05,-0.006848231889307499,0.003863785183057189,-0.023814940825104713,0.05255718156695366,-0.019564319401979446,-0.0008089850889518857,-0.28378698229789734,-0.0748446062207222,0.00869800616055727,0.0,0.0,0.0,0.0008167531923390925,-0.004393556620925665,-0.0,0.0,0.0,0.0,-0.014030590653419495,0.004171700216829777,-0.000431230291724205,14843.0,14365.0,12417.0,13091.0,0.4969523251056671,0.46369484066963196,0.3401249349117279,0.3807344138622284,0.0,0.0,0.0,0.0,14612.0,13960.0,12577.0,12984.0,1.6741276979446411,0.024615465591087113,-0.21188442321740603,3.1128230987636085,0.017723731696605682,0.0025344742462038994,0.0
265,5,-0.00011704555072356015,-0.00021011462376918644,3.9410500903613865e-05,-0.0028680581599473953,0.004064204636961222,-0.007818004116415977,0.05255718156695366,-0.019564319401979446,-0.0008089850889518857,-0.28378698229789734,-0.0748446062207222,0.00869800616055727,0.0,0.0,0.0,-0.004907460417598486,-0.006394801661372185,-0.0,0.0,0.0,0.0,-0.014030590653419495,0.004171700216829777,-0.000431230291724205,14843.0,14365.0,12417.0,13091.0,0.4969523251056671,0.46369484066963196,0.3401249349117279,0.3807344138622284,0.0,0.0,0.0,0.0,14612.0,13960.0,12577.0,12984.0,1.7080121040344238,0.02281474852146473,-0.21581139110798878,3.113132497358895,0.026318537071347237,-0.01553649827837944,0.0
270,5,-0.00031735573429614305,-5.831279486301355e-05,0.000565220310818404,-0.014853828586637974,-0.008112330920994282,-0.03654260188341141,0.04993271082639694,-0.019102830439805984,-0.0007132332539185882,-0.3287946879863739,-0.06973561644554138,-0.0074484506621956825,0.0,0.0,0.0,-0.004907460417598486,-0.006394801661372185,-0.0,0.0,0.0,0.0,-0.00991586409509182,0.003664823481813073,3.6663299397332594e-05,14401.0,14015.0,12508.0,13227.0,0.4661414623260498,0.4401044249534607,0.3454904556274414,0.38923484086990356,0.0,0.0,0.0,0.0,14245.0,14146.0,12442.0,13318.0,1.7080121040344238,0.017777579785887447,-0.205945343704645,3.108823836782542,0.026318537071347237,-0.01553649827837944,0.0
275,5,-0.00039597501745447516,-3.717613435583189e-05,0.000600817846134305,-0.01537584513425827,-0.005781332030892372,-0.018888743594288826,0.04993271082639694,-0.019102830439805984,-0.0007132332539185882,-0.3287946879863739,-0.06973561644554138,-0.0074484506621956825,0.0,0.0,0.0,0.00902776513248682,-0.013257601298391819,-0.0,0.0,0.0,0.0,-0.00991586409509182,0.003664823481813073,3.6663299397332594e-05,14401.0,14015.0,12508.0,13227.0,0.4661414623260498,0.4401044249534607,0.3454904556274414,0.38923484086990356,0.0,0.0,0.0,0.0,14245.0,14146.0,12442.0,13318.0,1.7984166145324707,0.016413952375032546,-0.2045899294012062,3.108358096128667,0.057448241859674454,0.030093202367424965,0.0
280,5,-0.0005015063215978444,5.727796087739989e-05,0.000739098119083792,-0.018814092501997948,-0.013647024519741535,-0.024149127304553986,0.04552911967039108,-0.018327249214053154,-0.0007534168544225395,-0.39455336332321167,-0.06435323506593704,0.025746269151568413,0.0,0.0,0.0,0.00902776513248682,-0.013257601298391819,-0.0,0.0,0.0,0.0,-0.007883494719862938,0.0023641011212021112,0.00021737060160376132,14540.0,13850.0,13128.0,13179.0,0.47574231028556824,0.42916467785835266,0.3830312192440033,0.3861894905567169,0.0,0.0,0.0,0.0,14398.0,13835.0,13301.0,13178.0,1.7984166145324707,0.014930099696865113,-0.19999266023037726,3.105524199077439,0.057448241859674454,0.030093202367424965,0.0
285,5,-0.000564777001272887,7.649727922398597e-05,0.0007926258258521557,-0.015118119306862354,-0.007765127345919609,-0.01608297787606716,0.04552911967039108,-0.018327249214053154,-0.0007534168544225395,-0.39455336332321167,-0.06435323506593704,0.025746269151568413,0.0,0.0,0.0,0.00902776513248682,-0.013257601298391819,-0.0,0.0,0.0,0.0,-0.007883494719862938,0.0023641011212021112,0.00021737060160376132,14540.0,13850.0,13128.0,13179.0,0.47574231028556824,0.42916467785835266,0.3830312192440033,0.3861894905567169,0.0,0.0,0.0,0.0,14398.0,13835.0,13301.0,13178.0,1.8032177686691284,0.011414082550582521,-0.1970091725388047,3.1051726848197543,0.05980190634727478,0.029532846063375473,0.0
290,5,-0.0006608291296288371,7.959086360642686e-05,0.0007972733583301306,-0.017573505640029907,-0.003477281890809536,-0.0069908988662064075,0.04124154523015022,-0.017541714012622833,-0.0008499937248416245,-0.6010968685150146,-0.08392233401536942,-0.01763167977333069,0.0,0.0,0.0,0.00883606355637312,-0.013764030300080776,-0.0,0.0,0.0,0.0,-0.0046592773869633675,0.000794706167653203,-0.000779763562604785,13897.0,14322.0,13136.0,13884.0,0.43230360746383667,0.46074163913726807,0.383517324924469,0.4314495325088501,0.0,0.0,0.0,0.0,14012.0,14009.0,13496.0,13743.0,1.8032177686691284,0.007729132871533273,-0.19461749994898295,3.1049811737250708,0.05980190634727478,0.029532846063375473,0.0
295,5,-0.0006660615326836705,3.457838101894595e-05,0.0006195225869305432,-0.00765728997066617,0.004010585602372885,0.0185337383300066,0.04124154523015022,-0.017541714012622833,-0.0008499937248416245,-0.6010968685150146,-0.08392233401536942,-0.01763167977333069,0.0,0.0,0.0,0.00883606355637312,-0.013764030300080776,-0.0,0.0,0.0,0.0,-0.0046592773869633675,0.000794706167653203,-0.000779763562604785,13897.0,14322.0,13136.0,13884.0,0.43230360746383667,0.46074163913726807,0.383517324924469,0.4314495325088501,0.0,0.0,0.0,0.0,14012.0,14009.0,13496.0,13743.0,1.8032177686691284,0.006426060984671859,-0.1967869403784297,3.105674283544592,0.03238319233059883,-0.014856510795652866,0.0
300,5,-0.0007940576761029661,0.0001133689729613252,0.0006832943181507289,-0.018422449007630348,-0.007850637659430504,-0.00023911680909805,0.032894790172576904,-0.01650843769311905,-0.0007332881796173751,-0.7515765428543091,-0.10385990142822266,0.010078701190650463,0.0,0.0,0.0,-0.004655924625694752,-0.007806776091456413,-0.0,0.0,0.0,0.0,0.006633727345615625,-0.0014942954294383526,-0.0002311920397914946,13935.0,13904.0,14640.0,14137.0,0.4347929358482361,0.432745099067688,0.4826412796974182,0.4482372999191284,0.0,0.0,0.0,0.0,13719.0,13921.0,14575.0,14396.0,1.7214926481246948,0.00011930070004119999,-0.195978660733009,3.10404992487413,0.03238319233059883,-0.014856510795652866,0.0
306,5,-0.000807979260571301,7.838507008273154e-05,0.0004048447881359607,-0.009039569646120071,0.0010578137589618564,0.03331829607486725,0.032894790172576904,-0.01650843769311905,-0.0007332881796173751,-0.7515765428543091,-0.10385990142822266,0.010078701190650463,0.0,0.0,0.0,-0.004655924625694752,-0.007806776091456413,-0.0,0.0,0.0,0.0,0.006633727345615625,-0.0014942954294383526,-0.0002311920397914946,13935.0,13904.0,14640.0,14137.0,0.4347929358482361,0.432745099067688,0.4826412796974182,0.4482372999191284,0.0,0.0,0.0,0.0,13719.0,13921.0,14575.0,14396.0,1.7214926481246948,-0.0012448232821754754,-0.20290411779022646,3.1048828393549934,0.03835011646151543,-0.003542405553162098,0.0
311,5,-0.0009115918073803186,5.541593418456614e-05,0.00034051129478029907,-0.016049334779381752,0.003179422114044428,0.02104734070599079,0.026733050122857094,-0.01582406461238861,-0.0009003165178000927,-0.7348592877388,-0.08358612656593323,0.009449386969208717,0.0,0.0,0.0,-0.00110524648334831,-0.009204292669892311,-0.0,0.0,0.0,0.0,0.001605586614459753,0.00040151484427042305,-0.0001286565384361893,13627.0,13886.0,14653.0,14507.0,0.4146451950073242,0.43155616521835327,0.4835631847381592,0.47345322370529175,0.0,0.0,0.0,0.0,14008.0,13435.0,15083.0,14121.0,1.729142427444458,-0.002541317664320677,-0.2039221922380121,3.104926500066125,0.03835011646151543,-0.003542405553162098,0.0
316,5,-0.000956301053520292,-0.0001242228172486648,0.00016165889974217862,-0.011784845031797886,0.022828418761491776,0.029881222173571587,0.026733050122857094,-0.01582406461238861,-0.0009003165178000927,-0.7348592877388,-0.08358612656593323,0.009449386969208717,0.0,0.0,0.0,-0.00110524648334831,-0.009204292669892311,-0.0,0.0,0.0,0.0,0.001605586614459753,0.00040151484427042305,-0.0001286565384361893,13627.0,13886.0,14653.0,14507.0,0.4146451950073242,0.43155616521835327,0.4835631847381592,0.47345322370529175,0.0,0.0,0.0,0.0,14008.0,13435.0,15083.0,14121.0,1.729142427444458,-0.0069274610523073965,-0.21139474895712923,3.1080871501010976,0.03835011646151543,-0.003542405553162098,0.0
321,5,-0.0010103631066158414,-0.00027829912141896784,0.00023211436928249896,-0.011201387271285057,0.027620524168014526,0.0034978336188942194,0.026733050122857094,-0.01582406461238861,-0.0009003165178000927,-0.7348592877388,-0.08358612656593323,0.009449386969208717,0.0,0.0,0.0,-0.024666795507073402,-0.010877372696995735,-0.0,0.0,0.0,0.0,0.001605586614459753,0.00040151484427042305,-0.0001286565384361893,13627.0,13886.0,14653.0,14507.0,0.4146451950073242,0.43155616521835327,0.4835631847381592,0.47345322370529175,0.0,0.0,0.0,0.0,14008.0,13435.0,15083.0,14121.0,1.8877922296524048,-0.007366380150208911,-0.21093669961704692,3.1105456801739804,0.049464017152786255,-0.08629695326089859,0.0
326,5,-0.001132363686338067,-0.000305712892441079,0.0002257859450764954,-0.01912061683833599,0.014337860979139805,0.0021585440263152122,0.019099153578281403,-0.014991526491940022,-0.0008198432042263448,-0.5339857935905457,-0.07138972729444504,-0.03280335292220116,0.0,0.0,0.0,-0.024666795507073402,-0.010877372696995735,-0.0,0.0,0.0,0.0,-0.0013808177318423986,-0.001467086374759674,0.0023190141655504704,14738.0,13278.0,14696.0,12762.0,0.48949840664863586,0.3923984467983246,0.4865975081920624,0.3606480658054352,0.0,0.0,0.0,0.0,13650.0,14050.0,13636.0,14128.0,1.8877922296524048,-0.009292243053406096,-0.21300635338909893,3.109834505027646,0.049464017152786255,-0.08629695326089859,0.0
331,5,-0.0012250583386048675,-0.0003105780924670398,0.00011111203639302403,-0.018771609291434288,0.0063189673237502575,0.014624286442995071,0.019099153578281403,-0.014991526491940022,-0.0008198432042263448,-0.5339857935905457,-0.07138972729444504,-0.03280335292220116,0.0,0.0,0.0,-0.01593288779258728,-0.01722787879407406,-0.0,0.0,0.0,0.0,-0.0013808177318423986,-0.001467086374759674,0.0023190141655504704,14738.0,13278.0,14696.0,12762.0,0.48949840664863586,0.3923984467983246,0.4865975081920624,0.3606480658054352,0.0,0.0,0.0,0.0,13650.0,14050.0,13636.0,14128.0,1.8779489994049072,-0.00650314214609017,-0.21555718736427412,3.110475945453229,0.07794547080993652,-0.055456627160310745,0.0
336,5,-0.0013578562065958977,-0.0004326026246417314,0.0001308453647652641,-0.023444388061761856,0.017170533537864685,0.0034817152190953493,0.016358494758605957,-0.014218232594430447,-0.00035829131957143545,-0.17704902589321136,-0.12210165709257126,0.0682482123374939,0.0,0.0,0.0,-0.01593288779258728,-0.01722787879407406,-0.0,0.0,0.0,0.0,-0.012325489893555641,-0.0028964595403522253,-0.0008325935923494399,15003.0,15475.0,13869.0,13499.0,0.5083138942718506,0.5426254272460938,0.4304448664188385,0.4064081013202667,0.0,0.0,0.0,0.0,14138.0,14117.0,13884.0,13437.0,1.8779489994049072,-0.0059373986256555916,-0.21503508402181817,3.111821266327891,0.07794547080993652,-0.055456627160310745,0.0
341,5,-0.001505292602814734,-0.0004534886102192104,0.0003171610296703875,-0.027070119976997375,0.009374529123306274,-0.02096519246697426,0.016358494758605957,-0.014218232594430447,-0.00035829131957143545,-0.17704902589321136,-0.12210165709257126,0.0682482123374939,0.0,0.0,0.0,-0.018662169575691223,-0.020512152463197708,-0.0,0.0,0.0,0.0,-0.012325489893555641,-0.0028964595403522253,-0.0008325935923494399,15003.0,15475.0,13869.0,13499.0,0.5083138942718506,0.5426254272460938,0.4304448664188385,0.4064081013202667,0.0,0.0,0.0,0.0,14138.0,14117.0,13884.0,13437.0,1.9306882619857788,-0.005086916783465693,-0.2114721568847131,3.1119370156865553,0.09540457278490067,-0.06677855551242828,0.0
346,5,-0.0016045140800997615,-0.0005322519573383033,0.0002701371558941901,-0.0227346234023571,0.013201414607465267,-0.002743212040513754,0.01581011340022087,-0.01270946953445673,-0.0004800632887054235,0.008670947514474392,-0.16923010349273682,0.02111058123409748,0.0,0.0,0.0,-0.018662169575691223,-0.020512152463197708,-0.0,0.0,0.0,0.0,-0.009812376461923122,-0.0062754214741289616,-0.00022046503727324307,14395.0,15665.0,14029.0,13624.0,0.46572309732437134,0.5567304491996765,0.4410199820995331,0.4144754111766815,0.0,0.0,0.0,0.0,15478.0,15034.0,14411.0,12876.0,1.9306882619857788,-0.0041905553251672945,-0.21269355407638393,3.113327424595642,0.09540457278490067,-0.06677855551242828,0.0
351,5,-0.0018046476179733872,-0.0004660786653403193,0.0006604907684959471,-0.0331098735332489,-0.0026602281723171473,-0.0479397177696228,0.01581011340022087,-0.01270946953445673,-0.0004800632887054235,0.008670947514474392,-0.16923010349273682,0.02111058123409748,0.0,0.0,0.0,-0.014825118705630302,-0.02046535536646843,-0.0,0.0,0.0,0.0,-0.009812376461923122,-0.0062754214741289616,-0.00022046503727324307,14395.0,15665.0,14029.0,13624.0,0.46572309732437134,0.5567304491996765,0.4410199820995331,0.4144754111766815,0.0,0.0,0.0,0.0,15478.0,15034.0,14411.0,12876.0,1.9086241722106934,-0.00160829581205439,-0.20129543801218808,3.1116902292804047,0.09410519152879715,-0.05244429409503937,0.0
356,5,-0.0018715215846896172,-0.0004541178059298545,0.0004533895698841661,-0.021268825978040695,-0.0024993964470922947,0.005676253233104944,0.015846192836761475,-0.011285889893770218,-0.00021332784672267735,-0.013357854448258877,-0.19565920531749725,-0.04021072760224342,0.0,0.0,0.0,-0.014825118705630302,-0.02046535536646843,-0.0,0.0,0.0,0.0,-0.009542061947286129,-0.007746527902781963,0.002083638682961464,15462.0,14955.0,15354.0,12591.0,0.5416565537452698,0.5048995614051819,0.5337046980857849,0.350427508354187,0.0,0.0,0.0,0.0,14127.0,15872.0,13783.0,13911.0,1.9086241722106934,0.001845993127936052,-0.206227155628044,3.1117628939474224,0.09410519152879715,-0.05244429409503937,0.0
361,5,-0.002021693391725421,-0.00048476277152076364,0.0005834262701682746,-0.026528149843215942,0.0026776380836963654,-0.013333901762962341,0.015846192836761475,-0.011285889893770218,-0.00021332784672267735,-0.013357854448258877,-0.19565920531749725,-0.04021072760224342,0.0,0.0,0.0,0.001985774142667651,-0.020054752007126808,-0.0,0.0,0.0,0.0,-0.009542061947286129,-0.007746527902781963,0.002083638682961464,15462.0,14955.0,15354.0,12591.0,0.5416565537452698,0.5048995614051819,0.5337046980857849,0.350427508354187,0.0,0.0,0.0,0.0,14127.0,15872.0,13783.0,13911.0,1.864258885383606,-0.0006083059673505794,-0.20321201524824525,3.111862781545995,0.0900835394859314,0.00686189578846097,0.0
366,5,-0.002133713336661458,-0.000512897502630949,0.0004845660296268761,-0.024053659290075302,0.0044472250156104565,0.006529669277369976,0.014578927308321,-0.007878567092120647,-0.00026984047144651413,-0.10869156569242477,-0.16031214594841003,0.008007382042706013,0.0,0.0,0.0,0.001985774142667651,-0.020054752007126808,-0.0,0.0,0.0,0.0,-0.008823023177683353,-0.007270198781043291,-0.0013513622106984258,14462.0,15836.0,14363.0,13819.0,0.47036606073379517,0.5696189403533936,0.46357008814811707,0.4271332919597626,0.0,0.0,0.0,0.0,14900.0,15485.0,14792.0,13288.0,1.864258885383606,-0.00024199450035960159,-0.2055516393435175,3.111833696202701,0.0900835394859314,0.00686189578846097,0.0
372,5,-0.002266266383230686,-0.0004597166844177991,0.0005352052394300699,-0.025527838617563248,-0.004602809436619282,-0.0034648352302610874,0.014578927308321,-0.007878567092120647,-0.00026984047144651413,-0.10869156569242477,-0.16031214594841003,0.008007382042706013,0.0,0.0,0.0,-0.005544662941247225,-0.022291777655482292,-0.0,0.0,0.0,0.0,-0.008823023177683353,-0.007270198781043291,-0.0013513622106984258,14462.0,15836.0,14363.0,13819.0,0.47036606073379517,0.5696189403533936,0.46357008814811707,0.4271332919597626,0.0,0.0,0.0,0.0,14900.0,15485.0,14792.0,13288.0,1.8986495733261108,0.001370569085378601,-0.2038221528659878,3.110899446540451,0.1019761860370636,-0.019513018429279327,-0.0
377,5,-0.002379432087764144,-0.0005879673408344388,0.0004019114712718874,-0.02379099279642105,0.013548951596021652,0.014609316363930702,0.01342904381453991,-0.006243000738322735,-0.00027775552007369697,-0.10938010364770889,-0.15444788336753845,-0.08316594362258911,0.0,0.0,0.0,-0.005544662941247225,-0.022291777655482292,-0.0,0.0,0.0,0.0,-0.007458695210516453,-0.007102274801582098,-0.0008339043706655502,13966.0,15972.0,14042.0,14161.0,0.4368707537651062,0.5799703001976013,0.4419058859348297,0.44987717270851135,0.0,0.0,0.0,0.0,15013.0,15012.0,15046.0,13068.0,1.8986495733261108,-0.003348219278296966,-0.20988406488378242,3.1119015660023677,0.1019761860370636,-0.019513018429279327,-0.0
382,5,-0.0025132407899945974,-0.0006456924602389336,0.00018885803001467139,-0.025573454797267914,0.012346593663096428,0.03141013905405998,0.01342904381453991,-0.006243000738322735,-0.00027775552007369697,-0.10938010364770889,-0.15444788336753845,-0.08316594362258911,0.0,0.0,0.0,-0.015121322125196457,-0.02202528528869152,-0.0,0.0,0.0,0.0,-0.007458695210516453,-0.007102274801582098,-0.0008339043706655502,13966.0,15972.0,14042.0,14161.0,0.4368707537651062,0.5799703001976013,0.4419058859348297,0.44987717270851135,0.0,0.0,0.0,0.0,15013.0,15012.0,15046.0,13068.0,1.9288712739944458,-0.0040253656674702565,-0.21679816570794483,3.11264254631474,0.10235096514225006,-0.054059434682130814,-0.0
387,5,-0.0026726429350674152,-0.0006802338175475597,0.0002458856615703553,-0.029357632622122765,0.009083602577447891,0.005720740184187889,0.012745058164000511,-0.004911054391413927,-0.00048809649888426065,-0.06852256506681442,-0.21130648255348206,0.03640785813331604,0.0,0.0,0.0,-0.015121322125196457,-0.02202528528869152,-0.0,0.0,0.0,0.0,-0.002480813069269061,-0.008732379414141178,0.000483181094750762,14220.0,14881.0,15121.0,13305.0,0.4538164734840393,0.49962157011032104,0.5167393684387207,0.3940814733505249,0.0,0.0,0.0,0.0,12987.0,15940.0,13739.0,14752.0,1.9288712739944458,-0.00622607683025421,-0.21800919627381404,3.112789086392036,0.10235096514225006,-0.054059434682130814,-0.0
392,5,-0.002810586476698518,-0.0007686323369853199,0.00011221602471778169,-0.028296293690800667,0.014241266064345837,0.018328651785850525,0.012745058164000511,-0.004911054391413927,-0.00048809649888426065,-0.06852256506681442,-0.21130648255348206,0.03640785813331604,0.0,0.0,0.0,-0.010381736792623997,-0.026363154873251915,-0.0,0.0,0.0,0.0,-0.002480813069269061,-0.008732379414141178,0.000483181094750762,14220.0,14881.0,15121.0,13305.0,0.4538164734840393,0.49962157011032104,0.5167393684387207,0.3940814733505249,0.0,0.0,0.0,0.0,12987.0,15940.0,13739.0,14752.0,1.9656473398208618,-0.007828289573984114,-0.22379665141759786,3.1134614806246357,0.1248478814959526,-0.03782422095537186,-0.0
397,5,-0.002925426699221134,-0.0008530653431080282,-1.0357020073570311e-05,-0.025099342688918114,0.015828466042876244,0.022040225565433502,0.012135997414588928,-0.002845366718247533,-0.001264998223632574,-0.052979957312345505,-0.1818692535161972,-0.06370300054550171,0.0,0.0,0.0,-0.010381736792623997,-0.026363154873251915,-0.0,0.0,0.0,0.0,-0.005020672455430031,-0.00921613909304142,-0.0030799538362771273,13175.0,16312.0,13872.0,14543.0,0.3859351873397827,0.6061698794364929,0.43061280250549316,0.47593164443969727,0.0,0.0,0.0,0.0,14079.0,15551.0,14746.0,13648.0,1.9656473398208618,-0.010104465387300384,-0.22800605135086072,3.114874718658964,0.1248478814959526,-0.03782422095537186,-0.0
402,5,-0.00303214555606246,-0.0009849711786955595,-0.00018733509932644665,-0.02284599095582962,0.022160083055496216,0.030053459107875824,0.012135997414588928,-0.002845366718247533,-0.001264998223632574,-0.052979957312345505,-0.1818692535161972,-0.06370300054550171,0.0,0.0,0.0,-0.017651332542300224,-0.023374099284410477,-0.0,0.0,0.0,0.0,-0.005020672455430031,-0.00921613909304142,-0.0030799538362771273,13175.0,16312.0,13872.0,14543.0,0.3859351873397827,0.6061698794364929,0.43061280250549316,0.47593164443969727,0.0,0.0,0.0,0.0,14079.0,15551.0,14746.0,13648.0,1.9584684371948242,-0.010230803119262397,-0.23414523216053496,3.117028998508231,0.11027984321117401,-0.06407102197408676,0.0
407,5,-0.0032056807540357113,-0.0009817035170271993,-0.00013331140507943928,-0.029962623491883278,0.008471913635730743,0.005538541823625565,0.01147173997014761,-0.00155217619612813,-0.0013835742138326168,-0.11521834880113602,-0.15547150373458862,-0.14128366112709045,0.0,0.0,0.0,-0.017651332542300224,-0.023374099284410477,-0.0,0.0,0.0,0.0,-0.00665809353813529,-0.009847946465015411,-0.001493224874138832,13317.0,16569.0,13827.0,14600.0,0.3948614001274109,0.6264011859893799,0.42770808935165405,0.4799005389213562,0.0,0.0,0.0,0.0,14580.0,15583.0,14936.0,13339.0,1.9584684371948242,-0.01125991967140148,-0.23367334570480397,3.1167048570454803,0.11027984321117401,-0.06407102197408676,0.0
412,5,-0.0033857463859021664,-0.0009653480956330895,-8.962084052654973e-07,-0.033592913299798965,0.0014261197065934539,-0.01367440726608038,0.01147173997014761,-0.00155217619612813,-0.0013835742138326168,-0.11521834880113602,-0.15547150373458862,-0.14128366112709045,0.0,0.0,0.0,-0.01014695130288601,-0.027299080044031143,-0.0,0.0,0.0,0.0,-0.00665809353813529,-0.009847946465015411,-0.001493224874138832,13317.0,16569.0,13827.0,14600.0,0.3948614001274109,0.6264011859893799,0.42770808935165405,0.4799005389213562,0.0,0.0,0.0,0.0,14580.0,15583.0,14936.0,13339.0,1.9776650667190552,-0.011068913624554368,-0.22936670093032568,3.115879922085572,0.130069762468338,-0.03719489276409149,0.0
417,5,-0.0035349882673472166,-0.0009294021292589605,3.70352718164213e-05,-0.03134620562195778,-0.0037430666852742434,-0.010021540336310863,0.010116910561919212,-3.7337533285608515e-05,-0.002195495879277587,-0.11771995574235916,-0.11800646036863327,0.017925307154655457,0.0,0.0,0.0,-0.01014695130288601,-0.027299080044031143,-0.0,0.0,0.0,0.0,-0.004835268948227167,-0.010313382372260094,-9.535135177429765e-05,14416.0,15677.0,15180.0,13706.0,0.46719178557395935,0.5576612949371338,0.5210173726081848,0.41977688670158386,0.0,0.0,0.0,0.0,12852.0,16949.0,13734.0,15179.0,1.9776650667190552,-0.01415996052019484,-0.2311333695374328,3.1144598399853334,0.130069762468338,-0.03719489276409149,0.0
422,5,-0.003666586009785533,-0.0008937704260461032,9.532655531074852e-05,-0.02833021618425846,-0.00577303534373641,-0.011003570631146431,0.010116910561919212,-3.7337533285608515e-05,-0.002195495879277587,-0.11771995574235916,-0.11800646036863327,0.017925307154655457,0.0,0.0,0.0,0.0024204265791922808,-0.02869517169892788,-0.0,0.0,0.0,0.0,-0.004835268948227167,-0.010313382372260094,-9.535135177429765e-05,14416.0,15677.0,15180.0,13706.0,0.46719178557395935,0.5576612949371338,0.5210173726081848,0.41977688670158386,0.0,0.0,0.0,0.0,12852.0,16949.0,13734.0,15179.0,1.9828040599822998,-0.012132116666441171,-0.2287968284435832,3.113678657837846,0.13708175718784332,0.008895686827600002,0.0
427,5,-0.0038280326407402754,-0.0008647859212942421,0.00021050100622233003,-0.030705684795975685,-0.00578735489398241,-0.01822236180305481,0.009166206233203411,0.000471945502795279,-0.0032721858005970716,-0.11899140477180481,-0.0555092915892601,-0.171982541680336,0.0,0.0,0.0,0.0024204265791922808,-0.02869517169892788,-0.0,0.0,0.0,0.0,-0.006398563738912344,-0.008402724750339985,-0.004988116677850485,12617.0,17271.0,12961.0,15580.0,0.35198259353637695,0.6833943128585815,0.3727174997329712,0.5503740310668945,0.0,0.0,0.0,0.0,14518.0,15709.0,14902.0,13757.0,1.9828040599822998,-0.014516904217345509,-0.22685411276069053,3.1121488689183354,0.13708175718784332,0.008895686827600002,0.0
432,5,-0.00401216559112072,-0.0007978748762980103,0.0002878708764910698,-0.03437824174761772,-0.010344264097511768,-0.016573330387473106,0.009166206233203411,0.000471945502795279,-0.0032721858005970716,-0.11899140477180481,-0.0555092915892601,-0.171982541680336,0.0,0.0,0.0,0.004602284170687199,-0.02853335067629814,-0.0,0.0,0.0,0.0,-0.006398563738912344,-0.008402724750339985,-0.004988116677850485,12617.0,17271.0,12961.0,15580.0,0.35198259353637695,0.6833943128585815,0.3727174997329712,0.5503740310668945,0.0,0.0,0.0,0.0,14518.0,15709.0,14902.0,13757.0,1.9827613830566406,-0.015435472353337745,-0.2251741392467913,3.1095176043268693,0.13630494475364685,0.01691412925720215,0.0
438,5,-0.0041882190853357315,-0.0006838389672338963,0.0005315422895364463,-0.03487768396735191,-0.0178220197558403,-0.03586990386247635,0.009166206233203411,0.000471945502795279,-0.0032721858005970716,-0.11899140477180481,-0.0555092915892601,-0.171982541680336,0.0,0.0,0.0,0.004602284170687199,-0.02853335067629814,-0.0,0.0,0.0,0.0,-0.006398563738912344,-0.008402724750339985,-0.004988116677850485,12617.0,17271.0,12961.0,15580.0,0.35198259353637695,0.6833943128585815,0.3727174997329712,0.5503740310668945,0.0,0.0,0.0,0.0,14518.0,15709.0,14902.0,13757.0,1.9827613830566406,-0.014721942799275061,-0.2171621497566264,3.106692334326688,0.13630494475364685,0.01691412925720215,0.0
443,5,-0.004221261944621801,-0.000796555366832763,0.0002875928475987166,-0.01791621744632721,0.0063971662893891335,0.014925974421203136,0.007659096736460924,0.0007242823485285044,-0.003915412817150354,-0.12761153280735016,0.005417351145297289,-0.08940362185239792,0.0,0.0,0.0,0.01655816286802292,-0.03111247532069683,-0.0,0.0,0.0,0.0,-0.0038156684022396803,-0.008866149000823498,-0.0005383011884987354,13929.0,16071.0,14577.0,14565.0,0.43440163135528564,0.5875380039215088,0.4782786965370178,0.4774467349052429,0.0,0.0,0.0,0.0,13428.0,16483.0,14224.0,14915.0,2.0540475845336914,-0.016079708509841927,-0.2242843118562559,3.1089999935005426,0.15394562482833862,0.06303694099187851,0.0
448,5,-0.004332032520323992,-0.0007433600258082151,0.00041826185770332813,-0.020458977669477463,-0.0038245762698352337,-0.009709890000522137,0.007659096736460924,0.0007242823485285044,-0.003915412817150354,-0.12761153280735016,0.005417351145297289,-0.08940362185239792,0.0,0.0,0.0,0.01655816286802292,-0.03111247532069683,-0.0,0.0,0.0,0.0,-0.0038156684022396803,-0.008866149000823498,-0.0005383011884987354,13929.0,16071.0,14577.0,14565.0,0.43440163135528564,0.5875380039215088,0.4782786965370178,0.4774467349052429,0.0,0.0,0.0,0.0,13428.0,16483.0,14224.0,14915.0,2.0540475845336914,-0.016546218748106488,-0.22022097776260754,3.107027904689783,0.15394562482833862,0.06303694099187851,0.0
453,5,-0.004433829803019762,-0.0007223124848678708,0.0005535417003557086,-0.020399272441864014,-0.004055539146065712,-0.020117536187171936,0.0066977147944271564,0.0004966673441231251,-0.0052700405940413475,-0.13224144279956818,0.0031795729883015156,-0.031893886625766754,0.0,0.0,0.0,0.01655816286802292,-0.03111247532069683,-0.0,0.0,0.0,0.0,0.0005313869914971292,-0.008389628492295742,-0.0034000915475189686,13359.0,16094.0,14576.0,15134.0,0.3975487947463989,0.5892906188964844,0.47822391986846924,0.5177407264709473,0.0,0.0,0.0,0.0,12686.0,17015.0,13369.0,15723.0,2.0540475845336914,-0.01728307329936889,-0.21645920385587938,3.105263741348647,0.10101796686649323,0.011198502965271473,0.0
458,5,-0.004494686145335436,-0.000625169079285115,0.0006070340168662369,-0.015462425537407398,-0.013279423117637634,-0.014466093853116035,0.0066977147944271564,0.0004966673441231251,-0.0052700405940413475,-0.13224144279956818,0.0031795729883015156,-0.031893886625766754,0.0,0.0,0.0,0.0031914194114506245,-0.022147033363580704,-0.0,0.0,0.0,0.0,0.0005313869914971292,-0.008389628492295742,-0.0034000915475189686,13359.0,16094.0,14576.0,15134.0,0.3975487947463989,0.5892906188964844,0.47822391986846924,0.5177407264709473,0.0,0.0,0.0,0.0,12686.0,17015.0,13369.0,15723.0,1.8930796384811401,-0.01649802367096843,-0.215961263031359,3.104510973261358,0.10101796686649323,0.011198502965271473,0.0
463,5,-0.004566413350403309,-0.0007990284357219934,0.00023057343787513673,-0.014792258851230145,0.015551352873444557,0.039388831704854965,0.0053935786709189415,0.0004582371038850397,-0.006733895745128393,-0.07869922369718552,0.02119728922843933,-0.29003387689590454,0.0,0.0,0.0,0.0031914194114506245,-0.022147033363580704,-0.0,0.0,0.0,0.0,0.0010805475758388638,-0.008085130713880062,-0.005862578749656677,11316.0,17533.0,12735.0,16736.0,0.27875933051109314,0.705237090587616,0.359000027179718,0.6397650241851807,0.0,0.0,0.0,0.0,14263.0,15277.0,15500.0,14214.0,1.8930796384811401,-0.01793839913416313,-0.22815289802335195,3.107163568982254,0.10101796686649323,0.011198502965271473,0.0
