timestamp,dt,pos_x,pos_y,pos_z,vel_x,vel_y,vel_z,roll,pitch,yaw,agv_x,agv_y,agv_z,x_ref,y_ref,z_ref,roll_ref,pitch_ref,yaw_ref,x_vel_ref,y_vel_ref,z_vel_ref,x_torque,y_torque,z_torque,w0,w1,w2,w3,u0,u1,u2,u3,m0req,m1req,m2req,m3req,thrust0,thrust1,thrust2,thrust3,thrust_ref,roll_vicon,pitch_vicon,yaw_vicon,acc_x,acc_y,acc_z
5,5,0.0,0.0,0.0,-0.00014825664402451366,-0.0007890740525908768,-0.0010889283148571849,0.02166900783777237,0.3786908984184265,-0.009211936965584755,0.0027565464843064547,-0.0005614035180769861,-0.0004109112487640232,0.0,0.0,0.0,0.0009770352626219392,-0.00014120934065431356,-0.0,0.0,0.0,0.0,-0.006573241204023361,-0.11365401744842529,-0.0009049100335687399,1495.0,1495.0,1495.0,1495.0,0.0,0.0,0.0,0.0,0.0,0.0,0.0,0.0,1495.0,1495.0,1495.0,1495.0,1.633918285369873,-3.0629412283608013,0.2948055669427918,-3.1088119021463028,0.0005559624405577779,0.0029590276535600424,0.0
31,26,0.0,0.0,0.0,0.0004922738880850375,-0.00047717467532493174,-0.0012082835892215371,0.02166900783777237,0.3786908984184265,-0.009211936965584755,0.0027565464843064547,-0.0005614035180769861,-0.0004109112487640232,0.0,0.0,0.0,0.0009770352626219392,-0.00014120934065431356,-0.0,0.0,0.0,0.0,-0.006573241204023361,-0.11365401744842529,-0.0009049100335687399,1495.0,1495.0,1495.0,1495.0,0.0,0.0,0.0,0.0,0.0,0.0,0.0,0.0,1495.0,1495.0,1495.0,1495.0,1.633918285369873,-3.064237541235859,0.29536830891623145,-3.1085032460258746,0.0005559624405577779,0.0029590276535600424,0.0
36,5,0.0,0.0,0.0,0.0017614343669265509,0.0007757090497761965,0.001472229603677988,0.02168831042945385,0.3787081837654114,-0.009227456524968147,-0.0007857831660658121,0.0013701983261853456,-0.001618725247681141,0.0,0.0,0.0,0.0005912717897444963,0.000469216494821012,-0.0,0.0,0.0,0.0,-0.006513433530926704,-0.11357172578573227,-0.000989934429526329,1495.0,1495.0,1495.0,1495.0,0.0,0.0,0.0,0.0,0.0,0.0,0.0,0.0,1495.0,1495.0,1495.0,1495.0,1.6327247619628906,-3.0625874006227947,0.2951917797544788,-3.1089416694668905,-0.0018460270948708057,0.0017894050106406212,0.0
41,5,0.0,0.0,0.0,0.0008437525248154998,-0.0007179808453656733,-0.002484895521774888,0.02168831042945385,0.3787081837654114,-0.009227456524968147,-0.0007857831660658121,0.0013701983261853456,-0.001618725247681141,0.0,0.0,0.0,0.0005912717897444963,0.000469216494821012,-0.0,0.0,0.0,0.0,-0.006513433530926704,-0.11357172578573227,-0.000989934429526329,1495.0,1495.0,1495.0,1495.0,0.0,0.0,0.0,0.0,0.0,0.0,0.0,0.0,1495.0,1495.0,1495.0,1495.0,1.6327247619628906,-3.0634070440431715,0.2956804598905205,-3.1086314690950156,-0.0018460270948708057,0.0017894050106406212,0.0
46,5,0.0,0.0,0.0,0.0007857067976146936,0.0023881758097559214,0.0024939952418208122,0.02168831042945385,0.3787081837654114,-0.009227456524968147,-0.0007857831660658121,0.0013701983261853456,-0.001618725247681141,0.0,0.0,0.0,0.0005912717897444963,0.000469216494821012,-0.0,0.0,0.0,0.0,-0.006513433530926704,-0.11357172578573227,-0.000989934429526329,1495.0,1495.0,1495.0,1495.0,0.0,0.0,0.0,0.0,0.0,0.0,0.0,0.0,1495.0,1495.0,1495.0,1495.0,1.6327247619628906,-3.0626847856297736,0.29496134558024667,-3.10879838083078,-0.0018460270948708057,0.0017894050106406212,0.0
57,11,-2.2119207642390393e-05,6.497226422652602e-06,1.3528277122532018e-05,-0.0018295666668564081,0.0005400301306508482,0.0005772894364781678,0.021665308624505997,0.37872716784477234,-0.00922072771936655,-0.0001889416598714888,-0.001133639714680612,0.0023245199117809534,0.0,0.0,0.0,-0.002925944747403264,0.0007404875359497964,-0.0,0.0,0.0,0.0,-0.0061779324896633625,-0.11370807886123657,-0.0008801081567071378,1495.0,1495.0,1495.0,1495.0,0.0,0.0,0.0,0.0,0.0,0.0,0.0,0.0,1495.0,1495.0,1495.0,1495.0,1.6512925624847412,-3.0636880657297185,0.2953458071122347,-3.108580327546038,-0.002946400549262762,-0.008955659344792366,0.0
63,5,-1.3281872270454187e-05,9.462868547416292e-06,6.740186108800117e-06,0.0004958999343216419,-0.0004563119728118181,0.0013830767711624503,0.021709300577640533,0.3787213861942291,-0.009213466197252274,0.0015898199053481221,0.0005413943435996771,-0.002092060400173068,0.0,0.0,0.0,0.0005826879059895873,0.00045413910993374884,-0.0,0.0,0.0,0.0,-0.0062632174231112,-0.11371441185474396,-0.0009365878067910671,1495.0,20491.0,19432.0,1495.0,-0.10546678304672241,0.976286768913269,0.8742253184318542,-0.11112699657678604,0.0,0.0,0.0,0.0,1495.0,1495.0,1495.0,1495.0,1.6325597763061523,-3.0634840632732865,0.29497313270419706,-3.108628887338558,-0.0017865279223769903,0.0017632488161325455,-0.0
68,5,-1.8853796063922346e-05,1.0428959285491146e-05,1.8876628018915653e-05,-0.000470270897494629,-0.0002984557650052011,-0.0009031423833221197,0.021709300577640533,0.3787213861942291,-0.009213466197252274,0.0015898199053481221,0.0005413943435996771,-0.002092060400173068,0.0,0.0,0.0,0.0005826879059895873,0.00045413910993374884,-0.0,0.0,0.0,0.0,-0.0062632174231112,-0.11371441185474396,-0.0009365878067910671,1495.0,20491.0,19432.0,1495.0,-0.10546678304672241,0.976286768913269,0.8742253184318542,-0.11112699657678604,0.0,0.0,0.0,0.0,1495.0,1495.0,1495.0,1495.0,1.6325597763061523,-3.063445408701626,0.2950226806563195,-3.1086340995171673,-0.0017865279223769903,0.0017632488161325455,-0.0
73,5,1.553477346760701e-08,1.4148187801765744e-05,3.0332361347973347e-05,0.0020762113854289055,-0.0005656896973960102,-0.001735944882966578,0.021720143035054207,0.37873050570487976,-0.009246846660971642,-0.0037714545615017414,-0.0006752403569407761,-0.0022764874156564474,0.0,0.0,0.0,0.0007200976251624525,0.001961019355803728,-0.0,0.0,0.0,0.0,-0.006192239932715893,-0.11384913325309753,-0.0009376223897561431,1495.0,20495.0,19439.0,1495.0,-0.10654610395431519,0.9766830801963806,0.8748169541358948,-0.11103570461273193,0.0,0.0,0.0,0.0,1495.0,20504.0,19422.0,1495.0,1.6476751565933228,-3.0631579676950498,0.2941548581182248,-3.108528318038991,-0.007785831578075886,0.00219923397526145,0.0
78,5,-5.124341896589613e-06,1.2712320312857628e-05,2.6231460651615635e-05,0.00021369929891079664,-5.3971714805811644e-05,-0.00020226987544447184,0.021720143035054207,0.37873050570487976,-0.009246846660971642,-0.0037714545615017414,-0.0006752403569407761,-0.0022764874156564474,0.0,0.0,0.0,0.0007200976251624525,0.001961019355803728,-0.0,0.0,0.0,0.0,-0.006192239932715893,-0.11384913325309753,-0.0009376223897561431,1495.0,20495.0,19439.0,1495.0,-0.10654610395431519,0.9766830801963806,0.8748169541358948,-0.11103570461273193,0.0,0.0,0.0,0.0,1495.0,20504.0,19422.0,1495.0,1.6476751565933228,-3.063930663971388,0.29485645901346,-3.108276468199646,-0.007785831578075886,0.00219923397526145,0.0
83,5,-1.1730524420272559e-05,1.3544315152103081e-05,3.861626464640722e-05,-0.0007072621956467628,-0.00012142811465309933,-0.0015670842258259654,0.021720143035054207,0.37873050570487976,-0.009246846660971642,-0.0037714545615017414,-0.0006752403569407761,-0.0022764874156564474,0.0,0.0,0.0,0.0007200976251624525,0.001961019355803728,-0.0,0.0,0.0,0.0,-0.006192239932715893,-0.11384913325309753,-0.0009376223897561431,1495.0,20495.0,19439.0,1495.0,-0.10654610395431519,0.9766830801963806,0.8748169541358948,-0.11103570461273193,0.0,0.0,0.0,0.0,1495.0,20504.0,19422.0,1495.0,1.6476751565933228,-3.0631072630676592,0.29582935292360235,-3.1087882238418016,-0.007785831578075886,0.00219923397526145,0.0
88,5,-1.6356380001525395e-05,1.3854169083060697e-05,2.003984627663158e-05,-0.0008380074286833405,-8.575369429308921e-05,0.001602336298674345,0.021716607734560966,0.3787132501602173,-0.009272503666579723,-0.0018855906091630459,0.00465804198756814,0.001506454311311245,0.0,0.0,0.0,0.00017506329459138215,-0.0006903301109559834,-0.0,0.0,0.0,0.0,-0.007455681916326284,-0.1137186735868454,-0.0009423549054190516,1495.0,20465.0,19441.0,1495.0,-0.10282343626022339,0.9736506938934326,0.8750256896018982,-0.11312821507453918,0.0,0.0,0.0,0.0,1495.0,20477.0,19435.0,1495.0,1.6332594156265259,-3.0632833533990076,0.29612031004122263,-3.108818995248429,0.002716838615015149,0.0005299791810102761,0.0
93,5,-1.4460698366747238e-05,1.9613909898907878e-05,3.2044954423327e-05,-0.00010772124369395897,-0.0007254704833030701,-0.0007996786152943969,0.021716607734560966,0.3787132501602173,-0.009272503666579723,-0.0018855906091630459,0.00465804198756814,0.001506454311311245,0.0,0.0,0.0,0.00017506329459138215,-0.0006903301109559834,-0.0,0.0,0.0,0.0,-0.007455681916326284,-0.1137186735868454,-0.0009423549054190516,1495.0,20465.0,19441.0,1495.0,-0.10282343626022339,0.9736506938934326,0.8750256896018982,-0.11312821507453918,0.0,0.0,0.0,0.0,1495.0,20477.0,19435.0,1495.0,1.6332594156265259,-3.063285617138542,0.29511051672302624,-3.1085884713751644,0.002716838615015149,0.0005299791810102761,0.0
98,5,-1.6275742382276803e-05,7.136944986996241e-06,1.8739843653747812e-05,-0.0002608938666526228,0.0012070476077497005,0.0012767420848831534,0.021718153730034828,0.37870943546295166,-0.009292086586356163,-0.0005678450688719749,0.005024985410273075,-0.003803171217441559,0.0,0.0,0.0,0.000934185110963881,-0.0001228655019076541,-0.0,0.0,0.0,0.0,-0.006306746508926153,-0.11324959993362427,-0.0010421742917969823,1495.0,20523.0,19429.0,1495.0,-0.10119559615850449,0.9794324636459351,0.8739310503005981,-0.10449270904064178,0.0,0.0,0.0,0.0,1495.0,20590.0,19412.0,1495.0,1.6335352659225464,-3.0629295187062393,0.29543249139275474,-3.1090237123374833,0.00048362661618739367,0.0028285894077271223,0.0
103,5,-1.904207601910457e-05,2.7549922378966585e-05,3.0585782951675355e-05,-0.0004363174957688898,-0.0019667381420731544,-0.0009108158410526812,0.021718153730034828,0.37870943546295166,-0.009292086586356163,-0.0005678450688719749,0.005024985410273075,-0.003803171217441559,0.0,0.0,0.0,0.000934185110963881,-0.0001228655019076541,-0.0,0.0,0.0,0.0,-0.006306746508926153,-0.11324959993362427,-0.0010421742917969823,1495.0,20523.0,19429.0,1495.0,-0.10119559615850449,0.9794324636459351,0.8739310503005981,-0.10449270904064178,0.0,0.0,0.0,0.0,1495.0,20590.0,19412.0,1495.0,1.6335352659225464,-3.064586474162458,0.2955930427932634,-3.108128230293351,0.00048362661618739367,0.0028285894077271223,0.0
108,5,-1.2825465091736987e-05,5.351498657546472e-06,2.4409217076026835e-05,0.0005714663420803845,0.001877115573734045,0.00037686151335947216,0.021737974137067795,0.3787045478820801,-0.009339726530015469,0.0005446134018711746,0.0003858398995362222,0.0012095492566004395,0.0,0.0,0.0,0.002466079778969288,-0.0004388011002447456,-0.0,0.0,0.0,0.0,-0.006502232048660517,-0.11428751051425934,-0.0009728269651532173,1495.0,20510.0,19461.0,1495.0,-0.10546847432851791,0.9781494140625,0.8769579529762268,-0.11637944728136063,0.0,0.0,0.0,0.0,1495.0,20486.0,19475.0,1495.0,1.6466909646987915,-3.0633662957402508,0.29527916271435023,-3.108561487960693,0.0017411267617717385,0.007527087815105915,0.0
113,5,-4.254816303728148e-06,5.315087946655694e-06,1.7151951396954246e-05,0.0012570644030347466,0.0007552154711447656,0.0010216162772849202,0.021737974137067795,0.3787045478820801,-0.009339726530015469,0.0005446134018711746,0.0003858398995362222,0.0012095492566004395,0.0,0.0,0.0,-0.0009216051548719406,0.0011864829575642943,-0.0,0.0,0.0,0.0,-0.006502232048660517,-0.11428751051425934,-0.0009728269651532173,1495.0,20510.0,19461.0,1495.0,-0.10546847432851791,0.9781494140625,0.8769579529762268,-0.11637944728136063,0.0,0.0,0.0,0.0,1495.0,20486.0,19475.0,1495.0,1.6405671834945679,-3.063860121989541,0.2950836301687627,-3.1084269968599254,-0.00469037052243948,-0.0028025112114846706,-0.0
118,5,-3.387444621694158e-06,-3.922971700376365e-06,4.491460458666552e-06,0.0006069103255867958,0.0014106533490121365,0.0019279054831713438,0.021737974137067795,0.3787045478820801,-0.009339726530015469,0.0005446134018711746,0.0003858398995362222,0.0012095492566004395,0.0,0.0,0.0,-0.0009216051548719406,0.0011864829575642943,-0.0,0.0,0.0,0.0,-0.006502232048660517,-0.11428751051425934,-0.0009728269651532173,1495.0,20510.0,19461.0,1495.0,-0.10546847432851791,0.9781494140625,0.8769579529762268,-0.11637944728136063,0.0,0.0,0.0,0.0,1495.0,20486.0,19475.0,1495.0,1.6405671834945679,-3.063308312032832,0.29531122748801375,-3.108821733659503,-0.00469037052243948,-0.0028025112114846706,-0.0
123,5,-8.866866664902773e-06,7.166033242356207e-07,-1.1015807785952347e-06,-0.00041476651676930487,7.5123293754586484e-06,0.0014423271641135216,0.02172711305320263,0.3787086009979248,-0.009314940311014652,-0.0027666310779750347,0.0012211799621582031,0.0010586148127913475,0.0,0.0,0.0,-0.0009216051548719406,0.0011864829575642943,-0.0,0.0,0.0,0.0,-0.006224026437848806,-0.11418185383081436,-0.0009094461565837264,1495.0,20494.0,19469.0,1495.0,-0.10616913437843323,0.9765722155570984,0.877637505531311,-0.11450529098510742,0.0,0.0,0.0,0.0,1495.0,20501.0,19448.0,1495.0,1.6405671834945679,-3.0629894223145855,0.2953046109490266,-3.1091279928891846,-0.00469037052243948,-0.0028025112114846706,-0.0
128,5,-1.6479236364830285e-05,1.3829194358550012e-05,-8.857725333655253e-06,-0.0010793909896165133,-0.0015705059049651027,0.0015076681738719344,0.02172711305320263,0.3787086009979248,-0.009314940311014652,-0.0027666310779750347,0.0012211799621582031,0.0010586148127913475,0.0,0.0,0.0,-7.914496563898865e-06,-0.0004084549145773053,-0.0,0.0,0.0,0.0,-0.006224026437848806,-0.11418185383081436,-0.0009094461565837264,1495.0,20494.0,19469.0,1495.0,-0.10616913437843323,0.9765722155570984,0.877637505531311,-0.11450529098510742,0.0,0.0,0.0,0.0,1495.0,20501.0,19448.0,1495.0,1.6301017999649048,-3.0636449487846105,0.29565898365828414,-3.1085265989925945,0.0016043928917497396,-2.3913687982712872e-05,0.0
133,5,-1.633453939575702e-05,1.4706398360431194e-05,1.54057615873171e-05,-0.00041439273627474904,-0.0007334668771363795,-0.002308550989255309,0.021688180044293404,0.37866002321243286,-0.009315356612205505,-0.0020318857859820127,-2.269935293952585e-06,0.0005925382138229907,0.0,0.0,0.0,-7.914496563898865e-06,-0.0004084549145773053,-0.0,0.0,0.0,0.0,-0.006849172059446573,-0.11383926868438721,-0.0008567711338400841,1495.0,20519.0,19450.0,1495.0,-0.09995853900909424,0.9790753126144409,0.8759215474128723,-0.11447113007307053,0.0,0.0,0.0,0.0,1495.0,20545.0,19509.0,1495.0,1.6301017999649048,-3.063781628038391,0.2951102008060046,-3.108569625266894,0.0016043928917497396,-2.3913687982712872e-05,0.0
138,5,-2.2050426196074113e-05,1.81787290784996e-05,2.8253463824512437e-05,-0.000851663644425571,-0.0007100665243342519,-0.002465144731104374,0.021688180044293404,0.37866002321243286,-0.009315356612205505,-0.0020318857859820127,-2.269935293952585e-06,0.0005925382138229907,0.0,0.0,0.0,0.0009346019360236824,-0.0004174087953288108,-0.0,0.0,0.0,0.0,-0.006849172059446573,-0.11383926868438721,-0.0008567711338400841,1495.0,20519.0,19450.0,1495.0,-0.09995853900909424,0.9790753126144409,0.8759215474128723,-0.11447113007307053,0.0,0.0,0.0,0.0,1495.0,20545.0,19509.0,1495.0,1.6346333026885986,-3.0639303311615564,0.29515898072993946,-3.108319736282369,0.0016441205516457558,0.0028317535761743784,0.0
144,5,-7.281565103767207e-06,1.2968484043085482e-05,3.537640077411197e-05,0.0014315979788079858,0.00034120288910344243,-0.0018408102914690971,0.021677415817975998,0.37868532538414,-0.009321928024291992,0.0059529077261686325,-0.0033917517866939306,-0.00021388170716818422,0.0,0.0,0.0,0.0009346019360236824,-0.0004174087953288108,-0.0,0.0,0.0,0.0,-0.006895516067743301,-0.11403706669807434,-0.0009738131193444133,1495.0,20549.0,19442.0,1495.0,-0.10210280120372772,0.9820162653923035,0.8751798272132874,-0.11452613770961761,0.0,0.0,0.0,0.0,1495.0,20539.0,19434.0,1495.0,1.6346333026885986,-3.063407215472642,0.29486894611500175,-3.108536231946692,0.0016441205516457558,0.0028317535761743784,0.0
149,5,-1.4838299648545217e-05,3.231962182326242e-05,4.401292244438082e-05,-0.0003341689589433372,-0.0021856555249542,-0.0017727069789543748,0.021677415817975998,0.37868532538414,-0.009321928024291992,0.0059529077261686325,-0.0033917517866939306,-0.00021388170716818422,0.0,0.0,0.0,-0.0003971755795646459,0.001347807701677084,-0.0,0.0,0.0,0.0,-0.006895516067743301,-0.11403706669807434,-0.0009738131193444133,1495.0,20549.0,19442.0,1495.0,-0.10210280120372772,0.9820162653923035,0.8751798272132874,-0.11452613770961761,0.0,0.0,0.0,0.0,1495.0,20539.0,19434.0,1495.0,1.6405653953552246,-3.064211386120285,0.295449726969339,-3.108335434174034,-0.005328110419213772,-0.001207771128974855,0.0
154,5,-9.976776709663682e-06,1.4343565453600604e-05,2.0835908799199387e-05,0.00044971518218517303,0.0012828645994886756,0.00207215896807611,0.02169828675687313,0.3787064552307129,-0.009328138083219528,0.001550951972603798,-0.0019051756244152784,0.001769936759956181,0.0,0.0,0.0,-0.0003971755795646459,0.001347807701677084,-0.0,0.0,0.0,0.0,-0.006569302640855312,-0.11458563059568405,-0.0009055714472196996,1495.0,20520.0,19468.0,1495.0,-0.10735896974802017,0.9791551828384399,0.8775695562362671,-0.1192639172077179,0.0,0.0,0.0,0.0,1495.0,20526.0,19456.0,1495.0,1.6405653953552246,-3.063078472535761,0.2954806822239427,-3.1087171045556135,-0.005328110419213772,-0.001207771128974855,0.0
159,5,-6.6389657149557024e-06,-7.469397473869321e-07,1.9545954273780808e-05,0.0005804233951494098,0.0023240065202116966,0.0009836582466959953,0.02169828675687313,0.3787064552307129,-0.009328138083219528,0.001550951972603798,-0.0019051756244152784,0.001769936759956181,0.0,0.0,0.0,-0.0015570969553664327,0.0004129417357034981,-0.0,0.0,0.0,0.0,-0.006569302640855312,-0.11458563059568405,-0.0009055714472196996,1495.0,20520.0,19468.0,1495.0,-0.10735896974802017,0.9791551828384399,0.8775695562362671,-0.1192639172077179,0.0,0.0,0.0,0.0,1495.0,20526.0,19456.0,1495.0,1.6393239498138428,-3.0627014246166757,0.2951302693849224,-3.1087774888584176,-0.0016311914660036564,-0.004731389228254557,-0.0
164,5,-1.9510731362970546e-05,-7.495459612982813e-07,1.6213998605962843e-05,-0.0013124425895512104,0.0009299153462052345,0.0007932980079203844,0.02169828675687313,0.3787064552307129,-0.009328138083219528,0.001550951972603798,-0.0019051756244152784,0.001769936759956181,0.0,0.0,0.0,-0.0015570969553664327,0.0004129417357034981,-0.0,0.0,0.0,0.0,-0.0061799692921340466,-0.1146751120686531,-0.0013288975460454822,1495.0,20656.0,19363.0,1495.0,-0.12209581583738327,0.9927022457122803,0.8677887916564941,-0.10376186668872833,0.0,0.0,0.0,0.0,1495.0,20524.0,19483.0,1495.0,1.6393239498138428,-3.063342927518836,0.29560399260708403,-3.1089880161314873,-0.0016311914660036564,-0.004731389228254557,-0.0
169,5,-2.0389528799569234e-05,4.035558049508836e-06,1.4230621673050337e-05,-0.0006304325652308762,-0.0002022463595494628,0.0005553243681788445,0.02169828675687313,0.3787064552307129,-0.009328138083219528,0.001550951972603798,-0.0019051756244152784,0.001769936759956181,0.0,0.0,0.0,-0.0011467173462733626,-0.0012708650901913643,-0.0,0.0,0.0,0.0,-0.0061799692921340466,-0.1146751120686531,-0.0013288975460454822,1495.0,20656.0,19363.0,1495.0,-0.12209581583738327,0.9927022457122803,0.8677887916564941,-0.10376186668872833,0.0,0.0,0.0,0.0,1495.0,20524.0,19483.0,1495.0,1.6423499584197998,-3.0637839825982733,0.29551149943030286,-3.10895220555409,0.0050294054672122,-0.003490844275802374,-0.0
174,5,-1.8610253391670994e-05,5.145148861629423e-06,9.654550012783147e-06,-3.8659964047838e-05,-0.00021404941799119115,0.00077125831739977,0.021617215126752853,0.3788207471370697,-0.009212358854711056,-0.008578556589782238,-0.006659143138676882,0.0465453639626503,0.0,0.0,0.0,-0.0011467173462733626,-0.0012708650901913643,-0.0,0.0,0.0,0.0,-0.006500252056866884,-0.11445409059524536,0.0007531878654845059,1495.0,20247.0,19786.0,1495.0,-0.07571659237146378,0.9522107243537903,0.9077256321907043,-0.14365437626838684,0.0,0.0,0.0,0.0,1495.0,20698.0,19314.0,1495.0,1.6423499584197998,-3.0633192602343646,0.29540393683533495,-3.1085263429165466,0.0050294054672122,-0.003490844275802374,-0.0
179,5,-1.125298240367556e-05,1.1658872608677484e-05,1.0332540114177391e-05,0.0008674084674566984,-0.0008672666153870523,0.0002271445409860462,0.021617215126752853,0.3788207471370697,-0.009212358854711056,-0.008578556589782238,-0.006659143138676882,0.0465453639626503,0.0,0.0,0.0,0.00027545896591618657,-6.315824430203065e-05,-0.0,0.0,0.0,0.0,-0.006500252056866884,-0.11445409059524536,0.0007531878654845059,1495.0,20247.0,19786.0,1495.0,-0.07571659237146378,0.9522107243537903,0.9077256321907043,-0.14365437626838684,0.0,0.0,0.0,0.0,1495.0,20698.0,19314.0,1495.0,1.6284600496292114,-3.0634708253149263,0.29503830899923356,-3.108413346368483,0.00024783294065855443,0.0008314623264595866,-0.0
184,5,-2.2413223632611334e-05,1.1741896742023528e-05,8.960972081695218e-06,-0.0009922655299305916,-0.00035686951014213264,0.0002554460079409182,0.02188725583255291,0.3788064420223236,-0.009694766253232956,0.0029476818162947893,-0.013053960166871548,0.0010760725708678365,0.0,0.0,0.0,0.00027545896591618657,-6.315824430203065e-05,-0.0,0.0,0.0,0.0,-0.007230798248201609,-0.11475135385990143,-0.0018287071725353599,1495.0,20596.0,19465.0,1495.0,-0.10543788969516754,0.9866485595703125,0.8772998452186584,-0.11918650567531586,0.0,0.0,0.0,0.0,1495.0,20649.0,19337.0,1495.0,1.6284600496292114,-3.0637164967343624,0.2958047589745491,-3.109154568103831,0.00024783294065855443,0.0008314623264595866,-0.0
189,5,-1.613703352632001e-05,6.86588555254275e-06,2.214646701759193e-05,0.00035623653093352914,0.0004423735081218183,-0.001480081002227962,0.02188725583255291,0.3788064420223236,-0.009694766253232956,0.0029476818162947893,-0.013053960166871548,0.0010760725708678365,0.0,0.0,0.0,-0.000535968691110611,0.00031712179770693183,-0.0,0.0,0.0,0.0,-0.007230798248201609,-0.11475135385990143,-0.0018287071725353599,1495.0,20596.0,19465.0,1495.0,-0.10543788969516754,0.9866485595703125,0.8772998452186584,-0.11918650567531586,0.0,0.0,0.0,0.0,1495.0,20649.0,19337.0,1495.0,1.6312962770462036,-3.0630018004952078,0.2953559641014401,-3.1085041514432477,-0.0012465531472116709,-0.0016206185100600123,0.0
194,5,-1.0586317330307793e-05,6.717345058859792e-06,1.3811667486152146e-05,0.0008085805457085371,0.00019477427122183144,0.0004081434744875878,0.02188725583255291,0.3788064420223236,-0.009694766253232956,0.0029476818162947893,-0.013053960166871548,0.0010760725708678365,0.0,0.0,0.0,-0.000535968691110611,0.00031712179770693183,-0.0,0.0,0.0,0.0,-0.006906252820044756,-0.1149134412407875,-0.0020762979984283447,1495.0,21133.0,18888.0,1495.0,-0.15811794996261597,1.040931224822998,0.8239985108375549,-0.06446173787117004,0.0,0.0,0.0,0.0,1495.0,20141.0,20013.0,1495.0,1.6312962770462036,-3.063528354132941,0.2956381378064328,-3.1085508196178475,-0.0012465531472116709,-0.0016206185100600123,0.0
199,5,-1.2676836377067957e-05,5.6754979596007615e-06,3.158287290716544e-05,7.256990647874773e-05,0.00020293131819926202,-0.0019692874047905207,0.02188725583255291,0.3788064420223236,-0.009694766253232956,0.0029476818162947893,-0.013053960166871548,0.0010760725708678365,0.0,0.0,0.0,-0.00024159246822819114,5.1424580306047574e-05,-0.0,0.0,0.0,0.0,-0.006906252820044756,-0.1149134412407875,-0.0020762979984283447,1495.0,21133.0,18888.0,1495.0,-0.15811794996261597,1.040931224822998,0.8239985108375549,-0.06446173787117004,0.0,0.0,0.0,0.0,1495.0,20141.0,20013.0,1495.0,1.6284600496292114,-3.063811422081734,0.29513583430470186,-3.109004440068843,-0.0002017900551436469,-0.0007292375667020679,0.0
204,5,-9.099056114791892e-06,8.595209692430217e-06,3.291318716946989e-05,0.0004583616682793945,-0.0002691928530111909,-0.0009473523241467774,0.021506963297724724,0.37892115116119385,-0.008971217088401318,0.017802568152546883,0.014246571809053421,-0.08737392723560333,0.0,0.0,0.0,-0.00024159246822819114,5.1424580306047574e-05,-0.0,0.0,0.0,0.0,-0.006036907900124788,-0.11397840082645416,0.001356766326352954,1495.0,20006.0,19928.0,1495.0,-0.06293749064207077,0.9288609027862549,0.9213300943374634,-0.15879352390766144,0.0,0.0,0.0,0.0,1495.0,21273.0,18729.0,1495.0,1.6284600496292114,-3.0635025944868906,0.2953923708502188,-3.1088693655975193,-0.0002017900551436469,-0.0007292375667020679,0.0
210,5,-9.430660270481894e-07,-4.578670541377505e-06,4.2546020267764106e-05,0.0011620634468272328,0.0014731885166838765,-0.0015348810702562332,0.021506963297724724,0.37892115116119385,-0.008971217088401318,0.017802568152546883,0.014246571809053421,-0.08737392723560333,0.0,0.0,0.0,0.00034971474087797105,0.0004244260198902339,-0.0,0.0,0.0,0.0,-0.006036907900124788,-0.11397840082645416,0.001356766326352954,1495.0,20006.0,19928.0,1495.0,-0.06293749064207077,0.9288609027862549,0.9213300943374634,-0.15879352390766144,0.0,0.0,0.0,0.0,1495.0,21273.0,18729.0,1495.0,1.6311074495315552,-3.0628726817923595,0.29537159791544976,-3.109251056303099,-0.0016681550769135356,0.0010573165491223335,0.0
215,5,2.219446105300449e-05,-2.068476351269055e-05,5.566589970840141e-05,0.0032413285225629807,0.002522006630897522,-0.002188337966799736,0.021891331300139427,0.3786892294883728,-0.009347465820610523,-0.0007888639811426401,0.06266584992408752,0.019753599539399147,0.0,0.0,0.0,0.00034971474087797105,0.0004244260198902339,-0.0,0.0,0.0,0.0,-0.006966384127736092,-0.11212074756622314,-0.0010875307489186525,1495.0,20292.0,19465.0,1495.0,-0.0831277072429657,0.9566723704338074,0.8773044347763062,-0.119552843272686,0.0,0.0,0.0,0.0,1495.0,20405.0,19503.0,1495.0,1.6311074495315552,-3.0637314493064483,0.2930036771250495,-3.109015098292722,-0.0016681550769135356,0.0010573165491223335,0.0
220,5,4.046983667649329e-05,-6.9850207182753365e-06,0.00010403351188870147,0.0034895765129476786,-0.0006351664778776467,-0.006679448299109936,0.021891331300139427,0.3786892294883728,-0.009347465820610523,-0.0007888639811426401,0.06266584992408752,0.019753599539399147,0.0,0.0,0.0,-0.0030958871357142925,0.003054702188819647,-0.0,0.0,0.0,0.0,-0.006966384127736092,-0.11212074756622314,-0.0010875307489186525,1495.0,20292.0,19465.0,1495.0,-0.0831277072429657,0.9566723704338074,0.8773044347763062,-0.119552843272686,0.0,0.0,0.0,0.0,1495.0,20405.0,19503.0,1495.0,1.667844533920288,-3.0643306698658974,0.2926912957960157,-3.1084244160467795,-0.01227647252380848,-0.009570794180035591,0.0
225,5,8.21338253444992e-05,-1.3859126738680061e-05,0.00014415112673304975,0.0063955094665288925,0.0005708261160179973,-0.0074858940206468105,0.021464979276061058,0.37708431482315063,-0.00880496110767126,0.01874614879488945,0.2546862065792084,-0.0301267821341753,0.0,0.0,0.0,-0.0030958871357142925,0.003054702188819647,-0.0,0.0,0.0,0.0,-0.0066267699003219604,-0.10734440386295319,-0.0010851678671315312,1495.0,20353.0,18871.0,1495.0,-0.08951786160469055,0.9626619219779968,0.8224283456802368,-0.06711233407258987,0.0,0.0,0.0,0.0,1495.0,19941.0,19791.0,1495.0,1.667844533920288,-3.064026012394613,0.2902100887392613,-3.108979761365182,-0.01227647252380848,-0.009570794180035591,0.0
230,5,0.00017623452004045248,-2.5595363695174456e-05,0.00025240154354833066,0.013850287534296513,0.0016366789350286126,-0.01598440669476986,0.021464979276061058,0.37708431482315063,-0.00880496110767126,0.01874614879488945,0.2546862065792084,-0.0301267821341753,0.0,0.0,0.0,-0.0030958871357142925,0.003054702188819647,-0.0,0.0,0.0,0.0,-0.0066267699003219604,-0.10734440386295319,-0.0010851678671315312,1495.0,20353.0,18871.0,1495.0,-0.08951786160469055,0.9626619219779968,0.8224283456802368,-0.06711233407258987,0.0,0.0,0.0,0.0,1495.0,19941.0,19791.0,1495.0,1.667844533920288,-3.06482684910981,0.2861496715503523,-3.1085274884848593,-0.01227647252380848,-0.009570794180035591,0.0
235,5,0.00032724300399422646,-2.883802335418295e-05,0.00041356682777404785,0.023661132901906967,0.0010437906021252275,-0.025733597576618195,0.0214827973395586,0.37346723675727844,-0.008843877352774143,-0.02085065096616745,0.8174482583999634,0.021834738552570343,0.0,0.0,0.0,-0.001915570697747171,0.012418570928275585,-0.0,0.0,0.0,0.0,-0.005963128060102463,-0.0937281996011734,-0.0003640839131549001,2752.0,19261.0,18517.0,1495.0,0.00867488607764244,0.8582755327224731,0.7905562520027161,-0.026399169117212296,0.0,0.0,0.0,0.0,4781.0,18938.0,18292.0,1495.0,1.7681089639663696,-3.064963246242284,0.27998172708036984,-3.107532374175221,-0.05290790647268295,-0.006277912762016058,0.0
240,5,0.0005437821382656693,-7.039938736852491e-06,0.0005695392028428614,0.03544914722442627,-0.002198253758251667,-0.029010126367211342,0.0214827973395586,0.37346723675727844,-0.008843877352774143,-0.02085065096616745,0.8174482583999634,0.021834738552570343,0.0,0.0,0.0,-0.001915570697747171,0.012418570928275585,-0.0,0.0,0.0,0.0,-0.005963128060102463,-0.0937281996011734,-0.0003640839131549001,2752.0,19261.0,18517.0,1495.0,0.00867488607764244,0.8582755327224731,0.7905562520027161,-0.026399169117212296,0.0,0.0,0.0,0.0,4781.0,18938.0,18292.0,1495.0,1.7681089639663696,-3.0662983019444754,0.272486253213752,-3.1065558547470116,-0.05290790647268295,-0.006277912762016058,0.0
245,5,0.0008208688232116401,-3.193482552887872e-05,0.0007746957708150148,0.04743006452918053,0.0021080849692225456,-0.03622283786535263,0.021391741931438446,0.35810646414756775,-0.008769498206675053,-0.018031058833003044,1.9065229892730713,-0.06348074972629547,0.0,0.0,0.0,0.002235873369500041,0.028496025130152702,-0.0,0.0,0.0,0.0,-0.007483429741114378,-0.06267257034778595,-0.002783693140372634,7637.0,18395.0,16145.0,9188.0,0.11765126883983612,0.7796971201896667,0.59321528673172,0.17728088796138763,0.0,0.0,0.0,0.0,8960.0,17788.0,15995.0,9517.0,1.9798376560211182,-3.0672696986499037,0.2589436784498976,-3.105410641351438,-0.13592705130577087,0.008205114863812923,0.0
250,5,0.0011553221847862005,-5.7128800108330324e-05,0.0010401599574834108,0.05910642817616463,0.003866510698571801,-0.04634483903646469,0.021391741931438446,0.35810646414756775,-0.008769498206675053,-0.018031058833003044,1.9065229892730713,-0.06348074972629547,0.0,0.0,0.0,0.002235873369500041,0.028496025130152702,-0.0,0.0,0.0,0.0,-0.007483429741114378,-0.06267257034778595,-0.002783693140372634,7637.0,18395.0,16145.0,9188.0,0.11765126883983612,0.7796971201896667,0.59321528673172,0.17728088796138763,0.0,0.0,0.0,0.0,8960.0,17788.0,15995.0,9517.0,1.9798376560211182,-3.0663730983521553,0.24214068979874115,-3.104350668821795,-0.13592705130577087,0.008205114863812923,0.0
255,5,0.0015492085367441177,-3.209194983355701e-05,0.0014189555076882243,0.07090893387794495,-0.0014578178524971008,-0.06399340182542801,0.021061280742287636,0.3377452790737152,-0.008500836789608002,-0.008626271039247513,3.387277364730835,-0.09561465680599213,0.0,0.0,0.0,-0.003630249295383692,0.04299567639827728,-0.0,0.0,0.0,0.0,-0.005368781741708517,0.043279025703668594,-0.0022361178416758776,12266.0,16460.0,13248.0,13838.0,0.3313854932785034,0.6178057193756104,0.39052844047546387,0.42838937044143677,0.0,0.0,0.0,0.0,13023.0,15905.0,12042.0,14862.0,2.2014694213867188,-3.0650920323304525,0.21952092942154647,-3.102772747002166,-0.22800935804843903,-0.014813439920544624,0.0
260,5,0.0020351456478238106,-0.0001282884768443182,0.001836163573898375,0.08667601644992828,0.010960456915199757,-0.07566232979297638,0.021061280742287636,0.3377452790737152,-0.008500836789608002,-0.008626271039247513,3.387277364730835,-0.09561465680599213,0.0,0.0,0.0,-0.003630249295383692,0.04299567639827728,-0.0,0.0,0.0,0.0,-0.005368781741708517,0.043279025703668594,-0.0022361178416758776,12266.0,16460.0,13248.0,13838.0,0.3313854932785034,0.6178057193756104,0.39052844047546387,0.42838937044143677,0.0,0.0,0.0,0.0,13023.0,15905.0,12042.0,14862.0,2.2014694213867188,-3.0657438236384764,0.19325280073341353,-3.1019277751143504,-0.22800935804843903,-0.014813439920544624,0.0
265,5,0.0026654601097106934,-0.00018586979422252625,0.0021650325506925583,0.11030815541744232,0.011293940246105194,-0.06972920894622803,0.021061280742287636,0.3377452790737152,-0.008500836789608002,-0.008626271039247513,3.387277364730835,-0.09561465680599213,0.0,0.0,0.0,-0.009218950755894184,0.057066015899181366,-0.0,0.0,0.0,0.0,-0.005368781741708517,0.043279025703668594,-0.0022361178416758776,12266.0,16460.0,13248.0,13838.0,0.3313854932785034,0.6178057193756104,0.39052844047546387,0.42838937044143677,0.0,0.0,0.0,0.0,13023.0,15905.0,12042.0,14862.0,2.446673631668091,-3.064582322176898,0.16480522479275028,-3.0997673652367275,-0.3362414836883545,-0.041807565838098526,0.0
271,5,0.003335364395752549,-0.00014309812104329467,0.002722996287047863,0.12451175600290298,-0.0006150251138024032,-0.09484733641147614,0.020633844658732414,0.2883375585079193,-0.008522054180502892,-0.053433146327733994,5.047578811645508,-0.050629179924726486,0.0,0.0,0.0,-0.009218950755894184,0.057066015899181366,-0.0,0.0,0.0,0.0,-0.0094560906291008,0.09857667982578278,-0.005270354449748993,19995.0,10807.0,1495.0,21691.0,0.927801787853241,0.252413272857666,-0.07743413746356964,1.0986883640289307,0.0,0.0,0.0,0.0,17557.0,12238.0,8803.0,18415.0,2.446673631668091,-3.0646007242373052,0.13516721296162937,-3.0966131711439053,-0.3362414836883545,-0.041807565838098526,0.0
276,5,0.004069462418556213,-0.000108539687062148,0.0031774486415088177,0.13789644837379456,-0.004393022507429123,-0.09247321635484695,0.020633844658732414,0.2883375585079193,-0.008522054180502892,-0.053433146327733994,5.047578811645508,-0.050629179924726486,0.0,0.0,0.0,0.00029913909384049475,0.07360313832759857,-0.0,0.0,0.0,0.0,-0.0094560906291008,0.09857667982578278,-0.005270354449748993,19995.0,10807.0,1495.0,21691.0,0.927801787853241,0.252413272857666,-0.07743413746356964,1.0986883640289307,0.0,0.0,0.0,0.0,17557.0,12238.0,8803.0,18415.0,2.7386960983276367,-3.067814110276761,0.10218513369001389,-3.0935719389748995,-0.4852883815765381,0.0015185377560555935,0.0
281,5,0.0050105382688343525,-0.0002627826470416039,0.0036101974546909332,0.1680876761674881,0.01675194688141346,-0.08891912549734116,0.02031121402978897,0.2426919937133789,-0.00859307311475277,-0.038456350564956665,6.524628639221191,-0.16573631763458252,0.0,0.0,0.0,0.00029913909384049475,0.07360313832759857,-0.0,0.0,0.0,0.0,-0.010015122592449188,0.15533465147018433,-0.004229702986776829,19995.0,10807.0,1495.0,21691.0,0.927801787853241,0.252413272857666,-0.07743413746356964,1.0986883640289307,0.0,0.0,0.0,0.0,20788.0,8946.0,1495.0,22138.0,2.7386960983276367,-3.0612925587812465,0.06320017094706752,-3.0918043607390597,-0.4852883815765381,0.0015185377560555935,0.0
286,5,0.0058613307774066925,-0.0002882451517507434,0.003968067932873964,0.16933020949363708,0.009756279177963734,-0.07851213216781616,0.02031121402978897,0.2426919937133789,-0.00859307311475277,-0.038456350564956665,6.524628639221191,-0.16573631763458252,0.0,0.0,0.0,-0.011409711092710495,0.08997482806444168,-0.0,0.0,0.0,0.0,-0.010015122592449188,0.15533465147018433,-0.004229702986776829,19995.0,10807.0,1495.0,21691.0,0.927801787853241,0.252413272857666,-0.07743413746356964,1.0986883640289307,0.0,0.0,0.0,0.0,20788.0,8946.0,1495.0,22138.0,3.038928985595703,-3.0644091775811364,0.02604415582019394,-3.0899517171908966,-0.6579290628433228,-0.06426679342985153,0.0
291,5,0.006765537895262241,-0.0002498836547601968,0.004376164637506008,0.17623695731163025,-0.0007008673273958266,-0.08037642389535904,0.01950743980705738,0.15883250534534454,-0.008421899750828743,-0.05829084292054176,7.584043502807617,-0.15204009413719177,0.0,0.0,0.0,-0.011409711092710495,0.08997482806444168,-0.0,0.0,0.0,0.0,-0.007244594395160675,0.19447141885757446,-0.0037549661938101053,25362.0,1495.0,1495.0,26245.0,1.5182099342346191,-0.08936524391174316,-0.3192968964576721,1.629148244857788,0.0,0.0,0.0,0.0,23069.0,6377.0,1495.0,24726.0,3.038928985595703,-3.063713256958389,-0.010164632854395167,-3.0872273056294377,-0.6579290628433228,-0.06426679342985153,0.0
296,5,0.00781898945569992,-0.00022493298456538469,0.004762900993227959,0.19690896570682526,-0.0032744293566793203,-0.07855896651744843,0.01950743980705738,0.15883250534534454,-0.008421899750828743,-0.05829084292054176,7.584043502807617,-0.15204009413719177,0.0,0.0,0.0,0.0002181108429795131,0.09374670684337616,-0.0,0.0,0.0,0.0,-0.007244594395160675,0.19447141885757446,-0.0037549661938101053,25362.0,1495.0,1495.0,26245.0,1.5182099342346191,-0.08936524391174316,-0.3192968964576721,1.629148244857788,0.0,0.0,0.0,0.0,23069.0,6377.0,1495.0,24726.0,3.095184087753296,-3.0609968829562915,-0.04910415914266584,-3.0829479198339755,-0.6981650590896606,0.0012513312976807356,0.0
301,5,0.008846360258758068,-0.0002921622071880847,0.0050486186519265175,0.20204804837703705,0.006757737603038549,-0.0657096803188324,0.01933879591524601,0.09617529064416885,-0.0087368693202734,-0.05344415828585625,8.16185188293457,-0.10158137232065201,0.0,0.0,0.0,0.0002181108429795131,0.09374670684337616,-0.0,0.0,0.0,0.0,-0.012385455891489983,0.20000000298023224,-0.0054771206341683865,25987.0,4165.0,1495.0,27107.0,1.5963490009307861,0.027892962098121643,-0.3266102969646454,1.7412973642349243,0.0,0.0,0.0,0.0,25478.0,1495.0,1495.0,26446.0,3.095184087753296,-3.055599658422417,-0.0888557216215125,-3.080547200716946,-0.6981650590896606,0.0012513312976807356,0.0
306,5,0.009843683801591396,-0.00026519520906731486,0.005410893354564905,0.2004980891942978,-0.0005329448613338172,-0.06975685060024261,0.01933879591524601,0.09617529064416885,-0.0087368693202734,-0.05344415828585625,8.16185188293457,-0.10158137232065201,0.0,0.0,0.0,-0.004479354713112116,0.1032816544175148,-0.0,0.0,0.0,0.0,-0.012385455891489983,0.20000000298023224,-0.0054771206341683865,25987.0,4165.0,1495.0,27107.0,1.5963490009307861,0.027892962098121643,-0.3266102969646454,1.7412973642349243,0.0,0.0,0.0,0.0,25478.0,1495.0,1495.0,26446.0,3.246156692504883,-3.0548243575657934,-0.12861125442296187,-3.077533423911263,-0.8064321279525757,-0.026951991021633148,0.0
311,5,0.011948870494961739,-0.0003325243014842272,0.00590731343254447,0.20866167545318604,0.015072266571223736,-0.05079519376158714,0.018479250371456146,-0.06861638277769089,-0.008493168279528618,-0.06935941427946091,8.308632850646973,-0.10957983136177063,0.0,0.0,0.0,-0.004479354713112116,0.1032816544175148,-0.0,0.0,0.0,0.0,-0.006341399159282446,0.20000000298023224,-0.0035546147264540195,26188.0,1495.0,1495.0,27127.0,1.6218197345733643,-0.017165683209896088,-0.25342410802841187,1.743954062461853,0.0,0.0,0.0,0.0,26087.0,2918.0,1495.0,27011.0,3.246156692504883,-3.047478086970679,-0.2084750115443969,-3.0715062354968388,-0.8064321279525757,-0.026951991021633148,0.0
316,5,0.011948870494961739,-0.0003325243014842272,0.00590731343254447,0.20866167545318604,0.015072266571223736,-0.05079519376158714,0.018479250371456146,-0.06861638277769089,-0.008493168279528618,-0.06935941427946091,8.308632850646973,-0.10957983136177063,0.0,0.0,0.0,-0.009538412094116211,0.10687141865491867,-0.0,0.0,0.0,0.0,-0.006341399159282446,0.20000000298023224,-0.0035546147264540195,26188.0,1495.0,1495.0,27127.0,1.6218197345733643,-0.017165683209896088,-0.25342410802841187,1.743954062461853,0.0,0.0,0.0,0.0,26087.0,2918.0,1495.0,27011.0,3.3006742000579834,-3.047478086970679,-0.2084750115443969,-3.0715062354968388,-0.8483388423919678,-0.05835463106632233,0.0
321,5,0.01410437747836113,-0.00021608105453196913,0.006092645227909088,0.21525220572948456,-0.008377090096473694,-0.02210078574717045,0.01807207614183426,-0.1676020622253418,-0.008298972621560097,-0.07004091143608093,8.246959686279297,-0.10602004081010818,0.0,0.0,0.0,-0.009538412094116211,0.10687141865491867,-0.0,0.0,0.0,0.0,-0.0068132043816149235,0.20000000298023224,-0.003856534603983164,26542.0,3869.0,1495.0,27353.0,1.6673719882965088,0.023041166365146637,-0.21814465522766113,1.773888111114502,0.0,0.0,0.0,0.0,26098.0,2065.0,1495.0,27213.0,3.3006742000579834,-3.0499038195145163,-0.28859063835434995,-3.063725165316857,-0.8483388423919678,-0.05835463106632233,0.0
327,5,0.015211103484034538,-0.00024006831517908722,0.00649360753595829,0.21890799701213837,-0.0004723647434730083,-0.056955792009830475,0.01807207614183426,-0.1676020622253418,-0.008298972621560097,-0.07004091143608093,8.246959686279297,-0.10602004081010818,0.0,0.0,0.0,0.004878181032836437,0.11010846495628357,-0.0,0.0,0.0,0.0,-0.0068132043816149235,0.20000000298023224,-0.003856534603983164,26542.0,3869.0,1495.0,27353.0,1.6673719882965088,0.023041166365146637,-0.21814465522766113,1.773888111114502,0.0,0.0,0.0,0.0,26098.0,2065.0,1495.0,27213.0,3.342205286026001,-3.040944982327744,-0.3314930530404486,-3.0586039040028594,-0.8849579691886902,0.030220137909054756,0.0
332,5,0.015211103484034538,-0.00024006831517908722,0.00649360753595829,0.21890799701213837,-0.0004723647434730083,-0.056955792009830475,0.01761527545750141,-0.23291176557540894,-0.00809538271278143,-0.046821992844343185,8.114431381225586,-0.13449695706367493,0.0,0.0,0.0,0.004878181032836437,0.11010846495628357,-0.0,0.0,0.0,0.0,-0.008754076436161995,0.20000000298023224,-0.004425399471074343,26588.0,5858.0,1495.0,27512.0,1.6733003854751587,0.06411273777484894,-0.23195746541023254,1.7952184677124023,0.0,0.0,0.0,0.0,26686.0,5052.0,1495.0,27417.0,3.342205286026001,-3.040944982327744,-0.3314930530404486,-3.0586039040028594,-0.8849579691886902,0.030220137909054756,0.0
337,5,0.017460927367210388,-0.00034113138099201024,0.006725615356117487,0.22822147607803345,-0.0076109967194497585,-0.014160786755383015,0.01761527545750141,-0.23291176557540894,-0.00809538271278143,-0.046821992844343185,8.114431381225586,-0.13449695706367493,0.0,0.0,0.0,7.1307375037577e-05,0.11185019463300705,-0.0,0.0,0.0,0.0,-0.008754076436161995,0.20000000298023224,-0.004425399471074343,26588.0,5858.0,1495.0,27512.0,1.6733003854751587,0.06411273777484894,-0.23195746541023254,1.7952184677124023,0.0,0.0,0.0,0.0,26686.0,5052.0,1495.0,27417.0,3.3641350269317627,-3.04693380183074,-0.42091649717295493,-3.0529721139337167,-0.904807448387146,0.00044464808888733387,0.0
342,5,0.018557682633399963,-0.00037484217318706214,0.006674648262560368,0.22289922833442688,0.001000897609628737,0.0004516917106229812,0.01681271754205227,-0.3290287256240845,-0.007528327405452728,-0.12775613367557526,7.94124698638916,-0.10587748885154724,0.0,0.0,0.0,7.1307375037577e-05,0.11185019463300705,-0.0,0.0,0.0,0.0,-0.0077302707359194756,0.20000000298023224,-0.003064734162762761,26669.0,4555.0,1495.0,27433.0,1.6838740110397339,0.03496532142162323,-0.20281004905700684,1.7846448421478271,0.0,0.0,0.0,0.0,26468.0,5288.0,1495.0,27781.0,3.3641350269317627,-3.042637214695665,-0.45952817155921516,-3.048168031384055,-0.904807448387146,0.00044464808888733387,0.0
347,5,0.018557682633399963,-0.00037484217318706214,0.006674648262560368,0.22289922833442688,0.001000897609628737,0.0004516917106229812,0.01681271754205227,-0.3290287256240845,-0.007528327405452728,-0.12775613367557526,7.94124698638916,-0.10587748885154724,0.0,0.0,0.0,-0.0009237703052349389,0.11475455015897751,-0.0,0.0,0.0,0.0,-0.0077302707359194756,0.20000000298023224,-0.003064734162762761,26669.0,4555.0,1495.0,27433.0,1.6838740110397339,0.03496532142162323,-0.20281004905700684,1.7846448421478271,0.0,0.0,0.0,0.0,26468.0,5288.0,1495.0,27781.0,3.400545120239258,-3.042637214695665,-0.45952817155921516,-3.048168031384055,-0.9382457137107849,-0.005822653882205486,-0.0
352,5,0.020642347633838654,-0.0003992111305706203,0.0065955910831689835,0.20472370088100433,0.005041398108005524,0.00671247486025095,0.01582551747560501,-0.3916884660720825,-0.007792465388774872,-0.09268820285797119,7.7336039543151855,-0.08973044902086258,0.0,0.0,0.0,-0.0009237703052349389,0.11475455015897751,-0.0,0.0,0.0,0.0,-0.004108736291527748,0.20000000298023224,-0.003969926852732897,26674.0,3467.0,1495.0,27584.0,1.6844310760498047,0.017153888940811157,-0.16423307359218597,1.8048534393310547,0.0,0.0,0.0,0.0,27155.0,1495.0,1495.0,27192.0,3.400545120239258,-3.0327644488773053,-0.5363702058316105,-3.039791369164435,-0.9382457137107849,-0.005822653882205486,-0.0
357,5,0.021629085764288902,-0.00037707327282987535,0.0064609902910888195,0.20029792189598083,-0.0006399855483323336,0.018837103620171547,0.01582551747560501,-0.3916884660720825,-0.007792465388774872,-0.09268820285797119,7.7336039543151855,-0.08973044902086258,0.0,0.0,0.0,-0.0009237703052349389,0.11475455015897751,-0.0,0.0,0.0,0.0,-0.004108736291527748,0.20000000298023224,-0.003969926852732897,26674.0,3467.0,1495.0,27584.0,1.6844310760498047,0.017153888940811157,-0.16423307359218597,1.8048534393310547,0.0,0.0,0.0,0.0,27155.0,1495.0,1495.0,27192.0,3.400545120239258,-3.030206903445089,-0.5725743001476584,-3.0339292158372446,-0.8704591989517212,0.0003170671407133341,-0.0
362,5,0.022692102938890457,-0.0003426269395276904,0.0062317862175405025,0.20768141746520996,-0.004389554262161255,0.03503931313753128,0.01582551747560501,-0.3916884660720825,-0.007792465388774872,-0.09268820285797119,7.7336039543151855,-0.08973044902086258,0.0,0.0,0.0,5.145076283952221e-05,0.10886891931295395,-0.0,0.0,0.0,0.0,-0.004108736291527748,0.20000000298023224,-0.003969926852732897,26674.0,3467.0,1495.0,27584.0,1.6844310760498047,0.017153888940811157,-0.16423307359218597,1.8048534393310547,0.0,0.0,0.0,0.0,27155.0,1495.0,1495.0,27192.0,3.3246877193450928,-3.0242770346142653,-0.6076220281139406,-3.0262982103161646,-0.8704591989517212,0.0003170671407133341,-0.0
367,5,0.023550333455204964,-0.00032282122992910445,0.006186091806739569,0.18606023490428925,-0.004132505971938372,0.01949906349182129,0.015558475628495216,-0.4826545715332031,-0.007035013288259506,-0.020000101998448372,7.41342830657959,-0.2879255712032318,0.0,0.0,0.0,0.002246319083496928,0.10473888367414474,-0.0,0.0,0.0,0.0,-0.008113709278404713,0.20000000298023224,-0.0057828244753181934,25961.0,9055.0,1495.0,28334.0,1.5930233001708984,0.17172226309776306,-0.3078365623950958,1.9072260856628418,0.0,0.0,0.0,0.0,25489.0,10618.0,1495.0,28758.0,3.2668726444244385,-3.023427638238672,-0.6416048897237424,-3.0267716804321085,-0.8229939341545105,0.013602274470031261,-0.0
372,5,0.02457362413406372,-0.0003852755471598357,0.005826770793646574,0.1972188800573349,0.005841514561325312,0.05091811344027519,0.015558475628495216,-0.4826545715332031,-0.007035013288259506,-0.020000101998448372,7.41342830657959,-0.2879255712032318,0.0,0.0,0.0,0.002246319083496928,0.10473888367414474,-0.0,0.0,0.0,0.0,-0.008113709278404713,0.20000000298023224,-0.0057828244753181934,25961.0,9055.0,1495.0,28334.0,1.5930233001708984,0.17172226309776306,-0.3078365623950958,1.9072260856628418,0.0,0.0,0.0,0.0,25489.0,10618.0,1495.0,28758.0,3.2668726444244385,-3.020444517070969,-0.6737864865229527,-3.0220709269057178,-0.8229939341545105,0.013602274470031261,-0.0
377,5,0.025527969002723694,-0.00029572442872449756,0.005631538573652506,0.1934089958667755,-0.008409528061747551,0.04379511624574661,0.014377858489751816,-0.5409553050994873,-0.008031516335904598,-0.08325476944446564,7.131847858428955,0.22045525908470154,0.0,0.0,0.0,0.002246319083496928,0.10473888367414474,-0.0,0.0,0.0,0.0,-0.010283628478646278,0.20000000298023224,-0.010905493050813675,28102.0,1495.0,5763.0,26354.0,1.875317931175232,-0.1796070635318756,0.06169780343770981,1.6431363821029663,0.0,0.0,0.0,0.0,28039.0,1495.0,4894.0,26421.0,3.2668726444244385,-3.017062143629445,-0.7067517866072208,-3.016400645732466,-0.8229939341545105,0.013602274470031261,-0.0
383,5,0.026355620473623276,-0.0002958787663374096,0.005270767956972122,0.17668166756629944,-0.0033452881034463644,0.06081053987145424,0.014377858489751816,-0.5409553050994873,-0.008031516335904598,-0.08325476944446564,7.131847858428955,0.22045525908470154,0.0,0.0,0.0,0.00485799228772521,0.10848318040370941,-0.0,0.0,0.0,0.0,-0.010283628478646278,0.20000000298023224,-0.010905493050813675,28102.0,1495.0,5763.0,26354.0,1.875317931175232,-0.1796070635318756,0.06169780343770981,1.6431363821029663,0.0,0.0,0.0,0.0,28039.0,1495.0,4894.0,26421.0,3.3203234672546387,-3.0204599917086585,-0.7397200751282177,-3.0187675645106284,-0.8662383556365967,0.029898036271333694,-0.0
388,5,0.027167435735464096,-0.00017392516019754112,0.005051305051892996,0.16809043288230896,-0.015972549095749855,0.05065978318452835,0.013808419927954674,-0.6250151991844177,-0.008073828183114529,-0.07429609447717667,6.934518337249756,-0.3646656572818756,0.0,0.0,0.0,0.00485799228772521,0.10848318040370941,-0.0,0.0,0.0,0.0,-0.0014681525062769651,0.20000000298023224,0.0012261298252269626,25464.0,9939.0,1495.0,28639.0,1.5308482646942139,0.21048209071159363,-0.36632004380226135,1.9496774673461914,0.0,0.0,0.0,0.0,26148.0,6804.0,1495.0,28017.0,3.3203234672546387,-3.013455566248279,-0.7778334435768506,-3.017794960894191,-0.8662383556365967,0.029898036271333694,-0.0
393,5,0.02747320383787155,0.008420117199420929,-0.00999122578650713,0.16809043288230896,-0.015972549095749855,0.05065978318452835,0.013808419927954674,-0.6250151991844177,-0.008073828183114529,-0.07429609447717667,6.934518337249756,-0.3646656572818756,0.0,0.0,0.0,0.009890942834317684,0.10093329101800919,-0.0,0.0,0.0,0.0,-0.0014681525062769651,0.20000000298023224,0.0012261298252269626,25464.0,9939.0,1495.0,28639.0,1.5308482646942139,0.21048209071159363,-0.36632004380226135,1.9496774673461914,0.0,0.0,0.0,0.0,26148.0,6804.0,1495.0,28017.0,3.2143497467041016,0.006415482582656552,0.4000400826781974,1.5910152855948332,-0.7804059386253357,0.058928653597831726,-0.0
398,5,0.029023369774222374,-0.0004154698981437832,0.0029865724500268698,0.16809043288230896,-0.015972549095749855,0.05065978318452835,0.01341341994702816,-0.6791616678237915,-0.006883714348077774,-0.013590851798653603,6.612411975860596,0.002387081505730748,0.0,0.0,0.0,0.009890942834317684,0.10093329101800919,-0.0,0.0,0.0,0.0,-0.0007877119933255017,0.20000000298023224,-0.0025687972083687782,26971.0,1495.0,1495.0,27009.0,1.723327398300171,-0.0626533031463623,-0.12209220230579376,1.7282906770706177,0.0,0.0,0.0,0.0,26266.0,5561.0,1495.0,27695.0,3.2143497467041016,-2.9859769012190815,-0.8894780823638618,-2.9852660120846823,-0.7804059386253357,0.058928653597831726,-0.0
403,5,0.029795827344059944,-0.0004399371100589633,0.0025702794082462788,0.1599309891462326,-0.0034529552794992924,0.07021908462047577,0.01341341994702816,-0.6791616678237915,-0.006883714348077774,-0.013590851798653603,6.612411975860596,0.002387081505730748,0.0,0.0,0.0,0.009627270512282848,0.10184181481599808,-0.0,0.0,0.0,0.0,-0.0007877119933255017,0.20000000298023224,-0.0025687972083687782,26971.0,1495.0,1495.0,27009.0,1.723327398300171,-0.0626533031463623,-0.12209220230579376,1.7282906770706177,0.0,0.0,0.0,0.0,26266.0,5561.0,1495.0,27695.0,3.227848529815674,-2.97881298596206,-0.9189479581224648,-2.9771625133847244,-0.7907151579856873,0.05759870260953903,-0.0
408,5,0.034878529608249664,0.0008529391488991678,-0.017231931909918785,0.1599309891462326,-0.0034529552794992924,0.07021908462047577,0.012012152932584286,-0.7568578720092773,-0.007917101494967937,-0.16969457268714905,6.284324645996094,0.0005018279189243913,0.0,0.0,0.0,0.009627270512282848,0.10184181481599808,-0.0,0.0,0.0,0.0,-0.0033091006334871054,0.20000000298023224,-0.005489671602845192,25835.0,5621.0,1495.0,27904.0,1.5771437883377075,0.05817601829767227,-0.2691829800605774,1.8482129573822021,0.0,0.0,0.0,0.0,27315.0,1495.0,1495.0,26865.0,3.227848529815674,-0.03749090651395747,0.9558204566514604,0.06307753483986303,-0.7907151579856873,0.05759870260953903,-0.0
413,5,0.03511868044734001,0.0009150623227469623,-0.0175237525254488,0.09279035031795502,-0.008835962042212486,0.06310603767633438,0.012012152932584286,-0.7568578720092773,-0.007917101494967937,-0.16969457268714905,6.284324645996094,0.0005018279189243913,0.0,0.0,0.0,0.0029468380380421877,0.10206971317529678,-0.0,0.0,0.0,0.0,-0.0033091006334871054,0.20000000298023224,-0.005489671602845192,25835.0,5621.0,1495.0,27904.0,1.5771437883377075,0.05817601829767227,-0.2691829800605774,1.8482129573822021,0.0,0.0,0.0,0.0,27315.0,1495.0,1495.0,26865.0,3.227567195892334,-0.04099531370076277,0.9784138865261236,0.06950624676967736,-0.7924426794052124,0.017629459500312805,0.0
418,5,0.035337742418050766,0.0010061213979497552,-0.01774991862475872,0.06340346485376358,-0.014461475424468517,0.052382420748472214,0.012140638194978237,-0.8049166202545166,-0.007118680514395237,-0.02606150321662426,5.752805709838867,-0.20946469902992249,0.0,0.0,0.0,0.0029468380380421877,0.10206971317529678,-0.0,0.0,0.0,0.0,0.0007748227217234671,0.20000000298023224,0.00014383903180714697,26864.0,1495.0,1495.0,26967.0,1.7093477249145508,-0.09763582050800323,-0.10662174224853516,1.722758412361145,0.0,0.0,0.0,0.0,25903.0,4692.0,1495.0,27840.0,3.227567195892334,-0.03936916400163061,0.9953064701413173,0.07454524857738294,-0.7924426794052124,0.017629459500312805,0.0
423,5,0.03553152456879616,0.0009972485713660717,-0.018032275140285492,0.04861530289053917,-0.004719853866845369,0.05483561009168625,0.012140638194978237,-0.8049166202545166,-0.007118680514395237,-0.02606150321662426,5.752805709838867,-0.20946469902992249,0.0,0.0,0.0,0.012179533950984478,0.06795860826969147,-0.0,0.0,0.0,0.0,0.0007748227217234671,0.20000000298023224,0.00014383903180714697,26864.0,1495.0,1495.0,26967.0,1.7093477249145508,-0.09763582050800323,-0.10662174224853516,1.722758412361145,0.0,0.0,0.0,0.0,25903.0,4692.0,1495.0,27840.0,2.647111415863037,-0.045956087071612604,1.0144976168959845,0.07913399346560043,-0.43311381340026855,0.05975743383169174,0.0
428,5,0.03585396707057953,0.001093254773877561,-0.01809683069586754,0.05813940241932869,-0.013408677652478218,0.029680926352739334,0.011206772178411484,-0.8678675889968872,-0.007360509131103754,-0.034822020679712296,4.639562606811523,0.021083688363432884,0.0,0.0,0.0,0.012179533950984478,0.06795860826969147,-0.0,0.0,0.0,0.0,-0.0010807131184265018,0.20000000298023224,-0.0026794658042490482,26590.0,1495.0,1495.0,27236.0,1.6736078262329102,-0.05354388803243637,-0.15085434913635254,1.7583576440811157,0.0,0.0,0.0,0.0,26556.0,1495.0,1495.0,27271.0,2.647111415863037,-0.040427567026575816,1.0219215638053785,0.08046454063003923,-0.43311381340026855,0.05975743383169174,0.0
433,5,0.03612418472766876,0.001090866862796247,-0.01806458830833435,0.055681873112916946,-0.0050769285298883915,0.008003289811313152,0.011206772178411484,-0.8678675889968872,-0.007360509131103754,-0.034822020679712296,4.639562606811523,0.021083688363432884,0.0,0.0,0.0,0.011620714329183102,0.06616277992725372,-0.0,0.0,0.0,0.0,-0.0010807131184265018,0.20000000298023224,-0.0026794658042490482,26590.0,1495.0,1495.0,27236.0,1.6736078262329102,-0.05354388803243637,-0.15085434913635254,1.7583576440811157,0.0,0.0,0.0,0.0,26556.0,1495.0,1495.0,27271.0,2.6135268211364746,-0.0353192793268487,1.0252407727590278,0.08207570056231078,-0.4163382947444916,0.05629250407218933,0.0
438,5,0.03653675317764282,0.0011010265443474054,-0.01776992902159691,0.07178091257810593,-0.003249929053708911,-0.03215781971812248,0.010462626814842224,-0.8980134129524231,-0.008166736923158169,-0.11510493606328964,2.7185304164886475,-0.03951341658830643,0.0,0.0,0.0,0.011620714329183102,0.06616277992725372,-0.0,0.0,0.0,0.0,0.001389562850818038,0.20000000298023224,-0.001510519185103476,25391.0,1495.0,1495.0,26173.0,1.5218032598495483,-0.20979644358158112,-0.28482967615127563,1.619934320449829,0.0,0.0,0.0,0.0,26844.0,1495.0,1495.0,26986.0,2.6135268211364746,-0.028051260714312805,1.018684093739202,0.08214806894910734,-0.4163382947444916,0.05629250407218933,0.0
443,5,0.0369056798517704,0.001120972796343267,-0.01737355813384056,0.07298363745212555,-0.0036935273092240095,-0.060427580028772354,0.010462626814842224,-0.8980134129524231,-0.008166736923158169,-0.11510493606328964,2.7185304164886475,-0.03951341658830643,0.0,0.0,0.0,0.0036275757011026144,0.07216134667396545,-0.0,0.0,0.0,0.0,0.001389562850818038,0.20000000298023224,-0.001510519185103476,25391.0,1495.0,1495.0,26173.0,1.5218032598495483,-0.20979644358158112,-0.28482967615127563,1.619934320449829,0.0,0.0,0.0,0.0,26844.0,1495.0,1495.0,26986.0,2.7132627964019775,-0.02279530688151112,1.008674175499905,0.08316217060493454,-0.4713771641254425,0.01824379339814186,0.0
448,5,0.03721872717142105,0.0009576050215400755,-0.017025725916028023,0.06675894558429718,0.018126731738448143,-0.06591083109378815,0.009314009919762611,-0.901818573474884,-0.008137683384120464,-0.0051961722783744335,-3.1648268699645996,0.0721963569521904,0.0,0.0,0.0,0.0036275757011026144,0.07216134667396545,-0.0,0.0,0.0,0.0,0.0005861924146302044,0.20000000298023224,0.0008099150145426393,25906.0,1495.0,1495.0,25529.0,1.5861170291900635,-0.2806171476840973,-0.23080125451087952,1.5388282537460327,0.0,0.0,0.0,0.0,25344.0,1495.0,1495.0,26218.0,2.7132627964019775,-0.018255078558374355,0.9948517892238355,0.08178599906079016,-0.4713771641254425,0.01824379339814186,0.0
454,5,0.03754414990544319,0.00083520746557042,-0.016392860561609268,0.06575414538383484,0.021938394755125046,-0.10230818390846252,0.009314009919762611,-0.901818573474884,-0.008137683384120464,-0.0051961722783744335,-3.1648268699645996,0.0721963569521904,0.0,0.0,0.0,-0.012565034441649914,0.07041525840759277,-0.0,0.0,0.0,0.0,0.0005861924146302044,0.20000000298023224,0.0008099150145426393,25906.0,1495.0,1495.0,25529.0,1.5861170291900635,-0.2806171476840973,-0.23080125451087952,1.5388282537460327,0.0,0.0,0.0,0.0,25344.0,1495.0,1495.0,26218.0,2.6924326419830322,-0.015033451412075212,0.9727425958704173,0.08235177826059167,-0.45642590522766113,-0.06270415335893631,0.0
459,5,0.037859052419662476,0.0007740315049886703,-0.015613000839948654,0.06409035623073578,0.01611647568643093,-0.13450652360916138,0.010417424142360687,-0.8437707424163818,-0.008242717012763023,0.21591472625732422,-6.678837776184082,0.03786710649728775,0.0,0.0,0.0,-0.012565034441649914,0.07041525840759277,-0.0,0.0,0.0,0.0,-0.0036140568554401398,0.1179954931139946,0.0003113322891294956,22746.0,9660.0,8559.0,22187.0,1.212377667427063,0.19782648980617523,0.1516350954771042,1.151423454284668,0.0,0.0,0.0,0.0,25670.0,1495.0,1495.0,25225.0,2.6924326419830322,-0.013204488719748128,0.9417360107222029,0.0810654741084845,-0.45642590522766113,-0.06270415335893631,0.0
464,5,0.03820471838116646,0.0006669579888693988,-0.014702516607940197,0.06711595505475998,0.019295411184430122,-0.16306072473526,0.010417424142360687,-0.8437707424163818,-0.008242717012763023,0.21591472625732422,-6.678837776184082,0.03786710649728775,0.0,0.0,0.0,-0.011313670314848423,0.06978818029165268,-0.0,0.0,0.0,0.0,-0.0036140568554401398,0.1179954931139946,0.0003113322891294956,22746.0,9660.0,8559.0,22187.0,1.212377667427063,0.19782648980617523,0.1516350954771042,1.151423454284668,0.0,0.0,0.0,0.0,25670.0,1495.0,1495.0,25225.0,2.6787338256835938,-0.010081689399930583,0.8993563739212288,0.07785341161499648,-0.4500730037689209,-0.05617263540625572,0.0
469,5,0.03849257528781891,0.0006381882703863084,-0.013618121854960918,0.0613892488181591,0.011170527897775173,-0.19535160064697266,0.010417424142360687,-0.8437707424163818,-0.008242717012763023,0.21591472625732422,-6.678837776184082,0.03786710649728775,0.0,0.0,0.0,-0.011313670314848423,0.06978818029165268,-0.0,0.0,0.0,0.0,-0.0036140568554401398,0.1179954931139946,0.0003113322891294956,22746.0,9660.0,8559.0,22187.0,1.212377667427063,0.19782648980617523,0.1516350954771042,1.151423454284668,0.0,0.0,0.0,0.0,25670.0,1495.0,1495.0,25225.0,2.6787338256835938,-0.006125818813169747,0.8475804335781874,0.07526463060524166,-0.4500730037689209,-0.05617263540625572,0.0
474,5,0.03862248733639717,0.0005117103573866189,-0.012485227547585964,0.0613892488181591,0.011170527897775173,-0.19535160064697266,0.010417424142360687,-0.8437707424163818,-0.008242717012763023,0.21591472625732422,-6.678837776184082,0.03786710649728775,0.0,0.0,0.0,-0.011313670314848423,0.06978818029165268,-0.0,0.0,0.0,0.0,-0.010211262851953506,0.019136343151330948,0.002490048762410879,20199.0,15837.0,18252.0,13525.0,0.9475927352905273,0.5697007179260254,0.767066240310669,0.40807294845581055,0.0,0.0,0.0,0.0,21703.0,11846.0,9831.0,21705.0,2.6787338256835938,-0.005352910559914883,0.7907356530265893,0.07212068734074042,-0.4500730037689209,-0.05617263540625572,0.0
