timestamp,dt,pos_x,pos_y,pos_z,vel_x,vel_y,vel_z,roll,pitch,yaw,agv_x,agv_y,agv_z,x_ref,y_ref,z_ref,roll_ref,pitch_ref,yaw_ref,x_vel_ref,y_vel_ref,z_vel_ref,x_torque,y_torque,z_torque,w0,w1,w2,w3,u0,u1,u2,u3,m0req,m1req,m2req,m3req,thrust0,thrust1,thrust2,thrust3,thrust_ref,roll_vicon,pitch_vicon,yaw_vicon,acc_x,acc_y,acc_z
5,5,0.0,0.0,0.0,-0.0002732659049797803,-0.0010139069054275751,0.00040560337947681546,0.00528410030528903,0.017860036343336105,-0.001321653020568192,-0.00032638682750985026,0.005262585356831551,0.0012112210970371962,0.0,0.0,0.0,0.0012534959241747856,-0.0002598765422590077,-0.0,0.0,0.0,0.0,-0.001237904536537826,-0.005442905239760876,-0.00018245980027131736,1495.0,1495.0,1495.0,1495.0,0.0,0.0,0.0,0.0,0.0,0.0,0.0,0.0,1495.0,1495.0,1495.0,1495.0,1.636432409286499,-0.06855625218672239,0.08741901440357161,-0.08814817408563266,0.0010247471509501338,0.0038021509535610676,0.0
29,24,0.0,0.0,0.0,-0.0002880531828850508,-0.0016070413403213024,-0.002180778654292226,0.00528410030528903,0.017860036343336105,-0.001321653020568192,-0.00032638682750985026,0.005262585356831551,0.0012112210970371962,0.0,0.0,0.0,0.0012534959241747856,-0.0002598765422590077,-0.0,0.0,0.0,0.0,-0.001237904536537826,-0.005442905239760876,-0.00018245980027131736,1495.0,1495.0,1495.0,1495.0,0.0,0.0,0.0,0.0,0.0,0.0,0.0,0.0,1495.0,1495.0,1495.0,1495.0,1.636432409286499,-0.06761158579609274,0.08775598169807612,-0.08839680267157471,0.0010247471509501338,0.0038021509535610676,0.0
34,5,0.0,0.0,0.0,0.0013424254721030593,-0.00135876948479563,-0.0002414512709947303,0.005293646361678839,0.0178543608635664,-0.0013310370268300176,0.00015356209769379348,-0.0008909976459108293,-0.0021834580693393946,0.0,0.0,0.0,0.0019796304404735565,-0.00027295228210277855,-0.0,0.0,0.0,0.0,-0.001237904536537826,-0.005442905239760876,-0.00018245980027131736,1495.0,1495.0,1495.0,1495.0,0.0,0.0,0.0,0.0,0.0,0.0,0.0,0.0,1495.0,1495.0,1495.0,1495.0,1.6423516273498535,-0.06668818370395613,0.08748502871023826,-0.08839361576721902,0.0010801993776112795,0.006026404909789562,0.0
39,5,0.0,0.0,0.0,0.00013044802471995354,0.0026821638457477093,0.0034034133423119783,0.005293646361678839,0.0178543608635664,-0.0013310370268300176,0.00015356209769379348,-0.0008909976459108293,-0.0021834580693393946,0.0,0.0,0.0,0.0019796304404735565,-0.00027295228210277855,-0.0,0.0,0.0,0.0,-0.001237904536537826,-0.005442905239760876,-0.00018245980027131736,1495.0,1495.0,1495.0,1495.0,0.0,0.0,0.0,0.0,0.0,0.0,0.0,0.0,1495.0,1495.0,1495.0,1495.0,1.6423516273498535,-0.06715416801998157,0.08647421329104282,-0.08818036588685213,0.0010801993776112795,0.006026404909789562,0.0
45,5,0.0,0.0,0.0,0.00013044802471995354,0.0026821638457477093,0.0034034133423119783,0.00531396409496665,0.01785733923316002,-0.0013452533166855574,0.0015907419146969914,0.004820580594241619,0.0003436985134612769,0.0,0.0,0.0,-0.00328268576413393,0.00012281151430215687,-0.0,0.0,0.0,0.0,-0.0010322744492441416,-0.005383222829550505,-6.63906685076654e-05,13225.0,14029.0,13846.0,13133.0,0.38908591866493225,0.44103971123695374,0.4288974106311798,0.3833285868167877,0.0,0.0,0.0,0.0,13155.0,14093.0,13773.0,13211.0,1.6530276536941528,-0.06715416801998157,0.08647421329104282,-0.08818036588685213,-0.0004891800926998258,-0.010058114305138588,0.0
55,11,-1.8179363905801438e-05,1.2458982382668182e-05,5.994347156956792e-05,-0.002129344502463937,-0.0004222123825456947,-0.0058318511582911015,0.00531396409496665,0.01785733923316002,-0.0013452533166855574,0.0015907419146969914,0.004820580594241619,0.0003436985134612769,0.0,0.0,0.0,-0.00328268576413393,0.00012281151430215687,-0.0,0.0,0.0,0.0,-0.0010322744492441416,-0.005383222829550505,-6.63906685076654e-05,13225.0,14029.0,13846.0,13133.0,0.38908591866493225,0.44103971123695374,0.4288974106311798,0.3833285868167877,0.0,0.0,0.0,0.0,13155.0,14093.0,13773.0,13211.0,1.6530276536941528,-0.06897857734359648,0.08717038434263674,-0.08896233416987945,-0.0004891800926998258,-0.010058114305138588,0.0
63,7,-2.3194126697489992e-05,-3.8470943763968535e-06,1.3543444765673485e-05,-0.0012443092418834567,0.0006223314558155835,0.0011647662613540888,0.00531396409496665,0.01785733923316002,-0.0013452533166855574,0.0015907419146969914,0.004820580594241619,0.0003436985134612769,0.0,0.0,0.0,-0.00328268576413393,0.00012281151430215687,-0.0,0.0,0.0,0.0,-0.0010322744492441416,-0.005383222829550505,-6.63906685076654e-05,13225.0,14029.0,13846.0,13133.0,0.38908591866493225,0.44103971123695374,0.4288974106311798,0.3833285868167877,0.0,0.0,0.0,0.0,13155.0,14093.0,13773.0,13211.0,1.6530276536941528,-0.06828633708926508,0.08682414361461868,-0.08841647475610806,-0.0004891800926998258,-0.010058114305138588,0.0
68,5,-2.3194126697489992e-05,-3.8470943763968535e-06,1.3543444765673485e-05,-0.0012443092418834567,0.0006223314558155835,0.0011647662613540888,0.005336057394742966,0.017824478447437286,-0.001351405051536858,0.000490091391839087,0.0008062160923145711,0.003018113086000085,0.0,0.0,0.0,-0.0007745705079287291,-0.0012128946837037802,-0.0,0.0,0.0,0.0,-0.0009489529184065759,-0.005448438227176666,-0.0002154465182684362,13228.0,14024.0,13855.0,13125.0,0.3892975151538849,0.4406822621822357,0.4295406639575958,0.3828311860561371,0.0,0.0,0.0,0.0,13195.0,14054.0,13835.0,13147.0,1.640234351158142,-0.06828633708926508,0.08682414361461868,-0.08841647475610806,0.004793808329850435,-0.0023549154866486788,-0.0
73,5,-1.3742311239184346e-05,8.474093192489818e-06,6.27318222541362e-05,0.0006364941946230829,-0.001229609944857657,-0.005436698906123638,0.0053133610635995865,0.017812073230743408,-0.0013589427107945085,-0.003171998541802168,0.0005033750785514712,0.0023387824185192585,0.0,0.0,0.0,0.0015323396073654294,0.000584885070566088,-0.0,0.0,0.0,0.0,-0.002566075883805752,-0.005270914640277624,-0.00019988205167464912,13180.0,14059.0,13825.0,13168.0,0.3862558603286743,0.4430391192436218,0.4275427460670471,0.38551390171051025,0.0,0.0,0.0,0.0,13254.0,13999.0,13884.0,13095.0,1.6398518085479736,-0.06892291924752834,0.08805155821865727,-0.08896867281117392,-0.0023111412301659584,0.004657661076635122,0.0
78,5,-1.4886750250298064e-06,4.102128059457755e-06,3.7626879930030555e-05,0.002463759621605277,-0.0008806400001049042,0.0012976046418771148,0.0053133610635995865,0.017812073230743408,-0.0013589427107945085,-0.003171998541802168,0.0005033750785514712,0.0023387824185192585,0.0,0.0,0.0,0.0015323396073654294,0.000584885070566088,-0.0,0.0,0.0,0.0,-0.002566075883805752,-0.005270914640277624,-0.00019988205167464912,13180.0,14059.0,13825.0,13168.0,0.3862558603286743,0.4430391192436218,0.4275427460670471,0.38551390171051025,0.0,0.0,0.0,0.0,13254.0,13999.0,13884.0,13095.0,1.6398518085479736,-0.0680383036522256,0.08725423528379904,-0.08845696717891413,-0.0023111412301659584,0.004657661076635122,0.0
83,5,-1.7817314073909074e-05,4.341775820648763e-06,5.387006240198389e-05,-0.0009739327942952514,-0.00038101375685073435,-0.0014301398769021034,0.0053133610635995865,0.017812073230743408,-0.0013589427107945085,-0.003171998541802168,0.0005033750785514712,0.0023387824185192585,0.0,0.0,0.0,0.0015323396073654294,0.000584885070566088,-0.0,0.0,0.0,0.0,-0.002566075883805752,-0.005270914640277624,-0.00019988205167464912,13180.0,14059.0,13825.0,13168.0,0.3862558603286743,0.4430391192436218,0.4275427460670471,0.38551390171051025,0.0,0.0,0.0,0.0,13254.0,13999.0,13884.0,13095.0,1.6398518085479736,-0.06916820127309642,0.0871742369503499,-0.08861419573214387,-0.0023111412301659584,0.004657661076635122,0.0
88,5,-4.356476893008221e-06,6.308340743998997e-06,6.595758895855397e-05,0.001225727261044085,-0.0003883932949975133,-0.002022559754550457,0.005315558053553104,0.017803622409701347,-0.0013504852540791035,-0.0001805857609724626,0.004015827085822821,-0.0008497479138895869,0.0,0.0,0.0,0.000478864589240402,-0.0009509799419902265,-0.0,0.0,0.0,0.0,-0.001819945638999343,-0.005487068556249142,-0.00024040468269959092,13212.0,14126.0,13747.0,13112.0,0.3883046507835388,0.44749486446380615,0.42241424322128296,0.38202059268951416,0.0,0.0,0.0,0.0,13362.0,14179.0,13760.0,13095.0,1.6366599798202515,-0.06896177331156565,0.08778906609412591,-0.0889708966560121,0.0037504348438233137,0.0014527126913890243,0.0
93,5,1.2047131576764514e-06,1.456114841857925e-05,3.4119642805308104e-05,0.0011576337274163961,-0.0011456942884251475,0.003011530265212059,0.005315558053553104,0.017803622409701347,-0.0013504852540791035,-0.0001805857609724626,0.004015827085822821,-0.0008497479138895869,0.0,0.0,0.0,0.000478864589240402,-0.0009509799419902265,-0.0,0.0,0.0,0.0,-0.001819945638999343,-0.005487068556249142,-0.00024040468269959092,13212.0,14126.0,13747.0,13112.0,0.3883046507835388,0.44749486446380615,0.42241424322128296,0.38202059268951416,0.0,0.0,0.0,0.0,13362.0,14179.0,13760.0,13095.0,1.6366599798202515,-0.06765459905929845,0.08733943647388481,-0.08809815498874526,0.0037504348438233137,0.0014527126913890243,0.0
98,5,-1.1787406037910841e-05,7.327923412958626e-06,4.5953263906994835e-05,-0.0010960007784888148,0.00040970934787765145,-0.00021542263857554644,0.005300439894199371,0.017735855653882027,-0.001371772144921124,-0.0007536500925198197,0.008632093667984009,-0.0006886463379487395,0.0,0.0,0.0,0.0014375456376001239,0.0010984884575009346,-0.0,0.0,0.0,0.0,-0.001414374797604978,-0.00564528675749898,-0.00010700701386667788,13212.0,14126.0,13747.0,13112.0,0.3883046507835388,0.44749486446380615,0.42241424322128296,0.38202059268951416,0.0,0.0,0.0,0.0,13234.0,14106.0,13778.0,13078.0,1.6424767971038818,-0.06976374696690872,0.08694420263522445,-0.08870361015627427,-0.004347565118223429,0.0043765222653746605,-0.0
104,6,-1.4967449715186376e-05,2.054384458460845e-05,6.640199717367068e-05,-0.0008200055453926325,-0.0014220267767086625,-0.002540016546845436,0.005300439894199371,0.017735855653882027,-0.001371772144921124,-0.0007536500925198197,0.008632093667984009,-0.0006886463379487395,0.0,0.0,0.0,0.0014375456376001239,0.0010984884575009346,-0.0,0.0,0.0,0.0,-0.001414374797604978,-0.00564528675749898,-0.00010700701386667788,13212.0,14126.0,13747.0,13112.0,0.3883046507835388,0.44749486446380615,0.42241424322128296,0.38202059268951416,0.0,0.0,0.0,0.0,13234.0,14106.0,13778.0,13078.0,1.6424767971038818,-0.06981808058025399,0.08826017165541201,-0.0890244275093015,-0.004347565118223429,0.0043765222653746605,-0.0
109,5,-4.969511337549193e-06,1.6406842405558564e-05,-7.210221610876033e-06,0.0008717504097148776,-7.237045792862773e-05,0.007817459292709827,0.005302545614540577,0.017814574763178825,-0.001350834616459906,0.0003688064171001315,-0.010931055061519146,0.0026304018683731556,0.0,0.0,0.0,0.0017883795080706477,-0.0007976527558639646,-0.0,0.0,0.0,0.0,-0.001179924001917243,-0.005360811483114958,-9.15012278710492e-05,13234.0,14039.0,13833.0,13128.0,0.38967373967170715,0.44171032309532166,0.42808064818382263,0.3830120861530304,0.0,0.0,0.0,0.0,13181.0,14080.0,13800.0,13078.0,1.6428183317184448,-0.06730546581008483,0.08711532546079917,-0.08832415649005453,0.0031575816683471203,0.005445745773613453,0.0
114,5,-1.8193592040915973e-05,1.2045338735333644e-05,3.3446329325670376e-05,-0.0012381895212456584,0.0004944321699440479,-0.0017518025124445558,0.005302545614540577,0.017814574763178825,-0.001350834616459906,0.0003688064171001315,-0.010931055061519146,0.0026304018683731556,0.0,0.0,0.0,0.0017883795080706477,-0.0007976527558639646,-0.0,0.0,0.0,0.0,-0.001179924001917243,-0.005360811483114958,-9.15012278710492e-05,13234.0,14039.0,13833.0,13128.0,0.38967373967170715,0.44171032309532166,0.42808064818382263,0.3830120861530304,0.0,0.0,0.0,0.0,13181.0,14080.0,13800.0,13078.0,1.6428183317184448,-0.06801247863652916,0.08828518502457809,-0.08878344624032783,0.0031575816683471203,0.005445745773613453,0.0
119,5,-1.702726694929879e-05,5.168198526916967e-07,1.2762944606947713e-05,-0.0003553168207872659,0.0015811951598152518,0.0017812852747738361,0.005297929979860783,0.01782872900366783,-0.0013671072665601969,0.0007469149422831833,0.004887500312179327,0.001693391241133213,0.0,0.0,0.0,-0.0019468788523226976,-0.00036046147579327226,-0.0,0.0,0.0,0.0,-0.0010626408038660884,-0.005440079607069492,-0.00017823270172812045,13196.0,14063.0,13836.0,13142.0,0.3873066008090973,0.44332244992256165,0.42827650904655457,0.3839127719402313,0.0,0.0,0.0,0.0,13191.0,14072.0,13814.0,13161.0,1.6422791481018066,-0.06912837732040868,0.08695274785123029,-0.08841652770552787,0.0014264511410146952,-0.0059264409355819225,-0.0
129,10,-2.8015834686812013e-05,-9.801392479857896e-06,1.2152052477176767e-05,-0.0019027533708140254,4.214914224576205e-05,-0.002286105416715145,0.005297929979860783,0.01782872900366783,-0.0013671072665601969,0.0007469149422831833,0.004887500312179327,0.001693391241133213,0.0,0.0,0.0,-0.0019468788523226976,-0.00036046147579327226,-0.0,0.0,0.0,0.0,-0.0010626408038660884,-0.005440079607069492,-0.00017823270172812045,13196.0,14063.0,13836.0,13142.0,0.3873066008090973,0.44332244992256165,0.42827650904655457,0.3839127719402313,0.0,0.0,0.0,0.0,13191.0,14072.0,13814.0,13161.0,1.6422791481018066,-0.06862784697227371,0.08632249168368199,-0.0885262627650233,0.0014264511410146952,-0.0059264409355819225,-0.0
134,5,-1.4534240108332597e-05,2.4180315449484624e-05,8.782024815445766e-05,0.0008566900505684316,-0.004060945473611355,-0.00999462604522705,0.0053216093219816685,0.017751604318618774,-0.0013641937403008342,-0.0011892564361914992,0.0013746790355071425,0.002934598596766591,0.0,0.0,0.0,0.00496823713183403,0.000779242895077914,-0.0,0.0,0.0,0.0,-0.0018064313335344195,-0.0057131447829306126,-0.00010816034773597494,13268.0,14138.0,13749.0,13073.0,0.3917851746082306,0.4482977092266083,0.4225558936595917,0.3796403706073761,0.0,0.0,0.0,0.0,13292.0,14039.0,13870.0,12980.0,1.6681498289108276,-0.06876487559340891,0.08866017711166418,-0.0884496213162721,-0.0031322354916483164,0.015361820347607136,0.0
141,6,-1.66711542988196e-05,3.1561561627313495e-05,9.244222019333392e-05,8.624626934761181e-05,-0.002510127378627658,-0.004552486818283796,0.0053216093219816685,0.017751604318618774,-0.0013641937403008342,-0.0011892564361914992,0.0013746790355071425,0.002934598596766591,0.0,0.0,0.0,0.00496823713183403,0.000779242895077914,-0.0,0.0,0.0,0.0,-0.0018064313335344195,-0.0057131447829306126,-0.00010816034773597494,13268.0,14138.0,13749.0,13073.0,0.3917851746082306,0.4482977092266083,0.4225558936595917,0.3796403706073761,0.0,0.0,0.0,0.0,13292.0,14039.0,13870.0,12980.0,1.6681498289108276,-0.0687523348905866,0.08811471829105501,-0.08855899625253418,-0.0031322354916483164,0.015361820347607136,0.0
146,5,-7.611521141370758e-06,2.1609816030832008e-05,4.9126298108603805e-05,0.0011216545244678855,0.0001901582581922412,0.0033769160509109497,0.0053216093219816685,0.017751604318618774,-0.0013641937403008342,-0.0011892564361914992,0.0013746790355071425,0.002934598596766591,0.0,0.0,0.0,0.00496823713183403,0.000779242895077914,-0.0,0.0,0.0,0.0,-0.0018064313335344195,-0.0057131447829306126,-0.00010816034773597494,13268.0,14138.0,13749.0,13073.0,0.3917851746082306,0.4482977092266083,0.4225558936595917,0.3796403706073761,0.0,0.0,0.0,0.0,13292.0,14039.0,13870.0,12980.0,1.6681498289108276,-0.06761686669580066,0.0872625113848872,-0.0882993842013623,-0.0031322354916483164,0.015361820347607136,0.0
151,5,-1.6775087715359405e-05,7.742562956991605e-06,5.788282214780338e-05,-0.0006509661325253546,0.0017401337390765548,0.00029998342506587505,0.005320513620972633,0.017785342410206795,-0.0013465960510075092,0.0007805997156538069,-0.002850540913641453,0.00151276052929461,0.0,0.0,0.0,-0.0001957041531568393,0.0010554986074566841,-0.0,0.0,0.0,0.0,-0.0022154178004711866,-0.005622306372970343,-0.00014776238822378218,13252.0,14080.0,13975.0,13327.0,0.3907838761806488,0.4444407522678375,0.4374455511569977,0.39547964930534363,0.0,0.0,0.0,0.0,13224.0,14172.0,13727.0,13104.0,1.637158989906311,-0.06958284907462989,0.08711851410803606,-0.08877170945235628,-0.004163900390267372,-0.0005938810063526034,-0.0
156,5,-2.217171640950255e-05,3.8617461228795946e-08,5.8606961829354987e-05,-0.0009079818264581263,0.0016205268912017345,3.309685780550353e-05,0.005320513620972633,0.017785342410206795,-0.0013465960510075092,0.0007805997156538069,-0.002850540913641453,0.00151276052929461,0.0,0.0,0.0,-0.0001957041531568393,0.0010554986074566841,-0.0,0.0,0.0,0.0,-0.0022154178004711866,-0.005622306372970343,-0.00014776238822378218,13252.0,14080.0,13975.0,13327.0,0.3907838761806488,0.4444407522678375,0.4374455511569977,0.39547964930534363,0.0,0.0,0.0,0.0,13224.0,14172.0,13727.0,13104.0,1.637158989906311,-0.06910546206058141,0.08753999374749805,-0.08907749500886933,-0.004163900390267372,-0.0005938810063526034,-0.0
161,5,-3.175999518134631e-05,1.0159111297980417e-05,7.37039081286639e-05,-0.0015137861482799053,-0.0005662484909407794,-0.0017983950674533844,0.005318271927535534,0.017786908894777298,-0.0014428070280700922,-0.0009729517623782158,0.009705929085612297,0.022624842822551727,0.0,0.0,0.0,-0.0019930873531848192,-0.0008900014217942953,-0.0,0.0,0.0,0.0,-0.00013587871217168868,-0.005152706056833267,-0.0006098546436987817,13222.0,14108.0,13915.0,13389.0,0.3889281749725342,0.44630271196365356,0.4334729313850403,0.3994460105895996,0.0,0.0,0.0,0.0,13264.0,14065.0,13971.0,13334.0,1.6447972059249878,-0.06932575319342982,0.08822628477514124,-0.08845630250507236,0.0035273944959044456,-0.006076404824852943,-0.0
166,5,-9.877327329377295e-07,-1.5402907592942938e-05,-8.694522435348517e-09,0.003087156917899847,0.0028409429360181093,0.0081261545419693,0.005318271927535534,0.017786908894777298,-0.0014428070280700922,-0.0009729517623782158,0.009705929085612297,0.022624842822551727,0.0,0.0,0.0,-0.0019930873531848192,-0.0008900014217942953,-0.0,0.0,0.0,0.0,-0.00013587871217168868,-0.005152706056833267,-0.0006098546436987817,13222.0,14108.0,13915.0,13389.0,0.3889281749725342,0.44630271196365356,0.4334729313850403,0.3994460105895996,0.0,0.0,0.0,0.0,13264.0,14065.0,13971.0,13334.0,1.6447972059249878,-0.0688629042464413,0.08626594768362064,-0.08822228395418351,0.0035273944959044456,-0.006076404824852943,-0.0
171,5,-2.239116292912513e-05,7.621767053933581e-06,4.682500002672896e-05,-0.0013335488038137555,-0.0016265837475657463,-0.002369581488892436,0.005347549449652433,0.017512720078229904,-0.0017289661336690187,0.001138410298153758,0.024602018296718597,-0.17783372104167938,0.0,0.0,0.0,-0.0034722008276730776,0.002878116676583886,-0.0,0.0,0.0,0.0,-0.0018123637419193983,-0.004340005107223988,-0.0031431708484888077,11549.0,15474.0,11982.0,14719.0,0.2912216782569885,0.5425541996955872,0.3151894807815552,0.4881936311721802,0.0,0.0,0.0,0.0,14131.0,13148.0,14559.0,12208.0,1.6684355735778809,-0.06950325965518053,0.08804345351700983,-0.08911535735429352,-0.0115708839148283,-0.010737947188317776,0.0
176,5,-2.4885912353056483e-05,1.7811611542128958e-05,3.3084772439906374e-05,-0.0008327896357513964,-0.0018734148470684886,0.000700994860380888,0.005347549449652433,0.017512720078229904,-0.0017289661336690187,0.001138410298153758,0.024602018296718597,-0.17783372104167938,0.0,0.0,0.0,-0.0034722008276730776,0.002878116676583886,-0.0,0.0,0.0,0.0,-0.0018123637419193983,-0.004340005107223988,-0.0031431708484888077,11549.0,15474.0,11982.0,14719.0,0.2912216782569885,0.5425541996955872,0.3151894807815552,0.4881936311721802,0.0,0.0,0.0,0.0,14131.0,13148.0,14559.0,12208.0,1.6684355735778809,-0.06946086372857961,0.08682901268112317,-0.08822799555013298,-0.0115708839148283,-0.010737947188317776,0.0
182,5,5.408408469520509e-06,1.9285758753539994e-05,1.9545410395949148e-05,0.003302202792838216,-0.0009262636885978281,0.0019051211420446634,0.005290676839649677,0.017794528976082802,-0.0008469184394925833,0.029907595366239548,-0.011236036196351051,0.10810209810733795,0.0,0.0,0.0,0.002333482261747122,-0.0008215545676648617,-0.0,0.0,0.0,0.0,-0.002397234318777919,-0.006895693950355053,0.004325020592659712,14845.0,12517.0,15427.0,11008.0,0.497031569480896,0.34603285789489746,0.5390538573265076,0.26267892122268677,0.0,0.0,0.0,0.0,12190.0,15069.0,12762.0,14075.0,1.6469841003417969,-0.06831960455068929,0.08706953552878638,-0.08783075722807748,0.0032604422885924578,0.007123636547476053,-0.0
187,5,-8.348460141860414e-06,-2.4896194190660026e-06,2.522036993468646e-05,-0.00032994308276101947,0.0022425400093197823,8.105322194751352e-05,0.005290676839649677,0.017794528976082802,-0.0008469184394925833,0.029907595366239548,-0.011236036196351051,0.10810209810733795,0.0,0.0,0.0,0.002333482261747122,-0.0008215545676648617,-0.0,0.0,0.0,0.0,-0.002397234318777919,-0.006895693950355053,0.004325020592659712,14845.0,12517.0,15427.0,11008.0,0.497031569480896,0.34603285789489746,0.5390538573265076,0.26267892122268677,0.0,0.0,0.0,0.0,12190.0,15069.0,12762.0,14075.0,1.6469841003417969,-0.0683903735121284,0.08695527107433701,-0.08897171093450282,0.0032604422885924578,0.007123636547476053,-0.0
192,5,-1.1998404261248652e-05,-1.7608196003493504e-06,1.9122202502330765e-05,-0.000569970638025552,0.000809560006018728,0.000764201395213604,0.005343438126146793,0.017447955906391144,-0.0017200493020936847,-0.02956322208046913,0.0010684417793527246,-0.10203917324542999,0.0,0.0,0.0,-0.0027559653390198946,-0.0003231340670026839,-0.0,0.0,0.0,0.0,-0.0016869851388037205,-0.004554152023047209,-0.004444746766239405,11448.0,15588.0,12015.0,14759.0,0.2857855558395386,0.5509666800498962,0.31701093912124634,0.49103403091430664,0.0,0.0,0.0,0.0,14502.0,12726.0,15263.0,11495.0,1.6488391160964966,-0.06854858345630868,0.08604878813182253,-0.08774171565835534,0.00128384109120816,-0.008422859944403172,-0.0
197,5,-2.832768950611353e-05,1.9019558749278076e-05,4.652740972233005e-05,-0.0021875023376196623,-0.002169821411371231,-0.0029829442501068115,0.005343438126146793,0.017447955906391144,-0.0017200493020936847,-0.02956322208046913,0.0010684417793527246,-0.10203917324542999,0.0,0.0,0.0,-0.0027559653390198946,-0.0003231340670026839,-0.0,0.0,0.0,0.0,-0.0016869851388037205,-0.004554152023047209,-0.004444746766239405,11448.0,15588.0,12015.0,14759.0,0.2857855558395386,0.5509666800498962,0.31701093912124634,0.49103403091430664,0.0,0.0,0.0,0.0,14502.0,12726.0,15263.0,11495.0,1.6488391160964966,-0.06858550766904772,0.08738343812677553,-0.08838472630207353,0.00128384109120816,-0.008422859944403172,-0.0
202,5,1.3392754226515535e-05,1.6925834643188864e-05,2.745516030699946e-05,0.004131452180445194,-0.0006166815874166787,0.0010954923927783966,0.0056406790390610695,0.01770091988146305,-0.0011132697109133005,0.04377512261271477,0.044709816575050354,-0.10115562379360199,0.0,0.0,0.0,0.002682599239051342,-0.0020930389873683453,-0.0,0.0,0.0,0.0,-0.002013718243688345,-0.006089650560170412,0.0010379983577877283,12970.0,14415.0,13467.0,13433.0,0.37327298521995544,0.46714505553245544,0.4043685495853424,0.4021975100040436,0.0,0.0,0.0,0.0,11463.0,15521.0,11869.0,14964.0,1.6575322151184082,-0.06753114222021254,0.088087261183394,-0.08936070329932355,0.00835967343300581,0.008241862989962101,0.0
207,5,-1.2927537682116963e-05,-4.741729298984865e-06,-1.988958138099406e-05,-0.0015058541903272271,0.002353434916585684,0.006119565572589636,0.0056406790390610695,0.01770091988146305,-0.0011132697109133005,0.04377512261271477,0.044709816575050354,-0.10115562379360199,0.0,0.0,0.0,0.002682599239051342,-0.0020930389873683453,-0.0,0.0,0.0,0.0,-0.002013718243688345,-0.006089650560170412,0.0010379983577877283,12970.0,14415.0,13467.0,13433.0,0.37327298521995544,0.46714505553245544,0.4043685495853424,0.4021975100040436,0.0,0.0,0.0,0.0,11463.0,15521.0,11869.0,14964.0,1.6575322151184082,-0.06813578502388523,0.08615187048379347,-0.08818974623929986,0.00835967343300581,0.008241862989962101,0.0
212,5,-3.791276685660705e-05,-1.9334576791152358e-05,5.625800622510724e-05,-0.0036005692090839148,0.002692515728995204,-0.0066898842342197895,0.00534434849396348,0.01718486286699772,-0.0015362044796347618,-0.0058265263214707375,-0.027032651007175446,0.13158243894577026,0.0,0.0,0.0,-0.002886527916416526,-0.0014346505049616098,-0.0,0.0,0.0,0.0,-0.001772261573933065,-0.005312102846801281,0.0027932957746088505,14579.0,12813.0,15070.0,11591.0,0.47845879197120667,0.36374184489250183,0.5131076574325562,0.29353079199790955,0.0,0.0,0.0,0.0,13719.0,13841.0,14144.0,12599.0,1.6542900800704956,-0.07000508770209718,0.08790383900034576,-0.08912764742533948,0.005718837026506662,-0.00885105226188898,0.0
217,5,-1.5959682286847965e-07,-7.209079740277957e-06,3.0363729820237495e-05,0.0030901527497917414,-0.00037805343163199723,0.0004313595127314329,0.00534434849396348,0.01718486286699772,-0.0015362044796347618,-0.0058265263214707375,-0.027032651007175446,0.13158243894577026,0.0,0.0,0.0,-0.002886527916416526,-0.0014346505049616098,-0.0,0.0,0.0,0.0,-0.001772261573933065,-0.005312102846801281,0.0027932957746088505,14579.0,12813.0,15070.0,11591.0,0.47845879197120667,0.36374184489250183,0.5131076574325562,0.29353079199790955,0.0,0.0,0.0,0.0,13719.0,13841.0,14144.0,12599.0,1.6542900800704956,-0.0687236650514704,0.08761380548935159,-0.08886798782258484,0.005718837026506662,-0.00885105226188898,0.0
222,5,4.362696472526295e-06,-4.528354565991322e-06,1.964644980034791e-05,0.0017787362448871136,-0.0004729083739221096,0.0014586172765120864,0.00534434849396348,0.01718486286699772,-0.0015362044796347618,-0.0058265263214707375,-0.027032651007175446,0.13158243894577026,0.0,0.0,0.0,0.0004487105761654675,0.0029012602753937244,-0.0,0.0,0.0,0.0,-0.001772261573933065,-0.005312102846801281,0.0027932957746088505,14579.0,12813.0,15070.0,11591.0,0.47845879197120667,0.36374184489250183,0.5131076574325562,0.29353079199790955,0.0,0.0,0.0,0.0,13719.0,13841.0,14144.0,12599.0,1.6573376655578613,-0.06761880249872126,0.0864068243796026,-0.0877598129792769,-0.011586411856114864,0.001378433546051383,-0.0
227,5,-4.335400080890395e-05,-4.414206341607496e-05,0.0001112335012294352,-0.005014508962631226,0.004564481787383556,-0.010406998917460442,0.005320002790540457,0.01711597479879856,-0.0017370551358908415,-0.04910638928413391,0.0061628203839063644,0.07030810415744781,0.0,0.0,0.0,0.0004487105761654675,0.0029012602753937244,-0.0,0.0,0.0,0.0,-0.0003966999356634915,-0.005252307280898094,-0.0022077159956097603,12875.0,14342.0,13636.0,13596.0,0.36746537685394287,0.4621577262878418,0.41523635387420654,0.412672758102417,0.0,0.0,0.0,0.0,13719.0,13841.0,14144.0,12599.0,1.6573376655578613,-0.07137232633002577,0.08686932343964943,-0.08955332428569462,-0.011586411856114864,0.001378433546051383,-0.0
232,5,1.9777469788095914e-05,-8.726977284823079e-06,0.00011657869617920369,0.005569972563534975,-0.0024240175262093544,-0.004804222844541073,0.005320002790540457,0.01711597479879856,-0.0017370551358908415,-0.04910638928413391,0.0061628203839063644,0.07030810415744781,0.0,0.0,0.0,-0.005524636711925268,-0.004662128631025553,-0.0,0.0,0.0,0.0,-0.0003966999356634915,-0.005252307280898094,-0.0022077159956097603,12875.0,14342.0,13636.0,13596.0,0.36746537685394287,0.4621577262878418,0.41523635387420654,0.412672758102417,0.0,0.0,0.0,0.0,13719.0,13841.0,14144.0,12599.0,1.695217490196228,-0.06914907643309388,0.08698547285829482,-0.0883515939436599,0.01904379017651081,-0.017359359189867973,0.0
237,5,1.5796898878761567e-05,-9.044604666996747e-06,0.00010318523709429428,0.0017503206618130207,-0.000931491726078093,-0.00031447457149624825,0.005240913480520248,0.016891399398446083,-0.0014201379381120205,0.008534426800906658,0.08829089999198914,-0.09532468765974045,0.0,0.0,0.0,-0.005524636711925268,-0.004662128631025553,-0.0,0.0,0.0,0.0,-0.0009646199177950621,-0.0023700592573732138,0.0031105815432965755,12576.0,14882.0,12744.0,14097.0,0.34950125217437744,0.49968087673187256,0.35954272747039795,0.44556522369384766,0.0,0.0,0.0,0.0,12865.0,14648.0,12969.0,13876.0,1.695217490196228,-0.06980309986002468,0.08588074272972714,-0.08752013905893545,0.01904379017651081,-0.017359359189867973,0.0
243,5,4.1789040551520884e-05,-2.1719604774261825e-05,0.00015876215184107423,0.003819185309112072,0.0011484033893793821,-0.006795019377022982,0.005240913480520248,0.016891399398446083,-0.0014201379381120205,0.008534426800906658,0.08829089999198914,-0.09532468765974045,0.0,0.0,0.0,0.0011286393273621798,0.0016765199834480882,-0.0,0.0,0.0,0.0,-0.0009646199177950621,-0.0023700592573732138,0.0031105815432965755,12576.0,14882.0,12744.0,14097.0,0.34950125217437744,0.49968087673187256,0.35954272747039795,0.44556522369384766,0.0,0.0,0.0,0.0,12865.0,14648.0,12969.0,13876.0,1.6460472345352173,-0.06934057434892471,0.08742617444830841,-0.08838002268832255,-0.006649706047028303,0.003443545661866665,0.0
248,5,3.685866613523103e-05,-5.694964784197509e-05,0.00014921343245077878,0.0014132199576124549,0.003768212627619505,-0.0006822923896834254,0.005124698393046856,0.015942037105560303,-0.0011162067530676723,0.015053189359605312,0.09791307151317596,0.044222936034202576,0.0,0.0,0.0,0.0011286393273621798,0.0016765199834480882,-0.0,0.0,0.0,0.0,-0.0034242982510477304,-0.0036919827107340097,0.0012598796747624874,14455.0,12913.0,14553.0,12431.0,0.46990102529525757,0.3698185086250305,0.4766198396682739,0.3409982919692993,0.0,0.0,0.0,0.0,12875.0,14581.0,12742.0,14191.0,1.6460472345352173,-0.06871083836807318,0.08769917383720345,-0.08782356935840144,-0.006649706047028303,0.003443545661866665,0.0
253,5,2.9364773581619374e-05,-9.066108032129705e-05,0.00013113586464896798,-0.00033397937659174204,0.005552656948566437,0.0018963897600769997,0.005124698393046856,0.015942037105560303,-0.0011162067530676723,0.015053189359605312,0.09791307151317596,0.044222936034202576,0.0,0.0,0.0,-0.004673077259212732,0.0013691730564460158,-0.0,0.0,0.0,0.0,-0.0034242982510477304,-0.0036919827107340097,0.0012598796747624874,14455.0,12913.0,14553.0,12431.0,0.46990102529525757,0.3698185086250305,0.4766198396682739,0.3409982919692993,0.0,0.0,0.0,0.0,12875.0,14581.0,12742.0,14191.0,1.6675524711608887,-0.06988057858746685,0.08715244933696552,-0.08806073806779155,-0.005501547362655401,-0.014444022439420223,0.0
258,5,1.653199979045894e-05,-0.00010203944111708552,0.00016737202531658113,-0.0016735246172174811,0.0035864657256752253,-0.0035897830966860056,0.005292792804539204,0.01504484098404646,-0.0015216692117974162,-0.019187582656741142,0.06242121383547783,0.12381753325462341,0.0,0.0,0.0,-0.004673077259212732,0.0013691730564460158,-0.0,0.0,0.0,0.0,-0.00123021996114403,-0.0020515841897577047,-0.0026712019462138414,12639.0,14597.0,12734.0,14223.0,0.35328179597854614,0.4797016382217407,0.35898399353027344,0.454079806804657,0.0,0.0,0.0,0.0,14690.0,13175.0,14917.0,12083.0,1.6675524711608887,-0.07079853340338514,0.08727203137527813,-0.08786572335188046,-0.005501547362655401,-0.014444022439420223,0.0
263,5,1.9128887288388796e-05,-0.00010289888450643048,0.00016599328955635428,-0.00035778325400315225,0.001537719857878983,-0.0012704645050689578,0.005292792804539204,0.01504484098404646,-0.0015216692117974162,-0.019187582656741142,0.06242121383547783,0.12381753325462341,0.0,0.0,0.0,-0.004673077259212732,0.0013691730564460158,-0.0,0.0,0.0,0.0,-0.00123021996114403,-0.0020515841897577047,-0.0026712019462138414,12639.0,14597.0,12734.0,14223.0,0.35328179597854614,0.4797016382217407,0.35898399353027344,0.454079806804657,0.0,0.0,0.0,0.0,14690.0,13175.0,14917.0,12083.0,1.6675524711608887,-0.06955949080157905,0.08712103203335932,-0.08684755713548667,0.0012371616903692484,-0.006332756020128727,0.0
268,5,1.1618021744652651e-05,-0.00013303013110999018,0.00017019636288750917,-0.0010444171493873,0.004230837803333998,-0.001012554275803268,0.0050820522010326385,0.014086629264056683,-0.0014145869063213468,-0.01463575940579176,0.08431477099657059,-0.04458114132285118,0.0,0.0,0.0,-0.002079133642837405,-0.0003124446957372129,-0.0,0.0,0.0,0.0,-0.0026671162340790033,-0.0026976396329700947,0.00117710349150002,13517.0,14158.0,13535.0,13423.0,0.4075934588909149,0.44966116547584534,0.408701092004776,0.4015967547893524,0.0,0.0,0.0,0.0,13929.0,13307.0,14206.0,12827.0,1.6432451009750366,-0.06963129576097848,0.08816993307286203,-0.08802466954805546,0.0012371616903692484,-0.006332756020128727,0.0
273,5,1.1618021744652651e-05,-0.00013303013110999018,0.00017019636288750917,-0.0010444171493873,0.004230837803333998,-0.001012554275803268,0.0050820522010326385,0.014086629264056683,-0.0014145869063213468,-0.01463575940579176,0.08431477099657059,-0.04458114132285118,0.0,0.0,0.0,-0.002079133642837405,-0.0003124446957372129,-0.0,0.0,0.0,0.0,-0.0026671162340790033,-0.0026976396329700947,0.00117710349150002,13517.0,14158.0,13535.0,13423.0,0.4075934588909149,0.44966116547584534,0.408701092004776,0.4015967547893524,0.0,0.0,0.0,0.0,13929.0,13307.0,14206.0,12827.0,1.6432451009750366,-0.06963129576097848,0.08816993307286203,-0.08802466954805546,0.0012371616903692484,-0.006332756020128727,0.0
278,5,1.7155201931018382e-05,-0.00017627519264351577,0.00017899130762089044,-0.0008901575347408652,0.00501212477684021,-0.0024059093557298183,0.00487753190100193,0.013727233745157719,-0.0006147818057797849,0.00238251150585711,0.05538155883550644,-0.06718679517507553,0.0,0.0,0.0,-0.005356321576982737,-0.0009565336513333023,-0.0,0.0,0.0,0.0,-0.0029792848508805037,-0.0035252650268375874,0.003616493893787265,14888.0,12415.0,15190.0,11366.0,0.500103235244751,0.34002670645713806,0.5217372179031372,0.28137800097465515,0.0,0.0,0.0,0.0,12591.0,15040.0,12419.0,14398.0,1.6718136072158813,-0.0699848903370609,0.08646740347189141,-0.08689356676723975,0.0038533080369234085,-0.016598135232925415,0.0
283,5,5.802555278933141e-06,-0.00019580450316425413,0.0002446007274556905,-0.0017183806048706174,0.004348366986960173,-0.00883549451828003,0.00487753190100193,0.013727233745157719,-0.0006147818057797849,0.00238251150585711,0.05538155883550644,-0.06718679517507553,0.0,0.0,0.0,-0.005356321576982737,-0.0009565336513333023,-0.0,0.0,0.0,0.0,-0.0029792848508805037,-0.0035252650268375874,0.003616493893787265,14888.0,12415.0,15190.0,11366.0,0.500103235244751,0.34002670645713806,0.5217372179031372,0.28137800097465515,0.0,0.0,0.0,0.0,12591.0,15040.0,12419.0,14398.0,1.6718136072158813,-0.06956115417104572,0.08784975463780033,-0.08750166690991494,0.0038533080369234085,-0.016598135232925415,0.0
288,5,-7.282281330844853e-06,-0.000183303898666054,0.00021712853049393743,-0.002257532672956586,0.00023927500296849757,-0.00023753415734972805,0.005229126662015915,0.013079878874123096,-0.0009502918110229075,0.015706738457083702,-0.009765824303030968,0.04696865379810333,0.0,0.0,0.0,-0.0055967820808291435,-0.0015880509745329618,-0.0,0.0,0.0,0.0,-0.00259710056707263,-0.0032827267423272133,-0.0022314598318189383,13391.0,14411.0,13471.0,13410.0,0.39956945180892944,0.46685791015625,0.40463703870773315,0.40074920654296875,0.0,0.0,0.0,0.0,13853.0,13628.0,14018.0,12732.0,1.6758193969726562,-0.06830371435522788,0.08767569783651524,-0.08685329193358589,0.0064126355573534966,-0.017384814098477364,0.0
294,5,-2.8957258109585382e-05,-0.0001923239033203572,0.0002546777541283518,-0.003504010383039713,0.0011781093198806047,-0.004600918851792812,0.005229126662015915,0.013079878874123096,-0.0009502918110229075,0.015706738457083702,-0.009765824303030968,0.04696865379810333,0.0,0.0,0.0,-0.0055967820808291435,-0.0015880509745329618,-0.0,0.0,0.0,0.0,-0.00259710056707263,-0.0032827267423272133,-0.0022314598318189383,13391.0,14411.0,13471.0,13410.0,0.39956945180892944,0.46685791015625,0.40463703870773315,0.40074920654296875,0.0,0.0,0.0,0.0,13853.0,13628.0,14018.0,12732.0,1.6758193969726562,-0.06873621480195291,0.08866579898027667,-0.08763098354803218,0.013300027698278427,-0.005477877799421549,0.0
299,5,-1.6537813280592673e-05,-0.00020586262689903378,0.0002552676887717098,8.872937178239226e-05,0.0020958916284143925,-0.0019111600704491138,0.005720850545912981,0.01292180921882391,-0.0007137111388146877,0.02601136453449726,0.0531977154314518,-0.15025226771831512,0.0,0.0,0.0,-0.0017753292340785265,-0.0033157120924443007,-0.0,0.0,0.0,0.0,-0.00403832271695137,-0.003009974956512451,-0.0025043454952538013,12297.0,15408.0,12110.0,14581.0,0.3331524729728699,0.5377030968666077,0.322407603263855,0.47855043411254883,0.0,0.0,0.0,0.0,14824.0,12951.0,14992.0,11648.0,1.6646591424942017,-0.0692979503614128,0.08723774068676309,-0.08735660293730564,0.013300027698278427,-0.005477877799421549,0.0
304,5,-2.5327059120172635e-05,-0.00015938201977405697,0.0002932619827333838,-0.0010192177724093199,-0.004739317111670971,-0.005323781166225672,0.005720850545912981,0.01292180921882391,-0.0007137111388146877,0.02601136453449726,0.0531977154314518,-0.15025226771831512,0.0,0.0,0.0,-0.0017753292340785265,-0.0033157120924443007,-0.0,0.0,0.0,0.0,-0.00403832271695137,-0.003009974956512451,-0.0025043454952538013,12297.0,15408.0,12110.0,14581.0,0.3331524729728699,0.5377030968666077,0.322407603263855,0.47855043411254883,0.0,0.0,0.0,0.0,14824.0,12951.0,14992.0,11648.0,1.6646591424942017,-0.06964155189581607,0.08757576699338086,-0.08645764818118704,0.013300027698278427,-0.005477877799421549,0.0
309,5,-2.6149535187869333e-05,-0.00015663485100958496,0.0003081291215494275,-0.0005063843564130366,-0.0022253873758018017,-0.003913567401468754,0.005812022835016251,0.01271516177803278,-0.00018591062689665705,0.01398414932191372,0.049653299152851105,0.043417759239673615,0.0,0.0,0.0,0.005448773968964815,-0.0009830662747845054,-0.0,0.0,0.0,0.0,-0.0035899393260478973,-0.003874940099194646,0.003830583766102791,14682.0,13145.0,14661.0,12102.0,0.48562824726104736,0.3840891718864441,0.4841286540031433,0.3219733238220215,0.0,0.0,0.0,0.0,12739.0,15003.0,12791.0,14101.0,1.6726527214050293,-0.0694873340517442,0.08819224234343263,-0.08730327819309011,0.003962177783250809,0.016893094405531883,0.0
314,5,-5.9934231103397906e-05,-0.00015309706213884056,0.00036914664087817073,-0.004256716929376125,-0.0013146888231858611,-0.00888753216713667,0.005812022835016251,0.01271516177803278,-0.00018591062689665705,0.01398414932191372,0.049653299152851105,0.043417759239673615,0.0,0.0,0.0,0.005448773968964815,-0.0009830662747845054,-0.0,0.0,0.0,0.0,-0.0035899393260478973,-0.003874940099194646,0.003830583766102791,14682.0,13145.0,14661.0,12102.0,0.48562824726104736,0.3840891718864441,0.4841286540031433,0.3219733238220215,0.0,0.0,0.0,0.0,12739.0,15003.0,12791.0,14101.0,1.6726527214050293,-0.07099906344227869,0.08822116944814672,-0.08703780292110165,0.003962177783250809,0.016893094405531883,0.0
319,5,-3.715414641192183e-05,-0.00014063241542316973,0.000324698950862512,0.0010309231001883745,-0.0020216333214193583,0.001778711681254208,0.00599219836294651,0.01184786669909954,-0.0006500552408397198,0.0016374794067814946,0.03198389336466789,0.12836110591888428,0.0,0.0,0.0,0.0013186901342123747,-0.00404616491869092,-0.0,0.0,0.0,0.0,-0.002245229436084628,-0.003841990604996681,4.699583223555237e-05,14221.0,13370.0,14427.0,12493.0,0.45388445258140564,0.3982042968273163,0.4679742157459259,0.34459617733955383,0.0,0.0,0.0,0.0,12670.0,14851.0,12836.0,14118.0,1.6711539030075073,-0.06978405115980485,0.08775948340623348,-0.08608054291715651,0.016293348744511604,0.004084769170731306,0.0
324,5,-6.111109541961923e-05,-0.00012812016939278692,0.0003719348751474172,-0.002462464850395918,-0.002310123760253191,-0.004956827964633703,0.00599219836294651,0.01184786669909954,-0.0006500552408397198,0.0016374794067814946,0.03198389336466789,0.12836110591888428,0.0,0.0,0.0,0.0013186901342123747,-0.00404616491869092,-0.0,0.0,0.0,0.0,-0.002245229436084628,-0.003841990604996681,4.699583223555237e-05,14221.0,13370.0,14427.0,12493.0,0.45388445258140564,0.3982042968273163,0.4679742157459259,0.34459617733955383,0.0,0.0,0.0,0.0,12670.0,14851.0,12836.0,14118.0,1.6711539030075073,-0.0702764009570701,0.08839689400719641,-0.08727839052343223,0.016293348744511604,0.004084769170731306,0.0
329,5,-4.730761793325655e-05,-0.00010933291196124628,0.0003425245813559741,0.0006714315386489034,-0.003178519429638982,0.0015465043252333999,0.006003996357321739,0.011703033931553364,-0.0006278404616750777,-0.008058581501245499,0.08724924921989441,-0.15780681371688843,0.0,0.0,0.0,0.0025861195754259825,-0.0023937204387038946,-0.0,0.0,0.0,0.0,-5.2378465625224635e-05,-0.002397096250206232,-0.004548519384115934,11569.0,15499.0,11884.0,15253.0,0.292300820350647,0.5443589091300964,0.30968958139419556,0.5263034105300903,0.0,0.0,0.0,0.0,14935.0,12326.0,15405.0,11653.0,1.659436583518982,-0.06882778484399639,0.08731993911295279,-0.08698694642696697,0.009571590460836887,0.007954574190080166,0.0
334,5,-6.20593928033486e-05,-8.068347960943356e-05,0.00036045353044755757,-0.001501639955677092,-0.004709339700639248,-0.0015328695299103856,0.006003996357321739,0.011703033931553364,-0.0006278404616750777,-0.008058581501245499,0.08724924921989441,-0.15780681371688843,0.0,0.0,0.0,0.0025861195754259825,-0.0023937204387038946,-0.0,0.0,0.0,0.0,-5.2378465625224635e-05,-0.002397096250206232,-0.004548519384115934,11569.0,15499.0,11884.0,15253.0,0.292300820350647,0.5443589091300964,0.30968958139419556,0.5263034105300903,0.0,0.0,0.0,0.0,14935.0,12326.0,15405.0,11653.0,1.659436583518982,-0.06985084383801049,0.08729807773430356,-0.08619026680479891,0.009571590460836887,0.007954574190080166,0.0
339,5,-6.231643055798486e-05,-5.795353717985563e-05,0.0003807569155469537,-0.0006315008504316211,-0.004611328709870577,-0.0030495559331029654,0.006003996357321739,0.011703033931553364,-0.0006278404616750777,-0.008058581501245499,0.08724924921989441,-0.15780681371688843,0.0,0.0,0.0,0.005543986335396767,-0.0014801440993323922,-0.0,0.0,0.0,0.0,-5.2378465625224635e-05,-0.002397096250206232,-0.004548519384115934,11569.0,15499.0,11884.0,15253.0,0.292300820350647,0.5443589091300964,0.30968958139419556,0.5263034105300903,0.0,0.0,0.0,0.0,14935.0,12326.0,15405.0,11653.0,1.6749855279922485,-0.06926791111147743,0.0881949130115085,-0.08768483616319689,0.00597393000498414,0.01721225306391716,0.0
344,5,-9.726741700433195e-05,-3.983299029641785e-05,0.0003995942824985832,-0.004446718841791153,-0.004018997307866812,-0.003480306826531887,0.006125066429376602,0.011094707064330578,-0.0002413775073364377,0.02667430229485035,0.05045405775308609,-0.017643112689256668,0.0,0.0,0.0,0.005543986335396767,-0.0014801440993323922,-0.0,0.0,0.0,0.0,-0.0016813093097880483,-0.004575061611831188,0.002838148968294263,13948.0,13640.0,14273.0,12794.0,0.4356510043144226,0.4154868721961975,0.45743823051452637,0.36257779598236084,0.0,0.0,0.0,0.0,13026.0,14460.0,13410.0,13763.0,1.6749855279922485,-0.07044028861198062,0.08909142967239783,-0.08760340195512518,0.00597393000498414,0.01721225306391716,0.0
349,5,-7.271762297023088e-05,-8.053417332121171e-06,0.0003976252337452024,0.0011672881664708257,-0.005421147681772709,-0.0011558360420167446,0.006125066429376602,0.011094707064330578,-0.0002413775073364377,0.02667430229485035,0.05045405775308609,-0.017643112689256668,0.0,0.0,0.0,0.004748158156871796,-0.004233964718878269,-0.0,0.0,0.0,0.0,-0.0016813093097880483,-0.004575061611831188,0.002838148968294263,13948.0,13640.0,14273.0,12794.0,0.4356510043144226,0.4154868721961975,0.45743823051452637,0.36257779598236084,0.0,0.0,0.0,0.0,13026.0,14460.0,13410.0,13763.0,1.687086820602417,-0.06921165172921144,0.08905741683798288,-0.08695923245596125,0.01721196062862873,0.014848007820546627,0.0
355,5,-7.04209232935682e-05,-3.3471598726464435e-05,0.000390397384762764,0.0007425189833156765,0.0008817226043902338,0.00040500733302906156,0.006132692564278841,0.010832075960934162,-0.0009499309817329049,-0.007143822964280844,-0.028863979503512383,0.1553037464618683,0.0,0.0,0.0,0.004748158156871796,-0.004233964718878269,-0.0,0.0,0.0,0.0,-0.0009807480964809656,-0.00452462350949645,0.001570539316162467,14394.0,12955.0,14924.0,12044.0,0.46570268273353577,0.3723617494106293,0.5026957988739014,0.3186763823032379,0.0,0.0,0.0,0.0,14946.0,12324.0,15380.0,11430.0,1.687086820602417,-0.06853930558215862,0.0891774240250861,-0.08711975149874786,0.01721196062862873,0.014848007820546627,0.0
360,5,-6.964822387089953e-05,-7.365804322034819e-06,0.00040732193156145513,0.0003897318383678794,-0.002780006267130375,-0.0018689424032345414,0.006132692564278841,0.010832075960934162,-0.0009499309817329049,-0.007143822964280844,-0.028863979503512383,0.1553037464618683,0.0,0.0,0.0,-0.0011516049271449447,0.0006070959498174489,-0.0,0.0,0.0,0.0,-0.0009807480964809656,-0.00452462350949645,0.001570539316162467,14394.0,12955.0,14924.0,12044.0,0.46570268273353577,0.3723617494106293,0.5026957988739014,0.3186763823032379,0.0,0.0,0.0,0.0,14946.0,12324.0,15380.0,11430.0,1.6372426748275757,-0.06832319946571687,0.08933976386141922,-0.08694583175306946,-0.0023950908798724413,-0.0034948212560266256,-0.0
365,5,-0.00010011262202169746,1.6819692518765805e-06,0.00046548937098123133,-0.003499835729598999,-0.00219773524440825,-0.007727668154984713,0.0061156549490988255,0.010844143107533455,-0.001219696830958128,-0.011982094496488571,-0.001307557220570743,-0.1414327472448349,0.0,0.0,0.0,-0.0011516049271449447,0.0006070959498174489,-0.0,0.0,0.0,0.0,-0.000420774013036862,-0.003236800665035844,-0.004560326226055622,11496.0,15586.0,12074.0,15102.0,0.28838449716567993,0.550861120223999,0.3203689455986023,0.5153709650039673,0.0,0.0,0.0,0.0,13697.0,13680.0,14250.0,13108.0,1.6372426748275757,-0.06906265970963615,0.08927320177171358,-0.08712536845969741,-0.0023950908798724413,-0.0034948212560266256,-0.0
370,5,-9.463776223128662e-05,-8.17791442386806e-06,0.000462025695014745,-0.0007429509423673153,0.0003040918963961303,-0.0026754275895655155,0.0061156549490988255,0.010844143107533455,-0.001219696830958128,-0.011982094496488571,-0.001307557220570743,-0.1414327472448349,0.0,0.0,0.0,0.0026657721027731895,-0.0034010657109320164,-0.0,0.0,0.0,0.0,-0.000420774013036862,-0.003236800665035844,-0.004560326226055622,11496.0,15586.0,12074.0,15102.0,0.28838449716567993,0.550861120223999,0.3203689455986023,0.5153709650039673,0.0,0.0,0.0,0.0,13697.0,13680.0,14250.0,13108.0,1.6689326763153076,-0.0685549011601175,0.08968878444276045,-0.08781980997655313,0.013677394017577171,0.008246496319770813,0.0
375,5,-0.00011472292680991814,2.118291740771383e-05,0.0004489724524319172,-0.002707399893552065,-0.0034016629215329885,0.0004962164675816894,0.0060637700371444225,0.011149704456329346,-0.0001803184422897175,0.0008432071190327406,-0.03069174848496914,-0.09173811227083206,0.0,0.0,0.0,0.0026657721027731895,-0.0034010657109320164,-0.0,0.0,0.0,0.0,-0.0020967700984328985,-0.004271057900041342,0.0032967370934784412,13419.0,14116.0,14144.0,13243.0,0.4012939929962158,0.44681692123413086,0.44873929023742676,0.39023661613464355,0.0,0.0,0.0,0.0,11320.0,15832.0,11973.0,15223.0,1.6689326763153076,-0.06907044765710539,0.08848599583794495,-0.0867301754330787,0.013677394017577171,0.008246496319770813,0.0
380,5,-0.0001449518313165754,2.526144999137614e-05,0.0004815802676603198,-0.004710428882390261,-0.001850089174695313,-0.0037144499365240335,0.0060637700371444225,0.011149704456329346,-0.0001803184422897175,0.0008432071190327406,-0.03069174848496914,-0.09173811227083206,0.0,0.0,0.0,0.004154416732490063,-0.0026786758098751307,-0.0,0.0,0.0,0.0,-0.0020967700984328985,-0.004271057900041342,0.0032967370934784412,13419.0,14116.0,14144.0,13243.0,0.4012939929962158,0.44681692123413086,0.44873929023742676,0.39023661613464355,0.0,0.0,0.0,0.0,11320.0,15832.0,11973.0,15223.0,1.671142339706421,-0.06977520179406345,0.08866540573526423,-0.08674433772345279,0.010786517523229122,0.012868554331362247,-0.0
385,5,-0.0001399566390318796,5.099414920550771e-06,0.0005026915459893644,-0.0012847486650571227,0.00167940859682858,-0.0040191346779465675,0.006034288555383682,0.011492797173559666,-0.0005978108965791762,-0.009790010750293732,-0.05771908909082413,0.20216231048107147,0.0,0.0,0.0,0.004154416732490063,-0.0026786758098751307,-0.0,0.0,0.0,0.0,-0.0010564321419224143,-0.0034401575103402138,-0.005469064693897963,15106.0,12081.0,15442.0,10967.0,0.5157124996185303,0.3207860589027405,0.5401982665061951,0.26054584980010986,0.0,0.0,0.0,0.0,14695.0,12609.0,14931.0,11638.0,1.671142339706421,-0.06896383427146865,0.08947152439603513,-0.08772596981589754,0.010786517523229122,0.012868554331362247,-0.0
390,5,-0.00016539153875783086,7.395669399556937e-06,0.00046779419062659144,-0.0035660872235894203,0.0003962129121646285,0.002580031519755721,0.006034288555383682,0.011492797173559666,-0.0005978108965791762,-0.009790010750293732,-0.05771908909082413,0.20216231048107147,0.0,0.0,0.0,-0.0020532177295535803,-0.0014074471546337008,-0.0,0.0,0.0,0.0,-0.0010564321419224143,-0.0034401575103402138,-0.005469064693897963,15106.0,12081.0,15442.0,10967.0,0.5157124996185303,0.3207860589027405,0.5401982665061951,0.26054584980010986,0.0,0.0,0.0,0.0,14695.0,12609.0,14931.0,11638.0,1.6485228538513184,-0.06921217714125838,0.08895905209396605,-0.0867706918467446,0.005590850953012705,-0.0062739052809774876,0.0
395,5,-0.0001795902498997748,1.7119433323387057e-05,0.0004514087049756199,-0.0031302792485803366,-0.0010083665838465095,0.0029982703272253275,0.006042576860636473,0.011388302780687809,-0.001171438256278634,0.001401834306307137,0.025540731847286224,-0.11585009843111038,0.0,0.0,0.0,-0.0020532177295535803,-0.0014074471546337008,-0.0,0.0,0.0,0.0,-0.0008624025504104793,-0.004073244519531727,0.0012816748348996043,11599.0,15572.0,12017.0,14999.0,0.2939631938934326,0.5498126149177551,0.3171515464782715,0.5080053210258484,0.0,0.0,0.0,0.0,13971.0,13498.0,14435.0,12700.0,1.6485228538513184,-0.06787092432319065,0.08933236195072114,-0.08621926413578197,0.005590850953012705,-0.0062739052809774876,0.0
400,5,-0.00018865507445298135,1.556675670144614e-05,0.00044090740266256034,-0.002339890692383051,-0.00021702544472645968,0.0024594622664153576,0.006042576860636473,0.011388302780687809,-0.001171438256278634,0.001401834306307137,0.025540731847286224,-0.11585009843111038,0.0,0.0,0.0,0.001256884541362524,-0.0031791995279490948,-0.0,0.0,0.0,0.0,-0.0008624025504104793,-0.004073244519531727,0.0012816748348996043,11599.0,15572.0,12017.0,14999.0,0.2939631938934326,0.5498126149177551,0.3171515464782715,0.5080053210258484,0.0,0.0,0.0,0.0,13971.0,13498.0,14435.0,12700.0,1.6617541313171387,-0.06693686631938661,0.08935777833947238,-0.08755846961713581,0.012730204500257969,0.0038714217953383923,-0.0
405,5,-0.00021722482051700354,6.458411462517688e-06,0.0004762201861012727,-0.004364327061921358,0.0010061913635581732,-0.0032537467777729034,0.00616069370880723,0.01134780328720808,-0.0006117962184362113,0.032548438757658005,0.03144548833370209,-0.14281217753887177,0.0,0.0,0.0,0.001256884541362524,-0.0031791995279490948,-0.0,0.0,0.0,0.0,-0.0020698588341474533,-0.004788962192833424,0.004351601470261812,13038.0,14417.0,13436.0,13771.0,0.3774762451648712,0.46723809838294983,0.40239956974983215,0.4240284264087677,0.0,0.0,0.0,0.0,10720.0,16182.0,11149.0,15669.0,1.6617541313171387,-0.06794996362794754,0.08935195465605145,-0.08707232112945407,0.012730204500257969,0.0038714217953383923,-0.0
410,5,-0.00023430946748703718,1.8690192518988624e-05,0.00045059199328534305,-0.0037958878092467785,-0.0010653373319655657,0.0017738825408741832,0.00616069370880723,0.01134780328720808,-0.0006117962184362113,0.032548438757658005,0.03144548833370209,-0.14281217753887177,0.0,0.0,0.0,-0.0012057098792865872,-0.004353976808488369,-0.0,0.0,0.0,0.0,-0.0020698588341474533,-0.004788962192833424,0.004351601470261812,13038.0,14417.0,13436.0,13771.0,0.3774762451648712,0.46723809838294983,0.40239956974983215,0.4240284264087677,0.0,0.0,0.0,0.0,10720.0,16182.0,11149.0,15669.0,1.674277663230896,-0.0656494220481737,0.0892620001739798,-0.0862180511335431,0.017565634101629257,-0.003741783555597067,0.0
415,5,-0.00027000176487490535,-1.4604031093767844e-05,0.0005010883905924857,-0.005801429972052574,0.0035691719967871904,-0.005350014660507441,0.006128496024757624,0.011236918158829212,-0.0012016547843813896,-0.018055904656648636,-0.043678056448698044,0.23258943855762482,0.0,0.0,0.0,-0.0012057098792865872,-0.004353976808488369,-0.0,0.0,0.0,0.0,-0.001500566373579204,-0.003648326965048909,-0.006625843700021505,15466.0,11717.0,15831.0,10496.0,0.5419583916664124,0.30039066076278687,0.5692039132118225,0.23696987330913544,0.0,0.0,0.0,0.0,14439.0,13017.0,14711.0,11996.0,1.674277663230896,-0.06945533948045723,0.09014811289937108,-0.08865419772540581,0.017565634101629257,-0.003741783555597067,0.0
421,5,-0.00028254216886125505,-1.9895514924428426e-05,0.0004624515713658184,-0.0038254212122410536,0.0020626469049602747,0.0024964120239019394,0.006128496024757624,0.011236918158829212,-0.0012016547843813896,-0.018055904656648636,-0.043678056448698044,0.23258943855762482,0.0,0.0,0.0,-0.004279069136828184,-0.005681031383574009,-0.0,0.0,0.0,0.0,-0.001500566373579204,-0.003648326965048909,-0.006625843700021505,15466.0,11717.0,15831.0,10496.0,0.5419583916664124,0.30039066076278687,0.5692039132118225,0.23696987330913544,0.0,0.0,0.0,0.0,14439.0,13017.0,14711.0,11996.0,1.6981468200683594,-0.06833052575389804,0.08861100291545469,-0.08704560815434159,0.02324598841369152,-0.013468855060636997,0.0
426,5,-0.0002979000855702907,-2.7141468308400363e-05,0.0004721288860309869,-0.003373119281604886,0.0016945730894804,-0.0001627125166123733,0.006118213292211294,0.011227671056985855,-0.0018770333845168352,-0.016604918986558914,-0.005224206484854221,-0.0865355059504509,0.0,0.0,0.0,-0.004279069136828184,-0.005681031383574009,-0.0,0.0,0.0,0.0,-0.001970029901713133,-0.005431022495031357,-0.00035009364364668727,12302.0,15171.0,12784.0,14288.0,0.3334311246871948,0.5204200744628906,0.3619883060455322,0.4584381580352783,0.0,0.0,0.0,0.0,14233.0,13192.0,14760.0,12223.0,1.6981468200683594,-0.06663169940840015,0.08936307186293306,-0.0869635151506661,0.02324598841369152,-0.013468855060636997,0.0
431,5,-0.00032494630431756377,-8.118851110339165e-05,0.0005184693145565689,-0.004594793077558279,0.007163474801927805,-0.005625933408737183,0.006118213292211294,0.011227671056985855,-0.0018770333845168352,-0.016604918986558914,-0.005224206484854221,-0.0865355059504509,0.0,0.0,0.0,-0.002104734070599079,-0.0035559856332838535,-0.0,0.0,0.0,0.0,-0.001970029901713133,-0.005431022495031357,-0.00035009364364668727,12302.0,15171.0,12784.0,14288.0,0.3334311246871948,0.5204200744628906,0.3619883060455322,0.4584381580352783,0.0,0.0,0.0,0.0,14233.0,13192.0,14760.0,12223.0,1.668218970298767,-0.06894249466306972,0.08863707555909302,-0.0889922031768884,0.014294305816292763,-0.006508160382509232,0.0
436,5,-0.00034332595532760024,-3.935658241971396e-05,0.0004981780075468123,-0.004043475724756718,-0.0021544417832046747,0.00018458064005244523,0.005958240013569593,0.01162157766520977,-0.0011496222577989101,-0.023447703570127487,-0.04985726252198219,0.2554006576538086,0.0,0.0,0.0,-0.002104734070599079,-0.0035559856332838535,-0.0,0.0,0.0,0.0,-0.002792236628010869,-0.006240434013307095,0.005130230449140072,15789.0,11828.0,16241.0,10247.0,0.5660256147384644,0.3065190613269806,0.6006784439086914,0.22492364048957825,0.0,0.0,0.0,0.0,9784.0,16920.0,10142.0,16185.0,1.668218970298767,-0.06619938956540394,0.08956093881566345,-0.08748681509723645,0.014294305816292763,-0.006508160382509232,0.0
441,5,-0.00037192710442468524,-5.686123404302634e-05,0.0004521653172560036,-0.005049529019743204,0.0012387812603265047,0.005595354828983545,0.005958240013569593,0.01162157766520977,-0.0011496222577989101,-0.023447703570127487,-0.04985726252198219,0.2554006576538086,0.0,0.0,0.0,0.0025288418401032686,-0.004222877789288759,-0.0,0.0,0.0,0.0,-0.002792236628010869,-0.006240434013307095,0.005130230449140072,15789.0,11828.0,16241.0,10247.0,0.5660256147384644,0.3065190613269806,0.6006784439086914,0.22492364048957825,0.0,0.0,0.0,0.0,9784.0,16920.0,10142.0,16185.0,1.6764886379241943,-0.06647984727906256,0.08828924336577604,-0.08699156044766468,0.017059186473488808,0.00785832479596138,-0.0
446,5,-0.00039489069604314864,-8.798066846793517e-05,0.0005036114598624408,-0.004775441717356443,0.00422984454780817,-0.003935397602617741,0.005958240013569593,0.01162157766520977,-0.0011496222577989101,-0.023447703570127487,-0.04985726252198219,0.2554006576538086,0.0,0.0,0.0,0.0025288418401032686,-0.004222877789288759,-0.0,0.0,0.0,0.0,-0.002792236628010869,-0.006240434013307095,0.005130230449140072,15789.0,11828.0,16241.0,10247.0,0.5660256147384644,0.3065190613269806,0.6006784439086914,0.22492364048957825,0.0,0.0,0.0,0.0,9784.0,16920.0,10142.0,16185.0,1.6764886379241943,-0.06647821777292312,0.0894902153428763,-0.08906886001042631,0.017059186473488808,0.00785832479596138,-0.0
451,5,-0.0004200143739581108,-6.479676812887192e-05,0.000484445714391768,-0.004925017710775137,-0.0010901299538090825,0.0007257345132529736,0.005933841690421104,0.011492668651044369,-0.002569938078522682,-0.011446261778473854,0.029799561947584152,-0.06752695143222809,0.0,0.0,0.0,-0.005202466156333685,-0.00491698132827878,-0.0,0.0,0.0,0.0,-0.0022336707916110754,-0.0033275862224400043,-0.007352916523814201,11410.0,15840.0,11627.0,15153.0,0.2837415337562561,0.5698973536491394,0.2954878807067871,0.5190922021865845,0.0,0.0,0.0,0.0,14235.0,13711.0,14661.0,12398.0,1.6955729722976685,-0.0662284439613092,0.08927862159754467,-0.08716012811956624,0.02008904702961445,-0.016350489109754562,0.0
456,5,-0.0004508147540036589,-8.385237015318125e-05,0.0004964553518220782,-0.005666052456945181,0.0018506202613934875,-0.0011508637107908726,0.005933841690421104,0.011492668651044369,-0.002569938078522682,-0.011446261778473854,0.029799561947584152,-0.06752695143222809,0.0,0.0,0.0,-0.005202466156333685,-0.00491698132827878,-0.0,0.0,0.0,0.0,-0.0022336707916110754,-0.0033275862224400043,-0.007352916523814201,11410.0,15840.0,11627.0,15153.0,0.2837415337562561,0.5698973536491394,0.2954878807067871,0.5190922021865845,0.0,0.0,0.0,0.0,14235.0,13711.0,14661.0,12398.0,1.6955729722976685,-0.06815134098260339,0.08885550803070767,-0.08751329378021631,0.02008904702961445,-0.016350489109754562,0.0
461,5,-0.00042735645547509193,-7.915569585748017e-05,0.0004632005875464529,0.0005485723377205431,0.00017664745973888785,0.0035302257165312767,0.005780976731330156,0.011218451894819736,-0.0021184103097766638,0.005153332836925983,0.08234059810638428,-0.2646978497505188,0.0,0.0,0.0,-0.002360316924750805,-0.005819572601467371,-0.0,0.0,0.0,0.0,-0.0021885402966290712,-0.0036142596509307623,-0.0018640238558873534,11574.0,15736.0,11687.0,15094.0,0.29261383414268494,0.5620536804199219,0.29874011874198914,0.5148113965988159,0.0,0.0,0.0,0.0,14863.0,12661.0,15219.0,11553.0,1.6927965879440308,-0.06690692677071927,0.08897030326507592,-0.08808919433056074,0.02373799867928028,-0.0074059865437448025,0.0
467,5,-0.00045060671982355416,-7.30993997422047e-05,0.00046933419071137905,-0.002570602810010314,-0.0006560964393429458,0.0006760586402378976,0.005780976731330156,0.011218451894819736,-0.0021184103097766638,0.005153332836925983,0.08234059810638428,-0.2646978497505188,0.0,0.0,0.0,-0.002360316924750805,-0.005819572601467371,-0.0,0.0,0.0,0.0,-0.0021885402966290712,-0.0036142596509307623,-0.0018640238558873534,11574.0,15736.0,11687.0,15094.0,0.29261383414268494,0.5620536804199219,0.29874011874198914,0.5148113965988159,0.0,0.0,0.0,0.0,14863.0,12661.0,15219.0,11553.0,1.6927965879440308,-0.06681779320868834,0.08945552180118282,-0.08713916758705414,0.02373799867928028,-0.0074059865437448025,0.0
472,5,-0.00046622983063571155,-7.44905264582485e-05,0.00048002859693951905,-0.0029030111618340015,-9.550406684866175e-05,-0.0010129044530913234,0.00564577616751194,0.010619759559631348,-0.0024140074383467436,-0.02264241687953472,-0.005342623684555292,0.2042275071144104,0.0,0.0,0.0,0.000667635235004127,-0.0030343651305884123,-0.0,0.0,0.0,0.0,-0.0004831280675716698,-0.004004827234894037,0.005490586161613464,15685.0,11963.0,15916.0,10711.0,0.5582243800163269,0.3141093850135803,0.575670063495636,0.24756915867328644,0.0,0.0,0.0,0.0,10227.0,16535.0,10468.0,16144.0,1.6590502262115479,-0.06638063567590134,0.08982190719432552,-0.0873469063256082,0.0121304951608181,0.002053086645901203,-0.0
