timestamp,dt,pos_x,pos_y,pos_z,vel_x,vel_y,vel_z,roll,pitch,yaw,agv_x,agv_y,agv_z,x_ref,y_ref,z_ref,roll_ref,pitch_ref,yaw_ref,x_vel_ref,y_vel_ref,z_vel_ref,x_torque,y_torque,z_torque,w0,w1,w2,w3,u0,u1,u2,u3,m0req,m1req,m2req,m3req,thrust0,thrust1,thrust2,thrust3,thrust_ref,roll_vicon,pitch_vicon,yaw_vicon,acc_x,acc_y,acc_z
5,5,0.0,0.0,0.0,0.0013188155135139823,0.0019316106336191297,0.0022790106013417244,0.01355038397014141,0.0032148482277989388,0.006265720818191767,-0.00022643520787823945,-0.004584647715091705,0.003246465465053916,0.0,0.0,0.0,-0.002369116758927703,0.0012442514998838305,-0.0,0.0,0.0,0.0,-0.20000000298023224,-0.1805088073015213,0.005505508743226528,1495.0,1495.0,1495.0,1495.0,0.0,0.0,0.0,0.0,0.0,0.0,0.0,0.0,1495.0,1495.0,1495.0,1495.0,1.6495161056518555,-0.0016216028740213898,-0.30265541210343183,3.115676988662688,-0.004945558030158281,-0.007243539672344923,0.0
28,23,0.0,0.0,0.0,-0.000970051100011915,-0.0011726436205208302,-0.001968065742403269,0.01355038397014141,0.0032148482277989388,0.006265720818191767,-0.00022643520787823945,-0.004584647715091705,0.003246465465053916,0.0,0.0,0.0,-0.002369116758927703,0.0012442514998838305,-0.0,0.0,0.0,0.0,-0.20000000298023224,-0.1805088073015213,0.005505508743226528,1495.0,1495.0,1495.0,1495.0,0.0,0.0,0.0,0.0,0.0,0.0,0.0,0.0,1495.0,1495.0,1495.0,1495.0,1.6495161056518555,0.0023191664234837933,-0.30303253756968235,3.116660110677481,-0.004945558030158281,-0.007243539672344923,0.0
33,5,0.0,0.0,0.0,-0.003414503065869212,-0.0004923145170323551,-0.005875732284039259,0.01355038397014141,0.0032148482277989388,0.006265720818191767,-0.00022643520787823945,-0.004584647715091705,0.003246465465053916,0.0,0.0,0.0,-0.002369116758927703,0.0012442514998838305,-0.0,0.0,0.0,0.0,-0.20000000298023224,-0.1805088073015213,0.005505508743226528,1495.0,1495.0,1495.0,1495.0,0.0,0.0,0.0,0.0,0.0,0.0,0.0,0.0,1495.0,1495.0,1495.0,1495.0,1.6495161056518555,-0.0009980123311413571,-0.3033440718846346,3.1154030900556666,0.012804386205971241,0.0018461794825270772,0.0
38,5,0.0,0.0,0.0,0.005142889451235533,0.00014262596960179508,0.004547782242298126,0.013551650568842888,0.0032208152115345,0.006243682000786066,-0.000227573502343148,-0.0024069882929325104,0.0015143442433327436,0.0,0.0,0.0,0.000599734194111079,-0.003199639730155468,-0.0,0.0,0.0,0.0,-0.20000000298023224,-0.20000000298023224,0.006462906952947378,1495.0,1495.0,1495.0,1495.0,0.0,0.0,0.0,0.0,0.0,0.0,0.0,0.0,1495.0,1495.0,1495.0,1495.0,1.6607589721679688,-0.0014887433748288533,-0.3017721016998604,3.115358438676325,0.012804386205971241,0.0018461794825270772,0.0
44,6,0.0,0.0,0.0,0.005142889451235533,0.00014262596960179508,0.004547782242298126,0.013551650568842888,0.0032208152115345,0.006243682000786066,-0.000227573502343148,-0.0024069882929325104,0.0015143442433327436,0.0,0.0,0.0,-0.00017197523266077042,0.00477015832439065,-0.0,0.0,0.0,0.0,-0.20000000298023224,-0.20000000298023224,0.006462906952947378,1495.0,1495.0,1495.0,1495.0,0.0,0.0,0.0,0.0,0.0,0.0,0.0,0.0,1495.0,1495.0,1495.0,1495.0,1.677858829498291,-0.0014887433748288533,-0.3017721016998604,3.115358438676325,-0.019285835325717926,-0.0005348473787307739,0.0
50,6,-8.740424163988791e-06,1.729142604744993e-05,-3.0275587050709873e-05,0.001008305000141263,-0.0020179206039756536,0.005452183540910482,0.013553004711866379,0.003263862570747733,0.0062476713210344315,-0.0017779230838641524,-0.005364471580833197,-0.004915041849017143,0.0,0.0,0.0,-0.00017197523266077042,0.00477015832439065,-0.0,0.0,0.0,0.0,-0.20000000298023224,-0.20000000298023224,0.0066362414509058,1495.0,1495.0,1495.0,1495.0,0.0,0.0,0.0,0.0,0.0,0.0,0.0,0.0,1495.0,1495.0,1495.0,1495.0,1.677858829498291,-0.0012856847722978592,-0.30157575458522595,3.1154591648946246,-0.019285835325717926,-0.0005348473787307739,0.0
55,5,-1.3001255865674466e-05,3.353981446707621e-05,1.0320702131139114e-05,0.0051642777398228645,0.0016281383577734232,0.005776557140052319,0.0135453836992383,0.0032879014033824205,0.006236948538571596,0.00327061559073627,-0.0058531370013952255,0.0027537080459296703,0.0,0.0,0.0,0.0025071175768971443,0.0009395757806487381,-0.0,0.0,0.0,0.0,-0.20000000298023224,-0.20000000298023224,0.006998362485319376,1495.0,1495.0,1495.0,1495.0,0.0,0.0,0.0,0.0,0.0,0.0,0.0,0.0,1495.0,1495.0,1495.0,1495.0,1.6488473415374756,-0.0003023634516891673,-0.2997479462136118,3.1153871566683122,-0.003733040764927864,0.0076623656786978245,0.0
62,7,-3.412617297726683e-05,2.643551488290541e-05,2.6445819457876496e-05,-0.00046927883522585034,0.0015037715202197433,0.0003756087680812925,0.0135453836992383,0.0032879014033824205,0.006236948538571596,0.00327061559073627,-0.0058531370013952255,0.0027537080459296703,0.0,0.0,0.0,0.0025071175768971443,0.0009395757806487381,-0.0,0.0,0.0,0.0,-0.20000000298023224,-0.20000000298023224,0.006998362485319376,1495.0,1495.0,1495.0,1495.0,0.0,0.0,0.0,0.0,0.0,0.0,0.0,0.0,1495.0,1495.0,1495.0,1495.0,1.6488473415374756,-0.0014540885557169914,-0.3004992858335411,3.114875615471401,-0.003733040764927864,0.0076623656786978245,0.0
67,5,-7.119053771020845e-05,3.0008233807166107e-05,0.00011669732339214534,-0.004635435529053211,0.00017278229643125087,-0.010679936967790127,0.013546869158744812,0.0033257915638387203,0.006276362109929323,-0.0032673832029104233,0.001517593627795577,0.00393145065754652,0.0,0.0,0.0,-0.001805480569601059,-0.0004923815140500665,-0.0,0.0,0.0,0.0,-0.20000000298023224,-0.15940959751605988,0.007007630076259375,1495.0,1495.0,1495.0,1495.0,0.0,0.0,0.0,0.0,0.0,0.0,0.0,0.0,1495.0,1495.0,1495.0,1495.0,1.641555905342102,-0.0015848262447149682,-0.29836383756484325,3.1143870669144254,0.0019476396264508367,-0.00549359479919076,0.0
72,5,-1.3506471987057012e-05,-1.3934892194811255e-05,2.9687629648833536e-05,0.005067913793027401,0.005342287942767143,0.006169188767671585,0.013546869158744812,0.0033257915638387203,0.006276362109929323,-0.0032673832029104233,0.001517593627795577,0.00393145065754652,0.0,0.0,0.0,-0.001805480569601059,-0.0004923815140500665,-0.0,0.0,0.0,0.0,-0.20000000298023224,-0.15940959751605988,0.007007630076259375,1495.0,1495.0,1495.0,1495.0,0.0,0.0,0.0,0.0,0.0,0.0,0.0,0.0,1495.0,1495.0,1495.0,1495.0,1.641555905342102,0.00015332400226452438,-0.3009980417258439,3.1155392832847584,0.0019476396264508367,-0.00549359479919076,0.0
77,5,-4.2199360905215144e-05,2.0397055777721107e-06,7.815457502147183e-05,-0.001415981212630868,0.00021996352006681263,-0.0033483579754829407,0.013546869158744812,0.0033257915638387203,0.006276362109929323,-0.0032673832029104233,0.001517593627795577,0.00393145065754652,0.0,0.0,0.0,-0.0063814688473939896,0.004620859399437904,-0.0,0.0,0.0,0.0,-0.20000000298023224,-0.15940959751605988,0.007007630076259375,1495.0,1495.0,1495.0,1495.0,0.0,0.0,0.0,0.0,0.0,0.0,0.0,0.0,1495.0,1495.0,1495.0,1495.0,1.700163722038269,0.0009206335220369499,-0.30013625742091876,3.114860561123515,-0.018930193036794662,-0.02011011727154255,-0.0
82,5,-4.493513642955804e-06,-4.367271321825683e-05,-8.800567229627632e-06,0.003958309069275856,0.005573475733399391,0.009095273911952972,0.013584715314209461,0.0033066635951399803,0.006313095334917307,0.003135716775432229,-0.0018026651814579964,0.003993458580225706,0.0,0.0,0.0,-0.0063814688473939896,0.004620859399437904,-0.0,0.0,0.0,0.0,-0.20000000298023224,-0.19769646227359772,0.00662097055464983,1495.0,1495.0,1495.0,1495.0,0.0,0.0,0.0,0.0,0.0,0.0,0.0,0.0,1495.0,1495.0,1495.0,1495.0,1.700163722038269,-0.000265511109464457,-0.30339017737299945,3.1154472869135135,-0.018930193036794662,-0.02011011727154255,-0.0
87,5,4.207009988022037e-05,-2.516577842470724e-05,-6.797342211939394e-05,0.007170957513153553,8.558115951018408e-06,0.010738852433860302,0.013584715314209461,0.0033066635951399803,0.006313095334917307,0.003135716775432229,-0.0018026651814579964,0.003993458580225706,0.0,0.0,0.0,-0.0063814688473939896,0.004620859399437904,-0.0,0.0,0.0,0.0,-0.20000000298023224,-0.19769646227359772,0.00662097055464983,1495.0,1495.0,1495.0,1495.0,0.0,0.0,0.0,0.0,0.0,0.0,0.0,0.0,1495.0,1495.0,1495.0,1495.0,1.700163722038269,0.003115027755240411,-0.30419503791117125,3.1167554324183735,-0.018930193036794662,-0.02011011727154255,-0.0
92,5,1.8101864043273963e-05,-4.825139967579162e-06,-5.200079976930283e-05,-7.805521818227135e-06,-0.0024374534841626883,0.002378826029598713,0.013584715314209461,0.0033066635951399803,0.006313095334917307,0.003135716775432229,-0.0018026651814579964,0.003993458580225706,0.0,0.0,0.0,-0.0063814688473939896,0.004620859399437904,-0.0,0.0,0.0,0.0,-0.20000000298023224,-0.19769646227359772,0.00662097055464983,1495.0,1495.0,1495.0,1495.0,0.0,0.0,0.0,0.0,0.0,0.0,0.0,0.0,1495.0,1495.0,1495.0,1495.0,1.700163722038269,0.0016059698249092115,-0.3034494231580438,3.1158523018962674,-0.018930193036794662,-0.02011011727154255,-0.0
97,5,-1.2811386113753542e-05,5.141283509146888e-06,-6.009357821312733e-05,-0.003712712088599801,-0.002170952269807458,0.0019226636504754424,0.013599446974694729,0.0033413111232221127,0.006315917242318392,0.0017535483930259943,-0.0009043898899108171,0.004945837426930666,0.0,0.0,0.0,0.0029792056884616613,1.7640513760852627e-05,-0.0,0.0,0.0,0.0,-0.20000000298023224,-0.20000000298023224,0.006803962867707014,1495.0,1495.0,1495.0,1495.0,0.0,0.0,0.0,0.0,0.0,0.0,0.0,0.0,1495.0,1495.0,1495.0,1495.0,1.6504453420639038,-0.001240723290255742,-0.3032549011996261,3.114897773086014,-7.015559822320938e-05,0.009114000014960766,0.0
102,5,-7.985022239154205e-05,6.911506352480501e-05,8.742266072658822e-05,-0.00952974520623684,-0.00854523479938507,-0.016932884231209755,0.01360795833170414,0.003365464275702834,0.006338068749755621,0.0024345482233911753,-0.0010517471237108111,-0.004195880144834518,0.0,0.0,0.0,0.009963552467525005,-0.00855117104947567,-0.0,0.0,0.0,0.0,-0.20000000298023224,-0.20000000298023224,0.0059907641261816025,1495.0,1495.0,1495.0,1495.0,0.0,0.0,0.0,0.0,0.0,0.0,0.0,0.0,1495.0,1495.0,1495.0,1495.0,1.7557858228683472,-0.001201874122955318,-0.29811461590742655,3.1137946121385602,0.036176133900880814,0.03242509439587593,0.0
109,7,-4.594307756633498e-05,4.1064831748371944e-05,1.1407227248128038e-05,0.0035362751223146915,0.0027120145969092846,0.006718748714774847,0.01360795833170414,0.003365464275702834,0.006338068749755621,0.0024345482233911753,-0.0010517471237108111,-0.004195880144834518,0.0,0.0,0.0,0.009963552467525005,-0.00855117104947567,-0.0,0.0,0.0,0.0,-0.20000000298023224,-0.20000000298023224,0.0059907641261816025,1495.0,1495.0,1495.0,1495.0,0.0,0.0,0.0,0.0,0.0,0.0,0.0,0.0,1495.0,1495.0,1495.0,1495.0,1.7557858228683472,-0.0011914189774225082,-0.29948222519825146,3.1144912466240275,0.036176133900880814,0.03242509439587593,0.0
114,5,-5.344536111806519e-05,4.583104600897059e-05,6.848930934211239e-05,0.0005142361624166369,0.0005128600751049817,-0.004162350669503212,0.01360795833170414,0.003365464275702834,0.006338068749755621,0.0024345482233911753,-0.0010517471237108111,-0.004195880144834518,0.0,0.0,0.0,0.009963552467525005,-0.00855117104947567,-0.0,0.0,0.0,0.0,-0.20000000298023224,-0.20000000298023224,0.0059907641261816025,1495.0,1495.0,1495.0,1495.0,0.0,0.0,0.0,0.0,0.0,0.0,0.0,0.0,1495.0,1495.0,1495.0,1495.0,1.7557858228683472,-0.0009385383071845206,-0.2989786679012727,3.11452541698753,0.036176133900880814,0.03242509439587593,0.0
119,5,-4.137703945161775e-05,3.681279849843122e-05,6.197316542966291e-05,0.0016538930358365178,0.001287334132939577,-0.0008830031147226691,0.013621056452393532,0.0033983669709414244,0.006328264717012644,0.0013032956048846245,-0.003528578206896782,0.002720525488257408,0.0,0.0,0.0,-0.0005522514693439007,0.00041544411214999855,-0.0,0.0,0.0,0.0,-0.20000000298023224,-0.20000000298023224,0.005994691047817469,1495.0,1495.0,1495.0,1495.0,0.0,0.0,0.0,0.0,0.0,0.0,0.0,0.0,1495.0,1495.0,1495.0,1495.0,1.632089376449585,-0.0006235324147640291,-0.2994034197959975,3.114635891014354,-0.0016338356072083116,-0.0016706648748368025,0.0
124,5,-3.6245561204850674e-05,2.3162718207458965e-05,5.915582369198091e-05,0.0012773347552865744,0.0021529430523514748,-1.5119968338694889e-05,0.013621056452393532,0.0033983669709414244,0.006328264717012644,0.0013032956048846245,-0.003528578206896782,0.002720525488257408,0.0,0.0,0.0,-0.0005522514693439007,0.00041544411214999855,-0.0,0.0,0.0,0.0,-0.20000000298023224,-0.20000000298023224,0.005994691047817469,1495.0,1495.0,1495.0,1495.0,0.0,0.0,0.0,0.0,0.0,0.0,0.0,0.0,1495.0,1495.0,1495.0,1495.0,1.632089376449585,-0.000749114745418513,-0.3008850659913291,3.114628598941141,-0.0016338356072083116,-0.0016706648748368025,0.0
129,5,-6.797579408157617e-05,2.911905903602019e-05,9.205691458191723e-05,-0.003296694252640009,0.00014641643792856485,-0.003954178653657436,0.01362068671733141,0.0034267513547092676,0.006365950219333172,-0.0006476935232058167,-0.0006487766513600945,-0.0002015613135881722,0.0,0.0,0.0,-0.0025970039423555136,0.0011540127452462912,-0.0,0.0,0.0,0.0,-0.20000000298023224,-0.20000000298023224,0.007272972259670496,1495.0,1495.0,1495.0,1495.0,0.0,0.0,0.0,0.0,0.0,0.0,0.0,0.0,1495.0,1495.0,1495.0,1495.0,1.6506115198135376,-0.0011660123000573623,-0.30003965593859083,3.1140242147370736,-0.0045899273827672005,-0.007945571094751358,0.0
135,5,-3.0995477573014796e-05,1.0530952749832068e-05,2.524264345993288e-05,0.0031189601868391037,0.002289139200001955,0.006436040624976158,0.01362068671733141,0.0034267513547092676,0.006365950219333172,-0.0006476935232058167,-0.0006487766513600945,-0.0002015613135881722,0.0,0.0,0.0,-0.0025970039423555136,0.0011540127452462912,-0.0,0.0,0.0,0.0,-0.20000000298023224,-0.20000000298023224,0.007272972259670496,1495.0,1495.0,1495.0,1495.0,0.0,0.0,0.0,0.0,0.0,0.0,0.0,0.0,1495.0,1495.0,1495.0,1495.0,1.6506115198135376,-0.00031889739812790294,-0.3014651083803985,3.114973156634549,-0.0045899273827672005,-0.007945571094751358,0.0
140,5,4.8387853894382715e-05,-2.3886486815172248e-05,-9.176728053716943e-05,0.010773584246635437,0.005045748315751553,0.0166156068444252,0.013625274412333965,0.0034364485181868076,0.006352345924824476,-0.0010910365963354707,0.005415330175310373,-0.0006182659999467432,0.0,0.0,0.0,-0.0027633316349238157,0.0028733706567436457,-0.0,0.0,0.0,0.0,-0.20000000298023224,-0.20000000298023224,0.0061972602270543575,1495.0,1495.0,1495.0,1495.0,0.0,0.0,0.0,0.0,0.0,0.0,0.0,0.0,1495.0,1495.0,1495.0,1495.0,1.6645303964614868,0.0012426445550749266,-0.3043957861700903,3.1159071571741808,-0.011524789966642857,-0.008525744080543518,-0.0
145,5,-3.052267129532993e-05,1.5570607502013445e-05,1.4655724953627214e-05,-0.005159829277545214,-0.002716552000492811,-0.006124517414718866,0.013625274412333965,0.0034364485181868076,0.006352345924824476,-0.0010910365963354707,0.005415330175310373,-0.0006182659999467432,0.0,0.0,0.0,-0.0027633316349238157,0.0028733706567436457,-0.0,0.0,0.0,0.0,-0.20000000298023224,-0.20000000298023224,0.0061972602270543575,1495.0,1495.0,1495.0,1495.0,0.0,0.0,0.0,0.0,0.0,0.0,0.0,0.0,1495.0,1495.0,1495.0,1495.0,1.6645303964614868,-0.000360093567734879,-0.30131498372214316,3.114691493442089,-0.011524789966642857,-0.008525744080543518,-0.0
150,5,3.6365345295052975e-06,1.2850260645791423e-05,-6.590645352844149e-05,0.002035172889009118,-0.0007601792458444834,0.007217654027044773,0.01363696064800024,0.003420228138566017,0.006350373383611441,-0.001166400033980608,0.0016044974327087402,-0.002515021711587906,0.0,0.0,0.0,0.0032887812703847885,-0.0048064072616398335,-0.0,0.0,0.0,0.0,-0.20000000298023224,-0.1977349817752838,0.006353817414492369,1495.0,1495.0,1495.0,1495.0,0.0,0.0,0.0,0.0,0.0,0.0,0.0,0.0,1495.0,1495.0,1495.0,1495.0,1.6852751970291138,0.0010120687531199855,-0.3013483049620767,3.115270458637374,0.019518177956342697,0.010273370891809464,0.0
155,5,-7.53862113924697e-05,4.9283236876362935e-05,8.7615022493992e-05,-0.008668660186231136,-0.004676029086112976,-0.015535515733063221,0.01363696064800024,0.003420228138566017,0.006350373383611441,-0.001166400033980608,0.0016044974327087402,-0.002515021711587906,0.0,0.0,0.0,0.0032887812703847885,-0.0048064072616398335,-0.0,0.0,0.0,0.0,-0.20000000298023224,-0.1977349817752838,0.006353817414492369,1495.0,1495.0,1495.0,1495.0,0.0,0.0,0.0,0.0,0.0,0.0,0.0,0.0,1495.0,1495.0,1495.0,1495.0,1.6852751970291138,-0.0020943140649304823,-0.2988078398985925,3.113753438946591,0.019518177956342697,0.010273370891809464,0.0
160,5,-6.261648377403617e-05,4.95777785545215e-05,2.943504659924656e-05,-0.001935096806846559,-0.0019057563040405512,0.000767391175031662,0.013642916455864906,0.0033734054304659367,0.006350676063448191,-0.0006847666809335351,-0.0009942014003172517,0.0013130116276443005,0.0,0.0,0.0,0.005565126426517963,-0.007915010675787926,-0.0,0.0,0.0,0.0,-0.20000000298023224,-0.15751342475414276,0.006346857640892267,1495.0,1495.0,1495.0,1495.0,0.0,0.0,0.0,0.0,0.0,0.0,0.0,0.0,1495.0,1495.0,1495.0,1495.0,1.7262802124023438,-0.0029296203862818697,-0.30050642926893034,3.1139360742787288,0.03292330726981163,0.017807001248002052,0.0
165,5,-1.5160539078351576e-05,5.061657429905608e-05,-7.68858353694668e-06,0.004920674487948418,-0.0008869582088664174,0.004761792253702879,0.013642916455864906,0.0033734054304659367,0.006350676063448191,-0.0006847666809335351,-0.0009942014003172517,0.0013130116276443005,0.0,0.0,0.0,0.005565126426517963,-0.007915010675787926,-0.0,0.0,0.0,0.0,-0.20000000298023224,-0.15751342475414276,0.006346857640892267,1495.0,1495.0,1495.0,1495.0,0.0,0.0,0.0,0.0,0.0,0.0,0.0,0.0,1495.0,1495.0,1495.0,1495.0,1.7262802124023438,-0.0012884044809247433,-0.3017618958298684,3.1144731999733817,0.03292330726981163,0.017807001248002052,0.0
170,5,-3.552835914888419e-05,6.778744864277542e-05,5.9557547501754016e-05,-0.00047586834989488125,-0.0024152882397174835,-0.006164819002151489,0.013649551197886467,0.0034174027387052774,0.0063864015974104404,-0.0015996252186596394,-0.002759758848696947,-0.0014454950578510761,0.0,0.0,0.0,0.005565126426517963,-0.007915010675787926,-0.0,0.0,0.0,0.0,-0.20000000298023224,-0.20000000298023224,0.007522957865148783,1495.0,1495.0,1495.0,1495.0,0.0,0.0,0.0,0.0,0.0,0.0,0.0,0.0,1495.0,1495.0,1495.0,1495.0,1.7262802124023438,8.256962514621348e-05,-0.29902874586210054,3.114118376835841,0.03292330726981163,0.017807001248002052,0.0
175,5,-1.7320606275461614e-05,5.017163493903354e-05,6.958051380934194e-05,0.001994582824409008,0.001147782662883401,-0.0036686835810542107,0.013649551197886467,0.0034174027387052774,0.0063864015974104404,-0.0015996252186596394,-0.002759758848696947,-0.0014454950578510761,0.0,0.0,0.0,0.0030802679248154163,-0.0004977545468136668,-0.0,0.0,0.0,0.0,-0.20000000298023224,-0.20000000298023224,0.007522957865148783,1495.0,1495.0,1495.0,1495.0,0.0,0.0,0.0,0.0,0.0,0.0,0.0,0.0,1495.0,1495.0,1495.0,1495.0,1.6518579721450806,-0.00033285694071915055,-0.2999984239922914,3.1145009635204843,0.001981243258342147,0.009431233629584312,0.0
180,5,-8.270054240711033e-05,6.219562783371657e-05,0.00016204954590648413,-0.007047758903354406,-0.0009837666293606162,-0.012563757598400116,0.013660341501235962,0.003399723209440708,0.0063730450347065926,0.00045618045260198414,0.001540806726552546,-0.0008209801744669676,0.0,0.0,0.0,0.0030802679248154163,-0.0004977545468136668,-0.0,0.0,0.0,0.0,-0.20000000298023224,-0.17628222703933716,0.0061736805364489555,1495.0,1495.0,1495.0,1495.0,0.0,0.0,0.0,0.0,0.0,0.0,0.0,0.0,1495.0,1495.0,1495.0,1495.0,1.6518579721450806,-0.003082516158171837,-0.298633973835545,3.1130313539309644,0.001981243258342147,0.009431233629584312,0.0
185,5,-5.6916986068245023e-05,4.481884388951585e-05,9.491325909039006e-05,0.0002749229606706649,0.0016917079919949174,0.0030308517161756754,0.013660341501235962,0.003399723209440708,0.0063730450347065926,0.00045618045260198414,0.001540806726552546,-0.0008209801744669676,0.0,0.0,0.0,0.0012804791331291199,-0.006567171309143305,-0.0,0.0,0.0,0.0,-0.20000000298023224,-0.17628222703933716,0.0061736805364489555,1495.0,1495.0,1495.0,1495.0,0.0,0.0,0.0,0.0,0.0,0.0,0.0,0.0,1495.0,1495.0,1495.0,1495.0,1.6989964246749878,-0.00109323381268541,-0.2994663448955618,3.113674376353846,0.026885569095611572,0.004032490309327841,0.0
190,5,-7.825093052815646e-05,5.133524973643944e-05,0.00014052785991225392,-0.0024501041043549776,-0.00010528573329793289,-0.004261410795152187,0.013659419491887093,0.003385530784726143,0.006367298308759928,0.0031646236311644316,0.0007309011998586357,0.002434025052934885,0.0,0.0,0.0,0.0012804791331291199,-0.006567171309143305,-0.0,0.0,0.0,0.0,-0.20000000298023224,-0.19108915328979492,0.006750546395778656,1495.0,1495.0,1495.0,1495.0,0.0,0.0,0.0,0.0,0.0,0.0,0.0,0.0,1495.0,1495.0,1495.0,1495.0,1.6989964246749878,-0.0016507641021717688,-0.2973208477152223,3.113475456530234,0.026885569095611572,0.004032490309327841,0.0
196,5,-1.7048459994839504e-05,2.1446908249345142e-06,-2.8802245651604608e-05,0.006364254746586084,0.005860752891749144,0.01861504837870598,0.013659419491887093,0.003385530784726143,0.006367298308759928,0.0031646236311644316,0.0007309011998586357,0.002434025052934885,0.0,0.0,0.0,0.00022164126858115196,-0.0024168749805539846,-0.0,0.0,0.0,0.0,-0.20000000298023224,-0.19108915328979492,0.006750546395778656,1495.0,1495.0,1495.0,1495.0,0.0,0.0,0.0,0.0,0.0,0.0,0.0,0.0,1495.0,1495.0,1495.0,1495.0,1.6518737077713013,-0.0032138715244083406,-0.3032084716831816,3.11403243784843,0.009620164521038532,0.0006786346202716231,0.0
201,5,-3.48766079696361e-05,2.9040404115221463e-05,1.5782201444380917e-05,0.0004063240485265851,-0.0008831844315864146,0.002095885341987014,0.013645371422171593,0.003390946891158819,0.006365363020449877,-0.0025698370300233364,-0.005732896272093058,0.0045913816429674625,0.0,0.0,0.0,0.00022164126858115196,-0.0024168749805539846,-0.0,0.0,0.0,0.0,-0.20000000298023224,-0.20000000298023224,0.006161904893815517,1495.0,1495.0,1495.0,1495.0,0.0,0.0,0.0,0.0,0.0,0.0,0.0,0.0,1495.0,1495.0,1495.0,1495.0,1.6518737077713013,0.00031125522333786017,-0.3003297656466565,3.114347879475971,0.009620164521038532,0.0006786346202716231,0.0
206,5,1.0360176929680165e-05,3.523027407936752e-05,-6.4449108322151e-05,0.005590944085270166,-0.0010960582876577973,0.01046611089259386,0.013645371422171593,0.003390946891158819,0.006365363020449877,-0.0025698370300233364,-0.005732896272093058,0.0045913816429674625,0.0,0.0,0.0,0.0011454735649749637,0.00033738004276528955,-0.0,0.0,0.0,0.0,-0.20000000298023224,-0.20000000298023224,0.006161904893815517,1495.0,1495.0,1495.0,1495.0,0.0,0.0,0.0,0.0,0.0,0.0,0.0,0.0,1495.0,1495.0,1495.0,1495.0,1.6358393430709839,0.0025573318384091515,-0.3017196967967928,3.115578021945126,-0.0013298775302246213,0.0034732345957309008,-0.0
211,5,1.8036746041616425e-05,2.074412623187527e-05,-6.0598897107411176e-05,0.003157565835863352,0.0012999145546928048,0.003724419279024005,0.013645371422171593,0.003390946891158819,0.006365363020449877,-0.0025698370300233364,-0.005732896272093058,0.0045913816429674625,0.0,0.0,0.0,0.0011454735649749637,0.00033738004276528955,-0.0,0.0,0.0,0.0,-0.20000000298023224,-0.20000000298023224,0.006161904893815517,1495.0,1495.0,1495.0,1495.0,0.0,0.0,0.0,0.0,0.0,0.0,0.0,0.0,1495.0,1495.0,1495.0,1495.0,1.6358393430709839,0.001171897753546167,-0.30249596379309623,3.1157568809253413,-0.0013298775302246213,0.0034732345957309008,-0.0
216,5,-7.230726623674855e-05,8.335249003721401e-05,0.00015215796884149313,-0.009578255005180836,-0.006993037648499012,-0.024041054770350456,0.013638680800795555,0.003389722667634487,0.006400431040674448,0.002360441256314516,5.43263231520541e-05,0.0008387328125536442,0.0,0.0,0.0,-0.001546163810417056,0.0029835852328687906,-0.0,0.0,0.0,0.0,-0.20000000298023224,-0.1957509070634842,0.007063970901072025,1495.0,1495.0,1495.0,1495.0,0.0,0.0,0.0,0.0,0.0,0.0,0.0,0.0,1495.0,1495.0,1495.0,1495.0,1.6605303287506104,-0.0015981836854498613,-0.2976219600145306,3.1135787985790078,-0.011938121169805527,-0.00475894333794713,0.0
221,5,-7.775808626320213e-05,7.178623491199687e-05,0.00015576064470224082,-0.004485399927943945,-0.0014092645142227411,-0.010048743337392807,0.013638680800795555,0.003389722667634487,0.006400431040674448,0.002360441256314516,5.43263231520541e-05,0.0008387328125536442,0.0,0.0,0.0,-0.001546163810417056,0.0029835852328687906,-0.0,0.0,0.0,0.0,-0.20000000298023224,-0.1957509070634842,0.007063970901072025,1495.0,1495.0,1495.0,1495.0,0.0,0.0,0.0,0.0,0.0,0.0,0.0,0.0,1495.0,1495.0,1495.0,1495.0,1.6605303287506104,-0.0035183923397716288,-0.2985646680508653,3.1131226179594047,-0.011938121169805527,-0.00475894333794713,0.0
226,5,-9.524727647658437e-05,9.017282718559727e-05,0.00020747017697431147,-0.0038928634021431208,-0.00277009722776711,-0.010224641300737858,0.013652719557285309,0.0034139654599130154,0.006422761362046003,-0.0008068741299211979,-0.00021334708435460925,0.002926961751654744,0.0,0.0,0.0,0.0018301367526873946,-0.004274393897503614,-0.0,0.0,0.0,0.0,-0.20000000298023224,-0.20000000298023224,0.007187052629888058,1495.0,1495.0,1495.0,1495.0,0.0,0.0,0.0,0.0,0.0,0.0,0.0,0.0,1495.0,1495.0,1495.0,1495.0,1.674820899963379,-0.002683428080022952,-0.2956888314109272,3.112672054408773,0.017250144854187965,0.005681460723280907,0.0
231,5,-0.0001203920619445853,0.00010536352056078613,0.0002574251848272979,-0.004574519582092762,-0.002930921968072653,-0.010084456764161587,0.013652719557285309,0.0034139654599130154,0.006422761362046003,-0.0008068741299211979,-0.00021334708435460925,0.002926961751654744,0.0,0.0,0.0,0.0018301367526873946,-0.004274393897503614,-0.0,0.0,0.0,0.0,-0.20000000298023224,-0.20000000298023224,0.007187052629888058,1495.0,1495.0,1495.0,1495.0,0.0,0.0,0.0,0.0,0.0,0.0,0.0,0.0,1495.0,1495.0,1495.0,1495.0,1.674820899963379,-0.0028678745864425133,-0.2958910021555506,3.1122015804871004,0.017250144854187965,0.005681460723280907,0.0
236,5,-9.337427763966843e-05,8.397707279073074e-05,0.0002057201782008633,0.0014123268192633986,0.0013940046774223447,0.002170816296711564,0.013631507754325867,0.0033859293907880783,0.006418881006538868,0.0018665420357137918,0.0030484036542475224,-0.0015470973448827863,0.0,0.0,0.0,0.0037095146253705025,-0.004393699113279581,-0.0,0.0,0.0,0.0,-0.20000000298023224,-0.1768842190504074,0.005274352617561817,1495.0,1495.0,1495.0,1495.0,0.0,0.0,0.0,0.0,0.0,0.0,0.0,0.0,1495.0,1495.0,1495.0,1495.0,1.6831066608428955,-0.0035556883280965803,-0.2972421428849766,3.112542189396525,0.017819251865148544,0.011572720482945442,0.0
241,5,-8.597333362558857e-05,0.00010506108083063737,0.00012498311116360128,0.0014530436601489782,-0.0019724785815924406,0.010556776076555252,0.013631507754325867,0.0033859293907880783,0.006418881006538868,0.0018665420357137918,0.0030484036542475224,-0.0015470973448827863,0.0,0.0,0.0,0.0037095146253705025,-0.004393699113279581,-0.0,0.0,0.0,0.0,-0.20000000298023224,-0.1768842190504074,0.005274352617561817,1495.0,1495.0,1495.0,1495.0,0.0,0.0,0.0,0.0,0.0,0.0,0.0,0.0,1495.0,1495.0,1495.0,1495.0,1.6831066608428955,0.0004655851431650249,-0.298091850277872,3.113415805028199,0.017819251865148544,0.011572720482945442,0.0
246,5,-9.259422949980944e-05,6.90176384523511e-05,0.00011487411393318325,-0.0002132903173333034,0.0035362213384360075,0.005435789469629526,0.013627247884869576,0.003431746270507574,0.006427797954529524,-0.0009434747626073658,-0.006105321925133467,-0.0006001392030157149,0.0,0.0,0.0,0.0026064044795930386,0.0012498951982706785,-0.0,0.0,0.0,0.0,-0.20000000298023224,-0.20000000298023224,0.006930308882147074,1495.0,1495.0,1495.0,1495.0,0.0,0.0,0.0,0.0,0.0,0.0,0.0,0.0,1495.0,1495.0,1495.0,1495.0,1.6512178182601929,-0.0026388237785222425,-0.29934416617301857,3.112743700911223,-0.004973112605512142,0.007977262139320374,-0.0
251,5,-3.4654425689950585e-05,5.632097236230038e-05,1.2693321878032293e-05,0.006867460906505585,0.0029380887281149626,0.014436011202633381,0.013627247884869576,0.003431746270507574,0.006427797954529524,-0.0009434747626073658,-0.006105321925133467,-0.0006001392030157149,0.0,0.0,0.0,0.0026064044795930386,0.0012498951982706785,-0.0,0.0,0.0,0.0,-0.20000000298023224,-0.20000000298023224,0.006930308882147074,1495.0,1495.0,1495.0,1495.0,0.0,0.0,0.0,0.0,0.0,0.0,0.0,0.0,1495.0,1495.0,1495.0,1495.0,1.6512178182601929,-9.671322516331216e-05,-0.30066107890240756,3.1138678081851405,-0.004973112605512142,0.007977262139320374,-0.0
257,5,4.210032784612849e-06,4.3489075324032456e-05,-6.0431651945691556e-05,0.007410719059407711,0.0027150630485266447,0.01454940065741539,0.013636069372296333,0.003417226718738675,0.006405922584235668,0.000784580537583679,-0.00392221100628376,0.0029178124386817217,0.0,0.0,0.0,-0.003396551124751568,0.006238086149096489,-0.0,0.0,0.0,0.0,-0.20000000298023224,-0.17422577738761902,0.005937459412962198,1495.0,1495.0,1495.0,1495.0,0.0,0.0,0.0,0.0,0.0,0.0,0.0,0.0,1495.0,1495.0,1495.0,1495.0,1.7004003524780273,0.0009102856855339239,-0.3021665214159213,3.1148024553751172,-0.025559309870004654,-0.01070523913949728,-0.0
262,5,-2.707386011024937e-05,4.9931491957977414e-05,2.9693348551518284e-05,-0.0007897794130258262,0.0003129352116957307,-0.004995239432901144,0.013636069372296333,0.003417226718738675,0.006405922584235668,0.000784580537583679,-0.00392221100628376,0.0029178124386817217,0.0,0.0,0.0,-0.003396551124751568,0.006238086149096489,-0.0,0.0,0.0,0.0,-0.20000000298023224,-0.17422577738761902,0.005937459412962198,1495.0,1495.0,1495.0,1495.0,0.0,0.0,0.0,0.0,0.0,0.0,0.0,0.0,1495.0,1495.0,1495.0,1495.0,1.7004003524780273,-0.0009174378258871883,-0.3013641871624907,3.1142506967131833,-0.025559309870004654,-0.01070523913949728,-0.0
267,5,-3.545329673215747e-05,6.548311648657545e-05,5.1521034038159996e-05,-0.0013214442878961563,-0.0017410211730748415,-0.0046174181625247,0.013631319627165794,0.00343153765425086,0.006418713368475437,0.0008752598660066724,0.002117771189659834,-0.0015058052958920598,0.0,0.0,0.0,-0.0002956964890472591,-0.0007905609672889113,-0.0,0.0,0.0,0.0,-0.20000000298023224,-0.20000000298023224,0.006061721593141556,1495.0,1495.0,1495.0,1495.0,0.0,0.0,0.0,0.0,0.0,0.0,0.0,0.0,1495.0,1495.0,1495.0,1495.0,1.6345398426055908,-0.0009050011854475011,-0.3005437731719633,3.114273900645731,0.003113742684945464,-0.000895880744792521,0.0
272,5,-3.09407441818621e-05,5.538667755899951e-05,5.500728002516553e-05,1.2928787327837199e-05,0.000515164399985224,-0.002265316667035222,0.013631319627165794,0.00343153765425086,0.006418713368475437,0.0008752598660066724,0.002117771189659834,-0.0015058052958920598,0.0,0.0,0.0,-0.0002956964890472591,-0.0007905609672889113,-0.0,0.0,0.0,0.0,-0.20000000298023224,-0.20000000298023224,0.006061721593141556,1495.0,1495.0,1495.0,1495.0,0.0,0.0,0.0,0.0,0.0,0.0,0.0,0.0,1495.0,1495.0,1495.0,1495.0,1.6345398426055908,-0.0012856333156950996,-0.3012450811085126,3.1142512923222787,0.003113742684945464,-0.000895880744792521,0.0
277,5,6.6877382778329775e-06,5.818115459987894e-05,2.5835177439148538e-05,0.0045205894857645035,-0.00012927150237374008,0.002594525692984462,0.013630498200654984,0.0034294910728931427,0.006425783038139343,-0.00034613889874890447,-0.0056806025095283985,3.452493547229096e-05,0.0,0.0,0.0,-0.0005374730098992586,-3.181247302563861e-05,-0.0,0.0,0.0,0.0,-0.20000000298023224,-0.20000000298023224,0.005363864824175835,1495.0,1495.0,1495.0,1495.0,0.0,0.0,0.0,0.0,0.0,0.0,0.0,0.0,1495.0,1495.0,1495.0,1495.0,1.6301677227020264,0.0006227601047634427,-0.3009747697950772,3.1150153560683815,0.00012496304407250136,-0.0016240428667515516,0.0
282,5,-4.903697481495328e-05,6.471609231084585e-05,0.00011950488988077268,-0.004878729581832886,-0.0008359011844731867,-0.010202555917203426,0.013630498200654984,0.0034294910728931427,0.006425783038139343,-0.00034613889874890447,-0.0056806025095283985,3.452493547229096e-05,0.0,0.0,0.0,-0.0005374730098992586,-3.181247302563861e-05,-0.0,0.0,0.0,0.0,-0.20000000298023224,-0.20000000298023224,0.005363864824175835,1495.0,1495.0,1495.0,1495.0,0.0,0.0,0.0,0.0,0.0,0.0,0.0,0.0,1495.0,1495.0,1495.0,1495.0,1.6301677227020264,-0.0018708612287380215,-0.2988038031734569,3.113698587623752,0.00012496304407250136,-0.0016240428667515516,0.0
287,5,-4.9502305046189576e-05,6.511801620945334e-05,7.249569171108305e-05,-0.0020073314663022757,-0.0003825911844614893,0.0015600823098793626,0.013607303611934185,0.0034815173130482435,0.006416373886168003,-0.0025836701970547438,-0.0024911239743232727,-0.001634561107493937,0.0,0.0,0.0,0.001124178641475737,-0.00459563871845603,-0.0,0.0,0.0,0.0,-0.20000000298023224,-0.18613339960575104,0.0055976565927267075,1495.0,1495.0,1495.0,1495.0,0.0,0.0,0.0,0.0,0.0,0.0,0.0,0.0,1495.0,1495.0,1495.0,1495.0,1.6767878532409668,-0.0004357987473778514,-0.29924443559601055,3.1136165645339826,0.018568383529782295,0.0034939914476126432,0.0
292,5,-4.544305556919426e-05,6.257011409616098e-05,4.8761146899778396e-05,-0.00031582266092300415,0.00015271153824869543,0.003472177777439356,0.013607303611934185,0.0034815173130482435,0.006416373886168003,-0.0025836701970547438,-0.0024911239743232727,-0.001634561107493937,0.0,0.0,0.0,0.001124178641475737,-0.00459563871845603,-0.0,0.0,0.0,0.0,-0.20000000298023224,-0.18613339960575104,0.0055976565927267075,1495.0,1495.0,1495.0,1495.0,0.0,0.0,0.0,0.0,0.0,0.0,0.0,0.0,1495.0,1495.0,1495.0,1495.0,1.6767878532409668,-0.002731341998976516,-0.3008713278622338,3.1135740817676583,0.018568383529782295,0.0034939914476126432,0.0
297,5,-8.090803021332249e-05,8.707024244358763e-05,0.0001576486392877996,-0.004382126033306122,-0.0028789308853447437,-0.011677627451717854,0.01359021756798029,0.0034774348605424166,0.006414536386728287,0.0016613873885944486,0.0027065223548561335,-0.0005043407436460257,0.0,0.0,0.0,-7.444836955983192e-05,-0.00036615272983908653,-0.0,0.0,0.0,0.0,-0.20000000298023224,-0.20000000298023224,0.006833554245531559,1495.0,1495.0,1495.0,1495.0,0.0,0.0,0.0,0.0,0.0,0.0,0.0,0.0,1495.0,1495.0,1495.0,1495.0,1.6296966075897217,-0.0024136382535873266,-0.296710389469398,3.1127595139570596,0.0014378743944689631,-0.00022489018738269806,-0.0
302,5,-0.00013702191063202918,0.00010807712533278391,0.00019956308824475855,-0.00848651584237814,-0.003672397695481777,-0.009700784459710121,0.01359021756798029,0.0034774348605424166,0.006414536386728287,0.0016613873885944486,0.0027065223548561335,-0.0005043407436460257,0.0,0.0,0.0,-7.444836955983192e-05,-0.00036615272983908653,-0.0,0.0,0.0,0.0,-0.20000000298023224,-0.20000000298023224,0.006833554245531559,1495.0,1495.0,1495.0,1495.0,0.0,0.0,0.0,0.0,0.0,0.0,0.0,0.0,1495.0,1495.0,1495.0,1495.0,1.6296966075897217,-0.002002072709250809,-0.29531805808750616,3.111786724916558,0.0014378743944689631,-0.00022489018738269806,-0.0
307,5,-7.22794356988743e-05,8.839734800858423e-05,6.360726547427475e-05,0.004374489653855562,0.0008926138398237526,0.012434383854269981,0.013600699603557587,0.0034920000471174717,0.006405857857316732,-0.0018413071520626545,0.004362874664366245,0.003173834877088666,0.0,0.0,0.0,0.004503561649471521,-0.007854955270886421,-0.0,0.0,0.0,0.0,-0.20000000298023224,-0.20000000298023224,0.006659656297415495,1495.0,1495.0,1495.0,1495.0,0.0,0.0,0.0,0.0,0.0,0.0,0.0,0.0,1495.0,1495.0,1495.0,1495.0,1.721443772315979,-0.0002510576315507656,-0.29903275112150257,3.11329607431326,0.03258213773369789,0.014369936659932137,0.0
312,5,-5.541368864214746e-06,5.3133997425902635e-05,-6.755231879651546e-05,0.009758364409208298,0.004588647745549679,0.020712904632091522,0.013600699603557587,0.0034920000471174717,0.006405857857316732,-0.0018413071520626545,0.004362874664366245,0.003173834877088666,0.0,0.0,0.0,0.004503561649471521,-0.007854955270886421,-0.0,0.0,0.0,0.0,-0.20000000298023224,-0.20000000298023224,0.006659656297415495,1495.0,1495.0,1495.0,1495.0,0.0,0.0,0.0,0.0,0.0,0.0,0.0,0.0,1495.0,1495.0,1495.0,1495.0,1.721443772315979,-0.0014312258706426636,-0.3036356177915551,3.1145755963413913,0.03258213773369789,0.014369936659932137,0.0
318,5,1.0629949429130647e-05,5.652090476360172e-05,-3.8574649806832895e-05,0.005843903869390488,0.001429030206054449,0.004807841498404741,0.013587838970124722,0.0034772150684148073,0.006413943134248257,0.0018582995980978012,-0.004318992607295513,0.0019369985675439239,0.0,0.0,0.0,-0.005262061022222042,0.008750829845666885,-0.0,0.0,0.0,0.0,-0.20000000298023224,-0.20000000298023224,0.0063633606769144535,1495.0,1495.0,1495.0,1495.0,0.0,0.0,0.0,0.0,0.0,0.0,0.0,0.0,1495.0,1495.0,1495.0,1495.0,1.7338364124298096,0.0013310200510056477,-0.3021211031097218,3.114530155083381,-0.03655928745865822,-0.016910985112190247,0.0
323,5,-0.00010709859634516761,0.00011112617357866839,0.00017922704864758998,-0.011789863929152489,-0.005981020163744688,-0.024213066324591637,0.013587838970124722,0.0034772150684148073,0.006413943134248257,0.0018582995980978012,-0.004318992607295513,0.0019369985675439239,0.0,0.0,0.0,-0.005262061022222042,0.008750829845666885,-0.0,0.0,0.0,0.0,-0.20000000298023224,-0.20000000298023224,0.0063633606769144535,1495.0,1495.0,1495.0,1495.0,0.0,0.0,0.0,0.0,0.0,0.0,0.0,0.0,1495.0,1495.0,1495.0,1495.0,1.7338364124298096,-0.0018071317126197104,-0.2969107080064254,3.1127100568319825,-0.03655928745865822,-0.016910985112190247,0.0
328,5,3.049432962143328e-06,4.855697261518799e-05,5.904097997699864e-05,0.009957591071724892,0.005260768812149763,0.010973600670695305,0.013587838970124722,0.0034772150684148073,0.006413943134248257,0.0018582995980978012,-0.004318992607295513,0.0019369985675439239,0.0,0.0,0.0,0.0070619951002299786,-0.010562296025454998,-0.0,0.0,0.0,0.0,-0.20000000298023224,-0.20000000298023224,0.0063633606769144535,1495.0,1495.0,1495.0,1495.0,0.0,0.0,0.0,0.0,0.0,0.0,0.0,0.0,1495.0,1495.0,1495.0,1495.0,1.7605164051055908,-0.00012176512099991943,-0.3009804302814325,3.114650507451904,0.044805508106946945,0.023044615983963013,0.0
333,5,3.049432962143328e-06,4.855697261518799e-05,5.904097997699864e-05,0.009957591071724892,0.005260768812149763,0.010973600670695305,0.013570412993431091,0.0034484302159398794,0.006410109810531139,-0.00031492291600443423,0.0001937305205501616,-0.003815526608377695,0.0,0.0,0.0,0.0070619951002299786,-0.010562296025454998,-0.0,0.0,0.0,0.0,-0.20000000298023224,-0.1553160846233368,0.0053474935702979565,1495.0,1495.0,1495.0,1495.0,0.0,0.0,0.0,0.0,0.0,0.0,0.0,0.0,1495.0,1495.0,1495.0,1495.0,1.7605164051055908,-0.00012176512099991943,-0.3009804302814325,3.114650507451904,0.044805508106946945,0.023044615983963013,0.0
338,5,-3.0644514481537044e-05,7.705494499532506e-05,0.00011523689317982644,-6.0237176512600854e-05,-0.0013154492480680346,-0.002354069147258997,0.013570412993431091,0.0034484302159398794,0.006410109810531139,-0.00031492291600443423,0.0001937305205501616,-0.003815526608377695,0.0,0.0,0.0,-0.006037078332155943,0.008915921673178673,-0.0,0.0,0.0,0.0,-0.20000000298023224,-0.1553160846233368,0.0053474935702979565,1495.0,1495.0,1495.0,1495.0,0.0,0.0,0.0,0.0,0.0,0.0,0.0,0.0,1495.0,1495.0,1495.0,1495.0,1.7386982440948486,0.0002692633362439604,-0.29807004054105585,3.1138714205138895,-0.0373532734811306,-0.019456055015325546,-0.0
343,5,-0.00011253135016886517,8.383538079215214e-05,0.0002591080265119672,-0.0098505150526762,-0.0013398320879787207,-0.018206164240837097,0.013567771762609482,0.0034638347569853067,0.006390710826963186,0.000744826509617269,-0.002270371885970235,-0.0030980901792645454,0.0,0.0,0.0,-0.006037078332155943,0.008915921673178673,-0.0,0.0,0.0,0.0,-0.20000000298023224,-0.1985979676246643,0.006627360824495554,1495.0,1495.0,1495.0,1495.0,0.0,0.0,0.0,0.0,0.0,0.0,0.0,0.0,1495.0,1495.0,1495.0,1495.0,1.7386982440948486,-0.004033818943083952,-0.2956448988447722,3.1122656133532938,-0.0373532734811306,-0.019456055015325546,-0.0
348,5,-0.00010047551768366247,9.292479808209464e-05,0.00022167495626490563,-0.0024935065302997828,-0.001626662677153945,-0.0027904969174414873,0.013567771762609482,0.0034638347569853067,0.006390710826963186,0.000744826509617269,-0.002270371885970235,-0.0030980901792645454,0.0,0.0,0.0,0.0017145173624157906,-0.00902305543422699,-0.0,0.0,0.0,0.0,-0.20000000298023224,-0.1985979676246643,0.006627360824495554,1495.0,1495.0,1495.0,1495.0,0.0,0.0,0.0,0.0,0.0,0.0,0.0,0.0,1495.0,1495.0,1495.0,1495.0,1.7276816368103027,-0.0010407364478905855,-0.2953047057857904,3.11250851758259,0.03756321221590042,0.005490523763000965,0.0
353,5,-8.237808651756495e-05,8.376855839742348e-05,0.0001725238107610494,0.0011742895003408194,0.0004480837087612599,0.004781938623636961,0.0135775376111269,0.003488549031317234,0.0063945697620511055,0.0003769008908420801,2.0785804736078717e-05,0.0017885335255414248,0.0,0.0,0.0,0.0017145173624157906,-0.00902305543422699,-0.0,0.0,0.0,0.0,-0.20000000298023224,-0.20000000298023224,0.006790622603148222,1495.0,1495.0,1495.0,1495.0,0.0,0.0,0.0,0.0,0.0,0.0,0.0,0.0,1495.0,1495.0,1495.0,1495.0,1.7276816368103027,-0.0026739791494456177,-0.29771127938258296,3.112700922698,0.03756321221590042,0.005490523763000965,0.0
358,5,-0.00011094487854279578,9.827323083300143e-05,0.00016124261310324073,-0.002958299359306693,-0.001561327138915658,0.0032665191683918238,0.0135775376111269,0.003488549031317234,0.0063945697620511055,0.0003769008908420801,2.0785804736078717e-05,0.0017885335255414248,0.0,0.0,0.0,-0.0004001836641691625,0.0010002300841733813,-0.0,0.0,0.0,0.0,-0.20000000298023224,-0.20000000298023224,0.006790622603148222,1495.0,1495.0,1495.0,1495.0,0.0,0.0,0.0,0.0,0.0,0.0,0.0,0.0,1495.0,1495.0,1495.0,1495.0,1.6369473934173584,-0.0021958877088831983,-0.2974082910259248,3.112398895007383,-0.003945358097553253,-0.0012142346240580082,-0.0
363,5,-5.838662400492467e-05,7.986299169715494e-05,7.987550634425133e-05,-0.0005525067681446671,-0.0004511630686465651,0.002459309296682477,0.013573321513831615,0.0034988594707101583,0.006385670509189367,0.0004751460801344365,0.001389318727888167,-0.004774377681314945,0.0,0.0,0.0,-0.0004001836641691625,0.0010002300841733813,-0.0,0.0,0.0,0.0,-0.20000000298023224,-0.20000000298023224,0.005982502363622189,1495.0,1495.0,1495.0,1495.0,0.0,0.0,0.0,0.0,0.0,0.0,0.0,0.0,1495.0,1495.0,1495.0,1495.0,1.6369473934173584,-0.0019540088558436452,-0.2995978393714821,3.1129146580525155,-0.003945358097553253,-0.0012142346240580082,-0.0
368,5,-5.838662400492467e-05,7.986299169715494e-05,7.987550634425133e-05,-0.0005525067681446671,-0.0004511630686465651,0.002459309296682477,0.013573321513831615,0.0034988594707101583,0.006385670509189367,0.0004751460801344365,0.001389318727888167,-0.004774377681314945,0.0,0.0,0.0,0.0007052899454720318,-0.0006089626112952828,-0.0,0.0,0.0,0.0,-0.20000000298023224,-0.20000000298023224,0.005982502363622189,1495.0,1495.0,1495.0,1495.0,0.0,0.0,0.0,0.0,0.0,0.0,0.0,0.0,1495.0,1495.0,1495.0,1495.0,1.6344642639160156,-0.0019540088558436452,-0.2995978393714821,3.1129146580525155,0.002398379147052765,0.002136739669367671,-0.0
373,5,-5.631317981169559e-05,9.503526234766468e-05,7.389934762613848e-05,2.781074908853043e-05,-0.0020011384040117264,0.0017008630093187094,0.0135631849989295,0.003492985386401415,0.006370566785335541,-0.002608264796435833,-0.004052979871630669,0.0032548962626606226,0.0,0.0,0.0,0.0007052899454720318,-0.0006089626112952828,-0.0,0.0,0.0,0.0,-0.20000000298023224,-0.20000000298023224,0.0064043281599879265,1495.0,1495.0,1495.0,1495.0,0.0,0.0,0.0,0.0,0.0,0.0,0.0,0.0,1495.0,1495.0,1495.0,1495.0,1.6344642639160156,-0.0005617325562952462,-0.29942935800169385,3.1133224334252,0.002398379147052765,0.002136739669367671,-0.0
378,5,-9.058418072527274e-05,9.770209726411849e-05,0.00015501040616072714,-0.004101396072655916,-0.0011204755865037441,-0.009052981622517109,0.0135631849989295,0.003492985386401415,0.006370566785335541,-0.002608264796435833,-0.004052979871630669,0.0032548962626606226,0.0,0.0,0.0,0.002630468225106597,-5.314482041285373e-05,-0.0,0.0,0.0,0.0,-0.20000000298023224,-0.20000000298023224,0.0064043281599879265,1495.0,1495.0,1495.0,1495.0,0.0,0.0,0.0,0.0,0.0,0.0,0.0,0.0,1495.0,1495.0,1495.0,1495.0,1.647529125213623,-0.0025264408757679022,-0.297564296554982,3.11265327612445,0.00021098153956700116,0.00803292728960514,-0.0
383,5,-8.141076978063211e-05,9.460914588999003e-05,9.19570229598321e-05,-0.0005397486966103315,-7.703599840169773e-05,0.003945212811231613,0.013559514656662941,0.0035114125348627567,0.0063829580321908,0.001636580447666347,-0.0006190583226270974,0.0026641490403562784,0.0,0.0,0.0,0.002630468225106597,-5.314482041285373e-05,-0.0,0.0,0.0,0.0,-0.20000000298023224,-0.20000000298023224,0.005962039344012737,1495.0,1495.0,1495.0,1495.0,0.0,0.0,0.0,0.0,0.0,0.0,0.0,0.0,1495.0,1495.0,1495.0,1495.0,1.647529125213623,-0.001050984472026323,-0.2985965256194521,3.113082485845867,0.00021098153956700116,0.00803292728960514,-0.0
389,5,-2.461070653225761e-05,5.64513320568949e-05,1.4759457371837925e-05,0.002500383649021387,0.002205342287197709,0.005951286759227514,0.013559514656662941,0.0035114125348627567,0.0063829580321908,0.001636580447666347,-0.0006190583226270974,0.0026641490403562784,0.0,0.0,0.0,0.00026945845456793904,-0.0006297212094068527,-0.0,0.0,0.0,0.0,-0.20000000298023224,-0.20000000298023224,0.005962039344012737,1495.0,1495.0,1495.0,1495.0,0.0,0.0,0.0,0.0,0.0,0.0,0.0,0.0,1495.0,1495.0,1495.0,1495.0,1.632826328277588,-0.00109502536221948,-0.3018892365110301,3.1142355706476263,0.0024776512291282415,0.0008155307732522488,-0.0
394,5,-5.1424889534246176e-05,7.558440847788006e-05,0.00013872758427169174,-0.002217548666521907,-0.0014138321857899427,-0.012495661154389381,0.0135568268597126,0.0035106923896819353,0.006392758805304766,-0.0011861537350341678,-0.0031060667242854834,0.0003583092475309968,0.0,0.0,0.0,0.00026945845456793904,-0.0006297212094068527,-0.0,0.0,0.0,0.0,-0.20000000298023224,-0.1957966834306717,0.00681490870192647,1495.0,1495.0,1495.0,1495.0,0.0,0.0,0.0,0.0,0.0,0.0,0.0,0.0,1495.0,1495.0,1495.0,1495.0,1.632826328277588,-0.0018071571164058858,-0.2981058292907754,3.1132244206902846,0.0024776512291282415,0.0008155307732522488,-0.0
399,5,-7.632048800587654e-05,7.025386730674654e-05,0.0001578586525283754,-0.003874490736052394,7.413244748022407e-05,-0.007293993141502142,0.0135568268597126,0.0035106923896819353,0.006392758805304766,-0.0011861537350341678,-0.0031060667242854834,0.0003583092475309968,0.0,0.0,0.0,0.0018673911690711975,-0.002159313065931201,-0.0,0.0,0.0,0.0,-0.20000000298023224,-0.1957966834306717,0.00681490870192647,1495.0,1495.0,1495.0,1495.0,0.0,0.0,0.0,0.0,0.0,0.0,0.0,0.0,1495.0,1495.0,1495.0,1495.0,1.6537400484085083,-0.0009063128585671337,-0.29714646295387515,3.113382279761532,0.008604658767580986,0.005724145099520683,0.0
404,5,-8.640454325359315e-05,6.061021122150123e-05,0.0001723460154607892,-0.0027598829474300146,0.0011868913425132632,-0.004656080622226,0.0135568268597126,0.0035106923896819353,0.006392758805304766,-0.0011861537350341678,-0.0031060667242854834,0.0003583092475309968,0.0,0.0,0.0,0.0018673911690711975,-0.002159313065931201,-0.0,0.0,0.0,0.0,-0.20000000298023224,-0.1957966834306717,0.00681490870192647,1495.0,1495.0,1495.0,1495.0,0.0,0.0,0.0,0.0,0.0,0.0,0.0,0.0,1495.0,1495.0,1495.0,1495.0,1.6537400484085083,-0.00215906526939771,-0.2976452276379971,3.113084801357723,0.008604658767580986,0.005724145099520683,0.0
409,5,-0.00010591690079309046,8.897225779946893e-05,0.00017534871585667133,-0.003445435781031847,-0.002928689122200012,-0.002222755691036582,0.01355789229273796,0.0034857040736824274,0.006377492565661669,0.0013305287575349212,0.0021592250559479,-0.004214846529066563,0.0,0.0,0.0,0.0018673911690711975,-0.002159313065931201,-0.0,0.0,0.0,0.0,-0.20000000298023224,-0.20000000298023224,0.006709737237542868,1495.0,1495.0,1495.0,1495.0,0.0,0.0,0.0,0.0,0.0,0.0,0.0,0.0,1495.0,1495.0,1495.0,1495.0,1.6537400484085083,-0.001409510956058516,-0.2962518022428718,3.1130080756549448,0.013401925563812256,0.011322712525725365,0.0
414,5,-3.498148362268694e-05,7.742208981653675e-05,8.904300921130925e-05,0.007134075276553631,0.0002145449980162084,0.00946758221834898,0.01355789229273796,0.0034857040736824274,0.006377492565661669,0.0013305287575349212,0.0021592250559479,-0.004214846529066563,0.0,0.0,0.0,0.003650939092040062,-0.003324144519865513,-0.0,0.0,0.0,0.0,-0.20000000298023224,-0.20000000298023224,0.006709737237542868,1495.0,1495.0,1495.0,1495.0,0.0,0.0,0.0,0.0,0.0,0.0,0.0,0.0,1495.0,1495.0,1495.0,1495.0,1.673166275024414,-0.0002216128946063366,-0.2991207975548618,3.114136779935304,0.013401925563812256,0.011322712525725365,0.0
419,5,-2.3984302970347926e-05,5.206212881603278e-05,6.0133927036076784e-05,0.004173291847109795,0.003129012882709503,0.007256122771650553,0.013557874597609043,0.00348800141364336,0.006376342847943306,-0.00214666617102921,0.0008639197330921888,-0.0016543209785595536,0.0,0.0,0.0,0.003650939092040062,-0.003324144519865513,-0.0,0.0,0.0,0.0,-0.20000000298023224,-0.18762296438217163,0.006576288025826216,1495.0,1495.0,1495.0,1495.0,0.0,0.0,0.0,0.0,0.0,0.0,0.0,0.0,1495.0,1495.0,1495.0,1495.0,1.673166275024414,-0.0016576309635306103,-0.30090411380045773,3.1138235714591036,0.013401925563812256,0.011322712525725365,0.0
424,5,2.078385250570136e-06,4.756981797982007e-05,-2.2808679204899818e-05,0.004796839319169521,0.0017906822031363845,0.012855561450123787,0.013557874597609043,0.00348800141364336,0.006376342847943306,-0.00214666617102921,0.0008639197330921888,-0.0016543209785595536,0.0,0.0,0.0,-0.003678705310449004,0.003836749354377389,-0.0,0.0,0.0,0.0,-0.20000000298023224,-0.18762296438217163,0.006576288025826216,1495.0,1495.0,1495.0,1495.0,0.0,0.0,0.0,0.0,0.0,0.0,0.0,0.0,1495.0,1495.0,1495.0,1495.0,1.677812099456787,0.000928485501831555,-0.30116014255083795,3.114760821904638,-0.015511530451476574,-0.011440502479672432,-0.0
429,5,-4.216138040646911e-05,8.399398211622611e-05,6.312617188086733e-05,-0.003390036290511489,-0.0036546268966048956,-0.00516995694488287,0.013564004562795162,0.0034653586335480213,0.006355055142194033,0.005040363874286413,0.0012146990047767758,-0.00044641716522164643,0.0,0.0,0.0,-0.003678705310449004,0.003836749354377389,-0.0,0.0,0.0,0.0,-0.20000000298023224,-0.20000000298023224,0.006936484482139349,1495.0,1495.0,1495.0,1495.0,0.0,0.0,0.0,0.0,0.0,0.0,0.0,0.0,1495.0,1495.0,1495.0,1495.0,1.677812099456787,-4.9890092804132e-05,-0.29983536398464294,3.114149057271345,-0.015511530451476574,-0.011440502479672432,-0.0
434,5,4.753324446937768e-06,5.794353273813613e-05,1.5412108041346073e-05,0.004273750353604555,0.0016642033588141203,0.003657704684883356,0.013564004562795162,0.0034653586335480213,0.006355055142194033,0.005040363874286413,0.0012146990047767758,-0.00044641716522164643,0.0,0.0,0.0,0.004558230750262737,-0.0032038099598139524,-0.0,0.0,0.0,0.0,-0.20000000298023224,-0.20000000298023224,0.006936484482139349,1495.0,1495.0,1495.0,1495.0,0.0,0.0,0.0,0.0,0.0,0.0,0.0,0.0,1495.0,1495.0,1495.0,1495.0,1.6776151657104492,-0.00015841632039439134,-0.30086229082662014,3.114770992822357,0.012951072305440903,0.014174066483974457,0.0
439,5,-4.3804229790112004e-05,6.207515252754092e-05,0.0001090850419132039,-0.004117406439036131,0.00016988703282549977,-0.009777670726180077,0.013578706420958042,0.003477479098364711,0.006369773298501968,0.004712170921266079,0.0004410207038745284,0.0002734842710196972,0.0,0.0,0.0,0.004558230750262737,-0.0032038099598139524,-0.0,0.0,0.0,0.0,-0.20000000298023224,-0.19896937906742096,0.006352670956403017,1495.0,1495.0,1495.0,1495.0,0.0,0.0,0.0,0.0,0.0,0.0,0.0,0.0,1495.0,1495.0,1495.0,1495.0,1.6776151657104492,0.0004238819268666167,-0.29768701703917194,3.1139052747449227,0.012951072305440903,0.014174066483974457,0.0
444,5,-2.018770646827761e-05,4.589575473801233e-05,0.00010468771506566554,0.0011870200978592038,0.0020094825886189938,-0.003383388975635171,0.013578706420958042,0.003477479098364711,0.006369773298501968,0.004712170921266079,0.0004410207038745284,0.0002734842710196972,0.0,0.0,0.0,-9.320513345301151e-05,-0.0039027640596032143,-0.0,0.0,0.0,0.0,-0.20000000298023224,-0.19896937906742096,0.006352670956403017,1495.0,1495.0,1495.0,1495.0,0.0,0.0,0.0,0.0,0.0,0.0,0.0,0.0,1495.0,1495.0,1495.0,1495.0,1.668175458908081,-0.0019455908263065005,-0.30002239358285404,3.113985902532456,0.01568789966404438,-0.00028819742146879435,0.0
449,5,1.8185985027230345e-05,2.833822691172827e-05,9.94184119917918e-06,0.00507965125143528,0.0029106964357197285,0.010016149841248989,0.013598786666989326,0.0034599811770021915,0.006359430029988289,0.000161606672918424,-0.00010646365262800828,-0.001173975644633174,0.0,0.0,0.0,-9.320513345301151e-05,-0.0039027640596032143,-0.0,0.0,0.0,0.0,-0.20000000298023224,-0.20000000298023224,0.006409458350390196,1495.0,1495.0,1495.0,1495.0,0.0,0.0,0.0,0.0,0.0,0.0,0.0,0.0,1495.0,1495.0,1495.0,1495.0,1.668175458908081,-0.0011870123948544192,-0.30384045084895467,3.114820246757012,0.01568789966404438,-0.00028819742146879435,0.0
454,5,3.7569527648884105e-06,2.7373309421818703e-05,-4.179612460575299e-06,0.00030037653050385416,0.001280068652704358,0.0057010343298316,0.013598786666989326,0.0034599811770021915,0.006359430029988289,0.000161606672918424,-0.00010646365262800828,-0.001173975644633174,0.0,0.0,0.0,-0.003442461136728525,0.004714555572718382,-0.0,0.0,0.0,0.0,-0.20000000298023224,-0.20000000298023224,0.006409458350390196,1495.0,1495.0,1495.0,1495.0,0.0,0.0,0.0,0.0,0.0,0.0,0.0,0.0,1495.0,1495.0,1495.0,1495.0,1.6850025653839111,8.635537439822862e-05,-0.3030619098429283,3.1149407606163844,-0.01914207637310028,-0.010751686990261078,-0.0
459,5,-6.772216147510335e-05,6.134626164566725e-05,0.00010638649109750986,-0.008457343094050884,-0.003564726561307907,-0.010987518355250359,0.013598047196865082,0.003521654987707734,0.006355252116918564,0.0010983576066792011,0.0007795853889547288,0.00013208635209593922,0.0,0.0,0.0,-0.003442461136728525,0.004714555572718382,-0.0,0.0,0.0,0.0,-0.20000000298023224,-0.20000000298023224,0.006823125761002302,1495.0,1495.0,1495.0,1495.0,0.0,0.0,0.0,0.0,0.0,0.0,0.0,0.0,1495.0,1495.0,1495.0,1495.0,1.6850025653839111,0.0003869709564940217,-0.29920793611589885,3.113959620888979,-0.01914207637310028,-0.010751686990261078,-0.0
464,5,-4.6649940486531705e-05,5.045015859650448e-05,0.00010104877583216876,-0.0008542704163119197,-0.00011835835903184488,-0.003754482138901949,0.013598047196865082,0.003521654987707734,0.006355252116918564,0.0010983576066792011,0.0007795853889547288,0.00013208635209593922,0.0,0.0,0.0,0.004302356392145157,-0.007745837792754173,-0.0,0.0,0.0,0.0,-0.20000000298023224,-0.20000000298023224,0.006823125761002302,1495.0,1495.0,1495.0,1495.0,0.0,0.0,0.0,0.0,0.0,0.0,0.0,0.0,1495.0,1495.0,1495.0,1495.0,1.7195589542388916,-0.00034051549868823887,-0.2990510120213646,3.1142146602852967,0.032094381749629974,0.013712908141314983,0.0
469,5,-0.00011759386688936502,7.08724619471468e-05,0.00017343403305858374,-0.008854979649186134,-0.0024980197194963694,-0.010188023559749126,0.0135993342846632,0.003503928892314434,0.006318331696093082,0.003488358808681369,0.0015992571134120226,0.0024974397383630276,0.0,0.0,0.0,0.004302356392145157,-0.007745837792754173,-0.0,0.0,0.0,0.0,-0.20000000298023224,-0.18615293502807617,0.004376931115984917,1495.0,1495.0,1495.0,1495.0,0.0,0.0,0.0,0.0,0.0,0.0,0.0,0.0,1495.0,1495.0,1495.0,1495.0,1.7195589542388916,-0.0009555255305045046,-0.29517875813169414,3.1127546905295462,0.032094381749629974,0.013712908141314983,0.0
474,5,-7.920622738311067e-05,5.4438238294096664e-05,6.908742943778634e-05,0.0010645246366038918,0.0009728985605761409,0.00844638328999281,0.0135993342846632,0.003503928892314434,0.006318331696093082,0.003488358808681369,0.0015992571134120226,0.0024974397383630276,0.0,0.0,0.0,0.0030622377526015043,-0.008167723193764687,-0.0,0.0,0.0,0.0,-0.20000000298023224,-0.18615293502807617,0.004376931115984917,1495.0,1495.0,1495.0,1495.0,0.0,0.0,0.0,0.0,0.0,0.0,0.0,0.0,1495.0,1495.0,1495.0,1495.0,1.7204569578170776,-0.0023253866104252716,-0.2984142076372874,3.113568084532436,0.0338602252304554,0.009765399619936943,0.0
480,5,-9.278256766265258e-05,7.056839967845008e-05,0.00011941593402298167,-0.001203350955620408,-0.0015464597381651402,-0.0026608675252646208,0.013626256957650185,0.0035124376881867647,0.006319716107100248,0.001277729170396924,-0.004849301651120186,0.0008796554175205529,0.0,0.0,0.0,0.0030622377526015043,-0.008167723193764687,-0.0,0.0,0.0,0.0,-0.20000000298023224,-0.20000000298023224,0.004647457972168922,1495.0,1495.0,1495.0,1495.0,0.0,0.0,0.0,0.0,0.0,0.0,0.0,0.0,1495.0,1495.0,1495.0,1495.0,1.7204569578170776,-0.0014856458973068229,-0.2958202527551494,3.113355056066702,0.0338602252304554,0.009765399619936943,0.0
485,5,-8.913109195418656e-05,7.946272671688348e-05,0.00012776046060025692,-4.316284685046412e-05,-0.0016859035240486264,-0.0020656893029809,0.013626256957650185,0.0035124376881867647,0.006319716107100248,0.001277729170396924,-0.004849301651120186,0.0008796554175205529,0.0,0.0,0.0,0.002029006602242589,-0.0012672579614445567,-0.0,0.0,0.0,0.0,-0.20000000298023224,-0.20000000298023224,0.004647457972168922,1495.0,1495.0,1495.0,1495.0,0.0,0.0,0.0,0.0,0.0,0.0,0.0,0.0,1495.0,1495.0,1495.0,1495.0,1.6473795175552368,-0.001051927519234162,-0.2954795983816844,3.1132806774108945,0.005030481610447168,0.006195624824613333,0.0
490,5,-9.008253255160525e-05,8.31432334962301e-05,0.0001736790145514533,-0.00013143790420144796,-0.0011160221183672547,-0.00633650366216898,0.013621227815747261,0.0035221874713897705,0.006312773562967777,-0.0033776462078094482,0.0017536237137392163,-0.0071189370937645435,0.0,0.0,0.0,0.002029006602242589,-0.0012672579614445567,-0.0,0.0,0.0,0.0,-0.20000000298023224,-0.20000000298023224,0.005702313035726547,1495.0,1495.0,1495.0,1495.0,0.0,0.0,0.0,0.0,0.0,0.0,0.0,0.0,1495.0,1495.0,1495.0,1495.0,1.6473795175552368,-0.0031149080408768783,-0.2971662844427915,3.112918529589897,0.005030481610447168,0.006195624824613333,0.0
495,5,5.3238360123941675e-05,1.9409313608775847e-05,-4.847946183872409e-05,0.017145931720733643,0.007201661821454763,0.024124417454004288,0.013621227815747261,0.0035221874713897705,0.006312773562967777,-0.0033776462078094482,0.0017536237137392163,-0.0071189370937645435,0.0,0.0,0.0,0.0015312482137233019,-0.0002523133298382163,-0.0,0.0,0.0,0.0,-0.20000000298023224,-0.20000000298023224,0.005702313035726547,1495.0,1495.0,1495.0,1495.0,0.0,0.0,0.0,0.0,0.0,0.0,0.0,0.0,1495.0,1495.0,1495.0,1495.0,1.6386513710021973,0.0008307533518703438,-0.3039864407755709,3.1160113939217218,0.0009962725453078747,0.004650936461985111,0.0
500,5,1.981045897991862e-05,3.1512965506408364e-05,-1.0699229278543498e-05,0.002847024705260992,0.0014282267075031996,0.005116138607263565,0.013606693595647812,0.0034999330528080463,0.006305080838501453,-0.0023972841445356607,0.007214835379272699,-0.0005585668259300292,0.0,0.0,0.0,0.0015312482137233019,-0.0002523133298382163,-0.0,0.0,0.0,0.0,-0.20000000298023224,-0.20000000298023224,0.007410151418298483,1495.0,1495.0,1495.0,1495.0,0.0,0.0,0.0,0.0,0.0,0.0,0.0,0.0,1495.0,1495.0,1495.0,1495.0,1.6386513710021973,0.0011101238126867588,-0.30291411118052947,3.1155675219394428,0.0009962725453078747,0.004650936461985111,0.0
505,5,-1.4537299648509361e-05,3.178518818458542e-05,1.638216053834185e-05,-0.00298292119987309,0.000538623658940196,-0.001203311374410987,0.013606693595647812,0.0034999330528080463,0.006305080838501453,-0.0023972841445356607,0.007214835379272699,-0.0005585668259300292,0.0,0.0,0.0,-0.0016834178240969777,0.002697434974834323,-0.0,0.0,0.0,0.0,-0.20000000298023224,-0.20000000298023224,0.007410151418298483,1495.0,1495.0,1495.0,1495.0,0.0,0.0,0.0,0.0,0.0,0.0,0.0,0.0,1495.0,1495.0,1495.0,1495.0,1.6581124067306519,0.0021663593583715027,-0.30154177979034585,3.1153536751040525,-0.010777442716062069,-0.005173853132873774,0.0
510,5,1.2088461517123505e-05,9.725834388518706e-06,-3.532574191922322e-05,0.0020019228104501963,0.002862572204321623,0.005723623558878899,0.013621315360069275,0.0034935956355184317,0.006304869893938303,0.0032884131651371717,-0.0001845729275373742,-0.003480879357084632,0.0,0.0,0.0,-0.0016834178240969777,0.002697434974834323,-0.0,0.0,0.0,0.0,-0.20000000298023224,-0.20000000298023224,0.006172261666506529,1495.0,1495.0,1495.0,1495.0,0.0,0.0,0.0,0.0,0.0,0.0,0.0,0.0,1495.0,1495.0,1495.0,1495.0,1.6581124067306519,0.0005141365869142687,-0.30378715362327324,3.115193296092359,-0.010777442716062069,-0.005173853132873774,0.0
