timestamp,dt,pos_x,pos_y,pos_z,vel_x,vel_y,vel_z,roll,pitch,yaw,agv_x,agv_y,agv_z,x_ref,y_ref,z_ref,roll_ref,pitch_ref,yaw_ref,x_vel_ref,y_vel_ref,z_vel_ref,x_torque,y_torque,z_torque,w0,w1,w2,w3,u0,u1,u2,u3,m0req,m1req,m2req,m3req,thrust0,thrust1,thrust2,thrust3,thrust_ref,roll_vicon,pitch_vicon,yaw_vicon,acc_x,acc_y,acc_z
5,5,0.0,0.0,0.0,-0.000640745391137898,8.615140541223809e-05,0.00015107581566553563,-0.0006351654883474112,0.23553825914859772,-0.004772205837070942,0.00043056366848759353,0.0008402362582273781,-0.00521774822846055,0.0,0.0,0.0,-0.00010677704267436638,-0.0006108825327828526,-0.0,0.0,0.0,0.0,0.004999999888241291,-0.004999999888241291,-1.560234719200082e-10,1495.0,1495.0,1495.0,1495.0,0.0,0.0,0.0,0.0,0.0,0.0,0.0,0.0,1495.0,1495.0,1495.0,1495.0,1.6323270797729492,-2.947945669532371,0.3394344890728743,1.6486490045872488,0.002402795245870948,-0.00032306776847690344,0.0
38,33,0.0,0.0,0.0,-0.0003802965802606195,-0.0006085275672376156,-0.00013151972962077707,-0.0006351654883474112,0.23553825914859772,-0.004772205837070942,0.00043056366848759353,0.0008402362582273781,-0.00521774822846055,0.0,0.0,0.0,-0.00010677704267436638,-0.0006108825327828526,-0.0,0.0,0.0,0.0,0.004999999888241291,-0.004999999888241291,-1.560234719200082e-10,1495.0,1495.0,1495.0,1495.0,0.0,0.0,0.0,0.0,0.0,0.0,0.0,0.0,1495.0,1495.0,1495.0,1495.0,1.6323270797729492,-2.94665096294708,0.3394346204750487,1.6483171649346426,0.002402795245870948,-0.00032306776847690344,0.0
43,5,0.0,0.0,0.0,-0.00095396488904953,-0.0018646052340045571,-0.002255683299154043,-0.0006530121900141239,0.23557238280773163,-0.004750985186547041,-0.002793316962197423,-0.0017575088422745466,0.0018167460802942514,0.0,0.0,0.0,0.002290375530719757,-0.0009013829403556883,-0.0,0.0,0.0,0.0,0.004999999888241291,-0.004999999888241291,4.888321969431786e-10,1495.0,1495.0,1495.0,1495.0,0.0,0.0,0.0,0.0,0.0,0.0,0.0,0.0,1495.0,1495.0,1495.0,1495.0,1.6470379829406738,-2.9467911015920905,0.33951443425839617,1.6481805777934675,0.0035773683339357376,0.0069922697730362415,0.0
48,5,0.0,0.0,0.0,-0.00016214435163419694,-0.0007018690812401474,0.0012677981285378337,-0.0006530121900141239,0.23557238280773163,-0.004750985186547041,-0.002793316962197423,-0.0017575088422745466,0.0018167460802942514,0.0,0.0,0.0,0.002290375530719757,-0.0009013829403556883,-0.0,0.0,0.0,0.0,0.004999999888241291,-0.004999999888241291,4.888321969431786e-10,1495.0,1495.0,1495.0,1495.0,0.0,0.0,0.0,0.0,0.0,0.0,0.0,0.0,1495.0,1495.0,1495.0,1495.0,1.6470379829406738,-2.9472356202377306,0.33943888927955806,1.6484829238228822,0.0035773683339357376,0.0069922697730362415,0.0
53,5,0.0,0.0,0.0,-0.0010762291494756937,-0.0008713185088708997,0.00039226218359544873,-0.0006530121900141239,0.23557238280773163,-0.004750985186547041,-0.002793316962197423,-0.0017575088422745466,0.0018167460802942514,0.0,0.0,0.0,0.002290375530719757,-0.0009013829403556883,-0.0,0.0,0.0,0.0,0.004999999888241291,-0.004999999888241291,4.888321969431786e-10,1495.0,1495.0,1495.0,1495.0,0.0,0.0,0.0,0.0,0.0,0.0,0.0,0.0,1495.0,1495.0,1495.0,1495.0,1.6470379829406738,-2.946939388831741,0.33946344796339323,1.6483081158756532,0.0035773683339357376,0.0069922697730362415,0.0
59,5,-9.907349522109143e-06,-5.448526280815713e-06,2.762849908322096e-05,-0.001619373564608395,0.0003052957763429731,-0.0031585150863975286,-0.0006632946897298098,0.23555481433868408,-0.004767669830471277,-0.0020911036990582943,0.005550363101065159,0.0005774062010459602,0.0,0.0,0.0,0.0010749795474112034,-0.0010213741334155202,-0.0,0.0,0.0,0.0,0.004999999888241291,-0.004999999888241291,-6.115377648718834e-11,1495.0,1495.0,1495.0,1495.0,0.0,0.0,0.0,0.0,0.0,0.0,0.0,0.0,1495.0,1495.0,1495.0,1495.0,1.6398329734802246,-2.946603760456864,0.33828855459405555,1.6484260642429576,0.004035859368741512,0.0032674444373697042,0.0
64,5,-1.4838353763479972e-06,-1.3626029613078572e-05,2.0489951566560194e-05,0.000363072264008224,0.0011034186463803053,-0.0004067803092766553,-0.0006632946897298098,0.23555481433868408,-0.004767669830471277,-0.0020911036990582943,0.005550363101065159,0.0005774062010459602,0.0,0.0,0.0,0.0010749795474112034,-0.0010213741334155202,-0.0,0.0,0.0,0.0,0.004999999888241291,-0.004999999888241291,-6.115377648718834e-11,1495.0,1495.0,1495.0,1495.0,0.0,0.0,0.0,0.0,0.0,0.0,0.0,0.0,1495.0,1495.0,1495.0,1495.0,1.6398329734802246,-2.9468390850100814,0.3390908935390907,1.6481375161419347,0.004035859368741512,0.0032674444373697042,0.0
69,5,-8.277168490167242e-06,-7.036429906293051e-06,4.03079939133022e-05,-0.0006699711084365845,-0.00034938447060994804,-0.0025408773217350245,-0.0006617616745643318,0.23553086817264557,-0.004758997820317745,0.00034311081981286407,0.0029807123355567455,0.0007207889575511217,0.0,0.0,0.0,-0.0013877653982490301,0.0003429348289500922,-0.0,0.0,0.0,0.0,0.004999999888241291,-0.004999999888241291,4.877985602252943e-12,1495.0,1495.0,1495.0,1495.0,0.0,0.0,0.0,0.0,0.0,0.0,0.0,0.0,1495.0,1495.0,1495.0,1495.0,1.637752652168274,-2.9470600555712965,0.3384223563429578,1.6485295234616617,-0.0013533539604395628,-0.004212817642837763,0.0
74,5,2.5217987058567815e-06,-1.935381442308426e-05,2.2646110664936714e-05,0.001027887687087059,0.001338332425802946,0.0011030753375962377,-0.0006617616745643318,0.23553086817264557,-0.004758997820317745,0.00034311081981286407,0.0029807123355567455,0.0007207889575511217,0.0,0.0,0.0,-0.0013877653982490301,0.0003429348289500922,-0.0,0.0,0.0,0.0,0.004999999888241291,-0.004999999888241291,4.877985602252943e-12,1495.0,1495.0,1495.0,1495.0,0.0,0.0,0.0,0.0,0.0,0.0,0.0,0.0,1495.0,1495.0,1495.0,1495.0,1.637752652168274,-2.9474905568346665,0.33960445862719485,1.6483364679285788,-0.0013533539604395628,-0.004212817642837763,0.0
79,5,1.023832169266825e-06,-1.4124805602477863e-05,2.784340722428169e-05,0.0002313990844413638,-9.214818419422954e-05,-0.00018244546663481742,-0.0006718399235978723,0.23553358018398285,-0.004764880985021591,-0.005022794008255005,0.0014838033821433783,-0.0005338459741324186,0.0,0.0,0.0,-0.001682802801951766,0.0009770260658115149,-0.0,0.0,0.0,0.0,0.004999999888241291,-0.004999999888241291,-3.78888136143285e-11,1495.0,1495.0,1495.0,1495.0,0.0,0.0,0.0,0.0,0.0,0.0,0.0,0.0,1495.0,1495.0,1495.0,1495.0,1.6431604623794556,-2.9474095081877176,0.3394221894917249,1.6483674816939085,-0.0038684529718011618,-0.005125324707478285,-0.0
84,5,-1.165564390248619e-05,1.443725614080904e-05,8.329889533342794e-05,-0.0014289774699136615,-0.003464306704699993,-0.00672763679176569,-0.0006718399235978723,0.23553358018398285,-0.004764880985021591,-0.005022794008255005,0.0014838033821433783,-0.0005338459741324186,0.0,0.0,0.0,-0.001682802801951766,0.0009770260658115149,-0.0,0.0,0.0,0.0,0.004999999888241291,-0.004999999888241291,-3.78888136143285e-11,1495.0,1495.0,1495.0,1495.0,0.0,0.0,0.0,0.0,0.0,0.0,0.0,0.0,1495.0,1495.0,1495.0,1495.0,1.6431604623794556,-2.9474212315172643,0.33790807048846877,1.6488219545167573,-0.0038684529718011618,-0.005125324707478285,-0.0
89,5,3.8743587538192514e-06,-1.4684787856822368e-05,2.0111481717322022e-05,0.0012920093722641468,0.0021089226938784122,0.00489143468439579,-0.0007168762385845184,0.23554489016532898,-0.004757368471473455,-0.0029008632991462946,0.009668265469372272,-0.004103098064661026,0.0,0.0,0.0,0.00423762621358037,-0.0013524277601391077,-0.0,0.0,0.0,0.0,0.004999999888241291,-0.004999999888241291,2.2420537648670802e-11,1495.0,1495.0,1495.0,1495.0,0.0,0.0,0.0,0.0,0.0,0.0,0.0,0.0,1495.0,1495.0,1495.0,1495.0,1.6640361547470093,-2.9476503255949638,0.33955313522682307,1.6483778402452829,0.005422813817858696,0.013070480898022652,0.0
94,5,-2.8467791253206087e-06,-1.4587374607799575e-05,2.6621357392286882e-05,-0.0002897328231483698,0.0008318795007653534,0.0011753886938095093,-0.0007168762385845184,0.23554489016532898,-0.004757368471473455,-0.0029008632991462946,0.009668265469372272,-0.004103098064661026,0.0,0.0,0.0,0.00423762621358037,-0.0013524277601391077,-0.0,0.0,0.0,0.0,0.004999999888241291,-0.004999999888241291,2.2420537648670802e-11,1495.0,1495.0,1495.0,1495.0,0.0,0.0,0.0,0.0,0.0,0.0,0.0,0.0,1495.0,1495.0,1495.0,1495.0,1.6640361547470093,-2.9466243781696826,0.3394096400876318,1.6480564623241007,0.005422813817858696,0.013070480898022652,0.0
100,5,-4.730231921712402e-06,-3.636108885984868e-06,2.0658817447838373e-05,-0.00034190749283879995,-0.0009814001386985183,0.0011856602504849434,-0.0007249912596307695,0.23547522723674774,-0.004792626481503248,-0.0013295278185978532,0.00492656696587801,-0.0021984584163874388,0.0,0.0,0.0,-0.0010559173533692956,-0.0002797774795908481,-0.0,0.0,0.0,0.0,0.004999999888241291,-0.004999999888241291,1.97996410933321e-10,1495.0,1495.0,1495.0,1495.0,0.0,0.0,0.0,0.0,0.0,0.0,0.0,0.0,1495.0,1495.0,1495.0,1495.0,1.6349316835403442,-2.9466340988518316,0.33966949807106916,1.6482877303842964,0.0011022092076018453,-0.0031999112106859684,-0.0
105,5,5.085073098598514e-06,-4.019513289676979e-05,-2.623289037728682e-05,0.0010410735849291086,0.003994523081928492,0.0061012692749500275,-0.0007249912596307695,0.23547522723674774,-0.004792626481503248,-0.0013295278185978532,0.00492656696587801,-0.0021984584163874388,0.0,0.0,0.0,-0.0010559173533692956,-0.0002797774795908481,-0.0,0.0,0.0,0.0,0.004999999888241291,-0.004999999888241291,1.97996410933321e-10,1495.0,1495.0,1495.0,1495.0,0.0,0.0,0.0,0.0,0.0,0.0,0.0,0.0,1495.0,1495.0,1495.0,1495.0,1.6349316835403442,-2.9466266840702144,0.3398369941611967,1.647841229223786,0.0011022092076018453,-0.0031999112106859684,-0.0
110,5,-6.623638910241425e-06,-5.380053153203335e-06,4.812356564798392e-06,-0.000988616026006639,-0.002580000553280115,-0.001284922007471323,-0.0007105085533112288,0.23548750579357147,-0.0048002502880990505,-0.0007055831956677139,0.00404055742546916,-0.0005486795562319458,0.0,0.0,0.0,-0.004915985744446516,0.0009781630942597985,-0.0,0.0,0.0,0.0,0.004999999888241291,-0.004999999888241291,-6.213095316009998e-11,1495.0,1495.0,1495.0,1495.0,0.0,0.0,0.0,0.0,0.0,0.0,0.0,0.0,1495.0,1495.0,1495.0,1495.0,1.6682121753692627,-2.946103274402644,0.3391079474581177,1.64812712591072,-0.003931960556656122,-0.015200828202068806,0.0
115,5,8.218585207941942e-06,-1.3624968232761603e-05,-1.4930217275832547e-06,0.0013856204459443688,-4.261038702679798e-05,0.00024267661501653492,-0.0007105085533112288,0.23548750579357147,-0.0048002502880990505,-0.0007055831956677139,0.00404055742546916,-0.0005486795562319458,0.0,0.0,0.0,-0.004915985744446516,0.0009781630942597985,-0.0,0.0,0.0,0.0,0.004999999888241291,-0.004999999888241291,-6.213095316009998e-11,1495.0,1495.0,1495.0,1495.0,0.0,0.0,0.0,0.0,0.0,0.0,0.0,0.0,1495.0,1495.0,1495.0,1495.0,1.6682121753692627,-2.946424780301174,0.3396539323976356,1.6480514506124766,-0.003931960556656122,-0.015200828202068806,0.0
120,5,-9.985351425711997e-07,-2.346136852793279e-06,1.4605380783905275e-05,-0.0005518062389455736,-0.0013705039164051414,-0.001834737602621317,-0.0007375355926342309,0.2354917675256729,-0.004781532101333141,-0.0029013268649578094,0.003994068596512079,0.0024631344713270664,0.0,0.0,0.0,2.7799243980553e-05,0.0013263269793242216,-0.0,0.0,0.0,0.0,0.004999999888241291,-0.004999999888241291,-1.1696622836954162e-10,1495.0,1495.0,1495.0,1495.0,0.0,0.0,0.0,0.0,0.0,0.0,0.0,0.0,1495.0,1495.0,1495.0,1495.0,1.6399658918380737,-2.945830627344786,0.33892445228763046,1.6481925479862964,-0.00524127809330821,8.450382301816717e-05,0.0
125,5,5.6116773521353025e-06,-1.9910288756364025e-05,1.9409872038522735e-05,0.0005725030205212533,0.0015594966243952513,-0.0013104341924190521,-0.0007196617661975324,0.23548121750354767,-0.0047909109853208065,-0.0005503979627974331,0.004298106767237186,-0.005096861626952887,0.0,0.0,0.0,-0.0019564619287848473,0.0005500941770151258,-0.0,0.0,0.0,0.0,0.004999999888241291,-0.004999999888241291,-7.305863553019876e-11,1495.0,1495.0,1495.0,1495.0,0.0,0.0,0.0,0.0,0.0,0.0,0.0,0.0,1495.0,1495.0,1495.0,1495.0,1.642950177192688,-2.9460873699363104,0.3392003880376236,1.6479051488834933,-0.002177772345021367,-0.005958046298474073,0.0
130,5,2.869938271032879e-06,-2.4686258257133886e-05,1.947658893186599e-05,-0.00010000749171013013,0.001196914934553206,-0.0005321794888004661,-0.0007196617661975324,0.23548121750354767,-0.0047909109853208065,-0.0005503979627974331,0.004298106767237186,-0.005096861626952887,0.0,0.0,0.0,-0.0019564619287848473,0.0005500941770151258,-0.0,0.0,0.0,0.0,0.004999999888241291,-0.004999999888241291,-7.305863553019876e-11,1495.0,1495.0,1495.0,1495.0,0.0,0.0,0.0,0.0,0.0,0.0,0.0,0.0,1495.0,1495.0,1495.0,1495.0,1.642950177192688,-2.947328111869068,0.3393313095159311,1.6484000406236021,-0.002177772345021367,-0.005958046298474073,0.0
135,5,-1.3040506019024178e-05,-1.8430664567858912e-05,2.9687322239624336e-05,-0.0019492562860250473,-0.000271905300905928,-0.0014381598448380828,-0.0007196617661975324,0.23548121750354767,-0.0047909109853208065,-0.0005503979627974331,0.004298106767237186,-0.005096861626952887,0.0,0.0,0.0,-0.0019564619287848473,0.0005500941770151258,-0.0,0.0,0.0,0.0,0.004999999888241291,-0.004999999888241291,-7.305863553019876e-11,1495.0,1495.0,1495.0,1495.0,0.0,0.0,0.0,0.0,0.0,0.0,0.0,0.0,1495.0,1495.0,1495.0,1495.0,1.642950177192688,-2.9467816955105515,0.3391741608584992,1.6480207979251817,-0.002177772345021367,-0.005958046298474073,0.0
140,5,-1.5413979781442322e-05,-3.0492647056235e-05,2.72705037787091e-05,-0.0010645193979144096,0.0013386758510023355,-0.0002852457982953638,-0.0007089753053151071,0.23546601831912994,-0.004794412758201361,-0.003447827184572816,0.0007659768452867866,-0.002008375246077776,0.0,0.0,0.0,0.00030083011370152235,-0.001861163298599422,-0.0,0.0,0.0,0.0,0.004999999888241291,-0.004999999888241291,7.095588699934652e-11,1495.0,1495.0,1495.0,1495.0,0.0,0.0,0.0,0.0,0.0,0.0,0.0,0.0,1495.0,1495.0,1495.0,1495.0,1.6459112167358398,-2.9475575806652112,0.3386710512594079,1.6482624313415442,0.00738146435469389,0.0009177750325761735,0.0
146,5,-1.1097035894636065e-05,-1.5181240996753331e-05,1.9273653379059397e-05,9.222554945154116e-05,-0.0013018983881920576,0.0008455236675217748,-0.0007089753053151071,0.23546601831912994,-0.004794412758201361,-0.003447827184572816,0.0007659768452867866,-0.002008375246077776,0.0,0.0,0.0,0.00030083011370152235,-0.001861163298599422,-0.0,0.0,0.0,0.0,0.004999999888241291,-0.004999999888241291,7.095588699934652e-11,1495.0,1495.0,1495.0,1495.0,0.0,0.0,0.0,0.0,0.0,0.0,0.0,0.0,1495.0,1495.0,1495.0,1495.0,1.6459112167358398,-2.948014738961633,0.3396860101481209,1.648420165497672,0.00738146435469389,0.0009177750325761735,0.0
151,5,-1.1795657883340027e-05,-2.1792686311528087e-05,3.2463998650200665e-05,-4.6944503992563114e-05,0.0002726139791775495,-0.0012446318287402391,-0.0007251943461596966,0.23550176620483398,-0.004788490943610668,-0.004984730388969183,0.002418508753180504,-0.0008794397581368685,0.0,0.0,0.0,0.001579555682837963,7.210586045403033e-05,-0.0,0.0,0.0,0.0,0.004999999888241291,-0.004999999888241291,-1.9761635383641618e-10,1495.0,1495.0,1495.0,1495.0,0.0,0.0,0.0,0.0,0.0,0.0,0.0,0.0,1495.0,1495.0,1495.0,1495.0,1.638787031173706,-2.9473985083665726,0.3389199938561417,1.648445824841537,-0.00028473735437728465,0.004798060283064842,-0.0
157,7,-2.005510395974852e-05,-1.6219097233260982e-05,3.610787825891748e-05,-0.001009911298751831,-0.0005597849958576262,-0.0009351181797683239,-0.0007251943461596966,0.23550176620483398,-0.004788490943610668,-0.004984730388969183,0.002418508753180504,-0.0008794397581368685,0.0,0.0,0.0,0.001579555682837963,7.210586045403033e-05,-0.0,0.0,0.0,0.0,0.004999999888241291,-0.004999999888241291,-1.9761635383641618e-10,1495.0,1495.0,1495.0,1495.0,0.0,0.0,0.0,0.0,0.0,0.0,0.0,0.0,1495.0,1495.0,1495.0,1495.0,1.638787031173706,-2.946510993844649,0.33801440055032383,1.6482396001797082,-0.00028473735437728465,0.004798060283064842,-0.0
162,5,3.2028726764110615e-06,-2.709171712922398e-05,5.2697632781928405e-06,0.002386992797255516,0.0010808003135025501,0.003326526377350092,-0.0007339651929214597,0.23547585308551788,-0.004792751744389534,1.68589085660642e-05,0.003501666709780693,-0.0006862145964987576,0.0,0.0,0.0,0.0006619574851356447,-0.0009877084521576762,-0.0,0.0,0.0,0.0,0.004999999888241291,-0.004999999888241291,5.737354341617262e-11,1495.0,1495.0,1495.0,1495.0,0.0,0.0,0.0,0.0,0.0,0.0,0.0,0.0,1495.0,1495.0,1495.0,1495.0,1.6376444101333618,-2.9475580983298824,0.33961338447579553,1.6483162274293428,0.0038976254872977734,0.002009361982345581,0.0
167,5,1.0114722499565687e-06,-3.664188625407405e-06,3.5358370951144025e-05,0.0006918290164321661,-0.0023789831902831793,-0.0022800222504884005,-0.0007339651929214597,0.23547585308551788,-0.004792751744389534,1.68589085660642e-05,0.003501666709780693,-0.0006862145964987576,0.0,0.0,0.0,0.0006619574851356447,-0.0009877084521576762,-0.0,0.0,0.0,0.0,0.004999999888241291,-0.004999999888241291,5.737354341617262e-11,1495.0,1495.0,1495.0,1495.0,0.0,0.0,0.0,0.0,0.0,0.0,0.0,0.0,1495.0,1495.0,1495.0,1495.0,1.6376444101333618,-2.9465909581267393,0.3388103426294767,1.6484755050373388,0.0038976254872977734,0.002009361982345581,0.0
172,5,1.0461768397362903e-05,-1.710517426545266e-05,-1.7399056559952442e-06,0.0014107670867815614,0.0006613250588998199,0.003539784112945199,-0.0007220348343253136,0.2354663908481598,-0.0047983443364501,0.00024577969452366233,0.002943070139735937,-0.007179662585258484,0.0,0.0,0.0,0.0029086286667734385,0.0006535391439683735,-0.0,0.0,0.0,0.0,0.004999999888241291,-0.004999999888241291,-9.26656668065462e-11,1495.0,1495.0,1495.0,1495.0,0.0,0.0,0.0,0.0,0.0,0.0,0.0,0.0,1495.0,1495.0,1495.0,1495.0,1.6508722305297852,-2.946746128972223,0.3399918416044222,1.6480498779299892,-0.002599770901724696,0.008900392800569534,0.0
178,5,9.202870387525763e-06,-4.9583300096855965e-06,1.3404111996351276e-05,0.0004132390895392746,-0.0011930913897231221,-0.00040136842289939523,-0.0007220348343253136,0.2354663908481598,-0.0047983443364501,0.00024577969452366233,0.002943070139735937,-0.007179662585258484,0.0,0.0,0.0,0.0029086286667734385,0.0006535391439683735,-0.0,0.0,0.0,0.0,0.004999999888241291,-0.004999999888241291,-9.26656668065462e-11,1495.0,1495.0,1495.0,1495.0,0.0,0.0,0.0,0.0,0.0,0.0,0.0,0.0,1495.0,1495.0,1495.0,1495.0,1.6508722305297852,-2.9465553881206947,0.339858980864118,1.648143437999568,-0.002599770901724696,0.008900392800569534,0.0
183,5,-3.0747014534426853e-06,-1.710829747025855e-05,-3.4611180126375984e-06,-0.0013080129865556955,0.0009807595051825047,0.001863280194811523,-0.0007251576753333211,0.23548252880573273,-0.00482162507250905,-0.0007811232353560627,0.00015798381355125457,-0.0006784930592402816,0.0,0.0,0.0,0.0014639042783528566,0.00040527014061808586,-0.0,0.0,0.0,0.0,0.004999999888241291,-0.004999999888241291,1.1402642025037935e-10,1495.0,1495.0,1495.0,1495.0,0.0,0.0,0.0,0.0,0.0,0.0,0.0,0.0,1495.0,1495.0,1495.0,1495.0,1.6385669708251953,-2.946506395182515,0.3397201235458481,1.647969999339097,-0.0016001482727006078,0.004446160513907671,0.0
188,5,-9.943315490090754e-06,-1.854964102676604e-05,4.111033376830164e-06,-0.0013474388979375362,0.0005652651889249682,-0.00016334610700141639,-0.0007251576753333211,0.23548252880573273,-0.00482162507250905,-0.0007811232353560627,0.00015798381355125457,-0.0006784930592402816,0.0,0.0,0.0,0.0014639042783528566,0.00040527014061808586,-0.0,0.0,0.0,0.0,0.004999999888241291,-0.004999999888241291,1.1402642025037935e-10,1495.0,1495.0,1495.0,1495.0,0.0,0.0,0.0,0.0,0.0,0.0,0.0,0.0,1495.0,1495.0,1495.0,1495.0,1.6385669708251953,-2.9466748409023253,0.33923274705680345,1.6482230428330806,-0.0016001482727006078,0.004446160513907671,0.0
193,5,-1.6685335140209645e-06,-1.1530429219419602e-05,2.6719770175986923e-05,0.00045399830560199916,-0.0006161995115689933,-0.0027783866971731186,-0.0007329318905249238,0.23550356924533844,-0.004800242371857166,0.0003660661168396473,-0.00041267293272539973,0.0018060471629723907,0.0,0.0,0.0,-0.0007307410705834627,-0.00129183370154351,-0.0,0.0,0.0,0.0,0.004999999888241291,-0.004999999888241291,1.522394189878984e-11,1495.0,1495.0,1495.0,1495.0,0.0,0.0,0.0,0.0,0.0,0.0,0.0,0.0,1495.0,1495.0,1495.0,1495.0,1.6408554315567017,-2.9473064887279565,0.3392799252681245,1.6483240781209045,0.0051077380776405334,-0.002222502836957574,0.0
198,5,-7.466722308890894e-06,-1.3544578905566595e-05,3.2397663744632155e-05,-0.0005141833680681884,-4.781803909281734e-06,-0.0017927021253854036,-0.0007329318905249238,0.23550356924533844,-0.004800242371857166,0.0003660661168396473,-0.00041267293272539973,0.0018060471629723907,0.0,0.0,0.0,-0.0007307410705834627,-0.00129183370154351,-0.0,0.0,0.0,0.0,0.004999999888241291,-0.004999999888241291,1.522394189878984e-11,1495.0,1495.0,1495.0,1495.0,0.0,0.0,0.0,0.0,0.0,0.0,0.0,0.0,1495.0,1495.0,1495.0,1495.0,1.6408554315567017,-2.9462707855274086,0.3388871776833651,1.6481629830028168,0.0051077380776405334,-0.002222502836957574,0.0
203,5,-3.885643309331499e-06,-1.800229620130267e-05,3.859843491227366e-05,0.0002240561443613842,0.0005330133717507124,-0.0014611734077334404,-0.0007252480718307197,0.23549704253673553,-0.004815171472728252,-0.0018090135417878628,0.005723501089960337,0.0012378157116472721,0.0,0.0,0.0,-1.8970065866596997e-05,-0.0005010849563404918,-0.0,0.0,0.0,0.0,0.004999999888241291,-0.004999999888241291,1.7583368094875595e-10,1495.0,1495.0,1495.0,1495.0,0.0,0.0,0.0,0.0,0.0,0.0,0.0,0.0,1495.0,1495.0,1495.0,1495.0,1.6310945749282837,-2.9473652812352467,0.3392471753345335,1.6484903951354315,0.0019694382790476084,-5.735305239795707e-05,0.0
209,6,2.1777341316919774e-06,4.670983798860107e-06,2.4292743546538986e-05,1.4585288226953708e-05,-0.0025075373705476522,0.0001724089088384062,-0.0007252480718307197,0.23549704253673553,-0.004815171472728252,-0.0018090135417878628,0.005723501089960337,0.0012378157116472721,0.0,0.0,0.0,-1.8970065866596997e-05,-0.0005010849563404918,-0.0,0.0,0.0,0.0,0.004999999888241291,-0.004999999888241291,1.7583368094875595e-10,1495.0,1495.0,1495.0,1495.0,0.0,0.0,0.0,0.0,0.0,0.0,0.0,0.0,1495.0,1495.0,1495.0,1495.0,1.6310945749282837,-2.9465733001753476,0.33886045159865746,1.6482281906611531,0.0019694382790476084,-5.735305239795707e-05,0.0
214,5,1.0216451300948393e-05,-3.3730473205650924e-06,1.0831690815393813e-05,0.000970480206888169,-3.773122443817556e-05,0.0016842898912727833,-0.0007323228637687862,0.2354339063167572,-0.004825760144740343,-5.751300341216847e-05,0.00624617375433445,0.0005787130794487894,0.0,0.0,0.0,0.0030803231056779623,1.671205427555833e-05,-0.0,0.0,0.0,0.0,0.004999999888241291,-0.004999999888241291,-2.38734535612517e-11,1495.0,1495.0,1495.0,1495.0,0.0,0.0,0.0,0.0,0.0,0.0,0.0,0.0,1495.0,1495.0,1495.0,1495.0,1.6512943506240845,-2.9477060163213906,0.34031961166573943,1.648454243583417,-6.649732677033171e-05,0.009428184479475021,-0.0
220,5,5.869630513188895e-06,-9.927045539370738e-06,1.4037465916771907e-05,-0.00013342643796931952,0.0007713873637840152,0.00028902292251586914,-0.0007323228637687862,0.2354339063167572,-0.004825760144740343,-5.751300341216847e-05,0.00624617375433445,0.0005787130794487894,0.0,0.0,0.0,0.0030803231056779623,1.671205427555833e-05,-0.0,0.0,0.0,0.0,0.004999999888241291,-0.004999999888241291,-2.38734535612517e-11,1495.0,1495.0,1495.0,1495.0,0.0,0.0,0.0,0.0,0.0,0.0,0.0,0.0,1495.0,1495.0,1495.0,1495.0,1.6512943506240845,-2.946628420802616,0.3394220190495811,1.6479841957816843,-6.649732677033171e-05,0.009428184479475021,-0.0
225,5,2.306387841599644e-06,-2.0390256395330653e-05,1.1774392078223173e-05,-0.00048095968668349087,0.001564140198752284,0.0003871780645567924,-0.0007346398779191077,0.235447496175766,-0.004827491007745266,-0.0016050596022978425,-0.0017548545729368925,-0.0008785593090578914,0.0,0.0,0.0,-0.0009734727209433913,-0.00011892807378899306,-0.0,0.0,0.0,0.0,0.004999999888241291,-0.004999999888241291,-1.631156689753388e-12,1495.0,1495.0,1495.0,1495.0,0.0,0.0,0.0,0.0,0.0,0.0,0.0,0.0,1495.0,1495.0,1495.0,1495.0,1.6338484287261963,-2.9475647552114026,0.3395736792904888,1.648286565261465,0.0004682177386712283,-0.0029481120873242617,-0.0
230,5,-5.869708729733247e-06,-1.3751262486039195e-05,2.5335692043881863e-05,-0.001173515454865992,-0.0001710231590550393,-0.0014724849024787545,-0.0007346398779191077,0.235447496175766,-0.004827491007745266,-0.0016050596022978425,-0.0017548545729368925,-0.0008785593090578914,0.0,0.0,0.0,-0.0009734727209433913,-0.00011892807378899306,-0.0,0.0,0.0,0.0,0.004999999888241291,-0.004999999888241291,-1.631156689753388e-12,1495.0,1495.0,1495.0,1495.0,0.0,0.0,0.0,0.0,0.0,0.0,0.0,0.0,1495.0,1495.0,1495.0,1495.0,1.6338484287261963,-2.9469635346992957,0.3387743254678,1.6482702677054184,0.0004682177386712283,-0.0029481120873242617,-0.0
235,5,1.7198765078774159e-07,-1.5819077816559002e-05,2.2607477148994803e-05,0.0002555973769631237,0.00017972852219827473,-0.00026160801644437015,-0.000733605760615319,0.23547232151031494,-0.0048267119564116,-0.00014375108003150672,0.002134039532393217,-0.0040091280825436115,0.0,0.0,0.0,0.0001860529009718448,-0.0011232590768486261,-0.0,0.0,0.0,0.0,0.004999999888241291,-0.004999999888241291,-1.631156689753388e-12,1495.0,1495.0,1495.0,1495.0,0.0,0.0,0.0,0.0,0.0,0.0,0.0,0.0,1495.0,1495.0,1495.0,1495.0,1.6378716230392456,-2.9475951233711006,0.3392106046789074,1.6482098032774377,0.004433141555637121,0.0005648392252624035,0.0
240,5,1.0810890671564266e-05,-2.1183859644224867e-05,2.399637014605105e-05,0.0013789073564112186,0.0007156651699915528,-0.000271310331299901,-0.000733605760615319,0.23547232151031494,-0.0048267119564116,-0.00014375108003150672,0.002134039532393217,-0.0040091280825436115,0.0,0.0,0.0,0.0001860529009718448,-0.0011232590768486261,-0.0,0.0,0.0,0.0,0.004999999888241291,-0.004999999888241291,-1.631156689753388e-12,1495.0,1495.0,1495.0,1495.0,0.0,0.0,0.0,0.0,0.0,0.0,0.0,0.0,1495.0,1495.0,1495.0,1495.0,1.6378716230392456,-2.946899665516378,0.3395884360744788,1.6479522294401887,0.004433141555637121,0.0005648392252624035,0.0
245,5,3.4521724501246354e-06,-2.537404725444503e-05,2.1621972337015904e-05,-0.0003314832574687898,0.0007890886045061052,0.00017640343867242336,-0.0007217243546620011,0.2354658544063568,-0.0048475307412445545,-0.0009858928387984633,0.0017998244147747755,0.0009538652957417071,0.0,0.0,0.0,-0.0009204628877341747,0.0013220227556303144,-0.0,0.0,0.0,0.0,0.004999999888241291,-0.004999999888241291,3.532451674920223e-12,1495.0,1495.0,1495.0,1495.0,0.0,0.0,0.0,0.0,0.0,0.0,0.0,0.0,1495.0,1495.0,1495.0,1495.0,1.6418380737304688,-2.946934677518859,0.33934009274118665,1.647970019185032,-0.005230230744928122,-0.002801205962896347,0.0
250,5,1.7140979252872057e-05,-7.805087079759687e-06,2.5550343707436696e-05,0.0015100635355338454,-0.0017926397267729044,-0.0004008430987596512,-0.000741132244002074,0.23545949161052704,-0.0048586963675916195,0.0021820564288645983,-0.0002756977337412536,-0.000580870546400547,0.0,0.0,0.0,-0.0009204628877341747,0.0013220227556303144,-0.0,0.0,0.0,0.0,0.004999999888241291,-0.004999999888241291,3.2258862248113473e-10,1495.0,1495.0,1495.0,1495.0,0.0,0.0,0.0,0.0,0.0,0.0,0.0,0.0,1495.0,1495.0,1495.0,1495.0,1.6418380737304688,-2.9473968326886113,0.33969463257630644,1.6484832373203064,-0.005230230744928122,-0.002801205962896347,0.0
255,5,3.8686748666805215e-06,-5.28563987245434e-06,1.1427237950556446e-05,-0.0009886511834338307,-0.0010193896014243364,0.0015344354324042797,-0.000741132244002074,0.23545949161052704,-0.0048586963675916195,0.0021820564288645983,-0.0002756977337412536,-0.000580870546400547,0.0,0.0,0.0,0.0012475784169510007,-0.000932756345719099,-0.0,0.0,0.0,0.0,0.004999999888241291,-0.004999999888241291,3.2258862248113473e-10,1495.0,1495.0,1495.0,1495.0,0.0,0.0,0.0,0.0,0.0,0.0,0.0,0.0,1495.0,1495.0,1495.0,1495.0,1.6400936841964722,-2.947139869744806,0.3402741816695615,1.6481829860605215,0.003686280455440283,0.0037926684599369764,-0.0
260,5,2.012179174926132e-05,-3.5704417769011343e-06,-2.6181853627349483e-06,0.0015549135860055685,-0.0006135795847512782,0.0022992249578237534,-0.000741132244002074,0.23545949161052704,-0.0048586963675916195,0.0021820564288645983,-0.0002756977337412536,-0.000580870546400547,0.0,0.0,0.0,0.0012475784169510007,-0.000932756345719099,-0.0,0.0,0.0,0.0,0.004999999888241291,-0.004999999888241291,3.2258862248113473e-10,1495.0,1495.0,1495.0,1495.0,0.0,0.0,0.0,0.0,0.0,0.0,0.0,0.0,1495.0,1495.0,1495.0,1495.0,1.6400936841964722,-2.947495246516566,0.3402799022825577,1.6482933276476404,0.003686280455440283,0.0037926684599369764,-0.0
268,7,-2.521676378819393e-06,-7.172070127126062e-06,-9.798792461879202e-07,-0.0020952506456524134,0.0001867635437520221,0.0007230932242237031,-0.0007295647519640625,0.23548951745033264,-0.0048713888972997665,0.0003592294524423778,-0.002791014965623617,-0.004198091104626656,0.0,0.0,0.0,0.000748763675801456,0.0015007558977231383,-0.0,0.0,0.0,0.0,0.004999999888241291,-0.004999999888241291,1.279736316917024e-10,1495.0,1495.0,1495.0,1495.0,0.0,0.0,0.0,0.0,0.0,0.0,0.0,0.0,1495.0,1495.0,1495.0,1495.0,1.6430046558380127,-2.9467625188750266,0.33935972344844473,1.648124258035873,-0.00594156002625823,0.002280300250276923,0.0
273,5,-5.343291604731348e-07,-2.2741756765753962e-05,1.5631579799446627e-06,-3.003466918016784e-05,0.0006173586589284241,-0.00033989938674494624,-0.0007193525088950992,0.23551496863365173,-0.004880473483353853,0.001355410786345601,0.0015631088754162192,-0.0008906529401428998,0.0,0.0,0.0,-0.0008068311726674438,-2.9390719646471553e-05,-0.0,0.0,0.0,0.0,0.004999999888241291,-0.004999999888241291,8.781740612473499e-11,1495.0,1495.0,1495.0,1495.0,0.0,0.0,0.0,0.0,0.0,0.0,0.0,0.0,1495.0,1495.0,1495.0,1495.0,1.6323803663253784,-2.9471369522579134,0.33937776578468065,1.648233873605113,0.0001156067883130163,-0.00244125141762197,0.0
279,6,-4.3709880515052646e-07,-2.5627316063037142e-05,8.612367309979163e-06,-3.4622732414391066e-07,0.000593210628721863,-0.0009818648686632514,-0.0007193525088950992,0.23551496863365173,-0.004880473483353853,0.001355410786345601,0.0015631088754162192,-0.0008906529401428998,0.0,0.0,0.0,-0.0008068311726674438,-2.9390719646471553e-05,-0.0,0.0,0.0,0.0,0.004999999888241291,-0.004999999888241291,8.781740612473499e-11,1495.0,1495.0,1495.0,1495.0,0.0,0.0,0.0,0.0,0.0,0.0,0.0,0.0,1495.0,1495.0,1495.0,1495.0,1.6323803663253784,-2.9468871040661457,0.3394145151984753,1.6480896747613045,0.0001156067883130163,-0.00244125141762197,0.0
284,5,1.6612239051028155e-06,-2.017751285166014e-05,1.0780378943309188e-05,0.0002516602398827672,-0.00041669217171147466,-0.0006529072998091578,-0.0007193525088950992,0.23551496863365173,-0.004880473483353853,0.001355410786345601,0.0015631088754162192,-0.0008906529401428998,0.0,0.0,0.0,-0.0008068311726674438,-2.9390719646471553e-05,-0.0,0.0,0.0,0.0,0.004999999888241291,-0.004999999888241291,8.781740612473499e-11,1495.0,1495.0,1495.0,1495.0,0.0,0.0,0.0,0.0,0.0,0.0,0.0,0.0,1495.0,1495.0,1495.0,1495.0,1.6323803663253784,-2.9478671124426183,0.3397440839631568,1.6483504671406215,0.0001156067883130163,-0.00244125141762197,0.0
289,5,1.167710706795333e-05,-1.6004854842321947e-05,1.0688996553653851e-05,0.001302570104598999,-0.0006673957104794681,-0.00025019707391038537,-0.0007123523973859847,0.2355365753173828,-0.004878972191363573,-0.0014681732282042503,-0.0010234807850793004,0.0006678575882688165,0.0,0.0,0.0,0.00047994160559028387,0.0002425240381853655,-0.0,0.0,0.0,0.0,0.004999999888241291,-0.004999999888241291,-3.326982786489019e-11,1495.0,1495.0,1495.0,1495.0,0.0,0.0,0.0,0.0,0.0,0.0,0.0,0.0,1495.0,1495.0,1495.0,1495.0,1.6304571628570557,-2.9478224791214656,0.3401295861384817,1.6482736128085382,-0.0009528312948532403,0.0014504618011415005,0.0
294,5,1.3691042113350704e-05,-8.21766116132494e-06,1.9401582903810777e-05,0.0007627002778463066,-0.0012014216044917703,-0.0011455891653895378,-0.0007135331397876143,0.23551779985427856,-0.004864953923970461,-0.001466250978410244,0.0065959757193923,8.092302596196532e-05,0.0,0.0,0.0,0.00047994160559028387,0.0002425240381853655,-0.0,0.0,0.0,0.0,0.004999999888241291,-0.004999999888241291,2.085000783136337e-10,1495.0,1495.0,1495.0,1495.0,0.0,0.0,0.0,0.0,0.0,0.0,0.0,0.0,1495.0,1495.0,1495.0,1495.0,1.6304571628570557,-2.947309885011993,0.3398336414801182,1.6484066991901707,-0.0009528312948532403,0.0014504618011415005,0.0
299,5,1.2018447705486324e-05,-2.353930722165387e-05,1.0297080734744668e-05,0.00010436877346364781,0.0013580287341028452,0.000634304597042501,-0.0007135331397876143,0.23551779985427856,-0.004864953923970461,-0.001466250978410244,0.0065959757193923,8.092302596196532e-05,0.0,0.0,0.0,0.001466626301407814,0.0007427097298204899,-0.0,0.0,0.0,0.0,0.004999999888241291,-0.004999999888241291,2.085000783136337e-10,1495.0,1495.0,1495.0,1495.0,0.0,0.0,0.0,0.0,0.0,0.0,0.0,0.0,1495.0,1495.0,1495.0,1495.0,1.640228033065796,-2.9476401196242494,0.3395492117054271,1.648532599348904,-0.002935450291261077,0.004458943381905556,0.0
304,5,4.975100637238938e-06,-2.320733074157033e-05,2.446040161885321e-05,-0.0008034541388042271,0.0005033743800595403,-0.0014458767836913466,-0.0007135331397876143,0.23551779985427856,-0.004864953923970461,-0.001466250978410244,0.0065959757193923,8.092302596196532e-05,0.0,0.0,0.0,0.001466626301407814,0.0007427097298204899,-0.0,0.0,0.0,0.0,0.004999999888241291,-0.004999999888241291,2.085000783136337e-10,1495.0,1495.0,1495.0,1495.0,0.0,0.0,0.0,0.0,0.0,0.0,0.0,0.0,1495.0,1495.0,1495.0,1495.0,1.640228033065796,-2.9475674002490755,0.3389454379305052,1.6486138717677312,-0.002935450291261077,0.004458943381905556,0.0
309,5,-2.0352192677819403e-06,-2.49830809480045e-05,7.870524314057548e-06,-0.0011626200284808874,0.00041443988448008895,0.0014124346198514104,-0.0007078881608322263,0.23550675809383392,-0.00486551970243454,-0.0002361701481277123,0.0021684952080249786,0.0015244726091623306,0.0,0.0,0.0,-0.0006651959265582263,-0.0007575569325126708,-0.0,0.0,0.0,0.0,0.004999999888241291,-0.004999999888241291,-3.095908598926833e-11,1495.0,1495.0,1495.0,1495.0,0.0,0.0,0.0,0.0,0.0,0.0,0.0,0.0,1495.0,1495.0,1495.0,1495.0,1.6355236768722534,-2.947353198100169,0.33926413042203624,1.6484224716302012,0.002985546598210931,-0.0020165774039924145,0.0
315,5,3.478273669088594e-08,-1.5567626178381033e-05,1.640111986489501e-05,-0.00021664777887053788,-0.0009640785865485668,-0.00045869758469052613,-0.0007178495870903134,0.23549719154834747,-0.0048604318872094154,0.001873709145002067,-0.0005768292467109859,-0.0014197499258443713,0.0,0.0,0.0,0.001163833192549646,-0.0002060813276330009,-0.0,0.0,0.0,0.0,0.004999999888241291,-0.004999999888241291,3.88989063182521e-10,1495.0,1495.0,1495.0,1495.0,0.0,0.0,0.0,0.0,0.0,0.0,0.0,0.0,1495.0,1495.0,1495.0,1495.0,1.6355721950531006,-2.946743149548246,0.3388518275545743,1.648111069587301,0.0008121943683363497,0.003528327215462923,0.0
320,5,1.2284458534850273e-05,-1.7488026060163975e-05,-1.2597472050401848e-05,0.0013833019183948636,-0.00015518342843279243,0.0032963519915938377,-0.0007178495870903134,0.23549719154834747,-0.0048604318872094154,0.001873709145002067,-0.0005768292467109859,-0.0014197499258443713,0.0,0.0,0.0,0.001163833192549646,-0.0002060813276330009,-0.0,0.0,0.0,0.0,0.004999999888241291,-0.004999999888241291,3.88989063182521e-10,1495.0,1495.0,1495.0,1495.0,0.0,0.0,0.0,0.0,0.0,0.0,0.0,0.0,1495.0,1495.0,1495.0,1495.0,1.6355721950531006,-2.947560249988595,0.3407217646056273,1.6482368456375158,0.0008121943683363497,0.003528327215462923,0.0
325,5,1.0339225809730124e-05,-1.0270628081343602e-05,1.6034457075875252e-05,0.0003198928607162088,-0.0009281612001359463,-0.0021172906272113323,-0.0007086650002747774,0.235581636428833,-0.004903435707092285,0.001536061754450202,0.0025931764394044876,-0.0007093477761372924,0.0,0.0,0.0,0.0011289536487311125,0.0003188156697433442,-0.0,0.0,0.0,0.0,0.004999999888241291,-0.004999999888241291,-2.537082488540676e-10,1495.0,1495.0,1495.0,1495.0,0.0,0.0,0.0,0.0,0.0,0.0,0.0,0.0,1495.0,1495.0,1495.0,1495.0,1.63564133644104,-2.946821880959808,0.3396183384575961,1.6478567049255164,-0.0012565487995743752,0.0034227294381707907,0.0
330,5,1.235606487171026e-05,-3.1717859201307874e-06,-2.778584303086973e-06,0.00036997778806835413,-0.0012231256114318967,0.0014106486923992634,-0.0007086650002747774,0.235581636428833,-0.004903435707092285,0.001536061754450202,0.0025931764394044876,-0.0007093477761372924,0.0,0.0,0.0,0.0011289536487311125,0.0003188156697433442,-0.0,0.0,0.0,0.0,0.004999999888241291,-0.004999999888241291,-2.537082488540676e-10,1495.0,1495.0,1495.0,1495.0,0.0,0.0,0.0,0.0,0.0,0.0,0.0,0.0,1495.0,1495.0,1495.0,1495.0,1.63564133644104,-2.946370657166324,0.340121414477648,1.6478395052742763,-0.0012565487995743752,0.0034227294381707907,0.0
335,5,9.384534678247292e-06,-2.4160581233445555e-06,3.3681776585581247e-06,-0.0002085924061248079,-0.0005799375358037651,-0.00017335197480861098,-0.0007259348058141768,0.2355998307466507,-0.004884447902441025,-0.0015845000743865967,0.001491706119850278,0.0017563130240887403,0.0,0.0,0.0,0.0007140990346670151,-0.00018576158618088812,-0.0,0.0,0.0,0.0,0.004999999888241291,-0.004999999888241291,-2.5909517586963915e-12,1495.0,1495.0,1495.0,1495.0,0.0,0.0,0.0,0.0,0.0,0.0,0.0,0.0,1495.0,1495.0,1495.0,1495.0,1.6319360733032227,-2.947017689566028,0.33981871510565104,1.6482215498820723,0.0007304842001758516,0.002160081174224615,0.0
340,5,-2.3202119336929172e-06,-6.879442025820026e-06,2.3865344701334834e-05,-0.0014880065573379397,0.00030363103724084795,-0.0025290006306022406,-0.0007259348058141768,0.2355998307466507,-0.004884447902441025,-0.0015845000743865967,0.001491706119850278,0.0017563130240887403,0.0,0.0,0.0,0.0007140990346670151,-0.00018576158618088812,-0.0,0.0,0.0,0.0,0.004999999888241291,-0.004999999888241291,-2.5909517586963915e-12,1495.0,1495.0,1495.0,1495.0,0.0,0.0,0.0,0.0,0.0,0.0,0.0,0.0,1495.0,1495.0,1495.0,1495.0,1.6319360733032227,-2.946933908134117,0.3387753467824033,1.64820501183167,0.0007304842001758516,0.002160081174224615,0.0
345,5,-1.2178140423202422e-05,-6.451421995734563e-06,4.801594332093373e-05,-0.001778154051862657,7.009002001723275e-05,-0.003909672144800425,-0.0007106586126610637,0.23562006652355194,-0.004905250389128923,-0.0018227886175736785,-0.0018328260630369186,-0.003922050818800926,0.0,0.0,0.0,-9.836279787123203e-05,-0.0017001064261421561,-0.0,0.0,0.0,0.0,0.004999999888241291,-0.004999999888241291,1.051280850566938e-11,1495.0,1495.0,1495.0,1495.0,0.0,0.0,0.0,0.0,0.0,0.0,0.0,0.0,1495.0,1495.0,1495.0,1495.0,1.644026279449463,-2.9468507849989063,0.3380222959589992,1.6486519128684316,0.006734983995556831,-0.00029974241624586284,0.0
350,5,-9.972874977393076e-06,5.496573066920973e-06,4.767937571159564e-05,-0.0004466297978069633,-0.0014057233929634094,-0.001523480867035687,-0.0007106586126610637,0.23562006652355194,-0.004905250389128923,-0.0018227886175736785,-0.0018328260630369186,-0.003922050818800926,0.0,0.0,0.0,-9.836279787123203e-05,-0.0017001064261421561,-0.0,0.0,0.0,0.0,0.004999999888241291,-0.004999999888241291,1.051280850566938e-11,1495.0,1495.0,1495.0,1495.0,0.0,0.0,0.0,0.0,0.0,0.0,0.0,0.0,1495.0,1495.0,1495.0,1495.0,1.644026279449463,-2.947166529147788,0.3383209922660669,1.648773953007595,0.006734983995556831,-0.00029974241624586284,0.0
355,5,1.1382606317056343e-05,-1.6408392184530385e-05,9.727151336846873e-06,0.0023840058129280806,0.0020663065370172262,0.003944874741137028,-0.0007106586126610637,0.23562006652355194,-0.004905250389128923,-0.0018227886175736785,-0.0018328260630369186,-0.003922050818800926,0.0,0.0,0.0,-9.836279787123203e-05,-0.0017001064261421561,-0.0,0.0,0.0,0.0,0.004999999888241291,-0.004999999888241291,1.051280850566938e-11,1495.0,1495.0,1495.0,1495.0,0.0,0.0,0.0,0.0,0.0,0.0,0.0,0.0,1495.0,1495.0,1495.0,1495.0,1.644026279449463,-2.9477044273808777,0.33994710649575366,1.648368116541673,0.006734983995556831,-0.00029974241624586284,0.0
360,5,8.270784746855497e-06,-1.0916803148575127e-05,1.9274746591690928e-05,0.0005801838124170899,0.00016753179079387337,0.00043223853572271764,-0.0006886310875415802,0.23560084402561188,-0.004946005530655384,6.211274740053341e-05,0.007580466568470001,-0.005113363265991211,0.0,0.0,0.0,-0.0025510978884994984,0.0022533175069838762,-0.0,0.0,0.0,0.0,0.004999999888241291,-0.004999999888241291,9.990902549716907e-11,1495.0,1495.0,1495.0,1495.0,0.0,0.0,0.0,0.0,0.0,0.0,0.0,0.0,1495.0,1495.0,1495.0,1495.0,1.6580684185028076,-2.947902171922995,0.33927582549719343,1.6486671354992146,-0.009002745151519775,-0.007840382866561413,-0.0
365,5,1.0921541615971364e-05,-1.0801721145980991e-05,2.2649635866400786e-05,0.0005501642590388656,5.320288983057253e-05,-0.00023209134815260768,-0.0006886310875415802,0.23560084402561188,-0.004946005530655384,6.211274740053341e-05,0.007580466568470001,-0.005113363265991211,0.0,0.0,0.0,-0.0025510978884994984,0.0022533175069838762,-0.0,0.0,0.0,0.0,0.004999999888241291,-0.004999999888241291,9.990902549716907e-11,1495.0,1495.0,1495.0,1495.0,0.0,0.0,0.0,0.0,0.0,0.0,0.0,0.0,1495.0,1495.0,1495.0,1495.0,1.6580684185028076,-2.9468615204154345,0.33953727590001237,1.6481926839741894,-0.009002745151519775,-0.007840382866561413,-0.0
370,5,1.4199111319612712e-05,-8.065885594987776e-06,7.340831871260889e-06,0.0006133741117082536,-0.00030701904324814677,0.0017442199168726802,-0.0006856637191958725,0.23558109998703003,-0.00497337756678462,-0.0033461060374975204,0.0005175273981876671,-0.002527946373447776,0.0,0.0,0.0,-8.61224762047641e-05,0.0005400921800173819,-0.0,0.0,0.0,0.0,0.004999999888241291,-0.004999999888241291,-2.4224958150576015e-10,1495.0,1495.0,1495.0,1495.0,0.0,0.0,0.0,0.0,0.0,0.0,0.0,0.0,1495.0,1495.0,1495.0,1495.0,1.6315531730651855,-2.9474588650042866,0.3401384088844892,1.6481725268557863,-0.0021233472507447004,-0.00026045116828754544,0.0
375,5,7.000332516327035e-06,7.641211595910136e-06,2.1983671103953384e-05,-0.0006185038364492357,-0.0020076592918485403,-0.0010594527702778578,-0.0006856637191958725,0.23558109998703003,-0.00497337756678462,-0.0033461060374975204,0.0005175273981876671,-0.002527946373447776,0.0,0.0,0.0,-8.61224762047641e-05,0.0005400921800173819,-0.0,0.0,0.0,0.0,0.004999999888241291,-0.004999999888241291,-2.4224958150576015e-10,1495.0,1495.0,1495.0,1495.0,0.0,0.0,0.0,0.0,0.0,0.0,0.0,0.0,1495.0,1495.0,1495.0,1495.0,1.6315531730651855,-2.9472076902859428,0.3402213832096802,1.6483219426337006,-0.0021233472507447004,-0.00026045116828754544,0.0
380,5,3.5160157949576387e-06,3.5427044622338144e-06,3.6058801924809813e-05,-0.0006655195611529052,-0.000311242911266163,-0.0021127969957888126,-0.0007073419401422143,0.2356582134962082,-0.0049674371257424355,-0.0013601292157545686,0.010045674629509449,0.0001798894809326157,0.0,0.0,0.0,0.002479161834344268,-0.0005746148526668549,-0.0,0.0,0.0,0.0,0.004999999888241291,-0.004999999888241291,-1.8433330220297278e-13,1495.0,1495.0,1495.0,1495.0,0.0,0.0,0.0,0.0,0.0,0.0,0.0,0.0,1495.0,1495.0,1495.0,1495.0,1.6471765041351318,-2.947063182281821,0.33915979177843053,1.6484555880494514,0.0022806967608630657,0.007569248788058758,0.0
385,5,-1.0668057257134933e-05,4.113930117455311e-06,3.1155268516158685e-05,-0.00196829647757113,-0.00019304422312416136,-0.0002566947659943253,-0.0007073419401422143,0.2356582134962082,-0.0049674371257424355,-0.0013601292157545686,0.010045674629509449,0.0001798894809326157,0.0,0.0,0.0,0.002479161834344268,-0.0005746148526668549,-0.0,0.0,0.0,0.0,0.004999999888241291,-0.004999999888241291,-1.8433330220297278e-13,1495.0,1495.0,1495.0,1495.0,0.0,0.0,0.0,0.0,0.0,0.0,0.0,0.0,1495.0,1495.0,1495.0,1495.0,1.6471765041351318,-2.9467114455579315,0.3383294332013358,1.648423109712456,0.0022806967608630657,0.007569248788058758,0.0
390,5,1.4031886621523881e-06,-1.3153510735719465e-05,2.1262105292407796e-05,0.0006612308789044619,0.0019948752596974373,0.0010845018550753593,-0.0006839856505393982,0.23562099039554596,-0.00497441366314888,0.000931362621486187,0.002264980226755142,-0.004532054997980595,0.0,0.0,0.0,0.0002442013064865023,-0.001875712419860065,-0.0,0.0,0.0,0.0,0.004999999888241291,-0.004999999888241291,-3.9662215178815075e-10,1495.0,1495.0,1495.0,1495.0,0.0,0.0,0.0,0.0,0.0,0.0,0.0,0.0,1495.0,1495.0,1495.0,1495.0,1.6460155248641968,-2.9478232765525116,0.3394575796200924,1.6483922615116338,0.0074396380223333836,0.000745058583561331,0.0
395,5,-5.977852197247557e-06,-4.961769718647702e-06,1.2475336006900761e-05,-0.0006212325533851981,-0.00018505884509067982,0.0014882130781188607,-0.0006839856505393982,0.23562099039554596,-0.00497441366314888,0.000931362621486187,0.002264980226755142,-0.004532054997980595,0.0,0.0,0.0,0.0002442013064865023,-0.001875712419860065,-0.0,0.0,0.0,0.0,0.004999999888241291,-0.004999999888241291,-3.9662215178815075e-10,1495.0,1495.0,1495.0,1495.0,0.0,0.0,0.0,0.0,0.0,0.0,0.0,0.0,1495.0,1495.0,1495.0,1495.0,1.6460155248641968,-2.946710248237584,0.3389405520570414,1.6484236656132885,0.0074396380223333836,0.000745058583561331,0.0
401,5,1.192218860524008e-05,-2.227293407486286e-05,-8.78551054483978e-06,0.0018995117861777544,0.002003316069021821,0.0031465867068618536,-0.0006779857212677598,0.23564574122428894,-0.0049987128004431725,0.0004334449768066406,-0.0029073504265397787,0.0037755537778139114,0.0,0.0,0.0,-0.0024906182661652565,0.0018035740358754992,-0.0,0.0,0.0,0.0,0.004999999888241291,-0.004999999888241291,3.7394004559487826e-11,1495.0,1495.0,1495.0,1495.0,0.0,0.0,0.0,0.0,0.0,0.0,0.0,0.0,1495.0,1495.0,1495.0,1495.0,1.6541544198989868,-2.9476451439323075,0.340465096394709,1.6481184797992852,-0.007188865449279547,-0.007636439986526966,0.0
406,5,1.708651143417228e-05,-1.7031583411153406e-05,1.7076696167350747e-05,0.0013795235427096486,0.000172364481841214,-0.0018448299961164594,-0.0006779857212677598,0.23564574122428894,-0.0049987128004431725,0.0004334449768066406,-0.0029073504265397787,0.0037755537778139114,0.0,0.0,0.0,-0.0024906182661652565,0.0018035740358754992,-0.0,0.0,0.0,0.0,0.004999999888241291,-0.004999999888241291,3.7394004559487826e-11,1495.0,1495.0,1495.0,1495.0,0.0,0.0,0.0,0.0,0.0,0.0,0.0,0.0,1495.0,1495.0,1495.0,1495.0,1.6541544198989868,-2.9477084099132966,0.34012319162550975,1.6481012173693204,-0.007188865449279547,-0.007636439986526966,0.0
411,5,1.2237719602126162e-05,-8.572580554755405e-06,3.114116407232359e-05,-3.0045670428080484e-05,-0.0009461345616728067,-0.0024256680626422167,-0.0006657609483227134,0.2356763482093811,-0.004967512562870979,0.001279589836485684,0.001232137088663876,-0.0005755149759352207,0.0,0.0,0.0,0.001154495868831873,-1.1468682714621536e-05,-0.0,0.0,0.0,0.0,0.004999999888241291,-0.004999999888241291,-4.789207225242009e-12,1495.0,1495.0,1495.0,1495.0,0.0,0.0,0.0,0.0,0.0,0.0,0.0,0.0,1495.0,1495.0,1495.0,1495.0,1.6352441310882568,-2.9472387146333827,0.33944074879193586,1.6483641325347116,4.519056165008806e-05,0.0034993174485862255,0.0
416,5,1.2074168807885144e-05,8.73873068485409e-06,3.080981332459487e-05,-3.1644394766772166e-05,-0.0024558112490922213,-0.0009305051062256098,-0.0006657609483227134,0.2356763482093811,-0.004967512562870979,0.001279589836485684,0.001232137088663876,-0.0005755149759352207,0.0,0.0,0.0,0.001154495868831873,-1.1468682714621536e-05,-0.0,0.0,0.0,0.0,0.004999999888241291,-0.004999999888241291,-4.789207225242009e-12,1495.0,1495.0,1495.0,1495.0,0.0,0.0,0.0,0.0,0.0,0.0,0.0,0.0,1495.0,1495.0,1495.0,1495.0,1.6352441310882568,-2.947235078975573,0.33990914758806046,1.6483867711838136,4.519056165008806e-05,0.0034993174485862255,0.0
421,5,1.721593798720278e-05,-1.8905493561760522e-05,7.1660174398857635e-06,0.0006043545436114073,0.0023349826224148273,0.002465053228661418,-0.0006657609483227134,0.2356763482093811,-0.004967512562870979,0.001279589836485684,0.001232137088663876,-0.0005755149759352207,0.0,0.0,0.0,0.001154495868831873,-1.1468682714621536e-05,-0.0,0.0,0.0,0.0,0.004999999888241291,-0.004999999888241291,-4.789207225242009e-12,1495.0,1495.0,1495.0,1495.0,0.0,0.0,0.0,0.0,0.0,0.0,0.0,0.0,1495.0,1495.0,1495.0,1495.0,1.6352441310882568,-2.947219259866893,0.33990773794846946,1.647898838517432,4.519056165008806e-05,0.0034993174485862255,0.0
426,5,3.0413987133215414e-06,-6.388498150045052e-06,1.2949032679898664e-05,-0.0014592028455808759,-0.0005680465255863965,0.00029205941245891154,-0.0006697233766317368,0.23563982546329498,-0.004982553888112307,0.001575227128341794,0.006107562221586704,0.001321387360803783,0.0,0.0,0.0,-0.002896490041166544,0.0005936797242611647,-0.0,0.0,0.0,0.0,0.004999999888241291,-0.004999999888241291,-3.409283966249177e-10,1495.0,1495.0,1495.0,1495.0,0.0,0.0,0.0,0.0,0.0,0.0,0.0,0.0,1495.0,1495.0,1495.0,1495.0,1.650598406791687,-2.9471985588193843,0.3390735806041345,1.6481812825211766,-0.002361259190365672,-0.008861778303980827,-0.0
431,5,-5.9614455949486e-07,-3.574149559426587e-06,1.8266217011841945e-05,-0.00102018634788692,-0.000564940448384732,-0.0005212384276092052,-0.0006697233766317368,0.23563982546329498,-0.004982553888112307,0.001575227128341794,0.006107562221586704,0.001321387360803783,0.0,0.0,0.0,-0.002896490041166544,0.0005936797242611647,-0.0,0.0,0.0,0.0,0.004999999888241291,-0.004999999888241291,-3.409283966249177e-10,1495.0,1495.0,1495.0,1495.0,0.0,0.0,0.0,0.0,0.0,0.0,0.0,0.0,1495.0,1495.0,1495.0,1495.0,1.650598406791687,-2.947243186656595,0.339650172615479,1.6482526153904238,-0.002361259190365672,-0.008861778303980827,-0.0
436,5,-1.4218838941815193e-06,-7.112022103683557e-06,1.6152353055076674e-05,-0.0005071632331237197,0.00019856850849464536,4.5168333599576727e-05,-0.0006578520406037569,0.23560430109500885,-0.004978359676897526,0.0028175069019198418,0.007905924692749977,0.0024390288162976503,0.0,0.0,0.0,0.000690930406562984,-0.0009702828829176724,-0.0,0.0,0.0,0.0,0.004999999888241291,-0.004999999888241291,4.049489354951419e-10,1495.0,1495.0,1495.0,1495.0,0.0,0.0,0.0,0.0,0.0,0.0,0.0,0.0,1495.0,1495.0,1495.0,1495.0,1.6375913619995117,-2.9473403702026997,0.33906173280547586,1.6483775315200664,0.003828737884759903,0.0020972408819943666,0.0
441,5,-1.785131075848767e-06,-1.3384425301410374e-06,1.613078529771883e-05,-0.00024645496159791946,-0.000613402109593153,2.0655626940424554e-05,-0.0006578520406037569,0.23560430109500885,-0.004978359676897526,0.0028175069019198418,0.007905924692749977,0.0024390288162976503,0.0,0.0,0.0,0.000690930406562984,-0.0009702828829176724,-0.0,0.0,0.0,0.0,0.004999999888241291,-0.004999999888241291,4.049489354951419e-10,1495.0,1495.0,1495.0,1495.0,0.0,0.0,0.0,0.0,0.0,0.0,0.0,0.0,1495.0,1495.0,1495.0,1495.0,1.6375913619995117,-2.947380015205312,0.33934361663553236,1.6483199662273726,0.003828737884759903,0.0020972408819943666,0.0
446,5,-8.465049177175388e-06,1.878505031527311e-07,1.596385300217662e-05,-0.0009001722210086882,-0.0004285160102881491,2.8293967261561193e-05,-0.0006557502201758325,0.23563773930072784,-0.004978118930011988,0.0023898121435195208,-0.004113707225769758,0.0007887688698247075,0.0,0.0,0.0,0.0007572221802547574,-0.0002373859751969576,-0.0,0.0,0.0,0.0,0.004999999888241291,-0.004999999888241291,-1.6721676127096075e-11,1495.0,1495.0,1495.0,1495.0,0.0,0.0,0.0,0.0,0.0,0.0,0.0,0.0,1495.0,1495.0,1495.0,1495.0,1.632462501525879,-2.9467905999654023,0.3391905235524297,1.6484545507694726,0.0009337917435914278,0.0022912633139640093,-0.0
451,5,8.059283572947606e-06,-9.27615928958403e-06,1.5674640962970443e-05,0.0016228510066866875,0.0009642748045735061,4.602321132551879e-05,-0.0006557502201758325,0.23563773930072784,-0.004978118930011988,0.0023898121435195208,-0.004113707225769758,0.0007887688698247075,0.0,0.0,0.0,0.0007572221802547574,-0.0002373859751969576,-0.0,0.0,0.0,0.0,0.004999999888241291,-0.004999999888241291,-1.6721676127096075e-11,1495.0,1495.0,1495.0,1495.0,0.0,0.0,0.0,0.0,0.0,0.0,0.0,0.0,1495.0,1495.0,1495.0,1495.0,1.632462501525879,-2.947589824368992,0.339465627464032,1.648373537590557,0.0009337917435914278,0.0022912633139640093,-0.0
456,5,2.1294727048370987e-05,5.179863364901394e-06,2.095544732583221e-05,0.002237393520772457,-0.0013490128330886364,-0.000615287630353123,-0.0006609083502553403,0.2356654554605484,-0.004972884897142649,-0.00011721585906343535,0.004216350149363279,0.0023333567660301924,0.0,0.0,0.0,-0.0012031218502670527,0.0015464379684999585,-0.0,0.0,0.0,0.0,0.004999999888241291,-0.004999999888241291,-9.03948527142262e-10,1495.0,1495.0,1495.0,1495.0,0.0,0.0,0.0,0.0,0.0,0.0,0.0,0.0,1495.0,1495.0,1495.0,1495.0,1.6451160907745361,-2.9475985990702833,0.3396686241312483,1.648663055806799,-0.006130282301455736,-0.003668719669803977,-0.0
461,5,1.7835458493209444e-05,-1.9149551008013077e-05,1.114875794883119e-05,0.00047984521370381117,0.002379924524575472,0.0009306877618655562,-0.0006609083502553403,0.2356654554605484,-0.004972884897142649,-0.00011721585906343535,0.004216350149363279,0.0023333567660301924,0.0,0.0,0.0,-0.0012031218502670527,0.0015464379684999585,-0.0,0.0,0.0,0.0,0.004999999888241291,-0.004999999888241291,-9.03948527142262e-10,1495.0,1495.0,1495.0,1495.0,0.0,0.0,0.0,0.0,0.0,0.0,0.0,0.0,1495.0,1495.0,1495.0,1495.0,1.6451160907745361,-2.947826924057639,0.33956920748595165,1.6483611799711912,-0.006130282301455736,-0.003668719669803977,-0.0
467,5,-4.2400361053296365e-06,-1.1577155419217888e-05,1.4803073099756148e-05,-0.002457121154293418,4.3282412661938e-05,-6.62427264614962e-05,-0.0006304597482085228,0.23565785586833954,-0.004993685986846685,0.0005791325820609927,0.0057610152289271355,0.0029064463451504707,0.0,0.0,0.0,-0.0029517770744860172,0.0004771219100803137,-0.0,0.0,0.0,0.0,0.004999999888241291,-0.004999999888241291,3.73552078158923e-10,1495.0,1495.0,1495.0,1495.0,0.0,0.0,0.0,0.0,0.0,0.0,0.0,0.0,1495.0,1495.0,1495.0,1495.0,1.6507552862167358,-2.9474812651174953,0.3392485102130289,1.6485255468792739,-0.0018978507723659277,-0.00903178658336401,-0.0
472,5,-1.7690974345896393e-05,-1.9608864931797143e-06,3.907800783053972e-05,-0.0025969611015170813,-0.0011366393882781267,-0.0029394894372671843,-0.0006304597482085228,0.23565785586833954,-0.004993685986846685,0.0005791325820609927,0.0057610152289271355,0.0029064463451504707,0.0,0.0,0.0,-0.0029517770744860172,0.0004771219100803137,-0.0,0.0,0.0,0.0,0.004999999888241291,-0.004999999888241291,3.73552078158923e-10,1495.0,1495.0,1495.0,1495.0,0.0,0.0,0.0,0.0,0.0,0.0,0.0,0.0,1495.0,1495.0,1495.0,1495.0,1.6507552862167358,-2.947097075012588,0.338929289947235,1.6483352908875308,-0.0018978507723659277,-0.00903178658336401,-0.0
477,5,-1.1263922715443186e-05,-2.7437772587290965e-06,1.3042576938460115e-05,-0.0002675382711458951,-0.00036070882924832404,0.001948456047102809,-0.0006556105799973011,0.2356434017419815,-0.0049775089137256145,-0.00031196337658911943,0.0009574911091476679,-0.001621187780983746,0.0,0.0,0.0,0.0013855743454769254,-0.002466693753376603,-0.0,0.0,0.0,0.0,0.004999999888241291,-0.004999999888241291,2.243060251427842e-11,1495.0,1495.0,1495.0,1495.0,0.0,0.0,0.0,0.0,0.0,0.0,0.0,0.0,1495.0,1495.0,1495.0,1495.0,1.6547648906707764,-2.9467169957755437,0.3392013653497145,1.6483841462028517,0.009835639037191868,0.00424985820427537,0.0
482,5,-5.428967710940924e-07,-4.171505679551046e-06,4.329581497586332e-05,0.0011795078171417117,2.7043888621847145e-05,-0.0028510058764368296,-0.0006556105799973011,0.2356434017419815,-0.0049775089137256145,-0.00031196337658911943,0.0009574911091476679,-0.001621187780983746,0.0,0.0,0.0,0.0013855743454769254,-0.002466693753376603,-0.0,0.0,0.0,0.0,0.004999999888241291,-0.004999999888241291,2.243060251427842e-11,1495.0,1495.0,1495.0,1495.0,0.0,0.0,0.0,0.0,0.0,0.0,0.0,0.0,1495.0,1495.0,1495.0,1495.0,1.6547648906707764,-2.947386681483046,0.33898935797082197,1.6483728327912985,0.009835639037191868,0.00424985820427537,0.0
487,5,-2.3365437300526537e-06,-1.1283180356258526e-05,1.9303786757518537e-05,0.0002565655158832669,0.0008642184548079967,0.0017386408289894462,-0.0006667084526270628,0.2356555014848709,-0.004985366947948933,-0.002919726073741913,0.000686753774061799,-0.0007417278829962015,0.0,0.0,0.0,-4.154907583142631e-05,0.0011201254092156887,-0.0,0.0,0.0,0.0,0.004999999888241291,-0.004999999888241291,-2.9612114843535764e-11,1495.0,1495.0,1495.0,1495.0,0.0,0.0,0.0,0.0,0.0,0.0,0.0,0.0,1495.0,1495.0,1495.0,1495.0,1.6377449035644531,-2.9472729938408566,0.3391207415845304,1.648451439548727,-0.004420431796461344,-0.0001261293509742245,0.0
492,5,7.148680651880568e-06,1.4097449820837937e-06,1.907563637359999e-05,0.0012408531038090587,-0.0011774636805057526,0.0007228344329632819,-0.0006667084526270628,0.2356555014848709,-0.004985366947948933,-0.002919726073741913,0.000686753774061799,-0.0007417278829962015,0.0,0.0,0.0,-4.154907583142631e-05,0.0011201254092156887,-0.0,0.0,0.0,0.0,0.004999999888241291,-0.004999999888241291,-2.9612114843535764e-11,1495.0,1495.0,1495.0,1495.0,0.0,0.0,0.0,0.0,0.0,0.0,0.0,0.0,1495.0,1495.0,1495.0,1495.0,1.6377449035644531,-2.947383015879279,0.33953837953025345,1.6483401777976197,-0.004420431796461344,-0.0001261293509742245,0.0
497,5,2.6825600798474625e-06,1.5239774256770033e-05,2.3229777070810087e-05,-3.959321475122124e-05,-0.0021305889822542667,-0.00020936325017828494,-0.0006604481022804976,0.23565487563610077,-0.00500942999497056,-0.00353132002055645,0.0026712603867053986,-0.0009940540185198188,0.0,0.0,0.0,0.0014516448136419058,0.0011851759627461433,-0.0,0.0,0.0,0.0,0.004999999888241291,-0.004999999888241291,2.3137425309016635e-10,1495.0,1495.0,1495.0,1495.0,0.0,0.0,0.0,0.0,0.0,0.0,0.0,0.0,1495.0,1495.0,1495.0,1495.0,1.6432312726974487,-2.9467579946036215,0.3391923572577228,1.6484592887507996,-0.004692808724939823,0.004421476740390062,-0.0
502,5,3.070958427997539e-06,1.4592079423891846e-05,2.0870607841061428e-05,3.077052679145709e-05,-0.0007745122420601547,0.0001993550977203995,-0.0006604481022804976,0.23565487563610077,-0.00500942999497056,-0.00353132002055645,0.0026712603867053986,-0.0009940540185198188,0.0,0.0,0.0,0.0014516448136419058,0.0011851759627461433,-0.0,0.0,0.0,0.0,0.004999999888241291,-0.004999999888241291,2.3137425309016635e-10,1495.0,1495.0,1495.0,1495.0,0.0,0.0,0.0,0.0,0.0,0.0,0.0,0.0,1495.0,1495.0,1495.0,1495.0,1.6432312726974487,-2.946718588798039,0.33900968802548115,1.64853721049382,-0.004692808724939823,0.004421476740390062,-0.0
507,5,1.2108083865314256e-05,-8.093299584288616e-06,1.5058912140375469e-05,0.0010967632988467813,0.002412440488114953,0.000777145498432219,-0.0006912340759299695,0.23567284643650055,-0.005000547971576452,-0.0017838398925960064,-0.00010410088725620881,-0.001353439292870462,0.0,0.0,0.0,0.0009849814232438803,3.3676467865007e-05,-0.0,0.0,0.0,0.0,0.004999999888241291,-0.004999999888241291,3.8639237642801305e-11,1495.0,1495.0,1495.0,1495.0,0.0,0.0,0.0,0.0,0.0,0.0,0.0,0.0,1495.0,1495.0,1495.0,1495.0,1.6338508129119873,-2.94679536341316,0.33906516351860627,1.6481392561092547,-0.00013258385297376662,0.0029829698614776134,-0.0
512,5,-3.6470671602728544e-06,-3.8088473957031965e-06,4.6861123337293975e-06,-0.0014519128017127514,0.0004508419951889664,0.0015555941499769688,-0.0006912340759299695,0.23567284643650055,-0.005000547971576452,-0.0017838398925960064,-0.00010410088725620881,-0.001353439292870462,0.0,0.0,0.0,0.0009849814232438803,3.3676467865007e-05,-0.0,0.0,0.0,0.0,0.004999999888241291,-0.004999999888241291,3.8639237642801305e-11,1495.0,1495.0,1495.0,1495.0,0.0,0.0,0.0,0.0,0.0,0.0,0.0,0.0,1495.0,1495.0,1495.0,1495.0,1.6338508129119873,-2.9469128869905186,0.33950540766754,1.6482268384398584,-0.00013258385297376662,0.0029829698614776134,-0.0
518,5,-2.166943158954382e-05,8.199531293939799e-06,2.2405389245250262e-05,-0.00274344882927835,-0.0012606686213985085,-0.0015040754806250334,-0.0006916613783687353,0.2357139140367508,-0.0050000944174826145,-0.001815853058360517,0.0032210072968155146,0.0003142801870126277,0.0,0.0,0.0,-0.0005631833337247372,-0.0013816936407238245,-0.0,0.0,0.0,0.0,0.004999999888241291,-0.004999999888241291,-1.4790564606403933e-10,1495.0,1495.0,1495.0,1495.0,0.0,0.0,0.0,0.0,0.0,0.0,0.0,0.0,1495.0,1495.0,1495.0,1495.0,1.6412789821624756,-2.946648440834186,0.3386138635498549,1.6483845045311065,0.005464442539960146,-0.0017133288783952594,-0.0
