timestamp,dt,pos_x,pos_y,pos_z,vel_x,vel_y,vel_z,roll,pitch,yaw,agv_x,agv_y,agv_z,x_ref,y_ref,z_ref,roll_ref,pitch_ref,yaw_ref,x_vel_ref,y_vel_ref,z_vel_ref,x_torque,y_torque,z_torque,w0,w1,w2,w3,u0,u1,u2,u3,m0req,m1req,m2req,m3req,thrust0,thrust1,thrust2,thrust3,thrust_ref,roll_vicon,pitch_vicon,yaw_vicon,acc_x,acc_y,acc_z
5,5,0.0,0.0,0.0,0.0006816266104578972,-0.0016029381658881903,-0.0043339477851986885,0.0,0.0,0.0,0.0,0.0,0.0,0.0,0.0,0.0,0.001973244361579418,0.0006454574759118259,-0.0,0.0,0.0,0.0,0.0,0.0,0.0,0.0,0.0,0.0,0.0,0.0,0.0,0.0,0.0,0.0,0.0,0.0,0.0,0.0,0.0,0.0,0.0,1.6434600353240967,0.0032584676897797387,0.07925734682997704,-0.10775999907442216,-0.0025560997892171144,0.006011018063873053,0.0
39,34,0.0,0.0,0.0,0.002507368801161647,0.0004676766402553767,0.00257162400521338,0.0,0.0,0.0,0.0,0.0,0.0,0.0,0.0,0.0,0.001973244361579418,0.0006454574759118259,-0.0,0.0,0.0,0.0,0.0,0.0,0.0,0.0,0.0,0.0,0.0,0.0,0.0,0.0,0.0,0.0,0.0,0.0,0.0,0.0,0.0,0.0,0.0,1.6434600353240967,0.005586749075424665,0.07922734749735288,-0.10786870692173788,-0.0025560997892171144,0.006011018063873053,0.0
44,5,0.0,0.0,0.0,-0.0012749501038342714,0.0009632527362555265,0.0006091205286793411,0.0,0.0,0.0,0.0,0.0,0.0,0.0,0.0,0.0,-0.0005728591931983829,0.0023625309113413095,-0.0,0.0,0.0,0.0,0.0,0.0,0.0,0.0,0.0,0.0,0.0,0.0,0.0,0.0,0.0,0.0,0.0,0.0,0.0,0.0,0.0,0.0,0.0,1.651659607887268,0.005314526056285247,0.07954562763703181,-0.10799153488446162,-0.009402632713317871,-0.001753787393681705,0.0
49,5,0.0,0.0,0.0,-0.0017936557997018099,0.00015822956629563123,-0.0021610052790492773,0.0,0.0,0.0,0.0,0.0,0.0,0.0,0.0,0.0,-0.0005728591931983829,0.0023625309113413095,-0.0,0.0,0.0,0.0,0.0,0.0,0.0,0.0,0.0,0.0,0.0,0.0,0.0,0.0,0.0,0.0,0.0,0.0,0.0,0.0,0.0,0.0,0.0,1.651659607887268,0.0033031365796940835,0.07901384330504839,-0.1072895045003157,0.006726209074258804,-0.0005933608626946807,0.0
54,5,0.0,0.0,0.0,0.0010775309056043625,-0.000466685916762799,-0.0007352132815867662,0.0,0.0,0.0,0.0,0.0,0.0,0.0,0.0,0.0,-0.00019471255654934794,-0.0016978615894913673,-0.0,0.0,0.0,0.0,0.0,0.0,0.0,0.0,0.0,0.0,0.0,0.0,0.0,0.0,0.0,0.0,0.0,0.0,0.0,0.0,0.0,0.0,0.0,1.6440552473068237,0.004635614798583399,0.0792901841686256,-0.10767970352146752,0.006726209074258804,-0.0005933608626946807,0.0
59,5,-1.0239034963888116e-05,1.68305655279255e-06,8.746143976168241e-06,-0.0007976717897690833,-0.00038864114321768284,-0.0013436225708574057,0.0,0.0,0.0,0.0,0.0,0.0,0.0,0.0,0.0,-0.00019471255654934794,-0.0016978615894913673,-0.0,0.0,0.0,0.0,0.0,0.0,0.0,0.0,0.0,0.0,0.0,0.0,0.0,0.0,0.0,0.0,0.0,0.0,0.0,0.0,0.0,0.0,0.0,1.6440552473068237,0.003789787542478074,0.07901795868735437,-0.1076791845421166,0.006726209074258804,-0.0005933608626946807,0.0
64,5,1.2500787306635175e-05,-1.724489629850723e-05,-6.663682142971084e-05,0.0024097098503261805,0.0021158980671316385,0.00850850623100996,0.0,0.0,0.0,0.0,0.0,0.0,0.0,0.0,0.0,0.0004839774046558887,-0.0007735903491266072,-0.0,0.0,0.0,0.0,0.0,0.0,0.0,0.0,0.0,0.0,0.0,0.0,0.0,0.0,0.0,0.0,0.0,0.0,0.0,0.0,0.0,0.0,0.0,1.634925365447998,0.004919564457942859,0.07906165922683171,-0.10738506800002658,0.0030476197134703398,0.0014666670467704535,0.0
69,5,-5.526118911802769e-06,-5.975358817522647e-06,7.9425753938267e-06,-0.0011993447551503778,-0.0005059854011051357,-0.005546124652028084,0.0,0.0,0.0,0.0,0.0,0.0,0.0,0.0,0.0,0.0006137365708127618,-0.0011464805575087667,-0.0,0.0,0.0,0.0,0.0,0.0,0.0,0.0,0.0,0.0,0.0,0.0,0.0,0.0,0.0,0.0,0.0,0.0,0.0,0.0,0.0,0.0,0.0,1.639031171798706,0.005020937057129184,0.07924394810828363,-0.10793770472935724,0.004527991637587547,0.0018645657692104578,0.0
75,5,1.1601758160395548e-05,-3.434850214034668e-06,-4.857116800849326e-05,0.0015756073407828808,-0.000507255201227963,0.0045631988905370235,0.0,0.0,0.0,0.0,0.0,0.0,0.0,0.0,0.0,0.0006137365708127618,-0.0011464805575087667,-0.0,0.0,0.0,0.0,0.0,0.0,0.0,0.0,0.0,0.0,0.0,0.0,0.0,0.0,0.0,0.0,0.0,0.0,0.0,0.0,0.0,0.0,0.0,1.639031171798706,0.006140262638754237,0.07965071312540892,-0.10824624035391651,0.004527991637587547,0.0018645657692104578,0.0
80,5,1.5135755120354588e-06,6.214102995727444e-06,7.491491942346329e-06,-0.0005803389940410852,-0.0013607764849439263,-0.004902239423245192,0.0,0.0,0.0,0.0,0.0,0.0,0.0,0.0,0.0,0.0006137365708127618,-0.0011464805575087667,-0.0,0.0,0.0,0.0,0.0,0.0,0.0,0.0,0.0,0.0,0.0,0.0,0.0,0.0,0.0,0.0,0.0,0.0,0.0,0.0,0.0,0.0,0.0,1.639031171798706,0.00469714801896399,0.07896988542842637,-0.10777127018048457,0.004527991637587547,0.0018645657692104578,0.0
85,5,-2.808720091707073e-05,8.23430218588328e-06,5.203482578508556e-05,-0.003784228814765811,-0.0007867345120757818,-0.00730609567835927,0.0,0.0,0.0,0.0,0.0,0.0,0.0,0.0,0.0,0.0006137365708127618,-0.0011464805575087667,-0.0,0.0,0.0,0.0,0.0,0.0,0.0,0.0,0.0,0.0,0.0,0.0,0.0,0.0,0.0,0.0,0.0,0.0,0.0,0.0,0.0,0.0,0.0,1.639031171798706,0.002555901955125,0.07867044541212284,-0.1072000727501598,0.004527991637587547,0.0018645657692104578,0.0
90,5,7.395272859866964e-06,4.857248768530553e-06,2.434730276945629e-06,0.0027442052960395813,9.055262489710003e-05,0.0030295730102807283,0.0,0.0,0.0,0.0,0.0,0.0,0.0,0.0,0.0,0.0009704065159894526,-0.003574779024347663,-0.0,0.0,0.0,0.0,0.0,0.0,0.0,0.0,0.0,0.0,0.0,0.0,0.0,0.0,0.0,0.0,0.0,0.0,0.0,0.0,0.0,0.0,0.0,1.6653879880905151,0.004427312125456813,0.0789948999799782,-0.1074413692633915,0.01434549130499363,0.0029955569189041853,0.0
96,7,-4.4601924855669495e-06,4.2024038293675403e-07,-2.162199598387815e-05,-0.000324973720125854,0.0005686620716005564,0.0040986365638673306,0.0,0.0,0.0,0.0,0.0,0.0,0.0,0.0,0.0,-0.000703988189343363,-0.0003160854976158589,-0.0,0.0,0.0,0.0,0.0,0.0,0.0,0.0,0.0,0.0,0.0,0.0,0.0,0.0,0.0,0.0,0.0,0.0,0.0,0.0,0.0,0.0,0.0,1.6324414014816284,0.002807894366699827,0.07880377069424507,-0.10697458765062628,0.0012433516094461083,-0.002130156150087714,0.0
102,5,-4.4601924855669495e-06,4.2024038293675403e-07,-2.162199598387815e-05,-0.000324973720125854,0.0005686620716005564,0.0040986365638673306,0.0,0.0,0.0,0.0,0.0,0.0,0.0,0.0,0.0,-0.000703988189343363,-0.0003160854976158589,-0.0,0.0,0.0,0.0,0.0,0.0,0.0,0.0,0.0,0.0,0.0,0.0,0.0,0.0,0.0,0.0,0.0,0.0,0.0,0.0,0.0,0.0,0.0,1.6324414014816284,0.002807894366699827,0.07880377069424507,-0.10697458765062628,0.0012433516094461083,-0.002130156150087714,0.0
107,5,1.2581699593283702e-05,-1.2368771422188729e-05,-1.7304115317529067e-05,0.0027129186782985926,0.0009393502841703594,0.0003880049625877291,0.0,0.0,0.0,0.0,0.0,0.0,0.0,0.0,0.0,-0.0011703782947733998,0.0025681527331471443,-0.0,0.0,0.0,0.0,0.0,0.0,0.0,0.0,0.0,0.0,0.0,0.0,0.0,0.0,0.0,0.0,0.0,0.0,0.0,0.0,0.0,0.0,0.0,1.6551402807235718,0.0053828110684499934,0.07924484634732146,-0.10809345342194995,-0.010242518968880177,-0.0035906198900192976,0.0
112,5,-8.73602220963221e-06,-9.979859896702692e-06,7.847357665013988e-06,-0.0014729590620845556,8.907078154152259e-05,-0.0028629747685045004,0.0,0.0,0.0,0.0,0.0,0.0,0.0,0.0,0.0,-0.0011703782947733998,0.0025681527331471443,-0.0,0.0,0.0,0.0,0.0,0.0,0.0,0.0,0.0,0.0,0.0,0.0,0.0,0.0,0.0,0.0,0.0,0.0,0.0,0.0,0.0,0.0,0.0,1.6551402807235718,0.004925157274422172,0.07935765908533285,-0.10839858726566202,-0.010242518968880177,-0.0035906198900192976,0.0
117,5,-1.020412764773937e-05,-1.7316257071797736e-05,-2.3750624677632004e-05,-0.0007653562934137881,0.0009159959154203534,0.0026465679984539747,0.0,0.0,0.0,0.0,0.0,0.0,0.0,0.0,0.0,-0.0011703782947733998,0.0025681527331471443,-0.0,0.0,0.0,0.0,0.0,0.0,0.0,0.0,0.0,0.0,0.0,0.0,0.0,0.0,0.0,0.0,0.0,0.0,0.0,0.0,0.0,0.0,0.0,1.6551402807235718,0.0038505813272349055,0.07847181225754424,-0.1074757082546509,-0.010242518968880177,-0.0035906198900192976,0.0
122,5,1.637231616768986e-05,2.1274133814586094e-06,-6.92738785801339e-06,0.0028830308001488447,-0.001966841984540224,-0.0009601612109690905,0.0,0.0,0.0,0.0,0.0,0.0,0.0,0.0,0.0,-0.001162628992460668,-0.000741334049962461,-0.0,0.0,0.0,0.0,0.0,0.0,0.0,0.0,0.0,0.0,0.0,0.0,0.0,0.0,0.0,0.0,0.0,0.0,0.0,0.0,0.0,0.0,0.0,1.6381877660751343,0.0048345385369987105,0.07899424003534714,-0.10753371254910966,0.0029263696633279324,-0.0035303127951920033,0.0
127,5,-4.459775482246187e-06,-6.2925291786086746e-06,-5.904459499106451e-07,-0.0013466387754306197,0.0002236562577309087,-0.0011444975389167666,0.0,0.0,0.0,0.0,0.0,0.0,0.0,0.0,0.0,-0.001162628992460668,-0.000741334049962461,-0.0,0.0,0.0,0.0,0.0,0.0,0.0,0.0,0.0,0.0,0.0,0.0,0.0,0.0,0.0,0.0,0.0,0.0,0.0,0.0,0.0,0.0,0.0,1.6381877660751343,0.004437232138754612,0.07917955926036185,-0.10766661729369226,0.0029263696633279324,-0.0035303127951920033,0.0
132,5,-2.760583629424218e-05,-9.553270501783118e-06,3.2780128094600514e-05,-0.0033161828760057688,0.00048075144877657294,-0.004462267737835646,0.0,0.0,0.0,0.0,0.0,0.0,0.0,0.0,0.0,-0.00028737669344991446,-0.0012843452859669924,-0.0,0.0,0.0,0.0,0.0,0.0,0.0,0.0,0.0,0.0,0.0,0.0,0.0,0.0,0.0,0.0,0.0,0.0,0.0,0.0,0.0,0.0,0.0,1.6397147178649902,0.002607704697360194,0.07826842150497718,-0.107333374652596,0.00507460068911314,-0.0008734305156394839,0.0
139,7,-1.0217981071036775e-05,1.7105323877331102e-06,-2.4460863642161712e-05,0.0007600695244036615,-0.0011593557428568602,0.0050840117037296295,0.0,0.0,0.0,0.0,0.0,0.0,0.0,0.0,0.0,0.0014334433944895864,0.0007070727879181504,-0.0,0.0,0.0,0.0,0.0,0.0,0.0,0.0,0.0,0.0,0.0,0.0,0.0,0.0,0.0,0.0,0.0,0.0,0.0,0.0,0.0,0.0,0.0,1.639787197113037,0.003982625951588722,0.07885435640388745,-0.10767887238382855,-0.002793849678710103,0.004356887191534042,0.0
144,5,-2.7258678528596647e-05,-2.9456300580932293e-06,-6.548947112605674e-06,-0.0017408558633178473,9.499719453742728e-05,-0.0001158252198365517,0.0,0.0,0.0,0.0,0.0,0.0,0.0,0.0,0.0,0.0014334433944895864,0.0007070727879181504,-0.0,0.0,0.0,0.0,0.0,0.0,0.0,0.0,0.0,0.0,0.0,0.0,0.0,0.0,0.0,0.0,0.0,0.0,0.0,0.0,0.0,0.0,0.0,1.639787197113037,0.005339426521045205,0.07932111061676177,-0.10868011167486,-0.002793849678710103,0.004356887191534042,0.0
151,7,1.7676416064205114e-06,-3.944790933019249e-06,-3.611073043430224e-05,0.002753643784672022,-0.0006103941123001277,0.003171477932482958,0.0,0.0,0.0,0.0,0.0,0.0,0.0,0.0,0.0,-0.00012226759281475097,-0.0016859795432537794,-0.0,0.0,0.0,0.0,0.0,0.0,0.0,0.0,0.0,0.0,0.0,0.0,0.0,0.0,0.0,0.0,0.0,0.0,0.0,0.0,0.0,0.0,0.0,1.6438833475112915,0.003596900955317387,0.07850631590429989,-0.10725189856312244,0.006678439676761627,-0.00037255542702041566,0.0
156,5,-1.711859840725083e-05,-8.128840818244498e-06,3.0318575227283873e-05,-0.001164891291409731,0.00025792833184823394,-0.00670292554423213,0.0,0.0,0.0,0.0,0.0,0.0,0.0,0.0,0.0,-0.00012226759281475097,-0.0016859795432537794,-0.0,0.0,0.0,0.0,0.0,0.0,0.0,0.0,0.0,0.0,0.0,0.0,0.0,0.0,0.0,0.0,0.0,0.0,0.0,0.0,0.0,0.0,0.0,1.6438833475112915,0.0015244065224814475,0.07808163328601114,-0.10702226475224869,0.006678439676761627,-0.00037255542702041566,0.0
161,5,7.196660135377897e-06,-1.3353018402995076e-05,6.954315722396132e-06,0.0024518745485693216,0.0007300726138055325,0.0001225410815095529,0.0,0.0,0.0,0.0,0.0,0.0,0.0,0.0,0.0,-0.0003333119093440473,-0.0011305890511721373,-0.0,0.0,0.0,0.0,0.0,0.0,0.0,0.0,0.0,0.0,0.0,0.0,0.0,0.0,0.0,0.0,0.0,0.0,0.0,0.0,0.0,0.0,0.0,1.6381621360778809,0.004654578539518493,0.0790664146328849,-0.10766163462397461,0.00446286192163825,-0.0010120832594111562,0.0
166,5,1.9428884115768597e-05,-1.1018298209819477e-05,2.642885192472022e-05,0.002448616549372673,1.186261488328455e-05,-0.002287927782163024,0.0,0.0,0.0,0.0,0.0,0.0,0.0,0.0,0.0,-0.0003333119093440473,-0.0011305890511721373,-0.0,0.0,0.0,0.0,0.0,0.0,0.0,0.0,0.0,0.0,0.0,0.0,0.0,0.0,0.0,0.0,0.0,0.0,0.0,0.0,0.0,0.0,0.0,1.6381621360778809,0.004174747914286693,0.079299884015743,-0.1076439117601789,0.00446286192163825,-0.0010120832594111562,0.0
173,7,7.27990482118912e-06,-1.1876682947331574e-05,-5.607926595985191e-06,-0.0004784307675436139,0.00010775124974315986,0.002929242327809334,0.0,0.0,0.0,0.0,0.0,0.0,0.0,0.0,0.0,-3.440017098910175e-05,0.002334998222067952,-0.0,0.0,0.0,0.0,0.0,0.0,0.0,0.0,0.0,0.0,0.0,0.0,0.0,0.0,0.0,0.0,0.0,0.0,0.0,0.0,0.0,0.0,0.0,1.6509157419204712,0.00474253685953126,0.07926432126756626,-0.10770785037204224,-0.00928887166082859,-0.00010526743426453322,0.0
178,5,1.1080712283728644e-05,-1.3078060874249786e-05,-3.486945934128016e-05,0.000264724571024999,0.00018726580310612917,0.004683080594986677,0.0,0.0,0.0,0.0,0.0,0.0,0.0,0.0,0.0,-3.440017098910175e-05,0.002334998222067952,-0.0,0.0,0.0,0.0,0.0,0.0,0.0,0.0,0.0,0.0,0.0,0.0,0.0,0.0,0.0,0.0,0.0,0.0,0.0,0.0,0.0,0.0,0.0,1.6509157419204712,0.00554593934607879,0.07916352415102514,-0.10805519321245872,-0.00928887166082859,-0.00010526743426453322,0.0
183,5,1.9765358956647106e-05,6.41233555143117e-06,-1.892088766908273e-05,0.0011480473913252354,-0.002263941103592515,-4.0596329199615866e-05,0.0,0.0,0.0,0.0,0.0,0.0,0.0,0.0,0.0,-0.0002564243332017213,0.0002683130733203143,-0.0,0.0,0.0,0.0,0.0,0.0,0.0,0.0,0.0,0.0,0.0,0.0,0.0,0.0,0.0,0.0,0.0,0.0,0.0,0.0,0.0,0.0,0.0,1.629294991493225,0.0044784489225533405,0.07882540306062806,-0.10742425162045356,-0.0010534003376960754,-0.0007744038593955338,0.0
188,5,6.104045837673766e-07,-7.025203103694366e-06,-4.585838905768469e-05,-0.001839375589042902,0.0007069281418807805,0.0032162615098059177,0.0,0.0,0.0,0.0,0.0,0.0,0.0,0.0,0.0,-0.0002564243332017213,0.0002683130733203143,-0.0,0.0,0.0,0.0,0.0,0.0,0.0,0.0,0.0,0.0,0.0,0.0,0.0,0.0,0.0,0.0,0.0,0.0,0.0,0.0,0.0,0.0,0.0,1.629294991493225,0.004401534144365308,0.07903004526727739,-0.10760974965413968,-0.0010534003376960754,-0.0007744038593955338,0.0
193,5,1.0978824320773128e-05,-5.086719738756074e-07,-5.641089956043288e-05,0.0005084602162241936,-0.0004992124740965664,0.002552805934101343,0.0,0.0,0.0,0.0,0.0,0.0,0.0,0.0,0.0,-0.0008817458874545991,-0.0017385027604177594,-0.0,0.0,0.0,0.0,0.0,0.0,0.0,0.0,0.0,0.0,0.0,0.0,0.0,0.0,0.0,0.0,0.0,0.0,0.0,0.0,0.0,0.0,0.0,1.6458097696304321,0.00435544345636753,0.07913583376497604,-0.10743602933222227,0.006894559599459171,-0.002689871471375227,0.0
198,5,6.768947059754282e-06,3.497016223263927e-06,-2.857228355424013e-05,-0.0003018012212123722,-0.0006803675787523389,-0.002319511491805315,0.0,0.0,0.0,0.0,0.0,0.0,0.0,0.0,0.0,-0.0008817458874545991,-0.0017385027604177594,-0.0,0.0,0.0,0.0,0.0,0.0,0.0,0.0,0.0,0.0,0.0,0.0,0.0,0.0,0.0,0.0,0.0,0.0,0.0,0.0,0.0,0.0,0.0,1.6458097696304321,0.0041459136516534155,0.07880702879307903,-0.10742960303607373,0.006894559599459171,-0.002689871471375227,0.0
203,5,1.0309355275239795e-05,6.324337959995319e-07,-9.784131179912947e-06,0.00030412853811867535,7.160286622820422e-05,-0.0031823827885091305,0.0,0.0,0.0,0.0,0.0,0.0,0.0,0.0,0.0,-8.263565541710705e-05,0.00029996855300851166,-0.0,0.0,0.0,0.0,0.0,0.0,0.0,0.0,0.0,0.0,0.0,0.0,0.0,0.0,0.0,0.0,0.0,0.0,0.0,0.0,0.0,0.0,0.0,1.6290130615234375,0.0037875210637697432,0.07908027830011234,-0.1073405563068461,-0.0011774763697758317,-0.000249517266638577,0.0
208,5,3.7965986848575994e-05,5.450329354061978e-06,-4.04887723561842e-05,0.003440447151660919,-0.0005495062796398997,0.002411603694781661,0.0,0.0,0.0,0.0,0.0,0.0,0.0,0.0,0.0,-8.263565541710705e-05,0.00029996855300851166,-0.0,0.0,0.0,0.0,0.0,0.0,0.0,0.0,0.0,0.0,0.0,0.0,0.0,0.0,0.0,0.0,0.0,0.0,0.0,0.0,0.0,0.0,0.0,1.6290130615234375,0.005295324888925253,0.07945984667668031,-0.10759163871453524,-0.0011774763697758317,-0.000249517266638577,0.0
214,5,-9.98817995423451e-06,-5.04479112350964e-06,2.5736297175171785e-05,-0.0019159343792125583,-0.00041715591214597225,-0.006527299992740154,0.0,0.0,0.0,0.0,0.0,0.0,0.0,0.0,0.0,-8.263565541710705e-05,0.00029996855300851166,-0.0,0.0,0.0,0.0,0.0,0.0,0.0,0.0,0.0,0.0,0.0,0.0,0.0,0.0,0.0,0.0,0.0,0.0,0.0,0.0,0.0,0.0,0.0,1.6290130615234375,0.0036889281921808677,0.0786970329719151,-0.10783470554509575,-0.0011774763697758317,-0.000249517266638577,0.0
219,5,-1.8957229031002498e-06,-1.10296468847082e-05,-2.7495760150486603e-05,0.00020472105825319886,0.000551320263184607,0.0037769267801195383,0.0,0.0,0.0,0.0,0.0,0.0,0.0,0.0,0.0,0.0005036122165620327,-0.0018255955073982477,-0.0,0.0,0.0,0.0,0.0,0.0,0.0,0.0,0.0,0.0,0.0,0.0,0.0,0.0,0.0,0.0,0.0,0.0,0.0,0.0,0.0,0.0,0.0,1.645810842514038,0.003437819829577074,0.07849050723431626,-0.10726808199425002,0.0072399587370455265,0.0015363305574283004,0.0
224,5,-1.8957229031002498e-06,-1.10296468847082e-05,-2.7495760150486603e-05,0.00020472105825319886,0.000551320263184607,0.0037769267801195383,0.0,0.0,0.0,0.0,0.0,0.0,0.0,0.0,0.0,0.0005036122165620327,-0.0018255955073982477,-0.0,0.0,0.0,0.0,0.0,0.0,0.0,0.0,0.0,0.0,0.0,0.0,0.0,0.0,0.0,0.0,0.0,0.0,0.0,0.0,0.0,0.0,0.0,1.645810842514038,0.003437819829577074,0.07849050723431626,-0.10726808199425002,0.0072399587370455265,0.0015363305574283004,0.0
229,5,1.020242962113116e-05,-1.2314723790041171e-05,-1.280542892345693e-05,0.0003674253821372986,0.0006979602621868253,-0.0009831030620262027,0.0,0.0,0.0,0.0,0.0,0.0,0.0,0.0,0.0,-0.000703653902746737,0.00019251159392297268,-0.0,0.0,0.0,0.0,0.0,0.0,0.0,0.0,0.0,0.0,0.0,0.0,0.0,0.0,0.0,0.0,0.0,0.0,0.0,0.0,0.0,0.0,0.0,1.63187837600708,0.004239182027688561,0.07897564457407244,-0.1073727227930865,-0.0014337177854031324,-0.0026854213792830706,0.0
236,7,8.955841622082517e-06,-9.601288866178948e-07,-2.1069081412861124e-05,-2.620350642246194e-06,-0.0010833673877641559,0.0005983969895169139,0.0,0.0,0.0,0.0,0.0,0.0,0.0,0.0,0.0,-0.0008866447024047375,0.0003641309158410877,-0.0,0.0,0.0,0.0,0.0,0.0,0.0,0.0,0.0,0.0,0.0,0.0,0.0,0.0,0.0,0.0,0.0,0.0,0.0,0.0,0.0,0.0,0.0,1.634008765220642,0.004691042605771111,0.07948720843264476,-0.10750462859465194,-0.0014337177854031324,-0.0026854213792830706,0.0
241,5,-1.1093535476902616e-06,-2.2459926185547374e-06,-1.5180756918198313e-06,-0.001208871603012085,-0.0002790433063637465,-0.0021067617926746607,0.0,0.0,0.0,0.0,0.0,0.0,0.0,0.0,0.0,-0.0008866447024047375,0.0003641309158410877,-0.0,0.0,0.0,0.0,0.0,0.0,0.0,0.0,0.0,0.0,0.0,0.0,0.0,0.0,0.0,0.0,0.0,0.0,0.0,0.0,0.0,0.0,0.0,1.634008765220642,0.0034854494666654687,0.07905670629718713,-0.10742535059088831,-0.0014337177854031324,-0.0026854213792830706,0.0
246,5,-1.621065712242853e-05,-1.4155692952044774e-05,-1.8181215182266897e-06,-0.002295705024152994,0.0013175467029213905,-0.0008066992741078138,0.0,0.0,0.0,0.0,0.0,0.0,0.0,0.0,0.0,-0.0016381342429667711,-0.0021838529501110315,-0.0,0.0,0.0,0.0,0.0,0.0,0.0,0.0,0.0,0.0,0.0,0.0,0.0,0.0,0.0,0.0,0.0,0.0,0.0,0.0,0.0,0.0,0.0,1.6529505252838135,0.0037138109826742338,0.07891711728235017,-0.10759188491517394,0.00869829673320055,-0.005019003991037607,0.0
251,5,-2.2812715542386286e-05,-9.278623110731132e-06,1.5296085621230304e-05,-0.0017105289734899998,-5.8229630667483434e-05,-0.0023763845674693584,0.0,0.0,0.0,0.0,0.0,0.0,0.0,0.0,0.0,-0.0016381342429667711,-0.0021838529501110315,-0.0,0.0,0.0,0.0,0.0,0.0,0.0,0.0,0.0,0.0,0.0,0.0,0.0,0.0,0.0,0.0,0.0,0.0,0.0,0.0,0.0,0.0,0.0,1.6529505252838135,0.003890900465143107,0.07914473282662712,-0.10810648516017866,0.00869829673320055,-0.005019003991037607,0.0
256,6,4.264121798769338e-06,-1.7480537280789576e-05,-6.086505891289562e-05,0.002565008820965886,0.0009609378757886589,0.008188783191144466,0.0,0.0,0.0,0.0,0.0,0.0,0.0,0.0,0.0,-0.0016381342429667711,-0.0021838529501110315,-0.0,0.0,0.0,0.0,0.0,0.0,0.0,0.0,0.0,0.0,0.0,0.0,0.0,0.0,0.0,0.0,0.0,0.0,0.0,0.0,0.0,0.0,0.0,1.6529505252838135,0.004349344692094374,0.07917046547041505,-0.10767916455984387,0.00869829673320055,-0.005019003991037607,0.0
262,5,-1.6173617041204125e-05,-6.883577498228988e-06,-3.612803311625612e-06,-0.0014265250647440553,-0.0008872600737959146,-0.003594757290557027,0.0,0.0,0.0,0.0,0.0,0.0,0.0,0.0,0.0,-0.0012070892844349146,0.0024196594022214413,-0.0,0.0,0.0,0.0,0.0,0.0,0.0,0.0,0.0,0.0,0.0,0.0,0.0,0.0,0.0,0.0,0.0,0.0,0.0,0.0,0.0,0.0,0.0,1.6537201404571533,0.0039130751318431104,0.07898684794889634,-0.10791090252181938,-0.009642005898058414,-0.0037000684533268213,0.0
267,5,-1.300620351685211e-05,3.492256382742198e-06,4.758410341310082e-07,-0.0001905204844661057,-0.001600004150532186,-0.0019285401795059443,0.0,0.0,0.0,0.0,0.0,0.0,0.0,0.0,0.0,-0.0012070892844349146,0.0024196594022214413,-0.0,0.0,0.0,0.0,0.0,0.0,0.0,0.0,0.0,0.0,0.0,0.0,0.0,0.0,0.0,0.0,0.0,0.0,0.0,0.0,0.0,0.0,0.0,1.6537201404571533,0.0039658736066470485,0.07925604535499159,-0.10776529613277555,-0.009642005898058414,-0.0037000684533268213,0.0
272,5,-5.124831659486517e-06,-9.68456151895225e-06,8.649412848171778e-06,0.0008695563883520663,0.000941216479986906,-0.0017522447742521763,0.0,0.0,0.0,0.0,0.0,0.0,0.0,0.0,0.0,0.001977312145754695,-0.00019869512470904738,-0.0,0.0,0.0,0.0,0.0,0.0,0.0,0.0,0.0,0.0,0.0,0.0,0.0,0.0,0.0,0.0,0.0,0.0,0.0,0.0,0.0,0.0,0.0,1.642209529876709,0.003576598340229659,0.07910104664609231,-0.1074936580220061,0.0007862611673772335,0.006018826737999916,0.0
277,5,-1.732827877276577e-05,-1.5245846952893771e-05,2.3979311663424596e-05,-0.0011165909236297011,0.0010438408935442567,-0.0025404857005923986,0.0,0.0,0.0,0.0,0.0,0.0,0.0,0.0,0.0,0.001977312145754695,-0.00019869512470904738,-0.0,0.0,0.0,0.0,0.0,0.0,0.0,0.0,0.0,0.0,0.0,0.0,0.0,0.0,0.0,0.0,0.0,0.0,0.0,0.0,0.0,0.0,0.0,1.642209529876709,0.005084716389505244,0.07941903856071034,-0.1080918233218873,0.0007862611673772335,0.006018826737999916,0.0
282,5,-1.2195810086268466e-05,-1.352500021312153e-05,-1.5251951481332071e-05,0.00016925977251958102,0.00021103477047290653,0.003691557329148054,0.0,0.0,0.0,0.0,0.0,0.0,0.0,0.0,0.0,-0.0013141153613105416,-0.0010826911311596632,-0.0,0.0,0.0,0.0,0.0,0.0,0.0,0.0,0.0,0.0,0.0,0.0,0.0,0.0,0.0,0.0,0.0,0.0,0.0,0.0,0.0,0.0,0.0,1.6416386365890503,0.0052203463810540085,0.07945405304048749,-0.10800978841979361,0.004282857291400433,-0.003998705185949802,0.0
287,5,-3.425490604058723e-06,-2.0549934561131522e-05,-4.970451118424535e-05,0.0011201421730220318,0.000927406013943255,0.0056109302677214146,0.0,0.0,0.0,0.0,0.0,0.0,0.0,0.0,0.0,-0.0013141153613105416,-0.0010826911311596632,-0.0,0.0,0.0,0.0,0.0,0.0,0.0,0.0,0.0,0.0,0.0,0.0,0.0,0.0,0.0,0.0,0.0,0.0,0.0,0.0,0.0,0.0,0.0,1.6416386365890503,0.0038904067320932076,0.07861566780876916,-0.10721813121200911,0.004282857291400433,-0.003998705185949802,0.0
292,5,-1.391092246194603e-05,-4.0599406929686666e-06,3.560566619853489e-05,-0.0008101949351839721,-0.0016078369226306677,-0.007992848753929138,0.0,0.0,0.0,0.0,0.0,0.0,0.0,0.0,0.0,-0.001180910738185048,0.0010576352942734957,-0.0,0.0,0.0,0.0,0.0,0.0,0.0,0.0,0.0,0.0,0.0,0.0,0.0,0.0,0.0,0.0,0.0,0.0,0.0,0.0,0.0,0.0,0.0,1.6406975984573364,0.0036850952272316404,0.0788696679807164,-0.10778690010152427,-0.004181344993412495,-0.0035913188476115465,0.0
297,5,-1.947518285305705e-05,-1.5936420822981745e-05,-1.687622716417536e-05,-0.0009917892748489976,0.0007820429163984954,0.0031006874050945044,0.0,0.0,0.0,0.0,0.0,0.0,0.0,0.0,0.0,-0.001180910738185048,0.0010576352942734957,-0.0,0.0,0.0,0.0,0.0,0.0,0.0,0.0,0.0,0.0,0.0,0.0,0.0,0.0,0.0,0.0,0.0,0.0,0.0,0.0,0.0,0.0,0.0,1.6406975984573364,0.005331243399288305,0.07902018359022386,-0.10799238509682758,-0.004181344993412495,-0.0035913188476115465,0.0
302,5,3.0378093924809946e-06,-6.555424988619052e-06,1.5762459952384233e-05,0.002304843394085765,-0.0008129024063237011,-0.002676367526873946,0.0,0.0,0.0,0.0,0.0,0.0,0.0,0.0,0.0,-0.0009943846380338073,-0.0009689589496701956,-0.0,0.0,0.0,0.0,0.0,0.0,0.0,0.0,0.0,0.0,0.0,0.0,0.0,0.0,0.0,0.0,0.0,0.0,0.0,0.0,0.0,0.0,0.0,1.6389732360839844,0.0045913554066280855,0.07909129143562135,-0.10762325404330694,0.003826739266514778,-0.0030208886601030827,0.0
308,5,1.3787439456791617e-05,-1.702718122942315e-06,-1.3776269724985468e-06,0.0022118929773569107,-0.0009074857807718217,0.0009862635051831603,0.0,0.0,0.0,0.0,0.0,0.0,0.0,0.0,0.0,-0.0009943846380338073,-0.0009689589496701956,-0.0,0.0,0.0,0.0,0.0,0.0,0.0,0.0,0.0,0.0,0.0,0.0,0.0,0.0,0.0,0.0,0.0,0.0,0.0,0.0,0.0,0.0,0.0,1.6389732360839844,0.004124884142373359,0.07856964875026583,-0.10708296421634295,-0.00837006140500307,0.0033931233920156956,0.0
313,5,-1.3361775017983746e-05,-1.2179358236608095e-05,7.485576134058647e-06,-0.0023731484543532133,0.0008942025015130639,-0.0006690790178254247,0.0,0.0,0.0,0.0,0.0,0.0,0.0,0.0,0.0,0.001109301345422864,0.0021049201022833586,-0.0,0.0,0.0,0.0,0.0,0.0,0.0,0.0,0.0,0.0,0.0,0.0,0.0,0.0,0.0,0.0,0.0,0.0,0.0,0.0,0.0,0.0,0.0,1.6502195596694946,0.0034454117445299882,0.07883057556697318,-0.10751592515576322,-0.00837006140500307,0.0033931233920156956,0.0
318,5,-1.495563265052624e-05,-5.121783942740876e-06,1.8679804725252325e-06,-0.0011405224213376641,-0.0004892278811894357,0.00040647987043485045,0.0,0.0,0.0,0.0,0.0,0.0,0.0,0.0,0.0,0.0005945793818682432,-0.0011041777906939387,-0.0,0.0,0.0,0.0,0.0,0.0,0.0,0.0,0.0,0.0,0.0,0.0,0.0,0.0,0.0,0.0,0.0,0.0,0.0,0.0,0.0,0.0,0.0,1.6385488510131836,0.0033633357440178108,0.07870477915259103,-0.10753322687586532,0.004359635058790445,0.0018058335408568382,0.0
323,5,-5.845193754794309e-06,-3.3300450468232157e-06,1.5226333744067233e-05,0.0006370437331497669,-0.000410699809435755,-0.001440410385839641,0.0,0.0,0.0,0.0,0.0,0.0,0.0,0.0,0.0,0.0005945793818682432,-0.0011041777906939387,-0.0,0.0,0.0,0.0,0.0,0.0,0.0,0.0,0.0,0.0,0.0,0.0,0.0,0.0,0.0,0.0,0.0,0.0,0.0,0.0,0.0,0.0,0.0,1.6385488510131836,0.003926227286979067,0.07864737317834414,-0.10761088885176169,0.004359635058790445,0.0018058335408568382,0.0
328,5,-1.9459570467006415e-05,-1.4577213732991368e-05,-1.9265076844021678e-05,-0.0013789077056571841,0.0011853802716359496,0.0035628050100058317,0.0,0.0,0.0,0.0,0.0,0.0,0.0,0.0,0.0,-0.001484726439230144,-0.0013319640420377254,-0.0,0.0,0.0,0.0,0.0,0.0,0.0,0.0,0.0,0.0,0.0,0.0,0.0,0.0,0.0,0.0,0.0,0.0,0.0,0.0,0.0,0.0,0.0,1.644599437713623,0.00509260602085911,0.07959009602536683,-0.10835701727531223,0.005278419703245163,-0.004526002798229456,0.0
333,5,-2.3230964870890602e-05,-1.2031306368953665e-06,1.9003151464858092e-05,-0.0010041303467005491,-0.001130737829953432,-0.0031670653261244297,0.0,0.0,0.0,0.0,0.0,0.0,0.0,0.0,0.0,-0.001484726439230144,-0.0013319640420377254,-0.0,0.0,0.0,0.0,0.0,0.0,0.0,0.0,0.0,0.0,0.0,0.0,0.0,0.0,0.0,0.0,0.0,0.0,0.0,0.0,0.0,0.0,0.0,1.644599437713623,0.003577012080414287,0.07910914150831735,-0.10788064961526421,0.005278419703245163,-0.004526002798229456,0.0
338,5,-1.8911096049123444e-06,-1.541024903417565e-05,-2.3601041903020814e-05,0.0021591305267065763,0.0012525591300800443,0.0038456772454082966,0.0,0.0,0.0,0.0,0.0,0.0,0.0,0.0,0.0,-0.0015626167878508568,0.002032238058745861,-0.0,0.0,0.0,0.0,0.0,0.0,0.0,0.0,0.0,0.0,0.0,0.0,0.0,0.0,0.0,0.0,0.0,0.0,0.0,0.0,0.0,0.0,0.0,1.6511999368667603,0.0042637398378082,0.07877254443464841,-0.1073401045886544,-0.008085843175649643,-0.004782559350132942,0.0
343,5,-2.426544961053878e-05,-1.8863183868234046e-05,-1.572292239870876e-05,-0.001821268699131906,0.0009153758874163032,0.0005928964237682521,0.0,0.0,0.0,0.0,0.0,0.0,0.0,0.0,0.0,-0.0015626167878508568,0.002032238058745861,-0.0,0.0,0.0,0.0,0.0,0.0,0.0,0.0,0.0,0.0,0.0,0.0,0.0,0.0,0.0,0.0,0.0,0.0,0.0,0.0,0.0,0.0,0.0,1.6511999368667603,0.0020681517290060286,0.07867962257511901,-0.1067637644237387,-0.008085843175649643,-0.004782559350132942,0.0
348,5,-4.978072865924332e-06,-1.6143985703820363e-05,2.3606489776284434e-05,0.001585977734066546,3.984648355981335e-05,-0.004482370801270008,0.0,0.0,0.0,0.0,0.0,0.0,0.0,0.0,0.0,-0.0015626167878508568,0.002032238058745861,-0.0,0.0,0.0,0.0,0.0,0.0,0.0,0.0,0.0,0.0,0.0,0.0,0.0,0.0,0.0,0.0,0.0,0.0,0.0,0.0,0.0,0.0,0.0,1.6511999368667603,0.003295083534995626,0.07887199489711863,-0.1074248992707858,-0.008085843175649643,-0.004782559350132942,0.0
353,5,-2.3286473151529208e-05,-7.810501301719341e-06,3.4687051083892584e-05,-0.0015626169042661786,-0.000984079553745687,-0.003122615395113826,0.0,0.0,0.0,0.0,0.0,0.0,0.0,0.0,0.0,-7.852847193134949e-05,0.001496274140663445,-0.0,0.0,0.0,0.0,0.0,0.0,0.0,0.0,0.0,0.0,0.0,0.0,0.0,0.0,0.0,0.0,0.0,0.0,0.0,0.0,0.0,0.0,0.0,1.6418139934539795,0.0056566690607989445,0.08011200167428595,-0.10865780637206512,-0.005919524934142828,-0.00023897894425317645,0.0
358,5,1.0383991138951387e-05,-1.8251472283736803e-05,-4.995942799723707e-05,0.002440780634060502,0.0006662074010819197,0.008263635449111462,0.0,0.0,0.0,0.0,0.0,0.0,0.0,0.0,0.0,-7.852847193134949e-05,0.001496274140663445,-0.0,0.0,0.0,0.0,0.0,0.0,0.0,0.0,0.0,0.0,0.0,0.0,0.0,0.0,0.0,0.0,0.0,0.0,0.0,0.0,0.0,0.0,0.0,1.6418139934539795,0.0052311891267031365,0.07914783453883086,-0.10757731700567245,-0.005919524934142828,-0.00023897894425317645,0.0
363,5,-1.973704456759151e-05,-9.899272299662698e-06,-2.2447418814408593e-05,-0.0026382121723145247,-0.0007357810973189771,4.013211764686275e-06,0.0,0.0,0.0,0.0,0.0,0.0,0.0,0.0,0.0,-0.0008490933105349541,0.002314002485945821,-0.0,0.0,0.0,0.0,0.0,0.0,0.0,0.0,0.0,0.0,0.0,0.0,0.0,0.0,0.0,0.0,0.0,0.0,0.0,0.0,0.0,0.0,0.0,1.6516722440719604,0.004848883535497208,0.07888095994892386,-0.10772136939405615,-0.00920956302434206,-0.0025994875468313694,0.0
369,5,-5.795295237476239e-06,-1.8150394680560566e-05,-4.800114766112529e-05,0.0006177251343615353,0.0006958221201784909,0.0030680529307574034,0.0,0.0,0.0,0.0,0.0,0.0,0.0,0.0,0.0,-0.0008490933105349541,0.002314002485945821,-0.0,0.0,0.0,0.0,0.0,0.0,0.0,0.0,0.0,0.0,0.0,0.0,0.0,0.0,0.0,0.0,0.0,0.0,0.0,0.0,0.0,0.0,0.0,1.6516722440719604,0.004228756098747443,0.0787207899809896,-0.10734775447483365,-0.00920956302434206,-0.0025994875468313694,0.0
374,5,-9.549073183734436e-06,-1.0816865142260212e-05,4.791214450960979e-06,-0.00020336330635473132,-0.0006016946281306446,-0.005107862409204245,0.0,0.0,0.0,0.0,0.0,0.0,0.0,0.0,0.0,-0.0008940343395806849,0.0005796268815174699,-0.0,0.0,0.0,0.0,0.0,0.0,0.0,0.0,0.0,0.0,0.0,0.0,0.0,0.0,0.0,0.0,0.0,0.0,0.0,0.0,0.0,0.0,0.0,1.6353648900985718,0.004200226097551552,0.07899601302150785,-0.10765370245752642,-0.002284098882228136,-0.002710050204768777,0.0
379,5,-3.832331458397675e-06,-4.8294305088347755e-06,-2.727165792748565e-06,0.0006046636844985187,-0.000959169992711395,-0.0011409393046051264,0.0,0.0,0.0,0.0,0.0,0.0,0.0,0.0,0.0,-0.0008940343395806849,0.0005796268815174699,-0.0,0.0,0.0,0.0,0.0,0.0,0.0,0.0,0.0,0.0,0.0,0.0,0.0,0.0,0.0,0.0,0.0,0.0,0.0,0.0,0.0,0.0,0.0,1.6353648900985718,0.004587594472858729,0.0788163114318169,-0.10754711002051516,-0.002284098882228136,-0.002710050204768777,0.0
384,5,-2.3911148673505522e-05,-2.9625798561028205e-05,-1.7982763893087395e-05,-0.0021675925236195326,0.002591896103695035,0.001374296029098332,0.0,0.0,0.0,0.0,0.0,0.0,0.0,0.0,0.0,0.0011762242065742612,0.0005692985723726451,-0.0,0.0,0.0,0.0,0.0,0.0,0.0,0.0,0.0,0.0,0.0,0.0,0.0,0.0,0.0,0.0,0.0,0.0,0.0,0.0,0.0,0.0,0.0,1.6371896266937256,0.003449666129400818,0.07847362044616706,-0.10740329113857804,-0.002245901385322213,0.00356941856443882,0.0
389,5,-9.703537216410041e-06,-1.8953973267343827e-05,-2.203460462624207e-05,0.0008378764032386243,-0.0002438605297356844,0.0010359393199905753,0.0,0.0,0.0,0.0,0.0,0.0,0.0,0.0,0.0,0.0011762242065742612,0.0005692985723726451,-0.0,0.0,0.0,0.0,0.0,0.0,0.0,0.0,0.0,0.0,0.0,0.0,0.0,0.0,0.0,0.0,0.0,0.0,0.0,0.0,0.0,0.0,0.0,1.6371896266937256,0.004628647669089082,0.07884657124762477,-0.10771845391900559,-0.002245901385322213,0.00356941856443882,0.0
394,5,-1.5819772670511156e-05,-2.0773863070644438e-05,-3.489555820124224e-05,-0.0003987978270743042,0.0001208426256198436,0.001957690343260765,0.0,0.0,0.0,0.0,0.0,0.0,0.0,0.0,0.0,0.00026712630642578006,0.000784118368756026,-0.0,0.0,0.0,0.0,0.0,0.0,0.0,0.0,0.0,0.0,0.0,0.0,0.0,0.0,0.0,0.0,0.0,0.0,0.0,0.0,0.0,0.0,0.0,1.6344106197357178,0.004860681658875127,0.07876832475041305,-0.1077830892667862,-0.0030881233979016542,0.0008092568023130298,0.0
399,5,-1.54284862219356e-05,-2.4078757633105852e-05,-1.5732433894299902e-05,-0.00011256477591814473,0.00044492431334219873,-0.0015164990909397602,0.0,0.0,0.0,0.0,0.0,0.0,0.0,0.0,0.0,0.00026712630642578006,0.000784118368756026,-0.0,0.0,0.0,0.0,0.0,0.0,0.0,0.0,0.0,0.0,0.0,0.0,0.0,0.0,0.0,0.0,0.0,0.0,0.0,0.0,0.0,0.0,0.0,1.6344106197357178,0.004031142347966832,0.07883420484396657,-0.10805318598714489,-0.0030881233979016542,0.0008092568023130298,0.0
404,5,-2.884094647015445e-05,-9.05577417142922e-06,3.437119448790327e-05,-0.0016545210964977741,-0.0016247882740572095,-0.006619034800678492,0.0,0.0,0.0,0.0,0.0,0.0,0.0,0.0,0.0,-0.0005961118149571121,-0.00012916288687847555,-0.0,0.0,0.0,0.0,0.0,0.0,0.0,0.0,0.0,0.0,0.0,0.0,0.0,0.0,0.0,0.0,0.0,0.0,0.0,0.0,0.0,0.0,0.0,1.6308281421661377,0.003447381633056603,0.07958403401759431,-0.10798531165505142,0.0005075721419416368,-0.0018019570270553231,0.0
409,5,-1.330370650975965e-05,-5.25911855220329e-06,1.1556768185982946e-05,0.0012026603799313307,-0.0011055140057578683,9.0117180661764e-05,0.0,0.0,0.0,0.0,0.0,0.0,0.0,0.0,0.0,-0.0005961118149571121,-0.00012916288687847555,-0.0,0.0,0.0,0.0,0.0,0.0,0.0,0.0,0.0,0.0,0.0,0.0,0.0,0.0,0.0,0.0,0.0,0.0,0.0,0.0,0.0,0.0,0.0,1.6308281421661377,0.003652568730335284,0.07931041659564239,-0.10756353469022162,0.0005075721419416368,-0.0018019570270553231,0.0
414,5,-1.1411026207497343e-05,-1.0649298019416165e-05,2.7150768801220693e-05,0.0007081858348101377,0.0002046159643214196,-0.0018352331826463342,0.0,0.0,0.0,0.0,0.0,0.0,0.0,0.0,0.0,0.001352128223516047,0.001121091190725565,-0.0,0.0,0.0,0.0,0.0,0.0,0.0,0.0,0.0,0.0,0.0,0.0,0.0,0.0,0.0,0.0,0.0,0.0,0.0,0.0,0.0,0.0,0.0,1.6421582698822021,0.005377428646123421,0.07982035504106688,-0.10841486910274922,-0.004436161834746599,0.004115676507353783,0.0
419,5,9.516986096969049e-07,-1.197586243506521e-05,-1.5652311049052514e-05,0.0017668012296780944,0.00024103409668896347,0.004402276128530502,0.0,0.0,0.0,0.0,0.0,0.0,0.0,0.0,0.0,0.001352128223516047,0.001121091190725565,-0.0,0.0,0.0,0.0,0.0,0.0,0.0,0.0,0.0,0.0,0.0,0.0,0.0,0.0,0.0,0.0,0.0,0.0,0.0,0.0,0.0,0.0,0.0,1.6421582698822021,0.004911602476528544,0.07905253268110883,-0.10775979992307386,-0.004436161834746599,0.004115676507353783,0.0
424,5,-5.431920271803392e-06,-1.315476492891321e-05,-2.4687355107744224e-05,-5.931373743806034e-05,0.0002378818899160251,0.0028451159596443176,0.0,0.0,0.0,0.0,0.0,0.0,0.0,0.0,0.0,-0.00031861767638474703,0.001673742663115263,-0.0,0.0,0.0,0.0,0.0,0.0,0.0,0.0,0.0,0.0,0.0,0.0,0.0,0.0,0.0,0.0,0.0,0.0,0.0,0.0,0.0,0.0,0.0,1.6439157724380493,0.005875601598701665,0.07971199754699253,-0.10825274125162128,-0.006630097981542349,-0.0009708630386739969,0.0
430,5,1.650281592446845e-05,-1.2375880032777786e-05,-4.310186341172084e-05,0.002608442911878228,1.686642576714803e-06,0.003347787307575345,0.0,0.0,0.0,0.0,0.0,0.0,0.0,0.0,0.0,-0.00031861767638474703,0.001673742663115263,-0.0,0.0,0.0,0.0,0.0,0.0,0.0,0.0,0.0,0.0,0.0,0.0,0.0,0.0,0.0,0.0,0.0,0.0,0.0,0.0,0.0,0.0,0.0,1.6439157724380493,0.006586592307360958,0.07968368945551974,-0.10819571140367505,-0.006630097981542349,-0.0009708630386739969,0.0
435,5,-4.8017263907240704e-05,-2.24462419282645e-05,1.5556535799987614e-05,-0.006699032615870237,0.0012091180542483926,-0.005699892994016409,0.0,0.0,0.0,0.0,0.0,0.0,0.0,0.0,0.0,-2.4666491299285553e-05,0.002479179762303829,-0.0,0.0,0.0,0.0,0.0,0.0,0.0,0.0,0.0,0.0,0.0,0.0,0.0,0.0,0.0,0.0,0.0,0.0,0.0,0.0,0.0,0.0,0.0,1.6524896621704102,0.003318856692872529,0.07909501276969667,-0.10809547788092332,-0.00987184327095747,-7.555351476185024e-05,0.0
440,5,-8.440880264970474e-06,-1.2793658243026584e-05,4.392413757159375e-06,0.0020695531275123358,-0.0006746628205291927,-0.0009402626310475171,0.0,0.0,0.0,0.0,0.0,0.0,0.0,0.0,0.0,-2.4666491299285553e-05,0.002479179762303829,-0.0,0.0,0.0,0.0,0.0,0.0,0.0,0.0,0.0,0.0,0.0,0.0,0.0,0.0,0.0,0.0,0.0,0.0,0.0,0.0,0.0,0.0,0.0,1.6524896621704102,0.00540678076809947,0.07931621106092519,-0.10827360112683429,-0.00987184327095747,-7.555351476185024e-05,0.0
445,5,-1.03617339846096e-05,-5.957722351013217e-06,-1.4619217836298048e-05,0.0005973188090138137,-0.001090177451260388,0.0019052907591685653,0.0,0.0,0.0,0.0,0.0,0.0,0.0,0.0,0.0,0.0008049539756029844,0.0019428557716310024,-0.0,0.0,0.0,0.0,0.0,0.0,0.0,0.0,0.0,0.0,0.0,0.0,0.0,0.0,0.0,0.0,0.0,0.0,0.0,0.0,0.0,0.0,0.0,1.6476902961730957,0.004935181885120678,0.07933551244247024,-0.10786954234058867,-0.007713786792010069,0.002458414528518915,0.0
450,5,-3.401566209504381e-05,-1.38872583193006e-05,5.724776656279573e-06,-0.00259954365901649,0.0005154733662493527,-0.001679162960499525,0.0,0.0,0.0,0.0,0.0,0.0,0.0,0.0,0.0,0.0008049539756029844,0.0019428557716310024,-0.0,0.0,0.0,0.0,0.0,0.0,0.0,0.0,0.0,0.0,0.0,0.0,0.0,0.0,0.0,0.0,0.0,0.0,0.0,0.0,0.0,0.0,0.0,1.6476902961730957,0.00403132118051228,0.07901881173951768,-0.10782443362789886,0.009936106391251087,-0.0020106597803533077,0.0
455,5,-2.300977757840883e-05,-1.3541432053898461e-05,1.1538989383552689e-05,0.0002808885765261948,0.00016469020920339972,-0.001369370729662478,0.0,0.0,0.0,0.0,0.0,0.0,0.0,0.0,0.0,-0.0006561497575603426,-0.0024942373856902122,-0.0,0.0,0.0,0.0,0.0,0.0,0.0,0.0,0.0,0.0,0.0,0.0,0.0,0.0,0.0,0.0,0.0,0.0,0.0,0.0,0.0,0.0,0.0,1.653206467628479,0.004166107628696334,0.0794624800555963,-0.10784559023577951,0.009936106391251087,-0.0020106597803533077,0.0
460,5,4.38279266745667e-06,-1.7052359908120707e-05,-2.7020234483643435e-05,0.0033994638361036777,0.00048718732432462275,0.0040793586522340775,0.0,0.0,0.0,0.0,0.0,0.0,0.0,0.0,0.0,-0.0006561497575603426,-0.0024942373856902122,-0.0,0.0,0.0,0.0,0.0,0.0,0.0,0.0,0.0,0.0,0.0,0.0,0.0,0.0,0.0,0.0,0.0,0.0,0.0,0.0,0.0,0.0,0.0,1.653206467628479,0.0054569895433117695,0.07920715027043779,-0.10788445460296812,-0.01277137827128172,-0.0019220547983422875,0.0
465,5,-1.8462875232216902e-05,-7.2267139330506325e-06,2.314353514520917e-05,-0.001381694688461721,-0.0009842024883255363,-0.004387909080833197,0.0,0.0,0.0,0.0,0.0,0.0,0.0,0.0,0.0,-0.000624404288828373,0.00319150323048234,-0.0,0.0,0.0,0.0,0.0,0.0,0.0,0.0,0.0,0.0,0.0,0.0,0.0,0.0,0.0,0.0,0.0,0.0,0.0,0.0,0.0,0.0,0.0,1.660700798034668,0.004584047879621867,0.07916493789122575,-0.10831223961428098,-0.01277137827128172,-0.0019220547983422875,0.0
470,5,-2.137172305083368e-05,-2.8695594664895907e-05,-3.7582583900075406e-05,-0.0009017395204864442,0.002182584721595049,0.005531970411539078,0.0,0.0,0.0,0.0,0.0,0.0,0.0,0.0,0.0,-0.000624404288828373,0.00319150323048234,-0.0,0.0,0.0,0.0,0.0,0.0,0.0,0.0,0.0,0.0,0.0,0.0,0.0,0.0,0.0,0.0,0.0,0.0,0.0,0.0,0.0,0.0,0.0,1.660700798034668,0.0043669385718945455,0.07898987796130108,-0.10751177895230928,-0.01277137827128172,-0.0019220547983422875,0.0
475,5,1.8592195374367293e-06,-1.633354440855328e-05,-3.53182949766051e-05,0.002427017316222191,-0.0006104122148826718,0.0019410736858844757,0.0,0.0,0.0,0.0,0.0,0.0,0.0,0.0,0.0,-0.002727779094129801,-0.0008801288204267621,-0.0,0.0,0.0,0.0,0.0,0.0,0.0,0.0,0.0,0.0,0.0,0.0,0.0,0.0,0.0,0.0,0.0,0.0,0.0,0.0,0.0,0.0,0.0,1.6502662897109985,0.0037957029053912387,0.07829396618736376,-0.10699410635444723,0.0034998587798327208,-0.008343933150172234,0.0
480,5,-6.305115221039159e-06,-1.4663290812677587e-06,1.7815355022321455e-05,-8.913263627619017e-06,-0.0020282305777072906,-0.0055996086448431015,0.0,0.0,0.0,0.0,0.0,0.0,0.0,0.0,0.0,-0.002727779094129801,-0.0008801288204267621,-0.0,0.0,0.0,0.0,0.0,0.0,0.0,0.0,0.0,0.0,0.0,0.0,0.0,0.0,0.0,0.0,0.0,0.0,0.0,0.0,0.0,0.0,0.0,1.6502662897109985,0.004313586098168437,0.07924739831549894,-0.1079040165483642,0.0034998587798327208,-0.008343933150172234,0.0
485,5,-8.678380254423246e-06,-9.563368621456902e-06,-1.073083512892481e-05,-0.00028835708508268,0.0001603525161044672,0.001185699482448399,0.0,0.0,0.0,0.0,0.0,0.0,0.0,0.0,0.0,0.0024893099907785654,-1.73720000020694e-05,-0.0,0.0,0.0,0.0,0.0,0.0,0.0,0.0,0.0,0.0,0.0,0.0,0.0,0.0,0.0,0.0,0.0,0.0,0.0,0.0,0.0,0.0,0.0,1.6463416814804077,0.0041715001987684295,0.07877477785131837,-0.10741443713443143,6.891604425618425e-05,0.007596380077302456,0.0
490,5,5.482010692503536e-06,-1.7081143596442416e-05,-5.479675019159913e-05,0.0015839040279388428,0.0009662740048952401,0.005762189626693726,0.0,0.0,0.0,0.0,0.0,0.0,0.0,0.0,0.0,0.0024893099907785654,-1.73720000020694e-05,-0.0,0.0,0.0,0.0,0.0,0.0,0.0,0.0,0.0,0.0,0.0,0.0,0.0,0.0,0.0,0.0,0.0,0.0,0.0,0.0,0.0,0.0,0.0,1.6463416814804077,0.004194380154248737,0.07883055218772168,-0.10727494668268411,6.891604425618425e-05,0.007596380077302456,0.0
496,5,-1.4767522770853247e-05,-1.2775985851476435e-05,-2.7299029170535505e-06,-0.0017963824793696404,-0.00013010940165258944,-0.003943145740777254,0.0,0.0,0.0,0.0,0.0,0.0,0.0,0.0,0.0,0.0001365468924632296,-0.0017209220677614212,-0.0,0.0,0.0,0.0,0.0,0.0,0.0,0.0,0.0,0.0,0.0,0.0,0.0,0.0,0.0,0.0,0.0,0.0,0.0,0.0,0.0,0.0,0.0,1.64426851272583,0.004794699674900383,0.0792628753394028,-0.10805342508008249,0.006818449590355158,0.00041616265662014484,0.0
501,5,-2.6533638447290286e-05,-8.737629286770243e-06,-1.3452698112814687e-05,-0.0021304867696017027,-0.0005366465193219483,-0.0002905229339376092,0.0,0.0,0.0,0.0,0.0,0.0,0.0,0.0,0.0,0.0001365468924632296,-0.0017209220677614212,-0.0,0.0,0.0,0.0,0.0,0.0,0.0,0.0,0.0,0.0,0.0,0.0,0.0,0.0,0.0,0.0,0.0,0.0,0.0,0.0,0.0,0.0,0.0,1.64426851272583,0.0037480711498394377,0.0787390630044796,-0.10752035238330965,0.006818449590355158,0.00041616265662014484,0.0
506,5,-2.2637843358097598e-05,-1.5337323929998092e-05,-9.343244528281502e-06,-0.00038469929131679237,0.000577304745092988,-0.0006093435804359615,0.0,0.0,0.0,0.0,0.0,0.0,0.0,0.0,0.0,0.0006424063467420638,-0.0020483157131820917,-0.0,0.0,0.0,0.0,0.0,0.0,0.0,0.0,0.0,0.0,0.0,0.0,0.0,0.0,0.0,0.0,0.0,0.0,0.0,0.0,0.0,0.0,0.0,1.6484297513961792,0.005798023365369151,0.08008941354440395,-0.10877708275445414,0.008136147633194923,0.0019628573209047318,0.0
511,5,-1.080067886505276e-05,-1.345197142654797e-05,-3.94328344555106e-05,0.0012665799586102366,4.6795353227935266e-06,0.0033670132979750633,0.0,0.0,0.0,0.0,0.0,0.0,0.0,0.0,0.0,0.0006424063467420638,-0.0020483157131820917,-0.0,0.0,0.0,0.0,0.0,0.0,0.0,0.0,0.0,0.0,0.0,0.0,0.0,0.0,0.0,0.0,0.0,0.0,0.0,0.0,0.0,0.0,0.0,1.6484297513961792,0.0052672871294810455,0.07937355450656608,-0.10805434524093925,0.008136147633194923,0.0019628573209047318,0.0
516,5,-7.463065230695065e-06,-2.1302477762219496e-05,-3.400903369765729e-05,0.0009071456152014434,0.0009439325076527894,0.0006959494785405695,0.0,0.0,0.0,0.0,0.0,0.0,0.0,0.0,0.0,-0.001204082858748734,0.0008506066515110433,-0.0,0.0,0.0,0.0,0.0,0.0,0.0,0.0,0.0,0.0,0.0,0.0,0.0,0.0,0.0,0.0,0.0,0.0,0.0,0.0,0.0,0.0,0.0,1.6392221450805664,0.004098937696379157,0.07899413267429224,-0.10771883128641906,-0.003359836293384433,-0.0036584953777492046,0.0
521,5,1.328401776845567e-05,-8.192050700017717e-06,-3.067011493840255e-05,0.0028525080997496843,-0.0011956781381741166,-0.00012229055573698133,0.0,0.0,0.0,0.0,0.0,0.0,0.0,0.0,0.0,-0.001204082858748734,0.0008506066515110433,-0.0,0.0,0.0,0.0,0.0,0.0,0.0,0.0,0.0,0.0,0.0,0.0,0.0,0.0,0.0,0.0,0.0,0.0,0.0,0.0,0.0,0.0,0.0,1.6392221450805664,0.004009738435015695,0.07916486064962532,-0.10734540620629042,-0.003359836293384433,-0.0036584953777492046,0.0
526,5,-1.5266552509274334e-05,-5.012855581298936e-06,5.612694440060295e-05,-0.0022850651293992996,-0.0008597747073508799,-0.01046456303447485,0.0,0.0,0.0,0.0,0.0,0.0,0.0,0.0,0.0,-0.001204082858748734,0.0008506066515110433,-0.0,0.0,0.0,0.0,0.0,0.0,0.0,0.0,0.0,0.0,0.0,0.0,0.0,0.0,0.0,0.0,0.0,0.0,0.0,0.0,0.0,0.0,0.0,1.6507415771484375,0.0047457851513973874,0.07934975821528321,-0.10827222960724152,0.00865392666310072,0.003194982185959816,0.0
531,5,-2.802746166707948e-05,-2.4433158614556305e-05,-3.538996315910481e-05,-0.0024453350342810154,0.0019865266513079405,0.006796203553676605,0.0,0.0,0.0,0.0,0.0,0.0,0.0,0.0,0.0,0.0010441933991387486,-0.0021756188943982124,-0.0,0.0,0.0,0.0,0.0,0.0,0.0,0.0,0.0,0.0,0.0,0.0,0.0,0.0,0.0,0.0,0.0,0.0,0.0,0.0,0.0,0.0,0.0,1.6507415771484375,0.0027460646600177604,0.07865994628511601,-0.10739174805503572,0.00865392666310072,0.003194982185959816,0.0
536,5,6.682088837806077e-07,-2.1957559511065483e-05,-4.2340747313573956e-05,0.002465346362441778,0.0004975386545993388,0.0035525753628462553,0.0,0.0,0.0,0.0,0.0,0.0,0.0,0.0,0.0,-0.0006495455163531005,0.002324019093066454,-0.0,0.0,0.0,0.0,0.0,0.0,0.0,0.0,0.0,0.0,0.0,0.0,0.0,0.0,0.0,0.0,0.0,0.0,0.0,0.0,0.0,0.0,0.0,1.651374101638794,0.004351852702361615,0.07891331729084389,-0.10780561301582296,-0.00924776028841734,-0.0019882158376276493,0.0
542,5,-1.163526758318767e-05,-1.0003043826145586e-05,-2.8443142582545988e-05,-0.0004902787040919065,-0.0012355264043435454,-0.0002466823789291084,0.0,0.0,0.0,0.0,0.0,0.0,0.0,0.0,0.0,-0.0006495455163531005,0.002324019093066454,-0.0,0.0,0.0,0.0,0.0,0.0,0.0,0.0,0.0,0.0,0.0,0.0,0.0,0.0,0.0,0.0,0.0,0.0,0.0,0.0,0.0,0.0,0.0,1.651374101638794,0.004477846229422865,0.07927142596373214,-0.10800080994029862,-0.00924776028841734,-0.0019882158376276493,0.0
547,5,-1.2606442396645434e-05,-3.7114027691131923e-06,-1.631891973374877e-05,-0.00031265238067135215,-0.0012492075329646468,-0.0015535798156633973,0.0,0.0,0.0,0.0,0.0,0.0,0.0,0.0,0.0,0.0015348555753007531,-0.0003147099050693214,-0.0,0.0,0.0,0.0,0.0,0.0,0.0,0.0,0.0,0.0,0.0,0.0,0.0,0.0,0.0,0.0,0.0,0.0,0.0,0.0,0.0,0.0,0.0,1.6388376951217651,0.005499174981996369,0.07981365623462482,-0.10867843364984923,0.0012427900219336152,0.0046624233946204185,0.0
552,5,-4.591579454427119e-06,-9.055188456841279e-06,-4.2529223719611764e-05,0.0008367226109839976,0.00014157129044178873,0.002523804549127817,0.0,0.0,0.0,0.0,0.0,0.0,0.0,0.0,0.0,0.0015348555753007531,-0.0003147099050693214,-0.0,0.0,0.0,0.0,0.0,0.0,0.0,0.0,0.0,0.0,0.0,0.0,0.0,0.0,0.0,0.0,0.0,0.0,0.0,0.0,0.0,0.0,0.0,1.6388376951217651,0.00467383412471006,0.07926430836275702,-0.10773048890527893,0.0012427900219336152,0.0046624233946204185,0.0
557,5,5.861386398464674e-07,-9.794914149097167e-06,-3.906321580871008e-05,0.000956015195697546,0.00014539557741954923,0.0005936009110882878,0.0,0.0,0.0,0.0,0.0,0.0,0.0,0.0,0.0,0.0015348555753007531,-0.0003147099050693214,-0.0,0.0,0.0,0.0,0.0,0.0,0.0,0.0,0.0,0.0,0.0,0.0,0.0,0.0,0.0,0.0,0.0,0.0,0.0,0.0,0.0,0.0,0.0,1.6388376951217651,0.005051257273310076,0.07970781427712371,-0.10799228755537137,0.0012427900219336152,0.0046624233946204185,0.0
562,5,-7.022673798928736e-06,1.2375293408695143e-05,3.0295588658191264e-05,-0.0005306514212861657,-0.002602266613394022,-0.008085615932941437,0.0,0.0,0.0,0.0,0.0,0.0,0.0,0.0,0.0,-0.00019818138389382511,0.0009101881878450513,-0.0,0.0,0.0,0.0,0.0,0.0,0.0,0.0,0.0,0.0,0.0,0.0,0.0,0.0,0.0,0.0,0.0,0.0,0.0,0.0,0.0,0.0,0.0,1.6356168985366821,0.004075418459499818,0.07989756299128838,-0.10791309460887022,-0.003587274579331279,-0.0006008319323882461,0.0
567,5,-4.193357483472937e-07,-8.075043297139928e-06,-1.2851397514168639e-05,0.0005801399820484221,0.001413133810274303,0.0019433918641880155,0.0,0.0,0.0,0.0,0.0,0.0,0.0,0.0,0.0,-0.0017569524934515357,0.0005492084310390055,-0.0,0.0,0.0,0.0,0.0,0.0,0.0,0.0,0.0,0.0,0.0,0.0,0.0,0.0,0.0,0.0,0.0,0.0,0.0,0.0,0.0,0.0,0.0,1.6413968801498413,0.005238107280169076,0.07934367523926349,-0.10806603121515809,-0.0021722109522670507,-0.0053454190492630005,0.0
572,5,-3.7354970118030906e-05,-2.190936174883973e-05,4.308635834604502e-05,-0.0042002201080322266,0.002225371776148677,-0.005935173947364092,0.0,0.0,0.0,0.0,0.0,0.0,0.0,0.0,0.0,-0.0017569524934515357,0.0005492084310390055,-0.0,0.0,0.0,0.0,0.0,0.0,0.0,0.0,0.0,0.0,0.0,0.0,0.0,0.0,0.0,0.0,0.0,0.0,0.0,0.0,0.0,0.0,0.0,1.6413968801498413,0.0028391079112653718,0.07968838884557002,-0.10834207054365093,-0.0021722109522670507,-0.0053454190492630005,0.0
577,5,-1.8316524119654787e-06,-1.9187911675544456e-05,-4.5492517529055476e-05,0.002582710236310959,0.0005635748384520411,0.008255396038293839,0.0,0.0,0.0,0.0,0.0,0.0,0.0,0.0,0.0,-0.0017569524934515357,0.0005492084310390055,-0.0,0.0,0.0,0.0,0.0,0.0,0.0,0.0,0.0,0.0,0.0,0.0,0.0,0.0,0.0,0.0,0.0,0.0,0.0,0.0,0.0,0.0,0.0,1.6413968801498413,0.003475834349114117,0.07868987580203075,-0.107739018805609,-0.0021722109522670507,-0.0053454190492630005,0.0
582,5,-9.55754967435496e-06,-2.0995919840061106e-05,-2.392136048001703e-05,0.0001059764254023321,0.00044239076669327915,0.0007136193453334272,0.0,0.0,0.0,0.0,0.0,0.0,0.0,0.0,0.0,-0.0007249641348607838,0.0024293006863445044,-0.0,0.0,0.0,0.0,0.0,0.0,0.0,0.0,0.0,0.0,0.0,0.0,0.0,0.0,0.0,0.0,0.0,0.0,0.0,0.0,0.0,0.0,0.0,1.6526345014572144,0.00473105182810891,0.07958199658491377,-0.10824773995770076,-0.009674075059592724,-0.0022207610309123993,0.0
587,5,9.230322575604077e-06,-8.054949830693658e-06,-4.241711940267123e-05,0.0022969350684434175,-0.0013759600697085261,0.0025049385149031878,0.0,0.0,0.0,0.0,0.0,0.0,0.0,0.0,0.0,-0.0007249641348607838,0.0024293006863445044,-0.0,0.0,0.0,0.0,0.0,0.0,0.0,0.0,0.0,0.0,0.0,0.0,0.0,0.0,0.0,0.0,0.0,0.0,0.0,0.0,0.0,0.0,0.0,1.6526345014572144,0.004725181475950585,0.07965633815597685,-0.1079153801990463,-0.009674075059592724,-0.0022207610309123993,0.0
593,5,1.018669172481168e-05,-5.902593329665251e-06,-7.165074202930555e-05,0.0010335383703932166,-0.0008086668676696718,0.004510010592639446,0.0,0.0,0.0,0.0,0.0,0.0,0.0,0.0,0.0,0.0016689933836460114,0.0021750018931925297,-0.0,0.0,0.0,0.0,0.0,0.0,0.0,0.0,0.0,0.0,0.0,0.0,0.0,0.0,0.0,0.0,0.0,0.0,0.0,0.0,0.0,0.0,0.0,1.6529978513717651,0.0037059441597549793,0.07897163956014233,-0.10712813434091242,-0.008663291111588478,0.005113698076456785,0.0
598,5,3.5060816117038485e-06,-6.209669209056301e-06,-5.039402094553225e-05,-0.00038825784577056766,-0.0002866176073439419,-0.0007468025432899594,0.0,0.0,0.0,0.0,0.0,0.0,0.0,0.0,0.0,0.0016689933836460114,0.0021750018931925297,-0.0,0.0,0.0,0.0,0.0,0.0,0.0,0.0,0.0,0.0,0.0,0.0,0.0,0.0,0.0,0.0,0.0,0.0,0.0,0.0,0.0,0.0,0.0,1.6529978513717651,0.003873798385708373,0.07914719920888222,-0.10718940319784717,-0.008663291111588478,0.005113698076456785,0.0
603,5,-2.0374411178636365e-05,-2.9151817670935998e-06,4.51101459475467e-06,-0.0030209622345864773,-0.000509985547978431,-0.006887325085699558,0.0,0.0,0.0,0.0,0.0,0.0,0.0,0.0,0.0,0.00034370244247838855,-0.00036590229137800634,-0.0,0.0,0.0,0.0,0.0,0.0,0.0,0.0,0.0,0.0,0.0,0.0,0.0,0.0,0.0,0.0,0.0,0.0,0.0,0.0,0.0,0.0,0.0,1.6305608749389648,0.003384290553461565,0.0791883941133136,-0.10787119513842056,0.0014376528561115265,0.001038791029714048,0.0
608,5,-6.665595009280878e-08,9.415738531970419e-06,7.05955073954101e-07,0.0012285456759855151,-0.0016837046714499593,-0.0022983229719102383,0.0,0.0,0.0,0.0,0.0,0.0,0.0,0.0,0.0,0.00034370244247838855,-0.00036590229137800634,-0.0,0.0,0.0,0.0,0.0,0.0,0.0,0.0,0.0,0.0,0.0,0.0,0.0,0.0,0.0,0.0,0.0,0.0,0.0,0.0,0.0,0.0,0.0,1.6305608749389648,0.005070602723026625,0.0793074139741414,-0.10842895855984716,0.0014376528561115265,0.001038791029714048,0.0
613,5,2.896029855037341e-06,-2.281865818076767e-06,-3.1976411264622584e-05,0.0008469405584037304,0.0007302307058125734,0.003002554876729846,0.0,0.0,0.0,0.0,0.0,0.0,0.0,0.0,0.0,0.0020845234394073486,0.0011604895116761327,-0.0,0.0,0.0,0.0,0.0,0.0,0.0,0.0,0.0,0.0,0.0,0.0,0.0,0.0,0.0,0.0,0.0,0.0,0.0,0.0,0.0,0.0,0.0,1.6470414400100708,0.0038974164654871964,0.07905990728565306,-0.10775700084299926,-0.004605710040777922,0.0063638403080403805,0.0
618,5,1.3373215551837347e-05,-1.0084284440381452e-05,-5.8483561588218436e-05,0.0015960385790094733,0.0012283824617043138,0.004381880164146423,0.0,0.0,0.0,0.0,0.0,0.0,0.0,0.0,0.0,0.0020845234394073486,0.0011604895116761327,-0.0,0.0,0.0,0.0,0.0,0.0,0.0,0.0,0.0,0.0,0.0,0.0,0.0,0.0,0.0,0.0,0.0,0.0,0.0,0.0,0.0,0.0,0.0,1.6470414400100708,0.0046954010066796,0.0791045826383176,-0.10764572037213094,-0.004605710040777922,0.0063638403080403805,0.0
623,5,8.489886567986105e-06,2.2859580894873943e-06,-2.26432312047109e-05,5.241588223725557e-05,-0.0009930760134011507,-0.0025480876211076975,0.0,0.0,0.0,0.0,0.0,0.0,0.0,0.0,0.0,-0.0015281813684850931,0.001526889856904745,-0.0,0.0,0.0,0.0,0.0,0.0,0.0,0.0,0.0,0.0,0.0,0.0,0.0,0.0,0.0,0.0,0.0,0.0,0.0,0.0,0.0,0.0,0.0,1.6464712619781494,0.0035500306311166815,0.07910353087584751,-0.10745707398099723,-0.006057774648070335,-0.004663771949708462,0.0
628,5,-1.4915489373379387e-05,3.34181777361664e-06,1.3352868336369283e-05,-0.002787678735330701,-0.0005239335587248206,-0.005338767077773809,0.0,0.0,0.0,0.0,0.0,0.0,0.0,0.0,0.0,-0.0015281813684850931,0.001526889856904745,-0.0,0.0,0.0,0.0,0.0,0.0,0.0,0.0,0.0,0.0,0.0,0.0,0.0,0.0,0.0,0.0,0.0,0.0,0.0,0.0,0.0,0.0,0.0,1.6464712619781494,0.002657134956881999,0.07917166743673432,-0.10763387747099933,-0.006057774648070335,-0.004663771949708462,0.0
633,5,-1.0560038390394766e-06,-4.20338483309024e-06,2.3923406843096018e-05,0.0005480667459778488,0.0006958508747629821,-0.0034039714373648167,0.0,0.0,0.0,0.0,0.0,0.0,0.0,0.0,0.0,0.0006459422875195742,-0.0026425097603350878,-0.0,0.0,0.0,0.0,0.0,0.0,0.0,0.0,0.0,0.0,0.0,0.0,0.0,0.0,0.0,0.0,0.0,0.0,0.0,0.0,0.0,0.0,0.0,1.6547831296920776,0.004831973628066519,0.07937367950987158,-0.10812440049981657,0.010536805726587772,0.0019812684040516615,0.0
638,5,8.361971595149953e-06,-2.515127107471926e-06,2.591613338154275e-06,0.001349383732303977,7.57494053686969e-05,0.0011982267023995519,0.0,0.0,0.0,0.0,0.0,0.0,0.0,0.0,0.0,0.0006459422875195742,-0.0026425097603350878,-0.0,0.0,0.0,0.0,0.0,0.0,0.0,0.0,0.0,0.0,0.0,0.0,0.0,0.0,0.0,0.0,0.0,0.0,0.0,0.0,0.0,0.0,0.0,1.6547831296920776,0.0053685484935802295,0.07923846201933396,-0.10814617878250585,0.010536805726587772,0.0019812684040516615,0.0
644,5,-3.0294066164060496e-05,-1.0180678145843558e-05,-9.063045581569895e-06,-0.00238682609051466,0.0004384291241876781,0.0017237394349649549,0.0,0.0,0.0,0.0,0.0,0.0,0.0,0.0,0.0,-9.863453306024894e-05,0.0012921735178679228,-0.0,0.0,0.0,0.0,0.0,0.0,0.0,0.0,0.0,0.0,0.0,0.0,0.0,0.0,0.0,0.0,0.0,0.0,0.0,0.0,0.0,0.0,0.0,1.6396193504333496,0.0031038860753699214,0.07868554154850475,-0.10734297426699071,-0.00510523421689868,-0.0002997647679876536,0.0
649,5,-4.581035227602115e-06,-1.892670184133749e-06,1.7044922060449608e-05,0.0021308332215994596,-0.0008191892993636429,-0.0024434602819383144,0.0,0.0,0.0,0.0,0.0,0.0,0.0,0.0,0.0,-9.863453306024894e-05,0.0012921735178679228,-0.0,0.0,0.0,0.0,0.0,0.0,0.0,0.0,0.0,0.0,0.0,0.0,0.0,0.0,0.0,0.0,0.0,0.0,0.0,0.0,0.0,0.0,0.0,1.6396193504333496,0.004102144954416751,0.07951119029366321,-0.10801742217273087,-0.00510523421689868,-0.0002997647679876536,0.0
654,5,-2.6934083507512696e-05,-2.6464538223081036e-06,-1.5972596884239465e-05,-0.0018300324445590377,-0.00023722169862594455,0.0029847181867808104,0.0,0.0,0.0,0.0,0.0,0.0,0.0,0.0,0.0,0.0010011066915467381,0.002004560548812151,-0.0,0.0,0.0,0.0,0.0,0.0,0.0,0.0,0.0,0.0,0.0,0.0,0.0,0.0,0.0,0.0,0.0,0.0,0.0,0.0,0.0,0.0,0.0,1.6488689184188843,0.0033468347934209053,0.07857229508063163,-0.1074557289227903,-0.007964466698467731,0.0030596721917390823,0.0
659,5,5.472878456203034e-06,3.7803918075951515e-06,-1.094024810299743e-05,0.003156822407618165,-0.0008661101455800235,0.000590005423873663,0.0,0.0,0.0,0.0,0.0,0.0,0.0,0.0,0.0,0.0010011066915467381,0.002004560548812151,-0.0,0.0,0.0,0.0,0.0,0.0,0.0,0.0,0.0,0.0,0.0,0.0,0.0,0.0,0.0,0.0,0.0,0.0,0.0,0.0,0.0,0.0,0.0,1.6488689184188843,0.003634050765273591,0.07904972667220818,-0.10762018774927394,-0.007964466698467731,0.0030596721917390823,0.0
664,5,-2.1892292352276854e-05,-5.536134267458692e-06,5.8814675867324695e-06,-0.0020210915245115757,0.0007715390529483557,-0.0017826036782935262,0.0,0.0,0.0,0.0,0.0,0.0,0.0,0.0,0.0,0.0010623213602229953,0.002968487096950412,-0.0,0.0,0.0,0.0,0.0,0.0,0.0,0.0,0.0,0.0,0.0,0.0,0.0,0.0,0.0,0.0,0.0,0.0,0.0,0.0,0.0,0.0,0.0,1.6590657234191895,0.0038902203377932415,0.07913845997482298,-0.10783411687182028,-0.011867241933941841,0.003266840474680066,0.0
669,5,2.7537425921764225e-06,-1.3383546502154786e-05,-1.848028477979824e-05,0.0021490876097232103,0.0012503050966188312,0.002210368635132909,0.0,0.0,0.0,0.0,0.0,0.0,0.0,0.0,0.0,0.0010623213602229953,0.002968487096950412,-0.0,0.0,0.0,0.0,0.0,0.0,0.0,0.0,0.0,0.0,0.0,0.0,0.0,0.0,0.0,0.0,0.0,0.0,0.0,0.0,0.0,0.0,0.0,1.6590657234191895,0.00492950390370996,0.079460751526944,-0.10795317440512553,-0.011867241933941841,0.003266840474680066,0.0
674,5,-8.070253898040392e-06,-1.416341638105223e-05,-1.1105394150945358e-05,-0.00043924449710175395,0.0005937064997851849,-8.393157031605369e-07,0.0,0.0,0.0,0.0,0.0,0.0,0.0,0.0,0.0,-0.001556658186018467,0.0020291502587497234,-0.0,0.0,0.0,0.0,0.0,0.0,0.0,0.0,0.0,0.0,0.0,0.0,0.0,0.0,0.0,0.0,0.0,0.0,0.0,0.0,0.0,0.0,0.0,1.6511454582214355,0.005165564416509046,0.07891645521010922,-0.1079827340873739,-0.008073290809988976,-0.004764165263622999,0.0
679,5,-1.7755406588548794e-05,-1.135468301072251e-05,3.3495201932964846e-05,-0.0013379160081967711,-9.95654845610261e-05,-0.005352407228201628,0.0,0.0,0.0,0.0,0.0,0.0,0.0,0.0,0.0,0.00010166106949327514,-0.0012948329094797373,-0.0,0.0,0.0,0.0,0.0,0.0,0.0,0.0,0.0,0.0,0.0,0.0,0.0,0.0,0.0,0.0,0.0,0.0,0.0,0.0,0.0,0.0,0.0,1.639649510383606,0.0045040067344439515,0.07904370933366325,-0.10817148829621429,0.00511583499610424,0.0003089685342274606,0.0
684,5,6.452811248891521e-06,-1.7713844499667175e-05,-3.26397675962653e-05,0.002369819674640894,0.0007232731441035867,0.00579523341730237,0.0,0.0,0.0,0.0,0.0,0.0,0.0,0.0,0.0,0.00010166106949327514,-0.0012948329094797373,-0.0,0.0,0.0,0.0,0.0,0.0,0.0,0.0,0.0,0.0,0.0,0.0,0.0,0.0,0.0,0.0,0.0,0.0,0.0,0.0,0.0,0.0,0.0,1.639649510383606,0.005085834896033501,0.079113278818387,-0.10817482602838405,0.00511583499610424,0.0003089685342274606,0.0
689,5,-3.440397631493397e-05,-5.599312089543673e-07,1.8092405298375525e-05,-0.003954886458814144,-0.0017691602697595954,-0.0037697674706578255,0.0,0.0,0.0,0.0,0.0,0.0,0.0,0.0,0.0,0.00010166106949327514,-0.0012948329094797373,-0.0,0.0,0.0,0.0,0.0,0.0,0.0,0.0,0.0,0.0,0.0,0.0,0.0,0.0,0.0,0.0,0.0,0.0,0.0,0.0,0.0,0.0,0.0,1.639649510383606,0.004303748551197031,0.07937447707504938,-0.10838321462364052,0.00511583499610424,0.0003089685342274606,0.0
694,5,-2.9130551411071792e-06,-1.5207659998850431e-05,-3.375005690031685e-05,0.0021969557274132967,0.0010500634089112282,0.004713188391178846,0.0,0.0,0.0,0.0,0.0,0.0,0.0,0.0,0.0,0.0021414547227323055,-0.003732515498995781,-0.0,0.0,0.0,0.0,0.0,0.0,0.0,0.0,0.0,0.0,0.0,0.0,0.0,0.0,0.0,0.0,0.0,0.0,0.0,0.0,0.0,0.0,0.0,1.6701366901397705,0.004947844954785438,0.07934308133829025,-0.10782075643823434,0.01502116210758686,0.006629317998886108,0.0
699,5,1.911924528030795e-06,-5.0993412514799275e-06,-3.021689917659387e-05,0.0014577799011021852,-0.0007929729181341827,0.0014612963423132896,0.0,0.0,0.0,0.0,0.0,0.0,0.0,0.0,0.0,0.0021414547227323055,-0.003732515498995781,-0.0,0.0,0.0,0.0,0.0,0.0,0.0,0.0,0.0,0.0,0.0,0.0,0.0,0.0,0.0,0.0,0.0,0.0,0.0,0.0,0.0,0.0,0.0,1.6701366901397705,0.0037092697481098304,0.07934035534643229,-0.10735446935857802,0.01502116210758686,0.006629317998886108,0.0
705,5,-5.644774773827521e-06,-2.8075876343791606e-06,-2.4656283130752854e-06,-0.000323691958328709,-0.000592199619859457,-0.0027456339448690414,0.0,0.0,0.0,0.0,0.0,0.0,0.0,0.0,0.0,0.0009668103884905577,0.001383517635986209,-0.0,0.0,0.0,0.0,0.0,0.0,0.0,0.0,0.0,0.0,0.0,0.0,0.0,0.0,0.0,0.0,0.0,0.0,0.0,0.0,0.0,0.0,0.0,1.6426068544387817,0.004536229747416014,0.07901293626227145,-0.10743100032933621,-0.005476081278175116,0.0029436310287564993,0.0
710,5,-3.6754663597093895e-05,-1.4970077245379798e-05,1.436141064914409e-05,-0.0038626634050160646,0.001222618855535984,-0.003117498243227601,0.0,0.0,0.0,0.0,0.0,0.0,0.0,0.0,0.0,0.0009668103884905577,0.001383517635986209,-0.0,0.0,0.0,0.0,0.0,0.0,0.0,0.0,0.0,0.0,0.0,0.0,0.0,0.0,0.0,0.0,0.0,0.0,0.0,0.0,0.0,0.0,0.0,1.6426068544387817,0.002796344012757514,0.07925375687741405,-0.10759608415297384,-0.005476081278175116,0.0029436310287564993,0.0
715,5,-2.029940515058115e-05,-2.352569208596833e-05,-2.9587117751361802e-05,0.00042956569814123213,0.0015157214365899563,0.00402682414278388,0.0,0.0,0.0,0.0,0.0,0.0,0.0,0.0,0.0,-0.0019106860272586346,0.0003786094603128731,-0.0,0.0,0.0,0.0,0.0,0.0,0.0,0.0,0.0,0.0,0.0,0.0,0.0,0.0,0.0,0.0,0.0,0.0,0.0,0.0,0.0,0.0,0.0,1.6420341730117798,0.00516311470050123,0.07920717752083535,-0.108115424708266,-0.0014980447012931108,-0.005815400276333094,0.0
720,5,-2.775787106656935e-05,-1.9224296920583583e-05,-1.9210399841540493e-05,-0.0007231895579025149,9.012106602312997e-05,0.0003655235341284424,0.0,0.0,0.0,0.0,0.0,0.0,0.0,0.0,0.0,-0.0019106860272586346,0.0003786094603128731,-0.0,0.0,0.0,0.0,0.0,0.0,0.0,0.0,0.0,0.0,0.0,0.0,0.0,0.0,0.0,0.0,0.0,0.0,0.0,0.0,0.0,0.0,0.0,1.6420341730117798,0.0037825043556151327,0.07868741519267464,-0.10785849728024122,-0.0014980447012931108,-0.005815400276333094,0.0
