timestamp,dt,pos_x,pos_y,pos_z,vel_x,vel_y,vel_z,roll,pitch,yaw,agv_x,agv_y,agv_z,x_ref,y_ref,z_ref,roll_ref,pitch_ref,yaw_ref,x_vel_ref,y_vel_ref,z_vel_ref,x_torque,y_torque,z_torque,w0,w1,w2,w3,u0,u1,u2,u3,m0req,m1req,m2req,m3req,thrust0,thrust1,thrust2,thrust3,thrust_ref,roll_vicon,pitch_vicon,yaw_vicon,acc_x,acc_y,acc_z
5,5,0.0,0.0,0.0,0.00018081687449011952,-0.0007050895364955068,0.0013375146081671119,0.05649903416633606,-0.022471068426966667,-0.0022103916853666306,-0.00032408713013865054,-0.0018485119799152017,0.0021975375711917877,0.0,0.0,0.0,0.0008734530420042574,0.00017230224329978228,-0.0,0.0,0.0,0.0,-0.01686732843518257,0.006991666276007891,-0.00041016741306521,1495.0,1495.0,1495.0,1495.0,0.0,0.0,0.0,0.0,0.0,0.0,0.0,0.0,1495.0,1495.0,1495.0,1495.0,1.6331554651260376,-0.023677776028529843,0.10966970298085263,0.16230723433067662,-0.0006780632538720965,0.002644085790961981,0.0
28,23,0.0,0.0,0.0,0.0002549140772316605,0.0014805149985477328,-0.0009727803408168256,0.05649903416633606,-0.022471068426966667,-0.0022103916853666306,-0.00032408713013865054,-0.0018485119799152017,0.0021975375711917877,0.0,0.0,0.0,0.0008734530420042574,0.00017230224329978228,-0.0,0.0,0.0,0.0,-0.01686732843518257,0.006991666276007891,-0.00041016741306521,1495.0,1495.0,1495.0,1495.0,0.0,0.0,0.0,0.0,0.0,0.0,0.0,0.0,1495.0,1495.0,1495.0,1495.0,1.6331554651260376,-0.0233811295873892,0.11017621776612671,0.16205079338133407,-0.0006780632538720965,0.002644085790961981,0.0
33,5,0.0,0.0,0.0,-0.0004319714498706162,0.0012201707577332854,-0.0011026387801393867,0.056481096893548965,-0.022525548934936523,-0.0022319438867270947,-0.0007188625750131905,0.006678861565887928,-0.004960986319929361,0.0,0.0,0.0,-0.001506215427070856,-0.00041018365300260484,-0.0,0.0,0.0,0.0,-0.01664206199347973,0.006738004274666309,-0.0002620877930894494,1495.0,1495.0,1495.0,1495.0,0.0,0.0,0.0,0.0,0.0,0.0,0.0,0.0,1495.0,1495.0,1495.0,1495.0,1.6389154195785522,-0.023572189555489273,0.10992776223322205,0.1621627918540109,0.001619892893359065,-0.004575640428811312,0.0
38,5,0.0,0.0,0.0,-0.0010656651575118303,0.001284174737520516,-0.0008975630044005811,0.056481096893548965,-0.022525548934936523,-0.0022319438867270947,-0.0007188625750131905,0.006678861565887928,-0.004960986319929361,0.0,0.0,0.0,-0.001506215427070856,-0.00041018365300260484,-0.0,0.0,0.0,0.0,-0.01664206199347973,0.006738004274666309,-0.0002620877930894494,1495.0,1495.0,1495.0,1495.0,0.0,0.0,0.0,0.0,0.0,0.0,0.0,0.0,1495.0,1495.0,1495.0,1495.0,1.6389154195785522,-0.023514524987578358,0.11035847213919683,0.16226526666541166,0.001619892893359065,-0.004575640428811312,0.0
53,15,0.0,0.0,0.0,-0.0005978189292363822,0.0001864582736743614,-0.0007455027662217617,0.056471966207027435,-0.02250666357576847,-0.0022569098509848118,-0.0019828742370009422,-0.007634103298187256,-0.0017750642728060484,0.0,0.0,0.0,-0.001506215427070856,-0.00041018365300260484,-0.0,0.0,0.0,0.0,-0.01664206199347973,0.006738004274666309,-0.0002620877930894494,1495.0,1495.0,1495.0,1495.0,0.0,0.0,0.0,0.0,0.0,0.0,0.0,0.0,1495.0,1495.0,1495.0,1495.0,1.6389154195785522,-0.023366822763600935,0.10987991207082067,0.162363532723527,0.002241821028292179,-0.0006992185371927917,0.0
58,5,0.0,0.0,0.0,0.00039113880484364927,-0.0007827852969057858,0.0012414926895871758,0.056471966207027435,-0.02250666357576847,-0.0022569098509848118,-0.0019828742370009422,-0.007634103298187256,-0.0017750642728060484,0.0,0.0,0.0,0.0009688132558949292,0.0003723788831848651,-0.0,0.0,0.0,0.0,-0.01664206199347973,0.006738004274666309,-0.0002620877930894494,1495.0,1495.0,1495.0,1495.0,0.0,0.0,0.0,0.0,0.0,0.0,0.0,0.0,1495.0,1495.0,1495.0,1495.0,1.6346524953842163,-0.023177652159592756,0.10939778270076253,0.16208136252643085,-0.0014667705399915576,0.002935444936156273,0.0
64,6,9.380776646139566e-06,7.3746059570112266e-06,-8.593778147769626e-06,0.00128214864525944,-0.0011980668641626835,0.0015278503997251391,0.056471966207027435,-0.02250666357576847,-0.0022569098509848118,-0.0019828742370009422,-0.007634103298187256,-0.0017750642728060484,0.0,0.0,0.0,0.0009688132558949292,0.0003723788831848651,-0.0,0.0,0.0,0.0,-0.01664206199347973,0.006738004274666309,-0.0002620877930894494,1495.0,1495.0,1495.0,1495.0,0.0,0.0,0.0,0.0,0.0,0.0,0.0,0.0,1495.0,1495.0,1495.0,1495.0,1.6346524953842163,-0.02366504738305223,0.10918844036488225,0.16177221108477785,-0.0014667705399915576,0.002935444936156273,0.0
69,5,1.2058866559527814e-05,4.673264356824802e-06,-1.2172737115179189e-05,0.0008342302753590047,-0.00015506577619817108,0.001040615257807076,0.05648880824446678,-0.02247406356036663,-0.0022617019712924957,-0.0007357069407589734,-0.004051725380122662,0.0013080016942694783,0.0,0.0,0.0,0.00020041516108904034,0.0008111071074381471,-0.0,0.0,0.0,0.0,-0.016709452494978905,0.006777009926736355,-0.0002770551363937557,14955.0,14245.0,11704.0,12966.0,0.5048456192016602,0.45555081963539124,0.2997082769870758,0.3730507791042328,0.0,0.0,0.0,0.0,14982.0,14216.0,11758.0,12918.0,1.6345720291137695,-0.023816389118286416,0.10951618710970847,0.16172689940867513,-0.0031947295647114515,0.0006072159740142524,0.0
77,7,6.382862011378165e-06,-4.260507921571843e-06,-5.466137281473493e-06,0.00018854596419259906,0.0008729308610782027,3.5975999708171003e-06,0.05648880824446678,-0.02247406356036663,-0.0022617019712924957,-0.0007357069407589734,-0.004051725380122662,0.0013080016942694783,0.0,0.0,0.0,0.00020041516108904034,0.0008111071074381471,-0.0,0.0,0.0,0.0,-0.016709452494978905,0.006777009926736355,-0.0002770551363937557,14955.0,14245.0,11704.0,12966.0,0.5048456192016602,0.45555081963539124,0.2997082769870758,0.3730507791042328,0.0,0.0,0.0,0.0,14982.0,14216.0,11758.0,12918.0,1.6345720291137695,-0.02364067669782528,0.11025002028342426,0.16230612852283055,-0.0031947295647114515,0.0006072159740142524,0.0
82,5,-9.23071911529405e-06,2.177633859901107e-06,1.3505811693903524e-05,-0.0017982113640755415,-0.0004234046791680157,-0.002275194739922881,0.05647697299718857,-0.02244865708053112,-0.002263786271214485,-0.0017333977157250047,0.0027705419342964888,4.676326716435142e-05,0.0,0.0,0.0,0.00020041516108904034,0.0008111071074381471,-0.0,0.0,0.0,0.0,-0.016646182164549828,0.006912861485034227,-0.00033843531855382025,14946.0,14251.0,11671.0,12999.0,0.5042063593864441,0.455971896648407,0.29790687561035156,0.37507033348083496,0.0,0.0,0.0,0.0,14977.0,14229.0,11718.0,12945.0,1.6345720291137695,-0.023301333144435655,0.11010873145661162,0.16231276506492726,-0.0031947295647114515,0.0006072159740142524,0.0
87,5,2.5327001367259072e-06,-3.0808805604465306e-06,1.3080334611004218e-05,0.0006923258188180625,0.0004616598307620734,-0.0008590206853114069,0.05647280439734459,-0.022466648370027542,-0.002252923557534814,-0.001129585667513311,-0.0010327964555472136,0.002057591686025262,0.0,0.0,0.0,0.0005247707013040781,-0.001714344834908843,-0.0,0.0,0.0,0.0,-0.01700626127421856,0.006658765487372875,-0.0003113847633358091,14961.0,14273.0,11684.0,12928.0,0.505334734916687,0.45744097232818604,0.2985941171646118,0.3707508444786072,0.0,0.0,0.0,0.0,14996.0,14209.0,11749.0,12943.0,1.6446709632873535,-0.023579850867301654,0.10954096621155154,0.1622495636600253,0.006794051732867956,0.0015997685259208083,0.0
92,5,1.8602975160320057e-06,-6.385990673152264e-06,1.8755419660010375e-05,0.00019624199194367975,0.0005812771851196885,-0.001024618512019515,0.05647280439734459,-0.022466648370027542,-0.002252923557534814,-0.001129585667513311,-0.0010327964555472136,0.002057591686025262,0.0,0.0,0.0,0.0005247707013040781,-0.001714344834908843,-0.0,0.0,0.0,0.0,-0.01700626127421856,0.006658765487372875,-0.0003113847633358091,14961.0,14273.0,11684.0,12928.0,0.505334734916687,0.45744097232818604,0.2985941171646118,0.3707508444786072,0.0,0.0,0.0,0.0,14996.0,14209.0,11749.0,12943.0,1.6446709632873535,-0.023553540926884886,0.10994331314073186,0.1619976469073676,0.006794051732867956,0.0015997685259208083,0.0
97,5,6.342675533232978e-06,-1.0480453966010828e-05,1.9679713659570552e-05,0.0006163821672089398,0.0007238464895635843,-0.0005207625799812376,0.05647280439734459,-0.022466648370027542,-0.002252923557534814,-0.001129585667513311,-0.0010327964555472136,0.002057591686025262,0.0,0.0,0.0,-0.0007321557495743036,0.00018972881662193686,-0.0,0.0,0.0,0.0,-0.01700626127421856,0.006658765487372875,-0.0003113847633358091,14961.0,14273.0,11684.0,12928.0,0.505334734916687,0.45744097232818604,0.2985941171646118,0.3707508444786072,0.0,0.0,0.0,0.0,14996.0,14209.0,11749.0,12943.0,1.6320905685424805,-0.02392100391015448,0.10979931780403669,0.16215401798351647,-0.0007461555069312453,-0.0022149106953293085,0.0
102,5,6.75424371365807e-06,-9.448644050280564e-06,2.473456879670266e-05,0.000295941048534587,0.00016572134336456656,-0.0008148877532221377,0.05645955726504326,-0.022480478510260582,-0.0022610160522162914,-0.0023843026719987392,0.003722698427736759,-0.0014055341016501188,0.0,0.0,0.0,-0.0007321557495743036,0.00018972881662193686,-0.0,0.0,0.0,0.0,-0.016979683190584183,0.007098069414496422,-0.00017603016749490052,14956.0,14251.0,11675.0,13008.0,0.5049635171890259,0.4559607207775116,0.298111230134964,0.37561699748039246,0.0,0.0,0.0,0.0,14970.0,14239.0,11687.0,12995.0,1.6320905685424805,-0.023628752695219975,0.10958373108545862,0.16208782577545824,-0.0007461555069312453,-0.0022149106953293085,0.0
107,5,4.363708740129368e-06,-1.8576182583274203e-06,1.1121283023385331e-05,-0.0001684877643128857,-0.0008446345455013216,0.0013076391769573092,0.05645955726504326,-0.022480478510260582,-0.0022610160522162914,-0.0023843026719987392,0.003722698427736759,-0.0014055341016501188,0.0,0.0,0.0,-0.00022298893600236624,0.0002921346458606422,-0.0,0.0,0.0,0.0,-0.016979683190584183,0.007098069414496422,-0.00017603016749490052,14956.0,14251.0,11675.0,13008.0,0.5049635171890259,0.4559607207775116,0.298111230134964,0.37561699748039246,0.0,0.0,0.0,0.0,14970.0,14239.0,11687.0,12995.0,1.6293563842773438,-0.023770427043086628,0.10964177777913815,0.16235762230741202,-0.001146967289969325,-0.0006734540220350027,0.0
112,5,-4.879163043369772e-06,-6.666578428848879e-06,-9.58469968281861e-07,-0.0011765396920964122,0.00023922139371279627,0.001972626196220517,0.05646686628460884,-0.022494357079267502,-0.002297288505360484,0.0029583571013063192,-0.0004891625139862299,0.0034384876489639282,0.0,0.0,0.0,-0.0003075514978263527,-0.0011245772475376725,-0.0,0.0,0.0,0.0,-0.017239179462194443,0.0068557714112102985,-0.0002032470511039719,15022.0,14240.0,11686.0,12892.0,0.5096943974494934,0.45516934990882874,0.29871299862861633,0.3685137927532196,0.0,0.0,0.0,0.0,14956.0,14349.0,11763.0,12984.0,1.6380531787872314,-0.02384044539341832,0.10968917930445414,0.16234181768852904,0.0044388361275196075,-0.0009338011732324958,0.0
122,10,-5.937380137766013e-06,2.491682380423299e-06,7.0758974288764875e-06,-0.0007420501788146794,-0.0011101014679297805,-0.00148875848390162,0.05646686628460884,-0.022494357079267502,-0.002297288505360484,0.0029583571013063192,-0.0004891625139862299,0.0034384876489639282,0.0,0.0,0.0,-0.0003075514978263527,-0.0011245772475376725,-0.0,0.0,0.0,0.0,-0.017239179462194443,0.0068557714112102985,-0.0002032470511039719,15022.0,14240.0,11686.0,12892.0,0.5096943974494934,0.45516934990882874,0.29871299862861633,0.3685137927532196,0.0,0.0,0.0,0.0,14956.0,14349.0,11763.0,12984.0,1.6380531787872314,-0.023575617792254092,0.10964645277680313,0.16222694634182536,0.0044388361275196075,-0.0009338011732324958,0.0
128,5,-6.094151558500016e-06,5.346579200704582e-06,3.5855550777341705e-06,-0.00031563264201395214,-0.0007866281666792929,-0.000176662317244336,0.05646686628460884,-0.022494357079267502,-0.002297288505360484,0.0029583571013063192,-0.0004891625139862299,0.0034384876489639282,0.0,0.0,0.0,0.0013744230382144451,-0.0007126755081117153,-0.0,0.0,0.0,0.0,-0.017239179462194443,0.0068557714112102985,-0.0002032470511039719,15022.0,14240.0,11686.0,12892.0,0.5096943974494934,0.45516934990882874,0.29871299862861633,0.3685137927532196,0.0,0.0,0.0,0.0,14956.0,14349.0,11763.0,12984.0,1.6394108533859253,-0.02346658795084016,0.10956365246507968,0.16209131167920798,0.0028153415769338608,0.0041765389032661915,0.0
133,5,-5.114230589242652e-06,-2.6903344405582175e-06,1.8187525711255148e-05,-8.662524123792537e-06,0.0006497783469967544,-0.001822901307605207,0.0564613863825798,-0.02247859723865986,-0.0022924693766981363,-0.0014726470690220594,-0.0005234077689237893,-0.0032365513034164906,0.0,0.0,0.0,0.0013744230382144451,-0.0007126755081117153,-0.0,0.0,0.0,0.0,-0.01709185540676117,0.006856259889900684,-0.00022292046924121678,14961.0,14262.0,11632.0,12943.0,0.5052729249000549,0.45669105648994446,0.2957451641559601,0.37164726853370667,0.0,0.0,0.0,0.0,14944.0,14277.0,11598.0,12976.0,1.6394108533859253,-0.023247677423880113,0.10934150479346742,0.1620388832535655,0.0028153415769338608,0.0041765389032661915,0.0
138,5,4.613201326719718e-06,-5.724505172111094e-06,2.3196140318759717e-05,0.0011638267897069454,0.0006240118527784944,-0.0013301944127306342,0.0564613863825798,-0.02247859723865986,-0.0022924693766981363,-0.0014726470690220594,-0.0005234077689237893,-0.0032365513034164906,0.0,0.0,0.0,0.0013744230382144451,-0.0007126755081117153,-0.0,0.0,0.0,0.0,-0.01709185540676117,0.006856259889900684,-0.00022292046924121678,14961.0,14262.0,11632.0,12943.0,0.5052729249000549,0.45669105648994446,0.2957451641559601,0.37164726853370667,0.0,0.0,0.0,0.0,14944.0,14277.0,11598.0,12976.0,1.6394108533859253,-0.02369496883142597,0.1094007722738659,0.16190462021259439,-0.004389741457998753,-0.0023715952411293983,0.0
143,5,7.41095846024109e-07,-2.852221041393932e-05,4.870356406172505e-06,8.780587563705922e-07,0.0029853293672204018,0.0016670163022354245,0.05645262449979782,-0.022512033581733704,-0.0023166784085333347,0.0011391323059797287,0.0025895079597830772,-0.0018776924116536975,0.0,0.0,0.0,-0.0007805099012330174,0.0011113057844340801,-0.0,0.0,0.0,0.0,-0.01663387380540371,0.006599831860512495,-0.00013488384138327092,14975.0,14319.0,11697.0,12947.0,0.5063289403915405,0.46054404973983765,0.29929864406585693,0.37188154458999634,0.0,0.0,0.0,0.0,14996.0,14294.0,11717.0,12932.0,1.639281988143921,-0.02343887310162474,0.1100402289417487,0.1621207602257517,-0.004389741457998753,-0.0023715952411293983,0.0
148,5,-1.1687266123772133e-05,-2.7139660232933238e-05,-7.343011930061039e-06,-0.001491052214987576,0.0010282257571816444,0.0021324106492102146,0.05645262449979782,-0.022512033581733704,-0.0023166784085333347,0.0011391323059797287,0.0025895079597830772,-0.0018776924116536975,0.0,0.0,0.0,-0.0013139544753357768,-0.0014272331027314067,-0.0,0.0,0.0,0.0,-0.01663387380540371,0.006599831860512495,-0.00013488384138327092,14975.0,14319.0,11697.0,12947.0,0.5063289403915405,0.46054404973983765,0.29929864406585693,0.37188154458999634,0.0,0.0,0.0,0.0,14996.0,14294.0,11717.0,12932.0,1.6445375680923462,-0.02393104137290345,0.11000066694450586,0.16240837113315418,0.005655748303979635,-0.004005275666713715,0.0
153,5,-1.0014494364440907e-05,-2.232660881418269e-05,3.107462816842599e-06,-0.00039568825741298497,-0.00016627598961349577,-0.0004010926641058177,0.0564514622092247,-0.02252664975821972,-0.002286883071064949,-0.0026094098575413227,-0.0017072538612410426,0.005499384365975857,0.0,0.0,0.0,-0.0013139544753357768,-0.0014272331027314067,-0.0,0.0,0.0,0.0,-0.017307354137301445,0.007223445922136307,-0.00017820802167989314,15011.0,14223.0,11815.0,12926.0,0.5088970065116882,0.4540739357471466,0.3058373034000397,0.3706025779247284,0.0,0.0,0.0,0.0,14974.0,14257.0,11794.0,12952.0,1.6445375680923462,-0.02388355878046067,0.11008708992510667,0.16252866857866213,0.005655748303979635,-0.004005275666713715,0.0
158,5,-6.655049674009206e-06,-1.8265895050717518e-05,-2.1288535208441317e-05,0.0002448580344207585,-0.0005537960678339005,0.0027670827694237232,0.0564514622092247,-0.02252664975821972,-0.002286883071064949,-0.0026094098575413227,-0.0017072538612410426,0.005499384365975857,0.0,0.0,0.0,0.0006533862324431539,0.00022422576148528606,-0.0,0.0,0.0,0.0,-0.017307354137301445,0.007223445922136307,-0.00017820802167989314,15011.0,14223.0,11815.0,12926.0,0.5088970065116882,0.4540739357471466,0.3058373034000397,0.3706025779247284,0.0,0.0,0.0,0.0,14974.0,14257.0,11794.0,12952.0,1.631619930267334,-0.023771166474013308,0.10990049429805494,0.162641648389285,-0.0008815689943730831,0.0019760478753596544,0.0
163,5,-3.0455155410891166e-06,-9.395159395353403e-06,-1.004274599836208e-05,0.0005310873384587467,-0.0012860066490247846,-0.00024266165564768016,0.056458547711372375,-0.022500285878777504,-0.0022465919610112906,0.00313407345674932,-0.0025409511290490627,0.008737635798752308,0.0,0.0,0.0,0.0006533862324431539,0.00022422576148528606,-0.0,0.0,0.0,0.0,-0.017555827274918556,0.006640961393713951,-0.0002878116792999208,14784.0,14603.0,11366.0,13244.0,0.4927651882171631,0.48011475801467896,0.2813979983329773,0.39025962352752686,0.0,0.0,0.0,0.0,15221.0,14102.0,11900.0,12731.0,1.631619930267334,-0.02367454264676568,0.10971721770418127,0.16215941318306049,-0.0008815689943730831,0.0019760478753596544,0.0
168,5,3.857224783132551e-06,5.497554411704186e-06,-2.2903703211341053e-05,0.0010407638037577271,-0.002301528351381421,0.0014462501276284456,0.056458547711372375,-0.022500285878777504,-0.0022465919610112906,0.00313407345674932,-0.0025409511290490627,0.008737635798752308,0.0,0.0,0.0,0.0006533862324431539,0.00022422576148528606,-0.0,0.0,0.0,0.0,-0.017555827274918556,0.006640961393713951,-0.0002878116792999208,14784.0,14603.0,11366.0,13244.0,0.4927651882171631,0.48011475801467896,0.2813979983329773,0.39025962352752686,0.0,0.0,0.0,0.0,15221.0,14102.0,11900.0,12731.0,1.631619930267334,-0.024070450259310254,0.10936336094138183,0.16145295604228582,-0.003924046643078327,0.008660761639475822,0.0
173,5,-1.0675985322450288e-05,4.436948529473739e-06,-3.355748049216345e-06,-0.0013276796089485288,-0.000793338636867702,-0.0017672545509412885,0.05665334314107895,-0.0223472211509943,-0.002447834936901927,0.021450668573379517,-0.057040195912122726,0.1408405601978302,0.0,0.0,0.0,0.002829225268214941,0.000986059196293354,-0.0,0.0,0.0,0.0,-0.017746543511748314,0.00515848258510232,0.00021035359532106668,15592.0,13604.0,12628.0,11970.0,0.5513017177581787,0.4131961166858673,0.3526308238506317,0.31449124217033386,0.0,0.0,0.0,0.0,13874.0,15466.0,10140.0,14192.0,1.6515095233917236,-0.023109503907423595,0.10947591984643949,0.16253530215146278,-0.003924046643078327,0.008660761639475822,0.0
178,5,-5.5104081297940866e-08,1.0109587492479477e-05,-1.637204513826873e-05,0.0007434338331222534,-0.000998052186332643,0.0008550537750124931,0.05665334314107895,-0.0223472211509943,-0.002447834936901927,0.021450668573379517,-0.057040195912122726,0.1408405601978302,0.0,0.0,0.0,0.002829225268214941,0.000986059196293354,-0.0,0.0,0.0,0.0,-0.017746543511748314,0.00515848258510232,0.00021035359532106668,15592.0,13604.0,12628.0,11970.0,0.5513017177581787,0.4131961166858673,0.3526308238506317,0.31449124217033386,0.0,0.0,0.0,0.0,13874.0,15466.0,10140.0,14192.0,1.6515095233917236,-0.02409884866084759,0.1092010284919502,0.16287875489644266,-0.003924046643078327,0.008660761639475822,0.0
184,5,2.6467856514500454e-05,-5.178297215024941e-06,-3.610992052927031e-06,0.003480128711089492,0.0014353253645822406,-0.0011893047485500574,0.056607287377119064,-0.022442050278186798,-0.001735987956635654,-0.02646408975124359,0.10834269970655441,-0.23167097568511963,0.0,0.0,0.0,0.0012505677295848727,0.0007060178904794157,-0.0,0.0,0.0,0.0,-0.016555573791265488,0.008969640359282494,-0.0016296855174005032,13745.0,15386.0,9584.0,14584.0,0.42233800888061523,0.5360723733901978,0.19444440305233002,0.478765070438385,0.0,0.0,0.0,0.0,16782.0,12079.0,14056.0,10241.0,1.6385287046432495,-0.02380699766359728,0.10989756251474568,0.1615764701906085,-0.0027875411324203014,0.003798128105700016,0.0
189,5,2.334703822270967e-05,-1.8498421923140995e-05,2.1806520180689404e-06,0.0010175532661378384,0.0021725452970713377,-0.001170719158835709,0.056607287377119064,-0.022442050278186798,-0.001735987956635654,-0.02646408975124359,0.10834269970655441,-0.23167097568511963,0.0,0.0,0.0,0.0012505677295848727,0.0007060178904794157,-0.0,0.0,0.0,0.0,-0.016555573791265488,0.008969640359282494,-0.0016296855174005032,13745.0,15386.0,9584.0,14584.0,0.42233800888061523,0.5360723733901978,0.19444440305233002,0.478765070438385,0.0,0.0,0.0,0.0,16782.0,12079.0,14056.0,10241.0,1.6385287046432495,-0.023630608906920914,0.1102139092046071,0.16117759730267736,-0.0027875411324203014,0.003798128105700016,0.0
194,5,-1.4385044778464362e-05,-2.371206028328743e-05,1.7701744582154788e-05,-0.0041208285838365555,0.0014946545707061887,-0.0023308186791837215,0.05680157244205475,-0.022590376436710358,-0.0025683557614684105,0.05054613947868347,-0.11943943053483963,0.23916389048099518,0.0,0.0,0.0,-0.0026963299605995417,0.0009917357238009572,-0.0,0.0,0.0,0.0,-0.016975760459899902,0.005523323081433773,0.001348615624010563,16241.0,12959.0,13541.0,11133.0,0.6006792187690735,0.37259140610694885,0.409094899892807,0.2691439688205719,0.0,0.0,0.0,0.0,12074.0,16788.0,6940.0,16134.0,1.6505237817764282,-0.02323778330954942,0.10957131984678502,0.16269134286912396,-0.003944282419979572,-0.008249021135270596,0.0
199,5,-2.336910074518528e-05,-2.1630872652167454e-05,2.5151755835395306e-05,-0.002726418199017644,0.00034811938530765474,-0.0018263288075104356,0.05680157244205475,-0.022590376436710358,-0.0025683557614684105,0.05054613947868347,-0.11943943053483963,0.23916389048099518,0.0,0.0,0.0,-0.0026963299605995417,0.0009917357238009572,-0.0,0.0,0.0,0.0,-0.016975760459899902,0.005523323081433773,0.001348615624010563,16241.0,12959.0,13541.0,11133.0,0.6006792187690735,0.37259140610694885,0.409094899892807,0.2691439688205719,0.0,0.0,0.0,0.0,12074.0,16788.0,6940.0,16134.0,1.6505237817764282,-0.02349834023256172,0.10935062629423149,0.16350380383325444,-0.003944282419979572,-0.008249021135270596,0.0
204,5,7.4749514169525355e-06,-1.5341700418503024e-05,5.2835668611805886e-05,0.0026107190642505884,-0.0006154529401101172,-0.0040526012890040874,0.05689056217670441,-0.02231547236442566,-0.0010560625232756138,-0.03172467276453972,0.07748083770275116,-0.10604308545589447,0.0,0.0,0.0,-0.0004647021705750376,-0.0025974700693041086,-0.0,0.0,0.0,0.0,-0.01656503975391388,0.008399724960327148,0.0014822041848674417,15046.0,14398.0,11324.0,13303.0,0.5113466382026672,0.4659718871116638,0.2791917324066162,0.39401358366012573,0.0,0.0,0.0,0.0,17500.0,11130.0,15099.0,8563.0,1.6540508270263672,-0.02319704838273791,0.10967270296244919,0.1625327141427329,0.010352631099522114,-0.0014247283106669784,0.0
209,5,3.536418444127776e-05,-1.3802068679069635e-05,3.346151424921118e-05,0.004390995483845472,-0.00043093704152852297,0.0007038580370135605,0.05689056217670441,-0.02231547236442566,-0.0010560625232756138,-0.03172467276453972,0.07748083770275116,-0.10604308545589447,0.0,0.0,0.0,-0.0004647021705750376,-0.0025974700693041086,-0.0,0.0,0.0,0.0,-0.01656503975391388,0.008399724960327148,0.0014822041848674417,15046.0,14398.0,11324.0,13303.0,0.5113466382026672,0.4659718871116638,0.2791917324066162,0.39401358366012573,0.0,0.0,0.0,0.0,17500.0,11130.0,15099.0,8563.0,1.6540508270263672,-0.023637456074210885,0.10999577220493621,0.16182488641842302,0.010352631099522114,-0.0014247283106669784,0.0
214,5,1.1843498214147985e-05,-1.3830008356308099e-05,2.12276863749139e-05,-0.0010660841362550855,-0.00016902202332857996,0.001749602728523314,0.05689056217670441,-0.02231547236442566,-0.0010560625232756138,-0.03172467276453972,0.07748083770275116,-0.10604308545589447,0.0,0.0,0.0,0.0004971294547431171,0.004137858282774687,-0.0,0.0,0.0,0.0,-0.01656503975391388,0.008399724960327148,0.0014822041848674417,15046.0,14398.0,11324.0,13303.0,0.5113466382026672,0.4659718871116638,0.2791917324066162,0.39401358366012573,0.0,0.0,0.0,0.0,17500.0,11130.0,15099.0,8563.0,1.6709765195846558,-0.023234602303696263,0.10992543903727979,0.16223463848465597,-0.01666082814335823,0.0015397433890029788,-0.0
219,5,-2.3957492885529064e-05,3.360824621267966e-06,1.3812204088026192e-05,-0.004722552839666605,-0.002130508655682206,0.001589698949828744,0.056887395679950714,-0.022796539589762688,-0.002312877681106329,0.02892063930630684,-0.04040567949414253,0.06988101452589035,0.0,0.0,0.0,0.0004971294547431171,0.004137858282774687,-0.0,0.0,0.0,0.0,-0.01844152994453907,0.007269803900271654,-0.0012856312096118927,15182.0,14305.0,12001.0,12702.0,0.5211830735206604,0.459587961435318,0.31621071696281433,0.3570690453052521,0.0,0.0,0.0,0.0,13126.0,16148.0,8441.0,15263.0,1.6709765195846558,-0.023559629777863637,0.10998519240310715,0.16329533134330637,-0.01666082814335823,0.0015397433890029788,-0.0
224,5,-1.8194890799350105e-05,1.4333152648760006e-05,1.1422777788538951e-05,-0.0011975086526945233,-0.0021688828710466623,0.0009226107504218817,0.056887395679950714,-0.022796539589762688,-0.002312877681106329,0.02892063930630684,-0.04040567949414253,0.06988101452589035,0.0,0.0,0.0,0.002573672216385603,-0.004411027301102877,-0.0,0.0,0.0,0.0,-0.01844152994453907,0.007269803900271654,-0.0012856312096118927,15182.0,14305.0,12001.0,12702.0,0.5211830735206604,0.459587961435318,0.31621071696281433,0.3570690453052521,0.0,0.0,0.0,0.0,13126.0,16148.0,8441.0,15263.0,1.6785662174224854,-0.023678616748100793,0.10994382016488596,0.16318647006810708,0.017841331660747528,0.00800754502415657,-0.0
229,5,1.105787214328302e-05,-1.1799154890468344e-05,5.070759289083071e-05,0.003031328087672591,0.0022683236747980118,-0.004345133900642395,0.05701040104031563,-0.022427203133702278,-0.0011422444367781281,0.012305904179811478,0.02496441826224327,0.013034643605351448,0.0,0.0,0.0,0.002573672216385603,-0.004411027301102877,-0.0,0.0,0.0,0.0,-0.017668405547738075,0.0052200062200427055,0.0027335849590599537,15640.0,13778.0,12563.0,12172.0,0.5548356771469116,0.42444494366645813,0.3487805426120758,0.325989693403244,0.0,0.0,0.0,0.0,16186.0,13140.0,13435.0,11180.0,1.6785662174224854,-0.024376383955614946,0.10889944110145498,0.16155595059062344,0.017841331660747528,0.00800754502415657,-0.0
235,5,1.8411594282952137e-05,9.125872566073667e-06,3.510038732201792e-05,0.002094977768138051,-0.0016036737943068147,0.00013481138739734888,0.05701040104031563,-0.022427203133702278,-0.0011422444367781281,0.012305904179811478,0.02496441826224327,0.013034643605351448,0.0,0.0,0.0,-0.0027783862315118313,0.002849555341526866,-0.0,0.0,0.0,0.0,-0.017668405547738075,0.0052200062200427055,0.0027335849590599537,15640.0,13778.0,12563.0,12172.0,0.5548356771469116,0.42444494366645813,0.3487805426120758,0.325989693403244,0.0,0.0,0.0,0.0,16186.0,13140.0,13435.0,11180.0,1.6643956899642944,-0.023453554901050288,0.11096749628583819,0.16306414554292453,-0.011428344994783401,-0.008571498095989227,0.0
240,5,2.0536081137834117e-05,1.7846528862719424e-05,7.997779175639153e-05,0.0010929296258836985,-0.0016879482427611947,-0.005331363994628191,0.05731433629989624,-0.023605842143297195,-0.001902880729176104,0.033761076629161835,0.11880595982074738,0.05656290426850319,0.0,0.0,0.0,-0.0027783862315118313,0.002849555341526866,-0.0,0.0,0.0,0.0,-0.017902377992868423,0.011521190404891968,-0.0020575483795255423,15387.0,14215.0,11303.0,13450.0,0.5361026525497437,0.45350706577301025,0.2780612111091614,0.4033055901527405,0.0,0.0,0.0,0.0,14487.0,15072.0,10390.0,14220.0,1.6643956899642944,-0.0233531891358762,0.1115280508222832,0.16432365595898046,-0.011428344994783401,-0.008571498095989227,0.0
245,5,3.567459134501405e-05,6.387160738086095e-06,0.00011366443504812196,0.0022537929471582174,0.00069994485238567,-0.0061749424785375595,0.05731433629989624,-0.023605842143297195,-0.001902880729176104,0.033761076629161835,0.11880595982074738,0.05656290426850319,0.0,0.0,0.0,0.0021060118451714516,0.0010614728089421988,-0.0,0.0,0.0,0.0,-0.017902377992868423,0.011521190404891968,-0.0020575483795255423,15387.0,14215.0,11303.0,13450.0,0.5361026525497437,0.45350706577301025,0.2780612111091614,0.4033055901527405,0.0,0.0,0.0,0.0,14487.0,15072.0,10390.0,14220.0,1.6465786695480347,-0.023455016073953745,0.11212715370927759,0.16388775436769362,-0.004211552441120148,0.0064276354387402534,0.0
250,5,5.849399167345837e-05,-2.2499438273371197e-05,0.00014128314796835184,0.0036398456431925297,0.003746369853615761,-0.005784223787486553,0.05704637989401817,-0.02458205260336399,-0.000187819852726534,-0.03439332917332649,0.20244400203227997,0.04154334217309952,0.0,0.0,0.0,0.0021060118451714516,0.0010614728089421988,-0.0,0.0,0.0,0.0,-0.015708163380622864,0.010403943248093128,0.004813848529011011,16437.0,12746.0,13091.0,12105.0,0.6160344481468201,0.3596920967102051,0.38073354959487915,0.32210612297058105,0.0,0.0,0.0,0.0,14436.0,15161.0,9426.0,14726.0,1.6465786695480347,-0.023707657216305054,0.11309806994942481,0.16307307765131504,-0.004211552441120148,0.0064276354387402534,0.0
255,5,6.606441456824541e-05,-4.270126373739913e-05,0.000204264564672485,0.00236438843421638,0.0039227670058608055,-0.009871458634734154,0.05704637989401817,-0.02458205260336399,-0.000187819852726534,-0.03439332917332649,0.20244400203227997,0.04154334217309952,0.0,0.0,0.0,-0.004552787635475397,0.0034523557405918837,-0.0,0.0,0.0,0.0,-0.015708163380622864,0.010403943248093128,0.004813848529011011,16437.0,12746.0,13091.0,12105.0,0.6160344481468201,0.3596920967102051,0.38073354959487915,0.32210612297058105,0.0,0.0,0.0,0.0,14436.0,15161.0,9426.0,14726.0,1.6794990301132202,-0.02292281283489187,0.114014257763733,0.162631082107663,-0.013971460983157158,-0.014173039235174656,0.0
260,5,2.2203737898962572e-05,-4.841743430006318e-05,0.00031452951952815056,-0.0043175253085792065,0.002255047205835581,-0.01718037761747837,0.05773765966296196,-0.026877926662564278,-0.002304990543052554,0.11970269680023193,0.14198161661624908,-0.1753665804862976,0.0,0.0,0.0,-0.004552787635475397,0.0034523557405918837,-0.0,0.0,0.0,0.0,-0.020304765552282333,0.01294677797704935,-0.006341582164168358,13663.0,16108.0,7914.0,15298.0,0.4169995188713074,0.5903725028038025,0.1274172067642212,0.5296064615249634,0.0,0.0,0.0,0.0,15577.0,14260.0,11076.0,13263.0,1.6794990301132202,-0.023413938169926835,0.11448575066979479,0.1641216038175341,-0.013971460983157158,-0.014173039235174656,0.0
265,5,3.169318370055407e-05,-2.507038152543828e-05,0.0004526111006271094,-0.0005882769473828375,-0.0018996272701770067,-0.023441940546035767,0.05773765966296196,-0.026877926662564278,-0.002304990543052554,0.11970269680023193,0.14198161661624908,-0.1753665804862976,0.0,0.0,0.0,-0.002809438854455948,-0.003980747424066067,-0.0,0.0,0.0,0.0,-0.020304765552282333,0.01294677797704935,-0.006341582164168358,13663.0,16108.0,7914.0,15298.0,0.4169995188713074,0.5903725028038025,0.1274172067642212,0.5296064615249634,0.0,0.0,0.0,0.0,15577.0,14260.0,11076.0,13263.0,1.6751494407653809,-0.023446742016634284,0.11338615878535852,0.16548724703209874,0.016068199649453163,-0.008723297156393528,0.0
270,5,3.913900218321942e-05,-1.1987994184892159e-05,0.0006420763675123453,0.0006581877241842449,-0.002329737413674593,-0.03211260586977005,0.05839867889881134,-0.02720380574464798,-0.00021371617913246155,-0.020744934678077698,-0.05245387554168701,0.3377181887626648,0.0,0.0,0.0,-0.002809438854455948,-0.003980747424066067,-0.0,0.0,0.0,0.0,-0.014213203452527523,0.004982706159353256,-0.010215445421636105,17990.0,10302.0,15237.0,8504.0,0.7443132400512695,0.2275691032409668,0.5251774191856384,0.14951884746551514,0.0,0.0,0.0,0.0,16567.0,12300.0,13916.0,10827.0,1.6751494407653809,-0.023482651492041564,0.11364156838981253,0.1637363244373008,0.016068199649453163,-0.008723297156393528,0.0
275,5,3.6582216125680134e-05,-7.2030584306048695e-06,0.0008923197747208178,-4.353945405455306e-05,-0.0015060872538015246,-0.042874254286289215,0.05839867889881134,-0.02720380574464798,-0.00021371617913246155,-0.020744934678077698,-0.05245387554168701,0.3377181887626648,0.0,0.0,0.0,0.0028342362493276596,0.0006749312160536647,-0.0,0.0,0.0,0.0,-0.014213203452527523,0.004982706159353256,-0.010215445421636105,17990.0,10302.0,15237.0,8504.0,0.7443132400512695,0.2275691032409668,0.5251774191856384,0.14951884746551514,0.0,0.0,0.0,0.0,16567.0,12300.0,13916.0,10827.0,1.6503413915634155,-0.024352102478103693,0.11317566129378497,0.1609130512234738,-0.002684005768969655,0.008669964969158173,0.0
280,5,5.627353857562412e-06,4.420386903802864e-05,0.0011558330152183771,-0.0037319990806281567,-0.006771265994757414,-0.04877128452062607,0.05839867889881134,-0.02720380574464798,-0.00021371617913246155,-0.020744934678077698,-0.05245387554168701,0.3377181887626648,0.0,0.0,0.0,0.0028342362493276596,0.0006749312160536647,-0.0,0.0,0.0,0.0,-0.014213203452527523,0.004982706159353256,-0.010215445421636105,17990.0,10302.0,15237.0,8504.0,0.7443132400512695,0.2275691032409668,0.5251774191856384,0.14951884746551514,0.0,0.0,0.0,0.0,16567.0,12300.0,13916.0,10827.0,1.6503413915634155,-0.026480802072287788,0.11084298295151197,0.160380724846985,-0.002684005768969655,0.008669964969158173,0.0
285,5,-3.832612856058404e-05,0.0001017931426758878,0.001421127119101584,-0.00676721753552556,-0.009619219228625298,-0.05134381726384163,0.05588627979159355,-0.025535373017191887,-0.0024270941503345966,-0.374833345413208,-0.2365567684173584,-0.47438138723373413,0.0,0.0,0.0,0.008114611729979515,-0.003400110872462392,-0.0,0.0,0.0,0.0,-0.00662590004503727,-0.00621567340567708,0.005446591880172491,9962.0,17983.0,5561.0,17079.0,0.21154531836509705,0.7436974048614502,0.056709617376327515,0.6675467491149902,0.0,0.0,0.0,0.0,10143.0,17599.0,7399.0,16728.0,1.7043708562850952,-0.03039949782681065,0.10791214199877812,0.1620772073321412,0.01396348886191845,0.02563490718603134,0.0
290,5,-4.1049483115784824e-05,0.00015985305071808398,0.001734790625050664,-0.0030336896888911724,-0.010814876295626163,-0.05817714333534241,0.05588627979159355,-0.025535373017191887,-0.0024270941503345966,-0.374833345413208,-0.2365567684173584,-0.47438138723373413,0.0,0.0,0.0,0.008114611729979515,-0.003400110872462392,-0.0,0.0,0.0,0.0,-0.00662590004503727,-0.00621567340567708,0.005446591880172491,9962.0,17983.0,5561.0,17079.0,0.21154531836509705,0.7436974048614502,0.056709617376327515,0.6675467491149902,0.0,0.0,0.0,0.0,10143.0,17599.0,7399.0,16728.0,1.7043708562850952,-0.03339622769412703,0.10665827308169772,0.16291514710375143,0.01396348886191845,0.02563490718603134,0.0
295,5,5.811272785649635e-06,0.0001753648539306596,0.0020746986847370863,0.004409814719110727,-0.006187367253005505,-0.06405982375144958,0.05134657025337219,-0.022607168182730675,-0.0025475481525063515,-0.6375981569290161,-0.4555705189704895,0.4369255602359772,0.0,0.0,0.0,0.012839365750551224,-0.00276546529494226,-0.0,0.0,0.0,0.0,-0.0025462571065872908,0.0023002102971076965,-0.0017108521424233913,11753.0,15504.0,10725.0,15641.0,0.30238938331604004,0.5447501540184021,0.2482871562242508,0.5549147129058838,0.0,0.0,0.0,0.0,17788.0,8778.0,17877.0,5422.0,1.741155982017517,-0.034918422370405336,0.10716102958542006,0.16012378075981598,0.011601694859564304,0.04143507406115532,0.0
300,5,-4.4563337723957375e-05,0.00018207925313618034,0.0024259465280920267,-0.004281027242541313,-0.0032806741073727608,-0.06777367740869522,0.05134657025337219,-0.022607168182730675,-0.0025475481525063515,-0.6375981569290161,-0.4555705189704895,0.4369255602359772,0.0,0.0,0.0,0.012839365750551224,-0.00276546529494226,-0.0,0.0,0.0,0.0,-0.0025462571065872908,0.0023002102971076965,-0.0017108521424233913,11753.0,15504.0,10725.0,15641.0,0.30238938331604004,0.5447501540184021,0.2482871562242508,0.5549147129058838,0.0,0.0,0.0,0.0,17788.0,8778.0,17877.0,5422.0,1.741155982017517,-0.03887260916511922,0.10580915922184297,0.1582143034949346,0.011601694859564304,0.04143507406115532,0.0
306,5,-0.00010090800060424954,0.00021297644707374275,0.002767715835943818,-0.008473769761621952,-0.005019934382289648,-0.0681217759847641,0.04357186704874039,-0.01918688602745533,-0.0012877584667876363,-0.6593257188796997,-0.08702242374420166,-0.359859436750412,0.0,0.0,0.0,0.0042660972103476524,-0.004020108841359615,-0.0,0.0,0.0,0.0,0.0012072648387402296,9.026784391608089e-05,-0.004573912359774113,13459.0,13981.0,13735.0,14028.0,0.40388596057891846,0.4378429055213928,0.42166590690612793,0.440976083278656,0.0,0.0,0.0,0.0,7195.0,17895.0,4719.0,18321.0,1.6825506687164307,-0.04048750290053814,0.10389810389638278,0.16009793467887026,0.016298692673444748,0.013304699212312698,0.0
311,5,-0.0002500349364709109,0.00022662366973236203,0.003146389964967966,-0.021284740418195724,-0.0036456394009292126,-0.07268960773944855,0.04357186704874039,-0.01918688602745533,-0.0012877584667876363,-0.6593257188796997,-0.08702242374420166,-0.359859436750412,0.0,0.0,0.0,0.0042660972103476524,-0.004020108841359615,-0.0,0.0,0.0,0.0,0.0012072648387402296,9.026784391608089e-05,-0.004573912359774113,13459.0,13981.0,13735.0,14028.0,0.40388596057891846,0.4378429055213928,0.42166590690612793,0.440976083278656,0.0,0.0,0.0,0.0,7195.0,17895.0,4719.0,18321.0,1.6825506687164307,-0.044830650668875933,0.10150352510093945,0.16246231967825514,0.016298692673444748,0.013304699212312698,0.0
316,5,-0.00030230407719500363,0.0002886872098315507,0.0036686223465949297,-0.00834074430167675,-0.0030332040041685104,-0.054798390716314316,0.030558304861187935,-0.016032397747039795,0.0008246598881669343,-0.654168426990509,-0.08357761055231094,0.10812657326459885,0.0,0.0,0.0,0.004364321939647198,-0.018271667882800102,-0.0,0.0,0.0,0.0,0.0036836580839008093,-0.000707584957126528,0.012739244848489761,16517.0,10037.0,16852.0,10852.0,0.622344970703125,0.2150333970785141,0.6490828990936279,0.25469470024108887,0.0,0.0,0.0,0.0,17393.0,8441.0,17855.0,8016.0,1.8442506790161133,-0.04909513904897428,0.1016873955224079,0.15879922827563422,0.08119358867406845,0.014919105917215347,0.0
321,5,-0.00030230407719500363,0.0002886872098315507,0.0036686223465949297,-0.00834074430167675,-0.0030332040041685104,-0.054798390716314316,0.030558304861187935,-0.016032397747039795,0.0008246598881669343,-0.654168426990509,-0.08357761055231094,0.10812657326459885,0.0,0.0,0.0,0.004364321939647198,-0.018271667882800102,-0.0,0.0,0.0,0.0,0.0036836580839008093,-0.000707584957126528,0.012739244848489761,16517.0,10037.0,16852.0,10852.0,0.622344970703125,0.2150333970785141,0.6490828990936279,0.25469470024108887,0.0,0.0,0.0,0.0,17393.0,8441.0,17855.0,8016.0,1.8442506790161133,-0.04909513904897428,0.1016873955224079,0.15879922827563422,0.08119358867406845,0.014919105917215347,0.0
326,5,-0.00044892929145134985,0.00035666077747009695,0.004034194629639387,-0.014992804266512394,-0.007262879982590675,-0.03783589228987694,0.02516195923089981,-0.016482431441545486,-0.005211494863033295,-0.6746105551719666,0.018127014860510826,-0.6172186136245728,0.0,0.0,0.0,0.004064507782459259,-0.00794429611414671,-0.0,0.0,0.0,0.0,0.004302476067095995,0.006681010592728853,-0.022415651008486748,1495.0,19302.0,1495.0,20269.0,-0.05755916237831116,0.8620322942733765,-0.0763387382030487,0.9544162750244141,0.0,0.0,0.0,0.0,10672.0,15960.0,10812.0,17033.0,1.7208880186080933,-0.05517666152811586,0.10019190488309782,0.16039093380137076,0.032942138612270355,0.012964833527803421,0.0
331,5,-0.000535643077455461,0.00042769438005052507,0.004175716079771519,-0.016402775421738625,-0.011429183185100555,-0.032116908580064774,0.02516195923089981,-0.016482431441545486,-0.005211494863033295,-0.6746105551719666,0.018127014860510826,-0.6172186136245728,0.0,0.0,0.0,0.004064507782459259,-0.00794429611414671,-0.0,0.0,0.0,0.0,0.004302476067095995,0.006681010592728853,-0.022415651008486748,1495.0,19302.0,1495.0,20269.0,-0.05755916237831116,0.8620322942733765,-0.0763387382030487,0.9544162750244141,0.0,0.0,0.0,0.0,10672.0,15960.0,10812.0,17033.0,1.7208880186080933,-0.058458957204383,0.09888123616811785,0.165150155217396,0.032942138612270355,0.012964833527803421,0.0
336,5,-0.0005700066685676575,0.0004244443844072521,0.004257967229932547,-0.010684744454920292,-0.004181675147265196,-0.022716941311955452,0.01787032000720501,-0.015382790006697178,0.00041002428042702377,-0.4971715211868286,-0.17511117458343506,1.050364375114441,0.0,0.0,0.0,0.01329824049025774,-0.014584161341190338,-0.0,0.0,0.0,0.0,0.0036922674626111984,-0.0020363288931548595,0.02313191071152687,21164.0,1495.0,21989.0,1495.0,1.0441066026687622,-0.14984378218650818,1.130234956741333,-0.1802472174167633,0.0,0.0,0.0,0.0,10230.0,15842.0,10633.0,16797.0,1.834470272064209,-0.060503950840497644,0.09791903274408818,0.16477990799051428,0.06445999443531036,0.04521579295396805,0.0
341,5,-0.0005757317412644625,0.00038264383329078555,0.004327698610723019,-0.004960908554494381,0.003343396121636033,-0.017454491928219795,0.01787032000720501,-0.015382790006697178,0.00041002428042702377,-0.4971715211868286,-0.17511117458343506,1.050364375114441,0.0,0.0,0.0,0.01329824049025774,-0.014584161341190338,-0.0,0.0,0.0,0.0,0.0036922674626111984,-0.0020363288931548595,0.02313191071152687,21164.0,1495.0,21989.0,1495.0,1.0441066026687622,-0.14984378218650818,1.130234956741333,-0.1802472174167633,0.0,0.0,0.0,0.0,10230.0,15842.0,10633.0,16797.0,1.834470272064209,-0.06097146981765277,0.09838008180417299,0.15991937823740213,0.06445999443531036,0.04521579295396805,0.0
346,5,-0.0005757317412644625,0.00038264383329078555,0.004327698610723019,-0.004960908554494381,0.003343396121636033,-0.017454491928219795,0.015481098555028439,-0.015667244791984558,0.0002850858145393431,-0.11070086807012558,0.19106099009513855,-0.9068520665168762,0.0,0.0,0.0,-0.0033271906431764364,-0.005344559904187918,-0.0,0.0,0.0,0.0,-0.0007266303873620927,0.004005530383437872,-0.013740930706262589,3719.0,19860.0,1495.0,20144.0,0.02075520157814026,0.9147871732711792,-0.033537477254867554,0.9422458410263062,0.0,0.0,0.0,0.0,20770.0,1495.0,21343.0,1495.0,1.690864086151123,-0.06097146981765277,0.09838008180417299,0.15991937823740213,0.021775497123599052,-0.010427819564938545,0.0
351,5,-0.000699156429618597,0.00026347319362685084,0.004384577739983797,-0.01167314499616623,0.009567592293024063,-0.00574985146522522,0.015481098555028439,-0.015667244791984558,0.0002850858145393431,-0.11070086807012558,0.19106099009513855,-0.9068520665168762,0.0,0.0,0.0,-0.0033271906431764364,-0.005344559904187918,-0.0,0.0,0.0,0.0,-0.0007266303873620927,0.004005530383437872,-0.013740930706262589,3719.0,19860.0,1495.0,20144.0,0.02075520157814026,0.9147871732711792,-0.033537477254867554,0.9422458410263062,0.0,0.0,0.0,0.0,20770.0,1495.0,21343.0,1495.0,1.690864086151123,-0.06134412929473729,0.09729268443747523,0.1585303267436664,0.021775497123599052,-0.010427819564938545,0.0
357,5,-0.0008630308439023793,0.00029526272555813193,0.004329849034547806,-0.02433418482542038,1.2293658073758706e-05,0.004267505370080471,0.014872771687805653,-0.016081472858786583,-0.005323147401213646,-0.01784684881567955,-0.17918623983860016,0.36174455285072327,0.0,0.0,0.0,-0.010418827645480633,-0.011089281179010868,-0.0,0.0,0.0,0.0,-0.0003388608165550977,-0.001938678789883852,-0.0054893167689442635,14654.0,13979.0,14972.0,13507.0,0.48366209864616394,0.43773308396339417,0.5061160922050476,0.4069589674472809,0.0,0.0,0.0,0.0,1495.0,22032.0,1495.0,22366.0,1.7825285196304321,-0.061402685365085655,0.09631619093402395,0.16527799234422452,0.04762766510248184,-0.03442307189106941,0.0
362,5,-0.000983089325018227,0.00027433750801719725,0.00427660346031189,-0.024140695109963417,0.00251594465225935,0.008096498437225819,0.014872771687805653,-0.016081472858786583,-0.005323147401213646,-0.01784684881567955,-0.17918623983860016,0.36174455285072327,0.0,0.0,0.0,-0.010418827645480633,-0.011089281179010868,-0.0,0.0,0.0,0.0,-0.0003388608165550977,-0.001938678789883852,-0.0054893167689442635,14654.0,13979.0,14972.0,13507.0,0.48366209864616394,0.43773308396339417,0.5061160922050476,0.4069589674472809,0.0,0.0,0.0,0.0,1495.0,22032.0,1495.0,22366.0,1.7825285196304321,-0.06255130540223244,0.09533491801300749,0.16626693061741318,0.04762766510248184,-0.03442307189106941,0.0
367,5,-0.0010653604986146092,0.00018068167264573276,0.00420537730678916,-0.019528811797499657,0.012245077639818192,0.011785696260631084,0.014872771687805653,-0.016081472858786583,-0.005323147401213646,-0.01784684881567955,-0.17918623983860016,0.36174455285072327,0.0,0.0,0.0,-0.002273119054734707,-0.021187813952565193,-0.0,0.0,0.0,0.0,-0.0003388608165550977,-0.001938678789883852,-0.0054893167689442635,14654.0,13979.0,14972.0,13507.0,0.48366209864616394,0.43773308396339417,0.5061160922050476,0.4069589674472809,0.0,0.0,0.0,0.0,1495.0,22032.0,1495.0,22366.0,1.8794149160385132,-0.06349455672384366,0.09425024849132138,0.16182204700484715,0.0959460511803627,-0.007918679155409336,-0.0
372,5,-0.001147888833656907,9.143433999270201e-05,0.004114230629056692,-0.017714936286211014,0.015607709996402264,0.015651896595954895,0.014427995309233665,-0.013901419937610626,0.0037371295038610697,-0.08903802931308746,-0.26901981234550476,0.6289923191070557,0.0,0.0,0.0,-0.002273119054734707,-0.021187813952565193,-0.0,0.0,0.0,0.0,-0.005192961078137159,-0.0055817193351686,0.028406769037246704,20689.0,1495.0,20729.0,1495.0,0.9959832429885864,-0.1083114743232727,0.9999366998672485,-0.1967443823814392,0.0,0.0,0.0,0.0,14214.0,14802.0,13751.0,13591.0,1.8794149160385132,-0.06293474665103292,0.09398378274109959,0.15685143333377435,0.0959460511803627,-0.007918679155409336,-0.0
377,5,-0.0012801553821191192,7.987571734702215e-06,0.004013592377305031,-0.02295795828104019,0.016256695613265038,0.01833735965192318,0.014427995309233665,-0.013901419937610626,0.0037371295038610697,-0.08903802931308746,-0.26901981234550476,0.6289923191070557,0.0,0.0,0.0,-0.01672813855111599,-0.016138862818479538,-0.0,0.0,0.0,0.0,-0.005192961078137159,-0.0055817193351686,0.028406769037246704,20689.0,1495.0,20729.0,1495.0,0.9959832429885864,-0.1083114743232727,0.9999366998672485,-0.1967443823814392,0.0,0.0,0.0,0.0,14214.0,14802.0,13751.0,13591.0,1.871314287185669,-0.0648797801722011,0.09221246550902541,0.15727666134790136,0.07275987416505814,-0.05801844596862793,-0.0
382,5,-0.0013984565157443285,5.664405398420058e-05,0.0038630343042314053,-0.023379310965538025,0.0006639005150645971,0.025401918217539787,0.014071576297283173,-0.013183662667870522,-0.005069628357887268,0.013715418055653572,-0.008417017757892609,-1.150840163230896,0.0,0.0,0.0,-0.01672813855111599,-0.016138862818479538,-0.0,0.0,0.0,0.0,-0.008204048499464989,0.0012288077268749475,-0.03149542957544327,1495.0,23094.0,1495.0,22551.0,-0.28956037759780884,1.251084327697754,-0.3699662685394287,1.190970778465271,0.0,0.0,0.0,0.0,1495.0,20713.0,1495.0,19940.0,1.871314287185669,-0.06572650839175442,0.08939523870275623,0.16402006645004022,0.07275987416505814,-0.05801844596862793,-0.0
387,5,-0.0015173300635069609,6.0127156757516786e-05,0.003765809815376997,-0.02361655794084072,-0.00015241194341797382,0.0218276958912611,0.014071576297283173,-0.013183662667870522,-0.005069628357887268,0.013715418055653572,-0.008417017757892609,-1.150840163230896,0.0,0.0,0.0,-0.0006237353081814945,-0.021088439971208572,-0.0,0.0,0.0,0.0,-0.008204048499464989,0.0012288077268749475,-0.03149542957544327,1495.0,23094.0,1495.0,22551.0,-0.28956037759780884,1.251084327697754,-0.3699662685394287,1.190970778465271,0.0,0.0,0.0,0.0,1495.0,20713.0,1495.0,19940.0,1.8772096633911133,-0.06655221297925726,0.08777004204763642,0.1674729985130033,0.09538429230451584,-0.002170309191569686,-0.0
392,5,-0.001568314852192998,-1.835962939367164e-05,0.0036565251648426056,-0.01556478813290596,0.009357449598610401,0.021845223382115364,0.013161977753043175,-0.0112167252227664,-0.002929076785221696,-0.21429958939552307,-0.44305893778800964,1.1931830644607544,0.0,0.0,0.0,-0.0006237353081814945,-0.021088439971208572,-0.0,0.0,0.0,0.0,-0.0028743573930114508,-0.012638317421078682,0.020595936104655266,21302.0,1495.0,22257.0,1495.0,1.0582627058029175,-0.09433281421661377,1.1589970588684082,-0.2435120940208435,0.0,0.0,0.0,0.0,23206.0,1495.0,24255.0,1495.0,1.8772096633911133,-0.06735399872694546,0.08739528481452899,0.16385146504220013,0.09538429230451584,-0.002170309191569686,-0.0
398,5,-0.0016412941040471196,-0.00011739509500330314,0.0035745955538004637,-0.014983437955379486,0.015627235174179077,0.018569646403193474,0.013161977753043175,-0.0112167252227664,-0.002929076785221696,-0.21429958939552307,-0.44305893778800964,1.1931830644607544,0.0,0.0,0.0,-0.010392239317297935,-0.015228312462568283,-0.0,0.0,0.0,0.0,-0.0028743573930114508,-0.012638317421078682,0.020595936104655266,21302.0,1495.0,22257.0,1495.0,1.0582627058029175,-0.09433281421661377,1.1589970588684082,-0.2435120940208435,0.0,0.0,0.0,0.0,23206.0,1495.0,24255.0,1495.0,1.8265771865844727,-0.06616811871472683,0.08850096040513525,0.158101515356606,0.06701954454183578,-0.035183701664209366,-0.0
403,5,-0.0017516008811071515,-0.0001864746300270781,0.0034834465477615595,-0.019230177626013756,0.014540438540279865,0.018365750089287758,0.01093829981982708,-0.007277901284396648,0.0038505359552800655,-0.13234366476535797,-0.12618301808834076,-0.4194852411746979,0.0,0.0,0.0,-0.010392239317297935,-0.015228312462568283,-0.0,0.0,0.0,0.0,-0.0012048472417518497,-0.006584067828953266,-0.023110177367925644,1495.0,21467.0,1495.0,20780.0,0.011558324098587036,0.9375725984573364,0.0649920403957367,0.8630867004394531,0.0,0.0,0.0,0.0,1495.0,21614.0,1495.0,20719.0,1.8265771865844727,-0.06503498223406715,0.08884115507021824,0.15708583738793058,0.06701954454183578,-0.035183701664209366,-0.0
408,5,-0.00198182906024158,-0.00023214759130496532,0.0033622318878769875,-0.035319454967975616,0.011296930722892284,0.021892055869102478,0.01093829981982708,-0.007277901284396648,0.0038505359552800655,-0.13234366476535797,-0.12618301808834076,-0.4194852411746979,0.0,0.0,0.0,-0.015889327973127365,-0.01799708977341652,-0.0,0.0,0.0,0.0,-0.0012048472417518497,-0.006584067828953266,-0.023110177367925644,1495.0,21467.0,1495.0,20780.0,0.011558324098587036,0.9375725984573364,0.0649920403957367,0.8630867004394531,0.0,0.0,0.0,0.0,1495.0,21614.0,1495.0,20719.0,1.8861039876937866,-0.06877200907079854,0.08322570549166036,0.1629951392267798,0.08177895843982697,-0.05554519593715668,-0.0
413,5,-0.0021771169267594814,-0.00019302338478155434,0.0032069957815110683,-0.03756233677268028,-0.00017613386444281787,0.027385151013731956,0.00997038371860981,-0.0068885586224496365,-0.004465930629521608,-0.1294761449098587,-0.15343698859214783,-0.3983631730079651,0.0,0.0,0.0,-0.015889327973127365,-0.01799708977341652,-0.0,0.0,0.0,0.0,-0.003940764348953962,-0.014806878753006458,0.035533517599105835,23327.0,1495.0,24199.0,1495.0,1.2772961854934692,-0.33252209424972534,1.3780016899108887,-0.4961986243724823,0.0,0.0,0.0,0.0,15393.0,13589.0,16529.0,11803.0,1.8861039876937866,-0.07201538704464777,0.08013516671304403,0.1693916756184612,0.08177895843982697,-0.05554519593715668,-0.0
418,5,-0.002308760304003954,-0.00028521838248707354,0.0032322981860488653,-0.03082212060689926,0.010992946103215218,0.00791778601706028,0.00997038371860981,-0.0068885586224496365,-0.004465930629521608,-0.1294761449098587,-0.15343698859214783,-0.3983631730079651,0.0,0.0,0.0,-0.0001053738669725135,-0.031396061182022095,-0.0,0.0,0.0,0.0,-0.003940764348953962,-0.014806878753006458,0.035533517599105835,23327.0,1495.0,24199.0,1495.0,1.2772961854934692,-0.33252209424972534,1.3780016899108887,-0.4961986243724823,0.0,0.0,0.0,0.0,15393.0,13589.0,16529.0,11803.0,2.0210344791412354,-0.07398328883696878,0.07851170008054045,0.16634919287657365,0.15287251770496368,-0.0003947436634916812,-0.0
423,5,-0.0023939586244523525,-0.0003923638432752341,0.003238219767808914,-0.022552644833922386,0.017254633828997612,0.0024565227795392275,0.0078015075996518135,-0.0031743976287543774,0.006223840638995171,-0.25230202078819275,-0.393391489982605,1.299056053161621,0.0,0.0,0.0,-0.0001053738669725135,-0.031396061182022095,-0.0,0.0,0.0,0.0,-0.007061327341943979,-0.002770436927676201,-0.021639855578541756,1495.0,21214.0,1495.0,20357.0,-0.04521152377128601,1.0491371154785156,-0.08089929819107056,0.9630777835845947,0.0,0.0,0.0,0.0,20828.0,1495.0,21611.0,1495.0,2.0210344791412354,-0.07216622755921118,0.08005341674960724,0.16090390357055573,0.15287251770496368,-0.0003947436634916812,-0.0
428,5,-0.0024845225270837545,-0.0004841498448513448,0.0032769041135907173,-0.019888732582330704,0.017916174605488777,-0.00365953310392797,0.0078015075996518135,-0.0031743976287543774,0.006223840638995171,-0.25230202078819275,-0.393391489982605,1.299056053161621,0.0,0.0,0.0,-0.018635673448443413,-0.020969722419977188,-0.0,0.0,0.0,0.0,-0.007061327341943979,-0.002770436927676201,-0.021639855578541756,1495.0,21214.0,1495.0,20357.0,-0.04521152377128601,1.0491371154785156,-0.08089929819107056,0.9630777835845947,0.0,0.0,0.0,0.0,20828.0,1495.0,21611.0,1495.0,1.935728907585144,-0.07237356866252391,0.0777672432047309,0.15827148585893883,0.09778717160224915,-0.06685786694288254,-0.0
433,5,-0.002619614591822028,-0.00045630315435118973,0.003161198692396283,-0.02416655421257019,0.0038248668424785137,0.0124208377674222,0.006992774549871683,-0.0023819408379495144,0.004048020113259554,0.042851369827985764,0.07516903430223465,-1.1617932319641113,0.0,0.0,0.0,-0.018635673448443413,-0.020969722419977188,-0.0,0.0,0.0,0.0,-0.0017063765553757548,-0.0118692172691226,0.0028302017599344254,17763.0,11729.0,18901.0,9015.0,0.7247903347015381,0.3010711967945099,0.8251235485076904,0.1700494885444641,0.0,0.0,0.0,0.0,1495.0,23494.0,1495.0,22631.0,1.935728907585144,-0.0722151568524576,0.07845132470081848,0.16399794288345768,0.09778717160224915,-0.06685786694288254,-0.0
438,5,-0.0027856577653437853,-0.000504344527143985,0.0031985051464289427,-0.02959180437028408,0.007294912356883287,0.0004915812751278281,0.006992774549871683,-0.0023819408379495144,0.004048020113259554,0.042851369827985764,0.07516903430223465,-1.1617932319641113,0.0,0.0,0.0,-0.004771211184561253,-0.022892741486430168,-0.0,0.0,0.0,0.0,-0.0017063765553757548,-0.0118692172691226,0.0028302017599344254,17763.0,11729.0,18901.0,9015.0,0.7247903347015381,0.3010711967945099,0.8251235485076904,0.1700494885444641,0.0,0.0,0.0,0.0,1495.0,23494.0,1495.0,22631.0,1.9052543640136719,-0.072759026660464,0.0776699677211239,0.1693432527829286,0.10508961230516434,-0.01684950478374958,-0.0
443,5,-0.0029178427066653967,-0.0005350169958546758,0.003173776902258396,-0.027698896825313568,0.006598656997084618,0.003164001740515232,0.0067312270402908325,-0.001891744090244174,0.0002795040199998766,-0.0589914470911026,-0.20953355729579926,0.7479360103607178,0.0,0.0,0.0,-0.004771211184561253,-0.022892741486430168,-0.0,0.0,0.0,0.0,-0.006518742069602013,-0.015561731532216072,0.024671215564012527,21229.0,1495.0,22043.0,1495.0,1.0507619380950928,-0.026701390743255615,1.1360361576080322,-0.22436773777008057,0.0,0.0,0.0,0.0,22524.0,1495.0,23725.0,1495.0,1.9052543640136719,-0.0700834187739897,0.07970460301588887,0.16940808696435805,0.10508961230516434,-0.01684950478374958,-0.0
448,5,-0.0030543541070073843,-0.0006266870186664164,0.0031980762723833323,-0.027460943907499313,0.013639865443110466,-0.001650303602218628,0.0067312270402908325,-0.001891744090244174,0.0002795040199998766,-0.0589914470911026,-0.20953355729579926,0.7479360103607178,0.0,0.0,0.0,-0.014961485750973225,-0.02526763454079628,-0.0,0.0,0.0,0.0,-0.006518742069602013,-0.015561731532216072,0.024671215564012527,21229.0,1495.0,22043.0,1495.0,1.0507619380950928,-0.026701390743255615,1.1360361576080322,-0.22436773777008057,0.0,0.0,0.0,0.0,22524.0,1495.0,23725.0,1495.0,1.9687901735305786,-0.0701697880070283,0.0789505780488399,0.16359076507561376,0.11984533071517944,-0.05459505319595337,0.0
454,5,-0.003214222611859441,-0.0007108447607606649,0.0032572851050645113,-0.03016859106719494,0.015554881654679775,-0.0077651855535805225,0.006734844762831926,0.0014367250259965658,-0.00123471743427217,0.12593385577201843,-0.039509303867816925,-0.9900820255279541,0.0,0.0,0.0,-0.014961485750973225,-0.02526763454079628,-0.0,0.0,0.0,0.0,-0.005823372397571802,-0.007289406377822161,-0.03212667629122734,1495.0,23175.0,1495.0,22070.0,-0.258013516664505,1.2602028846740723,-0.2357853353023529,1.1388503313064575,0.0,0.0,0.0,0.0,10284.0,18635.0,10769.0,16956.0,1.9687901735305786,-0.06859056714734649,0.0789119025530254,0.15995527053314665,0.11984533071517944,-0.05459505319595337,0.0
459,5,-0.003371258731931448,-0.0007676276727579534,0.003362339688464999,-0.030911767855286598,0.01303589902818203,-0.015712641179561615,0.006734844762831926,0.0014367250259965658,-0.00123471743427217,0.12593385577201843,-0.039509303867816925,-0.9900820255279541,0.0,0.0,0.0,-0.01432052068412304,-0.02791147492825985,-0.0,0.0,0.0,0.0,-0.005823372397571802,-0.007289406377822161,-0.03212667629122734,1495.0,23175.0,1495.0,22070.0,-0.258013516664505,1.2602028846740723,-0.2357853353023529,1.1388503313064575,0.0,0.0,0.0,0.0,10284.0,18635.0,10769.0,16956.0,2.0008747577667236,-0.0656323124870993,0.07984384118488473,0.16341438680911505,0.13454069197177887,-0.05310804024338722,0.0
464,5,-0.003552317386493087,-0.0007367553771473467,0.0034256731159985065,-0.03409174457192421,0.0015096834395080805,-0.013885041698813438,0.006721298210322857,0.0032509732991456985,0.0042429096065461636,-0.1104380264878273,-0.4523334205150604,1.3971816301345825,0.0,0.0,0.0,-0.01432052068412304,-0.02791147492825985,-0.0,0.0,0.0,0.0,-0.003783412277698517,-0.0171537846326828,0.03112979419529438,22485.0,1495.0,23588.0,1495.0,1.1836663484573364,-0.1984235644340515,1.3069941997528076,-0.38698264956474304,0.0,0.0,0.0,0.0,8690.0,19092.0,9522.0,17637.0,2.0008747577667236,-0.06579627763875409,0.07805597824816227,0.16984958041164172,0.13454069197177887,-0.05310804024338722,0.0
469,5,-0.0036766361445188522,-0.0007639963296242058,0.0034518353641033173,-0.028554953634738922,0.003872788278385997,-0.008693505078554153,0.006721298210322857,0.0032509732991456985,0.0042429096065461636,-0.1104380264878273,-0.4523334205150604,1.3971816301345825,0.0,0.0,0.0,-0.01432052068412304,-0.02791147492825985,-0.0,0.0,0.0,0.0,-0.003783412277698517,-0.0171537846326828,0.03112979419529438,22485.0,1495.0,23588.0,1495.0,1.1836663484573364,-0.1984235644340515,1.3069941997528076,-0.38698264956474304,0.0,0.0,0.0,0.0,8690.0,19092.0,9522.0,17637.0,2.0008747577667236,-0.06586530477027744,0.07727445584101202,0.17068779481742963,0.13454069197177887,-0.05310804024338722,0.0
474,5,-0.0037496178410947323,-0.000848200055770576,0.003467975417152047,-0.020179791375994682,0.011653559282422066,-0.005414203274995089,0.005804466083645821,0.006518969777971506,0.005836755037307739,0.007458918262273073,-0.007369550876319408,-1.0409002304077148,0.0,0.0,0.0,-0.0051516154780983925,-0.026958221569657326,-0.0,0.0,0.0,0.0,-0.0053060357458889484,-0.011785455979406834,-0.012322086840867996,1495.0,21346.0,4882.0,19805.0,-0.012891709804534912,1.0628048181533813,0.04148867726325989,0.9094730615615845,0.0,0.0,0.0,0.0,23018.0,1495.0,24257.0,1495.0,1.9614076614379883,-0.06618136915152253,0.0771287809789111,0.1650673724943763,0.12739507853984833,-0.01872907765209675,0.0
479,5,-0.003878037678077817,-0.0009294458432123065,0.0035152689088135958,-0.02348228171467781,0.014410923235118389,-0.007840888574719429,0.005804466083645821,0.006518969777971506,0.005836755037307739,0.007458918262273073,-0.007369550876319408,-1.0409002304077148,0.0,0.0,0.0,-0.0051516154780983925,-0.026958221569657326,-0.0,0.0,0.0,0.0,-0.0053060357458889484,-0.011785455979406834,-0.012322086840867996,1495.0,21346.0,4882.0,19805.0,-0.012891709804534912,1.0628048181533813,0.04148867726325989,0.9094730615615845,0.0,0.0,0.0,0.0,23018.0,1495.0,24257.0,1495.0,1.9614076614379883,-0.06635627594406114,0.07686062859480546,0.1604272986721935,0.12739507853984833,-0.01872907765209675,0.0
