timestamp,dt,pos_x,pos_y,pos_z,vel_x,vel_y,vel_z,roll,pitch,yaw,agv_x,agv_y,agv_z,x_ref,y_ref,z_ref,roll_ref,pitch_ref,yaw_ref,x_vel_ref,y_vel_ref,z_vel_ref,x_torque,y_torque,z_torque,w0,w1,w2,w3,u0,u1,u2,u3,m0req,m1req,m2req,m3req,thrust0,thrust1,thrust2,thrust3,thrust_ref,roll_vicon,pitch_vicon,yaw_vicon,acc_x,acc_y,acc_z
5,5,0.0,0.0,0.0,-0.007631806656718254,-0.002338937483727932,0.0017556932289153337,-0.03418402746319771,0.22735297679901123,0.00362221198156476,0.0031518489122390747,-0.05372444912791252,-0.01667679473757744,0.0,0.0,0.0,0.0027731889858841896,-0.006960637401789427,-0.0,0.0,0.0,0.0,0.0014481849502772093,-0.010436458513140678,-0.000663381302729249,1495.0,1495.0,1495.0,1495.0,0.0,0.0,0.0,0.0,0.0,0.0,0.0,0.0,1495.0,1495.0,1495.0,1495.0,1.706329345703125,-0.13163913609150688,-0.30411985106431544,0.015788114904595297,0.028619274497032166,0.008771015331149101,0.0
31,26,0.0,0.0,0.0,-0.010210752487182617,-0.0004249604535289109,0.0014041239628568292,-0.03418402746319771,0.22735297679901123,0.00362221198156476,0.0031518489122390747,-0.05372444912791252,-0.01667679473757744,0.0,0.0,0.0,0.0027731889858841896,-0.006960637401789427,-0.0,0.0,0.0,0.0,0.0014481849502772093,-0.010436458513140678,-0.000663381302729249,1495.0,1495.0,1495.0,1495.0,0.0,0.0,0.0,0.0,0.0,0.0,0.0,0.0,1495.0,1495.0,1495.0,1495.0,1.706329345703125,-0.13315310710631545,-0.3058577286389277,0.015186337947357539,0.028619274497032166,0.008771015331149101,0.0
37,5,0.0,0.0,0.0,-0.01000227127224207,-0.0019607492722570896,-0.0022165339905768633,-0.034175388514995575,0.22783365845680237,0.003551972098648548,0.0006602956564165652,-0.06402435898780823,-0.017286745831370354,0.0,0.0,0.0,0.0004973556497134268,-0.009192615747451782,-0.0,0.0,0.0,0.0,0.0016169404843822122,-0.01172690186649561,-0.0005044209538027644,1495.0,1495.0,1495.0,1495.0,0.0,0.0,0.0,0.0,0.0,0.0,0.0,0.0,1495.0,1495.0,1495.0,1495.0,1.7286385297775269,-0.1342516445829548,-0.30631887082245113,0.014684389302178047,0.038290321826934814,0.00159360165707767,0.0
42,5,0.0,0.0,0.0,-0.0071470001712441444,-0.009240522980690002,-0.01343519240617752,-0.034175388514995575,0.22783365845680237,0.003551972098648548,0.0006602956564165652,-0.06402435898780823,-0.017286745831370354,0.0,0.0,0.0,0.0004973556497134268,-0.009192615747451782,-0.0,0.0,0.0,0.0,0.0016169404843822122,-0.01172690186649561,-0.0005044209538027644,1495.0,1495.0,1495.0,1495.0,0.0,0.0,0.0,0.0,0.0,0.0,0.0,0.0,1495.0,1495.0,1495.0,1495.0,1.7286385297775269,-0.1340818479716116,-0.30870344613669565,0.015601123550307756,0.038290321826934814,0.00159360165707767,0.0
53,11,0.0,0.0,0.0,-0.0071470001712441444,-0.009240522980690002,-0.01343519240617752,-0.03419313207268715,0.22858941555023193,0.003448733128607273,0.0003056389978155494,-0.06547702848911285,-0.007625112775713205,0.0,0.0,0.0,0.010724774561822414,-0.006380942650139332,-0.0,0.0,0.0,0.0,0.00171831960324198,-0.012075750157237053,-0.000271589495241642,1495.0,1495.0,1495.0,1495.0,0.0,0.0,0.0,0.0,0.0,0.0,0.0,0.0,13600.0,14159.0,13792.0,14023.0,1.7431960105895996,-0.1340818479716116,-0.30870344613669565,0.015601123550307756,0.026801250874996185,0.03465196117758751,0.0
62,9,-0.00011317445751046762,3.943901538150385e-05,6.094916534493677e-05,-0.008003116585314274,-0.0023446455597877502,-0.0008709398098289967,-0.03419313207268715,0.22858941555023193,0.003448733128607273,0.0003056389978155494,-0.06547702848911285,-0.007625112775713205,0.0,0.0,0.0,0.010724774561822414,-0.006380942650139332,-0.0,0.0,0.0,0.0,0.00171831960324198,-0.012075750157237053,-0.000271589495241642,1495.0,1495.0,1495.0,1495.0,0.0,0.0,0.0,0.0,0.0,0.0,0.0,0.0,13600.0,14159.0,13792.0,14023.0,1.7431960105895996,-0.13460486441821543,-0.31266998746030006,0.015707245863479,0.026801250874996185,0.03465196117758751,0.0
67,5,-0.00014200313307810575,-9.093974767893087e-06,-2.3709591914666817e-05,-0.006660688202828169,0.00488610053434968,0.0098106749355793,-0.03420627862215042,0.22911855578422546,0.0033808236476033926,-0.004281552042812109,-0.06257620453834534,-0.007662431802600622,0.0,0.0,0.0,-0.005793657619506121,-0.006248395889997482,-0.0,0.0,0.0,0.0,0.0020773953292518854,-0.011953645385801792,-0.0003870365908369422,13599.0,14158.0,13793.0,14024.0,0.4128289222717285,0.4496467113494873,0.4254494309425354,0.44071346521377563,0.0,0.0,0.0,0.0,13600.0,14159.0,13792.0,14023.0,1.7108875513076782,-0.13513544064956953,-0.3106479607557913,0.014845907512480026,0.025759166106581688,-0.018372930586338043,0.0
75,8,-0.00020344267250038683,4.513045496423729e-06,-2.438715091557242e-05,-0.005438411608338356,0.0004332147946115583,0.0029003345407545567,-0.03420627862215042,0.22911855578422546,0.0033808236476033926,-0.004281552042812109,-0.06257620453834534,-0.007662431802600622,0.0,0.0,0.0,-0.005793657619506121,-0.006248395889997482,-0.0,0.0,0.0,0.0,0.0020773953292518854,-0.011953645385801792,-0.0003870365908369422,13599.0,14158.0,13793.0,14024.0,0.4128289222717285,0.4496467113494873,0.4254494309425354,0.44071346521377563,0.0,0.0,0.0,0.0,13600.0,14159.0,13792.0,14023.0,1.7108875513076782,-0.13597073102797597,-0.31091941031939996,0.014346041240236999,0.025759166106581688,-0.018372930586338043,0.0
80,5,-0.00022197258658707142,2.677452539501246e-05,1.67692887771409e-05,-0.004398953169584274,-0.002498091896995902,-0.003778639016672969,-0.03417021408677101,0.2299272119998932,0.003324140328913927,0.0015445519238710403,-0.06030617281794548,-0.006583321839570999,0.0,0.0,0.0,-0.0005125167081132531,-0.005302033852785826,-0.0,0.0,0.0,0.0,0.0021257062908262014,-0.011532818898558617,-0.0003938078589271754,13664.0,14204.0,13852.0,14075.0,0.4170306921005249,0.45276856422424316,0.4292948246002197,0.4441019296646118,0.0,0.0,0.0,0.0,13775.0,14092.0,13972.0,13960.0,1.6839768886566162,-0.1364544404833242,-0.3116501838087808,0.01445232922865719,0.02151435986161232,-0.0015997521113604307,0.0
85,5,-0.0002424464182695374,3.8792670238763094e-05,3.4808945201803e-05,-0.004216441418975592,-0.0024414141662418842,-0.003676214488223195,-0.03417021408677101,0.2299272119998932,0.003324140328913927,0.0015445519238710403,-0.06030617281794548,-0.006583321839570999,0.0,0.0,0.0,-0.0005125167081132531,-0.005302033852785826,-0.0,0.0,0.0,0.0,0.0021257062908262014,-0.011532818898558617,-0.0003938078589271754,13664.0,14204.0,13852.0,14075.0,0.4170306921005249,0.45276856422424316,0.4292948246002197,0.4441019296646118,0.0,0.0,0.0,0.0,13775.0,14092.0,13972.0,13960.0,1.6839768886566162,-0.1365209559911509,-0.3132285874900958,0.014805896391117835,0.02151435986161232,-0.0015997521113604307,0.0
90,5,-0.00025379235739819705,5.0192502385471016e-05,4.7694917157059535e-05,-0.0030480900313705206,-0.002344545442610979,-0.0030168024823069572,-0.03415390104055405,0.23043669760227203,0.0032953449990600348,0.0009318475495092571,-0.05550173297524452,-0.004415337927639484,0.0,0.0,0.0,0.0030112650711089373,-0.0042395880445837975,-0.0,0.0,0.0,0.0,0.0024545041378587484,-0.009827107191085815,-0.00029947495204396546,13731.0,14137.0,13918.0,14011.0,0.42141470313072205,0.44827941060066223,0.43365857005119324,0.4398433268070221,0.0,0.0,0.0,0.0,13739.0,14134.0,13914.0,14011.0,1.678524136543274,-0.13820648320778758,-0.31227256936563313,0.014073167536987367,0.01714746281504631,0.00936879962682724,0.0
95,5,-0.0002640610036905855,3.5437613405520096e-05,4.806048309546895e-05,-0.002451473381370306,0.0008327684481628239,-0.0012505888007581234,-0.03415390104055405,0.23043669760227203,0.0032953449990600348,0.0009318475495092571,-0.05550173297524452,-0.004415337927639484,0.0,0.0,0.0,0.0030112650711089373,-0.0042395880445837975,-0.0,0.0,0.0,0.0,0.0024545041378587484,-0.009827107191085815,-0.00029947495204396546,13731.0,14137.0,13918.0,14011.0,0.42141470313072205,0.44827941060066223,0.43365857005119324,0.4398433268070221,0.0,0.0,0.0,0.0,13739.0,14134.0,13914.0,14011.0,1.678524136543274,-0.1377001482434904,-0.31308571479115693,0.014394897008677621,0.01714746281504631,0.00936879962682724,0.0
100,5,-0.013122310861945152,-0.012114830315113068,-0.0006910196971148252,-0.002451473381370306,0.0008327684481628239,-0.0012505888007581234,-0.03415489196777344,0.23103560507297516,0.00321969878859818,-0.005366384517401457,-0.03855348005890846,-0.01050382386893034,0.0,0.0,0.0,-0.0009539993479847908,-0.0026691851671785116,-0.0,0.0,0.0,0.0,0.0019819948356598616,-0.009108442813158035,-0.0004605557769536972,13464.0,14157.0,13618.0,14059.0,0.4041863977909088,0.4496018588542938,0.4140980541706085,0.44300124049186707,0.0,0.0,0.0,0.0,13642.0,14216.0,13817.0,14117.0,1.6556535959243774,-2.965414702485309,0.2725841294485565,1.6625241380907465,0.01064876839518547,-0.0029276960995048285,0.0
105,5,-0.013137591071426868,-0.012096012942492962,-0.0007169904420152307,-0.0028142097871750593,-0.0019250254845246673,0.0026162590365856886,-0.03415489196777344,0.23103560507297516,0.00321969878859818,-0.005366384517401457,-0.03855348005890846,-0.01050382386893034,0.0,0.0,0.0,-0.0009539993479847908,-0.0026691851671785116,-0.0,0.0,0.0,0.0,0.0019819948356598616,-0.009108442813158035,-0.0004605557769536972,13464.0,14157.0,13618.0,14059.0,0.4041863977909088,0.4496018588542938,0.4140980541706085,0.44300124049186707,0.0,0.0,0.0,0.0,13642.0,14216.0,13817.0,14117.0,1.6556535959243774,-2.9641077082975302,0.27114688305835155,1.6628557406623306,0.01064876839518547,-0.0029276960995048285,0.0
110,5,-0.01258124504238367,-0.012329773977398872,-0.0014346058014780283,0.0656357929110527,0.02728135883808136,0.08716034144163132,-0.03430185467004776,0.23164737224578857,0.003039193106815219,-0.008149267174303532,-0.011127044446766376,-0.01054859347641468,0.0,0.0,0.0,-0.01690978743135929,-0.01816122606396675,-0.0,0.0,0.0,0.0,0.0023443729151040316,-0.008029161021113396,-0.0003241805243305862,13444.0,13968.0,13588.0,13892.0,0.40289655327796936,0.43698593974113464,0.41216835379600525,0.43192604184150696,0.0,0.0,0.0,0.0,13482.0,14140.0,13632.0,14044.0,1.8939357995986938,-2.9445488049902813,0.2797578292140613,1.6438657836498995,0.08286599814891815,-0.059357330203056335,0.0
115,5,-0.01296063233166933,-0.012164627201855183,-0.0010244015138596296,-0.01927216537296772,-0.008905023336410522,-0.01436037290841341,-0.03430185467004776,0.23164737224578857,0.003039193106815219,-0.008149267174303532,-0.011127044446766376,-0.01054859347641468,0.0,0.0,0.0,-0.01690978743135929,-0.01816122606396675,-0.0,0.0,0.0,0.0,0.0023443729151040316,-0.008029161021113396,-0.0003241805243305862,13444.0,13968.0,13588.0,13892.0,0.40289655327796936,0.43698593974113464,0.41216835379600525,0.43192604184150696,0.0,0.0,0.0,0.0,13482.0,14140.0,13632.0,14044.0,1.8939357995986938,-2.953995927814978,0.27344151835795477,1.656420129417207,0.08286599814891815,-0.059357330203056335,0.0
121,5,-0.01299411989748478,-0.012167643755674362,-0.0006907898932695389,-0.01172732189297676,-0.003200085833668709,-0.045777544379234314,-0.03432202711701393,0.23168671131134033,0.0030213617719709873,-0.0010425873333588243,0.003788260044530034,-0.0008304390357807279,0.0,0.0,0.0,-0.009030120447278023,-0.029697172343730927,-0.0,0.0,0.0,0.0,0.001964554423466325,-0.0067537943832576275,6.0914451751159504e-05,13658.0,13723.0,13777.0,13656.0,0.4166857600212097,0.4209086298942566,0.42439013719558716,0.41653960943222046,0.0,0.0,0.0,0.0,13431.0,13983.0,13563.0,13914.0,2.007965087890625,-2.965615996088614,0.27506753645325954,1.6577552286420063,0.14366190135478973,-0.03360837697982788,0.0
126,5,-0.0127713019028306,-0.012452452443540096,-0.0009817562531679869,0.02204715460538864,0.032896995544433594,0.016604946926236153,-0.03432202711701393,0.23168671131134033,0.0030213617719709873,-0.0010425873333588243,0.003788260044530034,-0.0008304390357807279,0.0,0.0,0.0,-0.009030120447278023,-0.029697172343730927,-0.0,0.0,0.0,0.0,0.001964554423466325,-0.0067537943832576275,6.0914451751159504e-05,13658.0,13723.0,13777.0,13656.0,0.4166857600212097,0.4209086298942566,0.42439013719558716,0.41653960943222046,0.0,0.0,0.0,0.0,13431.0,13983.0,13563.0,13914.0,2.007965087890625,-2.9584298081004192,0.2796567227245795,1.6484436276263887,0.14366190135478973,-0.03360837697982788,0.0
131,5,-0.012618724256753922,-0.012322633527219296,-0.0006049027433618903,0.027128199115395546,-0.002419444965198636,-0.03858043998479843,-0.034334637224674225,0.2315334677696228,0.003001090371981263,0.0012021363945677876,0.020628344267606735,-0.00019074478768743575,0.0,0.0,0.0,-0.04895051568746567,0.0024086316116154194,-0.0,0.0,0.0,0.0,0.0015462447190657258,-0.005087085533887148,-3.716968058142811e-05,13551.0,13660.0,13642.0,13609.0,0.40975356101989746,0.41678524017333984,0.41564035415649414,0.413474440574646,0.0,0.0,0.0,0.0,13604.0,13774.0,13716.0,13720.0,2.117619276046753,-2.9659977028212268,0.28359865560710557,1.6455409832543133,-0.012275783345103264,-0.19199879467487335,0.0
136,6,-0.012361686676740646,-0.012421471066772938,-0.0005158622516319156,0.04169575870037079,0.010892756283283234,-0.02611703984439373,-0.034334637224674225,0.2315334677696228,0.003001090371981263,0.0012021363945677876,0.020628344267606735,-0.00019074478768743575,0.0,0.0,0.0,-0.04895051568746567,0.0024086316116154194,-0.0,0.0,0.0,0.0,0.0015462447190657258,-0.005087085533887148,-3.716968058142811e-05,13551.0,13660.0,13642.0,13609.0,0.40975356101989746,0.41678524017333984,0.41564035415649414,0.413474440574646,0.0,0.0,0.0,0.0,13604.0,13774.0,13716.0,13720.0,2.117619276046753,-2.9654216539907274,0.2904274967120311,1.636234732405045,-0.012275783345103264,-0.19199879467487335,0.0
141,5,-0.012093138881027699,-0.012497480027377605,-0.000487633456941694,0.04890414699912071,0.01347820833325386,-0.013834266923367977,-0.03434577211737633,0.23143289983272552,0.0029995155055075884,-5.287415478960611e-05,0.018881795927882195,-0.002798192435875535,0.0,0.0,0.0,-0.029644014313817024,0.018386757001280785,-0.0,0.0,0.0,0.0,0.0013600725214928389,-0.006124433130025864,-6.40422003925778e-05,14817.0,14995.0,14911.0,14934.0,0.4950968325138092,0.5077593922615051,0.5017402768135071,0.5033685564994812,0.0,0.0,0.0,0.0,13611.0,13596.0,13709.0,13546.0,1.9908437728881836,-2.9646936580701846,0.2988969552583272,1.627270670458587,-0.08816148340702057,-0.10936218500137329,0.0
146,5,-0.01186017133295536,-0.012542800046503544,-0.00044153336784802377,0.047517720609903336,0.010829677805304527,-0.011065720580518246,-0.03434577211737633,0.23143289983272552,0.0029995155055075884,-5.287415478960611e-05,0.018881795927882195,-0.002798192435875535,0.0,0.0,0.0,-0.029644014313817024,0.018386757001280785,-0.0,0.0,0.0,0.0,0.0013600725214928389,-0.006124433130025864,-6.40422003925778e-05,14817.0,14995.0,14911.0,14934.0,0.4950968325138092,0.5077593922615051,0.5017402768135071,0.5033685564994812,0.0,0.0,0.0,0.0,13611.0,13596.0,13709.0,13546.0,1.9908437728881836,-2.9621552152338446,0.3058699480867501,1.6188664713125005,-0.08816148340702057,-0.10936218500137329,0.0
151,5,-0.011697645299136639,-0.01257836539298296,-0.00038875456084497273,0.038510218262672424,0.008599614724516869,-0.010759741999208927,-0.03434477373957634,0.23128648102283478,0.002944564213976264,-0.0030905131716281176,0.018630092963576317,-0.00921595934778452,0.0,0.0,0.0,-0.02916506864130497,0.02302503027021885,-0.0,0.0,0.0,0.0,0.0006381638813763857,-0.0039018960669636726,-6.187670078361407e-05,14740.0,15068.0,14839.0,15008.0,0.4896871745586395,0.5129453539848328,0.49666139483451843,0.508671224117279,0.0,0.0,0.0,0.0,14660.0,15147.0,14753.0,15092.0,2.032418727874756,-2.960692074631422,0.31195076622104145,1.6128479875410167,-0.11270473897457123,-0.10984311997890472,0.0
157,5,-0.011563031934201717,-0.012599334120750427,-0.00033496515243314207,0.03155766427516937,0.0059561715461313725,-0.010758629068732262,-0.03434477373957634,0.23128648102283478,0.002944564213976264,-0.0030905131716281176,0.018630092963576317,-0.00921595934778452,0.0,0.0,0.0,-0.02916506864130497,0.02302503027021885,-0.0,0.0,0.0,0.0,0.0006381638813763857,-0.0039018960669636726,-6.187670078361407e-05,14740.0,15068.0,14839.0,15008.0,0.4896871745586395,0.5129453539848328,0.49666139483451843,0.508671224117279,0.0,0.0,0.0,0.0,14660.0,15147.0,14753.0,15092.0,2.032418727874756,-2.9588338209497156,0.31608834924561774,1.6081418450788967,-0.11270473897457123,-0.10984311997890472,0.0
162,5,-0.011447422206401825,-0.01260041818022728,-0.0002885102294385433,0.026496198028326035,0.0025124775711447,-0.009878040291368961,-0.03434477373957634,0.23128648102283478,0.002944564213976264,-0.0030905131716281176,0.018630092963576317,-0.00921595934778452,0.0,0.0,0.0,-0.026018675416707993,0.0118548683822155,-0.0,0.0,0.0,0.0,0.0006381638813763857,-0.0039018960669636726,-6.187670078361407e-05,14740.0,15068.0,14839.0,15008.0,0.4896871745586395,0.5129453539848328,0.49666139483451843,0.508671224117279,0.0,0.0,0.0,0.0,14660.0,15147.0,14753.0,15092.0,1.9065444469451904,-2.957489248095059,0.31989903810798453,1.6052020052634213,-0.05444253981113434,-0.09192880988121033,0.0
167,5,-0.011314870789647102,-0.012620209716260433,-0.00022816179262008518,0.014785345643758774,0.0012218574993312359,-0.005610956810414791,-0.03436074033379555,0.23053888976573944,0.002799818990752101,0.004708923865109682,0.08141700178384781,-0.10598777234554291,0.0,0.0,0.0,-0.026018675416707993,0.0118548683822155,-0.0,0.0,0.0,0.0,0.0007312168017961085,-0.00017926300643011928,0.00023622871958650649,14073.0,15867.0,14074.0,15874.0,0.4439614415168762,0.5719273686408997,0.444058358669281,0.572471559047699,0.0,0.0,0.0,0.0,15394.0,14286.0,15437.0,14254.0,1.9065444469451904,-2.9554693028236763,0.3241597368318366,1.6017134547742868,-0.05444253981113434,-0.09192880988121033,0.0
172,5,-0.01122010312974453,-0.012623708695173264,-0.00021616517915390432,0.01728627271950245,0.0009085674537345767,-0.0036839772947132587,-0.03436074033379555,0.23053888976573944,0.002799818990752101,0.004708923865109682,0.08141700178384781,-0.10598777234554291,0.0,0.0,0.0,-0.021990329027175903,-0.0016234532231464982,-0.0,0.0,0.0,0.0,0.0007312168017961085,-0.00017926300643011928,0.00023622871958650649,14073.0,15867.0,14074.0,15874.0,0.4439614415168762,0.5719273686408997,0.444058358669281,0.572471559047699,0.0,0.0,0.0,0.0,15394.0,14286.0,15437.0,14254.0,1.824098825454712,-2.953796516847426,0.3241338675142735,1.6000166393721496,0.007134028244763613,-0.07434042543172836,0.0
177,5,-0.011156911961734295,-0.012632637284696102,-0.00017959182150661945,0.014497414231300354,0.0014349230332300067,-0.0058623929508030415,-0.034364230930805206,0.23012775182724,0.002700052922591567,-0.029207149520516396,0.050043266266584396,0.2706776261329651,0.0,0.0,0.0,-0.021990329027175903,-0.0016234532231464982,-0.0,0.0,0.0,0.0,0.0019958829507231712,-0.0029893440660089254,0.003000000026077032,16458.0,13340.0,16519.0,13335.0,0.6176486015319824,0.39629819989204407,0.6224414110183716,0.39603057503700256,0.0,0.0,0.0,0.0,13348.0,16493.0,13327.0,16484.0,1.824098825454712,-2.9537425047888077,0.3242260212188679,1.6010220841419782,0.007134028244763613,-0.07434042543172836,0.0
182,5,-0.011115504428744316,-0.012617156840860844,-0.00015312254254240543,0.01076791062951088,-0.001283729448914528,-0.0055212718434631824,-0.034364230930805206,0.23012775182724,0.002700052922591567,-0.029207149520516396,0.050043266266584396,0.2706776261329651,0.0,0.0,0.0,-0.022232264280319214,-0.0016793872928246856,-0.0,0.0,0.0,0.0,0.0019958829507231712,-0.0029893440660089254,0.003000000026077032,16458.0,13340.0,16519.0,13335.0,0.6176486015319824,0.39629819989204407,0.6224414110183716,0.39603057503700256,0.0,0.0,0.0,0.0,13348.0,16493.0,13327.0,16484.0,1.8265315294265747,-2.9527979425195654,0.3240959918228711,1.6004146454084451,0.007389625068753958,-0.07525830715894699,0.0
187,5,-0.011070854030549526,-0.01263304241001606,-0.00016139226499944925,0.009665205143392086,0.0013928120024502277,-0.001216141157783568,-0.03420421853661537,0.22882498800754547,0.0020318820606917143,0.04847349599003792,0.11392242461442947,-0.20705702900886536,0.0,0.0,0.0,-0.022232264280319214,-0.0016793872928246856,-0.0,0.0,0.0,0.0,-0.0023065444547683,0.006604653317481279,-0.003000000026077032,12892.0,16075.0,12766.0,16095.0,0.3685208261013031,0.5878057479858398,0.3608708083629608,0.5893471240997314,0.0,0.0,0.0,0.0,16065.0,12796.0,16104.0,12862.0,1.8265315294265747,-2.953382003443239,0.32503508514107393,1.5997429228208353,0.007389625068753958,-0.07525830715894699,0.0
192,5,-0.010985499247908592,-0.01261955127120018,-0.00014123709115665406,0.014108638279139996,-0.0010618504602462053,-0.0029050775337964296,-0.03420421853661537,0.22882498800754547,0.0020318820606917143,0.04847349599003792,0.11392242461442947,-0.20705702900886536,0.0,0.0,0.0,-0.022088423371315002,-0.005671130493283272,-0.0,0.0,0.0,0.0,-0.0023065444547683,0.006604653317481279,-0.003000000026077032,12892.0,16075.0,12766.0,16095.0,0.3685208261013031,0.5878057479858398,0.3608708083629608,0.5893471240997314,0.0,0.0,0.0,0.0,16065.0,12796.0,16104.0,12862.0,1.8358536958694458,-2.9521774473800937,0.32552393863005913,1.5992484362395487,0.025081373751163483,-0.07515314966440201,0.0
197,5,-0.010935304686427116,-0.01260893139988184,-0.00011601849109865725,0.011666771955788136,-0.0016990902367979288,-0.0041882628574967384,-0.03443453460931778,0.22862280905246735,0.0028123403899371624,-0.0755380317568779,0.09415852278470993,0.075527124106884,0.0,0.0,0.0,-0.022088423371315002,-0.005671130493283272,-0.0,0.0,0.0,0.0,0.005749979522079229,-0.0038530249148607254,0.003000000026077032,15764.0,12443.0,15865.0,12525.0,0.5641606450080872,0.3416917026042938,0.5717694163322449,0.34647712111473083,0.0,0.0,0.0,0.0,12494.0,15856.0,12474.0,15772.0,1.8358536958694458,-2.950561962201721,0.32399727896818603,1.5994028767702422,0.025081373751163483,-0.07515314966440201,0.0
202,5,-0.010887635871767998,-0.012623784132301807,-0.00014739875041414052,0.010386992245912552,0.0011027012951672077,0.0020903265103697777,-0.03443453460931778,0.22862280905246735,0.0028123403899371624,-0.0755380317568779,0.09415852278470993,0.075527124106884,0.0,0.0,0.0,-0.0190202035009861,-0.003889580722898245,-0.0,0.0,0.0,0.0,0.005749979522079229,-0.0038530249148607254,0.003000000026077032,15764.0,12443.0,15865.0,12525.0,0.5641606450080872,0.3416917026042938,0.5717694163322449,0.34647712111473083,0.0,0.0,0.0,0.0,12494.0,15856.0,12474.0,15772.0,1.8006765842437744,-2.950490614885302,0.3241487265051588,1.5988466521990004,0.016873717308044434,-0.06347633898258209,0.0
207,5,0.0006241645314730704,-0.0017914599739015102,-0.0005321581847965717,0.010386992245912552,0.0011027012951672077,0.0020903265103697777,-0.034387923777103424,0.22731652855873108,0.002325531793758273,0.04194211959838867,0.05394855886697769,0.019590921700000763,0.0,0.0,0.0,-0.0190202035009861,-0.003889580722898245,-0.0,0.0,0.0,0.0,-0.0029868409037590027,0.0016588610596954823,-0.0025093264412134886,13720.0,14825.0,13678.0,14776.0,0.42068952322006226,0.49567198753356934,0.41798484325408936,0.49218517541885376,0.0,0.0,0.0,0.0,13885.0,14535.0,13913.0,14691.0,1.8006765842437744,-0.12394326707329983,-0.29846884877539137,-0.006406222862342666,0.016873717308044434,-0.06347633898258209,0.0
212,5,0.0007039153133518994,-0.0018311950843781233,-0.0008489634492434561,0.013724890537559986,0.005209290888160467,0.038852766156196594,-0.034387923777103424,0.22731652855873108,0.002325531793758273,0.04194211959838867,0.05394855886697769,0.019590921700000763,0.0,0.0,0.0,-0.004482252523303032,0.009969030506908894,-0.0,0.0,0.0,0.0,-0.0029868409037590027,0.0016588610596954823,-0.0025093264412134886,13720.0,14825.0,13678.0,14776.0,0.42068952322006226,0.49567198753356934,0.41798484325408936,0.49218517541885376,0.0,0.0,0.0,0.0,13885.0,14535.0,13913.0,14691.0,1.7445765733718872,-0.1242578985915431,-0.28862704634790365,-0.006489467747045435,-0.0419066846370697,-0.014494133181869984,0.0
218,5,0.0007224286091513932,-0.0017957313684746623,-0.0008389776921831071,0.007711554411798716,-0.002171930857002735,0.01434281188994646,-0.0345844104886055,0.2268674373626709,0.00265440228395164,-0.010286418721079826,0.08378808945417404,-0.11385926604270935,0.0,0.0,0.0,-0.004482252523303032,0.009969030506908894,-0.0,0.0,0.0,0.0,0.0030442308634519577,-0.0011405212571844459,-0.0012846930185332894,12514.0,15842.0,12554.0,15865.0,0.34582599997520447,0.5700377225875854,0.34822025895118713,0.5717697739601135,0.0,0.0,0.0,0.0,12524.0,15858.0,12544.0,15848.0,1.7445765733718872,-0.12270098678764493,-0.2884137798576545,-0.004817728755296089,-0.0419066846370697,-0.014494133181869984,0.0
223,5,0.0007697435212321579,-0.0018165516667068005,-0.0007271283539012074,0.008762408047914505,0.0016296599060297012,-0.007684793788939714,-0.0345844104886055,0.2268674373626709,0.00265440228395164,-0.010286418721079826,0.08378808945417404,-0.11385926604270935,0.0,0.0,0.0,-0.0007069685379974544,0.007852925918996334,-0.0,0.0,0.0,0.0,0.0030442308634519577,-0.0011405212571844459,-0.0012846930185332894,12514.0,15842.0,12554.0,15865.0,0.34582599997520447,0.5700377225875854,0.34822025895118713,0.5717697739601135,0.0,0.0,0.0,0.0,12524.0,15858.0,12544.0,15848.0,1.7131516933441162,-0.12421039133864684,-0.29158358797161815,-0.0059764252956092416,-0.032417137175798416,-0.002244938164949417,0.0
228,5,0.000795489177107811,-0.0017766382079571486,-0.0007141449605114758,0.006594445556402206,-0.00413774698972702,-0.004631929099559784,-0.03459906205534935,0.22630909085273743,0.003103762399405241,0.014675394631922245,0.03762248903512955,0.1698879450559616,0.0,0.0,0.0,-0.0007069685379974544,0.007852925918996334,-0.0,0.0,0.0,0.0,-0.0006690064328722656,-0.005631298758089542,0.003000000026077032,15713.0,12428.0,15761.0,12340.0,0.5602976083755493,0.34082409739494324,0.563921332359314,0.33563360571861267,0.0,0.0,0.0,0.0,15229.0,12983.0,15258.0,13003.0,1.7131516933441162,-0.12372487174487223,-0.2898024141243066,-0.004768551152048636,-0.032417137175798416,-0.002244938164949417,0.0
233,5,0.0008276891894638538,-0.0017532843630760908,-0.0007214653305709362,0.00650177663192153,-0.004457558039575815,-0.0009743254049681127,-0.03459906205534935,0.22630909085273743,0.003103762399405241,0.014675394631922245,0.03762248903512955,0.1698879450559616,0.0,0.0,0.0,0.0016540904762223363,0.006972982082515955,-0.0,0.0,0.0,0.0,-0.0006690064328722656,-0.005631298758089542,0.003000000026077032,15713.0,12428.0,15761.0,12340.0,0.5602976083755493,0.34082409739494324,0.563921332359314,0.33563360571861267,0.0,0.0,0.0,0.0,15229.0,12983.0,15258.0,13003.0,1.7041209936141968,-0.1236499143985858,-0.28861863031354656,-0.002885105320623017,-0.02863299287855625,0.005224778316915035,0.0
238,5,0.0008460470708087087,-0.0016646672738716006,-0.0006291444296948612,0.004803660325706005,-0.012417069636285305,-0.011468236334621906,-0.03461483120918274,0.22537635266780853,0.002297459403052926,-0.005406779702752829,0.0900534987449646,0.05179106444120407,0.0,0.0,0.0,0.0016540904762223363,0.006972982082515955,-0.0,0.0,0.0,0.0,0.0060209049843251705,0.00698059843853116,-0.0017515532672405243,13644.0,14234.0,13640.0,14290.0,0.415723592042923,0.45477667450904846,0.4155072867870331,0.4585690200328827,0.0,0.0,0.0,0.0,15422.0,11992.0,15463.0,12014.0,1.7041209936141968,-0.12382578598824479,-0.2890049319842149,-0.0013279785307357126,-0.02863299287855625,0.005224778316915035,0.0
243,5,0.000826005358248949,-0.0015607562381774187,-0.0002664720523171127,-0.0004835418949369341,-0.017436165362596512,-0.04810797795653343,-0.03461483120918274,0.22537635266780853,0.002297459403052926,-0.005406779702752829,0.0900534987449646,0.05179106444120407,0.0,0.0,0.0,0.011427982710301876,0.005291334819048643,-0.0,0.0,0.0,0.0,0.0060209049843251705,0.00698059843853116,-0.0017515532672405243,13644.0,14234.0,13640.0,14290.0,0.415723592042923,0.45477667450904846,0.4155072867870331,0.4585690200328827,0.0,0.0,0.0,0.0,15422.0,11992.0,15463.0,12014.0,1.741192102432251,-0.1264734437808188,-0.2999688231569915,-0.0002686392717794613,-0.022199001163244247,0.03688142076134682,0.0
248,5,0.0008378932252526283,-0.0013866117224097252,-0.0004709043132606894,0.0012331254547461867,-0.02787180058658123,0.005288677290081978,-0.03461483120918274,0.22537635266780853,0.002297459403052926,-0.005406779702752829,0.0900534987449646,0.05179106444120407,0.0,0.0,0.0,0.011427982710301876,0.005291334819048643,-0.0,0.0,0.0,0.0,0.0060209049843251705,0.00698059843853116,-0.0017515532672405243,13644.0,14234.0,13640.0,14290.0,0.415723592042923,0.45477667450904846,0.4155072867870331,0.4585690200328827,0.0,0.0,0.0,0.0,15422.0,11992.0,15463.0,12014.0,1.741192102432251,-0.12604436059446586,-0.2933698149229519,0.005289476283539114,-0.022199001163244247,0.03688142076134682,0.0
253,5,-0.011637249030172825,-0.013010140508413315,-0.0004720599972642958,0.0012331254547461867,-0.02787180058658123,0.005288677290081978,-0.03502059355378151,0.22379091382026672,0.0025698665995150805,-0.042782846838235855,0.20300157368183136,-0.1723116785287857,0.0,0.0,0.0,0.011427982710301876,0.005291334819048643,-0.0,0.0,0.0,0.0,-0.0015310610178858042,0.008240104652941227,0.003000000026077032,12029.0,15353.0,11976.0,15532.0,0.3178446888923645,0.5336402654647827,0.3148505687713623,0.5468161702156067,0.0,0.0,0.0,0.0,12043.0,15347.0,11963.0,15538.0,1.741192102432251,-2.9688106790751267,0.2671527546654225,1.6442242899008275,-0.022199001163244247,0.03688142076134682,0.0
258,5,-0.0002122417645296082,-0.0015300879022106528,0.004561205394566059,0.0012331254547461867,-0.02787180058658123,0.005288677290081978,-0.03502059355378151,0.22379091382026672,0.0025698665995150805,-0.042782846838235855,0.20300157368183136,-0.1723116785287857,0.0,0.0,0.0,0.009669850580394268,-0.013757913373410702,-0.0,0.0,0.0,0.0,-0.0015310610178858042,0.008240104652941227,0.003000000026077032,12029.0,15353.0,11976.0,15532.0,0.3178446888923645,0.5336402654647827,0.3148505687713623,0.5468161702156067,0.0,0.0,0.0,0.0,12043.0,15347.0,11963.0,15538.0,1.8068472146987915,-0.14111930229821604,-0.4485817194003894,-0.0157018864558392,0.05989518389105797,0.032384518533945084,0.0
263,5,-0.01140711922198534,-0.012937129475176334,-0.0006241215160116553,0.0012331254547461867,-0.02787180058658123,0.005288677290081978,-0.03519134223461151,0.2221628725528717,0.0034874239936470985,0.025584403425455093,0.17995941638946533,0.13257575035095215,0.0,0.0,0.0,0.009669850580394268,-0.013757913373410702,-0.0,0.0,0.0,0.0,0.0032929140143096447,0.012927280738949776,-0.001656777341850102,14923.0,12851.0,14815.0,13041.0,0.5025778412818909,0.36602941155433655,0.49492838978767395,0.377656489610672,0.0,0.0,0.0,0.0,13023.0,14515.0,12876.0,14688.0,1.8068472146987915,-2.960286950256362,0.2682182613975146,1.6353785213171494,0.05989518389105797,0.032384518533945084,0.0
268,5,-0.011447652243077755,-0.012951655313372612,-0.0006421802099794149,-0.004370685201138258,-0.009405624121427536,0.0042825196869671345,-0.03519134223461151,0.2221628725528717,0.0034874239936470985,0.025584403425455093,0.17995941638946533,0.13257575035095215,0.0,0.0,0.0,0.009787000715732574,-0.013495159335434437,-0.0,0.0,0.0,0.0,0.0032929140143096447,0.012927280738949776,-0.001656777341850102,14923.0,12851.0,14815.0,13041.0,0.5025778412818909,0.36602941155433655,0.49492838978767395,0.377656489610672,0.0,0.0,0.0,0.0,13023.0,14515.0,12876.0,14688.0,1.8045042753219604,-2.960622007695198,0.26839515938199765,1.6364069654768874,0.05867509916424751,0.032734330743551254,0.0
273,5,-0.011498844251036644,-0.012960708700120449,-0.0006062561878934503,-0.00789126567542553,-0.0026758930180221796,-0.002597880084067583,-0.0352141298353672,0.21930444240570068,0.0030787629075348377,0.009500361047685146,0.18524830043315887,0.12953926622867584,0.0,0.0,0.0,0.009787000715732574,-0.013495159335434437,-0.0,0.0,0.0,0.0,0.0025354877579957247,0.006596845109015703,-0.0020078825764358044,14923.0,12851.0,14815.0,13041.0,0.5025778412818909,0.36602941155433655,0.49492838978767395,0.377656489610672,0.0,0.0,0.0,0.0,15588.0,12073.0,15487.0,12180.0,1.8045042753219604,-2.960512811209701,0.26830709206725734,1.6361965987002465,0.05867509916424751,0.032734330743551254,0.0
278,5,-0.011833556927740574,-0.012996026314795017,-5.1279675972182304e-05,-0.04332207888364792,0.00316778477281332,-0.06763633340597153,-0.0352141298353672,0.21930444240570068,0.0030787629075348377,0.009500361047685146,0.18524830043315887,0.12953926622867584,0.0,0.0,0.0,-0.01740647852420807,-0.02020465023815632,-0.0,0.0,0.0,0.0,0.0025354877579957247,0.006596845109015703,-0.0020078825764358044,14923.0,12851.0,14815.0,13041.0,0.5025778412818909,0.36602941155433655,0.49492838978767395,0.377656489610672,0.0,0.0,0.0,0.0,15588.0,12073.0,15487.0,12180.0,1.9197046756744385,-2.9783098152490988,0.26665867326021836,1.6443272189756808,0.09344204515218735,-0.061931852251291275,0.0
284,5,-0.011706291697919369,-0.013003343716263771,-0.00044692555093206465,-0.002056959317997098,0.0021452016662806273,0.02042297087609768,-0.03457936644554138,0.2166256457567215,0.00381760043092072,0.11760108917951584,0.045301277190446854,0.08524124324321747,0.0,0.0,0.0,-0.01740647852420807,-0.02020465023815632,-0.0,0.0,0.0,0.0,-0.00522414268925786,-0.004305070731788874,0.003000000026077032,15770.0,12481.0,15728.0,12320.0,0.5646398067474365,0.3438979983329773,0.561492919921875,0.33447355031967163,0.0,0.0,0.0,0.0,12442.0,15724.0,12379.0,15790.0,1.9197046756744385,-2.9634091847199415,0.2695357665385959,1.6378624309707095,0.09344204515218735,-0.061931852251291275,0.0
289,5,-0.011754869483411312,-0.01296104397624731,-0.0002785038377624005,-0.006652146577835083,-0.004217904061079025,-0.012041415087878704,-0.03457936644554138,0.2166256457567215,0.00381760043092072,0.11760108917951584,0.045301277190446854,0.08524124324321747,0.0,0.0,0.0,-0.02268071472644806,-0.01580934226512909,-0.0,0.0,0.0,0.0,-0.00522414268925786,-0.004305070731788874,0.003000000026077032,15770.0,12481.0,15728.0,12320.0,0.5646398067474365,0.3438979983329773,0.561492919921875,0.33447355031967163,0.0,0.0,0.0,0.0,12442.0,15724.0,12379.0,15790.0,1.9103113412857056,-2.9655659097933884,0.2720531694955411,1.6362440464158217,0.07275118678808212,-0.08029746264219284,0.0
294,5,-0.012024874798953533,-0.01293015107512474,0.0002181965537602082,-0.03506148234009743,-0.005394272971898317,-0.06442061066627502,-0.033608175814151764,0.21649743616580963,0.0027039875276386738,0.060037899762392044,-0.06027822196483612,0.07607309520244598,0.0,0.0,0.0,-0.02268071472644806,-0.01580934226512909,-0.0,0.0,0.0,0.0,-0.006327210925519466,-0.006735682487487793,-0.003000000026077032,14625.0,14637.0,14703.0,14435.0,0.4816579818725586,0.4824795126914978,0.4870445728302002,0.4685226082801819,0.0,0.0,0.0,0.0,12435.0,15829.0,12366.0,15669.0,1.9103113412857056,-2.98113937244061,0.2719023685262525,1.6407627519783605,0.07275118678808212,-0.08029746264219284,0.0
299,5,0.00024258015037048608,-0.0014735854929313064,-0.00029475984047167003,-0.03506148234009743,-0.005394272971898317,-0.06442061066627502,-0.033608175814151764,0.21649743616580963,0.0027039875276386738,0.060037899762392044,-0.06027822196483612,0.07607309520244598,0.0,0.0,0.0,-0.012988732196390629,-0.0383564829826355,-0.0,0.0,0.0,0.0,-0.006327210925519466,-0.006735682487487793,-0.003000000026077032,14625.0,14637.0,14703.0,14435.0,0.4816579818725586,0.4824795126914978,0.4870445728302002,0.4685226082801819,0.0,0.0,0.0,0.0,12435.0,15829.0,12366.0,15669.0,2.1464242935180664,-0.12685900873581313,-0.2843659447713486,-0.004819461808718377,0.1983184516429901,-0.05167359486222267,0.0
304,5,0.00014226189523469657,-0.001488018431700766,-0.00032545559224672616,-0.02606278471648693,-0.0004257482651155442,-0.022084755823016167,-0.03334133327007294,0.21706999838352203,0.0021864266600459814,-0.035423170775175095,-0.022185763344168663,-0.24495929479599,0.0,0.0,0.0,-0.012988732196390629,-0.0383564829826355,-0.0,0.0,0.0,0.0,0.003447449067607522,-0.009965450502932072,-0.003000000026077032,12745.0,16128.0,12943.0,16066.0,0.35962963104248047,0.5919031500816345,0.371645450592041,0.5871331095695496,0.0,0.0,0.0,0.0,16057.0,13013.0,16197.0,12752.0,2.1464242935180664,-0.1278179184718238,-0.28501837394782353,-0.005109936759560659,0.1983184516429901,-0.05167359486222267,0.0
309,5,1.8533837646828033e-05,-0.0014909273013472557,-0.0002566430775914341,-0.02527248114347458,0.00017876016499940306,-0.017091404646635056,-0.03334133327007294,0.21706999838352203,0.0021864266600459814,-0.035423170775175095,-0.022185763344168663,-0.24495929479599,0.0,0.0,0.0,-0.002113665221258998,-0.02151646465063095,-0.0,0.0,0.0,0.0,0.003447449067607522,-0.009965450502932072,-0.003000000026077032,12745.0,16128.0,12943.0,16066.0,0.35962963104248047,0.5919031500816345,0.371645450592041,0.5871331095695496,0.0,0.0,0.0,0.0,16057.0,13013.0,16197.0,12752.0,1.883647084236145,-0.12849248335533806,-0.2882733864298876,-0.005196918650768288,0.09765351563692093,-0.007379784714430571,0.0
314,5,-6.561461486853659e-05,-0.0015069455839693546,-0.00035850636777468026,-0.020206807181239128,0.001993700861930847,0.005387032404541969,-0.03364162892103195,0.21792249381542206,0.0024824864231050014,-0.07857324928045273,-0.05768323689699173,0.0040102386847138405,0.0,0.0,0.0,-0.002113665221258998,-0.02151646465063095,-0.0,0.0,0.0,0.0,0.0022723237052559853,-0.0158292967826128,0.003000000026077032,16426.0,14190.0,16679.0,14077.0,0.6151247620582581,0.4518466591835022,0.6351979374885559,0.44425493478775024,0.0,0.0,0.0,0.0,12745.0,16148.0,12943.0,16046.0,1.883647084236145,-0.1286450191572846,-0.2847015744220112,-0.006120917800255562,0.09765351563692093,-0.007379784714430571,0.0
319,5,-0.00019329527276568115,-0.0014535450609400868,-0.00013202746049501002,-0.023404402658343315,-0.005610588006675243,-0.025022655725479126,-0.03364162892103195,0.21792249381542206,0.0024824864231050014,-0.07857324928045273,-0.05768323689699173,0.0040102386847138405,0.0,0.0,0.0,-0.0048720878548920155,-0.017387298867106438,-0.0,0.0,0.0,0.0,0.0022723237052559853,-0.0158292967826128,0.003000000026077032,16426.0,14190.0,16679.0,14077.0,0.6151247620582581,0.4518466591835022,0.6351979374885559,0.44425493478775024,0.0,0.0,0.0,0.0,12745.0,16148.0,12943.0,16046.0,1.8340637683868408,-0.12988283813321544,-0.2910673331702306,-0.006733618839090054,0.07683718204498291,-0.016562845557928085,0.0
324,5,-0.012227706611156464,-0.013131271116435528,-0.0015585904475301504,-0.023404402658343315,-0.005610588006675243,-0.025022655725479126,-0.03364162892103195,0.21792249381542206,0.0024824864231050014,-0.07857324928045273,-0.05768323689699173,0.0040102386847138405,0.0,0.0,0.0,-0.0048720878548920155,-0.017387298867106438,-0.0,0.0,0.0,0.0,0.0022723237052559853,-0.0158292967826128,0.003000000026077032,16426.0,14190.0,16679.0,14077.0,0.6151247620582581,0.4518466591835022,0.6351979374885559,0.44425493478775024,0.0,0.0,0.0,0.0,12745.0,16148.0,12943.0,16046.0,1.8340637683868408,-2.957420826254388,0.30339205346729,1.6279729342809544,0.07683718204498291,-0.016562845557928085,0.0
329,5,-0.012353504076600075,-0.013098849914968014,-0.0014792134752497077,-0.024457452818751335,-0.00613481504842639,-0.01953430287539959,-0.03358832746744156,0.21726012229919434,0.001156922080554068,0.011526983231306076,0.05134062096476555,0.020165296271443367,0.0,0.0,0.0,-0.013702034018933773,-0.03155950829386711,-0.0,0.0,0.0,0.0,-0.0010402909247204661,-0.0003809860209003091,-0.003000000026077032,13595.0,15294.0,13617.0,15273.0,0.4126071631908417,0.5293049812316895,0.41397979855537415,0.5277551412582397,0.0,0.0,0.0,0.0,13699.0,16830.0,13863.0,16861.0,2.04885196685791,-2.959063831848802,0.30320898941422353,1.629717641616949,0.15576858818531036,-0.05203307792544365,0.0
334,5,-0.012898883782327175,-0.012990700080990791,-0.00047345427446998656,-0.07522856444120407,-0.01543185394257307,-0.12850482761859894,-0.03358832746744156,0.21726012229919434,0.001156922080554068,0.011526983231306076,0.05134062096476555,0.020165296271443367,0.0,0.0,0.0,-0.013702034018933773,-0.03155950829386711,-0.0,0.0,0.0,0.0,-0.0010402909247204661,-0.0003809860209003091,-0.003000000026077032,13595.0,15294.0,13617.0,15273.0,0.4126071631908417,0.5293049812316895,0.41397979855537415,0.5277551412582397,0.0,0.0,0.0,0.0,13699.0,16830.0,13863.0,16861.0,2.04885196685791,-2.9915052627663195,0.3000552199638184,1.6448334088370409,0.15576858818531036,-0.05203307792544365,0.0
339,5,-0.012990690767765045,-0.012977921403944492,-0.0004077173362020403,-0.04110822081565857,-0.007706213742494583,-0.059290364384651184,-0.033611755818128586,0.21670621633529663,0.0004912947188131511,-0.061365921050310135,0.10604463517665863,-0.2385650873184204,0.0,0.0,0.0,-0.0031517755705863237,-0.05927287042140961,-0.0,0.0,0.0,0.0,0.003859866177663207,0.0014658847358077765,-0.003000000026077032,12711.0,15963.0,12757.0,16057.0,0.3576017916202545,0.5792701840400696,0.3603411614894867,0.586434006690979,0.0,0.0,0.0,0.0,15992.0,12746.0,16028.0,12722.0,2.478966236114502,-2.993554912251634,0.3005720128274099,1.6441642148919708,0.3538522720336914,-0.014482153579592705,0.0
345,5,-0.013062160462141037,-0.012931996025145054,-0.00034197131753899157,-0.025019608438014984,-0.008593493141233921,-0.031605664640665054,-0.033611755818128586,0.21670621633529663,0.0004912947188131511,-0.061365921050310135,0.10604463517665863,-0.2385650873184204,0.0,0.0,0.0,-0.0031517755705863237,-0.05927287042140961,-0.0,0.0,0.0,0.0,0.024518972262740135,-0.003236183198168874,0.001941018388606608,14997.0,13161.0,15357.0,13510.0,0.5078856945037842,0.38509994745254517,0.5339605212211609,0.4071176052093506,0.0,0.0,0.0,0.0,12466.0,15786.0,12586.0,15908.0,2.478966236114502,-2.994379212405969,0.30040833142118145,1.6443523071709634,0.3538522720336914,-0.014482153579592705,0.0
350,5,-0.013119111768901348,-0.012871281243860722,-0.0001954545296030119,-0.01684209331870079,-0.010723265819251537,-0.030224282294511795,-0.03448302671313286,0.21620085835456848,-0.0001772004907252267,-0.3162362575531006,0.06394411623477936,0.01647188700735569,0.0,0.0,0.0,-0.01040882058441639,-0.033460378646850586,-0.0,0.0,0.0,0.0,0.024518972262740135,-0.003236183198168874,0.001941018388606608,14997.0,13161.0,15357.0,13510.0,0.5078856945037842,0.38509994745254517,0.5339605212211609,0.4071176052093506,0.0,0.0,0.0,0.0,12466.0,15786.0,12586.0,15908.0,2.065786600112915,-2.996331901475736,0.30084785771669725,1.6432170856637816,0.1665189415216446,-0.03985486179590225,0.0
355,5,-0.013121241703629494,-0.012783943675458431,-8.864112169248983e-05,-0.006992351729422808,-0.01476981770247221,-0.024907320737838745,-0.03448302671313286,0.21620085835456848,-0.0001772004907252267,-0.3162362575531006,0.06394411623477936,0.01647188700735569,0.0,0.0,0.0,-0.01040882058441639,-0.033460378646850586,-0.0,0.0,0.0,0.0,0.024518972262740135,-0.003236183198168874,0.001941018388606608,14997.0,13161.0,15357.0,13510.0,0.5078856945037842,0.38509994745254517,0.5339605212211609,0.4071176052093506,0.0,0.0,0.0,0.0,12466.0,15786.0,12586.0,15908.0,2.065786600112915,-2.9960978359757107,0.3029116041902077,1.6393013760351756,0.1665189415216446,-0.03985486179590225,0.0
360,5,-0.013157645240426064,-0.012688590213656425,6.07121764915064e-05,-0.0071654305793344975,-0.017350314185023308,-0.027885325253009796,-0.03845909982919693,0.2147541642189026,-0.001899629132822156,-0.38901621103286743,0.1372198611497879,-0.1328500360250473,0.0,0.0,0.0,-0.004546528682112694,-0.021800540387630463,-0.0,0.0,0.0,0.0,0.04000124707818031,0.005092834588140249,-0.003000000026077032,13172.0,16295.0,13629.0,16781.0,0.3857591450214386,0.6049016714096069,0.4147862493991852,0.6434049606323242,0.0,0.0,0.0,0.0,13203.0,16286.0,13705.0,16704.0,1.8903553485870361,-2.9963040976583346,0.3034439154804423,1.636624170233343,0.09929416328668594,-0.01593049243092537,0.0
365,5,-0.013157251290977001,-0.012534263543784618,0.0002637105353642255,-0.0028188792057335377,-0.025459308177232742,-0.03551393374800682,-0.03845909982919693,0.2147541642189026,-0.001899629132822156,-0.38901621103286743,0.1372198611497879,-0.1328500360250473,0.0,0.0,0.0,-0.004546528682112694,-0.021800540387630463,-0.0,0.0,0.0,0.0,0.04000124707818031,0.005092834588140249,-0.003000000026077032,13172.0,16295.0,13629.0,16781.0,0.3857591450214386,0.6049016714096069,0.4147862493991852,0.6434049606323242,0.0,0.0,0.0,0.0,13203.0,16286.0,13705.0,16704.0,1.8903553485870361,-2.995845340165284,0.30354627280015917,1.6340021321758431,0.09929416328668594,-0.01593049243092537,0.0
370,5,-0.013217851519584656,-0.01241634227335453,0.00039064406882971525,-0.008399546146392822,-0.024334315210580826,-0.02943759597837925,-0.041686564683914185,0.2136794626712799,-0.0021662637591362,-0.39636465907096863,0.2675063908100128,-0.15061134099960327,0.0,0.0,0.0,0.00740035530179739,-0.01874576508998871,-0.0,0.0,0.0,0.0,0.04194561764597893,0.007601612247526646,-0.002885062713176012,14821.0,17578.0,15169.0,18106.0,0.49535611271858215,0.7090492248535156,0.5202463865280151,0.7543145418167114,0.0,0.0,0.0,0.0,13277.0,16275.0,13658.0,16906.0,1.8574402332305908,-2.995836172390125,0.30332683631917456,1.6322924819202724,0.08389432728290558,0.025478200986981392,0.0
375,5,-0.0132820513099432,-0.012278641574084759,0.0005698315799236298,-0.011063818819820881,-0.02625775709748268,-0.03327753767371178,-0.041686564683914185,0.2136794626712799,-0.0021662637591362,-0.39636465907096863,0.2675063908100128,-0.15061134099960327,0.0,0.0,0.0,0.00740035530179739,-0.01874576508998871,-0.0,0.0,0.0,0.0,0.04194561764597893,0.007601612247526646,-0.002885062713176012,14821.0,17578.0,15169.0,18106.0,0.49535611271858215,0.7090492248535156,0.5202463865280151,0.7543145418167114,0.0,0.0,0.0,0.0,13277.0,16275.0,13658.0,16906.0,1.8574402332305908,-2.9963638265702652,0.3019238566422422,1.6314064530671237,0.08389432728290558,0.025478200986981392,0.0
380,5,-0.013335230760276318,-0.012068025767803192,0.0008125732420012355,-0.010807081125676632,-0.035777028650045395,-0.042440015822649,-0.047080110758543015,0.21052402257919312,-0.003883067984133959,-0.5939238667488098,0.28541234135627747,-0.027202719822525978,0.0,0.0,0.0,0.008304721675813198,-0.024749668315052986,-0.0,0.0,0.0,0.0,0.05539093539118767,0.013359898701310158,-0.0029451425652951,13875.0,15610.0,14410.0,16431.0,0.4308077394962311,0.5526512861251831,0.4667632281780243,0.6155643463134766,0.0,0.0,0.0,0.0,13818.0,14336.0,14464.0,15318.0,1.937835454940796,-2.9973308454162897,0.3020980683795036,1.629638480269253,0.1155523732304573,0.02982918918132782,0.0
385,5,-0.013429827056825161,-0.011904982849955559,0.001053809653967619,-0.01567433960735798,-0.033875953406095505,-0.04592438042163849,-0.047080110758543015,0.21052402257919312,-0.003883067984133959,-0.5939238667488098,0.28541234135627747,-0.027202719822525978,0.0,0.0,0.0,0.008304721675813198,-0.024749668315052986,-0.0,0.0,0.0,0.0,0.05539093539118767,0.013359898701310158,-0.0029451425652951,13875.0,15610.0,14410.0,16431.0,0.4308077394962311,0.5526512861251831,0.4667632281780243,0.6155643463134766,0.0,0.0,0.0,0.0,13818.0,14336.0,14464.0,15318.0,1.937835454940796,-2.9983609517846874,0.2996650867636137,1.6296177515109342,0.1155523732304573,0.02982918918132782,0.0
390,5,-0.013560480438172817,-0.011793575249612331,0.001151894684880972,-0.02194821648299694,-0.02691924013197422,-0.030139951035380363,-0.05231103673577309,0.20829401910305023,-0.004759362433105707,-0.6459908485412598,0.33139774203300476,-0.23457057774066925,0.0,0.0,0.0,0.016246646642684937,-0.0276684258133173,-0.0,0.0,0.0,0.0,0.06853889673948288,0.01907362975180149,-0.003000000026077032,12428.0,15531.0,13087.0,16517.0,0.34081193804740906,0.5467506647109985,0.3804851770401001,0.6223077178001404,0.0,0.0,0.0,0.0,12427.0,15564.0,13088.0,16486.0,2.0060179233551025,-2.999507219098252,0.298676348472865,1.6305270632645348,0.13370831310749054,0.060404930263757706,0.0
395,5,-0.013663101941347122,-0.01170563604682684,0.0011936681112274528,-0.021093862131237984,-0.021320480853319168,-0.01706879213452339,-0.05231103673577309,0.20829401910305023,-0.004759362433105707,-0.6459908485412598,0.33139774203300476,-0.23457057774066925,0.0,0.0,0.0,0.016246646642684937,-0.0276684258133173,-0.0,0.0,0.0,0.0,0.06853889673948288,0.01907362975180149,-0.003000000026077032,12428.0,15531.0,13087.0,16517.0,0.34081193804740906,0.5467506647109985,0.3804851770401001,0.6223077178001404,0.0,0.0,0.0,0.0,12427.0,15564.0,13088.0,16486.0,2.0060179233551025,-2.999092500335508,0.2996076521133892,1.6314110392471188,0.13370831310749054,0.060404930263757706,0.0
400,5,-0.013756241649389267,-0.011627543717622757,0.0012168483808636665,-0.019614245742559433,-0.017899204045534134,-0.009609153494238853,-0.05884994938969612,0.20504707098007202,-0.006704335566610098,-0.4703158140182495,0.24320054054260254,-0.056001946330070496,0.0,0.0,0.0,0.0038217315450310707,-0.03178734704852104,-0.0,0.0,0.0,0.0,0.055394869297742844,0.01162480004131794,-0.002363944659009576,12963.0,15035.0,13514.0,15796.0,0.3728841543197632,0.5105884671211243,0.4073975682258606,0.5665700435638428,0.0,0.0,0.0,0.0,12400.0,15598.0,12845.0,16244.0,2.028780460357666,-2.9979830162967085,0.30013401854501587,1.6317617561905053,0.15536919236183167,0.014371491968631744,0.0
405,5,-0.013858047313988209,-0.011601082049310207,0.0012162566417828202,-0.020062414929270744,-0.010335105471313,-0.0037726436275988817,-0.05884994938969612,0.20504707098007202,-0.006704335566610098,-0.4703158140182495,0.24320054054260254,-0.056001946330070496,0.0,0.0,0.0,0.0038217315450310707,-0.03178734704852104,-0.0,0.0,0.0,0.0,0.055394869297742844,0.01162480004131794,-0.002363944659009576,12963.0,15035.0,13514.0,15796.0,0.3728841543197632,0.5105884671211243,0.4073975682258606,0.5665700435638428,0.0,0.0,0.0,0.0,12400.0,15598.0,12845.0,16244.0,2.028780460357666,-2.996732022631402,0.29749268455856376,1.6325761219689647,0.15536919236183167,0.014371491968631744,0.0
410,5,-0.014003722928464413,-0.011543923057615757,0.001256444025784731,-0.02550601400434971,-0.010993094183504581,-0.006331554614007473,-0.06133304536342621,0.20353767275810242,-0.008124716579914093,-0.18503409624099731,0.1301700472831726,-0.2085174024105072,0.0,0.0,0.0,-0.007002273574471474,-0.031270433217287064,-0.0,0.0,0.0,0.0,0.004646039567887783,0.00019607118156272918,-0.003000000026077032,12825.0,16026.0,13088.0,16345.0,0.36446407437324524,0.5840457677841187,0.3805730640888214,0.6087526082992554,0.0,0.0,0.0,0.0,12848.0,16079.0,13066.0,16292.0,2.0259671211242676,-2.995956939570676,0.29593368818619614,1.6339912506010867,0.15262889862060547,-0.026295023038983345,0.0
415,5,-0.014132683165371418,-0.011488066986203194,0.0012639149790629745,-0.025677654892206192,-0.01110001653432846,-0.0034291360061615705,-0.06133304536342621,0.20353767275810242,-0.008124716579914093,-0.18503409624099731,0.1301700472831726,-0.2085174024105072,0.0,0.0,0.0,-0.007002273574471474,-0.031270433217287064,-0.0,0.0,0.0,0.0,0.004646039567887783,0.00019607118156272918,-0.003000000026077032,12825.0,16026.0,13088.0,16345.0,0.36446407437324524,0.5840457677841187,0.3805730640888214,0.6087526082992554,0.0,0.0,0.0,0.0,12848.0,16079.0,13066.0,16292.0,2.0259671211242676,-2.9947265145493756,0.2959652863365791,1.6347565175203589,0.15262889862060547,-0.026295023038983345,0.0
421,5,-0.014261589385569096,-0.011455864645540714,0.0012441077269613743,-0.02573981136083603,-0.00830426998436451,0.001005222206003964,-0.06207818165421486,0.20244845747947693,-0.010154354386031628,-0.04282993823289871,0.0694420114159584,-0.17956185340881348,0.0,0.0,0.0,-0.005929667968302965,-0.03498964384198189,-0.0,0.0,0.0,0.0,0.004646039567887783,0.00019607118156272918,-0.003000000026077032,13186.0,16376.0,13279.0,16433.0,0.3866696059703827,0.611210823059082,0.39245882630348206,0.6156787872314453,0.0,0.0,0.0,0.0,13157.0,16356.0,13307.0,16453.0,2.0790762901306152,-2.9946927699775063,0.2953599532436282,1.635945107930954,0.17525306344032288,-0.022850975394248962,0.0
426,5,-0.01438039168715477,-0.011440372094511986,0.0012195094022899866,-0.024552159011363983,-0.005180833395570517,0.0033538825809955597,-0.06207818165421486,0.20244845747947693,-0.010154354386031628,-0.04282993823289871,0.0694420114159584,-0.17956185340881348,0.0,0.0,0.0,-0.005929667968302965,-0.03498964384198189,-0.0,0.0,0.0,0.0,0.004646039567887783,0.00019607118156272918,-0.003000000026077032,13186.0,16376.0,13279.0,16433.0,0.3866696059703827,0.611210823059082,0.39245882630348206,0.6156787872314453,0.0,0.0,0.0,0.0,13157.0,16356.0,13307.0,16453.0,2.0790762901306152,-2.995742020115348,0.2942875728304151,1.6370862470139917,0.17525306344032288,-0.022850975394248962,0.0
431,5,-0.014470339752733707,-0.011394709348678589,0.0012210126733407378,-0.02061460353434086,-0.007551869843155146,0.0011611618101596832,-0.06225266307592392,0.20205897092819214,-0.01194288395345211,-0.10556352138519287,0.06344205141067505,-0.1625070422887802,0.0,0.0,0.0,-0.011614049784839153,-0.03437357768416405,-0.0,0.0,0.0,0.0,0.010756248608231544,-0.0016367979114875197,-0.003000000026077032,13231.0,16422.0,13415.0,16531.0,0.3894372880458832,0.6148410439491272,0.40107235312461853,0.6234298348426819,0.0,0.0,0.0,0.0,13230.0,16385.0,13415.0,16568.0,2.0826072692871094,-2.9955364154161366,0.29378453769537055,1.6381593576388442,0.17245237529277802,-0.044831354171037674,0.0
436,5,-0.01458736788481474,-0.011358854360878468,0.0012558549642562866,-0.02228921838104725,-0.007323361933231354,-0.0037166045513004065,-0.06225266307592392,0.20205897092819214,-0.01194288395345211,-0.10556352138519287,0.06344205141067505,-0.1625070422887802,0.0,0.0,0.0,-0.011614049784839153,-0.03437357768416405,-0.0,0.0,0.0,0.0,0.010756248608231544,-0.0016367979114875197,-0.003000000026077032,13231.0,16422.0,13415.0,16531.0,0.3894372880458832,0.6148410439491272,0.40107235312461853,0.6234298348426819,0.0,0.0,0.0,0.0,13230.0,16385.0,13415.0,16568.0,2.0826072692871094,-2.996940724466299,0.2948645679142359,1.6389999199851957,0.17245237529277802,-0.044831354171037674,0.0
441,5,-0.014733822084963322,-0.011327268555760384,0.001321281655691564,-0.026490258052945137,-0.006719598080962896,-0.009337842464447021,-0.06314818561077118,0.200795978307724,-0.013950042426586151,-0.08133416622877121,0.17591753602027893,-0.1925889551639557,0.0,0.0,0.0,-0.009528351947665215,-0.033269476145505905,-0.0,0.0,0.0,0.0,0.009055707603693008,0.006708253640681505,-0.003000000026077032,13498.0,16533.0,13544.0,16737.0,0.4063750207424164,0.6235666871070862,0.40928253531455994,0.6398521065711975,0.0,0.0,0.0,0.0,13495.0,16538.0,13546.0,16732.0,2.0607006549835205,-2.9994968045357706,0.2950085280326645,1.6404129807107701,0.1651630699634552,-0.03639395907521248,0.0
446,5,-0.014861891977488995,-0.011243094690144062,0.001393144833855331,-0.02596447616815567,-0.012788739055395126,-0.012358722276985645,-0.06314818561077118,0.200795978307724,-0.013950042426586151,-0.08133416622877121,0.17591753602027893,-0.1925889551639557,0.0,0.0,0.0,-0.009528351947665215,-0.033269476145505905,-0.0,0.0,0.0,0.0,0.009055707603693008,0.006708253640681505,-0.003000000026077032,13498.0,16533.0,13544.0,16737.0,0.4063750207424164,0.6235666871070862,0.40928253531455994,0.6398521065711975,0.0,0.0,0.0,0.0,13495.0,16538.0,13546.0,16732.0,2.0607006549835205,-3.000816015790456,0.2962392314884778,1.6411807424773175,0.1651630699634552,-0.03639395907521248,0.0
451,5,-0.015012371353805065,-0.01120569184422493,0.0014469411689788103,-0.028443342074751854,-0.009603777900338173,-0.01139905583113432,-0.06345094740390778,0.19959501922130585,-0.015610162168741226,-0.05375281348824501,0.1724274754524231,-0.1758514940738678,0.0,0.0,0.0,-0.009528351947665215,-0.033269476145505905,-0.0,0.0,0.0,0.0,0.00915613118559122,0.0014664652990177274,-0.003000000026077032,13514.0,16549.0,13528.0,16721.0,0.40739282965660095,0.624867856502533,0.40826472640037537,0.6385509371757507,0.0,0.0,0.0,0.0,13496.0,16557.0,13546.0,16713.0,2.0607006549835205,-3.000328900851783,0.29282115650171886,1.6423399767950402,0.1651630699634552,-0.03639395907521248,0.0
456,5,-0.015166168101131916,-0.01116508524864912,0.0014942585257813334,-0.029832910746335983,-0.008714365772902966,-0.010237696580588818,-0.06345094740390778,0.19959501922130585,-0.015610162168741226,-0.05375281348824501,0.1724274754524231,-0.1758514940738678,0.0,0.0,0.0,-0.006892326287925243,-0.03738129511475563,-0.0,0.0,0.0,0.0,0.00915613118559122,0.0014664652990177274,-0.003000000026077032,13514.0,16549.0,13528.0,16721.0,0.40739282965660095,0.624867856502533,0.40826472640037537,0.6385509371757507,0.0,0.0,0.0,0.0,13496.0,16557.0,13546.0,16713.0,2.116976737976074,-3.0004782717923297,0.2923847103305045,1.642464380700665,0.19063860177993774,-0.02704482711851597,0.0
461,5,-0.015343818813562393,-0.011166430078446865,0.001518254866823554,-0.03325120359659195,-0.003324346849694848,-0.006974645424634218,-0.06368108838796616,0.198074609041214,-0.018100865185260773,-0.063067726790905,0.09426046162843704,-0.21125926077365875,0.0,0.0,0.0,-0.006892326287925243,-0.03738129511475563,-0.0,0.0,0.0,0.0,0.008088025264441967,-0.003117574844509363,-0.003000000026077032,13364.0,16557.0,13533.0,16598.0,0.3978588283061981,0.6254969239234924,0.40861091017723083,0.6287340521812439,0.0,0.0,0.0,0.0,13476.0,16597.0,13594.0,16696.0,2.116976737976074,-3.000693506316445,0.28967770512431734,1.6431693461007952,0.19063860177993774,-0.02704482711851597,0.0
466,5,-0.015507826581597328,-0.011103536933660507,0.001529170898720622,-0.0329815112054348,-0.00887689646333456,-0.004099779296666384,-0.06368108838796616,0.198074609041214,-0.018100865185260773,-0.063067726790905,0.09426046162843704,-0.21125926077365875,0.0,0.0,0.0,-0.012515431270003319,-0.04021407663822174,-0.0,0.0,0.0,0.0,0.008088025264441967,-0.003117574844509363,-0.003000000026077032,13364.0,16557.0,13533.0,16598.0,0.3978588283061981,0.6254969239234924,0.40861091017723083,0.6287340521812439,0.0,0.0,0.0,0.0,13476.0,16597.0,13594.0,16696.0,2.1736085414886475,-2.999419866020329,0.28899596875064126,1.644156821901875,0.2105524241924286,-0.050421420484781265,0.0
471,5,-0.015692902728915215,-0.0110884765163064,0.0015327947912737727,-0.035401638597249985,-0.0053579844534397125,-0.0020747757516801357,-0.06383536010980606,0.19759872555732727,-0.019726494327187538,-0.05253782123327255,0.031589947640895844,-0.18733640015125275,0.0,0.0,0.0,-0.012515431270003319,-0.04021407663822174,-0.0,0.0,0.0,0.0,0.007165353279560804,-0.007303936872631311,-0.003000000026077032,13560.0,16757.0,13775.0,16750.0,0.4103531539440155,0.6414785981178284,0.4242546260356903,0.6408904194831848,0.0,0.0,0.0,0.0,13380.0,16566.0,13517.0,16589.0,2.1736085414886475,-3.0003784015876787,0.28628675853199564,1.6457623763889067,0.2105524241924286,-0.050421420484781265,0.0
476,5,-0.01586509309709072,-0.011042262427508831,0.001561425975523889,-0.03482356294989586,-0.0076888566836714745,-0.004265649244189262,-0.06383536010980606,0.19759872555732727,-0.019726494327187538,-0.05253782123327255,0.031589947640895844,-0.18733640015125275,0.0,0.0,0.0,-0.010435909032821655,-0.04176853597164154,-0.0,0.0,0.0,0.0,0.007165353279560804,-0.007303936872631311,-0.003000000026077032,13560.0,16757.0,13775.0,16750.0,0.4103531539440155,0.6414785981178284,0.4242546260356903,0.6408904194831848,0.0,0.0,0.0,0.0,13380.0,16566.0,13517.0,16589.0,2.1925668716430664,-3.0008410568837776,0.28576539908446924,1.6469833774829792,0.22059927880764008,-0.04241088777780533,0.0
482,5,-0.01606714352965355,-0.010971521958708763,0.0015880285063758492,-0.038175418972969055,-0.011564485728740692,-0.004898570943623781,-0.06392798572778702,0.19750577211380005,-0.022193986922502518,-0.05448012426495552,-0.023991908878087997,-0.20286065340042114,0.0,0.0,0.0,-0.010435909032821655,-0.04176853597164154,-0.0,0.0,0.0,0.0,0.0063454750925302505,-0.011756103485822678,-0.003000000026077032,13757.0,16967.0,14011.0,16892.0,0.42308512330055237,0.6583930253982544,0.43983855843544006,0.6522918939590454,0.0,0.0,0.0,0.0,13562.0,16760.0,13773.0,16747.0,2.1925668716430664,-3.0003426263791435,0.2841568731165151,1.6490862770717918,0.22059927880764008,-0.04241088777780533,0.0
