timestamp,dt,pos_x,pos_y,pos_z,vel_x,vel_y,vel_z,roll,pitch,yaw,agv_x,agv_y,agv_z,x_ref,y_ref,z_ref,roll_ref,pitch_ref,yaw_ref,x_vel_ref,y_vel_ref,z_vel_ref,x_torque,y_torque,z_torque,w0,w1,w2,w3,u0,u1,u2,u3,m0req,m1req,m2req,m3req,thrust0,thrust1,thrust2,thrust3,thrust_ref,roll_vicon,pitch_vicon,yaw_vicon,acc_x,acc_y,acc_z
5,5,0.0,0.0,0.0,-5.994439925416373e-05,-0.000980646931566298,0.0008713426650501788,-0.06497307121753693,0.15011772513389587,0.01031675934791565,-0.0006739746895618737,0.004830352962017059,0.0018008764600381255,0.0,0.0,0.0,0.0012128859525546432,-5.703122587874532e-05,-0.0,0.0,0.0,0.0,0.019448556005954742,-0.04499751329421997,0.0010909164557233453,1495.0,1495.0,1495.0,1495.0,0.0,0.0,0.0,0.0,0.0,0.0,0.0,0.0,1495.0,1495.0,1495.0,1495.0,1.6357449293136597,-0.1462559229872667,-0.0440318664393066,-0.026260896127030073,0.00022479149629361928,0.003677425906062126,0.0
33,28,0.0,0.0,0.0,-0.0009283901308663189,0.0002190239611081779,0.0017928524175658822,-0.06497307121753693,0.15011772513389587,0.01031675934791565,-0.0006739746895618737,0.004830352962017059,0.0018008764600381255,0.0,0.0,0.0,0.0012128859525546432,-5.703122587874532e-05,-0.0,0.0,0.0,0.0,0.019448556005954742,-0.04499751329421997,0.0010909164557233453,1495.0,1495.0,1495.0,1495.0,0.0,0.0,0.0,0.0,0.0,0.0,0.0,0.0,1495.0,1495.0,1495.0,1495.0,1.6357449293136597,-0.1457539929218304,-0.04381306114667964,-0.026090578502242858,0.00022479149629361928,0.003677425906062126,0.0
38,5,0.0,0.0,0.0,-0.0008019146625883877,0.00021642832143697888,0.0007567149586975574,-0.06497307121753693,0.15011772513389587,0.01031675934791565,-0.0006739746895618737,0.004830352962017059,0.0018008764600381255,0.0,0.0,0.0,-0.0002709418477024883,-0.0008834291365928948,-0.0,0.0,0.0,0.0,0.019448556005954742,-0.04499751329421997,0.0010909164557233453,1495.0,1495.0,1495.0,1495.0,0.0,0.0,0.0,0.0,0.0,0.0,0.0,0.0,1495.0,1495.0,1495.0,1495.0,1.635453701019287,-0.14596330801760865,-0.04395083113463071,-0.026165342001064518,0.003481463063508272,-0.0008213398396037519,0.0
43,5,0.0,0.0,0.0,-0.0006291968747973442,-0.0009770223405212164,0.0016798496944829822,-0.06497307121753693,0.15011772513389587,0.01031675934791565,-0.0006739746895618737,0.004830352962017059,0.0018008764600381255,0.0,0.0,0.0,-0.0002709418477024883,-0.0008834291365928948,-0.0,0.0,0.0,0.0,0.019448556005954742,-0.04499751329421997,0.0010909164557233453,1495.0,1495.0,1495.0,1495.0,0.0,0.0,0.0,0.0,0.0,0.0,0.0,0.0,1495.0,1495.0,1495.0,1495.0,1.635453701019287,-0.1455423256656549,-0.04365222823871139,-0.026367381764960944,0.003481463063508272,-0.0008213398396037519,0.0
48,5,0.0,0.0,0.0,-0.0006291968747973442,-0.0009770223405212164,0.0016798496944829822,-0.06497832387685776,0.15009553730487823,0.01032294612377882,0.0022666461300104856,-0.0003088841331191361,0.0036043678410351276,0.0,0.0,0.0,0.0012070556404069066,-0.0005979517591185868,-0.0,0.0,0.0,0.0,0.019801825284957886,-0.045078177005052567,0.0011657529976218939,1495.0,1495.0,1495.0,1495.0,0.0,0.0,0.0,0.0,0.0,0.0,0.0,0.0,1495.0,1495.0,1495.0,1495.0,1.637570858001709,-0.1455423256656549,-0.04365222823871139,-0.026367381764960944,0.0023594882804900408,0.0036638337187469006,0.0
53,5,0.0,0.0,0.0,-0.0006291968747973442,-0.0009770223405212164,0.0016798496944829822,-0.06497832387685776,0.15009553730487823,0.01032294612377882,0.0022666461300104856,-0.0003088841331191361,0.0036043678410351276,0.0,0.0,0.0,0.0012070556404069066,-0.0005979517591185868,-0.0,0.0,0.0,0.0,0.019801825284957886,-0.045078177005052567,0.0011657529976218939,1495.0,1495.0,1495.0,1495.0,0.0,0.0,0.0,0.0,0.0,0.0,0.0,0.0,1495.0,1495.0,1495.0,1495.0,1.637570858001709,-0.1455423256656549,-0.04365222823871139,-0.026367381764960944,0.0023594882804900408,0.0036638337187469006,0.0
59,5,0.0,0.0,0.0,-0.0006291968747973442,-0.0009770223405212164,0.0016798496944829822,-0.06497832387685776,0.15009553730487823,0.01032294612377882,0.0022666461300104856,-0.0003088841331191361,0.0036043678410351276,0.0,0.0,0.0,0.0012070556404069066,-0.0005979517591185868,-0.0,0.0,0.0,0.0,0.019801825284957886,-0.045078177005052567,0.0011657529976218939,1495.0,1495.0,1495.0,1495.0,0.0,0.0,0.0,0.0,0.0,0.0,0.0,0.0,1495.0,1495.0,1495.0,1495.0,1.637570858001709,-0.1455423256656549,-0.04365222823871139,-0.026367381764960944,0.0023594882804900408,0.0036638337187469006,0.0
64,5,1.1955795343965292e-05,1.3594200936495326e-05,2.2012629415257834e-05,0.0005299734766595066,-0.000902920903172344,-0.0015461471630260348,-0.06498582661151886,0.15010666847229004,0.010304790921509266,0.001847603009082377,-0.001569851185195148,0.00036423702840693295,0.0,0.0,0.0,0.0012070556404069066,-0.0005979517591185868,-0.0,0.0,0.0,0.0,0.019414518028497696,-0.04540012776851654,0.00099116878118366,8362.0,14976.0,17755.0,10975.0,0.1440402865409851,0.5063499212265015,0.7241029143333435,0.26096051931381226,0.0,0.0,0.0,0.0,8392.0,14960.0,17772.0,10947.0,1.637570858001709,-0.14580658497343668,-0.044057799709542114,-0.02624918558792099,0.0023594882804900408,0.0036638337187469006,0.0
69,5,1.3992428648634814e-05,1.5220312889141496e-05,2.3073582269717008e-05,4.2402669350849465e-05,-0.000610415474511683,-0.000806494033895433,-0.06499660760164261,0.15010952949523926,0.010331501252949238,-0.0009538686717860401,-0.0001228314358741045,0.0016595515189692378,0.0,0.0,0.0,0.0011407861020416021,0.0005206183413974941,-0.0,0.0,0.0,0.0,0.01944689452648163,-0.04540836811065674,0.0010686753084883094,8388.0,14957.0,17771.0,10954.0,0.14503902196884155,0.5050421953201294,0.725488007068634,0.25988447666168213,0.0,0.0,0.0,0.0,8389.0,14958.0,17773.0,10950.0,1.636665940284729,-0.14638035999500024,-0.04402307770775024,-0.026309508711060997,-0.0020531993359327316,0.0034607690759003162,0.0
76,7,1.4189772628014907e-05,1.1257877304160502e-05,2.4648501494084485e-05,4.064235326950438e-05,0.00023132604837883264,-0.0005115878884680569,-0.06499660760164261,0.15010952949523926,0.010331501252949238,-0.0009538686717860401,-0.0001228314358741045,0.0016595515189692378,0.0,0.0,0.0,0.0011407861020416021,0.0005206183413974941,-0.0,0.0,0.0,0.0,0.01944689452648163,-0.04540836811065674,0.0010686753084883094,8388.0,14957.0,17771.0,10954.0,0.14503902196884155,0.5050421953201294,0.725488007068634,0.25988447666168213,0.0,0.0,0.0,0.0,8389.0,14958.0,17773.0,10950.0,1.636665940284729,-0.14592754434813535,-0.04379935498266539,-0.02614641314564634,-0.0020531993359327316,0.0034607690759003162,0.0
81,5,7.546698270743946e-06,-3.5137543363816803e-06,1.4359464330482297e-05,-0.0007809119415469468,0.0018651261925697327,0.0010300491703674197,-0.06496759504079819,0.1501040756702423,0.010329963639378548,0.0024628709070384502,-0.0021491299849003553,-0.002393783302977681,0.0,0.0,0.0,-0.002298339968547225,-0.0007277029217220843,-0.0,0.0,0.0,0.0,0.019861986860632896,-0.04534107819199562,0.0009642408695071936,8337.0,14945.0,17750.0,11067.0,0.1430799663066864,0.5041738152503967,0.7236948609352112,0.2657172977924347,0.0,0.0,0.0,0.0,8407.0,14902.0,17804.0,10986.0,1.6463080644607544,-0.14600926023875105,-0.04386146737178681,-0.026208924816288146,0.002886794973164797,-0.007013474125415087,-0.0
88,7,3.3057440305128694e-06,-6.300276709225727e-06,1.2936681741848588e-05,-0.0002343469823244959,0.00030518678249791265,0.0006823051371611655,-0.06496759504079819,0.1501040756702423,0.010329963639378548,0.0024628709070384502,-0.0021491299849003553,-0.002393783302977681,0.0,0.0,0.0,-0.002298339968547225,-0.0007277029217220843,-0.0,0.0,0.0,0.0,0.019861986860632896,-0.04534107819199562,0.0009642408695071936,8337.0,14945.0,17750.0,11067.0,0.1430799663066864,0.5041738152503967,0.7236948609352112,0.2657172977924347,0.0,0.0,0.0,0.0,8407.0,14902.0,17804.0,10986.0,1.6463080644607544,-0.14570656116305364,-0.04396896407990426,-0.026245023387185613,0.002886794973164797,-0.007013474125415087,-0.0
93,5,3.536185204211506e-06,2.551471425249474e-06,1.433646866644267e-05,-6.608586409129202e-05,-0.0009401350398547947,0.00010494771413505077,-0.06498712301254272,0.15013910830020905,0.01034783385694027,-0.0032543798442929983,-0.0020923223346471786,-0.0018705874681472778,0.0,0.0,0.0,-0.002298339968547225,-0.0007277029217220843,-0.0,0.0,0.0,0.0,0.019947152584791183,-0.045089010149240494,0.0010317948181182146,8354.0,14924.0,17773.0,11048.0,0.14372634887695312,0.5026484727859497,0.7255846261978149,0.264706552028656,0.0,0.0,0.0,0.0,8407.0,14902.0,17804.0,10986.0,1.6463080644607544,-0.1458070740943879,-0.043761563763721756,-0.026255385462917013,0.002886794973164797,-0.007013474125415087,-0.0
98,5,1.1698337402776815e-05,3.0364474241650896e-06,8.084582987066824e-06,0.0009530239040032029,-0.00043425115291029215,0.0007922053337097168,-0.06498712301254272,0.15013910830020905,0.01034783385694027,-0.0032543798442929983,-0.0020923223346471786,-0.0018705874681472778,0.0,0.0,0.0,0.0011673199478536844,-5.790106297354214e-05,-0.0,0.0,0.0,0.0,0.019947152584791183,-0.045089010149240494,0.0010317948181182146,8354.0,14924.0,17773.0,11048.0,0.14372634887695312,0.5026484727859497,0.7255846261978149,0.264706552028656,0.0,0.0,0.0,0.0,8407.0,14902.0,17804.0,10986.0,1.6359074115753174,-0.14568643176319962,-0.04397475928021591,-0.026157056080744742,0.00022824267216492444,0.0035396229941397905,-0.0
104,5,6.323472916847095e-06,1.2057743333571125e-05,2.489146572770551e-05,-0.0002637741563376039,-0.0012562560150399804,-0.0016999439103528857,-0.06498576700687408,0.15014195442199707,0.010332870297133923,0.003709364216774702,0.00014037276559974998,-0.00477535231038928,0.0,0.0,0.0,0.0011673199478536844,-5.790106297354214e-05,-0.0,0.0,0.0,0.0,0.01942126825451851,-0.045264795422554016,0.0009647882543504238,8342.0,14986.0,17733.0,11041.0,0.142491415143013,0.507746696472168,0.720959484577179,0.26435935497283936,0.0,0.0,0.0,0.0,8348.0,14972.0,17737.0,11024.0,1.6359074115753174,-0.1460885889757133,-0.044233467493286036,-0.02611175732312587,0.00022824267216492444,0.0035396229941397905,-0.0
109,5,9.712589417176787e-06,2.399346703896299e-05,2.4492941520293243e-05,0.0003011843073181808,-0.0019347892375662923,-0.0006321545224636793,-0.06498576700687408,0.15014195442199707,0.010332870297133923,0.003709364216774702,0.00014037276559974998,-0.00477535231038928,0.0,0.0,0.0,0.002421347890049219,0.00029826705576851964,-0.0,0.0,0.0,0.0,0.01942126825451851,-0.045264795422554016,0.0009647882543504238,8342.0,14986.0,17733.0,11041.0,0.142491415143013,0.507746696472168,0.720959484577179,0.26435935497283936,0.0,0.0,0.0,0.0,8348.0,14972.0,17737.0,11024.0,1.6460305452346802,-0.14593533398593841,-0.04410151224352324,-0.026155365841811093,-0.0011830247240141034,0.007387591525912285,0.0
114,5,9.781235348782502e-06,1.6540394426556304e-05,1.6949728887993842e-05,0.00012871129729319364,0.00012045304902130738,0.0006523235933855176,-0.06500168889760971,0.15009868144989014,0.010333784855902195,-0.00308193638920784,-0.005933782085776329,0.0028714837972074747,0.0,0.0,0.0,0.002421347890049219,0.00029826705576851964,-0.0,0.0,0.0,0.0,0.018941551446914673,-0.04546086862683296,0.0011302463244646788,8536.0,15013.0,17802.0,10926.0,0.15076373517513275,0.5090165138244629,0.7280672192573547,0.2584606111049652,0.0,0.0,0.0,0.0,8431.0,15076.0,17722.0,11051.0,1.6460305452346802,-0.14595350743151625,-0.04401857685973863,-0.026120943833752693,-0.0011830247240141034,0.007387591525912285,0.0
119,5,9.643476914789062e-06,6.000127086736029e-06,1.7957790987566113e-05,3.495342025416903e-05,0.001313013257458806,0.00013996199413668364,-0.06500168889760971,0.15009868144989014,0.010333784855902195,-0.00308193638920784,-0.005933782085776329,0.0028714837972074747,0.0,0.0,0.0,-0.001609790837392211,4.666787572205067e-05,-0.0,0.0,0.0,0.0,0.018941551446914673,-0.04546086862683296,0.0011302463244646788,8536.0,15013.0,17802.0,10926.0,0.15076373517513275,0.5090165138244629,0.7280672192573547,0.2584606111049652,0.0,0.0,0.0,0.0,8431.0,15076.0,17722.0,11051.0,1.6390243768692017,-0.145872904587938,-0.044095516525511615,-0.0262730578109119,-0.00018431249191053212,-0.004890610463917255,-0.0
124,5,7.790968993504066e-06,-1.6856331512826728e-06,1.610114486538805e-05,-0.0002083194995066151,0.0014474965864792466,0.0002787824487313628,-0.0649685338139534,0.1501442790031433,0.010351228527724743,0.00041162484558299184,-0.006461304612457752,0.0021637172903865576,0.0,0.0,0.0,-0.001609790837392211,4.666787572205067e-05,-0.0,0.0,0.0,0.0,0.019894560799002647,-0.045450806617736816,0.0011275522410869598,8361.0,14918.0,17812.0,10970.0,0.14398787915706635,0.5022664070129395,0.7289273738861084,0.2607257068157196,0.0,0.0,0.0,0.0,8334.0,14929.0,17806.0,10986.0,1.6390243768692017,-0.1460474969566806,-0.043929380619155266,-0.026263883463867238,-0.00018431249191053212,-0.004890610463917255,-0.0
129,5,3.7694117054343224e-06,-1.477318505749281e-06,2.210790989920497e-05,-0.0005659147282131016,0.000554000842384994,-0.0006092989351600409,-0.0649685338139534,0.1501442790031433,0.010351228527724743,0.00041162484558299184,-0.006461304612457752,0.0021637172903865576,0.0,0.0,0.0,-0.001609790837392211,4.666787572205067e-05,-0.0,0.0,0.0,0.0,0.019894560799002647,-0.045450806617736816,0.0011275522410869598,8361.0,14918.0,17812.0,10970.0,0.14398787915706635,0.5022664070129395,0.7289273738861084,0.2607257068157196,0.0,0.0,0.0,0.0,8334.0,14929.0,17806.0,10986.0,1.6390243768692017,-0.1458029976564351,-0.04379362214038956,-0.026279649215166078,-0.00018431249191053212,-0.004890610463917255,-0.0
134,5,7.8577198792118e-07,-2.9126515528332675e-06,1.3774531907984056e-05,-0.0005844026454724371,0.00039384030969813466,0.0007562857936136425,-0.06498030573129654,0.1501830667257309,0.010373665951192379,-0.0008636923157609999,-0.0005877924268133938,0.0009378722170367837,0.0,0.0,0.0,-0.0006877211853861809,-0.000533022393938154,-0.0,0.0,0.0,0.0,0.020341547206044197,-0.04531893879175186,0.0010603740811347961,8369.0,14933.0,17840.0,11093.0,0.14430241286754608,0.5033069849014282,0.7313662767410278,0.26705482602119446,0.0,0.0,0.0,0.0,8462.0,14979.0,17762.0,10954.0,1.6359795331954956,-0.14583807948724883,-0.043841215591060766,-0.026123559322224817,0.0021012371871620417,-0.0020854449830949306,0.0
139,5,8.76309240993578e-06,2.115109055011999e-06,1.4425938388740178e-05,0.0007235173834487796,-0.0004457951581571251,0.00022434555285144597,-0.06498030573129654,0.1501830667257309,0.010373665951192379,-0.0008636923157609999,-0.0005877924268133938,0.0009378722170367837,0.0,0.0,0.0,-0.0006877211853861809,-0.000533022393938154,-0.0,0.0,0.0,0.0,0.020341547206044197,-0.04531893879175186,0.0010603740811347961,8369.0,14933.0,17840.0,11093.0,0.14430241286754608,0.5033069849014282,0.7313662767410278,0.26705482602119446,0.0,0.0,0.0,0.0,8462.0,14979.0,17762.0,10954.0,1.6359795331954956,-0.14563737466579554,-0.04388005358920614,-0.026233644518911345,0.0021012371871620417,-0.0020854449830949306,0.0
144,5,8.416259333898779e-06,5.81605377192318e-07,-1.0071105407405412e-06,0.0002477870148140937,5.70238807995338e-06,0.0019417040748521686,-0.06499547511339188,0.15016649663448334,0.010344245471060276,0.001676855725236237,0.001664398587308824,-0.005811275914311409,0.0,0.0,0.0,0.0005550265777856112,0.000700339034665376,-0.0,0.0,0.0,0.0,0.019138025119900703,-0.045317139476537704,0.0008870834717527032,8341.0,15046.0,17708.0,11042.0,0.14322008192539215,0.511351466178894,0.7200378775596619,0.2644149661064148,0.0,0.0,0.0,0.0,8329.0,15002.0,17744.0,10993.0,1.6364593505859375,-0.146584840398133,-0.043899605068936115,-0.02611126774719732,-0.0027616291772574186,0.0016835557762533426,-0.0
149,5,1.1131886822113302e-05,9.906838386086747e-06,1.9319088096381165e-05,0.00042499008122831583,-0.001116747036576271,-0.0016624621348455548,-0.06499547511339188,0.15016649663448334,0.010344245471060276,0.001676855725236237,0.001664398587308824,-0.005811275914311409,0.0,0.0,0.0,0.0005550265777856112,0.000700339034665376,-0.0,0.0,0.0,0.0,0.019138025119900703,-0.045317139476537704,0.0008870834717527032,8341.0,15046.0,17708.0,11042.0,0.14322008192539215,0.511351466178894,0.7200378775596619,0.2644149661064148,0.0,0.0,0.0,0.0,8329.0,15002.0,17744.0,10993.0,1.6364593505859375,-0.14588410948239522,-0.04403780619636445,-0.026099708964422673,-0.0027616291772574186,0.0016835557762533426,-0.0
154,5,1.3847914033249253e-06,2.6894424081547186e-05,3.460124571574852e-05,-0.0009996554581448436,-0.00248520914465189,-0.002498843939974904,-0.06499547511339188,0.15016649663448334,0.010344245471060276,0.001676855725236237,0.001664398587308824,-0.005811275914311409,0.0,0.0,0.0,0.0013972495216876268,0.0004193367203697562,-0.0,0.0,0.0,0.0,0.019138025119900703,-0.045317139476537704,0.0008870834717527032,8341.0,15046.0,17708.0,11042.0,0.14322008192539215,0.511351466178894,0.7200378775596619,0.2644149661064148,0.0,0.0,0.0,0.0,8329.0,15002.0,17744.0,10993.0,1.6381025314331055,-0.1453293711627795,-0.043647756979098694,-0.025703277166718077,-0.0016552190063521266,0.004242514725774527,0.0
160,5,-4.417954551172443e-05,-3.7132835132069886e-05,0.0001370416721329093,-0.005867582745850086,0.006689187604933977,-0.013292388990521431,-0.06498896330595016,0.15019364655017853,0.010359800420701504,0.0010963021777570248,-0.007409853860735893,0.004299330525100231,0.0,0.0,0.0,0.0013972495216876268,0.0004193367203697562,-0.0,0.0,0.0,0.0,0.019454745575785637,-0.045695435255765915,0.0011782645015046,8427.0,14941.0,17820.0,10876.0,0.14652778208255768,0.5038666129112244,0.7296691536903381,0.255916029214859,0.0,0.0,0.0,0.0,8436.0,14940.0,17819.0,10873.0,1.6381025314331055,-0.1499089989171722,-0.04824654785924285,-0.028301462342926555,-0.0016552190063521266,0.004242514725774527,0.0
165,5,-5.088200850877911e-05,-3.32596137013752e-05,0.00013090217544231564,-0.003151328768581152,0.0022108883131295443,-0.004580216016620398,-0.06498896330595016,0.15019364655017853,0.010359800420701504,0.0010963021777570248,-0.007409853860735893,0.004299330525100231,0.0,0.0,0.0,-0.00794920139014721,-0.0053792386315763,-0.0,0.0,0.0,0.0,0.019454745575785637,-0.045695435255765915,0.0011782645015046,8427.0,14941.0,17820.0,10876.0,0.14652778208255768,0.5038666129112244,0.7296691536903381,0.255916029214859,0.0,0.0,0.0,0.0,8436.0,14940.0,17819.0,10873.0,1.7163301706314087,-0.1499361732094404,-0.04799385696509151,-0.027713159843975706,0.02224629744887352,-0.025288589298725128,0.0
170,5,-4.6531342377420515e-05,-2.9485187042155303e-05,0.0001312667882302776,-0.0007384513155557215,0.0004314242396503687,-0.0018758387304842472,-0.0650540441274643,0.1501152664422989,0.01036368403583765,-0.00445448188111186,0.006208894308656454,-0.04894660413265228,0.0,0.0,0.0,-0.00794920139014721,-0.0053792386315763,-0.0,0.0,0.0,0.0,0.0200540479272604,-0.04612080007791519,0.004707780200988054,7965.0,15121.0,17585.0,11354.0,0.12927499413490295,0.5167605876922607,0.7096852660179138,0.28073850274086,0.0,0.0,0.0,0.0,6906.0,15630.0,17185.0,11931.0,1.7163301706314087,-0.1497346659722469,-0.047710745892720154,-0.02762215816369444,0.02224629744887352,-0.025288589298725128,0.0
175,5,-3.144959919154644e-05,-4.022847133455798e-05,0.00013366785424295813,0.0015144284116104245,0.0014617638662457466,-0.0010384648339822888,-0.0650540441274643,0.1501152664422989,0.01036368403583765,-0.00445448188111186,0.006208894308656454,-0.04894660413265228,0.0,0.0,0.0,-0.0005869040032848716,-0.000767267367336899,-0.0,0.0,0.0,0.0,0.0200540479272604,-0.04612080007791519,0.004707780200988054,7965.0,15121.0,17585.0,11354.0,0.12927499413490295,0.5167605876922607,0.7096852660179138,0.28073850274086,0.0,0.0,0.0,0.0,6906.0,15630.0,17185.0,11931.0,1.6362459659576416,-0.1501657069974794,-0.04766253804341812,-0.02827871914897055,0.0030251513235270977,-0.0017800170462578535,0.0
180,5,-4.5701457565883175e-05,-4.7255914978450164e-05,0.00013766667689196765,-0.001104451366700232,0.0014279986498877406,-0.0008952436619438231,-0.06510657072067261,0.1502692699432373,0.0107839060947299,-0.015474923886358738,-0.013148142956197262,0.10150272399187088,0.0,0.0,0.0,-0.0005869040032848716,-0.000767267367336899,-0.0,0.0,0.0,0.0,0.01679244264960289,-0.046149834990501404,-0.0011701224138960242,10258.0,13701.0,18813.0,9157.0,0.22547310590744019,0.41946426033973694,0.8171783089637756,0.17598694562911987,0.0,0.0,0.0,0.0,8056.0,15021.0,17687.0,11295.0,1.6362459659576416,-0.1502147704997839,-0.0480450766146276,-0.028263333058285628,0.0030251513235270977,-0.0017800170462578535,0.0
185,5,-4.928894850309007e-05,-2.894072349590715e-05,0.00012075818085577339,-0.0008722795755602419,-0.0016266235616058111,0.0016709219198673964,-0.06510657072067261,0.1502692699432373,0.0107839060947299,-0.015474923886358738,-0.013148142956197262,0.10150272399187088,0.0,0.0,0.0,-0.0018412888748571277,-0.0011081767734140158,-0.0,0.0,0.0,0.0,0.01679244264960289,-0.046149834990501404,-0.0011701224138960242,10258.0,13701.0,18813.0,9157.0,0.22547310590744019,0.41946426033973694,0.8171783089637756,0.17598694562911987,0.0,0.0,0.0,0.0,8056.0,15021.0,17687.0,11295.0,1.645226001739502,-0.150259878678454,-0.04793573100958207,-0.027643091666324164,0.0043932474218308926,-0.005615075584501028,0.0
190,5,-4.366487337392755e-05,-3.458249557297677e-05,0.000146959675475955,0.00032597739482298493,2.6363408323959447e-05,-0.002475810470059514,-0.06497351080179214,0.1500001698732376,0.009961267933249474,0.053411148488521576,-0.011749617755413055,-0.0206768661737442,0.0,0.0,0.0,-0.0018412888748571277,-0.0011081767734140158,-0.0,0.0,0.0,0.0,0.02077277936041355,-0.046013250946998596,0.0028419496957212687,8098.0,15989.0,17487.0,11701.0,0.13412629067897797,0.5812642574310303,0.7014297842979431,0.29950979351997375,0.0,0.0,0.0,0.0,9946.0,14953.0,18568.0,9834.0,1.645226001739502,-0.15029162970543564,-0.0479949581300075,-0.028036352560519413,0.0043932474218308926,-0.005615075584501028,0.0
195,5,-3.5494344047037885e-05,-6.422093429137021e-05,0.00013666259474121034,0.0011108540929853916,0.003567158244550228,0.00024532622774131596,-0.06497351080179214,0.1500001698732376,0.009961267933249474,0.053411148488521576,-0.011749617755413055,-0.0206768661737442,0.0,0.0,0.0,-9.585982479620725e-05,0.00025022178306244314,-0.0,0.0,0.0,0.0,0.02077277936041355,-0.046013250946998596,0.0028419496957212687,8098.0,15989.0,17487.0,11701.0,0.13412629067897797,0.5812642574310303,0.7014297842979431,0.29950979351997375,0.0,0.0,0.0,0.0,9946.0,14953.0,18568.0,9834.0,1.6285243034362793,-0.14983629457879682,-0.04776302023666548,-0.027929631902948678,-0.0009819089900702238,-0.0002893606142606586,0.0
200,5,-4.6207209379645064e-05,-6.0575930547202006e-05,0.0001340622256975621,-0.0008412019815295935,0.0009894624818116426,0.0004101747472304851,-0.06530880182981491,0.15027667582035065,0.010692180134356022,-0.05315833166241646,0.04940297082066536,-0.048398781567811966,0.0,0.0,0.0,-9.585982479620725e-05,0.00025022178306244314,-0.0,0.0,0.0,0.0,0.01797245256602764,-0.046564288437366486,0.0022980677895247936,8444.0,14781.0,17906.0,10947.0,0.14716419577598572,0.49256691336631775,0.7370128035545349,0.25950202345848083,0.0,0.0,0.0,0.0,6617.0,15780.0,16873.0,12329.0,1.6285243034362793,-0.14957318491462987,-0.04774814115908766,-0.02752637871241652,-0.0009819089900702238,-0.0002893606142606586,0.0
205,5,-5.338255868991837e-05,-4.7239027480827644e-05,0.00013999837392475456,-0.0011975228553637862,-0.001204643165692687,-0.0005482691922225058,-0.06530880182981491,0.15027667582035065,0.010692180134356022,-0.05315833166241646,0.04940297082066536,-0.048398781567811966,0.0,0.0,0.0,-0.0013277361867949367,-0.0008609693613834679,-0.0,0.0,0.0,0.0,0.01797245256602764,-0.046564288437366486,0.0022980677895247936,8444.0,14781.0,17906.0,10947.0,0.14716419577598572,0.49256691336631775,0.7370128035545349,0.25950202345848083,0.0,0.0,0.0,0.0,6617.0,15780.0,16873.0,12329.0,1.6432664394378662,-0.14945083468529552,-0.047911698086932304,-0.027766743371864147,0.003409158205613494,-0.0040441579185426235,-0.0
210,5,-4.83624025946483e-05,-4.2151663365075365e-05,0.00015432204236276448,0.00012340981629677117,-0.0010923412628471851,-0.0019381481688469648,-0.06473097205162048,0.15014934539794922,0.010537061840295792,-0.0030815014615654945,-0.05158798396587372,0.0878005102276802,0.0,0.0,0.0,-0.0013277361867949367,-0.0008609693613834679,-0.0,0.0,0.0,0.0,0.01797245256602764,-0.046564288437366486,0.0022980677895247936,9489.0,14497.0,18360.0,9831.0,0.19027581810951233,0.47274962067604065,0.7766274213790894,0.20557311177253723,0.0,0.0,0.0,0.0,9515.0,14274.0,18541.0,9789.0,1.6432664394378662,-0.14916285774893628,-0.04757264015684295,-0.027963145405530132,0.003409158205613494,-0.0040441579185426235,-0.0
216,5,-4.7460824134759605e-05,-3.2184747396968305e-05,0.00016018256428651512,0.00015755330969113857,-0.0016329661011695862,-0.0014785202220082283,-0.06473097205162048,0.15014934539794922,0.010537061840295792,-0.0030815014615654945,-0.05158798396587372,0.0878005102276802,0.0,0.0,0.0,0.0012710834853351116,4.962767707183957e-05,-0.0,0.0,0.0,0.0,0.01797245256602764,-0.046564288437366486,0.0022980677895247936,9489.0,14497.0,18360.0,9831.0,0.19027581810951233,0.47274962067604065,0.7766274213790894,0.20557311177253723,0.0,0.0,0.0,0.0,9515.0,14274.0,18541.0,9789.0,1.6399527788162231,-0.1496361477418576,-0.04766772671240358,-0.027634729078044224,-0.0001961132074939087,0.003863791935145855,0.0
221,5,-3.134865255560726e-05,-2.5724140868987888e-05,0.00017845965339802206,0.001996481791138649,-0.0014284594217315316,-0.002784659154713154,-0.06469805538654327,0.15023688971996307,0.010511869564652443,0.08822646737098694,0.021591410040855408,-0.06619558483362198,0.0,0.0,0.0,0.0012710834853351116,4.962767707183957e-05,-0.0,0.0,0.0,0.0,0.020423591136932373,-0.04527009278535843,0.003090794663876295,9233.0,14404.0,18204.0,10451.0,0.17918679118156433,0.46639344096183777,0.7629116773605347,0.23477454483509064,0.0,0.0,0.0,0.0,8246.0,15109.0,17550.0,11078.0,1.6399527788162231,-0.15016062429816193,-0.047487585495111014,-0.027633892198597375,-0.0001961132074939087,0.003863791935145855,0.0
226,5,-3.1568964914185926e-05,-3.1916515581542626e-05,0.0001701549772405997,0.0007721551228314638,0.00017170138016808778,-0.00011730351980077103,-0.06469805538654327,0.15023688971996307,0.010511869564652443,0.08822646737098694,0.021591410040855408,-0.06619558483362198,0.0,0.0,0.0,0.001704894588328898,0.001839388394728303,-0.0,0.0,0.0,0.0,0.020423591136932373,-0.04527009278535843,0.003090794663876295,9233.0,14404.0,18204.0,10451.0,0.17918679118156433,0.46639344096183777,0.7629116773605347,0.23477454483509064,0.0,0.0,0.0,0.0,8246.0,15109.0,17550.0,11078.0,1.6500864028930664,-0.1500614662849232,-0.04698119000008088,-0.02770343109822946,-0.00731359887868166,0.00521449651569128,0.0
231,5,-3.3100608561653644e-05,-3.5856090107699856e-05,0.0001927939592860639,0.00012506498023867607,0.0005414295592345297,-0.0027635986916720867,-0.06494755297899246,0.15010103583335876,0.010994220152497292,-0.057181164622306824,0.06097951903939247,0.016383131965994835,0.0,0.0,0.0,0.001704894588328898,0.001839388394728303,-0.0,0.0,0.0,0.0,0.01873794198036194,-0.04090995714068413,0.0014156043762341142,9527.0,14376.0,17773.0,10918.0,0.1919218748807907,0.4644289016723633,0.725579023361206,0.2580229341983795,0.0,0.0,0.0,0.0,7873.0,15271.0,17303.0,11776.0,1.6500864028930664,-0.14969385338320046,-0.04559342300690302,-0.027522963061202377,-0.00731359887868166,0.00521449651569128,0.0
236,5,-1.4306680895970203e-05,-4.039494160679169e-05,0.0002220909227617085,0.0023052971810102463,0.0007612340268678963,-0.004621074069291353,-0.06494755297899246,0.15010103583335876,0.010994220152497292,-0.057181164622306824,0.06097951903939247,0.016383131965994835,0.0,0.0,0.0,-0.0007287610205821693,7.195473153842613e-05,-0.0,0.0,0.0,0.0,0.01873794198036194,-0.04090995714068413,0.0014156043762341142,9527.0,14376.0,17773.0,10918.0,0.1919218748807907,0.4644289016723633,0.725579023361206,0.2580229341983795,0.0,0.0,0.0,0.0,7873.0,15271.0,17303.0,11776.0,1.6497079133987427,-0.1501093522986153,-0.04438138967081152,-0.026803849228315028,-0.000286034366581589,-0.0022284386213868856,0.0
241,5,2.361929182370659e-05,-5.068576138000935e-05,0.00025756534887477756,0.005473235622048378,0.0015393916983157396,-0.006105360109359026,-0.06447526067495346,0.14829576015472412,0.010735581628978252,0.044555723667144775,0.1932963877916336,0.053902365267276764,0.0,0.0,0.0,-0.0007287610205821693,7.195473153842613e-05,-0.0,0.0,0.0,0.0,0.020712779834866524,-0.03276912122964859,-2.6823001462616958e-05,8718.0,14783.0,16529.0,13017.0,0.15796144306659698,0.4927106499671936,0.6232297420501709,0.3761845827102661,0.0,0.0,0.0,0.0,10301.0,13686.0,18163.0,10448.0,1.6497079133987427,-0.14940281087146343,-0.04140732293394125,-0.02699024050304153,-0.000286034366581589,-0.0022284386213868856,0.0
246,5,5.986180258332752e-05,-5.3975716582499444e-05,0.0002793370222207159,0.006538395769894123,0.0010105514666065574,-0.005054745357483625,-0.06447526067495346,0.14829576015472412,0.010735581628978252,0.044555723667144775,0.1932963877916336,0.053902365267276764,0.0,0.0,0.0,-0.0019392266403883696,0.00509035587310791,-0.0,0.0,0.0,0.0,0.020712779834866524,-0.03276912122964859,-2.6823001462616958e-05,8718.0,14783.0,16529.0,13017.0,0.15796144306659698,0.4927106499671936,0.6232297420501709,0.3761845827102661,0.0,0.0,0.0,0.0,10301.0,13686.0,18163.0,10448.0,1.6838401556015015,-0.14862269169478812,-0.03886065783497445,-0.026198793186021536,-0.02065371721982956,-0.006052537355571985,0.0
251,5,9.774385398486629e-05,-5.7113764341920614e-05,0.00027502363082021475,0.007161204237490892,0.0007807862129993737,-0.0015042922459542751,-0.06486965715885162,0.13824637234210968,0.010960707440972328,-0.05892288684844971,0.7003670930862427,0.03907248377799988,0.0,0.0,0.0,-0.0019392266403883696,0.00509035587310791,-0.0,0.0,0.0,0.0,0.02043846994638443,-0.026468439027667046,0.004580000415444374,11521.0,12722.0,17517.0,11670.0,0.28970760107040405,0.35823869705200195,0.7039198875427246,0.29784175753593445,0.0,0.0,0.0,0.0,9766.0,14278.0,16725.0,12598.0,1.6838401556015015,-0.14856439286396442,-0.0355607042791373,-0.025930075602416332,-0.02065371721982956,-0.006052537355571985,0.0
256,5,0.0001736366393743083,-5.097592656966299e-05,0.00026806152891367674,0.011971617117524147,-0.0004242258728481829,0.0002337340556550771,-0.06486965715885162,0.13824637234210968,0.010960707440972328,-0.05892288684844971,0.7003670930862427,0.03907248377799988,0.0,0.0,0.0,0.00040394230745732784,0.01088150218129158,-0.0,0.0,0.0,0.0,0.02043846994638443,-0.026468439027667046,0.004580000415444374,11521.0,12722.0,17517.0,11670.0,0.28970760107040405,0.35823869705200195,0.7039198875427246,0.29784175753593445,0.0,0.0,0.0,0.0,9766.0,14278.0,16725.0,12598.0,1.7485941648483276,-0.14820823087068688,-0.031148529816853846,-0.026236569802207316,-0.04584808275103569,0.00130923290271312,-0.0
261,5,0.0002772536827251315,-4.6068409574218094e-05,0.000279398140264675,0.01722269132733345,-0.0007585926214233041,-0.001266897190362215,-0.06459487974643707,0.13142777979373932,0.01026166696101427,0.12589043378829956,0.9510645866394043,-0.010221668519079685,0.0,0.0,0.0,0.00040394230745732784,0.01088150218129158,-0.0,0.0,0.0,0.0,0.01801963523030281,-0.0171534214168787,0.00033974729012697935,11444.0,13514.0,15899.0,13655.0,0.2855799198150635,0.4074012041091919,0.5743876099586487,0.41647136211395264,0.0,0.0,0.0,0.0,10449.0,13634.0,16447.0,13130.0,1.7485941648483276,-0.14690190728917601,-0.025850647735656644,-0.026198332832291588,-0.04584808275103569,0.00130923290271312,-0.0
266,5,0.0003917353751603514,-5.8176505262963474e-05,0.00031469250097870827,0.02062688022851944,0.0011495343642309308,-0.004742082208395004,-0.06459487974643707,0.13142777979373932,0.01026166696101427,0.12589043378829956,0.9510645866394043,-0.010221668519079685,0.0,0.0,0.0,-0.001360597787424922,0.017964864149689674,-0.0,0.0,0.0,0.0,0.01801963523030281,-0.0171534214168787,0.00033974729012697935,11444.0,13514.0,15899.0,13655.0,0.2855799198150635,0.4074012041091919,0.5743876099586487,0.41647136211395264,0.0,0.0,0.0,0.0,10449.0,13634.0,16447.0,13130.0,1.8367366790771484,-0.14452273754202347,-0.02070877396015065,-0.02593411607691466,-0.07950583100318909,-0.004632174968719482,0.0
271,5,0.0004837841261178255,-0.00010820821626111865,0.0003637578629422933,0.01929660141468048,0.006463618949055672,-0.007784677669405937,-0.06181900203227997,0.11940436065196991,0.009783625602722168,0.3098093867301941,1.0481462478637695,-0.016367889940738678,0.0,0.0,0.0,-0.001360597787424922,0.017964864149689674,-0.0,0.0,0.0,0.0,0.013955536298453808,-0.010224363766610622,0.001890398794785142,12499.0,13059.0,15657.0,13460.0,0.34496113657951355,0.37875881791114807,0.5561569333076477,0.40396323800086975,0.0,0.0,0.0,0.0,12585.0,12583.0,16327.0,13022.0,1.8367366790771484,-0.14341401931305262,-0.01572173192907528,-0.026199029121658945,-0.07950583100318909,-0.004632174968719482,0.0
276,5,0.0005436479113996029,-0.00010524763638386503,0.0004148884618189186,0.014902296476066113,0.00223017786629498,-0.009249540977180004,-0.06181900203227997,0.11940436065196991,0.009783625602722168,0.3098093867301941,1.0481462478637695,-0.016367889940738678,0.0,0.0,0.0,-0.0027100956067442894,0.01362204272300005,-0.0,0.0,0.0,0.0,0.013955536298453808,-0.010224363766610622,0.001890398794785142,12499.0,13059.0,15657.0,13460.0,0.34496113657951355,0.37875881791114807,0.5561569333076477,0.40396323800086975,0.0,0.0,0.0,0.0,12585.0,12583.0,16327.0,13022.0,1.783703327178955,-0.14056662893275276,-0.011390767444624037,-0.024348197125551464,-0.058546606451272964,-0.008960140869021416,0.0
281,5,0.0005356647889129817,-0.00012964106281287968,0.0004575781640596688,0.005002941470593214,0.003819282865151763,-0.008822583593428135,-0.06181900203227997,0.11940436065196991,0.009783625602722168,0.3098093867301941,1.0481462478637695,-0.016367889940738678,0.0,0.0,0.0,-0.0027100956067442894,0.01362204272300005,-0.0,0.0,0.0,0.0,0.013955536298453808,-0.010224363766610622,0.001890398794785142,12499.0,13059.0,15657.0,13460.0,0.34496113657951355,0.37875881791114807,0.5561569333076477,0.40396323800086975,0.0,0.0,0.0,0.0,12585.0,12583.0,16327.0,13022.0,1.783703327178955,-0.1394361685491178,-0.007346370658870355,-0.02288104022107729,-0.058546606451272964,-0.008960140869021416,0.0
287,5,0.0005372920422814786,-0.0001692710939096287,0.0004953140742145479,0.0021964488551020622,0.00628331582993269,-0.008057338185608387,-0.05934538692235947,0.11139141768217087,0.010082704946398735,0.30003196001052856,0.8660368323326111,0.12944041192531586,0.0,0.0,0.0,-0.0077815246768295765,0.002735861111432314,-0.0,0.0,0.0,0.0,0.01333798561245203,-0.007962889038026333,0.003891977947205305,14590.0,12191.0,16889.0,13053.0,0.47919338941574097,0.3270511031150818,0.6520869731903076,0.37840521335601807,0.0,0.0,0.0,0.0,13114.0,12943.0,15866.0,13754.0,1.6983402967453003,-0.1376689330287942,-0.003417654076041971,-0.022165430515202995,-0.01119584683328867,-0.02449570782482624,0.0
292,5,0.00033166923094540834,-0.000155062458361499,0.0009049936197698116,-0.02379615791141987,0.0008082916610874236,-0.05238448083400726,-0.05934538692235947,0.11139141768217087,0.010082704946398735,0.30003196001052856,0.8660368323326111,0.12944041192531586,0.0,0.0,0.0,-0.0077815246768295765,0.002735861111432314,-0.0,0.0,0.0,0.0,0.01333798561245203,-0.007962889038026333,0.003891977947205305,14590.0,12191.0,16889.0,13053.0,0.47919338941574097,0.3270511031150818,0.6520869731903076,0.37840521335601807,0.0,0.0,0.0,0.0,13114.0,12943.0,15866.0,13754.0,1.6983402967453003,-0.12418039769933358,-0.011439781678538624,-0.017809797855539496,-0.01119584683328867,-0.02449570782482624,0.0
297,5,0.0003723754780367017,-0.0001999735541176051,0.0009122702176682651,-0.0046337139792740345,0.005712647456675768,-0.021826986223459244,-0.055087145417928696,0.1016455814242363,0.009767703711986542,0.41117775440216064,0.7499895691871643,-0.001579904928803444,0.0,0.0,0.0,-0.007150609977543354,-0.0037965201772749424,-0.0,0.0,0.0,0.0,0.010873425751924515,-0.0070920782163739204,0.0006154810544103384,13279.0,13928.0,15622.0,14257.0,0.3924960792064667,0.4343164265155792,0.5535412430763245,0.4563829004764557,0.0,0.0,0.0,0.0,14196.0,12725.0,16422.0,13574.0,1.6995030641555786,-0.1218625776029302,-0.007629949605447032,-0.01673575439881682,0.015547028742730618,-0.022525107488036156,0.0
302,5,0.00040969083784148097,-0.0002693178248591721,0.0008920330437831581,0.002624355023726821,0.010606372728943825,-0.006302335765212774,-0.055087145417928696,0.1016455814242363,0.009767703711986542,0.41117775440216064,0.7499895691871643,-0.001579904928803444,0.0,0.0,0.0,-0.007150609977543354,-0.0037965201772749424,-0.0,0.0,0.0,0.0,0.010873425751924515,-0.0070920782163739204,0.0006154810544103384,13279.0,13928.0,15622.0,14257.0,0.3924960792064667,0.4343164265155792,0.5535412430763245,0.4563829004764557,0.0,0.0,0.0,0.0,14196.0,12725.0,16422.0,13574.0,1.6995030641555786,-0.11929496531105348,-0.004484636466815799,-0.015534622546021077,0.015547028742730618,-0.022525107488036156,0.0
307,5,0.00038981749094091356,-0.0003844870370812714,0.0008206329657696187,-0.002748106839135289,0.011724015697836876,0.0035021030344069004,-0.05166006460785866,0.09686928987503052,0.010366611182689667,0.4917354881763458,0.5639788508415222,0.08464442938566208,0.0,0.0,0.0,-0.007150609977543354,-0.0037965201772749424,-0.0,0.0,0.0,0.0,0.007329248823225498,-0.010899932123720646,0.004080291837453842,14239.0,12979.0,16499.0,12309.0,0.4551491439342499,0.37385448813438416,0.6208661198616028,0.33383360505104065,0.0,0.0,0.0,0.0,13935.0,13050.0,16222.0,12940.0,1.6995030641555786,-0.1156645222387191,-0.0016970253780156054,-0.014245531066010021,0.008154821582138538,-0.04608390852808952,-0.0
312,5,0.00034628211869858205,-0.0004000257176812738,0.0007600756362080574,-0.006323486566543579,0.0065542482770979404,0.0086677186191082,-0.05166006460785866,0.09686928987503052,0.010366611182689667,0.4917354881763458,0.5639788508415222,0.08464442938566208,0.0,0.0,0.0,-0.0141987269744277,-0.0019328081980347633,-0.0,0.0,0.0,0.0,0.007329248823225498,-0.010899932123720646,0.004080291837453842,14239.0,12979.0,16499.0,12309.0,0.4551491439342499,0.37385448813438416,0.6208661198616028,0.33383360505104065,0.0,0.0,0.0,0.0,13935.0,13050.0,16222.0,12940.0,1.75112783908844,-0.11236734929375622,0.00010902589954497477,-0.012862049645429547,0.008154821582138538,-0.04608390852808952,-0.0
317,5,0.00029961043037474155,-0.0004322415334172547,0.0007459826883859932,-0.008129997178912163,0.00648759538307786,0.005158245097845793,-0.04611482471227646,0.09098819643259048,0.010850176215171814,0.4283919036388397,0.3347848057746887,0.08699298650026321,0.0,0.0,0.0,-0.0141987269744277,-0.0019328081980347633,-0.0,0.0,0.0,0.0,0.004774042405188084,-0.017892897129058838,0.0027383826673030853,13222.0,13663.0,16267.0,11523.0,0.3888712525367737,0.4169565439224243,0.6026769876480103,0.28983551263809204,0.0,0.0,0.0,0.0,13401.0,13324.0,16906.0,10769.0,1.75112783908844,-0.11196245147422766,-0.000289807502085365,-0.012913717918347476,0.008154821582138538,-0.04608390852808952,-0.0
322,5,0.00028503293287940323,-0.00043241423554718494,0.0007002378697507083,-0.005001297686249018,0.0026157619431614876,0.00755266984924674,-0.04611482471227646,0.09098819643259048,0.010850176215171814,0.4283919036388397,0.3347848057746887,0.08699298650026321,0.0,0.0,0.0,-0.008324075490236282,-0.006911600474268198,-0.0,0.0,0.0,0.0,0.004774042405188084,-0.017892897129058838,0.0027383826673030853,13222.0,13663.0,16267.0,11523.0,0.3888712525367737,0.4169565439224243,0.6026769876480103,0.28983551263809204,0.0,0.0,0.0,0.0,13401.0,13324.0,16906.0,10769.0,1.7312618494033813,-0.11037473513606337,0.0010122931265120789,-0.01185158805779557,0.028832001611590385,-0.026711495593190193,-0.0
327,5,0.00028503293287940323,-0.00043241423554718494,0.0007002378697507083,-0.005001297686249018,0.0026157619431614876,0.00755266984924674,-0.043850723654031754,0.08892591297626495,0.01140549685806036,0.20101875066757202,0.1901935636997223,0.03543207794427872,0.0,0.0,0.0,-0.008324075490236282,-0.006911600474268198,-0.0,0.0,0.0,0.0,0.007612265180796385,-0.02347748354077339,0.0027416320517659187,12471.0,13994.0,16573.0,11540.0,0.34330493211746216,0.4386851191520691,0.6267527341842651,0.290760338306427,0.0,0.0,0.0,0.0,11783.0,14450.0,16228.0,12177.0,1.7312618494033813,-0.11037473513606337,0.0010122931265120789,-0.01185158805779557,0.028832001611590385,-0.026711495593190193,-0.0
332,5,0.00026305552455596626,-0.0003924191405531019,0.0007063853554427624,-0.001506873406469822,-0.004365055821835995,0.0012711292365565896,-0.043850723654031754,0.08892591297626495,0.01140549685806036,0.20101875066757202,0.1901935636997223,0.03543207794427872,0.0,0.0,0.0,-0.003909972030669451,-0.004236942622810602,-0.0,0.0,0.0,0.0,0.007612265180796385,-0.02347748354077339,0.0027416320517659187,12471.0,13994.0,16573.0,11540.0,0.34330493211746216,0.4386851191520691,0.6267527341842651,0.290760338306427,0.0,0.0,0.0,0.0,11783.0,14450.0,16228.0,12177.0,1.6826227903366089,-0.10943019147760766,0.001364761715239212,-0.010902677678345246,0.017178555950522423,-0.01219458319246769,-0.0
338,5,0.00022948996047489345,-0.0003813283983618021,0.0007365698693320155,-0.004630615469068289,-0.003076912136748433,-0.0031136912293732166,-0.0425841249525547,0.08794495463371277,0.01179113145917654,0.015127836726605892,0.042425379157066345,0.07416453957557678,0.0,0.0,0.0,-0.003909972030669451,-0.004236942622810602,-0.0,0.0,0.0,0.0,0.007986937649548054,-0.026409577578306198,0.002496254863217473,12582.0,14215.0,17023.0,11428.0,0.3498966693878174,0.4535377025604248,0.6629769802093506,0.28471654653549194,0.0,0.0,0.0,0.0,12394.0,14291.0,17058.0,11485.0,1.6826227903366089,-0.10867750529648214,0.001438080823533012,-0.010600860390495499,0.017178555950522423,-0.01219458319246769,-0.0
343,5,0.00017145757738035172,-0.000353700655978173,0.0008029822492972016,-0.008816133253276348,-0.004546093288809061,-0.009214965626597404,-0.0425841249525547,0.08794495463371277,0.01179113145917654,0.015127836726605892,0.042425379157066345,0.07416453957557678,0.0,0.0,0.0,0.0030360694508999586,-0.003984571434557438,-0.0,0.0,0.0,0.0,0.007986937649548054,-0.026409577578306198,0.002496254863217473,12582.0,14215.0,17023.0,11428.0,0.3498966693878174,0.4535377025604248,0.6629769802093506,0.28471654653549194,0.0,0.0,0.0,0.0,12394.0,14291.0,17058.0,11485.0,1.6761448383331299,-0.10722619337547108,0.0011701043310450169,-0.00944698264338407,0.01609318144619465,0.009432582184672356,0.0
348,5,0.0001432287972420454,-0.00035778156598098576,0.000840864609926939,-0.006913906894624233,-0.001328729558736086,-0.008231869898736477,-0.042488470673561096,0.08774403482675552,0.011610914021730423,0.029085775837302208,-0.007946004159748554,-0.024114174768328667,0.0,0.0,0.0,0.0030360694508999586,-0.003984571434557438,-0.0,0.0,0.0,0.0,0.011190762743353844,-0.027974337339401245,0.0031693819910287857,10909.0,15180.0,16361.0,12459.0,0.2575843036174774,0.5210409164428711,0.6100456118583679,0.34259095788002014,0.0,0.0,0.0,0.0,11678.0,14630.0,16920.0,11645.0,1.6761448383331299,-0.10605447192272419,0.0017738510047735272,-0.009147749805964197,0.01609318144619465,0.009432582184672356,0.0
353,5,0.0001076941261999309,-0.0003785529115702957,0.0008748708642087877,-0.00702972337603569,0.001961069880053401,-0.007373498752713203,-0.042488470673561096,0.08774403482675552,0.011610914021730423,0.029085775837302208,-0.007946004159748554,-0.024114174768328667,0.0,0.0,0.0,0.0009570851107127964,-0.006156396586447954,-0.0,0.0,0.0,0.0,0.011190762743353844,-0.027974337339401245,0.0031693819910287857,10909.0,15180.0,16361.0,12459.0,0.2575843036174774,0.5210409164428711,0.6100456118583679,0.34259095788002014,0.0,0.0,0.0,0.0,11678.0,14630.0,16920.0,11645.0,1.6939773559570312,-0.10588910391567213,0.002027412029616861,-0.00906128951286988,0.02512945979833603,0.0030051530338823795,0.0
358,5,0.000135777925606817,-0.00035613702493719757,0.000843305082526058,0.0005581669392995536,-0.001905477256514132,0.0008384945103898644,-0.042066335678100586,0.08750200271606445,0.012048098258674145,0.04365098476409912,0.049548596143722534,0.024654598906636238,0.0,0.0,0.0,0.0009570851107127964,-0.006156396586447954,-0.0,0.0,0.0,0.0,0.011190762743353844,-0.027974337339401245,0.0031693819910287857,11968.0,13872.0,16996.0,11280.0,0.3143739104270935,0.4306604862213135,0.6607714891433716,0.27681684494018555,0.0,0.0,0.0,0.0,11220.0,14508.0,16318.0,12221.0,1.6939773559570312,-0.10418249356264565,0.003419533483649468,-0.007840824971939228,0.02512945979833603,0.0030051530338823795,0.0
363,5,0.0001382204791298136,-0.00036778004141524434,0.000827293551992625,0.000516373838763684,0.0006349695613607764,0.0022567822597920895,-0.042066335678100586,0.08750200271606445,0.012048098258674145,0.04365098476409912,0.049548596143722534,0.024654598906636238,0.0,0.0,0.0,0.0016699383268132806,0.00070741813397035,-0.0,0.0,0.0,0.0,0.011190762743353844,-0.027974337339401245,0.0031693819910287857,11968.0,13872.0,16996.0,11280.0,0.3143739104270935,0.4306604862213135,0.6607714891433716,0.27681684494018555,0.0,0.0,0.0,0.0,11220.0,14508.0,16318.0,12221.0,1.6721110343933105,-0.10493193115390215,0.004634062467371255,-0.007537505802315503,-0.0028503129724413157,0.005175755359232426,-0.0
368,5,0.0001374171843053773,-0.00035167564055882394,0.0008131645154207945,0.00011015339259756729,-0.0016785390907898545,0.0025982025545090437,-0.041809435933828354,0.08650318533182144,0.011932781897485256,-0.008026257157325745,0.1848379224538803,0.05174311622977257,0.0,0.0,0.0,0.0016699383268132806,0.00070741813397035,-0.0,0.0,0.0,0.0,0.013730093836784363,-0.02407560683786869,0.0016358699649572372,11759.0,13644.0,16725.0,12047.0,0.3027232587337494,0.41573771834373474,0.6388480067253113,0.3188358247280121,0.0,0.0,0.0,0.0,12543.0,12882.0,17208.0,11386.0,1.6721110343933105,-0.10310826663323976,0.006316949888608447,-0.006937381960285546,-0.0028503129724413157,0.005175755359232426,-0.0
373,5,0.00014010447193868458,-0.0003567541716620326,0.0007760903099551797,0.00036653605639003217,-6.1993625422474e-05,0.005488185212016106,-0.041809435933828354,0.08650318533182144,0.011932781897485256,-0.008026257157325745,0.1848379224538803,0.05174311622977257,0.0,0.0,0.0,0.001404935261234641,0.00029323279159143567,-0.0,0.0,0.0,0.0,0.013730093836784363,-0.02407560683786869,0.0016358699649572372,11759.0,13644.0,16725.0,12047.0,0.3027232587337494,0.41573771834373474,0.6388480067253113,0.3188358247280121,0.0,0.0,0.0,0.0,12543.0,12882.0,17208.0,11386.0,1.669664978981018,-0.10263456388538457,0.007855375878475892,-0.00637032433714965,-0.001179759157821536,0.004348044283688068,-0.0
378,5,0.00012451510701794177,-0.0003721274551935494,0.0007492796867154539,-0.0017241096356883645,0.0018199970945715904,0.005412542726844549,-0.041861310601234436,0.08360941708087921,0.012373321689665318,0.02502218820154667,0.27860885858535767,-0.013392223976552486,0.0,0.0,0.0,0.001404935261234641,0.00029323279159143567,-0.0,0.0,0.0,0.0,0.013025098480284214,-0.021633746102452278,0.0020550645422190428,11809.0,13867.0,16403.0,12498.0,0.3054807782173157,0.4302939772605896,0.6132894158363342,0.34491318464279175,0.0,0.0,0.0,0.0,11709.0,13947.0,16138.0,12846.0,1.669664978981018,-0.10451444723972922,0.00838161711408966,-0.005977102000327514,-0.001179759157821536,0.004348044283688068,-0.0
383,5,0.00017756687884684652,-0.0003354712389409542,0.0007178193191066384,0.005676568951457739,-0.0036707462277263403,0.005940266884863377,-0.041861310601234436,0.08360941708087921,0.012373321689665318,0.02502218820154667,0.27860885858535767,-0.013392223976552486,0.0,0.0,0.0,-0.0028550291899591684,-0.0014259942108765244,-0.0,0.0,0.0,0.0,0.013025098480284214,-0.021633746102452278,0.0020550645422190428,11809.0,13867.0,16403.0,12498.0,0.3054807782173157,0.4302939772605896,0.6132894158363342,0.34491318464279175,0.0,0.0,0.0,0.0,11709.0,13947.0,16138.0,12846.0,1.6790043115615845,-0.10270975008048315,0.011086534737803638,-0.004925006909474111,0.005769252777099609,-0.00888525415211916,-0.0
388,5,0.0002188651415053755,-0.00033667052048258483,0.0007097992929629982,0.007226419635117054,-0.0013243852881714702,0.003338504582643509,-0.041815392673015594,0.08110073953866959,0.01265618484467268,-0.0013531337026506662,0.34973666071891785,0.11130808293819427,0.0,0.0,0.0,-0.0028550291899591684,-0.0014259942108765244,-0.0,0.0,0.0,0.0,0.01313080731779337,-0.014613952487707138,0.00037894712295383215,13120.0,12366.0,16848.0,11775.0,0.38256850838661194,0.33714762330055237,0.6487759947776794,0.3036188781261444,0.0,0.0,0.0,0.0,12977.0,12478.0,16695.0,12036.0,1.6790043115615845,-0.10287975799764672,0.012778584795273322,-0.005195409571213374,0.005769252777099609,-0.00888525415211916,-0.0
393,5,0.0002569736971054226,-0.0003247552376706153,0.0007250708877108991,0.007463593035936356,-0.0019595869816839695,-0.000497189350426197,-0.041815392673015594,0.08110073953866959,0.01265618484467268,-0.0013531337026506662,0.34973666071891785,0.11130808293819427,0.0,0.0,0.0,0.0009823766304180026,0.006902236957103014,-0.0,0.0,0.0,0.0,0.01313080731779337,-0.014613952487707138,0.00037894712295383215,13120.0,12366.0,16848.0,11775.0,0.38256850838661194,0.33714762330055237,0.6487759947776794,0.3036188781261444,0.0,0.0,0.0,0.0,12977.0,12478.0,16695.0,12036.0,1.7024614810943604,-0.10236046696263197,0.014318410286228808,-0.004705516335888045,-0.028314923867583275,0.0031000147573649883,-0.0
399,5,0.0003093841951340437,-0.00033504245220683515,0.000718370545655489,0.009274699725210667,0.00045063020661473274,0.0006051676464267075,-0.04167397320270538,0.07678790390491486,0.01273423247039318,0.012631851248443127,0.39452072978019714,-0.024703498929739,0.0,0.0,0.0,0.0009823766304180026,0.006902236957103014,-0.0,0.0,0.0,0.0,0.01248503103852272,-0.01449048612266779,0.0035561437252908945,11799.0,13660.0,15578.0,13363.0,0.30492162704467773,0.41675764322280884,0.5502181649208069,0.3977675437927246,0.0,0.0,0.0,0.0,12316.0,13190.0,15939.0,12933.0,1.7024614810943604,-0.1034269118333629,0.016228101078459872,-0.005506463055154923,-0.028314923867583275,0.0031000147573649883,-0.0
404,5,0.00034614428295753896,-0.0003098858578596264,0.0006959983147680759,0.008121089078485966,-0.0028385380282998085,0.002926732413470745,-0.04167397320270538,0.07678790390491486,0.01273423247039318,0.012631851248443127,0.39452072978019714,-0.024703498929739,0.0,0.0,0.0,-0.0011102971620857716,0.00878390483558178,-0.0,0.0,0.0,0.0,0.01248503103852272,-0.01449048612266779,0.0035561437252908945,11799.0,13660.0,15578.0,13363.0,0.30492162704467773,0.41675764322280884,0.5502181649208069,0.3977675437927246,0.0,0.0,0.0,0.0,12316.0,13190.0,15939.0,12933.0,1.7242436408996582,-0.10255354076034208,0.01783971915855284,-0.005046560984608281,-0.0364949107170105,-0.0035485117696225643,-0.0
409,5,0.00040111440466716886,-0.0003431188815739006,0.0006665426190011203,0.00984485074877739,0.002852546749636531,0.0047053806483745575,-0.04168597608804703,0.07382935285568237,0.013188940472900867,-0.032765112817287445,0.33249256014823914,0.05367070809006691,0.0,0.0,0.0,-0.0011102971620857716,0.00878390483558178,-0.0,0.0,0.0,0.0,0.012638215906918049,-0.012853738851845264,0.001008849125355482,13105.0,12570.0,16541.0,12138.0,0.38160616159439087,0.34917014837265015,0.624215841293335,0.3240121603012085,0.0,0.0,0.0,0.0,12146.0,13544.0,15769.0,13089.0,1.7242436408996582,-0.10291535223657255,0.019833589026072476,-0.005193996289796548,-0.0364949107170105,-0.0035485117696225643,-0.0
414,5,0.0004342929751146585,-0.0003317012742627412,0.0006670714938081801,0.0079193701967597,-0.00022909486142452806,0.0018186880042776465,-0.04168597608804703,0.07382935285568237,0.013188940472900867,-0.032765112817287445,0.33249256014823914,0.05367070809006691,0.0,0.0,0.0,-0.0039160484448075294,0.009356317110359669,-0.0,0.0,0.0,0.0,0.012638215906918049,-0.012853738851845264,0.001008849125355482,13105.0,12570.0,16541.0,12138.0,0.38160616159439087,0.34917014837265015,0.624215841293335,0.3240121603012085,0.0,0.0,0.0,0.0,12146.0,13544.0,15769.0,13089.0,1.7360467910766602,-0.10179329310805457,0.02074122018564005,-0.004774678166407467,-0.03913889825344086,-0.012601319700479507,-0.0
419,5,0.00044575906940735877,-0.0003380996931809932,0.0006894919788464904,0.004543676972389221,0.0006761729600839317,-0.001962987007573247,-0.04152528569102287,0.07004907727241516,0.012940305285155773,0.029828675091266632,0.27580565214157104,0.035755109041929245,0.0,0.0,0.0,-0.0039160484448075294,0.009356317110359669,-0.0,0.0,0.0,0.0,0.012816319242119789,-0.015130769461393356,0.0013477831380441785,12629.0,13233.0,15962.0,13094.0,0.35268718004226685,0.38959765434265137,0.5792175531387329,0.38095909357070923,0.0,0.0,0.0,0.0,13176.0,12636.0,16579.0,12348.0,1.7360467910766602,-0.10179125741862655,0.02187890929085481,-0.00509097970546925,-0.03913889825344086,-0.012601319700479507,-0.0
424,5,0.0004833156708627939,-0.0003260610974393785,0.0007080967770889401,0.006324264220893383,-0.0011741641210392118,-0.003017771290615201,-0.04152528569102287,0.07004907727241516,0.012940305285155773,0.029828675091266632,0.27580565214157104,0.035755109041929245,0.0,0.0,0.0,-0.0014080950058996677,0.004787284880876541,-0.0,0.0,0.0,0.0,0.012816319242119789,-0.015130769461393356,0.0013477831380441785,12629.0,13233.0,15962.0,13094.0,0.35268718004226685,0.38959765434265137,0.5792175531387329,0.38095909357070923,0.0,0.0,0.0,0.0,13176.0,12636.0,16579.0,12348.0,1.6909958124160767,-0.10132920132694616,0.02190911081087411,-0.004794513454494689,-0.019506601616740227,-0.004413496237248182,0.0
429,5,0.0004975105402991176,-0.0003332235210109502,0.0006964068161323667,0.004233086947351694,0.00038982456317171454,0.00019569072173908353,-0.041690945625305176,0.06865988671779633,0.013122804462909698,0.015195031650364399,0.14192023873329163,-0.06858817487955093,0.0,0.0,0.0,-0.0014080950058996677,0.004787284880876541,-0.0,0.0,0.0,0.0,0.011261788196861744,-0.017586572095751762,0.002884715562686324,11991.0,13985.0,15766.0,13495.0,0.3156636655330658,0.4380805790424347,0.5643310546875,0.4061683714389801,0.0,0.0,0.0,0.0,12051.0,14003.0,15745.0,13447.0,1.6909958124160767,-0.10267391042618147,0.021346643091913784,-0.004965448547330441,-0.019506601616740227,-0.004413496237248182,0.0
434,5,0.0005479505052790046,-0.0003368925827089697,0.0006639581988565624,0.007746030576527119,0.0005962186260148883,0.003972106147557497,-0.041690945625305176,0.06865988671779633,0.013122804462909698,0.015195031650364399,0.14192023873329163,-0.06858817487955093,0.0,0.0,0.0,-0.001054920838214457,0.004561347421258688,-0.0,0.0,0.0,0.0,0.011261788196861744,-0.017586572095751762,0.002884715562686324,11991.0,13985.0,15766.0,13495.0,0.3156636655330658,0.4380805790424347,0.5643310546875,0.4061683714389801,0.0,0.0,0.0,0.0,12051.0,14003.0,15745.0,13447.0,1.6948413848876953,-0.1021158282779411,0.02162383594354681,-0.005165899293038275,-0.018628263846039772,-0.003314036875963211,-0.0
439,5,0.0005699687171727419,-0.0003268008877057582,0.0006502605392597616,0.005740601569414139,-0.0009725161944516003,0.0032325671054422855,-0.041463546454906464,0.06797108054161072,0.013235426507890224,0.0017978234682232141,-0.021622590720653534,0.06518922001123428,0.0,0.0,0.0,-0.001054920838214457,0.004561347421258688,-0.0,0.0,0.0,0.0,0.012094437144696712,-0.020546073094010353,7.635346992174163e-05,11399.0,14309.0,15877.0,13002.0,0.2831612825393677,0.4598514437675476,0.572740375995636,0.3752426505088806,0.0,0.0,0.0,0.0,12584.0,13625.0,16562.0,12509.0,1.6948413848876953,-0.10097902128851544,0.02224942970423453,-0.0047780337981088005,-0.018628263846039772,-0.003314036875963211,-0.0
445,5,0.0006029258365742862,-0.0003436572151258588,0.0006385922897607088,0.006251093931496143,0.0016337548149749637,0.002693215850740671,-0.041463546454906464,0.06797108054161072,0.013235426507890224,0.0017978234682232141,-0.021622590720653534,0.06518922001123428,0.0,0.0,0.0,0.0005813620518893003,0.006035184487700462,-0.0,0.0,0.0,0.0,0.012094437144696712,-0.020546073094010353,7.635346992174163e-05,11399.0,14309.0,15877.0,13002.0,0.2831612825393677,0.4598514437675476,0.572740375995636,0.3752426505088806,0.0,0.0,0.0,0.0,12584.0,13625.0,16562.0,12509.0,1.6972267627716064,-0.101826175609972,0.02233287579411717,-0.004916055553070938,-0.024681957438588142,0.0018289214931428432,-0.0
450,5,0.0006029258365742862,-0.0003436572151258588,0.0006385922897607088,0.006251093931496143,0.0016337548149749637,0.002693215850740671,-0.04146628454327583,0.06818654388189316,0.01300033275038004,0.04341927170753479,-0.0237677451223135,-0.0293122511357069,0.0,0.0,0.0,0.0005813620518893003,0.006035184487700462,-0.0,0.0,0.0,0.0,0.012661576271057129,-0.020608287304639816,0.0023343171924352646,12116.0,13640.0,16432.0,12431.0,0.322770357131958,0.4154736399650574,0.6156375408172607,0.3409598469734192,0.0,0.0,0.0,0.0,11943.0,13861.0,16281.0,12488.0,1.6972267627716064,-0.101826175609972,0.02233287579411717,-0.004916055553070938,-0.024681957438588142,0.0018289214931428432,-0.0
455,5,0.0006257772329263389,-0.00032633941737003624,0.0006981143960729241,0.0035262610763311386,-0.00039505609311163425,-0.002619379200041294,-0.04146628454327583,0.06818654388189316,0.01300033275038004,0.04341927170753479,-0.0237677451223135,-0.0293122511357069,0.0,0.0,0.0,-0.0025494524743407965,0.006533368490636349,-0.0,0.0,0.0,0.0,0.012661576271057129,-0.020608287304639816,0.0023343171924352646,12116.0,13640.0,16432.0,12431.0,0.322770357131958,0.4154736399650574,0.6156375408172607,0.3409598469734192,0.0,0.0,0.0,0.0,11943.0,13861.0,16281.0,12488.0,1.7010647058486938,-0.1015141649797209,0.02262232735651414,-0.004643275473529995,-0.02677967958152294,-0.008038507774472237,-0.0
460,5,0.0006675194017589092,-0.00031762378057464957,0.0006747354636900127,0.006419565062969923,-0.0012038986897096038,0.001757719204761088,-0.04123109579086304,0.06829318404197693,0.013332159258425236,-0.0023472141474485397,0.011870020069181919,0.0043114651925861835,0.0,0.0,0.0,-0.0025494524743407965,0.006533368490636349,-0.0,0.0,0.0,0.0,0.012305602431297302,-0.01775803044438362,0.0008455330971628428,12265.0,13549.0,16200.0,12732.0,0.331309974193573,0.40961742401123047,0.5974553227424622,0.3588440418243408,0.0,0.0,0.0,0.0,11532.0,14169.0,15901.0,13073.0,1.7010647058486938,-0.10148755457547169,0.023228577665804686,-0.0043128631770339605,-0.02677967958152294,-0.008038507774472237,-0.0
465,5,0.0006951161194592714,-0.0003361953131388873,0.0006803823634982109,0.005879437550902367,0.001747027155943215,2.545980896684341e-05,-0.04123109579086304,0.06829318404197693,0.013332159258425236,-0.0023472141474485397,0.011870020069181919,0.0043114651925861835,0.0,0.0,0.0,0.0008705916116014123,0.006775326561182737,-0.0,0.0,0.0,0.0,0.012305602431297302,-0.01775803044438362,0.0008455330971628428,12265.0,13549.0,16200.0,12732.0,0.331309974193573,0.40961742401123047,0.5974553227424622,0.3588440418243408,0.0,0.0,0.0,0.0,11532.0,14169.0,15901.0,13073.0,1.7009137868881226,-0.10188238660489825,0.0237623866376874,-0.004824416550284033,-0.027769045904278755,0.0027447654865682125,-0.0
470,5,0.0007581028039567173,-0.0003174756420776248,0.000659157638438046,0.009910177439451218,-0.001547552295960486,0.0025571524165570736,-0.040981173515319824,0.0679078996181488,0.012913482263684273,0.01026897318661213,0.08626008778810501,0.04199278727173805,0.0,0.0,0.0,0.0008705916116014123,0.006775326561182737,-0.0,0.0,0.0,0.0,0.011802725493907928,-0.015885386615991592,0.0001509725407231599,11648.0,14229.0,15419.0,13579.0,0.29662391543388367,0.45443668961524963,0.538446307182312,0.4115578234195709,0.0,0.0,0.0,0.0,12872.0,12874.0,16729.0,12126.0,1.7009137868881226,-0.100223861492751,0.024519281455107417,-0.004816913913006418,-0.027769045904278755,0.0027447654865682125,-0.0
