timestamp,dt,pos_x,pos_y,pos_z,vel_x,vel_y,vel_z,roll,pitch,yaw,agv_x,agv_y,agv_z,x_ref,y_ref,z_ref,roll_ref,pitch_ref,yaw_ref,x_vel_ref,y_vel_ref,z_vel_ref,x_torque,y_torque,z_torque,w0,w1,w2,w3,u0,u1,u2,u3,m0req,m1req,m2req,m3req,thrust0,thrust1,thrust2,thrust3,thrust_ref,roll_vicon,pitch_vicon,yaw_vicon,acc_x,acc_y,acc_z
5,5,0.0,0.0,0.0,-0.0010424877982586622,-0.0008479673997499049,0.0005254799616523087,-0.012250813655555248,0.005982567090541124,0.0021910816431045532,0.0038795580621808767,-0.007746758405119181,-0.0007447973475791514,0.0,0.0,0.0,0.0010464355582371354,-0.0009896033443510532,-0.0,0.0,0.0,0.0,0.003938928712159395,-0.0022727649193257093,0.00020497807417996228,1495.0,1495.0,1495.0,1495.0,0.0,0.0,0.0,0.0,0.0,0.0,0.0,0.0,1495.0,1495.0,1495.0,1495.0,1.639417290687561,-0.10643221256307527,0.08569938293707144,0.17335187016649725,0.003909329418092966,0.0031798777636140585,0.0
31,25,0.0,0.0,0.0,-0.00027239916380494833,0.0014101315755397081,-0.000487027718918398,-0.012250813655555248,0.005982567090541124,0.0021910816431045532,0.0038795580621808767,-0.007746758405119181,-0.0007447973475791514,0.0,0.0,0.0,0.0010464355582371354,-0.0009896033443510532,-0.0,0.0,0.0,0.0,0.003938928712159395,-0.0022727649193257093,0.00020497807417996228,1495.0,1495.0,1495.0,1495.0,0.0,0.0,0.0,0.0,0.0,0.0,0.0,0.0,1495.0,1495.0,1495.0,1495.0,1.639417290687561,-0.10667382636605974,0.08575883291392697,0.1731913134930816,0.003909329418092966,0.0031798777636140585,0.0
36,5,0.0,0.0,0.0,-0.0006070358795113862,0.00010506164835533127,-0.002654355950653553,-0.01224396750330925,0.00600592652335763,0.0021565852221101522,0.002623916370794177,-0.0026042256504297256,0.0012352311750873923,0.0,0.0,0.0,-0.0017391799483448267,-0.00025843275943771005,-0.0,0.0,0.0,0.0,0.003946158103644848,-0.0021501423325389624,0.0001773165276972577,1495.0,1495.0,1495.0,1495.0,0.0,0.0,0.0,0.0,0.0,0.0,0.0,0.0,1495.0,1495.0,1495.0,1495.0,1.640356421470642,-0.10658702881857933,0.08616397469893682,0.1731108935795933,0.0010214968351647258,-0.005287993233650923,0.0
41,5,0.0,0.0,0.0,-0.0006070358795113862,0.00010506164835533127,-0.002654355950653553,-0.01224396750330925,0.00600592652335763,0.0021565852221101522,0.002623916370794177,-0.0026042256504297256,0.0012352311750873923,0.0,0.0,0.0,-0.0017391799483448267,-0.00025843275943771005,-0.0,0.0,0.0,0.0,0.003946158103644848,-0.0021501423325389624,0.0001773165276972577,1495.0,1495.0,1495.0,1495.0,0.0,0.0,0.0,0.0,0.0,0.0,0.0,0.0,1495.0,1495.0,1495.0,1495.0,1.640356421470642,-0.10658702881857933,0.08616397469893682,0.1731108935795933,0.0010214968351647258,-0.005287993233650923,0.0
46,5,4.191858806734672e-06,-5.511864401341882e-06,4.6856897029101674e-07,0.0002602087042760104,0.0007034484297037125,-0.001117970678023994,-0.01224396750330925,0.00600592652335763,0.0021565852221101522,0.002623916370794177,-0.0026042256504297256,0.0012352311750873923,0.0,0.0,0.0,-0.00013023933570366353,-0.0005788539419882,-0.0,0.0,0.0,0.0,0.003946158103644848,-0.0021501423325389624,0.0001773165276972577,1495.0,1495.0,1495.0,1495.0,0.0,0.0,0.0,0.0,0.0,0.0,0.0,0.0,1495.0,1495.0,1495.0,1495.0,1.6320171356201172,-0.10733298907341057,0.08523715500249626,0.17342671177065447,0.0022763845045119524,-0.00039398117223754525,0.0
51,5,4.191858806734672e-06,-5.511864401341882e-06,4.6856897029101674e-07,0.0002602087042760104,0.0007034484297037125,-0.001117970678023994,-0.01224396750330925,0.00600592652335763,0.0021565852221101522,0.002623916370794177,-0.0026042256504297256,0.0012352311750873923,0.0,0.0,0.0,-0.00013023933570366353,-0.0005788539419882,-0.0,0.0,0.0,0.0,0.003946158103644848,-0.0021501423325389624,0.0001773165276972577,1495.0,1495.0,1495.0,1495.0,0.0,0.0,0.0,0.0,0.0,0.0,0.0,0.0,1495.0,1495.0,1495.0,1495.0,1.6320171356201172,-0.10733298907341057,0.08523715500249626,0.17342671177065447,0.0022763845045119524,-0.00039398117223754525,0.0
56,5,-9.69964276009705e-06,-8.867801625456195e-06,-3.495404962450266e-05,-0.0007422103662975132,-0.0003954615967813879,0.00223985081538558,-0.012234950438141823,0.005980536341667175,0.0021632325369864702,0.002745123580098152,0.005870701279491186,0.001626375480554998,0.0,0.0,0.0,-0.0008812659652903676,0.00025376747362315655,-0.0,0.0,0.0,0.0,0.003116335952654481,-0.0018949429504573345,0.00031662426772527397,13320.0,13370.0,13976.0,13548.0,0.3950771987438202,0.39819756150245667,0.43751081824302673,0.4095708429813385,0.0,0.0,0.0,0.0,13333.0,13366.0,13994.0,13520.0,1.6334795951843262,-0.10659043987952208,0.08576195562893227,0.17339031240246794,-0.0009988525416702032,-0.00266826618462801,0.0
63,7,3.32882382281241e-06,-3.795639258896699e-06,-3.7213507312117144e-05,0.0012665318790823221,-0.0007668440812267363,0.001167075359262526,-0.012234950438141823,0.005980536341667175,0.0021632325369864702,0.002745123580098152,0.005870701279491186,0.001626375480554998,0.0,0.0,0.0,-0.0008812659652903676,0.00025376747362315655,-0.0,0.0,0.0,0.0,0.003116335952654481,-0.0018949429504573345,0.00031662426772527397,13320.0,13370.0,13976.0,13548.0,0.3950771987438202,0.39819756150245667,0.43751081824302673,0.4095708429813385,0.0,0.0,0.0,0.0,13333.0,13366.0,13994.0,13520.0,1.6334795951843262,-0.1073717924919268,0.0849797215747591,0.17361829952461552,-0.0009988525416702032,-0.00266826618462801,0.0
68,5,8.725003681320231e-06,5.488637270900654e-06,-2.883861816371791e-05,0.00016927081742323935,-0.0014875276247039437,-0.0010987400310114026,-0.012198415584862232,0.006010227836668491,0.002175210742279887,0.0012490457156673074,-0.0051923636347055435,-0.002539969515055418,0.0,0.0,0.0,0.000938641547691077,0.0012058913707733154,-0.0,0.0,0.0,0.0,0.00359726301394403,-0.0021158973686397076,0.00011458461085567251,13205.0,13365.0,13950.0,13585.0,0.3878185749053955,0.39791154861450195,0.435774028301239,0.4119754433631897,0.0,0.0,0.0,0.0,13231.0,13325.0,13994.0,13531.0,1.6408199071884155,-0.10702545701051572,0.08527792411871535,0.17353953193981858,-0.004767829552292824,0.0028547567781060934,0.0
73,5,2.0828596461797133e-05,1.4958806787035428e-05,-3.4244043490616605e-05,0.0015201396308839321,-0.001731431344524026,0.00020915523055009544,-0.012198415584862232,0.006010227836668491,0.002175210742279887,0.0012490457156673074,-0.0051923636347055435,-0.002539969515055418,0.0,0.0,0.0,0.000938641547691077,0.0012058913707733154,-0.0,0.0,0.0,0.0,0.00359726301394403,-0.0021158973686397076,0.00011458461085567251,13205.0,13365.0,13950.0,13585.0,0.3878185749053955,0.39791154861450195,0.435774028301239,0.4119754433631897,0.0,0.0,0.0,0.0,13231.0,13325.0,13994.0,13531.0,1.6408199071884155,-0.106777123647171,0.08572937759613568,0.17343990110018837,-0.004767829552292824,0.0028547567781060934,0.0
78,5,2.0828596461797133e-05,1.4958806787035428e-05,-3.4244043490616605e-05,0.0015201396308839321,-0.001731431344524026,0.00020915523055009544,-0.012199669145047665,0.006058812607079744,0.0021575926803052425,0.00331066339276731,0.0005278020398691297,0.00213887682184577,0.0,0.0,0.0,0.0021504880860447884,0.0014630225487053394,-0.0,0.0,0.0,0.0,0.003579390002414584,-0.0018412721110507846,0.00024418887915089726,13261.0,13313.0,13988.0,13542.0,0.39134958386421204,0.39461085200309753,0.4383164942264557,0.4092026650905609,0.0,0.0,0.0,0.0,13296.0,13286.0,14012.0,13623.0,1.6495344638824463,-0.106777123647171,0.08572937759613568,0.17343990110018837,-0.005815180018544197,0.006575160659849644,0.0
83,5,1.2642029105336405e-05,-2.474652092132601e-06,-3.3265452657360584e-05,-0.00026317843003198504,0.003437349107116461,0.004823644179850817,-0.012199669145047665,0.006058812607079744,0.0021575926803052425,0.00331066339276731,0.0005278020398691297,0.00213887682184577,0.0,0.0,0.0,0.0021504880860447884,0.0014630225487053394,-0.0,0.0,0.0,0.0,0.003579390002414584,-0.0018412721110507846,0.00024418887915089726,13261.0,13313.0,13988.0,13542.0,0.39134958386421204,0.39461085200309753,0.4383164942264557,0.4092026650905609,0.0,0.0,0.0,0.0,13296.0,13286.0,14012.0,13623.0,1.6495344638824463,-0.10704683181227452,0.08528010854706816,0.17340901712641185,-0.005815180018544197,0.006575160659849644,0.0
88,5,2.903744189097779e-06,2.082741303865987e-07,-3.994783401140012e-05,-0.0012738655786961317,0.0010529884602874517,0.0027313432656228542,-0.012190505862236023,0.006035265512764454,0.002149745123460889,-0.0004504954267758876,0.00361487059853971,-0.0040176985785365105,0.0,0.0,0.0,-0.0041917841881513596,-0.0002292077406309545,-0.0,0.0,0.0,0.0,0.00391565915197134,-0.001375710591673851,0.0001819766912376508,13253.0,13330.0,13971.0,13666.0,0.3908129036426544,0.39568057656288147,0.4371480643749237,0.41717836260795593,0.0,0.0,0.0,0.0,13263.0,13336.0,14029.0,13724.0,1.6607632637023926,-0.10719325825873263,0.08506310271853129,0.17349654881612336,0.0009172444697469473,-0.012903658673167229,0.0
93,5,3.9271367313631345e-06,-1.0600844689179212e-05,-3.4084339858964086e-05,-0.0003867391205858439,0.0017182896845042706,0.0003889181825798005,-0.012190505862236023,0.006035265512764454,0.002149745123460889,-0.0004504954267758876,0.00361487059853971,-0.0040176985785365105,0.0,0.0,0.0,-0.0041917841881513596,-0.0002292077406309545,-0.0,0.0,0.0,0.0,0.00391565915197134,-0.001375710591673851,0.0001819766912376508,13253.0,13330.0,13971.0,13666.0,0.3908129036426544,0.39568057656288147,0.4371480643749237,0.41717836260795593,0.0,0.0,0.0,0.0,13263.0,13336.0,14029.0,13724.0,1.6607632637023926,-0.10695334570423452,0.08540796468603233,0.17342219805350184,0.0009172444697469473,-0.012903658673167229,0.0
98,5,1.8689083844947163e-06,-1.4178136552800424e-05,-3.4140579373342916e-05,-0.000401683064410463,0.0011165909236297011,0.00016231591871473938,-0.012190505862236023,0.006035265512764454,0.002149745123460889,-0.0004504954267758876,0.00361487059853971,-0.0040176985785365105,0.0,0.0,0.0,-0.002133952686563134,-0.00036064948653802276,-0.0,0.0,0.0,0.0,0.00391565915197134,-0.001375710591673851,0.0001819766912376508,13253.0,13330.0,13971.0,13666.0,0.3908129036426544,0.39568057656288147,0.4371480643749237,0.41717836260795593,0.0,0.0,0.0,0.0,13263.0,13336.0,14029.0,13724.0,1.6437987089157104,-0.10726129819075976,0.08521749452146173,0.17352564012672259,0.0014285151846706867,-0.006501916795969009,0.0
103,5,3.531084075802937e-06,-1.3184319868742023e-05,-2.884543027903419e-05,3.8787853554822505e-05,0.00032737833680585027,-0.0005704914219677448,-0.01217742171138525,0.006033230107277632,0.0021569482050836086,0.0012577315792441368,-0.002930991118773818,-0.0008373207529075444,0.0,0.0,0.0,-0.002133952686563134,-0.00036064948653802276,-0.0,0.0,0.0,0.0,0.00427043903619051,-0.0013951469445601106,0.00025244371499866247,13286.0,13319.0,14054.0,13693.0,0.39291805028915405,0.39496296644210815,0.4427102208137512,0.41894322633743286,0.0,0.0,0.0,0.0,13430.0,13520.0,14035.0,13548.0,1.6437987089157104,-0.1067342262427268,0.08564834377613091,0.17324953982416658,0.0014285151846706867,-0.006501916795969009,0.0
108,5,1.6169740320037818e-06,-1.870981213869527e-05,-2.8527190806926228e-05,-0.0002141780569218099,0.0007940104114823043,-0.000266385410213843,-0.01217742171138525,0.006033230107277632,0.0021569482050836086,0.0012577315792441368,-0.002930991118773818,-0.0008373207529075444,0.0,0.0,0.0,-0.0004305442562326789,4.203861317364499e-05,-0.0,0.0,0.0,0.0,0.00427043903619051,-0.0013951469445601106,0.00025244371499866247,13286.0,13319.0,14054.0,13693.0,0.39291805028915405,0.39496296644210815,0.4427102208137512,0.41894322633743286,0.0,0.0,0.0,0.0,13430.0,13520.0,14035.0,13548.0,1.6293038129806519,-0.10754216943662709,0.08516058688670024,0.17360160550077725,-0.0001650449848966673,-0.0013002546038478613,0.0
114,5,1.0186540748691186e-05,-8.858802175382152e-06,-1.7236028725164942e-05,0.000942676851991564,-0.0008645170019008219,-0.0014614935498684645,-0.012167542241513729,0.006103907711803913,0.00216545257717371,0.000325665227137506,-0.004953174386173487,-0.003092139959335327,0.0,0.0,0.0,-0.0004305442562326789,4.203861317364499e-05,-0.0,0.0,0.0,0.0,0.002403398510068655,-0.002018704079091549,0.00024473757366649806,13400.0,13548.0,14002.0,13584.0,0.40011391043663025,0.4095406234264374,0.43922850489616394,0.411880224943161,0.0,0.0,0.0,0.0,13324.0,13409.0,14005.0,13530.0,1.6293038129806519,-0.1065848264310684,0.08619947317906329,0.1730350810225289,-0.0001650449848966673,-0.0013002546038478613,0.0
119,5,1.1999251000816002e-05,-5.8162968343822286e-06,-2.3198479539132677e-05,0.0005945959710516036,-0.0007109074504114687,0.0001308966166106984,-0.012167542241513729,0.006103907711803913,0.00216545257717371,0.000325665227137506,-0.004953174386173487,-0.003092139959335327,0.0,0.0,0.0,-0.0004305442562326789,4.203861317364499e-05,-0.0,0.0,0.0,0.0,0.002403398510068655,-0.002018704079091549,0.00024473757366649806,13400.0,13548.0,14002.0,13584.0,0.40011391043663025,0.4095406234264374,0.43922850489616394,0.411880224943161,0.0,0.0,0.0,0.0,13324.0,13409.0,14005.0,13530.0,1.6293038129806519,-0.10652367136436433,0.08590695779019004,0.17341868218198508,-0.0022959422785788774,0.002633820753544569,0.0
124,5,9.452193808101583e-06,-5.265537311061053e-06,-4.471122156246565e-05,-6.780855619581416e-05,-0.0003504540945868939,0.0026338878087699413,-0.012160568498075008,0.006100259721279144,0.002181712770834565,-0.0018403235590085387,0.006464367266744375,0.00041964196134358644,0.0,0.0,0.0,0.0008689588867127895,0.0005826808046549559,-0.0,0.0,0.0,0.0,0.0030270442366600037,-0.0018592604901641607,0.0002505402371753007,13328.0,13400.0,13989.0,13550.0,0.395589679479599,0.40008702874183655,0.438397616147995,0.4097243845462799,0.0,0.0,0.0,0.0,13280.0,13445.0,13941.0,13603.0,1.6352288722991943,-0.10689054637569702,0.08513357748061981,0.17356437911514175,-0.0022959422785788774,0.002633820753544569,0.0
129,5,1.6040798072936013e-05,1.4077731066208798e-05,-1.9112598238280043e-05,0.000763509189710021,-0.002461373805999756,-0.0020182798616588116,-0.012160568498075008,0.006100259721279144,0.002181712770834565,-0.0018403235590085387,0.006464367266744375,0.00041964196134358644,0.0,0.0,0.0,0.0008689588867127895,0.0005826808046549559,-0.0,0.0,0.0,0.0,0.0030270442366600037,-0.0018592604901641607,0.0002505402371753007,13328.0,13400.0,13989.0,13550.0,0.395589679479599,0.40008702874183655,0.438397616147995,0.4097243845462799,0.0,0.0,0.0,0.0,13280.0,13445.0,13941.0,13603.0,1.6352288722991943,-0.10644509069626538,0.08593674101189834,0.17342092356773808,-0.002951651578769088,0.00930753629654646,0.0
134,5,1.4534232832374983e-05,1.1271912399024586e-06,-5.1896506192861125e-05,0.00012461580627132207,0.0005695152212865651,0.003126756986603141,-0.012164981104433537,0.0060554505325853825,0.0021570438984781504,0.0015155789442360401,-0.0018879176350310445,-0.000876281235832721,0.0,0.0,0.0,0.003039235481992364,0.000741399300750345,-0.0,0.0,0.0,0.0,0.0039217229932546616,-0.0016860561445355415,0.00021668050612788647,13215.0,13332.0,13943.0,13550.0,0.3884817659854889,0.39581796526908875,0.43533656001091003,0.4096675217151642,0.0,0.0,0.0,0.0,13208.0,13340.0,13945.0,13547.0,1.6522016525268555,-0.10737727795847375,0.08487488696434647,0.1734965906738734,-0.002951651578769088,0.00930753629654646,0.0
139,5,1.4134696357359644e-05,-6.295347247942118e-06,-4.970057125319727e-05,1.9019428236788372e-06,0.0011185107287019491,0.0009871908696368337,-0.012164981104433537,0.0060554505325853825,0.0021570438984781504,0.0015155789442360401,-0.0018879176350310445,-0.000876281235832721,0.0,0.0,0.0,0.003039235481992364,0.000741399300750345,-0.0,0.0,0.0,0.0,0.0039217229932546616,-0.0016860561445355415,0.00021668050612788647,13215.0,13332.0,13943.0,13550.0,0.3884817659854889,0.39581796526908875,0.43533656001091003,0.4096675217151642,0.0,0.0,0.0,0.0,13208.0,13340.0,13945.0,13547.0,1.6522016525268555,-0.10733990322233995,0.08497248740968913,0.17338474143115354,-0.002951651578769088,0.00930753629654646,0.0
144,5,1.1834217730211094e-05,-7.963897587615065e-06,-4.245758827892132e-05,-0.0002752967120613903,0.0006476303678937256,-0.0004742819583043456,-0.01216431800276041,0.006060160230845213,0.002146584913134575,-0.0019261941779404879,-0.0023783594369888306,-0.0022517102770507336,0.0,0.0,0.0,-0.0013935802271589637,2.159386895073112e-05,-0.0,0.0,0.0,0.0,0.004596122074872255,-0.0015400175470858812,0.00025874865241348743,13222.0,13315.0,13988.0,13605.0,0.38890746235847473,0.394771009683609,0.4383217990398407,0.4132286012172699,0.0,0.0,0.0,0.0,13207.0,13322.0,13982.0,13619.0,1.6372244358062744,-0.1072270647810361,0.08527087718350358,0.17350449592096678,-8.519030234310776e-05,-0.004229105077683926,0.0
149,5,6.5225385696976446e-06,-1.9597709979279898e-05,-3.3393131161574274e-05,-0.0007475201855413616,0.0016551095759496093,-0.001277447328902781,-0.01216431800276041,0.006060160230845213,0.002146584913134575,-0.0019261941779404879,-0.0023783594369888306,-0.0022517102770507336,0.0,0.0,0.0,-0.0013935802271589637,2.159386895073112e-05,-0.0,0.0,0.0,0.0,0.004596122074872255,-0.0015400175470858812,0.00025874865241348743,13222.0,13315.0,13988.0,13605.0,0.38890746235847473,0.394771009683609,0.4383217990398407,0.4132286012172699,0.0,0.0,0.0,0.0,13207.0,13322.0,13982.0,13619.0,1.6372244358062744,-0.10750133033898837,0.08479450388566775,0.1735223799024849,-8.519030234310776e-05,-0.004229105077683926,0.0
154,5,4.06797607865883e-06,-1.8297652786714025e-05,-3.145863956888206e-05,-0.0005935555673204362,0.000506036973092705,-0.0007431181147694588,-0.012189182452857494,0.006051060743629932,0.002151064807549119,-0.0001475679164286703,0.003268407192081213,0.0033550788648426533,0.0,0.0,0.0,-0.002071659779176116,-0.000698293384630233,-0.0,0.0,0.0,0.0,0.0032878736965358257,-0.001589029561728239,0.0003098266606684774,13319.0,13318.0,13988.0,13539.0,0.39498433470726013,0.3949451148509979,0.43832752108573914,0.4089674651622772,0.0,0.0,0.0,0.0,13307.0,13277.0,14122.0,13684.0,1.6444406509399414,-0.10705685748129935,0.08570140044468554,0.17340248965041355,0.002766986610367894,-0.0063145821914076805,0.0
159,5,-4.865939331466507e-07,-2.461840631440282e-05,-5.2235962357372046e-05,-0.0007839706377126276,0.0009609051630832255,0.0021960316225886345,-0.012189182452857494,0.006051060743629932,0.002151064807549119,-0.0001475679164286703,0.003268407192081213,0.0033550788648426533,0.0,0.0,0.0,-0.002071659779176116,-0.000698293384630233,-0.0,0.0,0.0,0.0,0.0032878736965358257,-0.001589029561728239,0.0003098266606684774,13319.0,13318.0,13988.0,13539.0,0.39498433470726013,0.3949451148509979,0.43832752108573914,0.4089674651622772,0.0,0.0,0.0,0.0,13307.0,13277.0,14122.0,13684.0,1.6444406509399414,-0.1067882462379054,0.08505755026847904,0.1735914455714588,0.002766986610367894,-0.0063145821914076805,0.0
164,5,-4.3701112417693366e-07,-1.4544459190801717e-05,-4.678908226196654e-06,-0.00030763831455260515,-0.0008245115750469267,-0.004828433971852064,-0.012192904017865658,0.005999470595270395,0.002176606794819236,-0.006001973524689674,0.0070622265338897705,0.0024450563360005617,0.0,0.0,0.0,-0.0012310096062719822,-0.0007451389683410525,-0.0,0.0,0.0,0.0,0.003085013944655657,-0.002229917561635375,-7.4219518864993e-05,12840.0,13869.0,13585.0,13963.0,0.36535847187042236,0.4304423928260803,0.4119716286659241,0.43666815757751465,0.0,0.0,0.0,0.0,13375.0,13255.0,14065.0,13465.0,1.6386548280715942,-0.10646496187680213,0.08562436360721973,0.17313043600286002,0.0029422277584671974,-0.0037390156649053097,0.0
170,5,3.498535306789563e-06,-1.6655134459142573e-05,-2.8493284844444133e-05,0.00034921025508083403,-7.652346539543942e-05,0.0009263515821658075,-0.012192904017865658,0.005999470595270395,0.002176606794819236,-0.006001973524689674,0.0070622265338897705,0.0024450563360005617,0.0,0.0,0.0,-0.0012310096062719822,-0.0007451389683410525,-0.0,0.0,0.0,0.0,0.003085013944655657,-0.002229917561635375,-7.4219518864993e-05,12840.0,13869.0,13585.0,13963.0,0.36535847187042236,0.4304423928260803,0.4119716286659241,0.43666815757751465,0.0,0.0,0.0,0.0,13375.0,13255.0,14065.0,13465.0,1.6386548280715942,-0.10627249012312931,0.08509739931260388,0.1736884880708924,0.0029422277584671974,-0.0037390156649053097,0.0
175,5,1.172029624285642e-05,-1.9403294118092163e-06,-3.4742526622721925e-05,0.0011262954212725163,-0.001796386088244617,0.0011204496258869767,-0.01219778973609209,0.006024161819368601,0.002004655310884118,0.004259141162037849,-0.007837106473743916,-0.07324640452861786,0.0,0.0,0.0,6.459244468715042e-05,0.0003385245508980006,-0.0,0.0,0.0,0.0,0.003418274223804474,-0.0023546156007796526,0.0020120255649089813,13875.0,12731.0,14604.0,12898.0,0.43083304166793823,0.35875630378723145,0.48014819622039795,0.3689172863960266,0.0,0.0,0.0,0.0,12946.0,13799.0,13677.0,13846.0,1.6293925046920776,-0.10663160560128797,0.08514430282215998,0.17377052186448397,-0.0013291309587657452,0.00019508146215230227,0.0
180,5,1.826631705625914e-05,6.421111265808577e-06,-2.837624924723059e-05,0.0012360407272353768,-0.0017219273140653968,-0.0003157733881380409,-0.01219778973609209,0.006024161819368601,0.002004655310884118,0.004259141162037849,-0.007837106473743916,-0.07324640452861786,0.0,0.0,0.0,6.459244468715042e-05,0.0003385245508980006,-0.0,0.0,0.0,0.0,0.003418274223804474,-0.0023546156007796526,0.0020120255649089813,13875.0,12731.0,14604.0,12898.0,0.43083304166793823,0.35875630378723145,0.48014819622039795,0.3689172863960266,0.0,0.0,0.0,0.0,12946.0,13799.0,13677.0,13846.0,1.6293925046920776,-0.10694869039092338,0.08542651785316596,0.17314470973447918,-0.0013291309587657452,0.00019508146215230227,0.0
185,5,1.6977925042738207e-05,7.0379992394009605e-06,-4.4889184209750965e-05,0.0003398092812858522,-0.000762797484640032,0.0018552427645772696,-0.012178858742117882,0.0060922554694116116,0.0023254912812262774,-0.009020516648888588,0.00697170989587903,0.05278995260596275,0.0,0.0,0.0,0.0021259672939777374,0.0011929728789255023,-0.0,0.0,0.0,0.0,0.003557841293513775,-0.0018589554820209742,-0.000963997736107558,13875.0,12731.0,14604.0,12898.0,0.43083304166793823,0.35875630378723145,0.48014819622039795,0.3689172863960266,0.0,0.0,0.0,0.0,12905.0,13708.0,13560.0,14000.0,1.6475296020507812,-0.10704363648403713,0.08519926420456059,0.1730744309861374,-0.004736031871289015,0.00649228785187006,0.0
190,5,1.0882140486501157e-05,7.3280402830278035e-06,-3.9650585677009076e-05,-0.0005955704837106168,-0.0003399238921701908,0.00011346537212375551,-0.012178858742117882,0.0060922554694116116,0.0023254912812262774,-0.009020516648888588,0.00697170989587903,0.05278995260596275,0.0,0.0,0.0,0.0021259672939777374,0.0011929728789255023,-0.0,0.0,0.0,0.0,0.003557841293513775,-0.0018589554820209742,-0.000963997736107558,13875.0,12731.0,14604.0,12898.0,0.43083304166793823,0.35875630378723145,0.48014819622039795,0.3689172863960266,0.0,0.0,0.0,0.0,12905.0,13708.0,13560.0,14000.0,1.6475296020507812,-0.10772672725031318,0.08485187538429452,0.17398482769140935,-0.004736031871289015,0.00649228785187006,0.0
195,5,2.2140528017189354e-05,-1.580907883180771e-05,-6.369093171088025e-05,0.0011127784382551908,0.0026404845993965864,0.0029302274342626333,-0.01215000357478857,0.005974208936095238,0.002026381902396679,0.020775968208909035,-0.024036558344960213,0.020619738847017288,0.0,0.0,0.0,0.00043446707422845066,-0.0005523753934539855,-0.0,0.0,0.0,0.0,0.00454138545319438,-0.0011090892367064953,-0.0024243411608040333,11635.0,14728.0,12495.0,15138.0,0.2959199547767639,0.48881757259368896,0.34475958347320557,0.5180324912071228,0.0,0.0,0.0,0.0,14183.0,12265.0,14914.0,12496.0,1.6326403617858887,-0.10732489553017911,0.08454092709735753,0.17298150657030245,0.0021730849985033274,0.0013147885911166668,0.0
200,5,1.9499471818562597e-05,-8.959001206676476e-06,-2.0824089006055146e-05,0.00012818461982533336,0.0002341845683986321,-0.003971930127590895,-0.01215000357478857,0.005974208936095238,0.002026381902396679,0.020775968208909035,-0.024036558344960213,0.020619738847017288,0.0,0.0,0.0,0.00043446707422845066,-0.0005523753934539855,-0.0,0.0,0.0,0.0,0.00454138545319438,-0.0011090892367064953,-0.0024243411608040333,11635.0,14728.0,12495.0,15138.0,0.2959199547767639,0.48881757259368896,0.34475958347320557,0.5180324912071228,0.0,0.0,0.0,0.0,14183.0,12265.0,14914.0,12496.0,1.6326403617858887,-0.10670213778908387,0.0859407766124629,0.17336056137834638,0.0021730849985033274,0.0013147885911166668,0.0
205,5,5.03637829751824e-06,-6.347581802401692e-06,4.013417765236227e-06,-0.001684297458268702,-0.00021969646331854165,-0.004569272976368666,-0.012200548313558102,0.006047138012945652,0.0018077914137393236,-0.005742933135479689,-0.002426924416795373,-0.058558933436870575,0.0,0.0,0.0,-0.0003073007974307984,0.00014993971853982657,-0.0,0.0,0.0,0.0,0.0037825475446879864,-0.002855548169463873,0.002747961087152362,13409.0,13116.0,14264.0,13284.0,0.40070900321006775,0.3823116719722748,0.45681968331336975,0.3928000032901764,0.0,0.0,0.0,0.0,12548.0,13997.0,13387.0,14332.0,1.628727912902832,-0.10563287412997867,0.08683925555229104,0.17239368391054474,-0.000588460243307054,-0.000927728193346411,0.0
210,5,2.7513542590895668e-05,-2.7346988645149395e-05,-3.3592299587326124e-05,0.0020235406700521708,0.002432050183415413,0.0026849769055843353,-0.012200548313558102,0.006047138012945652,0.0018077914137393236,-0.005742933135479689,-0.002426924416795373,-0.058558933436870575,0.0,0.0,0.0,-0.0003073007974307984,0.00014993971853982657,-0.0,0.0,0.0,0.0,0.0037825475446879864,-0.002855548169463873,0.002747961087152362,13409.0,13116.0,14264.0,13284.0,0.40070900321006775,0.3823116719722748,0.45681968331336975,0.3928000032901764,0.0,0.0,0.0,0.0,12548.0,13997.0,13387.0,14332.0,1.628727912902832,-0.10680564462526011,0.08511988066465685,0.17263034468476784,-0.000588460243307054,-0.000927728193346411,0.0
215,5,1.304544730373891e-05,-1.546364183013793e-05,-9.69196844380349e-06,-0.0009267550776712596,-0.00045318156480789185,-0.0017940489342436194,-0.012200548313558102,0.006047138012945652,0.0018077914137393236,-0.005742933135479689,-0.002426924416795373,-0.058558933436870575,0.0,0.0,0.0,-0.003015894442796707,0.0019368797075003386,-0.0,0.0,0.0,0.0,0.003789091482758522,-0.002328402129933238,0.00024680502247065306,13076.0,13452.0,13933.0,13568.0,0.37981754541397095,0.4034092426300049,0.4346644878387451,0.4108366370201111,0.0,0.0,0.0,0.0,11632.0,14677.0,12411.0,15052.0,1.6584445238113403,-0.10661983043650876,0.08522781603045587,0.17250841815806436,-0.007740219123661518,-0.009270953945815563,0.0
220,5,2.6324400096200407e-05,-1.5022681509435643e-05,-8.784596502664499e-06,0.0012227721745148301,-0.00023418785713147372,-0.0008265041396953166,-0.012200548313558102,0.006047138012945652,0.0018077914137393236,-0.005742933135479689,-0.002426924416795373,-0.058558933436870575,0.0,0.0,0.0,-0.003015894442796707,0.0019368797075003386,-0.0,0.0,0.0,0.0,0.003789091482758522,-0.002328402129933238,0.00024680502247065306,13076.0,13452.0,13933.0,13568.0,0.37981754541397095,0.4034092426300049,0.4346644878387451,0.4108366370201111,0.0,0.0,0.0,0.0,11632.0,14677.0,12411.0,15052.0,1.6584445238113403,-0.10630213263746491,0.08541535301537254,0.17255152217385863,-0.007740219123661518,-0.009270953945815563,0.0
225,5,3.377117172931321e-05,-2.453587694617454e-05,-7.982687748153694e-06,0.0013827214716002345,0.001047908328473568,-0.00042683075298555195,-0.012176062911748886,0.00559226656332612,0.000922868144698441,0.018821559846401215,0.08069850504398346,-0.09164348244667053,0.0,0.0,0.0,0.00026177955442108214,0.001198051031678915,-0.0,0.0,0.0,0.0,0.0028654923662543297,0.0002375102776568383,-0.0006657845224253833,12925.0,13949.0,13221.0,14360.0,0.3705560564994812,0.435697078704834,0.3888411521911621,0.46335023641586304,0.0,0.0,0.0,0.0,13098.0,13465.0,13809.0,13660.0,1.6387611627578735,-0.10656077685463027,0.08539256043694936,0.1723299401155547,-0.004730889108031988,0.0007951699080877006,0.0
231,5,4.194701978121884e-05,-1.624676224309951e-05,2.806796328513883e-05,0.0015341906109824777,-0.0005755305173806846,-0.004496810492128134,-0.012176062911748886,0.00559226656332612,0.000922868144698441,0.018821559846401215,0.08069850504398346,-0.09164348244667053,0.0,0.0,0.0,0.00026177955442108214,0.001198051031678915,-0.0,0.0,0.0,0.0,0.0028654923662543297,0.0002375102776568383,-0.0006657845224253833,12925.0,13949.0,13221.0,14360.0,0.3705560564994812,0.435697078704834,0.3888411521911621,0.46335023641586304,0.0,0.0,0.0,0.0,13098.0,13465.0,13809.0,13660.0,1.6387611627578735,-0.10656123573679686,0.08616412406879205,0.17191942173980101,-0.004730889108031988,0.0007951699080877006,0.0
236,5,4.534570325631648e-05,-1.8195505617768504e-06,1.78960708581144e-05,0.0010215181391686201,-0.001961477566510439,-0.0005780970095656812,-0.012113799341022968,0.004837382584810257,0.0010775037808343768,-0.01947489008307457,0.11368720233440399,0.05047733709216118,0.0,0.0,0.0,0.0006792245549149811,0.0015117521397769451,-0.0,0.0,0.0,0.0,0.0027319914661347866,0.0014714751159772277,0.00327842659316957,14414.0,12051.0,14698.0,12850.0,0.4670659303665161,0.319060742855072,0.4866892695426941,0.3659452199935913,0.0,0.0,0.0,0.0,12327.0,14495.0,12506.0,14965.0,1.6429181098937988,-0.10602995083035319,0.08708551787393412,0.17227281430748745,-0.005984779447317123,0.002068415516987443,0.0
241,5,6.487351492978632e-05,-1.2079472980985884e-05,1.53423552546883e-05,0.002751944586634636,0.00044659970444627106,7.520709914388135e-05,-0.012113799341022968,0.004837382584810257,0.0010775037808343768,-0.01947489008307457,0.11368720233440399,0.05047733709216118,0.0,0.0,0.0,0.0006792245549149811,0.0015117521397769451,-0.0,0.0,0.0,0.0,0.0027319914661347866,0.0014714751159772277,0.00327842659316957,14414.0,12051.0,14698.0,12850.0,0.4670659303665161,0.319060742855072,0.4866892695426941,0.3659452199935913,0.0,0.0,0.0,0.0,12327.0,14495.0,12506.0,14965.0,1.6429181098937988,-0.10626777492192609,0.08789078600192105,0.17183515841088812,-0.005984779447317123,0.002068415516987443,0.0
246,5,7.581937097711489e-05,-3.3313885069219396e-05,3.981652480433695e-05,0.0024142807815223932,0.002726769307628274,-0.002906817477196455,-0.012113799341022968,0.004837382584810257,0.0010775037808343768,-0.01947489008307457,0.11368720233440399,0.05047733709216118,0.0,0.0,0.0,-0.0005677453009411693,0.0026774141006171703,-0.0,0.0,0.0,0.0,0.0027319914661347866,0.0014714751159772277,0.00327842659316957,14414.0,12051.0,14698.0,12850.0,0.4670659303665161,0.319060742855072,0.4866892695426941,0.3659452199935913,0.0,0.0,0.0,0.0,12327.0,14495.0,12506.0,14965.0,1.6550458669662476,-0.10890508805986066,0.08619536332747085,0.17154276942071103,-0.010677679441869259,-0.0017416949849575758,0.0
251,5,0.00010671385825844482,1.4584881000700989e-06,4.623027780326083e-05,0.0046730502508580685,-0.0030819771345704794,-0.0019323774613440037,-0.012307124212384224,0.0033795342314988375,0.0007829692913219333,-0.003755656536668539,0.08667460829019547,0.12084589153528214,0.0,0.0,0.0,-0.0005677453009411693,0.0026774141006171703,-0.0,0.0,0.0,0.0,0.0036514541134238243,0.002292839577421546,-0.00037802307633683085,14002.0,12543.0,14246.0,13340.0,0.4392540752887726,0.34759166836738586,0.4556138217449188,0.39630159735679626,0.0,0.0,0.0,0.0,12303.0,14100.0,12626.0,14985.0,1.6550458669662476,-0.10636926535478877,0.08959138204459326,0.1720387128284303,-0.010677679441869259,-0.0017416949849575758,0.0
256,5,0.0001301392330788076,-9.834142474574037e-06,5.3059604397276416e-05,0.004680265206843615,0.00012232486915308982,-0.0015924699837341905,-0.012307124212384224,0.0033795342314988375,0.0007829692913219333,-0.003755656536668539,0.08667460829019547,0.12084589153528214,0.0,0.0,0.0,0.0037055884022265673,0.004464239347726107,-0.0,0.0,0.0,0.0,0.0036514541134238243,0.002292839577421546,-0.00037802307633683085,14002.0,12543.0,14246.0,13340.0,0.4392540752887726,0.34759166836738586,0.4556138217449188,0.39630159735679626,0.0,0.0,0.0,0.0,12303.0,14100.0,12626.0,14985.0,1.6837559938430786,-0.10673669232227269,0.08967173529898662,0.17171040032473112,-0.018112320452928543,0.011564931832253933,0.0
261,5,0.00012635944585781544,1.0821438081620727e-05,9.273747127735987e-05,0.0014185323379933834,-0.0024297398049384356,-0.005398332141339779,-0.012504222802817822,0.002212697872892022,0.0007088025449775159,-0.01707511395215988,0.1544436812400818,-0.13997094333171844,0.0,0.0,0.0,0.0037055884022265673,0.004464239347726107,-0.0,0.0,0.0,0.0,0.004642106126993895,0.003968489356338978,-0.001271130982786417,12479.0,14000.0,12542.0,15062.0,0.3438025712966919,0.43908607959747314,0.3475179076194763,0.5125115513801575,0.0,0.0,0.0,0.0,14268.0,12231.0,14512.0,13121.0,1.6837559938430786,-0.10635514944474811,0.09079462543053506,0.1728512738620176,-0.018112320452928543,0.011564931832253933,0.0
266,5,0.00014022909454070032,1.6098091464300524e-06,0.00012436439283192158,0.002231770660728216,0.00013349960499908775,-0.0059545631520450115,-0.012504222802817822,0.002212697872892022,0.0007088025449775159,-0.01707511395215988,0.1544436812400818,-0.13997094333171844,0.0,0.0,0.0,0.002988634631037712,0.0015082331374287605,-0.0,0.0,0.0,0.0,0.004642106126993895,0.003968489356338978,-0.001271130982786417,12479.0,14000.0,12542.0,15062.0,0.3438025712966919,0.43908607959747314,0.3475179076194763,0.5125115513801575,0.0,0.0,0.0,0.0,14268.0,12231.0,14512.0,13121.0,1.6554514169692993,-0.10651077348996198,0.09135274627642595,0.17305109161170554,-0.006016372237354517,0.009170575998723507,0.0
271,5,0.00013966222468297929,-7.356102742051007e-06,0.00012302101822569966,0.0008246832294389606,0.0011293092975392938,-0.002220621332526207,-0.012542176991701126,0.0013368920190259814,0.001267187879420817,0.0035056492779403925,0.07865633815526962,0.04792806878685951,0.0,0.0,0.0,0.002988634631037712,0.0015082331374287605,-0.0,0.0,0.0,0.0,0.003656988497823477,0.002275654813274741,0.0022516523022204638,14047.0,12655.0,14194.0,13500.0,0.4422585964202881,0.3542521595954895,0.4520599842071533,0.40647512674331665,0.0,0.0,0.0,0.0,12715.0,14005.0,13020.0,15029.0,1.6554514169692993,-0.10655529334869412,0.09083618753909647,0.17300675636326499,-0.006016372237354517,0.009170575998723507,0.0
276,5,0.00013205134018789977,2.261877125420142e-05,0.00015313236508518457,-0.000583432731218636,-0.0031452609691768885,-0.00450160913169384,-0.012542176991701126,0.0013368920190259814,0.001267187879420817,0.0035056492779403925,0.07865633815526962,0.04792806878685951,0.0,0.0,0.0,-0.001405422925017774,0.0009767321171239018,-0.0,0.0,0.0,0.0,0.003656988497823477,0.002275654813274741,0.0022516523022204638,14047.0,12655.0,14194.0,13500.0,0.4422585964202881,0.3542521595954895,0.4520599842071533,0.40647512674331665,0.0,0.0,0.0,0.0,12715.0,14005.0,13020.0,15029.0,1.6413763761520386,-0.10614528730110843,0.09156725706838634,0.17363757024524468,-0.0038630920462310314,-0.0042758602648973465,0.0
281,5,0.00012845660967286676,4.76137938676402e-05,0.0002264629292767495,-0.0006647412665188313,-0.004257507156580687,-0.010600311681628227,-0.012611016631126404,0.0008125535678118467,0.0014911394100636244,-0.006868771277368069,-0.040671467781066895,0.15101465582847595,0.0,0.0,0.0,-0.001405422925017774,0.0009767321171239018,-0.0,0.0,0.0,0.0,0.005060533992946148,0.00017886795103549957,0.002910330891609192,14860.0,11715.0,15454.0,12488.0,0.4980926215648651,0.30028030276298523,0.5410418510437012,0.3443412482738495,0.0,0.0,0.0,0.0,13978.0,12445.0,14921.0,12974.0,1.6413763761520386,-0.10546644530939414,0.09250081423781727,0.17231158026637627,-0.0038630920462310314,-0.0042758602648973465,0.0
286,5,8.829308353597298e-05,6.974396092118695e-05,0.00024688997655175626,-0.005085519049316645,-0.004358623176813126,-0.00669137155637145,-0.012611016631126404,0.0008125535678118467,0.0014911394100636244,-0.006868771277368069,-0.040671467781066895,0.15101465582847595,0.0,0.0,0.0,0.005242645274847746,-0.0004432228743098676,-0.0,0.0,0.0,0.0,0.005060533992946148,0.00017886795103549957,0.002910330891609192,14860.0,11715.0,15454.0,12488.0,0.4980926215648651,0.30028030276298523,0.5410418510437012,0.3443412482738495,0.0,0.0,0.0,0.0,13978.0,12445.0,14921.0,12974.0,1.6698914766311646,-0.10484256038214404,0.09240337248053163,0.17258041276585012,0.0017834310419857502,0.016227202489972115,0.0
292,5,6.260402733460069e-05,8.342030923813581e-05,0.0002927454770542681,-0.0051168943755328655,-0.003384610638022423,-0.00817920733243227,-0.012886091135442257,0.0012056019622832537,0.001871759886853397,-0.039859429001808167,-0.11023171991109848,0.002885355381295085,0.0,0.0,0.0,0.005242645274847746,-0.0004432228743098676,-0.0,0.0,0.0,0.0,0.005452358163893223,-0.0016225645085796714,-0.001025573001243174,12981.0,13502.0,14033.0,13917.0,0.3739561140537262,0.4065991938114166,0.4413120448589325,0.433584064245224,0.0,0.0,0.0,0.0,14405.0,11894.0,15576.0,12219.0,1.6698914766311646,-0.10758883844742531,0.08939720236022641,0.1737009370443122,0.0017834310419857502,0.016227202489972115,0.0
297,5,4.453310612007044e-05,0.0001188765891129151,0.0002961688151117414,-0.0042152684181928635,-0.00560859777033329,-0.0036824820563197136,-0.012886091135442257,0.0012056019622832537,0.001871759886853397,-0.039859429001808167,-0.11023171991109848,0.002885355381295085,0.0,0.0,0.0,0.004203863441944122,-0.004632876254618168,-0.0,0.0,0.0,0.0,0.005452358163893223,-0.0016225645085796714,-0.001025573001243174,12981.0,13502.0,14033.0,13917.0,0.3739561140537262,0.4065991938114166,0.4413120448589325,0.433584064245224,0.0,0.0,0.0,0.0,14405.0,11894.0,15576.0,12219.0,1.6877424716949463,-0.10628532829141664,0.09062716512645207,0.17398909860712608,0.018840976059436798,0.013151068240404129,0.0
302,5,1.997682556975633e-05,0.00010407622175989673,0.00027497377595864236,-0.004632860887795687,-0.0004673947987612337,0.0010704105952754617,-0.013569309376180172,0.0026069877203553915,0.0031050434336066246,-0.06090875342488289,-0.0902545154094696,-0.02179904282093048,0.0,0.0,0.0,0.004203863441944122,-0.004632876254618168,-0.0,0.0,0.0,0.0,0.006501445081084967,-0.004312953446060419,0.005812615621834993,13432.0,13069.0,14431.0,13265.0,0.4021773040294647,0.37940970063209534,0.46820947527885437,0.39157989621162415,0.0,0.0,0.0,0.0,12550.0,13914.0,13548.0,14169.0,1.6877424716949463,-0.1076139809593104,0.08844862651154124,0.17402007485644677,0.018840976059436798,0.013151068240404129,0.0
307,5,-2.3904665795271285e-05,0.00012939229782205075,0.00033128762152045965,-0.007118923123925924,-0.003224886953830719,-0.00632949685677886,-0.013569309376180172,0.0026069877203553915,0.0031050434336066246,-0.06090875342488289,-0.0902545154094696,-0.02179904282093048,0.0,0.0,0.0,0.0007499908679164946,-0.004282011184841394,-0.0,0.0,0.0,0.0,0.006501445081084967,-0.004312953446060419,0.005812615621834993,13432.0,13069.0,14431.0,13265.0,0.4021773040294647,0.37940970063209534,0.46820947527885437,0.39157989621162415,0.0,0.0,0.0,0.0,12550.0,13914.0,13548.0,14169.0,1.672816514968872,-0.1081098749349772,0.08768219810141968,0.17494056805397157,0.017260229215025902,0.002325480803847313,-0.0
312,5,-6.497738650068641e-05,0.00017171766376122832,0.0004114393377676606,-0.007776295766234398,-0.006368999369442463,-0.01215000543743372,-0.013873700052499771,0.0032300723250955343,0.0034618207719177008,-0.08285439014434814,-0.13885265588760376,0.19524048268795013,0.0,0.0,0.0,0.0007499908679164946,-0.004282011184841394,-0.0,0.0,0.0,0.0,0.00717590656131506,-0.003286181716248393,-0.0023461675737053156,15143.0,10917.0,16487.0,11218.0,0.51837158203125,0.25800567865371704,0.619963526725769,0.27355068922042847,0.0,0.0,0.0,0.0,13683.0,12692.0,14961.0,13237.0,1.672816514968872,-0.10671706352453668,0.09010967513339971,0.17401565331222846,0.017260229215025902,0.002325480803847313,-0.0
317,5,-0.0001233593502547592,0.0001575070491526276,0.0004599431995302439,-0.010116353631019592,-0.0008423250983469188,-0.010680465027689934,-0.013873700052499771,0.0032300723250955343,0.0034618207719177008,-0.08285439014434814,-0.13885265588760376,0.19524048268795013,0.0,0.0,0.0,0.007746169809252024,-0.007083409931510687,-0.0,0.0,0.0,0.0,0.00717590656131506,-0.003286181716248393,-0.0023461675737053156,15143.0,10917.0,16487.0,11218.0,0.51837158203125,0.25800567865371704,0.619963526725769,0.27355068922042847,0.0,0.0,0.0,0.0,13683.0,12692.0,14961.0,13237.0,1.7293137311935425,-0.11012406434781337,0.08673156713084276,0.1737350974270863,0.02951558493077755,0.02482912689447403,0.0
322,5,-0.00016683133435435593,0.0002097057003993541,0.00044968491420149803,-0.009263180196285248,-0.0066007692366838455,-0.0030411905609071255,-0.01493780966848135,0.00425684405490756,0.0035535546485334635,-0.10817603021860123,-0.08001992851495743,0.025685198605060577,0.0,0.0,0.0,0.007746169809252024,-0.007083409931510687,-0.0,0.0,0.0,0.0,0.006075733806937933,-0.0024116518907248974,0.00010541551455389708,12630.0,13818.0,14221.0,14223.0,0.35272711515426636,0.42706388235092163,0.4539138674736023,0.454037606716156,0.0,0.0,0.0,0.0,15046.0,11151.0,16380.0,11614.0,1.7293137311935425,-0.10898336263618297,0.08700822839011393,0.17535041664153003,0.02951558493077755,0.02482912689447403,0.0
327,5,-0.00019058704492636025,0.00022151294979266822,0.0004904487286694348,-0.0065559567883610725,-0.004057176411151886,-0.006108136847615242,-0.01493780966848135,0.00425684405490756,0.0035535546485334635,-0.10817603021860123,-0.08001992851495743,0.025685198605060577,0.0,0.0,0.0,0.00801524706184864,-0.00848472211509943,-0.0,0.0,0.0,0.0,0.006075733806937933,-0.0024116518907248974,0.00010541551455389708,12630.0,13818.0,14221.0,14223.0,0.35272711515426636,0.42706388235092163,0.4539138674736023,0.454037606716156,0.0,0.0,0.0,0.0,15046.0,11151.0,16380.0,11614.0,1.743876576423645,-0.10886547520796697,0.08734077809456507,0.17446229117516374,0.03565218299627304,0.025907931849360466,0.0
332,5,-0.00022796067059971392,0.00024235277669504285,0.000563978566788137,-0.007107218261808157,-0.004123650025576353,-0.011266833171248436,-0.01493780966848135,0.00425684405490756,0.0035535546485334635,-0.10817603021860123,-0.08001992851495743,0.025685198605060577,0.0,0.0,0.0,0.00801524706184864,-0.00848472211509943,-0.0,0.0,0.0,0.0,0.006075733806937933,-0.0024116518907248974,0.00010541551455389708,12630.0,13818.0,14221.0,14223.0,0.35272711515426636,0.42706388235092163,0.4539138674736023,0.454037606716156,0.0,0.0,0.0,0.0,15046.0,11151.0,16380.0,11614.0,1.743876576423645,-0.11019349334568347,0.08657654373982056,0.17472502941884002,0.03565218299627304,0.025907931849360466,0.0
337,5,-0.0002710753178689629,0.00028498528990894556,0.0005477683735080063,-0.008016644977033138,-0.006765360478311777,-0.0025615121703594923,-0.015591461211442947,0.0045057982206344604,0.004597462713718414,-0.06337226927280426,0.012799257412552834,-0.14063146710395813,0.0,0.0,0.0,0.008367376402020454,-0.007538448087871075,-0.0,0.0,0.0,0.0,0.00808119960129261,-0.004256402608007193,0.005826018285006285,15092.0,11348.0,16497.0,11953.0,0.514653742313385,0.28042370080947876,0.6207228302955627,0.31351345777511597,0.0,0.0,0.0,0.0,12396.0,14103.0,13518.0,14605.0,1.7370483875274658,-0.10861329043406606,0.08821143521031868,0.17555364619128871,0.031551968306303024,0.026940183714032173,0.0
342,5,-0.0002717222669161856,0.0002747096586972475,0.0005384367541410029,-0.0032842911314219236,-0.0014730712864547968,9.518965816823766e-05,-0.015591461211442947,0.0045057982206344604,0.004597462713718414,-0.06337226927280426,0.012799257412552834,-0.14063146710395813,0.0,0.0,0.0,0.008367376402020454,-0.007538448087871075,-0.0,0.0,0.0,0.0,0.00808119960129261,-0.004256402608007193,0.005826018285006285,15092.0,11348.0,16497.0,11953.0,0.514653742313385,0.28042370080947876,0.6207228302955627,0.31351345777511597,0.0,0.0,0.0,0.0,12396.0,14103.0,13518.0,14605.0,1.7370483875274658,-0.10883040613897275,0.08825713443804677,0.17482729303072767,0.031551968306303024,0.026940183714032173,0.0
347,5,-0.0003236784541513771,0.0003053894906770438,0.0005371183506213129,-0.007548461202532053,-0.00427080737426877,0.00019628317386377603,-0.016794167459011078,0.0040176729671657085,0.004114068578928709,-0.07196320593357086,0.011208764277398586,0.09825701266527176,0.0,0.0,0.0,0.008367376402020454,-0.007538448087871075,-0.0,0.0,0.0,0.0,0.00827415194362402,-0.0025134049355983734,-0.0008922189008444548,13590.0,13194.0,15059.0,13895.0,0.41225701570510864,0.38717204332351685,0.5123056769371033,0.43214184045791626,0.0,0.0,0.0,0.0,12448.0,14179.0,13884.0,14954.0,1.7370483875274658,-0.11016642765351416,0.08709350075585387,0.17593092519457998,0.031551968306303024,0.026940183714032173,0.0
352,5,-0.00037661162787117064,0.0003108653472736478,0.0006106379441916943,-0.009371363557875156,-0.002365425229072571,-0.008743833750486374,-0.016794167459011078,0.0040176729671657085,0.004114068578928709,-0.07196320593357086,0.011208764277398586,0.09825701266527176,0.0,0.0,0.0,0.00555290374904871,-0.007261257618665695,-0.0,0.0,0.0,0.0,0.00827415194362402,-0.0025134049355983734,-0.0008922189008444548,13590.0,13194.0,15059.0,13895.0,0.41225701570510864,0.38717204332351685,0.5123056769371033,0.43214184045791626,0.0,0.0,0.0,0.0,12448.0,14179.0,13884.0,14954.0,1.7195773124694824,-0.11067641036419285,0.08751000948889291,0.17456909620553082,0.030086727812886238,0.017698902636766434,-0.0
357,5,-0.00043776637176051736,0.0003671466838568449,0.0005979680572636425,-0.007610916625708342,-0.004455996677279472,-0.0009605437517166138,-0.017452716827392578,0.003695260500535369,0.004270082805305719,-0.04519631713628769,0.07838562875986099,-0.22102107107639313,0.0,0.0,0.0,0.00555290374904871,-0.007261257618665695,-0.0,0.0,0.0,0.0,0.008226321078836918,-0.0020646678749471903,-0.003521640319377184,11210.0,15262.0,12776.0,16001.0,0.2731652855873108,0.5270020961761475,0.36151397228240967,0.5821952223777771,0.0,0.0,0.0,0.0,15269.0,11104.0,16776.0,11815.0,1.7195773124694824,-0.10939609676596572,0.0891376075816748,0.1754938914812349,0.030086727812886238,0.017698902636766434,-0.0
362,5,-0.00048646004870533943,0.0003870977961923927,0.0006413195515051484,-0.008887610398232937,-0.004176530987024307,-0.0055864001624286175,-0.017452716827392578,0.003695260500535369,0.004270082805305719,-0.04519631713628769,0.07838562875986099,-0.22102107107639313,0.0,0.0,0.0,0.005866229999810457,-0.007454953622072935,-0.0,0.0,0.0,0.0,0.008226321078836918,-0.0020646678749471903,-0.003521640319377184,11210.0,15262.0,12776.0,16001.0,0.2731652855873108,0.5270020961761475,0.36151397228240967,0.5821952223777771,0.0,0.0,0.0,0.0,15269.0,11104.0,16776.0,11815.0,1.722957730293274,-0.10932076730498515,0.08981141317529909,0.17499143331978406,0.030949952080845833,0.018734311684966087,0.0
367,5,-0.0005307417595759034,0.0003935268032364547,0.0006794538348913193,-0.008868847973644733,-0.002442095195874572,-0.0068106744438409805,-0.017775828018784523,0.0037835000548511744,0.005016628187149763,-0.02556317299604416,-0.02149013616144657,0.022974489256739616,0.0,0.0,0.0,0.005866229999810457,-0.007454953622072935,-0.0,0.0,0.0,0.0,0.008507702499628067,-0.004797336179763079,0.005049474071711302,14307.0,12312.0,15799.0,12734.0,0.4597730040550232,0.33403998613357544,0.5668167471885681,0.3589475750923157,0.0,0.0,0.0,0.0,13117.0,13581.0,14660.0,14295.0,1.722957730293274,-0.10911650139258143,0.09052367105650258,0.17415578032234025,0.030949952080845833,0.018734311684966087,0.0
373,5,-0.0005752429715357721,0.00039393355837091804,0.0006718060467392206,-0.008887683972716331,-0.001025647739879787,-0.001806533196941018,-0.017775828018784523,0.0037835000548511744,0.005016628187149763,-0.02556317299604416,-0.02149013616144657,0.022974489256739616,0.0,0.0,0.0,0.003537853481248021,-0.008691574446856976,-0.0,0.0,0.0,0.0,0.008507702499628067,-0.004797336179763079,0.005049474071711302,14307.0,12312.0,15799.0,12734.0,0.4597730040550232,0.33403998613357544,0.5668167471885681,0.3589475750923157,0.0,0.0,0.0,0.0,13117.0,13581.0,14660.0,14295.0,1.727552890777588,-0.10949973695331341,0.08878738396227134,0.17560939956466468,0.036180414259433746,0.011328648775815964,0.0
378,5,-0.0006109905079938471,0.0003986230003647506,0.0007131151505745947,-0.007844778709113598,-0.0009729941375553608,-0.00567970285192132,-0.0179729126393795,0.00393458129838109,0.004215148277580738,-0.01630111038684845,-0.06499528139829636,0.17561295628547668,0.0,0.0,0.0,0.003537853481248021,-0.008691574446856976,-0.0,0.0,0.0,0.0,0.007516578305512667,-0.003957006148993969,0.0008595393155701458,14212.0,12433.0,15733.0,12806.0,0.45330971479415894,0.3411112427711487,0.5618641972541809,0.3632921576499939,0.0,0.0,0.0,0.0,10977.0,15382.0,12531.0,15919.0,1.727552890777588,-0.10955531837468914,0.08929829862225705,0.1744237778055776,0.036180414259433746,0.011328648775815964,0.0
383,5,-0.0006832567160017788,0.0004006763338111341,0.0007524456013925374,-0.011809859424829483,-0.0006355954683385789,-0.0069915372878313065,-0.0179729126393795,0.00393458129838109,0.004215148277580738,-0.01630111038684845,-0.06499528139829636,0.17561295628547668,0.0,0.0,0.0,0.0018396259984001517,-0.0079317856580019,-0.0,0.0,0.0,0.0,0.007516578305512667,-0.003957006148993969,0.0008595393155701458,14212.0,12433.0,15733.0,12806.0,0.45330971479415894,0.3411112427711487,0.5618641972541809,0.3632921576499939,0.0,0.0,0.0,0.0,10977.0,15382.0,12531.0,15919.0,1.715299129486084,-0.10985995002340335,0.09007774645531133,0.17309145701528358,0.03278366103768349,0.005848944652825594,0.0
388,5,-0.0006998226162977517,0.0004636203229892999,0.0007306452025659382,-0.0067118494771420956,-0.007807517424225807,-0.00018056671251542866,-0.017951108515262604,0.004117296077311039,0.004048578906804323,0.002642687875777483,0.013195561245083809,-0.23002338409423828,0.0,0.0,0.0,0.0018396259984001517,-0.0079317856580019,-0.0,0.0,0.0,0.0,0.007072837091982365,-0.00297430413775146,-0.0062739248387515545,10219.0,15917.0,11960.0,16356.0,0.22362467646598816,0.5757870674133301,0.3139094412326813,0.6096365451812744,0.0,0.0,0.0,0.0,14759.0,11822.0,16244.0,12152.0,1.715299129486084,-0.10881081001698104,0.08930699834870867,0.17544003144194406,0.03278366103768349,0.005848944652825594,0.0
393,5,-0.0007319128490053117,0.000464236072730273,0.0007477429462596774,-0.006535571068525314,-0.0031968969851732254,-0.0021239540074020624,-0.017951108515262604,0.004117296077311039,0.004048578906804323,0.002642687875777483,0.013195561245083809,-0.23002338409423828,0.0,0.0,0.0,0.009864517487585545,-0.006918236147612333,-0.0,0.0,0.0,0.0,0.007072837091982365,-0.00297430413775146,-0.0062739248387515545,10219.0,15917.0,11960.0,16356.0,0.22362467646598816,0.5757870674133301,0.3139094412326813,0.6096365451812744,0.0,0.0,0.0,0.0,14759.0,11822.0,16244.0,12152.0,1.7412757873535156,-0.10795716039648035,0.09035428368814587,0.17435377304129504,0.029026204720139503,0.03183751553297043,0.0
398,5,-0.0007571331807412207,0.00047997941146604717,0.0007452905410900712,-0.005640667397528887,-0.0031679586973041296,-0.000555295089725405,-0.018072066828608513,0.0044684638269245625,0.004505685530602932,-0.019357815384864807,-0.022623158991336823,-0.08264065533876419,0.0,0.0,0.0,0.009864517487585545,-0.006918236147612333,-0.0,0.0,0.0,0.0,0.006731455679982901,-0.005495993886142969,0.004127410240471363,13552.0,13311.0,15116.0,13506.0,0.40982335805892944,0.39445817470550537,0.5164161324501038,0.4068552255630493,0.0,0.0,0.0,0.0,13926.0,12949.0,15364.0,13190.0,1.7412757873535156,-0.10688098721001034,0.0913050561099214,0.17362760320881893,0.029026204720139503,0.03183751553297043,0.0
403,5,-0.0008040518732741475,0.0004765129997394979,0.0007082691881805658,-0.007886510342359543,-0.0008512166095897555,0.004220440983772278,-0.018072066828608513,0.0044684638269245625,0.004505685530602932,-0.019357815384864807,-0.022623158991336823,-0.08264065533876419,0.0,0.0,0.0,0.009864517487585545,-0.006918236147612333,-0.0,0.0,0.0,0.0,0.006731455679982901,-0.005495993886142969,0.004127410240471363,13552.0,13311.0,15116.0,13506.0,0.40982335805892944,0.39445817470550537,0.5164161324501038,0.4068552255630493,0.0,0.0,0.0,0.0,13926.0,12949.0,15364.0,13190.0,1.7412757873535156,-0.10863931916888411,0.08861584840855216,0.17550019322408938,0.029026204720139503,0.03183751553297043,0.0
408,5,-0.0008263610652647913,0.00047655950766056776,0.0007003853097558022,-0.005831703543663025,-0.00034606430563144386,0.0026342403143644333,-0.018072066828608513,0.0044684638269245625,0.004505685530602932,-0.019357815384864807,-0.022623158991336823,-0.08264065533876419,0.0,0.0,0.0,0.0018283642129972577,-0.008212539367377758,-0.0,0.0,0.0,0.0,0.006731455679982901,-0.005495993886142969,0.004127410240471363,13552.0,13311.0,15116.0,13506.0,0.40982335805892944,0.39445817470550537,0.5164161324501038,0.4068552255630493,0.0,0.0,0.0,0.0,13926.0,12949.0,15364.0,13190.0,1.7184934616088867,-0.10930779530482444,0.08870843861414467,0.17466711343507987,0.03400725871324539,0.00582396425306797,-0.0
413,5,-0.0008468521409668028,0.0004884563386440277,0.0007413179846480489,-0.0047916145995259285,-0.0015660475473850965,-0.003858220996335149,-0.017919713631272316,0.004505572374910116,0.0034677518997341394,-0.0039140814915299416,-0.06860488653182983,0.2742043733596802,0.0,0.0,0.0,0.0018283642129972577,-0.008212539367377758,-0.0,0.0,0.0,0.0,0.005685962736606598,-0.005027458071708679,0.003992692567408085,15310.0,11272.0,16615.0,11308.0,0.5304856300354004,0.2764427661895752,0.630074143409729,0.2782965898513794,0.0,0.0,0.0,0.0,14381.0,12276.0,15973.0,12825.0,1.7184934616088867,-0.10793381730258186,0.09012935509619478,0.17363634693220104,0.03400725871324539,0.00582396425306797,-0.0
418,5,-0.0008989758789539337,0.00046445790212601423,0.0007840630132704973,-0.008171492256224155,0.0022533927112817764,-0.0066726901568472385,-0.017919713631272316,0.004505572374910116,0.0034677518997341394,-0.0039140814915299416,-0.06860488653182983,0.2742043733596802,0.0,0.0,0.0,0.0027347691357135773,-0.0055561126209795475,-0.0,0.0,0.0,0.0,0.005685962736606598,-0.005027458071708679,0.003992692567408085,15310.0,11272.0,16615.0,11308.0,0.5304856300354004,0.2764427661895752,0.630074143409729,0.2782965898513794,0.0,0.0,0.0,0.0,14381.0,12276.0,15973.0,12825.0,1.6910358667373657,-0.11093527020407047,0.08817571722512178,0.17421114095808357,0.022639764472842216,0.008571978658437729,0.0
423,5,-0.0009118118905462325,0.00046777306124567986,0.0007917850161902606,-0.004808919969946146,0.0005035374197177589,-0.0035957160871475935,-0.017925087362527847,0.0045707616955041885,0.002871827455237508,0.01748037338256836,0.04615655541419983,-0.1935320347547531,0.0,0.0,0.0,0.0027347691357135773,-0.0055561126209795475,-0.0,0.0,0.0,0.0,0.008233663626015186,-0.002409818349406123,-0.007726788986474276,10098.0,16003.0,11869.0,16642.0,0.21790963411331177,0.5823086500167847,0.3088032603263855,0.6322542428970337,0.0,0.0,0.0,0.0,15078.0,11435.0,16614.0,11935.0,1.6910358667373657,-0.10953617400308073,0.08986742525359527,0.17325797779009758,0.022639764472842216,0.008571978658437729,0.0
428,5,-0.0009140931069850922,0.0004856587329413742,0.0007846932858228683,-0.002197309397161007,-0.0019448648672550917,-0.0005872799083590508,-0.017925087362527847,0.0045707616955041885,0.002871827455237508,0.01748037338256836,0.04615655541419983,-0.1935320347547531,0.0,0.0,0.0,0.00022337895643431693,-0.005670659244060516,-0.0,0.0,0.0,0.0,0.008233663626015186,-0.002409818349406123,-0.007726788986474276,10098.0,16003.0,11869.0,16642.0,0.21790963411331177,0.5823086500167847,0.3088032603263855,0.6322542428970337,0.0,0.0,0.0,0.0,15078.0,11435.0,16614.0,11935.0,1.6880013942718506,-0.10745362845722524,0.09036911935202538,0.1734863033806262,0.023065129294991493,0.0006989137618802488,0.0
433,5,-0.0009565981454215944,0.0005059940740466118,0.000807540665846318,-0.0059795319102704525,-0.0032181860879063606,-0.002976597985252738,-0.017926817759871483,0.004914349876344204,0.00450726505368948,0.02563665434718132,0.03282609209418297,-0.18511347472667694,0.0,0.0,0.0,0.00022337895643431693,-0.005670659244060516,-0.0,0.0,0.0,0.0,0.0058891200460493565,-0.004883181769400835,0.0026615962851792574,12818.0,14092.0,14184.0,14279.0,0.3640032410621643,0.445228636264801,0.4514269232749939,0.4578346610069275,0.0,0.0,0.0,0.0,9620.0,16427.0,11138.0,16712.0,1.6880013942718506,-0.10861276099156698,0.08947703726450383,0.17495942365562397,0.023065129294991493,0.0006989137618802488,0.0
438,5,-0.0009679822251200676,0.0004973005852662027,0.00080628611613065,-0.003757904749363661,-0.00024405358999501914,-0.001040094532072544,-0.017926817759871483,0.004914349876344204,0.00450726505368948,0.02563665434718132,0.03282609209418297,-0.18511347472667694,0.0,0.0,0.0,0.004689667373895645,-0.006722358986735344,-0.0,0.0,0.0,0.0,0.0058891200460493565,-0.004883181769400835,0.0026615962851792574,12818.0,14092.0,14184.0,14279.0,0.3640032410621643,0.445228636264801,0.4514269232749939,0.4578346610069275,0.0,0.0,0.0,0.0,9620.0,16427.0,11138.0,16712.0,1.7103550434112549,-0.10731350136584854,0.09006262698718757,0.17345756397128387,0.027704596519470215,0.01486736349761486,0.0
444,5,-0.000978962634690106,0.000500304508022964,0.0008227347279898822,-0.0028208072762936354,-0.00045809359289705753,-0.002389873145148158,-0.017799120396375656,0.004800684750080109,0.004004283342510462,-0.01141805574297905,-0.062335141003131866,0.3328476846218109,0.0,0.0,0.0,0.004689667373895645,-0.006722358986735344,-0.0,0.0,0.0,0.0,0.00495257880538702,-0.0010456482414156199,-0.008405755273997784,15986.0,9896.0,17229.0,10177.0,0.5809809565544128,0.2085457444190979,0.6799139380455017,0.22159522771835327,0.0,0.0,0.0,0.0,13747.0,12880.0,15061.0,13214.0,1.7103550434112549,-0.1067145815076314,0.09083291661373034,0.1731316920444602,0.027704596519470215,0.01486736349761486,0.0
449,5,-0.0010189200984314084,0.0005405849660746753,0.0008137100376188755,-0.005923217162489891,-0.005016890820115805,0.00012701505329459906,-0.017799120396375656,0.004800684750080109,0.004004283342510462,-0.01141805574297905,-0.062335141003131866,0.3328476846218109,0.0,0.0,0.0,0.0014491481706500053,-0.003971031866967678,-0.0,0.0,0.0,0.0,0.00495257880538702,-0.0010456482414156199,-0.008405755273997784,15986.0,9896.0,17229.0,10177.0,0.5809809565544128,0.2085457444190979,0.6799139380455017,0.22159522771835327,0.0,0.0,0.0,0.0,13747.0,12880.0,15061.0,13214.0,1.6706327199935913,-0.10839208918068631,0.08916326568337415,0.17483009049760895,0.01598580926656723,0.004487474914640188,0.0
454,5,-0.001028357888571918,0.000509252364281565,0.0008011614554561675,-0.0035018266644328833,0.001753151649609208,0.001556637929752469,-0.01768205687403679,0.004550325218588114,0.0028172906022518873,0.02763672173023224,0.04289085417985916,-0.15545102953910828,0.0,0.0,0.0,0.0014491481706500053,-0.003971031866967678,-0.0,0.0,0.0,0.0,0.007093029096722603,-0.004076054785400629,0.002178490860387683,12383.0,14246.0,13894.0,14666.0,0.33817386627197266,0.4555782675743103,0.43211352825164795,0.484489381313324,0.0,0.0,0.0,0.0,15488.0,10836.0,16569.0,11038.0,1.6706327199935913,-0.10876033433740262,0.08877733800281169,0.17286317074390442,0.01598580926656723,0.004487474914640188,0.0
459,5,-0.0010335547849535942,0.0005149625358171761,0.0007850833935663104,-0.0020243609324097633,1.603862619958818e-05,0.0025520233903080225,-0.01768205687403679,0.004550325218588114,0.0028172906022518873,0.02763672173023224,0.04289085417985916,-0.15545102953910828,0.0,0.0,0.0,-0.0012071751989424229,-0.004654481075704098,-0.0,0.0,0.0,0.0,0.007093029096722603,-0.004076054785400629,0.002178490860387683,12383.0,14246.0,13894.0,14666.0,0.33817386627197266,0.4555782675743103,0.43211352825164795,0.484489381313324,0.0,0.0,0.0,0.0,15488.0,10836.0,16569.0,11038.0,1.6775704622268677,-0.10833181632808919,0.0894597669560472,0.17291710928253085,0.01881490647792816,-0.0037536988966166973,-0.0
464,5,-0.001065903576090932,0.0005423594266176224,0.0007903596269898117,-0.004691594280302525,-0.003281210782006383,0.0003876608388964087,-0.017715170979499817,0.004717742092907429,0.0038401989731937647,-0.012510756962001324,0.022629905492067337,-0.21175195276737213,0.0,0.0,0.0,-0.0012071751989424229,-0.004654481075704098,-0.0,0.0,0.0,0.0,0.005551258567720652,-0.003412474412471056,0.006543346680700779,16039.0,9739.0,17091.0,10050.0,0.5850734114646912,0.2013690024614334,0.6685484051704407,0.21564193069934845,0.0,0.0,0.0,0.0,9083.0,16574.0,10608.0,17087.0,1.6775704622268677,-0.10841774474987588,0.08910718120199083,0.17465576209643704,0.01881490647792816,-0.0037536988966166973,-0.0
