timestamp,dt,pos_x,pos_y,pos_z,vel_x,vel_y,vel_z,roll,pitch,yaw,agv_x,agv_y,agv_z,x_ref,y_ref,z_ref,roll_ref,pitch_ref,yaw_ref,x_vel_ref,y_vel_ref,z_vel_ref,x_torque,y_torque,z_torque,w0,w1,w2,w3,u0,u1,u2,u3,m0req,m1req,m2req,m3req,thrust0,thrust1,thrust2,thrust3,thrust_ref,roll_vicon,pitch_vicon,yaw_vicon,acc_x,acc_y,acc_z
5,5,0.0,0.0,0.0,0.0018631150014698505,-0.000649558671284467,0.0033970950171351433,0.023875480517745018,0.030049709603190422,0.00011563716543605551,0.0018977427389472723,0.0033141793683171272,-4.8313198931282386e-05,0.0,0.0,0.0,0.0007984775584191084,0.00176173634827137,-0.0,0.0,0.0,0.0,-0.0069455369375646114,-0.0085159782320261,-0.00010551040759310126,1495.0,1495.0,1495.0,1495.0,0.0,0.0,0.0,0.0,0.0,0.0,0.0,0.0,1495.0,1495.0,1495.0,1495.0,1.6458054780960083,0.3012754355057672,0.07460172510238973,-1.5564177484724107,-0.006986681371927261,0.0024358450900763273,0.0
34,29,0.0,0.0,0.0,0.0027074976824223995,0.001073153456673026,0.004695780575275421,0.023875480517745018,0.030049709603190422,0.00011563716543605551,0.0018977427389472723,0.0033141793683171272,-4.8313198931282386e-05,0.0,0.0,0.0,0.0007984775584191084,0.00176173634827137,-0.0,0.0,0.0,0.0,-0.0069455369375646114,-0.0085159782320261,-0.00010551040759310126,1495.0,1495.0,1495.0,1495.0,0.0,0.0,0.0,0.0,0.0,0.0,0.0,0.0,1495.0,1495.0,1495.0,1495.0,1.6458054780960083,0.29974294960171927,0.07374991787261645,-1.5559081908778356,-0.006986681371927261,0.0024358450900763273,0.0
39,5,0.0,0.0,0.0,0.0006428316119126976,0.0005392423481680453,-0.0009751221514306962,0.023883670568466187,0.030055204406380653,8.86342313606292e-05,0.0010891619604080915,-0.0026158085092902184,-0.0022219386883080006,0.0,0.0,0.0,-0.0013116012560203671,0.0025454547721892595,-0.0,0.0,0.0,0.0,-0.006882529240101576,-0.00870378315448761,7.492891018046066e-05,1495.0,1495.0,1495.0,1495.0,0.0,0.0,0.0,0.0,0.0,0.0,0.0,0.0,1495.0,1495.0,1495.0,1495.0,1.6553237438201904,0.29995727120972066,0.07336662582296938,-1.5558855156309899,-0.010153116658329964,-0.004024325404316187,0.0
44,5,0.0,0.0,0.0,-0.008644589222967625,-0.0007412086706608534,-0.015310516580939293,0.023883670568466187,0.030055204406380653,8.86342313606292e-05,0.0010891619604080915,-0.0026158085092902184,-0.0022219386883080006,0.0,0.0,0.0,-0.0013116012560203671,0.0025454547721892595,-0.0,0.0,0.0,0.0,-0.006882529240101576,-0.00870378315448761,7.492891018046066e-05,1495.0,1495.0,1495.0,1495.0,0.0,0.0,0.0,0.0,0.0,0.0,0.0,0.0,1495.0,1495.0,1495.0,1495.0,1.6553237438201904,0.2987208614965986,0.07629941514772079,-1.5582239876260937,-0.010153116658329964,-0.004024325404316187,0.0
49,5,0.0,0.0,0.0,0.0029849717393517494,0.001995696220546961,0.009558652527630329,0.023883670568466187,0.030055204406380653,8.86342313606292e-05,0.0010891619604080915,-0.0026158085092902184,-0.0022219386883080006,0.0,0.0,0.0,0.0008752649882808328,-0.00785243883728981,-0.0,0.0,0.0,0.0,-0.006882529240101576,-0.00870378315448761,7.492891018046066e-05,1495.0,1495.0,1495.0,1495.0,0.0,0.0,0.0,0.0,0.0,0.0,0.0,0.0,1495.0,1495.0,1495.0,1495.0,1.7132618427276611,0.30016948308748237,0.07285259717332807,-1.5560957877670383,0.03241720795631409,0.0027795324567705393,0.0
54,5,-2.1828298486070707e-05,1.0583969014987815e-05,3.045919402211439e-05,-0.001425407244823873,-0.0004717978008557111,0.00016835790302138776,0.023865269497036934,0.030113359913229942,0.00010000867041526362,-0.0009309098240919411,-0.009164614602923393,0.004969023633748293,0.0,0.0,0.0,0.0006006854237057269,-0.001381874899379909,-0.0,0.0,0.0,0.0,-0.006947546731680632,-0.008452015928924084,1.7292673874180764e-05,13555.0,14641.0,13686.0,12483.0,0.4100459814071655,0.4827638864517212,0.4184962511062622,0.3440176248550415,0.0,0.0,0.0,0.0,1495.0,1495.0,1495.0,1495.0,1.6413769721984863,0.3011621336320255,0.07590557883672294,-1.5574849721639825,0.005465485621243715,0.0018275276524946094,-0.0
70,16,-1.819497447286267e-05,1.1707094017765485e-05,1.5181595699687023e-05,-0.0008028745651245117,0.001257002935744822,-0.0015701127704232931,0.023866333067417145,0.03013898991048336,0.00011765534145524725,-0.00017044534615706652,0.009466920047998428,-4.1167677409248427e-05,0.0,0.0,0.0,-0.0015285784611478448,-0.0007868114043958485,-0.0,0.0,0.0,0.0,-0.0075048110447824,-0.007996919564902782,3.018254938069731e-05,13555.0,14641.0,13686.0,12483.0,0.4100459814071655,0.4827638864517212,0.4184962511062622,0.3440176248550415,0.0,0.0,0.0,0.0,13564.0,14627.0,13688.0,12489.0,1.6409205198287964,0.2976457823739772,0.07185661699469964,-1.5564214582756128,0.003111068392172456,-0.004649256821721792,0.0
78,9,8.618937386017933e-07,2.2816464479546994e-05,1.9049071852350608e-05,0.0014245175989344716,0.0002512980718165636,-0.0008263331255875528,0.023866333067417145,0.03013898991048336,0.00011765534145524725,-0.00017044534615706652,0.009466920047998428,-4.1167677409248427e-05,0.0,0.0,0.0,-0.0015285784611478448,-0.0007868114043958485,-0.0,0.0,0.0,0.0,-0.0075048110447824,-0.007996919564902782,3.018254938069731e-05,13555.0,14641.0,13686.0,12483.0,0.4100459814071655,0.4827638864517212,0.4184962511062622,0.3440176248550415,0.0,0.0,0.0,0.0,13564.0,14627.0,13688.0,12489.0,1.6409205198287964,0.29871775717892135,0.07238155303754398,-1.5562134778168557,0.003111068392172456,-0.004649256821721792,0.0
83,5,3.99673699575942e-05,-1.2942184639541665e-06,-3.657261549960822e-05,0.005262463819235563,0.0029938011430203915,0.0063440692611038685,0.023866333067417145,0.03013898991048336,0.00011765534145524725,-0.00017044534615706652,0.009466920047998428,-4.1167677409248427e-05,0.0,0.0,0.0,-0.0015285784611478448,-0.0007868114043958485,-0.0,0.0,0.0,0.0,-0.0075048110447824,-0.007996919564902782,3.018254938069731e-05,13555.0,14641.0,13686.0,12483.0,0.4100459814071655,0.4827638864517212,0.4184962511062622,0.3440176248550415,0.0,0.0,0.0,0.0,13564.0,14627.0,13688.0,12489.0,1.6409205198287964,0.3012218713622134,0.07364942988010952,-1.5558082065589576,0.003111068392172456,-0.004649256821721792,0.0
88,5,1.5206947864498943e-05,-1.2443009836715646e-05,2.9361417546169832e-05,-0.0008662648615427315,0.0025353755336254835,-0.005374456290155649,0.0238442812114954,0.030088214203715324,0.00011880760575877503,-0.003762155072763562,-0.00421252241358161,0.0007894437876529992,0.0,0.0,0.0,-0.003591420827433467,0.004907159600406885,-0.0,0.0,0.0,0.0,-0.0068569546565413475,-0.011556616984307766,3.99292548536323e-06,13489.0,15023.0,14190.0,12515.0,0.4057806730270386,0.5097577571868896,0.4518381953239441,0.3458852171897888,0.0,0.0,0.0,0.0,13484.0,15031.0,14184.0,12519.0,1.6875321865081787,0.2965527611006299,0.06963716094316728,-1.5558766993256261,-0.019953982904553413,-0.01123376190662384,0.0
93,5,-1.390782131238666e-06,8.350431016879156e-06,2.0847553969360888e-05,-0.0023382336366921663,-0.0014810627326369286,-0.0011281187180429697,0.0238442812114954,0.030088214203715324,0.00011880760575877503,-0.003762155072763562,-0.00421252241358161,0.0007894437876529992,0.0,0.0,0.0,-0.003591420827433467,0.004907159600406885,-0.0,0.0,0.0,0.0,-0.0068569546565413475,-0.011556616984307766,3.99292548536323e-06,13489.0,15023.0,14190.0,12515.0,0.4057806730270386,0.5097577571868896,0.4518381953239441,0.3458852171897888,0.0,0.0,0.0,0.0,13484.0,15031.0,14184.0,12519.0,1.6875321865081787,0.3001883732850465,0.07369213913499871,-1.556415445247581,-0.019953982904553413,-0.01123376190662384,0.0
99,5,-2.3565675292047672e-05,1.8822938727680594e-06,4.056287434650585e-05,-0.003596280701458454,0.00018375139916315675,-0.0028170859441161156,0.02384231798350811,0.03010130673646927,0.0001304621691815555,0.0017375642200931907,0.001490097027271986,0.0017159496201202273,0.0,0.0,0.0,0.0018266820115968585,-0.00220206449739635,-0.0,0.0,0.0,0.0,-0.006984529551118612,-0.009507101029157639,6.47828055662103e-05,13391.0,14624.0,13787.0,12332.0,0.39956873655319214,0.4815502166748047,0.4250427484512329,0.3352150321006775,0.0,0.0,0.0,0.0,13380.0,14631.0,13787.0,12336.0,1.6539448499679565,0.3003687336928367,0.07501184001354634,-1.5569095899669505,0.008776106871664524,0.005600052420049906,0.0
105,7,-1.6017571397242136e-05,2.417175710434094e-05,7.379324961220846e-05,-0.0005327396211214364,-0.0026012349408119917,-0.005114479456096888,0.02384231798350811,0.03010130673646927,0.0001304621691815555,0.0017375642200931907,0.001490097027271986,0.0017159496201202273,0.0,0.0,0.0,0.0018266820115968585,-0.00220206449739635,-0.0,0.0,0.0,0.0,-0.006984529551118612,-0.009507101029157639,6.47828055662103e-05,13391.0,14624.0,13787.0,12332.0,0.39956873655319214,0.4815502166748047,0.4250427484512329,0.3352150321006775,0.0,0.0,0.0,0.0,13380.0,14631.0,13787.0,12336.0,1.6539448499679565,0.29761774442595323,0.07242912222951069,-1.5567579598123076,0.008776106871664524,0.005600052420049906,0.0
110,5,-8.666494068165775e-06,1.7066759028239176e-05,5.175135447643697e-05,0.0006690332666039467,-0.00018789435853250325,0.0005992356454953551,0.02384231798350811,0.03010130673646927,0.0001304621691815555,0.0017375642200931907,0.001490097027271986,0.0017159496201202273,0.0,0.0,0.0,0.0032269128132611513,-0.0005236740689724684,-0.0,0.0,0.0,0.0,-0.006984529551118612,-0.009507101029157639,6.47828055662103e-05,13391.0,14624.0,13787.0,12332.0,0.39956873655319214,0.4815502166748047,0.4250427484512329,0.3352150321006775,0.0,0.0,0.0,0.0,13340.0,14664.0,13733.0,12401.0,1.6531232595443726,0.3002087096663307,0.07486733986875865,-1.5566342507300104,0.002086007734760642,0.009887799620628357,0.0
115,5,-2.0748715542140417e-05,1.318304111919133e-05,4.502967931330204e-05,-0.0011822532396763563,0.00039088845369406044,0.0010462953941896558,0.02384231798350811,0.03010130673646927,0.0001304621691815555,0.0017375642200931907,0.001490097027271986,0.0017159496201202273,0.0,0.0,0.0,0.0032269128132611513,-0.0005236740689724684,-0.0,0.0,0.0,0.0,-0.006984529551118612,-0.009507101029157639,6.47828055662103e-05,13391.0,14624.0,13787.0,12332.0,0.39956873655319214,0.4815502166748047,0.4250427484512329,0.3352150321006775,0.0,0.0,0.0,0.0,13340.0,14664.0,13733.0,12401.0,1.6531232595443726,0.3002228460740059,0.07436328955823206,-1.5570733750399333,0.002086007734760642,0.009887799620628357,0.0
120,5,-1.023087497742381e-05,1.8711411030380987e-05,2.205171767855063e-05,0.0007892395951785147,-0.0005070490296930075,0.0031758733093738556,0.02383214607834816,0.030081989243626595,0.00012299470836296678,-0.0021430274937301874,0.0027317246422171593,-0.000689411535859108,0.0,0.0,0.0,-0.00045864141429774463,-0.0011517577804625034,-0.0,0.0,0.0,0.0,-0.0076653738506138325,-0.00918886810541153,-2.7925088943447918e-05,13409.0,14684.0,13686.0,12345.0,0.4007008373737335,0.48574385046958923,0.4185003340244293,0.3359754979610443,0.0,0.0,0.0,0.0,13411.0,14684.0,13683.0,12348.0,1.6386504173278809,0.30170932432434083,0.07663763106227288,-1.5574235891483714,0.004547777585685253,-0.0013930544955655932,-0.0
125,5,-1.9401188183110207e-05,2.6642015654942952e-05,1.6269945263047703e-05,-0.0007847416563890874,-0.0011544921435415745,0.001964162103831768,0.02383214607834816,0.030081989243626595,0.00012299470836296678,-0.0021430274937301874,0.0027317246422171593,-0.000689411535859108,0.0,0.0,0.0,-0.00045864141429774463,-0.0011517577804625034,-0.0,0.0,0.0,0.0,-0.0076653738506138325,-0.00918886810541153,-2.7925088943447918e-05,13409.0,14684.0,13686.0,12345.0,0.4007008373737335,0.48574385046958923,0.4185003340244293,0.3359754979610443,0.0,0.0,0.0,0.0,13411.0,14684.0,13683.0,12348.0,1.6386504173278809,0.3003872597334769,0.07460337152001169,-1.5569789843568944,0.004547777585685253,-0.0013930544955655932,-0.0
130,5,1.9183360564056784e-05,3.1382343877339736e-05,1.2188990694994573e-05,0.004316249396651983,-0.0010306363692507148,0.0012753793271258473,0.023858297616243362,0.030141832306981087,0.000126268932945095,0.0022793642710894346,-0.005618928000330925,0.0005687687080353498,0.0,0.0,0.0,0.001472125994041562,-0.0007715337560512125,-0.0,0.0,0.0,0.0,-0.007658794056624174,-0.009526067413389683,3.144241054542363e-05,13403.0,14693.0,13715.0,12309.0,0.40033531188964844,0.4863882064819336,0.42034637928009033,0.333850622177124,0.0,0.0,0.0,0.0,13409.0,14684.0,13729.0,12297.0,1.6404392719268799,0.2995127050921989,0.07251797913864821,-1.5562123785622866,0.0030497657135128975,0.004476240370422602,-0.0
135,5,-1.6990765288937837e-05,3.2821782951941714e-05,3.07978261844255e-05,-0.002614395460113883,-0.0005849871668033302,-0.001722908578813076,0.023858297616243362,0.030141832306981087,0.000126268932945095,0.0022793642710894346,-0.005618928000330925,0.0005687687080353498,0.0,0.0,0.0,0.0007748970529064536,-0.002484446857124567,-0.0,0.0,0.0,0.0,-0.007658794056624174,-0.009526067413389683,3.144241054542363e-05,13403.0,14693.0,13715.0,12309.0,0.40033531188964844,0.4863882064819336,0.42034637928009033,0.333850622177124,0.0,0.0,0.0,0.0,13409.0,14684.0,13729.0,12297.0,1.6533176898956299,0.2983653382419229,0.07354752221657558,-1.5569561028804622,0.009897769428789616,0.0023747002705931664,0.0
141,5,3.963336712331511e-05,2.9416853067232296e-05,-4.817775698029436e-05,0.005749137606471777,0.00017459677474107593,0.008787906728684902,0.023849520832300186,0.03014204651117325,0.0001124331247410737,-0.0009654291206970811,0.001253012684173882,0.001232287846505642,0.0,0.0,0.0,0.0007748970529064536,-0.002484446857124567,-0.0,0.0,0.0,0.0,-0.006639726459980011,-0.009717927314341068,-6.67571002850309e-05,13365.0,14690.0,13850.0,12427.0,0.3978895843029022,0.4861484467983246,0.4291568100452423,0.3407500088214874,0.0,0.0,0.0,0.0,13367.0,14629.0,13821.0,12515.0,1.6533176898956299,0.30132608482213624,0.07303867480420652,-1.555615361456779,0.009897769428789616,0.0023747002705931664,0.0
146,5,-2.1523321265704e-05,9.131364095082972e-06,4.4116928620496765e-05,-0.005039147567003965,0.00250409753061831,-0.0075601995922625065,0.023849520832300186,0.03014204651117325,0.0001124331247410737,-0.0009654291206970811,0.001253012684173882,0.001232287846505642,0.0,0.0,0.0,0.0007748970529064536,-0.002484446857124567,-0.0,0.0,0.0,0.0,-0.006639726459980011,-0.009717927314341068,-6.67571002850309e-05,13365.0,14690.0,13850.0,12427.0,0.3978895843029022,0.4861484467983246,0.4291568100452423,0.3407500088214874,0.0,0.0,0.0,0.0,13367.0,14629.0,13821.0,12515.0,1.6533176898956299,0.2975219596803958,0.07208817068007409,-1.5563877662871524,0.009897769428789616,0.0023747002705931664,0.0
151,5,1.86062163720635e-06,1.8365697542321868e-05,5.192110256757587e-05,0.0007904141093604267,-0.00010648098395904526,-0.003960580565035343,0.023849520832300186,0.03014204651117325,0.0001124331247410737,-0.0009654291206970811,0.001253012684173882,0.001232287846505642,0.0,0.0,0.0,-0.002994016045704484,-0.0046891407109797,-0.0,0.0,0.0,0.0,-0.006639726459980011,-0.009717927314341068,-6.67571002850309e-05,13365.0,14690.0,13850.0,12427.0,0.3978895843029022,0.4861484467983246,0.4291568100452423,0.3407500088214874,0.0,0.0,0.0,0.0,13367.0,14629.0,13821.0,12515.0,1.6829386949539185,0.29697541811507494,0.07019648033280884,-1.5557841952958187,0.019015595316886902,-0.009339632466435432,0.0
156,5,-1.9865829017362557e-05,1.0739228855527472e-05,4.6505636419169605e-05,-0.0022910083644092083,0.0008725837687961757,-0.0009343763813376427,0.023839175701141357,0.030097194015979767,0.00012784957652911544,-0.002290512900799513,0.00795331597328186,0.0016273610526695848,0.0,0.0,0.0,-0.002994016045704484,-0.0046891407109797,-0.0,0.0,0.0,0.0,-0.006764509715139866,-0.009309793822467327,-5.1598377467598766e-05,13321.0,14648.0,13738.0,12418.0,0.39515092968940735,0.48319849371910095,0.42185381054878235,0.34023603796958923,0.0,0.0,0.0,0.0,13330.0,14643.0,13740.0,12413.0,1.6829386949539185,0.2993987200037382,0.07329618908699768,-1.5567796099652613,0.019015595316886902,-0.009339632466435432,0.0
161,5,-2.604572000564076e-05,5.094252173876157e-06,6.490972737083212e-05,-0.001657990156672895,0.001026430749334395,-0.0025822415482252836,0.023839175701141357,0.030097194015979767,0.00012784957652911544,-0.002290512900799513,0.00795331597328186,0.0016273610526695848,0.0,0.0,0.0,-0.0010498567717149854,-0.0021872795186936855,-0.0,0.0,0.0,0.0,-0.006764509715139866,-0.009309793822467327,-5.1598377467598766e-05,13321.0,14648.0,13738.0,12418.0,0.39515092968940735,0.48319849371910095,0.42185381054878235,0.34023603796958923,0.0,0.0,0.0,0.0,13330.0,14643.0,13740.0,12413.0,1.6508773565292358,0.3004898770045572,0.07524723090190562,-1.557401305454272,0.008701025508344173,-0.003212575102224946,0.0
166,5,4.045828973175958e-06,1.9825969502562657e-05,1.821372461563442e-05,0.0029477898497134447,-0.001357233733870089,0.0045706238597631454,0.023821048438549042,0.030134715139865875,0.00012991850962862372,-0.005117260385304689,-0.004204459488391876,0.0004456934693735093,0.0,0.0,0.0,-0.0010498567717149854,-0.0021872795186936855,-0.0,0.0,0.0,0.0,-0.006911453790962696,-0.00990147702395916,4.433923095348291e-05,13369.0,14715.0,13851.0,12380.0,0.39814963936805725,0.4879436790943146,0.4292498528957367,0.33797451853752136,0.0,0.0,0.0,0.0,13386.0,14702.0,13857.0,12370.0,1.6508773565292358,0.29931741728979405,0.07309901386051489,-1.556556734078891,0.008701025508344173,-0.003212575102224946,0.0
171,5,-3.534132247295929e-06,3.0440074624493718e-05,2.5859331799438223e-05,0.00026952053303830326,-0.001816586242057383,0.0009107767255045474,0.023821048438549042,0.030134715139865875,0.00012991850962862372,-0.005117260385304689,-0.004204459488391876,0.0004456934693735093,0.0,0.0,0.0,0.0016909214900806546,0.0027708937413990498,-0.0,0.0,0.0,0.0,-0.006911453790962696,-0.00990147702395916,4.433923095348291e-05,13369.0,14715.0,13851.0,12380.0,0.39814963936805725,0.4879436790943146,0.4292498528957367,0.33797451853752136,0.0,0.0,0.0,0.0,13386.0,14702.0,13857.0,12370.0,1.6588692665100098,0.2999159183412561,0.07309108623298846,-1.5562151005503386,-0.011075995862483978,0.005199287086725235,-0.0
176,5,-3.56085956809693e-06,3.2499799999641255e-05,2.620193117763847e-05,0.00010460093471920118,-0.0009738015942275524,0.00032319864840246737,0.023830944672226906,0.03009987063705921,0.00013046777166891843,0.005330095533281565,0.014812273904681206,0.013781968504190445,0.0,0.0,0.0,0.0016909214900806546,0.0027708937413990498,-0.0,0.0,0.0,0.0,-0.007514500059187412,-0.009823308326303959,0.0002269735705340281,13651.0,14831.0,13981.0,12291.0,0.41618746519088745,0.49610579013824463,0.43780630826950073,0.3328391909599304,0.0,0.0,0.0,0.0,13493.0,14661.0,13871.0,12243.0,1.6588692665100098,0.299777159396053,0.07417380628716838,-1.5567057369300341,-0.011075995862483978,0.005199287086725235,-0.0
181,5,3.278582653365447e-06,2.3008424250292592e-05,8.54271183925448e-06,0.0008625734481029212,0.0007494446472264826,0.0022483859211206436,0.023830944672226906,0.03009987063705921,0.00013046777166891843,0.005330095533281565,0.014812273904681206,0.013781968504190445,0.0,0.0,0.0,0.001263270154595375,9.440099529456347e-05,-0.0,0.0,0.0,0.0,-0.007514500059187412,-0.009823308326303959,0.0002269735705340281,13651.0,14831.0,13981.0,12291.0,0.41618746519088745,0.49610579013824463,0.43780630826950073,0.3328391909599304,0.0,0.0,0.0,0.0,13493.0,14661.0,13871.0,12243.0,1.6361923217773438,0.29914221264154933,0.07329624460334482,-1.5571187548704353,-0.00037218810757622123,0.003831236157566309,-0.0
186,5,5.2730874813278206e-06,9.553835297992919e-06,2.5491504857200198e-05,0.0005843699327670038,0.0019143284298479557,-0.001134500838816166,0.023839028552174568,0.03005082905292511,0.00018783097038976848,-0.0056630875915288925,0.005268511362373829,-0.02484671026468277,0.0,0.0,0.0,0.001263270154595375,9.440099529456347e-05,-0.0,0.0,0.0,0.0,-0.007606633938848972,-0.0098045002669096,-0.0002329727722099051,13459.0,14670.0,13749.0,12544.0,0.403849720954895,0.48478955030441284,0.42257964611053467,0.34765034914016724,0.0,0.0,0.0,0.0,13322.0,14827.0,13690.0,12434.0,1.6361923217773438,0.29936121392635234,0.07407904708570455,-1.5563773391469744,-0.00037218810757622123,0.003831236157566309,-0.0
191,5,2.1275207018334186e-06,3.427351111895405e-05,3.1964638765202835e-05,-0.00014372002624440938,-0.002200629562139511,-0.001230576541274786,0.023839028552174568,0.03005082905292511,0.00018783097038976848,-0.0056630875915288925,0.005268511362373829,-0.02484671026468277,0.0,0.0,0.0,0.0027624156791716814,-0.0001328375074081123,-0.0,0.0,0.0,0.0,-0.007606633938848972,-0.0098045002669096,-0.0002329727722099051,13459.0,14670.0,13749.0,12544.0,0.403849720954895,0.48478955030441284,0.42257964611053467,0.34765034914016724,0.0,0.0,0.0,0.0,13322.0,14827.0,13690.0,12434.0,1.6486717462539673,0.3002611256967031,0.07497211298748738,-1.5574060096998816,0.0005277219461277127,0.008441716432571411,0.0
196,5,1.1253319826209918e-05,3.2726311474107206e-05,2.4569297238485888e-05,0.0010376079007983208,-0.0006945878849364817,0.00039521040162071586,0.023881010711193085,0.030165111646056175,-2.2671361875836737e-05,0.003405980532988906,0.012043705210089684,-0.07291291654109955,0.0,0.0,0.0,0.0027624156791716814,-0.0001328375074081123,-0.0,0.0,0.0,0.0,-0.006575045641511679,-0.008403767831623554,-0.0008161774603649974,12582.0,15261.0,12957.0,13190.0,0.34989118576049805,0.5269275903701782,0.372475802898407,0.3868977427482605,0.0,0.0,0.0,0.0,13155.0,14906.0,13467.0,12889.0,1.6486717462539673,0.3009200606441785,0.0746588754722554,-1.556824137029081,0.0005277219461277127,0.008441716432571411,0.0
201,5,2.118234260706231e-05,2.846286224666983e-05,3.101597394561395e-05,0.0016065258532762527,0.00023377855541184545,-0.0006155171431601048,0.023881010711193085,0.030165111646056175,-2.2671361875836737e-05,0.003405980532988906,0.012043705210089684,-0.07291291654109955,0.0,0.0,0.0,0.0027624156791716814,-0.0001328375074081123,-0.0,0.0,0.0,0.0,-0.006575045641511679,-0.008403767831623554,-0.0008161774603649974,12582.0,15261.0,12957.0,13190.0,0.34989118576049805,0.5269275903701782,0.372475802898407,0.3868977427482605,0.0,0.0,0.0,0.0,13155.0,14906.0,13467.0,12889.0,1.6486717462539673,0.2987422767599565,0.0722579870106211,-1.5566474134808008,0.0005277219461277127,0.008441716432571411,0.0
206,5,2.8906519219162874e-05,2.0489520466071554e-05,-3.288596190031967e-06,0.0015695116017013788,0.001050312421284616,0.003870341693982482,0.023881010711193085,0.030165111646056175,-2.2671361875836737e-05,0.003405980532988906,0.012043705210089684,-0.07291291654109955,0.0,0.0,0.0,-0.00023621962463948876,0.0015514885308220983,-0.0,0.0,0.0,0.0,-0.00726768234744668,-0.009660308249294758,1.7553154975757934e-05,13087.0,14896.0,13614.0,12646.0,0.3805220425128937,0.5006859302520752,0.41380324959754944,0.3536604940891266,0.0,0.0,0.0,0.0,13349.0,14657.0,13741.0,12301.0,1.6425130367279053,0.2985440047138605,0.07134448852740098,-1.5561468427517244,-0.006140575744211674,-0.0007191729382611811,0.0
212,5,5.728241376345977e-06,1.3957084775029216e-05,-2.4627986931591295e-05,-0.002153588691726327,0.0012040173169225454,0.00410886388272047,0.023881010711193085,0.030165111646056175,-2.2671361875836737e-05,0.003405980532988906,0.012043705210089684,-0.07291291654109955,0.0,0.0,0.0,-0.00023621962463948876,0.0015514885308220983,-0.0,0.0,0.0,0.0,-0.00726768234744668,-0.009660308249294758,1.7553154975757934e-05,13087.0,14896.0,13614.0,12646.0,0.3805220425128937,0.5006859302520752,0.41380324959754944,0.3536604940891266,0.0,0.0,0.0,0.0,13349.0,14657.0,13741.0,12301.0,1.6425130367279053,0.30108468317917697,0.07334927243512984,-1.5561763144726013,-0.006140575744211674,-0.0007191729382611811,0.0
217,5,-2.7744417820940726e-05,6.533602572744712e-06,4.842419730266556e-05,-0.005508516915142536,-2.889491406676825e-05,-0.007146333809942007,0.023881176486611366,0.030236680060625076,-0.00016876289737410843,-0.0007669089827686548,0.001536427065730095,-0.010367481969296932,0.0,0.0,0.0,-0.0014503007987514138,-0.0020226151682436466,-0.0,0.0,0.0,0.0,-0.006314348895102739,-0.009172909893095493,-1.0702283361752052e-05,13368.0,14692.0,13620.0,12481.0,0.39807868003845215,0.48633623123168945,0.41421401500701904,0.34388411045074463,0.0,0.0,0.0,0.0,13358.0,14621.0,13807.0,12474.0,1.6506407260894775,0.29786674314539247,0.07150653491997228,-1.5570674859271656,0.008044831454753876,-0.004437301307916641,0.0
222,5,-4.9548740207683295e-05,1.893226544780191e-05,0.00012123938358854502,-0.004819925408810377,-0.0014993975637480617,-0.011596355587244034,0.023881176486611366,0.030236680060625076,-0.00016876289737410843,-0.0007669089827686548,0.001536427065730095,-0.010367481969296932,0.0,0.0,0.0,-0.0014503007987514138,-0.0020226151682436466,-0.0,0.0,0.0,0.0,-0.006314348895102739,-0.009172909893095493,-1.0702283361752052e-05,13368.0,14692.0,13620.0,12481.0,0.39807868003845215,0.48633623123168945,0.41421401500701904,0.34388411045074463,0.0,0.0,0.0,0.0,13358.0,14621.0,13807.0,12474.0,1.6506407260894775,0.2996045565045372,0.07590354092887655,-1.5585156017803572,0.008044831454753876,-0.004437301307916641,0.0
227,5,-1.8858720068237744e-05,4.622871074388968e-06,2.124241837009322e-05,0.0017548323376104236,0.0011173683451488614,0.007361093536019325,0.023881176486611366,0.030236680060625076,-0.00016876289737410843,-0.0007669089827686548,0.001536427065730095,-0.010367481969296932,0.0,0.0,0.0,0.0018419775879010558,-0.004538669250905514,-0.0,0.0,0.0,0.0,-0.007188820745795965,-0.009466667659580708,-0.0003709274751599878,13074.0,14972.0,13417.0,12677.0,0.3796917796134949,0.5061010718345642,0.40119820833206177,0.3555219769477844,0.0,0.0,0.0,0.0,13230.0,14799.0,13609.0,12513.0,1.677666187286377,0.3021286242577495,0.07521431970837289,-1.5568002710326707,0.018347790464758873,0.005727934185415506,0.0
232,5,-1.8858720068237744e-05,4.622871074388968e-06,2.124241837009322e-05,0.0017548323376104236,0.0011173683451488614,0.007361093536019325,0.023881176486611366,0.030236680060625076,-0.00016876289737410843,-0.0007669089827686548,0.001536427065730095,-0.010367481969296932,0.0,0.0,0.0,0.0018419775879010558,-0.004538669250905514,-0.0,0.0,0.0,0.0,-0.007188820745795965,-0.009466667659580708,-0.0003709274751599878,13074.0,14972.0,13417.0,12677.0,0.3796917796134949,0.5061010718345642,0.40119820833206177,0.3555219769477844,0.0,0.0,0.0,0.0,13230.0,14799.0,13609.0,12513.0,1.677666187286377,0.3021286242577495,0.07521431970837289,-1.5568002710326707,0.018347790464758873,0.005727934185415506,0.0
237,5,-4.1165927541442215e-05,2.0904448319924995e-05,0.0001373524428345263,-0.0037947518285363913,-0.0008910764008760452,-0.012449713423848152,0.02400224655866623,0.03040510229766369,-0.00010626567382132635,-0.039092980325222015,0.00927894189953804,0.02003897912800312,0.0,0.0,0.0,-0.0013641759287565947,0.0016322308219969273,-0.0,0.0,0.0,0.0,-0.007741935551166534,-0.009895764291286469,0.0015110361855477095,13815.0,14313.0,14224.0,11881.0,0.42689135670661926,0.46016690135002136,0.4541108310222626,0.30947163701057434,0.0,0.0,0.0,0.0,13989.0,14218.0,14334.0,11655.0,1.6466175317764282,0.30074670558178845,0.0769349039965699,-1.5581519502373569,-0.006476279813796282,-0.004163623321801424,-0.0
242,5,-5.994468665448949e-05,4.053128941450268e-05,0.00018074690888170153,-0.0037713516503572464,-0.002711651613935828,-0.010187219828367233,0.02400224655866623,0.03040510229766369,-0.00010626567382132635,-0.039092980325222015,0.00927894189953804,0.02003897912800312,0.0,0.0,0.0,-0.0013641759287565947,0.0016322308219969273,-0.0,0.0,0.0,0.0,-0.007741935551166534,-0.009895764291286469,0.0015110361855477095,13815.0,14313.0,14224.0,11881.0,0.42689135670661926,0.46016690135002136,0.4541108310222626,0.30947163701057434,0.0,0.0,0.0,0.0,13989.0,14218.0,14334.0,11655.0,1.6466175317764282,0.2994613575174471,0.07534113163419412,-1.557725267341731,-0.006476279813796282,-0.004163623321801424,-0.0
247,5,-2.9974888093420304e-05,3.436257611610927e-05,0.00018232522415928543,0.0020878352224826813,-0.00034441507887095213,-0.004264286253601313,0.02400224655866623,0.03040510229766369,-0.00010626567382132635,-0.039092980325222015,0.00927894189953804,0.02003897912800312,0.0,0.0,0.0,0.0033496359828859568,-0.0035882547963410616,-0.0,0.0,0.0,0.0,-0.006561769638210535,-0.009510412812232971,0.00022151230950839818,13621.0,14602.0,14121.0,12349.0,0.4142722487449646,0.48000210523605347,0.44721001386642456,0.3361818194389343,0.0,0.0,0.0,0.0,13554.0,14680.0,14011.0,12456.0,1.6739001274108887,0.29890565741528813,0.07533672630999148,-1.5572067013451647,0.01447309274226427,0.010392840020358562,0.0
252,5,-7.077402551658452e-05,6.031442171661183e-05,0.00022017171431798488,-0.004060762468725443,-0.003251987509429455,-0.00624729273840785,0.02400224655866623,0.03040510229766369,-0.00010626567382132635,-0.039092980325222015,0.00927894189953804,0.02003897912800312,0.0,0.0,0.0,0.0033496359828859568,-0.0035882547963410616,-0.0,0.0,0.0,0.0,-0.006561769638210535,-0.009510412812232971,0.00022151230950839818,13621.0,14602.0,14121.0,12349.0,0.4142722487449646,0.48000210523605347,0.44721001386642456,0.3361818194389343,0.0,0.0,0.0,0.0,13554.0,14680.0,14011.0,12456.0,1.6739001274108887,0.3009232972296276,0.07756030350683175,-1.5574496758081704,0.01447309274226427,0.010392840020358562,0.0
258,5,-0.00010969197319354862,5.611431333818473e-05,0.0003079384914599359,-0.006294459104537964,-0.0007967818528413773,-0.01303093135356903,0.02324417233467102,0.0294282678514719,-0.00015440129209309816,-0.10620992630720139,0.07495063543319702,-0.028932075947523117,0.0,0.0,0.0,0.004023616202175617,-0.0038585185538977385,-0.0,0.0,0.0,0.0,-0.006362507119774818,-0.007072960026562214,-0.0008691850816830993,12997.0,14890.0,13127.0,13214.0,0.37495020031929016,0.5002710819244385,0.38299527764320374,0.38840100169181824,0.0,0.0,0.0,0.0,13167.0,14783.0,13318.0,12974.0,1.6798204183578491,0.3007019879241548,0.0805229231869017,-1.558164246328194,0.01561819203197956,0.01252811774611473,0.0
263,5,-0.00014374239253811538,9.243165550287813e-05,0.00035203047445975244,-0.006603832822293043,-0.004676794167608023,-0.01050341036170721,0.02324417233467102,0.0294282678514719,-0.00015440129209309816,-0.10620992630720139,0.07495063543319702,-0.028932075947523117,0.0,0.0,0.0,0.004023616202175617,-0.0038585185538977385,-0.0,0.0,0.0,0.0,-0.006362507119774818,-0.007072960026562214,-0.0008691850816830993,12997.0,14890.0,13127.0,13214.0,0.37495020031929016,0.5002710819244385,0.38299527764320374,0.38840100169181824,0.0,0.0,0.0,0.0,13167.0,14783.0,13318.0,12974.0,1.6798204183578491,0.3021874815292521,0.08190716497655075,-1.5592321054151443,0.01561819203197956,0.01252811774611473,0.0
268,5,-0.0001581647084094584,0.00011636642011580989,0.000421324250055477,-0.004372211638838053,-0.004742889199405909,-0.01251661591231823,0.022192146629095078,0.02868315950036049,0.00016281379794236273,-0.17822551727294922,0.07107818871736526,0.008915146812796593,0.0,0.0,0.0,0.00569436140358448,-0.006202652584761381,-0.0,0.0,0.0,0.0,-0.0034747691825032234,-0.007417922839522362,0.0016456885496154428,13709.0,14053.0,14429.0,12469.0,0.41996893286705017,0.4426438510417938,0.4681037366390228,0.34318360686302185,0.0,0.0,0.0,0.0,14019.0,13809.0,14571.0,12227.0,1.7099461555480957,0.3000477729588772,0.08084640737534797,-1.5592619968656192,0.0255565345287323,0.018048111349344254,0.0
273,5,-0.00024916473194025457,0.0001446552196284756,0.0005133413942530751,-0.01266888715326786,-0.005291811190545559,-0.016048705205321312,0.022192146629095078,0.02868315950036049,0.00016281379794236273,-0.17822551727294922,0.07107818871736526,0.008915146812796593,0.0,0.0,0.0,0.00569436140358448,-0.006202652584761381,-0.0,0.0,0.0,0.0,-0.0034747691825032234,-0.007417922839522362,0.0016456885496154428,13709.0,14053.0,14429.0,12469.0,0.41996893286705017,0.4426438510417938,0.4681037366390228,0.34318360686302185,0.0,0.0,0.0,0.0,14019.0,13809.0,14571.0,12227.0,1.7099461555480957,0.30014020603500374,0.08477233075111837,-1.5603945749861765,0.0255565345287323,0.018048111349344254,0.0
278,5,-0.00025047725648619235,0.0001463087392039597,0.0005436941282823682,-0.005225059576332569,-0.0023151468485593796,-0.010061810724437237,0.020618248730897903,0.027643604204058647,5.246629370958544e-05,-0.08612582832574844,0.08420337736606598,0.041853174567222595,0.0,0.0,0.0,0.006300576962530613,-0.011477213352918625,-0.0,0.0,0.0,0.0,-0.0031898976303637028,-0.007867970503866673,-0.0005465390859171748,13681.0,14190.0,14256.0,12644.0,0.41813671588897705,0.45184653997421265,0.4562665820121765,0.3535705804824829,0.0,0.0,0.0,0.0,12970.0,14793.0,13682.0,13317.0,1.7675491571426392,0.29925040290987104,0.08382830438976058,-1.5598126609155059,0.04888118430972099,0.02064216136932373,0.0
283,5,-0.00024752618628554046,0.00014240048767533153,0.0005057520465925336,-0.0017358954064548016,-0.0004570683522615582,0.0005283274804241955,0.020618248730897903,0.027643604204058647,5.246629370958544e-05,-0.08612582832574844,0.08420337736606598,0.041853174567222595,0.0,0.0,0.0,0.006300576962530613,-0.011477213352918625,-0.0,0.0,0.0,0.0,-0.0031898976303637028,-0.007867970503866673,-0.0005465390859171748,13681.0,14190.0,14256.0,12644.0,0.41813671588897705,0.45184653997421265,0.4562665820121765,0.3535705804824829,0.0,0.0,0.0,0.0,12970.0,14793.0,13682.0,13317.0,1.7675491571426392,0.2993154735475415,0.08192560941381222,-1.5588639607728418,0.04888118430972099,0.02064216136932373,0.0
288,5,-0.0003419425047468394,0.00017146836034953594,0.0005704140639863908,-0.012024316936731339,-0.0036709720734506845,-0.00754811055958271,0.020269325003027916,0.026965510100126266,0.00018056202679872513,-0.037920594215393066,0.09638623893260956,-0.03970963507890701,0.0,0.0,0.0,0.0008183388272300363,-0.0019827501382678747,-0.0,0.0,0.0,0.0,-0.004030343610793352,-0.007987892255187035,-0.000520314380992204,13148.0,14942.0,13711.0,13424.0,0.38425612449645996,0.5039196014404297,0.4201176166534424,0.40165281295776367,0.0,0.0,0.0,0.0,13563.0,14604.0,14158.0,12909.0,1.6481380462646484,0.2996879475665275,0.08581313371885776,-1.5607292187904536,0.007874319329857826,0.0024999722372740507,-0.0
293,5,-0.0002849432057701051,0.0001871826680144295,0.0004809395468328148,0.0020301921758800745,-0.003354106331244111,0.0077176946215331554,0.020269325003027916,0.026965510100126266,0.00018056202679872513,-0.037920594215393066,0.09638623893260956,-0.03970963507890701,0.0,0.0,0.0,0.0008183388272300363,-0.0019827501382678747,-0.0,0.0,0.0,0.0,-0.004030343610793352,-0.007987892255187035,-0.000520314380992204,13148.0,14942.0,13711.0,13424.0,0.38425612449645996,0.5039196014404297,0.4201176166534424,0.40165281295776367,0.0,0.0,0.0,0.0,13563.0,14604.0,14158.0,12909.0,1.6481380462646484,0.29834793252895403,0.08238707147656212,-1.5589892588856094,0.007874319329857826,0.0024999722372740507,-0.0
298,5,-0.0003354905638843775,0.00017408154963050038,0.0004322327731642872,-0.005253608804196119,0.00023049261653795838,0.008931891992688179,0.019910376518964767,0.026168275624513626,0.0003806957683991641,-0.04343253746628761,0.04624805226922035,0.04381583258509636,0.0,0.0,0.0,0.004407529253512621,0.0015049766516312957,-0.0,0.0,0.0,0.0,-0.004144197329878807,-0.00991347711533308,0.0012877605622634292,14064.0,14500.0,14950.0,12528.0,0.4433797597885132,0.47294914722442627,0.5045239329338074,0.35159730911254883,0.0,0.0,0.0,0.0,14111.0,14500.0,14899.0,12536.0,1.6660313606262207,0.2972508432462284,0.08026913647311465,-1.5594457988934245,-0.006041718181222677,0.013610822148621082,-0.0
303,5,-0.00042918071267195046,0.0001646275632083416,0.0004904157249256968,-0.013344259932637215,0.0012266747653484344,-0.0034091975539922714,0.019910376518964767,0.026168275624513626,0.0003806957683991641,-0.04343253746628761,0.04624805226922035,0.04381583258509636,0.0,0.0,0.0,0.004407529253512621,0.0015049766516312957,-0.0,0.0,0.0,0.0,-0.004144197329878807,-0.00991347711533308,0.0012877605622634292,14064.0,14500.0,14950.0,12528.0,0.4433797597885132,0.47294914722442627,0.5045239329338074,0.35159730911254883,0.0,0.0,0.0,0.0,14111.0,14500.0,14899.0,12536.0,1.6660313606262207,0.29577836299534854,0.08169882718548668,-1.560235402093261,-0.006041718181222677,0.013610822148621082,-0.0
308,5,-0.00048683289787732065,0.00015161653573159128,0.0004855289589613676,-0.01225596759468317,0.002051993040367961,-0.000777267967350781,0.01973307505249977,0.025658752769231796,1.5758845620439388e-05,-0.005181015934795141,0.04616151750087738,-0.019001439213752747,0.0,0.0,0.0,-0.0011273452546447515,-0.012314626015722752,-0.0,0.0,0.0,0.0,-0.0053983717225492,-0.006872577592730522,-0.0013346277410164475,13090.0,14775.0,13338.0,13065.0,0.38067060708999634,0.4921141266822815,0.3962143063545227,0.3791390061378479,0.0,0.0,0.0,0.0,12934.0,14880.0,13192.0,13247.0,1.766158938407898,0.29561676355031496,0.07949953136352579,-1.5594640433866425,0.05240728706121445,-0.003690584097057581,0.0
313,5,-0.0005153343663550913,0.00015114955021999776,0.0005021945107728243,-0.008322561159729958,0.0008768358384259045,-0.0023107745219022036,0.01973307505249977,0.025658752769231796,1.5758845620439388e-05,-0.005181015934795141,0.04616151750087738,-0.019001439213752747,0.0,0.0,0.0,-0.0011273452546447515,-0.012314626015722752,-0.0,0.0,0.0,0.0,-0.0053983717225492,-0.006872577592730522,-0.0013346277410164475,13090.0,14775.0,13338.0,13065.0,0.38067060708999634,0.4921141266822815,0.3962143063545227,0.3791390061378479,0.0,0.0,0.0,0.0,12934.0,14880.0,13192.0,13247.0,1.766158938407898,0.2952943823251185,0.08021232795057819,-1.559691592726824,0.05240728706121445,-0.003690584097057581,0.0
318,5,-0.0005469282623380423,0.00013947476691100746,0.0004984837141819298,-0.007120294496417046,0.0017517084488645196,-0.0004790091479662806,0.019556529819965363,0.02534242905676365,-0.00014187792839948088,-0.03970198705792427,0.01942041516304016,-0.07306859642267227,0.0,0.0,0.0,-0.0007702985894866288,-0.008227848447859287,-0.0,0.0,0.0,0.0,-0.004195623565465212,-0.007074509747326374,-0.00022852179245091975,12902.0,14892.0,13305.0,13436.0,0.3691474497318268,0.50041663646698,0.39408227801322937,0.4023849666118622,0.0,0.0,0.0,0.0,13347.0,14492.0,13785.0,12947.0,1.7175283432006836,0.2961587328232568,0.07964627221211472,-1.5585491714080053,0.034051563590765,-0.002452288055792451,0.0
323,5,-0.0006515898276120424,0.00013892717834096402,0.0005586910410784185,-0.0154075026512146,0.0007663928554393351,-0.007416484411805868,0.019556529819965363,0.02534242905676365,-0.00014187792839948088,-0.03970198705792427,0.01942041516304016,-0.07306859642267227,0.0,0.0,0.0,-0.0007702985894866288,-0.008227848447859287,-0.0,0.0,0.0,0.0,-0.004195623565465212,-0.007074509747326374,-0.00022852179245091975,12902.0,14892.0,13305.0,13436.0,0.3691474497318268,0.50041663646698,0.39408227801322937,0.4023849666118622,0.0,0.0,0.0,0.0,13347.0,14492.0,13785.0,12947.0,1.7175283432006836,0.2958220969334799,0.0803659516241571,-1.5593580368282314,0.034051563590765,-0.002452288055792451,0.0
329,5,-0.0007241915445774794,0.00012569088721647859,0.0005834267940372229,-0.014875208027660847,0.0018949129153043032,-0.005934887565672398,0.019448209553956985,0.025277338922023773,-0.0002136660914402455,0.005269762594252825,0.008199724368751049,0.03814397379755974,0.0,0.0,0.0,-0.0006346122827380896,-0.014233921654522419,-0.0,0.0,0.0,0.0,-0.006131492555141449,-0.011514810845255852,0.0003398284607101232,14034.0,14850.0,14725.0,12394.0,0.4413338899612427,0.4974374771118164,0.48860758543014526,0.3387799859046936,0.0,0.0,0.0,0.0,12706.0,15623.0,13347.0,13553.0,1.789398193359375,0.29551045675777815,0.08002472481561533,-1.5598267595076225,0.061371780931949615,-0.0021048637572675943,0.0
334,5,-0.0007710068603046238,0.00011787033872678876,0.0005551402573473752,-0.011567925103008747,0.0016964309616014361,0.0010204324498772621,0.019448209553956985,0.025277338922023773,-0.0002136660914402455,0.005269762594252825,0.008199724368751049,0.03814397379755974,0.0,0.0,0.0,-0.0006346122827380896,-0.014233921654522419,-0.0,0.0,0.0,0.0,-0.006131492555141449,-0.011514810845255852,0.0003398284607101232,14034.0,14850.0,14725.0,12394.0,0.4413338899612427,0.4974374771118164,0.48860758543014526,0.3387799859046936,0.0,0.0,0.0,0.0,12706.0,15623.0,13347.0,13553.0,1.789398193359375,0.29813003271656086,0.08174946495120956,-1.558695775865199,0.061371780931949615,-0.0021048637572675943,0.0
339,5,-0.0008463690173812211,0.00010639308311510831,0.000618686550296843,-0.013670622371137142,0.002055843360722065,-0.007217385806143284,0.019448209553956985,0.025277338922023773,-0.0002136660914402455,0.005269762594252825,0.008199724368751049,0.03814397379755974,0.0,0.0,0.0,-0.0017555032391101122,-0.011269315145909786,-0.0,0.0,0.0,0.0,-0.006131492555141449,-0.011514810845255852,0.0003398284607101232,14034.0,14850.0,14725.0,12394.0,0.4413338899612427,0.4974374771118164,0.48860758543014526,0.3387799859046936,0.0,0.0,0.0,0.0,12706.0,15623.0,13347.0,13553.0,1.7541513442993164,0.29457437588345,0.07996365196155318,-1.5592850231404933,0.0476328581571579,-0.005707906559109688,-0.0
344,5,-0.0008766340906731784,0.00011099325638497248,0.0005493984208442271,-0.009100058116018772,0.00027031617355532944,0.005427622701972723,0.019372235983610153,0.025087470188736916,-0.0006625851383432746,-0.022383589297533035,0.024421969428658485,-0.04432046785950661,0.0,0.0,0.0,-0.0017555032391101122,-0.011269315145909786,-0.0,0.0,0.0,0.0,-0.005816947668790817,-0.011664126068353653,0.000849918695166707,12866.0,15466.0,13525.0,13407.0,0.36692145466804504,0.5419431328773499,0.40809646248817444,0.40056732296943665,0.0,0.0,0.0,0.0,14020.0,14949.0,14834.0,12555.0,1.7541513442993164,0.2972932784870632,0.08034831772454708,-1.5595567738856526,0.0476328581571579,-0.005707906559109688,-0.0
349,5,-0.0009268226567655802,0.00010240470874123275,0.000560740299988538,-0.009662655182182789,0.0011387522099539638,0.0008100278209894896,0.019175294786691666,0.025165071710944176,-0.00039616867434233427,-0.009586979635059834,0.03722734749317169,-0.04659828916192055,0.0,0.0,0.0,-0.00012390855408739299,-0.009344776161015034,-0.0,0.0,0.0,0.0,-0.006437650881707668,-0.009479192085564137,-0.0007479693158529699,13554.0,15357.0,14414.0,13055.0,0.4099224805831909,0.5338991284370422,0.46707212924957275,0.3785044550895691,0.0,0.0,0.0,0.0,13472.0,15274.0,13944.0,13178.0,1.7303377389907837,0.29676490217939366,0.0806943540394402,-1.559639741164089,0.03896237164735794,-0.0003974117571488023,-0.0
354,5,-0.0009496769052930176,0.00010017665044870228,0.0005882694385945797,-0.00660757115110755,0.0007228680769912899,-0.002979485783725977,0.019175294786691666,0.025165071710944176,-0.00039616867434233427,-0.009586979635059834,0.03722734749317169,-0.04659828916192055,0.0,0.0,0.0,-0.00012390855408739299,-0.009344776161015034,-0.0,0.0,0.0,0.0,-0.006437650881707668,-0.009479192085564137,-0.0007479693158529699,13554.0,15357.0,14414.0,13055.0,0.4099224805831909,0.5338991284370422,0.46707212924957275,0.3785044550895691,0.0,0.0,0.0,0.0,13472.0,15274.0,13944.0,13178.0,1.7303377389907837,0.2966127324371507,0.0810779314961284,-1.5599832044404716,0.03896237164735794,-0.0003974117571488023,-0.0
359,5,-0.001000856631435454,9.79514152277261e-05,0.0005984827294014394,-0.008784589357674122,0.0005561755388043821,-0.002417390001937747,0.019175294786691666,0.025165071710944176,-0.00039616867434233427,-0.009586979635059834,0.03722734749317169,-0.04659828916192055,0.0,0.0,0.0,-0.0006807491299696267,-0.0072995750233531,-0.0,0.0,0.0,0.0,-0.006437650881707668,-0.009479192085564137,-0.0007479693158529699,13554.0,15357.0,14414.0,13055.0,0.4099224805831909,0.5338991284370422,0.46707212924957275,0.3785044550895691,0.0,0.0,0.0,0.0,13472.0,15274.0,13944.0,13178.0,1.7067657709121704,0.2950800509967247,0.08013938133167073,-1.561163156436681,0.03002060577273369,-0.002153622219339013,0.0
364,5,-0.0010474168229848146,0.00010012590792030096,0.0006003879243507981,-0.009101060219109058,-3.846922845696099e-05,-0.0011955790687352419,0.019126275554299355,0.024524740874767303,-0.000691982451826334,-0.029208598658442497,0.04679107293486595,0.06473510712385178,0.0,0.0,0.0,-0.0006807491299696267,-0.0072995750233531,-0.0,0.0,0.0,0.0,-0.00571729289367795,-0.008880671113729477,-0.002608179347589612,14077.0,14675.0,14650.0,12439.0,0.444227933883667,0.4851169288158417,0.4833400845527649,0.34146636724472046,0.0,0.0,0.0,0.0,12625.0,15736.0,13141.0,13893.0,1.7067657709121704,0.2975178327006624,0.0827691823553338,-1.561391331589075,0.03002060577273369,-0.002153622219339013,0.0
369,5,-0.0011007386492565274,0.0001070825892384164,0.0006523460033349693,-0.010039052926003933,-0.0008501893607899547,-0.00671320129185915,0.019126275554299355,0.024524740874767303,-0.000691982451826334,-0.029208598658442497,0.04679107293486595,0.06473510712385178,0.0,0.0,0.0,0.0002183895412599668,-0.009558675810694695,-0.0,0.0,0.0,0.0,-0.00571729289367795,-0.008880671113729477,-0.002608179347589612,14077.0,14675.0,14650.0,12439.0,0.444227933883667,0.4851169288158417,0.4833400845527649,0.34146636724472046,0.0,0.0,0.0,0.0,12625.0,15736.0,13141.0,13893.0,1.7328665256500244,0.2961254196025457,0.08251228650747693,-1.5614991876698971,0.039912424981594086,0.0007014641305431724,0.0
374,5,-0.00116159045137465,0.0001287695486098528,0.0006511491956189275,-0.011317827738821507,-0.0029425101820379496,-0.002541665453463793,0.0190940760076046,0.024214664474129677,-0.0012180404737591743,-0.03357452154159546,0.06380854547023773,-0.09422816336154938,0.0,0.0,0.0,0.0002183895412599668,-0.009558675810694695,-0.0,0.0,0.0,0.0,-0.005736897699534893,-0.009356741793453693,0.001830191700719297,13782.0,14594.0,14184.0,12604.0,0.4247041940689087,0.47944730520248413,0.4514191746711731,0.3511950969696045,0.0,0.0,0.0,0.0,14311.0,14232.0,14824.0,12069.0,1.7328665256500244,0.29810823898660166,0.08323787599119814,-1.5620642528877977,0.039912424981594086,0.0007014641305431724,0.0
380,5,-0.001234556664712727,0.0001455778838135302,0.000676595838740468,-0.013283083215355873,-0.003194004762917757,-0.004070261027663946,0.0190940760076046,0.024214664474129677,-0.0012180404737591743,-0.03357452154159546,0.06380854547023773,-0.09422816336154938,0.0,0.0,0.0,0.0036013622302562,-0.011519680730998516,-0.0,0.0,0.0,0.0,-0.005736897699534893,-0.009356741793453693,0.001830191700719297,13782.0,14594.0,14184.0,12604.0,0.4247041940689087,0.47944730520248413,0.4514191746711731,0.3511950969696045,0.0,0.0,0.0,0.0,14311.0,14232.0,14824.0,12069.0,1.7601501941680908,0.29626013637921167,0.08190507663344465,-1.5623425613258317,0.048857323825359344,0.01174960844218731,0.0
385,5,-0.0012771126348525286,0.00016741726722102612,0.0006374879158101976,-0.010419944301247597,-0.0038983277045190334,0.003064844524487853,0.018826991319656372,0.023609403520822525,-0.001094815437681973,-0.02485230751335621,0.05408968776464462,-0.004238037392497063,0.0,0.0,0.0,0.0036013622302562,-0.011519680730998516,-0.0,0.0,0.0,0.0,-0.005650459323078394,-0.00932793878018856,-0.0023218633141368628,13363.0,15126.0,13924.0,13141.0,0.39780193567276,0.5171338319778442,0.4340568780899048,0.3838738799095154,0.0,0.0,0.0,0.0,12715.0,15673.0,13302.0,13768.0,1.7601501941680908,0.2968162533867732,0.0829727281895714,-1.561903604630681,0.048857323825359344,0.01174960844218731,0.0
390,5,-0.001375750987790525,0.00020943096023984253,0.0006729862070642412,-0.01600458472967148,-0.006600974127650261,-0.0030338549986481667,0.018826991319656372,0.023609403520822525,-0.001094815437681973,-0.02485230751335621,0.05408968776464462,-0.004238037392497063,0.0,0.0,0.0,0.0036013622302562,-0.011519680730998516,-0.0,0.0,0.0,0.0,-0.005650459323078394,-0.00932793878018856,-0.0023218633141368628,13363.0,15126.0,13924.0,13141.0,0.39780193567276,0.5171338319778442,0.4340568780899048,0.3838738799095154,0.0,0.0,0.0,0.0,12715.0,15673.0,13302.0,13768.0,1.8180561065673828,0.2976729027705702,0.08430765549385667,-1.5636194787025395,0.06761536002159119,0.025913219898939133,0.0
395,5,-0.0014342711074277759,0.00022978143533691764,0.0006580518675036728,-0.013424243777990341,-0.00508244801312685,0.0005785776884295046,0.018843699246644974,0.023251604288816452,-0.0018409440526738763,-0.015675053000450134,0.029619256034493446,0.023178230971097946,0.0,0.0,0.0,0.007689769379794598,-0.015435341745615005,-0.0,0.0,0.0,0.0,-0.005336448550224304,-0.0096693504601717,-0.0013547900598496199,12149.0,16130.0,13025.0,14410.0,0.32462188601493835,0.5920746922492981,0.3766871988773346,0.46676644682884216,0.0,0.0,0.0,0.0,13060.0,15353.0,13720.0,13394.0,1.8180561065673828,0.29676871455189785,0.08347231692734414,-1.563772585173696,0.06761536002159119,0.025913219898939133,0.0
400,5,-0.0014799637719988823,0.00024419318651780486,0.0006424359744414687,-0.010852813720703125,-0.003762389300391078,0.002105333609506488,0.018843699246644974,0.023251604288816452,-0.0018409440526738763,-0.015675053000450134,0.029619256034493446,0.023178230971097946,0.0,0.0,0.0,0.0047316597774624825,-0.01150638796389103,-0.0,0.0,0.0,0.0,-0.005336448550224304,-0.0096693504601717,-0.0013547900598496199,12149.0,16130.0,13025.0,14410.0,0.32462188601493835,0.5920746922492981,0.3766871988773346,0.46676644682884216,0.0,0.0,0.0,0.0,13060.0,15353.0,13720.0,13394.0,1.762813925743103,0.2954739747072793,0.08203776032681656,-1.5625629522790192,0.04887457191944122,0.015460573136806488,-0.0
405,5,-0.0015666319523006678,0.00027848579338751733,0.0006790492334403098,-0.014741312712430954,-0.005620068870484829,-0.00355145544745028,0.018631108105182648,0.022923026233911514,-0.002171507803723216,-0.02661229856312275,0.04282405599951744,-0.16120874881744385,0.0,0.0,0.0,0.0047316597774624825,-0.01150638796389103,-0.0,0.0,0.0,0.0,-0.004197124857455492,-0.01058258581906557,0.001677182037383318,14508.0,14298.0,15691.0,12185.0,0.4735368490219116,0.4591113328933716,0.5587155818939209,0.3266923427581787,0.0,0.0,0.0,0.0,14185.0,14381.0,15047.0,12284.0,1.762813925743103,0.2960950026029298,0.08464952511452653,-1.5637684558438045,0.04887457191944122,0.015460573136806488,-0.0
410,5,-0.0016461418708786368,0.00029278823058120906,0.0007398467278108001,-0.015437719412147999,-0.003964319825172424,-0.008716278709471226,0.018631108105182648,0.022923026233911514,-0.002171507803723216,-0.02661229856312275,0.04282405599951744,-0.16120874881744385,0.0,0.0,0.0,0.006755739450454712,-0.014692229218780994,-0.0,0.0,0.0,0.0,-0.004197124857455492,-0.01058258581906557,0.001677182037383318,14508.0,14298.0,15691.0,12185.0,0.4735368490219116,0.4591113328933716,0.5587155818939209,0.3266923427581787,0.0,0.0,0.0,0.0,14185.0,14381.0,15047.0,12284.0,1.806130290031433,0.29361626309547423,0.08228057660178191,-1.5642835237784543,0.06393860280513763,0.02261645533144474,0.0
415,5,-0.0016989292344078422,0.00029928048024885356,0.0007242831634357572,-0.01250956580042839,-0.0023647977504879236,-0.0016188883455470204,0.018457911908626556,0.022909391671419144,-0.0020105603616684675,-0.03533551096916199,-0.00902194157242775,0.08471197634935379,0.0,0.0,0.0,0.006755739450454712,-0.014692229218780994,-0.0,0.0,0.0,0.0,-0.003948690369725227,-0.010830177925527096,-0.004922483116388321,12164.0,16093.0,13202.0,14317.0,0.3254844844341278,0.5892236828804016,0.38767632842063904,0.4604294002056122,0.0,0.0,0.0,0.0,11469.0,16596.0,12606.0,14831.0,1.806130290031433,0.2955496843217588,0.08404828065125189,-1.563903215445868,0.06393860280513763,0.02261645533144474,0.0
420,5,-0.0018483969615772367,0.000352899864083156,0.000843578833155334,-0.022939961403608322,-0.007380244787782431,-0.014963031746447086,0.018457911908626556,0.022909391671419144,-0.0020105603616684675,-0.03533551096916199,-0.00902194157242775,0.08471197634935379,0.0,0.0,0.0,0.0031924222130328417,-0.013137628324329853,-0.0,0.0,0.0,0.0,-0.003948690369725227,-0.010830177925527096,-0.004922483116388321,12164.0,16093.0,13202.0,14317.0,0.3254844844341278,0.5892236828804016,0.38767632842063904,0.4604294002056122,0.0,0.0,0.0,0.0,11469.0,16596.0,12606.0,14831.0,1.7786003351211548,0.29120059711931034,0.08297015915163275,-1.5651506032387588,0.056303128600120544,0.010524607263505459,0.0
425,5,-0.001833840156905353,0.00033523704041726887,0.0007040791679173708,-0.007429157849401236,-0.0008325579692609608,0.010754743590950966,0.01827058009803295,0.02301235869526863,-0.003013748675584793,-0.025556625798344612,0.0024252247530966997,-0.07278431951999664,0.0,0.0,0.0,0.0031924222130328417,-0.013137628324329853,-0.0,0.0,0.0,0.0,-0.003797880606725812,-0.011824523098766804,0.0012693686876446009,12908.0,15743.0,14175.0,13759.0,0.36951079964637756,0.562596321105957,0.450829416513443,0.42319372296333313,0.0,0.0,0.0,0.0,13933.0,14594.0,15019.0,12401.0,1.7786003351211548,0.29447049099607814,0.08194705127553459,-1.564323813574583,0.056303128600120544,0.010524607263505459,0.0
430,5,-0.0019062055507674813,0.0003673488099593669,0.0007261200225912035,-0.011655515991151333,-0.0041864351369440556,0.001656997250393033,0.01827058009803295,0.02301235869526863,-0.003013748675584793,-0.025556625798344612,0.0024252247530966997,-0.07278431951999664,0.0,0.0,0.0,0.0015534964622929692,-0.009122909978032112,-0.0,0.0,0.0,0.0,-0.003797880606725812,-0.011824523098766804,0.0012693686876446009,12908.0,15743.0,14175.0,13759.0,0.36951079964637756,0.562596321105957,0.450829416513443,0.42319372296333313,0.0,0.0,0.0,0.0,13933.0,14594.0,15019.0,12401.0,1.7286423444747925,0.2939495273271405,0.08284784102607505,-1.5641747595066615,0.03800002858042717,0.0049776420928537846,-0.0
435,5,-0.001997397281229496,0.00038193087675608695,0.0007522383821196854,-0.01560522336512804,-0.0034244218841195107,-0.0024714013561606407,0.018144650384783745,0.023259472101926804,-0.0024988725781440735,-0.011630184948444366,-0.017299285158514977,-0.12003143876791,0.0,0.0,0.0,0.0015534964622929692,-0.009122909978032112,-0.0,0.0,0.0,0.0,-0.0034327011089771986,-0.012151828035712242,-0.0009549328242428601,14383.0,14347.0,15315.0,12074.0,0.4649408459663391,0.46244338154792786,0.5308443903923035,0.32037174701690674,0.0,0.0,0.0,0.0,13200.0,15509.0,14433.0,13478.0,1.7286423444747925,0.29141990075581137,0.08116227557856856,-1.5640273893243715,0.03800002858042717,0.0049776420928537846,-0.0
441,5,-0.0020657789427787066,0.00039296498289331794,0.0007595454226247966,-0.014447872526943684,-0.0026938635855913162,-0.001865407801233232,0.018144650384783745,0.023259472101926804,-0.0024988725781440735,-0.011630184948444366,-0.017299285158514977,-0.12003143876791,0.0,0.0,0.0,0.004445935133844614,-0.015909163281321526,-0.0,0.0,0.0,0.0,-0.0034327011089771986,-0.012151828035712242,-0.0009549328242428601,14383.0,14347.0,15315.0,12074.0,0.4649408459663391,0.46244338154792786,0.5308443903923035,0.32037174701690674,0.0,0.0,0.0,0.0,13200.0,15509.0,14433.0,13478.0,1.8147867918014526,0.2901665035937167,0.07856278763139339,-1.5643888396291477,0.06956683099269867,0.014955285005271435,0.0
446,5,-0.00217463169246912,0.0004222975403536111,0.0007779530133120716,-0.01884147897362709,-0.004597451537847519,-0.002955077216029167,0.01803712546825409,0.023551881313323975,-0.0031641770619899035,-0.01570192538201809,-0.02015618421137333,0.12861409783363342,0.0,0.0,0.0,0.004445935133844614,-0.015909163281321526,-0.0,0.0,0.0,0.0,-0.004887223243713379,-0.012147543020546436,-0.005199002102017403,11044.0,16828.0,11799.0,15056.0,0.2644895315170288,0.6471242904663086,0.3049309253692627,0.5120975971221924,0.0,0.0,0.0,0.0,11378.0,16855.0,12590.0,14841.0,1.8147867918014526,0.28865049691248607,0.07795520817427354,-1.5646015445250916,0.06956683099269867,0.014955285005271435,0.0
451,5,-0.0022186257410794497,0.00042735677561722696,0.0007349852239713073,-0.012815886177122593,-0.0024460896383970976,0.003974104765802622,0.01803712546825409,0.023551881313323975,-0.0031641770619899035,-0.01570192538201809,-0.02015618421137333,0.12861409783363342,0.0,0.0,0.0,0.004445935133844614,-0.015909163281321526,-0.0,0.0,0.0,0.0,-0.004887223243713379,-0.012147543020546436,-0.005199002102017403,11044.0,16828.0,11799.0,15056.0,0.2644895315170288,0.6471242904663086,0.3049309253692627,0.5120975971221924,0.0,0.0,0.0,0.0,11378.0,16855.0,12590.0,14841.0,1.8147867918014526,0.28745236174649985,0.07585479824488434,-1.5627813432867856,0.06956683099269867,0.014955285005271435,0.0
456,5,-0.0022937897592782974,0.00043301357072778046,0.0007313201786018908,-0.014146040193736553,-0.0016572492895647883,0.0020294515416026115,0.0180681012570858,0.023744020611047745,-0.004022836685180664,0.035587288439273834,0.03400173410773277,-0.19887912273406982,0.0,0.0,0.0,0.003478565951809287,-0.013992301188409328,-0.0,0.0,0.0,0.0,-0.004848693031817675,-0.011492730118334293,0.0031713058706372976,14137.0,14726.0,15465.0,12344.0,0.44826117157936096,0.4887072741985321,0.5419031381607056,0.3359152376651764,0.0,0.0,0.0,0.0,14590.0,13816.0,15465.0,11352.0,1.789446473121643,0.2870463913190044,0.07515895857037586,-1.5634253507601346,0.06033133715391159,0.011537876911461353,-0.0
461,5,-0.002363926265388727,0.0004570494929794222,0.0006641481886617839,-0.014074794016778469,-0.0035472114104777575,0.008872417733073235,0.0180681012570858,0.023744020611047745,-0.004022836685180664,0.035587288439273834,0.03400173410773277,-0.19887912273406982,0.0,0.0,0.0,0.003478565951809287,-0.013992301188409328,-0.0,0.0,0.0,0.0,-0.004848693031817675,-0.011492730118334293,0.0031713058706372976,14137.0,14726.0,15465.0,12344.0,0.44826117157936096,0.4887072741985321,0.5419031381607056,0.3359152376651764,0.0,0.0,0.0,0.0,14590.0,13816.0,15465.0,11352.0,1.789446473121643,0.28913245963110806,0.07472742806816614,-1.5638860721160763,0.06033133715391159,0.011537876911461353,-0.0
466,5,-0.002406868152320385,0.00046676365309394896,0.0006386662134900689,-0.010782954283058643,-0.0025845852214843035,0.0066068051382899284,0.01808394491672516,0.024031825363636017,-0.0038203198928385973,-0.04283428564667702,-0.04330010339617729,0.014023653231561184,0.0,0.0,0.0,0.004729726817458868,-0.015135441906750202,-0.0,0.0,0.0,0.0,-0.003989136777818203,-0.011783403344452381,-0.005138873588293791,12993.0,15639.0,14138.0,13580.0,0.3746764361858368,0.5548039674758911,0.4483274519443512,0.4116385877132416,0.0,0.0,0.0,0.0,11533.0,16881.0,12803.0,15025.0,1.805901050567627,0.28891148205914086,0.07549003761961648,-1.5636600367365272,0.06585966795682907,0.015831993892788887,-0.0
471,5,-0.0024837416131049395,0.0004612745833583176,0.0006164311780594289,-0.01353797223418951,-0.0003751448530238122,0.005310924258083105,0.01808394491672516,0.024031825363636017,-0.0038203198928385973,-0.04283428564667702,-0.04330010339617729,0.014023653231561184,0.0,0.0,0.0,0.004729726817458868,-0.015135441906750202,-0.0,0.0,0.0,0.0,-0.003989136777818203,-0.011783403344452381,-0.005138873588293791,12993.0,15639.0,14138.0,13580.0,0.3746764361858368,0.5548039674758911,0.4483274519443512,0.4116385877132416,0.0,0.0,0.0,0.0,11533.0,16881.0,12803.0,15025.0,1.805901050567627,0.2879739030819575,0.07395222185048263,-1.5637813928948388,0.06585966795682907,0.015831993892788887,-0.0
476,5,-0.002591426484286785,0.00043235125485807657,0.0006599045009352267,-0.018337376415729523,0.0033207412343472242,-0.0030924289021641016,0.017929792404174805,0.02402784489095211,-0.005199748557060957,-0.025899197906255722,-0.027553213760256767,0.04396022856235504,0.0,0.0,0.0,0.0011888178996741772,-0.014892708510160446,-0.0,0.0,0.0,0.0,-0.004100105259567499,-0.0124159324914217,-0.002288788091391325,10959.0,17151.0,12298.0,15202.0,0.2601536512374878,0.6734622120857239,0.3332354426383972,0.5225951671600342,0.0,0.0,0.0,0.0,12619.0,15947.0,13856.0,13859.0,1.797821283340454,0.28658405872386933,0.07208680081470341,-1.564329525346228,0.06451426446437836,0.003961596172302961,-0.0
481,5,-0.0027146514039486647,0.00043323455611243844,0.0006645131506957114,-0.022121939808130264,0.0012222999939695,-0.001790013164281845,0.017929792404174805,0.02402784489095211,-0.005199748557060957,-0.025899197906255722,-0.027553213760256767,0.04396022856235504,0.0,0.0,0.0,0.0011888178996741772,-0.014892708510160446,-0.0,0.0,0.0,0.0,-0.004100105259567499,-0.0124159324914217,-0.002288788091391325,10959.0,17151.0,12298.0,15202.0,0.2601536512374878,0.6734622120857239,0.3332354426383972,0.5225951671600342,0.0,0.0,0.0,0.0,12619.0,15947.0,13856.0,13859.0,1.797821283340454,0.2901760549309219,0.07509522904070152,-1.5632634763874775,0.06451426446437836,0.003961596172302961,-0.0
