timestamp,dt,pos_x,pos_y,pos_z,vel_x,vel_y,vel_z,roll,pitch,yaw,agv_x,agv_y,agv_z,x_ref,y_ref,z_ref,roll_ref,pitch_ref,yaw_ref,x_vel_ref,y_vel_ref,z_vel_ref,x_torque,y_torque,z_torque,w0,w1,w2,w3,u0,u1,u2,u3,m0req,m1req,m2req,m3req,thrust0,thrust1,thrust2,thrust3,thrust_ref,roll_vicon,pitch_vicon,yaw_vicon,acc_x,acc_y,acc_z
5,5,0.0,0.0,0.0,-0.0012998419115319848,-0.0029074561316519976,-0.0035796528682112694,-0.0005266265361569822,-0.009165977127850056,-0.004508816171437502,-0.00016619093366898596,0.0046338350512087345,0.0013599105877801776,0.0,0.0,0.0,0.0035475718323141336,-0.0012200184864923358,-0.0,0.0,0.0,0.0,0.0001309844956267625,0.0027976033743470907,-0.00041741059976629913,1495.0,1495.0,1495.0,1495.0,0.0,0.0,0.0,0.0,0.0,0.0,0.0,0.0,1495.0,1495.0,1495.0,1495.0,1.6580833196640015,0.2724026509354229,0.13511451665507532,-1.5156716473400347,0.004874407313764095,0.010902960784733295,0.0
30,25,0.0,0.0,0.0,-0.0004910863353870809,0.0036489267367869616,-0.0008038158412091434,-0.0005266265361569822,-0.009165977127850056,-0.004508816171437502,-0.00016619093366898596,0.0046338350512087345,0.0013599105877801776,0.0,0.0,0.0,0.0035475718323141336,-0.0012200184864923358,-0.0,0.0,0.0,0.0,0.0001309844956267625,0.0027976033743470907,-0.00041741059976629913,1495.0,1495.0,1495.0,1495.0,0.0,0.0,0.0,0.0,0.0,0.0,0.0,0.0,1495.0,1495.0,1495.0,1495.0,1.6580833196640015,0.2743560990077232,0.13874025268229295,-1.5165983150498226,0.004874407313764095,0.010902960784733295,0.0
35,5,0.0,0.0,0.0,0.0018592297565191984,-0.0015323359984904528,-0.00021669582929462194,-0.0005266265361569822,-0.009165977127850056,-0.004508816171437502,-0.00016619093366898596,0.0046338350512087345,0.0013599105877801776,0.0,0.0,0.0,-0.004438839387148619,-0.00045953699736855924,-0.0,0.0,0.0,0.0,0.0001309844956267625,0.0027976033743470907,-0.00041741059976629913,1495.0,1495.0,1495.0,1495.0,0.0,0.0,0.0,0.0,0.0,0.0,0.0,0.0,1495.0,1495.0,1495.0,1495.0,1.6631102561950684,0.272898560608495,0.13604113529277395,-1.5159519314804801,0.0018415737431496382,-0.01368347555398941,0.0
40,5,0.0,0.0,0.0,-0.002007989212870598,0.0015007579931989312,0.002005627378821373,-0.0005226936191320419,-0.009179553017020226,-0.004523398820310831,0.0010811635293066502,0.005110541824251413,-6.269408913794905e-05,0.0,0.0,0.0,-0.004438839387148619,-0.00045953699736855924,-0.0,0.0,0.0,0.0,0.0012159048346802592,0.002560320543125272,-0.00048540878924541175,1495.0,1495.0,1495.0,1495.0,0.0,0.0,0.0,0.0,0.0,0.0,0.0,0.0,1495.0,1495.0,1495.0,1495.0,1.6631102561950684,0.27448426930256375,0.13773666893392017,-1.5160193651994949,0.0018415737431496382,-0.01368347555398941,0.0
45,5,0.0,0.0,0.0,3.6220779293216765e-05,0.0014713732525706291,0.002654614159837365,-0.0005226936191320419,-0.009179553017020226,-0.004523398820310831,0.0010811635293066502,0.005110541824251413,-6.269408913794905e-05,0.0,0.0,0.0,-0.0018387793097645044,-0.001892506959848106,-0.0,0.0,0.0,0.0,0.001201727194711566,0.0025274313520640135,-0.00035139467217959464,1495.0,1495.0,1495.0,1495.0,0.0,0.0,0.0,0.0,0.0,0.0,0.0,0.0,1495.0,1495.0,1495.0,1495.0,1.6512173414230347,0.27354286132251904,0.13708982290884394,-1.5160283724137578,0.007529959548264742,-0.005627842620015144,0.0
50,5,-8.823290954751428e-06,8.126706234179437e-06,3.2828140774654457e-06,-0.0010443065548315644,-0.0003866554470732808,0.0006679079961031675,-0.0005226936191320419,-0.009179553017020226,-0.004523398820310831,0.0010811635293066502,0.005110541824251413,-6.269408913794905e-05,0.0,0.0,0.0,-0.0018387793097645044,-0.001892506959848106,-0.0,0.0,0.0,0.0,0.001201727194711566,0.0025274313520640135,-0.00035139467217959464,1495.0,1495.0,1495.0,1495.0,0.0,0.0,0.0,0.0,0.0,0.0,0.0,0.0,1495.0,1495.0,1495.0,1495.0,1.6512173414230347,0.27339450220878037,0.13569320034651605,-1.5155046697613226,0.007529959548264742,-0.005627842620015144,0.0
55,5,-1.9417397197685204e-05,3.4835233236663043e-05,4.198371243546717e-05,-0.0016890154220163822,-0.0033596851862967014,-0.004376944620162249,-0.0005226936191320419,-0.009179553017020226,-0.004523398820310831,0.0010811635293066502,0.005110541824251413,-6.269408913794905e-05,0.0,0.0,0.0,0.0004925240646116436,-0.0010049543343484402,-0.0,0.0,0.0,0.0,0.001201727194711566,0.0025274313520640135,-0.00035139467217959464,1495.0,1495.0,1495.0,1495.0,0.0,0.0,0.0,0.0,0.0,0.0,0.0,0.0,1495.0,1495.0,1495.0,1495.0,1.6372431516647339,0.2711786621688771,0.13363532944080886,-1.5151463664249754,0.003964708652347326,0.001494683208875358,-0.0
61,5,-1.1820634426840115e-05,2.5860959794954397e-05,-2.3375671389658237e-06,0.0002360053767915815,-0.0002669614041224122,0.003567775711417198,-0.0005145157338120043,-0.00919539388269186,-0.004515693057328463,-0.003390600671991706,0.003418741514906287,-0.003319717478007078,0.0,0.0,0.0,0.0004925240646116436,-0.0010049543343484402,-0.0,0.0,0.0,0.0,-0.0011349600972607732,0.0027700860518962145,-0.0004903250955976546,13708.0,13728.0,13168.0,13961.0,0.41987374424934387,0.421202689409256,0.3855076730251312,0.4365261495113373,0.0,0.0,0.0,0.0,1495.0,1495.0,1495.0,1495.0,1.6372431516647339,0.2727000721076193,0.13377175324866888,-1.5150989489389135,0.003964708652347326,0.001494683208875358,-0.0
66,5,2.1482464944710955e-05,2.375377152930014e-05,-3.197356636519544e-05,0.004090774338692427,0.00014607806224375963,0.00498343026265502,-0.0005145157338120043,-0.00919539388269186,-0.004515693057328463,-0.003390600671991706,0.003418741514906287,-0.003319717478007078,0.0,0.0,0.0,0.0003785649605561048,0.00020881197997368872,-0.0,0.0,0.0,0.0,-0.0011349600972607732,0.0027700860518962145,-0.0004903250955976546,13708.0,13728.0,13168.0,13961.0,0.41987374424934387,0.421202689409256,0.3855076730251312,0.4365261495113373,0.0,0.0,0.0,0.0,1495.0,1495.0,1495.0,1495.0,1.6295654773712158,0.2736441365955615,0.1338355542709701,-1.5147529444905434,-0.0008199344156309962,0.0011434594634920359,0.0
71,5,-5.136515028425492e-06,2.26598003791878e-05,2.989276617881842e-05,-0.0015579679748043418,0.00018970773089677095,-0.005430588033050299,-0.00053665682207793,-0.009165309369564056,-0.004529280122369528,-0.003741122782230377,0.003443333087489009,0.000601325009483844,0.0,0.0,0.0,0.0003785649605561048,0.00020881197997368872,-0.0,0.0,0.0,0.0,-0.00037290147156454623,0.0022434843704104424,-0.00040969866677187383,13618.0,13626.0,13245.0,13896.0,0.41407495737075806,0.41457146406173706,0.3903611898422241,0.43220973014831543,0.0,0.0,0.0,0.0,13597.0,13642.0,13237.0,13908.0,1.6295654773712158,0.27215630996924667,0.13382889330357045,-1.5150394824498914,-0.0008199344156309962,0.0011434594634920359,0.0
76,5,1.4490358807961456e-05,3.2150899642147124e-05,4.460311174625531e-05,0.0017320376355201006,-0.00106304872315377,-0.00393747678026557,-0.00053665682207793,-0.009165309369564056,-0.004529280122369528,-0.003741122782230377,0.003443333087489009,0.000601325009483844,0.0,0.0,0.0,0.0003785649605561048,0.00020881197997368872,-0.0,0.0,0.0,0.0,-0.00037290147156454623,0.0022434843704104424,-0.00040969866677187383,13618.0,13626.0,13245.0,13896.0,0.41407495737075806,0.41457146406173706,0.3903611898422241,0.43220973014831543,0.0,0.0,0.0,0.0,13597.0,13642.0,13237.0,13908.0,1.6295654773712158,0.2726691184398608,0.13509090469483692,-1.5155455543792538,-0.0008199344156309962,0.0011434594634920359,0.0
81,5,1.962169881153386e-05,2.6455969418748282e-05,3.7155488826101646e-05,0.0013085759710520506,0.00025817210553213954,-0.0006812760257162154,-0.0005451934994198382,-0.009131853468716145,-0.004542598966509104,0.0012356453808024526,0.003316040150821209,0.002100482815876603,0.0,0.0,0.0,0.0013639477547258139,0.0016568393912166357,-0.0,0.0,0.0,0.0,0.0002874768106266856,0.0028032942209392786,-0.00044494139729067683,13533.0,13516.0,13215.0,13904.0,0.4085838198661804,0.4074837565422058,0.38845735788345337,0.4327182173728943,0.0,0.0,0.0,0.0,13551.0,13497.0,13228.0,13891.0,1.6468420028686523,0.2746655402687454,0.13820675824051312,-1.516493876024314,-0.006574816536158323,0.00416349433362484,0.0
86,5,2.7395948563935235e-05,8.139077181112953e-06,-3.188002438037074e-06,0.0014563401928171515,0.002301295753568411,0.004568708594888449,-0.0005451934994198382,-0.009131853468716145,-0.004542598966509104,0.0012356453808024526,0.003316040150821209,0.002100482815876603,0.0,0.0,0.0,0.0013639477547258139,0.0016568393912166357,-0.0,0.0,0.0,0.0,0.0002874768106266856,0.0028032942209392786,-0.00044494139729067683,13533.0,13516.0,13215.0,13904.0,0.4085838198661804,0.4074837565422058,0.38845735788345337,0.4327182173728943,0.0,0.0,0.0,0.0,13551.0,13497.0,13228.0,13891.0,1.6468420028686523,0.27431279002039005,0.1363087144915972,-1.5154303838683543,-0.005612027831375599,-0.008584834635257721,0.0
91,5,-1.5583107597194612e-05,2.5782836019061506e-05,3.5346660297363997e-05,-0.004574950784444809,-0.0011967328609898686,-0.002796676242724061,-0.0005288393003866076,-0.009105294942855835,-0.004532271530479193,0.0033561403397470713,0.0018930747173726559,0.000334834709065035,0.0,0.0,0.0,-0.002800994785502553,0.0014085025759413838,-0.0,0.0,0.0,0.0,0.000550303899217397,0.0032401708886027336,-0.0004668770416174084,13539.0,13457.0,13164.0,13887.0,0.40898507833480835,0.4037272334098816,0.38526391983032227,0.4315892457962036,0.0,0.0,0.0,0.0,13488.0,13511.0,13104.0,13940.0,1.6535301208496094,0.27197401004154126,0.13476423035939167,-1.5157922449069043,-0.005612027831375599,-0.008584834635257721,0.0
96,5,-1.2562642041302752e-05,1.0716747055994347e-05,-8.426575845987827e-07,-0.0014675244456157088,0.0013292375952005386,0.0032240478321909904,-0.0005288393003866076,-0.009105294942855835,-0.004532271530479193,0.0033561403397470713,0.0018930747173726559,0.000334834709065035,0.0,0.0,0.0,-0.002800994785502553,0.0014085025759413838,-0.0,0.0,0.0,0.0,0.000550303899217397,0.0032401708886027336,-0.0004668770416174084,13539.0,13457.0,13164.0,13887.0,0.40898507833480835,0.4037272334098816,0.38526391983032227,0.4315892457962036,0.0,0.0,0.0,0.0,13488.0,13511.0,13104.0,13940.0,1.6535301208496094,0.272584777309488,0.1345382079857532,-1.5157428019424766,-0.005612027831375599,-0.008584834635257721,0.0
101,5,-1.9356464690645225e-05,1.5756919310661033e-05,-4.239506324665854e-06,-0.0014022684190422297,-7.312558591365814e-05,0.001697240979410708,-0.0005288393003866076,-0.009105294942855835,-0.004532271530479193,0.0033561403397470713,0.0018930747173726559,0.000334834709065035,0.0,0.0,0.0,-0.0016144614201039076,-0.001404999173246324,-0.0,0.0,0.0,0.0,-0.0006488187937065959,0.003308515762910247,-0.00044811918633058667,13721.0,13580.0,13160.0,13955.0,0.42073288559913635,0.41163548827171326,0.3850596249103546,0.43610212206840515,0.0,0.0,0.0,0.0,13611.0,13478.0,13225.0,14000.0,1.6459087133407593,0.27309793952749734,0.135205827138967,-1.5158039798917637,0.0055722808465361595,-0.0049254014156758785,0.0
107,5,1.1417751011322252e-05,1.1809214811364654e-05,-7.884226761234459e-06,0.0017095955554395914,0.0007824309286661446,0.0006666772533208132,-0.0005159407737664878,-0.009079329669475555,-0.004543114919215441,0.0016791708767414093,-0.002933357609435916,0.0028352313674986362,0.0,0.0,0.0,-0.0016144614201039076,-0.001404999173246324,-0.0,0.0,0.0,0.0,-0.0006488187937065959,0.003308515762910247,-0.00044811918633058667,13721.0,13580.0,13160.0,13955.0,0.42073288559913635,0.41163548827171326,0.3850596249103546,0.43610212206840515,0.0,0.0,0.0,0.0,13611.0,13478.0,13225.0,14000.0,1.6459087133407593,0.2724950252961845,0.13464461205930126,-1.5154443320923061,0.0055722808465361595,-0.0049254014156758785,0.0
112,5,4.3349100451450795e-05,2.5341852960991673e-05,-2.4039197796810186e-06,0.004515600390732288,-0.0013109443243592978,-0.00039096592809073627,-0.0005159407737664878,-0.009079329669475555,-0.004543114919215441,0.0016791708767414093,-0.002933357609435916,0.0028352313674986362,0.0,0.0,0.0,-0.0009409022168256342,0.001633276930078864,-0.0,0.0,0.0,0.0,-0.0006488187937065959,0.003308515762910247,-0.00044811918633058667,13721.0,13580.0,13160.0,13955.0,0.42073288559913635,0.41163548827171326,0.3850596249103546,0.43610212206840515,0.0,0.0,0.0,0.0,13611.0,13478.0,13225.0,14000.0,1.6449449062347412,0.27381456124676434,0.13633692497853245,-1.5157959856430476,-0.006473851390182972,-0.002868826501071453,0.0
117,5,4.3349100451450795e-05,2.5341852960991673e-05,-2.4039197796810186e-06,0.004515600390732288,-0.0013109443243592978,-0.00039096592809073627,-0.0005256616277620196,-0.009084565564990044,-0.004538956098258495,-0.001468127011321485,0.00550702353939414,0.000518549233675003,0.0,0.0,0.0,-0.0009409022168256342,0.001633276930078864,-0.0,0.0,0.0,0.0,-0.0003144824004266411,0.002384486608207226,-0.0005957807297818363,13525.0,13672.0,13128.0,13972.0,0.40809306502342224,0.417562335729599,0.3830350935459137,0.43721821904182434,0.0,0.0,0.0,0.0,13703.0,13602.0,13148.0,13963.0,1.6449449062347412,0.27381456124676434,0.13633692497853245,-1.5157959856430476,-0.006473851390182972,-0.002868826501071453,0.0
122,5,1.614391840121243e-05,8.66412119648885e-06,9.669093742559198e-06,-0.0015708955470472574,-9.324270649813116e-05,-0.002162461169064045,-0.0005256616277620196,-0.009084565564990044,-0.004538956098258495,-0.001468127011321485,0.00550702353939414,0.000518549233675003,0.0,0.0,0.0,0.0016292933141812682,0.004256845451891422,-0.0,0.0,0.0,0.0,-0.0003144824004266411,0.002384486608207226,-0.0005957807297818363,13525.0,13672.0,13128.0,13972.0,0.40809306502342224,0.417562335729599,0.3830350935459137,0.43721821904182434,0.0,0.0,0.0,0.0,13703.0,13602.0,13148.0,13963.0,1.6741200685501099,0.27367274601270675,0.13661898821909899,-1.5163206995628107,-0.01717214286327362,0.005055848974734545,0.0
127,5,2.7379019229556434e-05,1.734182114887517e-05,2.2760632418794557e-06,0.0007198538514785469,-0.0010786212515085936,2.2179201550898142e-05,-0.0005286881932988763,-0.009075646288692951,-0.004562469199299812,-0.0006835044478066266,0.00664165336638689,-0.005833502393215895,0.0,0.0,0.0,0.0016292933141812682,0.004256845451891422,-0.0,0.0,0.0,0.0,-0.00018541660392656922,0.0031468525994569063,-0.0004073475720360875,13525.0,13672.0,13128.0,13972.0,0.40809306502342224,0.417562335729599,0.3830350935459137,0.43721821904182434,0.0,0.0,0.0,0.0,13582.0,13618.0,13183.0,13917.0,1.6741200685501099,0.27384730796072915,0.13599297505248412,-1.5161231452702941,-0.01717214286327362,0.005055848974734545,0.0
132,5,2.7330019293003716e-05,6.943268090253696e-06,1.4717583326273598e-05,0.0002820616646204144,0.0008163779857568443,-0.0014841107185930014,-0.0005286881932988763,-0.009075646288692951,-0.004562469199299812,-0.0006835044478066266,0.00664165336638689,-0.005833502393215895,0.0,0.0,0.0,0.0013626506552100182,0.0007215504883788526,-0.0,0.0,0.0,0.0,-0.00018541660392656922,0.0031468525994569063,-0.0004073475720360875,13525.0,13672.0,13128.0,13972.0,0.40809306502342224,0.417562335729599,0.3830350935459137,0.43721821904182434,0.0,0.0,0.0,0.0,13582.0,13618.0,13183.0,13917.0,1.6393840312957764,0.27307711321148675,0.1351269245149142,-1.5157811650706732,-0.002850354416295886,0.004140697885304689,-0.0
137,5,2.5831477614701726e-06,-5.287161457090406e-06,1.6650445104460232e-05,-0.002856799867004156,0.0017942027188837528,-0.0008255877182818949,-0.0004954888136126101,-0.009052618406713009,-0.004548238590359688,0.002686583437025547,0.004803855437785387,0.002084243344143033,0.0,0.0,0.0,0.0013626506552100182,0.0007215504883788526,-0.0,0.0,0.0,0.0,0.0006070168456062675,0.00411263620480895,-0.0003782983112614602,13784.0,13503.0,13284.0,14160.0,0.4248856008052826,0.4066776931285858,0.3927864730358124,0.4497703015804291,0.0,0.0,0.0,0.0,13681.0,13496.0,13173.0,13935.0,1.6393840312957764,0.2737261305683791,0.13731473729265287,-1.5162591732537611,-0.002850354416295886,0.004140697885304689,-0.0
142,5,8.157618140103295e-06,1.2082983630534727e-05,1.2195172530482523e-05,-0.00047378349700011313,-0.0013667363673448563,0.00020439765648916364,-0.0004954888136126101,-0.009052618406713009,-0.004548238590359688,0.002686583437025547,0.004803855437785387,0.002084243344143033,0.0,0.0,0.0,-0.0021959899459034204,-0.0026746310759335756,-0.0,0.0,0.0,0.0,0.0006070168456062675,0.00411263620480895,-0.0003782983112614602,13784.0,13503.0,13284.0,14160.0,0.4248856008052826,0.4066776931285858,0.3927864730358124,0.4497703015804291,0.0,0.0,0.0,0.0,13681.0,13496.0,13173.0,13935.0,1.6599969863891602,0.2731033385709285,0.137144792073328,-1.5165231463376851,0.010698465630412102,-0.006756870076060295,0.0
147,5,-6.075138571759453e-06,5.818986664962722e-06,-3.2562297747062985e-06,-0.001897444250062108,0.00020498513185884804,0.0019359273137524724,-0.0004672087961807847,-0.009051199071109295,-0.004519545938819647,-0.0010090697323903441,0.006186965852975845,0.002652454422786832,0.0,0.0,0.0,-0.0021959899459034204,-0.0026746310759335756,-0.0,0.0,0.0,0.0,0.00069619674468413,0.004167170263826847,-0.0004621751431841403,13567.0,13451.0,13207.0,13972.0,0.4107750952243805,0.40336623787879944,0.387976735830307,0.43726596236228943,0.0,0.0,0.0,0.0,13761.0,13523.0,13253.0,14192.0,1.6599969863891602,0.2734817839052238,0.13713527870772915,-1.5162641647043946,0.010698465630412102,-0.006756870076060295,0.0
152,5,2.125366336258594e-05,2.5831584480329184e-06,-3.058768925257027e-05,0.0025204785633832216,0.00047029342385940254,0.004054145887494087,-0.0004672087961807847,-0.009051199071109295,-0.004519545938819647,-0.0010090697323903441,0.006186965852975845,0.002652454422786832,0.0,0.0,0.0,-0.00024141297035384923,-0.0018031762447208166,-0.0,0.0,0.0,0.0,0.00069619674468413,0.004167170263826847,-0.0004621751431841403,13567.0,13451.0,13207.0,13972.0,0.4107750952243805,0.40336623787879944,0.387976735830307,0.43726596236228943,0.0,0.0,0.0,0.0,13761.0,13523.0,13253.0,14192.0,1.6452295780181885,0.2750018376789654,0.13737751774264698,-1.516088406527357,0.007148523349314928,-0.0007361997268162668,0.0
158,5,4.2851730540860444e-05,-1.5296845958800986e-05,-3.8220583519432694e-05,0.003599959658458829,0.0023337178863584995,0.0025376055855304003,-0.0005156252300366759,-0.009101571515202522,-0.004548625089228153,-0.004106646403670311,-0.0004638517857529223,0.0014695872087031603,0.0,0.0,0.0,-0.00024141297035384923,-0.0018031762447208166,-0.0,0.0,0.0,0.0,0.000604196626227349,0.003057916183024645,-0.0005618337891064584,13618.0,13706.0,13277.0,13919.0,0.41408735513687134,0.41980433464050293,0.3923584222793579,0.433746874332428,0.0,0.0,0.0,0.0,13549.0,13474.0,13171.0,14002.0,1.6452295780181885,0.2734707989916864,0.1352179040776904,-1.5154991788836478,0.007148523349314928,-0.0007361997268162668,0.0
163,5,4.020017513539642e-05,4.852258825849276e-06,-3.2199732231674716e-05,0.0011217971332371235,-0.0014844053657725453,0.0002925401204265654,-0.0005156252300366759,-0.009101571515202522,-0.004548625089228153,-0.004106646403670311,-0.0004638517857529223,0.0014695872087031603,0.0,0.0,0.0,-0.002854396589100361,0.003413650905713439,-0.0,0.0,0.0,0.0,0.000604196626227349,0.003057916183024645,-0.0005618337891064584,13618.0,13706.0,13277.0,13919.0,0.41408735513687134,0.41980433464050293,0.3923584222793579,0.433746874332428,0.0,0.0,0.0,0.0,13549.0,13474.0,13171.0,14002.0,1.669904112815857,0.2750763342717388,0.13711661604095846,-1.5159892789187348,-0.013735989108681679,-0.008835137821733952,0.0
168,5,5.929030885454267e-05,-1.05840126707335e-05,-4.2372870666440576e-05,0.0027395347133278847,0.0012585903750732541,0.0013377929572016,-0.0005611274391412735,-0.009105897508561611,-0.004578371532261372,-0.00809807050973177,0.009094220586121082,-0.008830743841826916,0.0,0.0,0.0,-0.002854396589100361,0.003413650905713439,-0.0,0.0,0.0,0.0,-0.0004870941338595003,0.0020958909299224615,-0.0005442533874884248,13494.0,13632.0,13167.0,13994.0,0.40609607100486755,0.41498497128486633,0.3854575455188751,0.43869099020957947,0.0,0.0,0.0,0.0,13649.0,13673.0,13316.0,13885.0,1.669904112815857,0.27419451131996186,0.13490254024440784,-1.5152653856360374,-0.013735989108681679,-0.008835137821733952,0.0
173,5,4.5071039494359866e-05,5.212839369050926e-06,2.257004780403804e-05,-0.0006104982458055019,-0.0013921860372647643,-0.007258033379912376,-0.0005611274391412735,-0.009105897508561611,-0.004578371532261372,-0.00809807050973177,0.009094220586121082,-0.008830743841826916,0.0,0.0,0.0,-0.0015552950790151954,0.0026544437278062105,-0.0,0.0,0.0,0.0,-0.0004870941338595003,0.0020958909299224615,-0.0005442533874884248,13494.0,13632.0,13167.0,13994.0,0.40609607100486755,0.41498497128486633,0.3854575455188751,0.43869099020957947,0.0,0.0,0.0,0.0,13649.0,13673.0,13316.0,13885.0,1.6572272777557373,0.27280675422901357,0.1352573714552597,-1.5154640105880208,-0.010600014589726925,-0.00477752648293972,0.0
178,5,3.3084619644796476e-05,6.727743766532512e-06,-6.91320883561275e-06,-0.0016825698548927903,-0.000738662900403142,0.0006347775924950838,-0.0005630245432257652,-0.009045322425663471,-0.004600177519023418,0.0012953081168234348,-0.01897096075117588,0.10345927625894547,0.0,0.0,0.0,-0.0015552950790151954,0.0026544437278062105,-0.0,0.0,0.0,0.0,0.00010812641994562,0.0019331224029883742,-0.0005820955848321319,14399.0,12999.0,13859.0,13383.0,0.46601271629333496,0.3750683665275574,0.42979180812835693,0.39903122186660767,0.0,0.0,0.0,0.0,13343.0,13775.0,13028.0,14128.0,1.6572272777557373,0.2735893360540747,0.13690907438483998,-1.51551206680718,-0.010600014589726925,-0.00477752648293972,0.0
183,5,3.53633331542369e-05,1.9698671167134307e-05,2.495841727068182e-05,-0.0003995823790319264,-0.0018519764998927712,-0.0035706842318177223,-0.0005630245432257652,-0.009045322425663471,-0.004600177519023418,0.0012953081168234348,-0.01897096075117588,0.10345927625894547,0.0,0.0,0.0,0.000921277329325676,-0.0015466122422367334,-0.0,0.0,0.0,0.0,0.00010812641994562,0.0019331224029883742,-0.0005820955848321319,14399.0,12999.0,13859.0,13383.0,0.46601271629333496,0.3750683665275574,0.42979180812835693,0.39903122186660767,0.0,0.0,0.0,0.0,13343.0,13775.0,13028.0,14128.0,1.644020676612854,0.27244398386400115,0.13505177771081275,-1.5161321550181754,0.006126892752945423,0.0028074115980416536,0.0
188,5,3.290123277110979e-05,-7.973906576808076e-06,-3.9126924093579873e-05,-0.00045528486953116953,0.0025799188297241926,0.006261967588216066,-0.0005542207509279251,-0.00924520194530487,-0.005088149104267359,0.011679394170641899,0.042862024158239365,-0.12352916598320007,0.0,0.0,0.0,0.000921277329325676,-0.0015466122422367334,-0.0,0.0,0.0,0.0,-0.0005885291029699147,0.004788341466337442,-0.00454729562625289,12196.0,15087.0,11250.0,15615.0,0.3273201286792755,0.5143260359764099,0.2752445638179779,0.5530134439468384,0.0,0.0,0.0,0.0,14868.0,12448.0,14340.0,12871.0,1.644020676612854,0.2754072874369984,0.13794642250571384,-1.515748208864478,0.006126892752945423,0.0028074115980416536,0.0
193,5,2.1779163944302127e-05,-1.1592036571528297e-05,-3.0315866752061993e-05,-0.0015167624223977327,0.0014661430614069104,0.001447460032068193,-0.0005542207509279251,-0.00924520194530487,-0.005088149104267359,0.011679394170641899,0.042862024158239365,-0.12352916598320007,0.0,0.0,0.0,-0.003172940108925104,-0.0003831231442745775,-0.0,0.0,0.0,0.0,-0.0005885291029699147,0.004788341466337442,-0.00454729562625289,12196.0,15087.0,11250.0,15615.0,0.3273201286792755,0.5143260359764099,0.2752445638179779,0.5530134439468384,0.0,0.0,0.0,0.0,14868.0,12448.0,14340.0,12871.0,1.6523985862731934,0.2734838533417329,0.13641337577422902,-1.5154492225403233,0.0015254673780873418,-0.009718157351016998,0.0
198,5,3.0080975648161257e-06,-1.9527740732883103e-05,-6.683375886495924e-06,-0.002859232947230339,0.0015387417515739799,-0.002256914973258972,-0.0005012935143895447,-0.008998618461191654,-0.004129687789827585,-0.024197157472372055,-0.025055253878235817,-0.039245106279850006,0.0,0.0,0.0,-0.003172940108925104,-0.0003831231442745775,-0.0,0.0,0.0,0.0,-0.00031432360992766917,0.0022505337838083506,0.0027623516507446766,13758.0,13485.0,13399.0,13840.0,0.4231567978858948,0.40554213523864746,0.40002304315567017,0.4285053014755249,0.0,0.0,0.0,0.0,14031.0,13286.0,13402.0,13754.0,1.6523985862731934,0.273593931224061,0.13575537933076098,-1.5163633109738197,0.0015254673780873418,-0.009718157351016998,0.0
203,5,3.106383155682124e-05,1.4157964869809803e-05,1.4834885405434761e-05,0.0022229948081076145,-0.003426788141950965,-0.0034849573858082294,-0.0005012935143895447,-0.008998618461191654,-0.004129687789827585,-0.024197157472372055,-0.025055253878235817,-0.039245106279850006,0.0,0.0,0.0,-0.0019115182803943753,-0.002678103279322386,-0.0,0.0,0.0,0.0,-0.00031432360992766917,0.0022505337838083506,0.0027623516507446766,13758.0,13485.0,13399.0,13840.0,0.4231567978858948,0.40554213523864746,0.40002304315567017,0.4285053014755249,0.0,0.0,0.0,0.0,14031.0,13286.0,13402.0,13754.0,1.6588059663772583,0.27603885077812396,0.13828541286104565,-1.5165213197984273,0.010704674758017063,-0.005877357441931963,0.0
208,5,7.284097955562174e-05,-4.069859642186202e-06,-4.2561772715998814e-05,0.0059024556539952755,0.0008166237967088819,0.005493616219609976,-0.0004373178817331791,-0.009037400595843792,-0.004580594599246979,0.02571999840438366,-0.01938159391283989,0.059138692915439606,0.0,0.0,0.0,-0.0019115182803943753,-0.002678103279322386,-0.0,0.0,0.0,0.0,0.00017814253806136549,0.002559553598985076,-0.0006779067916795611,13990.0,13127.0,13723.0,13425.0,0.43844762444496155,0.3829960525035858,0.42087456583976746,0.4017024338245392,0.0,0.0,0.0,0.0,14242.0,13091.0,13796.0,13250.0,1.6588059663772583,0.2747871877157555,0.13661488998825477,-1.5154579472017893,0.010704674758017063,-0.005877357441931963,0.0
213,5,6.292964826570824e-05,-4.371181148599135e-06,-1.3570170267485082e-05,0.001171622658148408,0.0003628080594353378,-0.00128154584672302,-0.0004373178817331791,-0.009037400595843792,-0.004580594599246979,0.02571999840438366,-0.01938159391283989,0.059138692915439606,0.0,0.0,0.0,-0.0009863206651061773,0.0055434685200452805,-0.0,0.0,0.0,0.0,0.00017814253806136549,0.002559553598985076,-0.0006779067916795611,13990.0,13127.0,13723.0,13425.0,0.43844762444496155,0.3829960525035858,0.42087456583976746,0.4017024338245392,0.0,0.0,0.0,0.0,14242.0,13091.0,13796.0,13250.0,1.6871187686920166,0.275208237431091,0.13787847753838126,-1.5162176122297382,-0.02253599278628826,-0.0030844109132885933,0.0
218,5,3.897762508131564e-05,-6.827474408055423e-06,1.3980170479044318e-05,-0.0024055938702076674,0.00043987840763293207,-0.003818659344688058,-0.0005301636992953718,-0.009156073443591595,-0.004499092698097229,-0.0011108883190900087,0.03223906457424164,-0.04918540269136429,0.0,0.0,0.0,-0.0009863206651061773,0.0055434685200452805,-0.0,0.0,0.0,0.0,-0.00035054353065788746,0.003328067483380437,-0.0007130130543373525,13320.0,13950.0,12739.0,14344.0,0.3950400650501251,0.43581125140190125,0.3592540919780731,0.46229317784309387,0.0,0.0,0.0,0.0,13225.0,14124.0,12650.0,14433.0,1.6871187686920166,0.2735065460771406,0.1366602350531899,-1.5161812702565813,-0.02253599278628826,-0.0030844109132885933,0.0
223,5,5.365250035538338e-05,-4.2088786358362995e-06,2.5434925191802904e-05,0.0007987474673427641,-0.00013828009832650423,-0.00290203420445323,-0.0005301636992953718,-0.009156073443591595,-0.004499092698097229,-0.0011108883190900087,0.03223906457424164,-0.04918540269136429,0.0,0.0,0.0,-0.0005515212542377412,-0.0022146154660731554,-0.0,0.0,0.0,0.0,-0.00035054353065788746,0.003328067483380437,-0.0007130130543373525,13320.0,13950.0,12739.0,14344.0,0.3950400650501251,0.43581125140190125,0.3592540919780731,0.46229317784309387,0.0,0.0,0.0,0.0,13225.0,14124.0,12650.0,14433.0,1.6500401496887207,0.2735169614809283,0.1364220515182305,-1.515756174313253,0.00880530383437872,-0.001686806557700038,0.0
229,5,7.780764281051233e-05,1.0984408049807826e-07,-1.7724481722325436e-06,0.003218116005882621,-0.0005735587910749018,0.002104070968925953,-0.0005181307205930352,-0.009744752198457718,-0.004312572535127401,-0.024305304512381554,0.05302872881293297,0.03706387057900429,0.0,0.0,0.0,-0.0005515212542377412,-0.0022146154660731554,-0.0,0.0,0.0,0.0,-0.0003004535974469036,0.0037245990242809057,0.0014423758257180452,14289.0,12945.0,13789.0,13451.0,0.45849043130874634,0.37177789211273193,0.4251934885978699,0.40334415435791016,0.0,0.0,0.0,0.0,13681.0,13752.0,12886.0,14573.0,1.6500401496887207,0.27444859176168546,0.13728661182623242,-1.516603044655429,0.00880530383437872,-0.001686806557700038,0.0
234,5,6.0595895774895325e-05,1.1955370382565889e-06,2.5004073904710822e-05,-0.0007781630847603083,-0.00035970666795037687,-0.0023715542629361153,-0.0005181307205930352,-0.009744752198457718,-0.004312572535127401,-0.024305304512381554,0.05302872881293297,0.03706387057900429,0.0,0.0,0.0,0.0006992855342105031,0.003124234965071082,-0.0,0.0,0.0,0.0,-0.0003004535974469036,0.0037245990242809057,0.0014423758257180452,14289.0,12945.0,13789.0,13451.0,0.45849043130874634,0.37177789211273193,0.4251934885978699,0.40334415435791016,0.0,0.0,0.0,0.0,13681.0,13752.0,12886.0,14573.0,1.6600703001022339,0.27360332700694356,0.13749481020881216,-1.5165713140928738,-0.012497445568442345,0.0021517386194318533,0.0
239,5,0.00011726738011930138,-1.7886346540763043e-05,-8.278555469587445e-06,0.006489312741905451,0.002145943231880665,0.0030452939681708813,-0.0005241620820015669,-0.010340182110667229,-0.004561091307550669,0.04368814826011658,0.13153591752052307,0.08549658209085464,0.0,0.0,0.0,0.0006992855342105031,0.003124234965071082,-0.0,0.0,0.0,0.0,-0.0002737899776548147,0.006913398392498493,-0.001174116157926619,14690.0,12811.0,13545.0,13832.0,0.4861418902873993,0.36360064148902893,0.4093731939792633,0.4280030429363251,0.0,0.0,0.0,0.0,14515.0,12679.0,13591.0,13524.0,1.6600703001022339,0.27562976776727705,0.13944447149542855,-1.5167806417228458,-0.012497445568442345,0.0021517386194318533,0.0
244,5,0.00014152989024296403,-4.005124719697051e-05,2.8598078642971814e-05,0.005507226567715406,0.00351816532202065,-0.003207078669220209,-0.0005241620820015669,-0.010340182110667229,-0.004561091307550669,0.04368814826011658,0.13153591752052307,0.08549658209085464,0.0,0.0,0.0,-0.002590214367955923,0.006110915914177895,-0.0,0.0,0.0,0.0,-0.0002737899776548147,0.006913398392498493,-0.001174116157926619,14690.0,12811.0,13545.0,13832.0,0.4861418902873993,0.36360064148902893,0.4093731939792633,0.4280030429363251,0.0,0.0,0.0,0.0,14515.0,12679.0,13591.0,13524.0,1.6965667009353638,0.2752432760296709,0.14004796024779503,-1.5165785971985415,-0.024981871247291565,-0.008145435713231564,0.0
249,5,0.00012478904682211578,-3.338685564813204e-05,0.00013878244499210268,0.00019398971926420927,0.0006075393757782876,-0.014504955150187016,-0.0005212784744799137,-0.01200962159782648,-0.004502587020397186,0.008898898027837276,0.14384274184703827,0.0006343855638988316,0.0,0.0,0.0,-0.002590214367955923,0.006110915914177895,-0.0,0.0,0.0,0.0,0.0005135327228344977,0.006433077622205019,-0.0015988870291039348,13775.0,13402.0,12852.0,14302.0,0.42426496744155884,0.4002658724784851,0.36607176065444946,0.4594375491142273,0.0,0.0,0.0,0.0,14061.0,13159.0,13000.0,14265.0,1.6965667009353638,0.2738444541119983,0.14082663580878124,-1.5170289827461108,-0.024981871247291565,-0.008145435713231564,0.0
254,5,0.0001344001793768257,-5.674247950082645e-05,0.00021924845350440592,0.0012309309095144272,0.003045690478757024,-0.01545790210366249,-0.0005212784744799137,-0.01200962159782648,-0.004502587020397186,0.008898898027837276,0.14384274184703827,0.0006343855638988316,0.0,0.0,0.0,-0.000813084130641073,0.0003598079492803663,-0.0,0.0,0.0,0.0,0.0005135327228344977,0.006433077622205019,-0.0015988870291039348,13775.0,13402.0,12852.0,14302.0,0.42426496744155884,0.4002658724784851,0.36607176065444946,0.4594375491142273,0.0,0.0,0.0,0.0,14061.0,13159.0,13000.0,14265.0,1.6334550380706787,0.27310958721573564,0.13940976964175375,-1.5162230687323797,-0.0014162167208269238,-0.00246179080568254,0.0
259,5,0.0001778751757228747,-8.214666013373062e-05,0.00021437172836158425,0.00570937292650342,0.004266778472810984,-0.00559795368462801,-0.0005212784744799137,-0.01200962159782648,-0.004502587020397186,0.008898898027837276,0.14384274184703827,0.0006343855638988316,0.0,0.0,0.0,-0.000813084130641073,0.0003598079492803663,-0.0,0.0,0.0,0.0,0.0005135327228344977,0.006433077622205019,-0.0015988870291039348,13775.0,13402.0,12852.0,14302.0,0.42426496744155884,0.4002658724784851,0.36607176065444946,0.4594375491142273,0.0,0.0,0.0,0.0,14061.0,13159.0,13000.0,14265.0,1.6334550380706787,0.2753535353120683,0.14195111581311998,-1.517095119076108,-0.0014162167208269238,-0.00246179080568254,0.0
264,5,0.00015173936844803393,-0.00011393805471016094,0.00027728837449103594,-0.0008525484008714557,0.005521678365767002,-0.00978918094187975,-0.00042701754136942327,-0.012620832771062851,-0.0042858910746872425,0.012854622676968575,0.04346281290054321,-0.00565275177359581,0.0,0.0,0.0,-0.005219398532062769,0.005464311223477125,-0.0,0.0,0.0,0.0,-0.00026924756821244955,0.0063325464725494385,0.0005006281426176429,13922.0,13350.0,13047.0,14180.0,0.43394917249679565,0.39697158336639404,0.3779967427253723,0.4511528015136719,0.0,0.0,0.0,0.0,13950.0,13707.0,12931.0,14458.0,1.7006069421768188,0.2733243094467592,0.13913798983540138,-1.5156662429620014,-0.02239149995148182,-0.016452403739094734,0.0
270,5,0.00018072158854920417,-0.000128366140415892,0.000325105560477823,0.003136846935376525,0.003940041642636061,-0.009653733111917973,-0.00042701754136942327,-0.012620832771062851,-0.0042858910746872425,0.012854622676968575,0.04346281290054321,-0.00565275177359581,0.0,0.0,0.0,-0.005219398532062769,0.005464311223477125,-0.0,0.0,0.0,0.0,-0.00026924756821244955,0.0063325464725494385,0.0005006281426176429,13922.0,13350.0,13047.0,14180.0,0.43394917249679565,0.39697158336639404,0.3779967427253723,0.4511528015136719,0.0,0.0,0.0,0.0,13950.0,13707.0,12931.0,14458.0,1.7006069421768188,0.27369044540565035,0.13880252746619343,-1.5159864162185908,-0.02239149995148182,-0.016452403739094734,0.0
275,5,0.00014806081890128553,-0.00016228252206929028,0.00034203421091660857,-0.002664553467184305,0.005645981524139643,-0.005892932880669832,-0.00024310934531968087,-0.0123304957523942,-0.004145016428083181,0.03556327149271965,-0.08357912302017212,0.04859588295221329,0.0,0.0,0.0,-0.004971918649971485,0.0031523944344371557,-0.0,0.0,0.0,0.0,-0.000666502513922751,0.0002967508917208761,-0.0018906123004853725,14556.0,13096.0,13881.0,13516.0,0.47682544589042664,0.38104721903800964,0.43120840191841125,0.40748563408851624,0.0,0.0,0.0,0.0,13966.0,13751.0,13439.0,13929.0,1.6799333095550537,0.27335889807753116,0.13722495020857653,-1.5154030179306284,-0.01276081521064043,-0.0154817970469594,0.0
280,5,0.00012432236690074205,-0.00018326407007407397,0.00038137263618409634,-0.00391443632543087,0.004776179790496826,-0.007077783811837435,-0.00024310934531968087,-0.0123304957523942,-0.004145016428083181,0.03556327149271965,-0.08357912302017212,0.04859588295221329,0.0,0.0,0.0,-0.004971918649971485,0.0031523944344371557,-0.0,0.0,0.0,0.0,-0.000666502513922751,0.0002967508917208761,-0.0018906123004853725,14556.0,13096.0,13881.0,13516.0,0.47682544589042664,0.38104721903800964,0.43120840191841125,0.40748563408851624,0.0,0.0,0.0,0.0,13966.0,13751.0,13439.0,13929.0,1.6799333095550537,0.27148732307337864,0.13439498760307161,-1.5152347764053788,-0.01276081521064043,-0.0154817970469594,0.0
285,5,0.0001140716194640845,-0.0002442160912323743,0.0003678493376355618,-0.0027958631981164217,0.009224713779985905,-0.0012083181645721197,-8.131803042488173e-05,-0.011249634437263012,-0.004346172325313091,0.017968719825148582,-0.1685917228460312,0.017452921718358994,0.0,0.0,0.0,-0.006042619235813618,-0.00343735096976161,-0.0,0.0,0.0,0.0,-0.0016976607730612159,0.0010256986133754253,0.00023958715610206127,13154.0,13947.0,13180.0,13815.0,0.3846842646598816,0.43560516834259033,0.3862879276275635,0.4268776774406433,0.0,0.0,0.0,0.0,13732.0,13445.0,13707.0,13227.0,1.689233660697937,0.27325245300076456,0.13688684136930937,-1.5157389371046575,0.013991257175803185,-0.018919894471764565,0.0
290,5,0.00011579094280023128,-0.0002994457900058478,0.0003798261459451169,-0.0009120266768150032,0.01031744945794344,-0.0019205418648198247,-8.131803042488173e-05,-0.011249634437263012,-0.004346172325313091,0.017968719825148582,-0.1685917228460312,0.017452921718358994,0.0,0.0,0.0,-0.006042619235813618,-0.00343735096976161,-0.0,0.0,0.0,0.0,-0.0016976607730612159,0.0010256986133754253,0.00023958715610206127,13154.0,13947.0,13180.0,13815.0,0.3846842646598816,0.43560516834259033,0.3862879276275635,0.4268776774406433,0.0,0.0,0.0,0.0,13732.0,13445.0,13707.0,13227.0,1.689233660697937,0.2738532324087659,0.13763512500016287,-1.515767716622825,0.013991257175803185,-0.018919894471764565,0.0
295,5,9.597349708201364e-05,-0.0003540130564942956,0.0004183030396234244,-0.0027429035399109125,0.010675051249563694,-0.005385445896536112,2.816878077283036e-05,-0.009525641798973083,-0.004256950691342354,0.0033868616446852684,-0.11725131422281265,-0.05556551367044449,0.0,0.0,0.0,-0.01254939939826727,-0.0006649792776443064,-0.0,0.0,0.0,0.0,-0.000976730603724718,0.0025483660865575075,0.0007046468090265989,13444.0,14344.0,12969.0,14343.0,0.40290525555610657,0.46226760745048523,0.3732128441333771,0.46222123503685,0.0,0.0,0.0,0.0,13620.0,14149.0,13083.0,14268.0,1.7342908382415771,0.2723712596705065,0.1365900895033187,-1.514775008276314,0.0027787387371063232,-0.04033970460295677,0.0
300,5,5.954392327112146e-05,-0.0003803414583671838,0.0004938615020364523,-0.005468710325658321,0.007429429329931736,-0.011221195571124554,2.816878077283036e-05,-0.009525641798973083,-0.004256950691342354,0.0033868616446852684,-0.11725131422281265,-0.05556551367044449,0.0,0.0,0.0,-0.01254939939826727,-0.0006649792776443064,-0.0,0.0,0.0,0.0,-0.000976730603724718,0.0025483660865575075,0.0007046468090265989,13444.0,14344.0,12969.0,14343.0,0.40290525555610657,0.46226760745048523,0.3732128441333771,0.46222123503685,0.0,0.0,0.0,0.0,13620.0,14149.0,13083.0,14268.0,1.7342908382415771,0.273392719832283,0.13945435195530592,-1.5162891096574773,0.0027787387371063232,-0.04033970460295677,0.0
305,5,5.712971687898971e-05,-0.00045314792077988386,0.0005045980215072632,-0.0024771892931312323,0.011708546429872513,-0.005776858422905207,-0.00010379229934187606,-0.00917001161724329,-0.00405684532597661,-0.044604357331991196,-0.01467603538185358,0.03782208636403084,0.0,0.0,0.0,-0.009380958043038845,-0.004860200919210911,-0.0,0.0,0.0,0.0,-0.0007149778539314866,0.002675694413483143,-0.00196076650172472,14407.0,13103.0,13847.0,13444.0,0.4666022062301636,0.381475567817688,0.42896103858947754,0.4028944969177246,0.0,0.0,0.0,0.0,13775.0,13695.0,13209.0,14141.0,1.7228124141693115,0.274278301258105,0.13949736574260055,-1.5158317832639876,0.020175453275442123,-0.02995588630437851,0.0
310,5,1.9107197658740915e-05,-0.0004645677108783275,0.0005600631702691317,-0.0055535780265927315,0.006053794175386429,-0.008966563269495964,-0.00010379229934187606,-0.00917001161724329,-0.00405684532597661,-0.044604357331991196,-0.01467603538185358,0.03782208636403084,0.0,0.0,0.0,-0.009380958043038845,-0.004860200919210911,-0.0,0.0,0.0,0.0,-0.0007149778539314866,0.002675694413483143,-0.00196076650172472,14407.0,13103.0,13847.0,13444.0,0.4666022062301636,0.381475567817688,0.42896103858947754,0.4028944969177246,0.0,0.0,0.0,0.0,13775.0,13695.0,13209.0,14141.0,1.7228124141693115,0.2748789218494408,0.14083652458838375,-1.5161680834441162,0.020175453275442123,-0.02995588630437851,0.0
315,5,-1.5549671843473334e-06,-0.0005104352021589875,0.0005827196291647851,-0.004700890742242336,0.007925615645945072,-0.006305398885160685,-0.0006783011485822499,-0.009436055086553097,-0.00422297278419137,-0.038179781287908554,0.04282630607485771,0.028191357851028442,0.0,0.0,0.0,-0.009380958043038845,-0.004860200919210911,-0.0,0.0,0.0,0.0,-0.0010395512217655778,0.0019059174228459597,-0.0010775587288662791,13490.0,14711.0,12661.0,14690.0,0.40583640336990356,0.48765844106674194,0.3546028733253479,0.48619312047958374,0.0,0.0,0.0,0.0,14250.0,13363.0,13789.0,13560.0,1.7228124141693115,0.2739925274424677,0.13933892963954975,-1.5160015040685706,0.020175453275442123,-0.02995588630437851,0.0
320,5,-1.4595137145079207e-05,-0.0005450964090414345,0.0005978662520647049,-0.003445176873356104,0.00732958922162652,-0.00433975039049983,-0.0006783011485822499,-0.009436055086553097,-0.00422297278419137,-0.038179781287908554,0.04282630607485771,0.028191357851028442,0.0,0.0,0.0,-0.010174372233450413,-0.004241744056344032,-0.0,0.0,0.0,0.0,-0.0010395512217655778,0.0019059174228459597,-0.0010775587288662791,13490.0,14711.0,12661.0,14690.0,0.40583640336990356,0.48765844106674194,0.3546028733253479,0.48619312047958374,0.0,0.0,0.0,0.0,14250.0,13363.0,13789.0,13560.0,1.7251759767532349,0.2747902762853157,0.13981850236851764,-1.5155348961412378,0.017632178962230682,-0.03253388777375221,0.0
325,5,-6.770976324332878e-05,-0.0005540974088944495,0.0006570577970705926,-0.0077518257312476635,0.004011956509202719,-0.008838889189064503,-0.000812793499790132,-0.009464012458920479,-0.004249950405210257,-0.022407252341508865,0.005020534619688988,-0.06683815270662308,0.0,0.0,0.0,-0.010174372233450413,-0.004241744056344032,-0.0,0.0,0.0,0.0,-0.0028319729026407003,0.0011078427778556943,0.0009552426054142416,14248.0,13734.0,14083.0,13411.0,0.4557742774486542,0.421610563993454,0.44462916254997253,0.40079841017723083,0.0,0.0,0.0,0.0,13699.0,14513.0,12966.0,14428.0,1.7251759767532349,0.27473448433947645,0.13984566227589448,-1.5158963623584538,0.017632178962230682,-0.03253388777375221,0.0
330,5,-9.108411177294329e-05,-0.000542527181096375,0.0007053671288304031,-0.005905652418732643,0.00021636029123328626,-0.00933267641812563,-0.000812793499790132,-0.009464012458920479,-0.004249950405210257,-0.022407252341508865,0.005020534619688988,-0.06683815270662308,0.0,0.0,0.0,-0.005681739654392004,-0.0071083614602684975,-0.0,0.0,0.0,0.0,-0.0028319729026407003,0.0011078427778556943,0.0009552426054142416,14248.0,13734.0,14083.0,13411.0,0.4557742774486542,0.421610563993454,0.44462916254997253,0.40079841017723083,0.0,0.0,0.0,0.0,13699.0,14513.0,12966.0,14428.0,1.7186475992202759,0.27328762389582345,0.13800007404269674,-1.5152927395304083,0.029437273740768433,-0.018099745735526085,0.0
336,5,-0.00018206863023806363,-0.0005444033304229379,0.0007610579486936331,-0.013280403800308704,0.0003116769948974252,-0.010415970347821712,-0.001656578155234456,-0.008057749830186367,-0.004569664131850004,-0.10597649961709976,-0.14267703890800476,0.047391366213560104,0.0,0.0,0.0,-0.005681739654392004,-0.0071083614602684975,-0.0,0.0,0.0,0.0,-0.0011849834118038416,-0.0016721973661333323,-0.00158848671708256,13871.0,14014.0,14072.0,13565.0,0.4305691719055176,0.4400392174720764,0.4438823461532593,0.4106852412223816,0.0,0.0,0.0,0.0,13245.0,14643.0,13189.0,14352.0,1.7186475992202759,0.27062937847369195,0.13687548125070534,-1.5159568873451168,0.029437273740768433,-0.018099745735526085,0.0
341,5,-0.00025742416619323194,-0.0005206054775044322,0.0007880927878431976,-0.014354826882481575,-0.0027310706209391356,-0.007410566788166761,-0.001656578155234456,-0.008057749830186367,-0.004569664131850004,-0.10597649961709976,-0.14267703890800476,0.047391366213560104,0.0,0.0,0.0,-0.0012774679344147444,-0.011964614503085613,-0.0,0.0,0.0,0.0,-0.0011849834118038416,-0.0016721973661333323,-0.00158848671708256,13871.0,14014.0,14072.0,13565.0,0.4305691719055176,0.4400392174720764,0.4438823461532593,0.4106852412223816,0.0,0.0,0.0,0.0,13245.0,14643.0,13189.0,14352.0,1.7620397806167603,0.26978980753723464,0.13789672471167563,-1.5156389531584202,0.05079905316233635,-0.00417228601872921,0.0
346,5,-0.00028726685559377074,-0.000519797089509666,0.0007781105232425034,-0.009323053061962128,-0.0011894326889887452,-0.0017663507023826241,-0.0027631318662315607,-0.006955270655453205,-0.004793237894773483,-0.08628794550895691,-0.06002798303961754,-0.07829169183969498,0.0,0.0,0.0,-0.0012774679344147444,-0.011964614503085613,-0.0,0.0,0.0,0.0,0.0006218332564458251,-0.0019069607369601727,-0.0021867044270038605,12702.0,14850.0,13030.0,14705.0,0.3570661246776581,0.49740520119667053,0.37698861956596375,0.4871876537799835,0.0,0.0,0.0,0.0,14156.0,13669.0,14370.0,13306.0,1.7620397806167603,0.2727537571336616,0.13998663144019058,-1.5163727887270193,0.05079905316233635,-0.00417228601872921,0.0
351,5,-0.0003541659389156848,-0.000499975576531142,0.000815807725302875,-0.011757109314203262,-0.0028543572407215834,-0.005230206996202469,-0.0027631318662315607,-0.006955270655453205,-0.004793237894773483,-0.08628794550895691,-0.06002798303961754,-0.07829169183969498,0.0,0.0,0.0,0.000497690518386662,-0.00879568513482809,-0.0,0.0,0.0,0.0,0.0006218332564458251,-0.0019069607369601727,-0.0021867044270038605,12702.0,14850.0,13030.0,14705.0,0.3570661246776581,0.49740520119667053,0.37698861956596375,0.4871876537799835,0.0,0.0,0.0,0.0,14156.0,13669.0,14370.0,13306.0,1.7239941358566284,0.26997005260555496,0.1378970326192634,-1.516249944036561,0.03653858229517937,0.0015903901075944304,0.0
356,5,-0.00040190276922658086,-0.0004684299638029188,0.0008370075956918299,-0.010431263595819473,-0.004927216097712517,-0.004636070691049099,-0.0030324249528348446,-0.00659616244956851,-0.00429534912109375,-0.011808108538389206,-0.030630992725491524,-0.011088774539530277,0.0,0.0,0.0,0.000497690518386662,-0.00879568513482809,-0.0,0.0,0.0,0.0,-0.00048340941430069506,-0.0013175982749089599,0.001652877894230187,13960.0,13833.0,14025.0,13607.0,0.4364281892776489,0.4280702471733093,0.44079118967056274,0.4133579730987549,0.0,0.0,0.0,0.0,13273.0,14371.0,13469.0,14280.0,1.7239941358566284,0.27079537965443795,0.13875790820819386,-1.5157526930148129,0.03653858229517937,0.0015903901075944304,0.0
361,5,-0.00047609535977244377,-0.00046034183469600976,0.0008564846939407289,-0.01307561807334423,-0.0029414615128189325,-0.004191679880023003,-0.0030324249528348446,-0.00659616244956851,-0.00429534912109375,-0.011808108538389206,-0.030630992725491524,-0.011088774539530277,0.0,0.0,0.0,0.004913789220154285,-0.009831968694925308,-0.0,0.0,0.0,0.0,-0.00048340941430069506,-0.0013175982749089599,0.001652877894230187,13960.0,13833.0,14025.0,13607.0,0.4364281892776489,0.4280702471733093,0.44079118967056274,0.4133579730987549,0.0,0.0,0.0,0.0,13273.0,14371.0,13469.0,14280.0,1.7444002628326416,0.2701057958546252,0.1383859086945735,-1.5167966609266297,0.04132627695798874,0.01588795706629753,0.0
366,5,-0.0005252272239886224,-0.0003976750303991139,0.0008855928317643702,-0.011126070283353329,-0.008696598932147026,-0.005169644486159086,-0.0032891244627535343,-0.006351799238473177,-0.0044259424321353436,-0.03796369582414627,-0.05186394602060318,0.10254189372062683,0.0,0.0,0.0,0.004913789220154285,-0.009831968694925308,-0.0,0.0,0.0,0.0,0.0009615323506295681,-0.0019596125930547714,-0.0008456897339783609,13954.0,13955.0,14383.0,13786.0,0.4360384941101074,0.43608278036117554,0.4649312496185303,0.424987256526947,0.0,0.0,0.0,0.0,14297.0,13191.0,14774.0,13175.0,1.7444002628326416,0.2704560214801611,0.1376729990843835,-1.5159734015096211,0.04132627695798874,0.01588795706629753,0.0
371,5,-0.000595851568505168,-0.00036567437928169966,0.0009110256796702743,-0.012925351038575172,-0.007318719755858183,-0.005119797307997942,-0.0032891244627535343,-0.006351799238473177,-0.0044259424321353436,-0.03796369582414627,-0.05186394602060318,0.10254189372062683,0.0,0.0,0.0,0.009269509464502335,-0.010460448451340199,-0.0,0.0,0.0,0.0,0.0009615323506295681,-0.0019596125930547714,-0.0008456897339783609,13954.0,13955.0,14383.0,13786.0,0.4360384941101074,0.43608278036117554,0.4649312496185303,0.424987256526947,0.0,0.0,0.0,0.0,14297.0,13191.0,14774.0,13175.0,1.7700083255767822,0.27015361529532367,0.13849506559119376,-1.5164144711954748,0.04461192339658737,0.030410902574658394,0.0
376,5,-0.0006345109432004392,-0.00032383573125116527,0.000884872511960566,-0.009809263050556183,-0.007948122918605804,0.0010904604569077492,-0.003589208237826824,-0.005990739446133375,-0.004738935269415379,-0.02352951653301716,-0.06289521604776382,-0.08175525069236755,0.0,0.0,0.0,0.009269509464502335,-0.010460448451340199,-0.0,0.0,0.0,0.0,0.0017593043157830834,-0.0017854943871498108,-0.0030114459805190563,12374.0,15027.0,12934.0,14961.0,0.3376151919364929,0.5100144743919373,0.3710760474205017,0.5052884221076965,0.0,0.0,0.0,0.0,14297.0,13191.0,14774.0,13175.0,1.7700083255767822,0.27259652154890995,0.13909422108288744,-1.5166287981957662,0.04461192339658737,0.030410902574658394,0.0
381,5,-0.0007264469168148935,-0.0002819462970364839,0.0009163216454908252,-0.014956019818782806,-0.008205982856452465,-0.0033377138897776604,-0.003589208237826824,-0.005990739446133375,-0.004738935269415379,-0.02352951653301716,-0.06289521604776382,-0.08175525069236755,0.0,0.0,0.0,0.008600423112511635,-0.00951369572430849,-0.0,0.0,0.0,0.0,0.0017593043157830834,-0.0017854943871498108,-0.0030114459805190563,12374.0,15027.0,12934.0,14961.0,0.3376151919364929,0.5100144743919373,0.3710760474205017,0.5052884221076965,0.0,0.0,0.0,0.0,14297.0,13191.0,14774.0,13175.0,1.757035493850708,0.2705882757378496,0.13729470781956646,-1.516779982478061,0.04027717933058739,0.02800910174846649,-0.0
386,5,-0.0007932942826300859,-0.0002492301573511213,0.0009170218836516142,-0.014004095457494259,-0.00720833009108901,-0.0014191126683726907,-0.003589208237826824,-0.005990739446133375,-0.004738935269415379,-0.02352951653301716,-0.06289521604776382,-0.08175525069236755,0.0,0.0,0.0,0.008600423112511635,-0.00951369572430849,-0.0,0.0,0.0,0.0,0.0017593043157830834,-0.0017854943871498108,-0.0030114459805190563,12374.0,15027.0,12934.0,14961.0,0.3376151919364929,0.5100144743919373,0.3710760474205017,0.5052884221076965,0.0,0.0,0.0,0.0,14297.0,13191.0,14774.0,13175.0,1.757035493850708,0.2718132494570641,0.13784071196181588,-1.5164258307182918,0.04027717933058739,0.02800910174846649,-0.0
392,5,-0.0008866258431226015,-0.0002109936176566407,0.0009081336320377886,-0.016801422461867332,-0.007471716497093439,0.0004989404114894569,-0.00369474315084517,-0.00468252319842577,-0.004404793493449688,0.0041898745112121105,-0.12438661605119705,-0.020213264971971512,0.0,0.0,0.0,0.007720616180449724,-0.013174193911254406,-0.0,0.0,0.0,0.0,0.0025356668047606945,-0.004364388063549995,0.001982596702873707,13948.0,13634.0,14842.0,13347.0,0.43567657470703125,0.4151301980018616,0.4968443512916565,0.3967491388320923,0.0,0.0,0.0,0.0,12276.0,15169.0,13442.0,15097.0,1.7920032739639282,0.2725023358130901,0.13764818692999156,-1.5173828069318689,0.056883882731199265,0.02564433589577675,0.0
397,5,-0.0009511480457149446,-0.00019121536752209067,0.0009220644133165479,-0.01446323562413454,-0.005362076684832573,-0.0014721173793077469,-0.00369474315084517,-0.00468252319842577,-0.004404793493449688,0.0041898745112121105,-0.12438661605119705,-0.020213264971971512,0.0,0.0,0.0,0.007720616180449724,-0.013174193911254406,-0.0,0.0,0.0,0.0,0.0025356668047606945,-0.004364388063549995,0.001982596702873707,13948.0,13634.0,14842.0,13347.0,0.43567657470703125,0.4151301980018616,0.4968443512916565,0.3967491388320923,0.0,0.0,0.0,0.0,12276.0,15169.0,13442.0,15097.0,1.7920032739639282,0.27195721480282964,0.13702915430391735,-1.5168468612869206,0.056883882731199265,0.02564433589577675,0.0
402,5,-0.0011102509452030063,-0.0001778944133548066,0.0009312111069448292,-0.015257827006280422,-0.0010990126756951213,-0.002300447318702936,-0.003608006751164794,-0.003830342087894678,-0.004542648326605558,-0.010070369578897953,-0.13582848012447357,0.14299550652503967,0.0,0.0,0.0,0.005731611046940088,-0.013773661106824875,-0.0,0.0,0.0,0.0,0.0035101626999676228,-0.00477752136066556,-0.000292231299681589,14335.0,13252.0,15456.0,13019.0,0.46166253089904785,0.39079540967941284,0.5412339568138123,0.3763164281845093,0.0,0.0,0.0,0.0,14455.0,13303.0,15646.0,12963.0,1.7921319007873535,0.2719461134762977,0.13700395132992507,-1.5172717569106713,0.05947718396782875,0.019039297476410866,0.0
407,5,-0.0012213146546855569,-0.0001578858937136829,0.0009668609709478915,-0.019430773332715034,-0.0028406265191733837,-0.005198159720748663,-0.003608006751164794,-0.003830342087894678,-0.004542648326605558,-0.010070369578897953,-0.13582848012447357,0.14299550652503967,0.0,0.0,0.0,0.005731611046940088,-0.013773661106824875,-0.0,0.0,0.0,0.0,0.0035101626999676228,-0.00477752136066556,-0.000292231299681589,14335.0,13252.0,15456.0,13019.0,0.46166253089904785,0.39079540967941284,0.5412339568138123,0.3763164281845093,0.0,0.0,0.0,0.0,14455.0,13303.0,15646.0,12963.0,1.7921319007873535,0.2728028280393539,0.13773021983939862,-1.51691919705291,0.05947718396782875,0.019039297476410866,0.0
412,5,-0.0013148777652531862,-0.00016558256174903363,0.0009556477307341993,-0.018999889492988586,-0.0002126513427356258,-0.0007336769485846162,-0.003708133939653635,-0.0025687715969979763,-0.004683817271143198,-0.00011522002023411915,-0.08225342631340027,-0.08421522378921509,0.0,0.0,0.0,0.0028665054123848677,-0.017971258610486984,-0.0,0.0,0.0,0.0,0.003399614244699478,-0.005125452298671007,-0.0034321832936257124,11990.0,15584.0,13228.0,15391.0,0.31562432646751404,0.5507127046585083,0.389267235994339,0.5363989472389221,0.0,0.0,0.0,0.0,13501.0,14319.0,14678.0,14007.0,1.8381630182266235,0.272662830581788,0.13775734847074875,-1.5165969463198927,0.0795956403017044,0.00976661965250969,0.0
417,5,-0.0013148777652531862,-0.00016558256174903363,0.0009556477307341993,-0.018999889492988586,-0.0002126513427356258,-0.0007336769485846162,-0.003708133939653635,-0.0025687715969979763,-0.004683817271143198,-0.00011522002023411915,-0.08225342631340027,-0.08421522378921509,0.0,0.0,0.0,0.0028665054123848677,-0.017971258610486984,-0.0,0.0,0.0,0.0,0.003399614244699478,-0.005125452298671007,-0.0034321832936257124,11990.0,15584.0,13228.0,15391.0,0.31562432646751404,0.5507127046585083,0.389267235994339,0.5363989472389221,0.0,0.0,0.0,0.0,13501.0,14319.0,14678.0,14007.0,1.8381630182266235,0.272662830581788,0.13775734847074875,-1.5165969463198927,0.0795956403017044,0.00976661965250969,0.0
422,5,-0.0014635558472946286,-0.00020584408775903285,0.0009005045285448432,-0.01781880296766758,0.003544417442753911,-0.0006066590431146324,-0.003706630552187562,-0.0017697568982839584,-0.0038450497668236494,-0.0027908491902053356,-0.07937297224998474,-0.023979490622878075,0.0,0.0,0.0,-3.859855132759549e-05,-0.017765842378139496,-0.0,0.0,0.0,0.0,0.0019479331094771624,-0.006718363147228956,0.00016857834998518229,13698.0,14187.0,14830.0,13790.0,0.4192705750465393,0.4516310691833496,0.4959692358970642,0.4252610206604004,0.0,0.0,0.0,0.0,12015.0,15612.0,13242.0,15332.0,1.8337891101837158,0.27208882457339895,0.13327636179044583,-1.514177870812567,0.07849902659654617,-0.00013119852519594133,0.0
427,5,-0.0015635655727237463,-0.00019428353698458523,0.0009138232562690973,-0.01912868022918701,3.0501620130962692e-05,-0.0018409088952466846,-0.003706630552187562,-0.0017697568982839584,-0.0038450497668236494,-0.0027908491902053356,-0.07937297224998474,-0.023979490622878075,0.0,0.0,0.0,-3.859855132759549e-05,-0.017765842378139496,-0.0,0.0,0.0,0.0,0.0019479331094771624,-0.006718363147228956,0.00016857834998518229,13698.0,14187.0,14830.0,13790.0,0.4192705750465393,0.4516310691833496,0.4959692358970642,0.4252610206604004,0.0,0.0,0.0,0.0,12015.0,15612.0,13242.0,15332.0,1.8337891101837158,0.27181144513391575,0.13352972796881216,-1.5150505261809064,0.07849902659654617,-0.00013119852519594133,0.0
432,5,-0.0016711828066036105,-0.00020158237020950764,0.0009157488821074367,-0.020565548911690712,0.000888060312718153,-0.0009674400207586586,-0.00373150035738945,-0.0009202398941852152,-0.0037224632687866688,0.005119790323078632,-0.08341269195079803,0.1934301108121872,0.0,0.0,0.0,-0.00035257224226370454,-0.018138371407985687,-0.0,0.0,0.0,0.0,0.0013045907253399491,-0.006595989223569632,-0.0037788653280586004,14356.0,13998.0,15465.0,13308.0,0.4630739092826843,0.4389480948448181,0.5418705344200134,0.39427047967910767,0.0,0.0,0.0,0.0,14993.0,13268.0,16154.0,12497.0,1.8386026620864868,0.27190889872508467,0.13323798859699648,-1.5153508710996673,0.08035524934530258,-0.0012015574611723423,0.0
438,5,-0.0017524943687021732,-0.00021220358030404896,0.0009132305858656764,-0.017983606085181236,0.0016297695692628622,-8.478025119984522e-05,-0.00373150035738945,-0.0009202398941852152,-0.0037224632687866688,0.005119790323078632,-0.08341269195079803,0.1934301108121872,0.0,0.0,0.0,-0.00035257224226370454,-0.018138371407985687,-0.0,0.0,0.0,0.0,0.0013045907253399491,-0.006595989223569632,-0.0037788653280586004,14356.0,13998.0,15465.0,13308.0,0.4630739092826843,0.4389480948448181,0.5418705344200134,0.39427047967910767,0.0,0.0,0.0,0.0,14993.0,13268.0,16154.0,12497.0,1.8386026620864868,0.2707879255556157,0.1319151396146627,-1.5138156894662558,0.08035524934530258,-0.0012015574611723423,0.0
443,5,-0.001845149789005518,-0.00023104745196178555,0.0009513889090158045,-0.018312087282538414,0.0029131716582924128,-0.004612915217876434,-0.0039005170110613108,-0.0004117740609217435,-0.004208672326058149,-0.0017894594930112362,-0.053762853145599365,-0.09360445290803909,0.0,0.0,0.0,-0.0021502783056348562,-0.017476476728916168,-0.0,0.0,0.0,0.0,0.0005836638156324625,-0.00809761043637991,0.00482574850320816,11953.0,16126.0,13157.0,15488.0,0.3135409951210022,0.5827755928039551,0.3931792676448822,0.5341176986694336,0.0,0.0,0.0,0.0,13284.0,15106.0,14366.0,14333.0,1.8310832977294922,0.27091637823614845,0.13288778171605675,-1.513585874613746,0.07710646092891693,-0.00729811517521739,0.0
448,5,-0.001962113194167614,-0.0002557596017140895,0.0009647923870943487,-0.021360451355576515,0.0041307248175144196,-0.0034535785671323538,-0.0039005170110613108,-0.0004117740609217435,-0.004208672326058149,-0.0017894594930112362,-0.053762853145599365,-0.09360445290803909,0.0,0.0,0.0,-0.0021502783056348562,-0.017476476728916168,-0.0,0.0,0.0,0.0,0.0005836638156324625,-0.00809761043637991,0.00482574850320816,11953.0,16126.0,13157.0,15488.0,0.3135409951210022,0.5827755928039551,0.3931792676448822,0.5341176986694336,0.0,0.0,0.0,0.0,13284.0,15106.0,14366.0,14333.0,1.8310832977294922,0.26912946840185087,0.1295634439702936,-1.5136815004658144,0.07710646092891693,-0.00729811517521739,0.0
453,5,-0.0020361493807286024,-0.0002704293583519757,0.0009353627101518214,-0.017428524792194366,0.003412662772461772,0.0021501309238374233,-0.0038211781065911055,0.00031069800024852157,-0.0032512133475393057,-0.003535584080964327,-0.09537249803543091,-0.02574526146054268,0.0,0.0,0.0,-0.004881309345364571,-0.020183740183711052,-0.0,0.0,0.0,0.0,0.0003710394958034158,-0.007418511435389519,-0.002283163368701935,14147.0,14313.0,15252.0,13330.0,0.4489465057849884,0.46014347672462463,0.5262858867645264,0.39570745825767517,0.0,0.0,0.0,0.0,12016.0,16141.0,13338.0,15336.0,1.8697582483291626,0.2702950953465377,0.13028262892313358,-1.5126564054996345,0.09092940390110016,-0.0169171504676342,0.0
458,5,-0.002124947961419821,-0.00028174626640975475,0.0009510735399089754,-0.01762722060084343,0.002723093144595623,-0.0010252523934468627,-0.0038211781065911055,0.00031069800024852157,-0.0032512133475393057,-0.003535584080964327,-0.09537249803543091,-0.02574526146054268,0.0,0.0,0.0,-0.004881309345364571,-0.020183740183711052,-0.0,0.0,0.0,0.0,0.0003710394958034158,-0.007418511435389519,-0.002283163368701935,14147.0,14313.0,15252.0,13330.0,0.4489465057849884,0.46014347672462463,0.5262858867645264,0.39570745825767517,0.0,0.0,0.0,0.0,12016.0,16141.0,13338.0,15336.0,1.8697582483291626,0.2700644640416798,0.12958083242432183,-1.5122831089438973,0.09092940390110016,-0.0169171504676342,0.0
463,5,-0.0022458736784756184,-0.00027713991585187614,0.0010058280313387513,-0.02156197652220726,0.0005364748649299145,-0.006980642210692167,-0.0038211781065911055,0.00031069800024852157,-0.0032512133475393057,-0.003535584080964327,-0.09537249803543091,-0.02574526146054268,0.0,0.0,0.0,-0.0034653188195079565,-0.017609646543860435,-0.0,0.0,0.0,0.0,0.0003710394958034158,-0.007418511435389519,-0.002283163368701935,14147.0,14313.0,15252.0,13330.0,0.2967681288719177,0.640106737613678,0.3723794221878052,0.5605039596557617,0.0,0.0,0.0,0.0,15415.0,12993.0,16420.0,11774.0,1.8343628644943237,0.2685372937873179,0.12788425542542725,-1.5136794501176651,0.07783281803131104,-0.011782445013523102,0.0
