timestamp,dt,pos_x,pos_y,pos_z,vel_x,vel_y,vel_z,roll,pitch,yaw,agv_x,agv_y,agv_z,x_ref,y_ref,z_ref,roll_ref,pitch_ref,yaw_ref,x_vel_ref,y_vel_ref,z_vel_ref,x_torque,y_torque,z_torque,w0,w1,w2,w3,u0,u1,u2,u3,m0req,m1req,m2req,m3req,thrust0,thrust1,thrust2,thrust3,thrust_ref,roll_vicon,pitch_vicon,yaw_vicon,acc_x,acc_y,acc_z
5,5,0.0,0.0,0.0,-0.003305330639705062,0.0005354906897991896,0.0009459188440814614,0.024893218651413918,0.030313238501548767,0.04401896148920059,0.0008510883781127632,-0.02538585476577282,-0.005711270030587912,0.0,0.0,0.0,-0.0004724453901872039,-0.002243218943476677,-0.0,0.0,0.0,0.0,-0.001016060123220086,-0.0013321269070729613,0.0010708894114941359,1495.0,1495.0,1495.0,1495.0,0.0,0.0,0.0,0.0,0.0,0.0,0.0,0.0,1495.0,1495.0,1495.0,1495.0,2.293100118637085,-0.07126357412735493,0.07359130845979632,0.038394164405410755,0.012394989840686321,-0.0020080900285393,0.0
31,26,0.0,0.0,0.0,-0.0044813272543251514,0.0021914925891906023,-0.00031142504303716123,0.024893218651413918,0.030313238501548767,0.04401896148920059,0.0008510883781127632,-0.02538585476577282,-0.005711270030587912,0.0,0.0,0.0,-0.0004724453901872039,-0.002243218943476677,-0.0,0.0,0.0,0.0,-0.001016060123220086,-0.0013321269070729613,0.0010708894114941359,1495.0,1495.0,1495.0,1495.0,0.0,0.0,0.0,0.0,0.0,0.0,0.0,0.0,1495.0,1495.0,1495.0,1495.0,2.293100118637085,-0.0716342934400731,0.07395811315378682,0.03832544286709724,0.012394989840686321,-0.0020080900285393,0.0
36,5,0.0,0.0,0.0,-0.004105234984308481,0.0022755663376301527,0.0009138091118074954,0.024893218651413918,0.030313238501548767,0.04401896148920059,0.0008510883781127632,-0.02538585476577282,-0.005711270030587912,0.0,0.0,0.0,-0.0019342867890372872,-0.0030426017474383116,-0.0,0.0,0.0,0.0,-0.001016060123220086,-0.0013321269070729613,0.0010708894114941359,1495.0,1495.0,1495.0,1495.0,0.0,0.0,0.0,0.0,0.0,0.0,0.0,0.0,1495.0,1495.0,1495.0,1495.0,2.2921464443206787,-0.07127704103285847,0.07317876995509527,0.03827195887522558,0.016804976388812065,-0.008218097500503063,0.0
41,5,0.0,0.0,0.0,-0.0027056599501520395,0.0009486102499067783,-0.0009033007081598043,0.024878691881895065,0.030595047399401665,0.04392777010798454,-0.002264848444610834,-0.026499491184949875,-0.006148976273834705,0.0,0.0,0.0,-0.0019342867890372872,-0.0030426017474383116,-0.0,0.0,0.0,0.0,-0.0010180858662351966,-0.0013593084877356887,0.0012011824874207377,1495.0,1495.0,1495.0,1495.0,0.0,0.0,0.0,0.0,0.0,0.0,0.0,0.0,1495.0,1495.0,1495.0,1495.0,2.2921464443206787,-0.07093490437499302,0.07301811053179488,0.038068464028313216,0.016804976388812065,-0.008218097500503063,0.0
46,5,-1.7321426639682613e-05,7.684398042329121e-06,1.5590641169183073e-06,-0.0031608352437615395,-0.0005426836432889104,-0.0005484079592861235,0.024878691881895065,0.030595047399401665,0.04392777010798454,-0.002264848444610834,-0.026499491184949875,-0.006148976273834705,0.0,0.0,0.0,-0.0008378655184060335,-0.0018383011920377612,-0.0,0.0,0.0,0.0,-0.0010180858662351966,-0.0013593084877356887,0.0012011824874207377,1495.0,1495.0,1495.0,1495.0,0.0,0.0,0.0,0.0,0.0,0.0,0.0,0.0,1495.0,1495.0,1495.0,1495.0,2.290531635284424,-0.07062013152089286,0.07305376855148465,0.038017972325088335,0.01014622487127781,-0.0035572885535657406,0.0
51,5,-3.73832845070865e-05,1.103368958865758e-05,7.362868473137496e-06,-0.003671756712719798,-0.0006189884152263403,-0.0009158197208307683,0.02485133521258831,0.030832713469862938,0.04389144852757454,-0.002234214451164007,-0.030156802386045456,-0.0033714273013174534,0.0,0.0,0.0,0.0005611848318949342,-0.0025326781906187534,-0.0,0.0,0.0,0.0,-0.001104392926208675,-0.0014333196450024843,0.0013176577631384134,16442.0,15425.0,16488.0,15135.0,0.6164093017578125,0.5389422178268433,0.6199872493743896,0.5177613496780396,0.0,0.0,0.0,0.0,16456.0,15412.0,16501.0,15118.0,2.2898952960968018,-0.07076359123244232,0.07284286883387596,0.03802074194441575,0.01397484540939331,0.0023819359485059977,0.0
57,5,-5.416788189904764e-05,-7.3259898272226565e-06,-9.990023499995004e-06,-0.0034828544594347477,0.001955565996468067,0.0017160192364826798,0.02485133521258831,0.030832713469862938,0.04389144852757454,-0.002234214451164007,-0.030156802386045456,-0.0033714273013174534,0.0,0.0,0.0,0.0005611848318949342,-0.0025326781906187534,-0.0,0.0,0.0,0.0,-0.001104392926208675,-0.0014333196450024843,0.0013176577631384134,16442.0,15425.0,16488.0,15135.0,0.6164093017578125,0.5389422178268433,0.6199872493743896,0.5177613496780396,0.0,0.0,0.0,0.0,16456.0,15412.0,16501.0,15118.0,2.2898952960968018,-0.07085470689917366,0.07273173244805627,0.03819163666176218,0.01397484540939331,0.0023819359485059977,0.0
62,5,-6.855950050521642e-05,-1.3523911547963507e-05,1.1279751106485492e-06,-0.003120136447250843,0.0015259770443663,-0.0006477521965280175,0.024844704195857048,0.031189896166324615,0.04386628791689873,-0.0010231342166662216,-0.030291501432657242,-0.00039482954889535904,0.0,0.0,0.0,0.0005611848318949342,-0.0025326781906187534,-0.0,0.0,0.0,0.0,-0.0010882639326155186,-0.0014299351023510098,0.0014626829652115703,16496.0,15372.0,16540.0,15060.0,0.6206143498420715,0.5350038409233093,0.6241269707679749,0.512401282787323,0.0,0.0,0.0,0.0,16515.0,15351.0,16560.0,15038.0,2.2898952960968018,-0.0708437231748492,0.07298172937064487,0.0383843235872877,0.01397484540939331,0.0023819359485059977,0.0
67,5,-8.671214891364798e-05,-1.939364847203251e-05,6.2202811932365876e-06,-0.0034263720735907555,0.0013147592544555664,-0.0008701776387169957,0.024844704195857048,0.031189896166324615,0.04386628791689873,-0.0010231342166662216,-0.030291501432657242,-0.00039482954889535904,0.0,0.0,0.0,-0.0013659941032528877,-0.002189337508752942,-0.0,0.0,0.0,0.0,-0.0010882639326155186,-0.0014299351023510098,0.0014626829652115703,16496.0,15372.0,16540.0,15060.0,0.6206143498420715,0.5350038409233093,0.6241269707679749,0.512401282787323,0.0,0.0,0.0,0.0,16515.0,15351.0,16560.0,15038.0,2.289452314376831,-0.07092202975511262,0.0730405141325237,0.03827198778772541,0.012078012339770794,-0.005796805489808321,0.0
72,5,-9.38600132940337e-05,-2.274050893902313e-05,1.3221104381955229e-05,-0.0022282926365733147,0.0009275268530473113,-0.0011881698155775666,0.02485312521457672,0.031414907425642014,0.043879736214876175,-0.0004917000769637525,-0.02402624301612377,0.0007575501222163439,0.0,0.0,0.0,-0.0013659941032528877,-0.002189337508752942,-0.0,0.0,0.0,0.0,-0.001057165558449924,-0.0014889625599607825,0.0015155331930145621,16587.0,15251.0,16643.0,14936.0,0.6278796195983887,0.5261995792388916,0.6323072910308838,0.5035088062286377,0.0,0.0,0.0,0.0,16470.0,15387.0,16516.0,15076.0,2.289452314376831,-0.07084469421148183,0.07301199212577203,0.0382447201654924,0.012078012339770794,-0.005796805489808321,0.0
77,5,-0.00010951217700494453,-2.737987961154431e-05,-3.2441971598018426e-06,-0.0027695766184479,0.0009277352946810424,0.0015005682362243533,0.02485312521457672,0.031414907425642014,0.043879736214876175,-0.0004917000769637525,-0.02402624301612377,0.0007575501222163439,0.0,0.0,0.0,-0.0008490400505252182,-0.0016082343645393848,-0.0,0.0,0.0,0.0,-0.001057165558449924,-0.0014889625599607825,0.0015155331930145621,16587.0,15251.0,16643.0,14936.0,0.6278796195983887,0.5261995792388916,0.6323072910308838,0.5035088062286377,0.0,0.0,0.0,0.0,16470.0,15387.0,16516.0,15076.0,2.2896852493286133,-0.07102041255065109,0.07256674556865338,0.03805677077839852,0.008873126469552517,-0.003603399498388171,0.0
82,5,-0.00011121281568193808,-3.715431012096815e-05,-7.162861948017962e-06,-0.0013119076611474156,0.0015440259594470263,0.0010704670567065477,0.02485312521457672,0.031414907425642014,0.043879736214876175,-0.0004917000769637525,-0.02402624301612377,0.0007575501222163439,0.0,0.0,0.0,-0.0008490400505252182,-0.0016082343645393848,-0.0,0.0,0.0,0.0,-0.001057165558449924,-0.0014889625599607825,0.0015155331930145621,16587.0,15251.0,16643.0,14936.0,0.6278796195983887,0.5261995792388916,0.6323072910308838,0.5035088062286377,0.0,0.0,0.0,0.0,16470.0,15387.0,16516.0,15076.0,2.2896852493286133,-0.07058641951825323,0.07227490046304688,0.03796924932533869,0.008873126469552517,-0.003603399498388171,0.0
87,5,-0.000115155206003692,-2.544700328144245e-05,1.1912731679331046e-05,-0.0009978499729186296,-0.0007872666465118527,-0.0018608843674883246,0.024864109233021736,0.03185250982642174,0.04393147677183151,-0.001158630708232522,-0.013615952804684639,0.000557266001123935,0.0,0.0,0.0,-0.00141192099545151,-0.0010023674694821239,-0.0,0.0,0.0,0.0,-0.0011587871704250574,-0.001518760807812214,0.0015643502119928598,16565.0,15285.0,16613.0,14954.0,0.6260877251625061,0.5286497473716736,0.6299073100090027,0.5048075318336487,0.0,0.0,0.0,0.0,16626.0,15209.0,16683.0,14890.0,2.290595769882202,-0.07053534241291652,0.07283210176351745,0.037660891484969664,0.005532568320631981,-0.005994695704430342,0.0
92,5,-0.00012431653158273548,-3.1531126296613365e-05,2.907621365011437e-06,-0.001498498721048236,0.00041518814396113157,0.0003362594870850444,0.024837564677000046,0.03207777440547943,0.043955206871032715,4.571698809741065e-05,-0.018742701038718224,0.0023933248594403267,0.0,0.0,0.0,-0.00141192099545151,-0.0010023674694821239,-0.0,0.0,0.0,0.0,-0.0011853183386847377,-0.0015614189906045794,0.001548456959426403,16572.0,15279.0,16622.0,14945.0,0.6266689896583557,0.5282334685325623,0.6306231617927551,0.5041596293449402,0.0,0.0,0.0,0.0,16517.0,15338.0,16566.0,15006.0,2.290595769882202,-0.07017044234884344,0.07267117987092217,0.03766324367151571,0.005532568320631981,-0.005994695704430342,0.0
97,5,-0.00014335685409605503,-3.316847869427875e-05,2.058550853689667e-05,-0.0028842375613749027,0.00036255776649340987,-0.0019868428353220224,0.024837564677000046,0.03207777440547943,0.043955206871032715,4.571698809741065e-05,-0.018742701038718224,0.0023933248594403267,0.0,0.0,0.0,-0.00040756710222922266,-0.0011420783121138811,-0.0,0.0,0.0,0.0,-0.0011853183386847377,-0.0015614189906045794,0.001548456959426403,16572.0,15279.0,16622.0,14945.0,0.6266689896583557,0.5282334685325623,0.6306231617927551,0.5041596293449402,0.0,0.0,0.0,0.0,16517.0,15338.0,16566.0,15006.0,2.2910115718841553,-0.07024626875403656,0.07261361674032103,0.03804147344605186,0.006304852664470673,-0.0017307524103671312,-0.0
102,5,-0.00015738033107481897,-4.142393299844116e-05,1.4508358617604245e-05,-0.002836513100191951,0.001135677215643227,-6.547899829456583e-05,0.024789968505501747,0.03222612291574478,0.04403259605169296,0.0011340745259076357,-0.021257102489471436,0.01152721419930458,0.0,0.0,0.0,-0.00040756710222922266,-0.0011420783121138811,-0.0,0.0,0.0,0.0,-0.001186407171189785,-0.0015813072677701712,0.0018589289393275976,16744.0,15102.0,16790.0,14755.0,0.6403719782829285,0.5153784155845642,0.6441138386726379,0.49073153734207153,0.0,0.0,0.0,0.0,16638.0,15208.0,16688.0,14869.0,2.2910115718841553,-0.07014905963493126,0.07209833725445024,0.03830373704696661,0.006304852664470673,-0.0017307524103671312,-0.0
107,5,-0.00016328292258549482,-3.831050344160758e-05,2.2301946955849417e-05,-0.0018429161282256246,8.065960719250143e-05,-0.0009614222217351198,0.024789968505501747,0.03222612291574478,0.04403259605169296,0.0011340745259076357,-0.021257102489471436,0.01152721419930458,0.0,0.0,0.0,-0.0010560323717072606,-0.0020827867556363344,-0.0,0.0,0.0,0.0,-0.001186407171189785,-0.0015813072677701712,0.0018589289393275976,16744.0,15102.0,16790.0,14755.0,0.6403719782829285,0.5153784155845642,0.6441138386726379,0.49073153734207153,0.0,0.0,0.0,0.0,16638.0,15208.0,16688.0,14869.0,2.2923777103424072,-0.06998462378597498,0.07248946642486778,0.03831232574387942,0.01150488667190075,-0.004487162455916405,0.0
112,5,-0.00018148403614759445,-5.582620724453591e-05,1.1487923984532245e-05,-0.0029212995432317257,0.0021341482643038034,0.0009131138795055449,0.024789968505501747,0.03222612291574478,0.04403259605169296,0.0011340745259076357,-0.021257102489471436,0.01152721419930458,0.0,0.0,0.0,-0.0010560323717072606,-0.0020827867556363344,-0.0,0.0,0.0,0.0,-0.001186407171189785,-0.0015813072677701712,0.0018589289393275976,16744.0,15102.0,16790.0,14755.0,0.6403719782829285,0.5153784155845642,0.6441138386726379,0.49073153734207153,0.0,0.0,0.0,0.0,16638.0,15208.0,16688.0,14869.0,2.2923777103424072,-0.07034253375239947,0.07222535423787908,0.03842163567237877,0.01150488667190075,-0.004487162455916405,0.0
118,5,-0.00018573935085441917,-6.708049477310851e-05,7.17980492481729e-06,-0.0016791573725640774,0.0022041741758584976,0.0008822198142297566,0.024765435606241226,0.032490674406290054,0.04419954866170883,-0.002661766717210412,-0.0203171968460083,0.01421387679874897,0.0,0.0,0.0,-0.0020297043956816196,-0.0013237574603408575,-0.0,0.0,0.0,0.0,-0.0012358567910268903,-0.0016016681911423802,0.001964632421731949,16790.0,15053.0,16838.0,14697.0,0.644061267375946,0.5119087100028992,0.6479676365852356,0.48665815591812134,0.0,0.0,0.0,0.0,16782.0,15060.0,16829.0,14709.0,2.2953131198883057,-0.0701371774358562,0.0717365334392948,0.03818583933707765,0.007321520242840052,-0.008635405451059341,-0.0
123,5,-0.00019648537272587419,-6.977188604651019e-05,1.1687543519656174e-05,-0.0019611853640526533,0.0012046360643580556,-0.0001880406925920397,0.024765435606241226,0.032490674406290054,0.04419954866170883,-0.002661766717210412,-0.0203171968460083,0.01421387679874897,0.0,0.0,0.0,-0.0020297043956816196,-0.0013237574603408575,-0.0,0.0,0.0,0.0,-0.0012358567910268903,-0.0016016681911423802,0.001964632421731949,16790.0,15053.0,16838.0,14697.0,0.644061267375946,0.5119087100028992,0.6479676365852356,0.48665815591812134,0.0,0.0,0.0,0.0,16782.0,15060.0,16829.0,14709.0,2.2953131198883057,-0.07070960028820548,0.07163269404631663,0.03828462992178514,0.007321520242840052,-0.008635405451059341,-0.0
128,5,-0.00020367321849334985,-7.429489050991833e-05,1.3619459423352964e-05,-0.0016470163827762008,0.001024615135975182,-0.00030704622622579336,0.02475665509700775,0.032693177461624146,0.044316790997982025,0.001419203239493072,-0.03000599332153797,0.015396945178508759,0.0,0.0,0.0,-0.0020297043956816196,-0.0013237574603408575,-0.0,0.0,0.0,0.0,-0.0012209380511194468,-0.0016554048052057624,0.0020641598384827375,16836.0,15002.0,16892.0,14639.0,0.6478148102760315,0.5082411170005798,0.6523498892784119,0.4826057255268097,0.0,0.0,0.0,0.0,16828.0,15009.0,16882.0,14654.0,2.2953131198883057,-0.07082285683815379,0.07162786564209166,0.038379268077500715,0.007321520242840052,-0.008635405451059341,-0.0
133,5,-0.00022062021889723837,-8.273388084489852e-05,2.1162277334951796e-05,-0.0026924472767859697,0.0014225251507014036,-0.0010279567213729024,0.02481316216289997,0.03310568258166313,0.04444228857755661,0.00018134353740606457,-0.034991178661584854,0.010246794670820236,0.0,0.0,0.0,-0.0009985222714021802,-0.0013187634758651257,-0.0,0.0,0.0,0.0,-0.0012745244894176722,-0.001743977190926671,0.0018963642651215196,16761.0,15103.0,16821.0,14724.0,0.6417315602302551,0.515464723110199,0.6466138958930969,0.4885675311088562,0.0,0.0,0.0,0.0,16822.0,15032.0,16881.0,14658.0,2.2973687648773193,-0.07027726799179017,0.07152645595507227,0.038207009671460436,0.007300442550331354,-0.004252035636454821,0.0
138,5,-0.0002351975708734244,-9.517482976661995e-05,1.1317408279865049e-05,-0.0028262597043067217,0.0020619237329810858,0.0007702016737312078,0.02481316216289997,0.03310568258166313,0.04444228857755661,0.00018134353740606457,-0.034991178661584854,0.010246794670820236,0.0,0.0,0.0,-0.0009985222714021802,-0.0013187634758651257,-0.0,0.0,0.0,0.0,-0.0012745244894176722,-0.001743977190926671,0.0018963642651215196,16761.0,15103.0,16821.0,14724.0,0.6417315602302551,0.515464723110199,0.6466138958930969,0.4885675311088562,0.0,0.0,0.0,0.0,16822.0,15032.0,16881.0,14658.0,2.2973687648773193,-0.07057549149558269,0.07088505972055444,0.03871795531992686,0.007300442550331354,-0.004252035636454821,0.0
143,5,-0.00023524179414380342,-8.450853783870116e-05,3.875218681059778e-05,-0.0011358109768480062,-0.0004551852762233466,-0.002984092803671956,0.02481316216289997,0.03310568258166313,0.04444228857755661,0.00018134353740606457,-0.034991178661584854,0.010246794670820236,0.0,0.0,0.0,-0.001937201013788581,-0.0021470198407769203,-0.0,0.0,0.0,0.0,-0.0012745244894176722,-0.001743977190926671,0.0018963642651215196,16761.0,15103.0,16821.0,14724.0,0.6417315602302551,0.515464723110199,0.6466138958930969,0.4885675311088562,0.0,0.0,0.0,0.0,16822.0,15032.0,16881.0,14658.0,2.2995777130126953,-0.07038714646525558,0.0711152749398756,0.03836390445518094,0.011896929703652859,-0.008257162757217884,-0.0
148,5,-0.00025112563162110746,-7.991791790118441e-05,4.062942025484517e-05,-0.0013849469833076,-0.00037424356560222805,0.0001164106433861889,0.024842262268066406,0.03334001079201698,0.04445502161979675,0.0005217341822572052,-0.021965626627206802,-0.0011699730530381203,0.0,0.0,0.0,-0.001937201013788581,-0.0021470198407769203,-0.0,0.0,0.0,0.0,-0.0013398745795711875,-0.0017565239686518908,0.0014066011644899845,16546.0,15366.0,16602.0,14986.0,0.6246099472045898,0.5346235036849976,0.6290203332901001,0.5070593357086182,0.0,0.0,0.0,0.0,16634.0,15281.0,16693.0,14901.0,2.2995777130126953,-0.06979931595575896,0.07137579671379964,0.038412325830772,0.011896929703652859,-0.008257162757217884,-0.0
153,5,-0.00025112563162110746,-7.991791790118441e-05,4.062942025484517e-05,-0.0013849469833076,-0.00037424356560222805,0.0001164106433861889,0.024842262268066406,0.03334001079201698,0.04445502161979675,0.0005217341822572052,-0.021965626627206802,-0.0011699730530381203,0.0,0.0,0.0,0.0002256855514133349,-0.0011874791234731674,-0.0,0.0,0.0,0.0,-0.0013398745795711875,-0.0017565239686518908,0.0014066011644899845,16546.0,15366.0,16602.0,14986.0,0.6246099472045898,0.5346235036849976,0.6290203332901001,0.5070593357086182,0.0,0.0,0.0,0.0,16634.0,15281.0,16693.0,14901.0,2.299793243408203,-0.06979931595575896,0.07137579671379964,0.038412325830772,0.006580615881830454,0.0009620576165616512,-0.0
158,5,-0.0002493048959877342,-6.958220910746604e-05,3.484338230919093e-05,0.0005345270619727671,-0.0007248016772791743,0.000786832591984421,0.02494151145219803,0.03346483036875725,0.044432565569877625,3.8127251173136756e-05,0.0037187160924077034,-0.01084337942302227,0.0,0.0,0.0,0.0002256855514133349,-0.0011874791234731674,-0.0,0.0,0.0,0.0,-0.001333564636297524,-0.0017774024745449424,0.0015311603201553226,16514.0,15414.0,16573.0,15032.0,0.6221033930778503,0.538080632686615,0.6267738938331604,0.5104108452796936,0.0,0.0,0.0,0.0,16358.0,15580.0,16417.0,15204.0,2.299793243408203,-0.07004834861663568,0.07133161128600192,0.03832970022352533,0.006580615881830454,0.0009620576165616512,-0.0
163,5,-0.00023333482386078686,-6.390248017851263e-05,1.0538277820160147e-05,0.002130221575498581,-0.0009714884217828512,0.0032313456758856773,0.02494151145219803,0.03346483036875725,0.044432565569877625,3.8127251173136756e-05,0.0037187160924077034,-0.01084337942302227,0.0,0.0,0.0,0.0005474352510645986,0.00011305910447845235,-0.0,0.0,0.0,0.0,-0.001333564636297524,-0.0017774024745449424,0.0015311603201553226,16514.0,15414.0,16573.0,15032.0,0.6221033930778503,0.538080632686615,0.6267738938331604,0.5104108452796936,0.0,0.0,0.0,0.0,16358.0,15580.0,16417.0,15204.0,2.2993979454040527,-0.07034868850316485,0.07102645901305901,0.038259070185528904,-0.0006264285184442997,0.002333218464627862,-0.0
169,5,-0.0002335398312425241,-4.3776431994047016e-05,3.113075945293531e-05,0.0008274877909570932,-0.0028037207666784525,-0.0011785593815147877,0.02494151145219803,0.03346483036875725,0.044432565569877625,3.8127251173136756e-05,0.0037187160924077034,-0.01084337942302227,0.0,0.0,0.0,0.0005474352510645986,0.00011305910447845235,-0.0,0.0,0.0,0.0,-0.001333564636297524,-0.0017774024745449424,0.0015311603201553226,16514.0,15414.0,16573.0,15032.0,0.6221033930778503,0.538080632686615,0.6267738938331604,0.5104108452796936,0.0,0.0,0.0,0.0,16358.0,15580.0,16417.0,15204.0,2.2993979454040527,-0.07023312390422756,0.07164906205414391,0.03821667191099301,-0.0006264285184442997,0.002333218464627862,-0.0
174,5,-0.00023030187003314495,-3.820267374976538e-05,1.3699203918804415e-05,0.0007195499492809176,-0.0017903392435982823,0.0016203627455979586,0.02488323673605919,0.03341509401798248,0.044517286121845245,-0.0031313756480813026,0.0016904213698580861,0.006063977722078562,0.0,0.0,0.0,0.0024082730524241924,0.00032660673605278134,-0.0,0.0,0.0,0.0,-0.0013321153819561005,-0.0018277906347066164,-0.000287802453385666,16868.0,15046.0,16927.0,14640.0,0.6503736972808838,0.5114104747772217,0.6551501750946045,0.48264339566230774,0.0,0.0,0.0,0.0,16233.0,15733.0,16294.0,15343.0,2.3008902072906494,-0.0700513947110141,0.07146624023472513,0.03892026947111086,-0.0018108049407601357,0.010270921513438225,0.0
179,5,-0.00022516504395753145,-3.403908704058267e-05,2.453606612107251e-06,0.0009042394231073558,-0.0012157663004472852,0.0019976168405264616,0.02488323673605919,0.03341509401798248,0.044517286121845245,-0.0031313756480813026,0.0016904213698580861,0.006063977722078562,0.0,0.0,0.0,0.0024082730524241924,0.00032660673605278134,-0.0,0.0,0.0,0.0,-0.0013321153819561005,-0.0018277906347066164,-0.000287802453385666,16868.0,15046.0,16927.0,14640.0,0.6503736972808838,0.5114104747772217,0.6551501750946045,0.48264339566230774,0.0,0.0,0.0,0.0,16233.0,15733.0,16294.0,15343.0,2.3008902072906494,-0.07021556659263642,0.07180825291443496,0.03836583379510079,-0.0018108049407601357,0.010270921513438225,0.0
184,5,-0.0002367351989960298,-3.112117337877862e-05,7.326390914386138e-06,-0.0010267236502841115,-0.0008364562527276576,0.00021431258937809616,0.024906232953071594,0.03334500268101692,0.0441763736307621,0.0017259520245715976,0.019199971109628677,0.008383586071431637,0.0,0.0,0.0,0.0010272132931277156,0.00038767297519370914,-0.0,0.0,0.0,0.0,-0.0013418137095868587,-0.0018036167602986097,0.001106810406781733,16220.0,15740.0,16286.0,15361.0,0.5990513563156128,0.5623458623886108,0.6041742563247681,0.5342217683792114,0.0,0.0,0.0,0.0,17705.0,14038.0,17765.0,13608.0,2.29490065574646,-0.07028889904703232,0.07148102245627536,0.03825572765481225,-0.0021437841933220625,0.0043695117346942425,-0.0
189,5,-0.00024118837609421462,-1.535633418825455e-05,3.112046033493243e-05,-0.000945070933084935,-0.002226363169029355,-0.002769563114270568,0.024906232953071594,0.03334500268101692,0.0441763736307621,0.0017259520245715976,0.019199971109628677,0.008383586071431637,0.0,0.0,0.0,0.0010272132931277156,0.00038767297519370914,-0.0,0.0,0.0,0.0,-0.0013418137095868587,-0.0018036167602986097,0.001106810406781733,16220.0,15740.0,16286.0,15361.0,0.5990513563156128,0.5623458623886108,0.6041742563247681,0.5342217683792114,0.0,0.0,0.0,0.0,17705.0,14038.0,17765.0,13608.0,2.29490065574646,-0.07046389605369266,0.07210162371560892,0.038310917407794354,-0.0021437841933220625,0.0043695117346942425,-0.0
194,5,-0.0002372993913013488,-3.9086156903067604e-05,5.966644312138669e-05,8.865014387993142e-05,0.0019570335280150175,-0.004533343017101288,0.02491505816578865,0.03325530141592026,0.04444926232099533,-0.007614022120833397,0.003437432460486889,-0.07693555951118469,0.0,0.0,0.0,0.001938223373144865,-0.0008806801633909345,-0.0,0.0,0.0,0.0,-0.0013100114883854985,-0.001848778803832829,0.0053808125667274,15759.0,16200.0,15823.0,15834.0,0.5637624859809875,0.5975207686424255,0.5686302781105042,0.5694844126701355,0.0,0.0,0.0,0.0,14999.0,16905.0,15068.0,16552.0,2.2996957302093506,-0.07119784816924835,0.07112107540522089,0.03760609161726533,0.004880222491919994,0.00826194416731596,0.0
199,5,-0.0002447192382533103,-2.4245528038591146e-05,8.2846570876427e-05,-0.000854922691360116,-0.0009980621980503201,-0.004594952799379826,0.02491505816578865,0.03325530141592026,0.04444926232099533,-0.007614022120833397,0.003437432460486889,-0.07693555951118469,0.0,0.0,0.0,0.001938223373144865,-0.0008806801633909345,-0.0,0.0,0.0,0.0,-0.0013100114883854985,-0.001848778803832829,0.0053808125667274,15759.0,16200.0,15823.0,15834.0,0.5637624859809875,0.5975207686424255,0.5686302781105042,0.5694844126701355,0.0,0.0,0.0,0.0,14999.0,16905.0,15068.0,16552.0,2.2996957302093506,-0.07107657404844295,0.07164403894440292,0.038021683470576384,0.004880222491919994,0.00826194416731596,0.0
204,5,-0.00022140436340123415,-3.284427657490596e-05,4.934627213515341e-05,0.0024558180011808872,0.0006326251314021647,0.0021820547990500927,0.024993468075990677,0.03336299955844879,0.04457336291670799,0.005502290558069944,-0.004241602495312691,0.050818443298339844,0.0,0.0,0.0,0.001938223373144865,-0.0008806801633909345,-0.0,0.0,0.0,0.0,-0.001386613235808909,-0.001887555350549519,0.0029443141538649797,18073.0,13559.0,18137.0,13114.0,0.751451849937439,0.41025590896606445,0.7570104598999023,0.38217198848724365,0.0,0.0,0.0,0.0,16020.0,15947.0,16093.0,15575.0,2.2996957302093506,-0.0697934523836675,0.07182124920336057,0.03851413257473151,0.004880222491919994,0.00826194416731596,0.0
209,5,-0.00021964464394841343,-3.326822479721159e-05,6.420082354452461e-05,0.001193492440506816,0.0003039236180484295,-0.0009097239817492664,0.024993468075990677,0.03336299955844879,0.04457336291670799,0.005502290558069944,-0.004241602495312691,0.050818443298339844,0.0,0.0,0.0,-0.0005989627679809928,0.0014388880226761103,-0.0,0.0,0.0,0.0,-0.001386613235808909,-0.001887555350549519,0.0029443141538649797,18073.0,13559.0,18137.0,13114.0,0.751451849937439,0.41025590896606445,0.7570104598999023,0.38217198848724365,0.0,0.0,0.0,0.0,16020.0,15947.0,16093.0,15575.0,2.3018693923950195,-0.06993579868032868,0.0714100126640206,0.03846808679019038,-0.007981037721037865,-0.002555577317252755,-0.0
214,5,-0.0002178323920816183,-2.4770610252744518e-05,8.798472845228389e-05,0.00069486687425524,-0.0008981442078948021,-0.0032179588451981544,0.025076333433389664,0.03364838659763336,0.04441722482442856,0.010819810442626476,-0.02050716057419777,0.002645010594278574,0.0,0.0,0.0,-0.0005989627679809928,0.0014388880226761103,-0.0,0.0,0.0,0.0,-0.0013541753869503736,-0.001984669826924801,-4.54429755336605e-05,16230.0,15733.0,16311.0,15331.0,0.5997816920280457,0.5618194937705994,0.6061040759086609,0.5319904685020447,0.0,0.0,0.0,0.0,17513.0,14249.0,17578.0,13808.0,2.3018693923950195,-0.0705884535040012,0.07084172653635262,0.03864223635204864,-0.007981037721037865,-0.002555577317252755,-0.0
219,5,-0.00023851552396081388,-2.489095277269371e-05,0.0001337248395429924,-0.002204027958214283,-0.00034481656621210277,-0.006775996182113886,0.025076333433389664,0.03364838659763336,0.04441722482442856,0.010819810442626476,-0.02050716057419777,0.002645010594278574,0.0,0.0,0.0,0.0007577248034067452,0.00025202668621204793,-0.0,0.0,0.0,0.0,-0.0013541753869503736,-0.001984669826924801,-4.54429755336605e-05,16230.0,15733.0,16311.0,15331.0,0.5997816920280457,0.5618194937705994,0.6061040759086609,0.5319904685020447,0.0,0.0,0.0,0.0,17513.0,14249.0,17578.0,13808.0,2.2991292476654053,-0.07127245695347628,0.07058663065238803,0.03781216858396181,-0.001396245090290904,0.0032291137613356113,0.0
224,5,-0.00022279347467701882,2.6415531806378567e-07,9.287340799346566e-05,0.0010050348937511444,-0.0031565395183861256,0.0021917729172855616,0.025130780413746834,0.033742353320121765,0.04447372630238533,0.022135481238365173,-0.027978960424661636,-0.07491736859083176,0.0,0.0,0.0,0.0007577248034067452,0.00025202668621204793,-0.0,0.0,0.0,0.0,-0.0014953550416976213,-0.0019284849986433983,0.0003146606031805277,15603.0,16383.0,15666.0,15988.0,0.5521371364593506,0.6117252111434937,0.5568323135375977,0.5811747312545776,0.0,0.0,0.0,0.0,17457.0,14353.0,17530.0,13906.0,2.2991292476654053,-0.07004090164371947,0.0707416103110042,0.03811782292833535,-0.001396245090290904,0.0032291137613356113,0.0
229,5,-0.000244932365603745,-1.3339337783691008e-05,0.00016305624740198255,-0.0022546551190316677,0.0003698033979162574,-0.007545231841504574,0.025130780413746834,0.033742353320121765,0.04447372630238533,0.022135481238365173,-0.027978960424661636,-0.07491736859083176,0.0,0.0,0.0,0.002776115434244275,0.0004566923889797181,-0.0,0.0,0.0,0.0,-0.0014953550416976213,-0.0019284849986433983,0.0003146606031805277,15603.0,16383.0,15666.0,15988.0,0.5521371364593506,0.6117252111434937,0.5568323135375977,0.5811747312545776,0.0,0.0,0.0,0.0,17457.0,14353.0,17530.0,13906.0,2.300128698348999,-0.07085483766898795,0.07048823514871637,0.037971708152483734,-0.002531198086217046,0.011835788376629353,-0.0
234,5,-0.00022845859348308295,-2.0914256310788915e-05,0.00019201188115403056,0.0010749927023425698,0.0010569115402176976,-0.006492768879979849,0.02513655461370945,0.033945225179195404,0.04450107738375664,0.01294664852321148,0.0006738149677403271,0.010326424613595009,0.0,0.0,0.0,0.002776115434244275,0.0004566923889797181,-0.0,0.0,0.0,0.0,-0.0014552929205819964,-0.0020138947293162346,0.005310605280101299,17766.0,13971.0,17832.0,13496.0,0.7250323295593262,0.43715405464172363,0.7306922674179077,0.40625059604644775,0.0,0.0,0.0,0.0,15288.0,16677.0,15354.0,16287.0,2.300128698348999,-0.07111964048964085,0.07109657356280691,0.0375332187166142,-0.002531198086217046,0.011835788376629353,-0.0
240,5,-0.00022179003281053156,-1.0427835150039755e-05,0.00021782649855595082,0.0012302242685109377,-0.0008356060134246945,-0.005694860592484474,0.02513655461370945,0.033945225179195404,0.04450107738375664,0.01294664852321148,0.0006738149677403271,0.010326424613595009,0.0,0.0,0.0,-0.0009570621186867356,0.0004981349920853972,-0.0,0.0,0.0,0.0,-0.0014552929205819964,-0.0020138947293162346,0.005310605280101299,17766.0,13971.0,17832.0,13496.0,0.7250323295593262,0.43715405464172363,0.7306922674179077,0.40625059604644775,0.0,0.0,0.0,0.0,15288.0,16677.0,15354.0,16287.0,2.300600528717041,-0.07035281959203124,0.07188113577346529,0.03817405549213846,-0.0027614678256213665,-0.004081218037754297,0.0
245,5,-0.00023327054805122316,-6.284951086854562e-05,0.00026738274027593434,-0.0008855730411596596,0.00595635874196887,-0.00822469498962164,0.025020631030201912,0.03369080647826195,0.044011440128088,0.003052610671147704,0.03592890873551369,0.06774317473173141,0.0,0.0,0.0,-0.0009570621186867356,0.0004981349920853972,-0.0,0.0,0.0,0.0,-0.001472783973440528,-0.002007395261898637,0.0012052368838340044,17171.0,14702.0,17244.0,14264.0,0.6750876903533936,0.4870302677154541,0.6811819076538086,0.4568288326263428,0.0,0.0,0.0,0.0,14932.0,16976.0,15007.0,16590.0,2.300600528717041,-0.07312602444416079,0.07080609250886259,0.03734907268476953,-0.0027614678256213665,-0.004081218037754297,0.0
250,5,-0.00022538825578521937,-4.2217448935844004e-05,0.0002508761826902628,0.0005916472873650491,-9.33037226786837e-05,-0.0013090905267745256,0.025020631030201912,0.03369080647826195,0.044011440128088,0.003052610671147704,0.03592890873551369,0.06774317473173141,0.0,0.0,0.0,-0.005339663941413164,-0.0008361657382920384,-0.0,0.0,0.0,0.0,-0.001472783973440528,-0.002007395261898637,0.0012052368838340044,17171.0,14702.0,17244.0,14264.0,0.6750876903533936,0.4870302677154541,0.6811819076538086,0.4568288326263428,0.0,0.0,0.0,0.0,14932.0,16976.0,15007.0,16590.0,2.2920327186584473,-0.07080371312123383,0.07156876681774951,0.03754554938040145,0.004618052393198013,-0.022685039788484573,0.0
255,5,-0.00021923650638200343,-3.9293441659538075e-05,0.0002576804254204035,0.0009748676675371826,-0.00038820243207737803,-0.0013401452451944351,0.025005793198943138,0.03317281976342201,0.04367856681346893,-0.006898092105984688,0.04975757747888565,-0.1079673171043396,0.0,0.0,0.0,-0.005339663941413164,-0.0008361657382920384,-0.0,0.0,0.0,0.0,-0.0014481195248663425,-0.0019956373143941164,-0.0033115376718342304,14140.0,17655.0,14206.0,17274.0,0.4484536051750183,0.715597927570343,0.45290035009384155,0.6836486458778381,0.0,0.0,0.0,0.0,18245.0,13329.0,18315.0,12840.0,2.2920327186584473,-0.07071389251129177,0.07157508381604125,0.038319390974290685,0.004618052393198013,-0.022685039788484573,0.0
260,5,-0.00022963597439229488,-7.741155422991142e-05,0.00026467759744264185,-0.0008579881396144629,0.004418892785906792,-0.0013757179258391261,0.025005793198943138,0.03317281976342201,0.04367856681346893,-0.006898092105984688,0.04975757747888565,-0.1079673171043396,0.0,0.0,0.0,0.00029179040575399995,0.00044200659613125026,-0.0,0.0,0.0,0.0,-0.0014481195248663425,-0.0019956373143941164,-0.0033115376718342304,14140.0,17655.0,14206.0,17274.0,0.4484536051750183,0.715597927570343,0.45290035009384155,0.6836486458778381,0.0,0.0,0.0,0.0,18245.0,13329.0,18315.0,12840.0,2.286137580871582,-0.07160339995670634,0.07117401647793473,0.03752881520642697,-0.0024349105078727007,0.0012364652939140797,0.0
265,5,-0.00026481261011213064,-7.044408994261175e-05,0.00031660444801673293,-0.004564391914755106,0.0009314607596024871,-0.00678150774911046,0.024935968220233917,0.03284595534205437,0.04424775019288063,-0.0034715442452579737,0.01659374125301838,-0.0706622526049614,0.0,0.0,0.0,0.00029179040575399995,0.00044200659613125026,-0.0,0.0,0.0,0.0,-0.0015916270203888416,-0.002014158060774207,0.003642437281087041,16515.0,15465.0,16574.0,15022.0,0.6221805810928345,0.5418957471847534,0.6268602609634399,0.5096639394760132,0.0,0.0,0.0,0.0,16522.0,15454.0,16582.0,15018.0,2.286137580871582,-0.07207461321933432,0.07121996187836632,0.036551153375333816,-0.0024349105078727007,0.0012364652939140797,0.0
270,5,-0.0002615693665575236,-4.854180588154122e-05,0.00028036540606990457,-0.0014365683309733868,-0.002255689585581422,0.0016360800946131349,0.024935968220233917,0.03284595534205437,0.04424775019288063,-0.0034715442452579737,0.01659374125301838,-0.0706622526049614,0.0,0.0,0.0,-0.0009125445503741503,-0.0033597159199416637,-0.0,0.0,0.0,0.0,-0.0015916270203888416,-0.002014158060774207,0.003642437281087041,16515.0,15465.0,16574.0,15022.0,0.6221805810928345,0.5418957471847534,0.6268602609634399,0.5096639394760132,0.0,0.0,0.0,0.0,16522.0,15454.0,16582.0,15018.0,2.2961671352386475,-0.0707511770998118,0.0716974307661665,0.038196361937529996,0.018589040264487267,-0.0038838819600641727,0.0
275,5,-0.00026912515750154853,-4.919648927170783e-05,0.0002833505568560213,-0.00148132280446589,-0.0008237135480158031,0.00029621488647535443,0.024948690086603165,0.032730184495449066,0.0442582331597805,0.0017953129718080163,-0.030756499618291855,0.1704806387424469,0.0,0.0,0.0,-0.0009125445503741503,-0.0033597159199416637,-0.0,0.0,0.0,0.0,-0.0017973724752664566,-0.002137410221621394,0.006136917509138584,19237.0,11810.0,19280.0,11158.0,0.8560445308685303,0.30557242035865784,0.8599989414215088,0.27041688561439514,0.0,0.0,0.0,0.0,14370.0,17439.0,14424.0,17022.0,2.2961671352386475,-0.07045046650300231,0.0719050618234255,0.03756670013608608,0.018589040264487267,-0.0038838819600641727,0.0
280,5,-0.0002699467877391726,-5.157047780812718e-05,0.00028411680250428617,-0.0006911224918439984,-4.460697891772725e-05,2.6536181394476444e-05,0.024948690086603165,0.032730184495449066,0.0442582331597805,0.0017953129718080163,-0.030756499618291855,0.1704806387424469,0.0,0.0,0.0,0.0006612800643779337,-0.0012745140120387077,-0.0,0.0,0.0,0.0,-0.0017973724752664566,-0.002137410221621394,0.006136917509138584,19237.0,11810.0,19280.0,11158.0,0.8560445308685303,0.30557242035865784,0.8599989414215088,0.27041688561439514,0.0,0.0,0.0,0.0,14370.0,17439.0,14424.0,17022.0,2.296339750289917,-0.07081509897580898,0.07211227342544124,0.03688198926138506,0.007052327040582895,0.0028146866243332624,-0.0
286,5,-0.0003127827658317983,-4.370958777144551e-05,0.00031881805625744164,-0.005416767206043005,-0.000961149693466723,-0.004153536632657051,0.02487119473516941,0.03285882622003555,0.04317915439605713,-0.010637068189680576,-0.013371825218200684,-0.07214010506868362,0.0,0.0,0.0,0.0006612800643779337,-0.0012745140120387077,-0.0,0.0,0.0,0.0,-0.001590669620782137,-0.0021206121891736984,-0.005886808969080448,13648.0,17950.0,13734.0,17562.0,0.41601693630218506,0.7407937049865723,0.4216036796569824,0.7077232599258423,0.0,0.0,0.0,0.0,17076.0,14738.0,17146.0,14256.0,2.296339750289917,-0.0722846971426848,0.0718635100688644,0.03784073942584526,0.007052327040582895,0.0028146866243332624,-0.0
291,5,-0.00031972481519915164,-4.604985224432312e-05,0.00032284040935337543,-0.0029997529927641153,-0.00010362803732277825,-0.0021440975833684206,0.02487119473516941,0.03285882622003555,0.04317915439605713,-0.010637068189680576,-0.013371825218200684,-0.07214010506868362,0.0,0.0,0.0,0.0007959998911246657,-0.004018483683466911,-0.0,0.0,0.0,0.0,-0.001590669620782137,-0.0021206121891736984,-0.005886808969080448,13648.0,17950.0,13734.0,17562.0,0.41601693630218506,0.7407937049865723,0.4216036796569824,0.7077232599258423,0.0,0.0,0.0,0.0,17076.0,14738.0,17146.0,14256.0,2.2773382663726807,-0.07394718593486332,0.07162577364215893,0.036998952897013306,0.02205161191523075,0.0033600754104554653,0.0
296,5,-0.0003550866385921836,-2.152283013856504e-05,0.00040484947385266423,-0.0054433210752904415,-0.0029846937395632267,-0.01069872546941042,0.02487119473516941,0.03285882622003555,0.04317915439605713,-0.010637068189680576,-0.013371825218200684,-0.07214010506868362,0.0,0.0,0.0,0.0007959998911246657,-0.004018483683466911,-0.0,0.0,0.0,0.0,-0.001590669620782137,-0.0021206121891736984,-0.005886808969080448,13648.0,17950.0,13734.0,17562.0,0.41601693630218506,0.7407937049865723,0.4216036796569824,0.7077232599258423,0.0,0.0,0.0,0.0,17076.0,14738.0,17146.0,14256.0,2.2773382663726807,-0.07556331533611851,0.07069441478545896,0.0358574798677038,0.02205161191523075,0.0033600754104554653,0.0
301,5,-0.0003863981692120433,5.498145765159279e-05,0.0004381408216431737,-0.005934710614383221,-0.010374392382800579,-0.008274453692138195,0.02350301668047905,0.032904066145420074,0.043488264083862305,-0.23345603048801422,0.0027542882598936558,-0.217630535364151,0.0,0.0,0.0,0.0026162711437791586,-0.004069528542459011,-0.0,0.0,0.0,0.0,-0.0015694471076130867,-0.0023032433819025755,0.0013392672408372164,14308.0,17490.0,14411.0,17083.0,0.45979270339012146,0.7016767859458923,0.46683618426322937,0.6678615212440491,0.0,0.0,0.0,0.0,10043.0,20172.0,10181.0,19855.0,2.2828071117401123,-0.07665318424287393,0.07165142871800317,0.03796414704454156,0.022385280579328537,0.011070306412875652,0.0
306,5,-0.0004042701912112534,7.09061132511124e-05,0.0005003689439035952,-0.0045185270719230175,-0.006060715764760971,-0.010777152143418789,0.02350301668047905,0.032904066145420074,0.043488264083862305,-0.23345603048801422,0.0027542882598936558,-0.217630535364151,0.0,0.0,0.0,0.0026162711437791586,-0.004069528542459011,-0.0,0.0,0.0,0.0,-0.0015694471076130867,-0.0023032433819025755,0.0013392672408372164,14308.0,17490.0,14411.0,17083.0,0.45979270339012146,0.7016767859458923,0.46683618426322937,0.6678615212440491,0.0,0.0,0.0,0.0,10043.0,20172.0,10181.0,19855.0,2.2828071117401123,-0.07838382795272213,0.07119378381486273,0.03661219062952206,0.022385280579328537,0.011070306412875652,0.0
311,5,-0.00042413020855747163,0.00010635461512720212,0.0005958799156360328,-0.004190615378320217,-0.006678106263279915,-0.01577218435704708,0.021017083898186684,0.033211302012205124,0.0439157597720623,-0.3417818248271942,-0.056726500391960144,0.30346959829330444,0.0,0.0,0.0,0.0026162711437791586,-0.004069528542459011,-0.0,0.0,0.0,0.0,-0.001360270194709301,-0.002564147347584367,0.01270906813442707,21684.0,5772.0,21797.0,4088.0,1.097944736480713,0.06193417310714722,1.109868049621582,0.026592791080474854,0.0,0.0,0.0,0.0,20149.0,10080.0,20264.0,9315.0,2.2828071117401123,-0.0807556473584918,0.0718941790472624,0.03565075982423318,0.018068991601467133,0.025624213740229607,0.0
316,5,-0.0004743603931274265,0.0001842749770730734,0.0007075317553244531,-0.00770386541262269,-0.012021685019135475,-0.01970709301531315,0.021017083898186684,0.033211302012205124,0.0439157597720623,-0.3417818248271942,-0.056726500391960144,0.30346959829330444,0.0,0.0,0.0,0.006035888567566872,-0.0032740486785769463,-0.0,0.0,0.0,0.0,-0.001360270194709301,-0.002564147347584367,0.01270906813442707,12485.0,18671.0,12656.0,18338.0,0.3441254496574402,0.804295003414154,0.3542638421058655,0.774653971195221,0.0,0.0,0.0,0.0,21533.0,5922.0,21692.0,4322.0,2.290369749069214,-0.08424671887559065,0.07138372350410956,0.03793423951078936,0.018068991601467133,0.025624213740229607,0.0
321,5,-0.0005005336133763194,0.00020228671201039106,0.0008041958208195865,-0.0062223332934081554,-0.006970083806663752,-0.019482525065541267,0.01615632325410843,0.033360645174980164,0.0424550399184227,-0.4794504940509796,0.014054416678845882,-0.025581087917089462,0.0,0.0,0.0,0.006491445936262608,-0.00478503480553627,-0.0,0.0,0.0,0.0,-0.0011215726844966412,-0.0020438958890736103,-0.011238175444304943,12485.0,18671.0,12656.0,18338.0,0.3441254496574402,0.804295003414154,0.3542638421058655,0.774653971195221,0.0,0.0,0.0,0.0,21533.0,5922.0,21692.0,4322.0,2.264556884765625,-0.08641834955175108,0.0716853100095376,0.03626593396414168,0.026110153645277023,0.027247564867138863,0.0
326,5,-0.0005182946915738285,0.00020791559654753655,0.0008390983566641808,-0.004620259627699852,-0.003463499015197158,-0.011981314979493618,0.01615632325410843,0.033360645174980164,0.0424550399184227,-0.4794504940509796,0.014054416678845882,-0.025581087917089462,0.0,0.0,0.0,0.006491445936262608,-0.00478503480553627,-0.0,0.0,0.0,0.0,-0.0011215726844966412,-0.0020438958890736103,-0.011238175444304943,12485.0,18671.0,12656.0,18338.0,0.3441254496574402,0.804295003414154,0.3542638421058655,0.774653971195221,0.0,0.0,0.0,0.0,21533.0,5922.0,21692.0,4322.0,2.264556884765625,-0.0882982758803326,0.07197497833312326,0.03302011979913566,0.026110153645277023,0.027247564867138863,0.0
331,5,-0.0005532244686037302,0.00023782662174198776,0.0008836084743961692,-0.00603968370705843,-0.00497472332790494,-0.01013373862951994,0.012143292464315891,0.033714909106492996,0.04453936219215393,-0.4759826958179474,0.024963529780507088,-0.40285733342170715,0.0,0.0,0.0,0.006491445936262608,-0.00478503480553627,-0.0,0.0,0.0,0.0,-0.0008228049264289439,-0.002520851092413068,0.0025311196222901344,12710.0,18522.0,12929.0,18211.0,0.35750895738601685,0.7910311818122864,0.3707513213157654,0.7635156512260437,0.0,0.0,0.0,0.0,1495.0,23921.0,1495.0,23727.0,2.264556884765625,-0.08863929168414868,0.07158235784499652,0.03519284669273433,0.026110153645277023,0.027247564867138863,0.0
336,5,-0.0005972061189822853,0.0002989725617226213,0.0008895476348698139,-0.007693668827414513,-0.009327401407063007,-0.004766192752867937,0.012143292464315891,0.033714909106492996,0.04453936219215393,-0.4759826958179474,0.024963529780507088,-0.40285733342170715,0.0,0.0,0.0,0.004679590463638306,-0.004637687932699919,-0.0,0.0,0.0,0.0,-0.0008228049264289439,-0.002520851092413068,0.0025311196222901344,12710.0,18522.0,12929.0,18211.0,0.35750895738601685,0.7910311818122864,0.3707513213157654,0.7635156512260437,0.0,0.0,0.0,0.0,1495.0,23921.0,1495.0,23727.0,2.3013205528259277,-0.09002726903055089,0.07086347747466687,0.03910376524926159,0.025717230513691902,0.019961383193731308,0.0
341,5,-0.0006015914841555059,0.0002484637370798737,0.0008450892055407166,-0.003603711724281311,0.0023300994653254747,0.0034285320434719324,0.00780642731115222,0.03304275870323181,0.04246358573436737,-0.2684378921985626,0.026737969368696213,0.6398579478263855,0.0,0.0,0.0,0.004679590463638306,-0.004637687932699919,-0.0,0.0,0.0,0.0,-0.0006549477693624794,-0.0024805194698274136,0.004836058244109154,22296.0,1495.0,22471.0,1495.0,1.1632081270217896,-0.012568473815917969,1.1821577548980713,-0.042427659034729004,0.0,0.0,0.0,0.0,29018.0,1495.0,29181.0,1495.0,2.3013205528259277,-0.09117839102265883,0.0711172896446601,0.033273950285475556,0.025717230513691902,0.019961383193731308,0.0
347,5,-0.0006093290285207331,0.0002441368851577863,0.0007895769667811692,-0.002369990572333336,0.001451261225156486,0.008032884448766708,0.00780642731115222,0.03304275870323181,0.04246358573436737,-0.2684378921985626,0.026737969368696213,0.6398579478263855,0.0,0.0,0.0,-0.001756257493980229,-0.0030879336409270763,-0.0,0.0,0.0,0.0,-0.0006549477693624794,-0.0024805194698274136,0.004836058244109154,22296.0,1495.0,22471.0,1495.0,1.1632081270217896,-0.012568473815917969,1.1821577548980713,-0.042427659034729004,0.0,0.0,0.0,0.0,29018.0,1495.0,29181.0,1495.0,2.2646493911743164,-0.09069809515143969,0.0725247435109649,0.03170018221422168,0.016850760206580162,-0.007372203748673201,-0.0
352,5,-0.0006340510444715619,0.0002989286440424621,0.000750718405470252,-0.003914640285074711,-0.0059945061802864075,0.007876179181039333,0.005789878778159618,0.033754050731658936,0.04356615990400314,-0.14350998401641846,0.06991077214479446,-1.158982753753662,0.0,0.0,0.0,-0.001756257493980229,-0.0030879336409270763,-0.0,0.0,0.0,0.0,-0.000530966732185334,-0.0025659771636128426,0.033398449420928955,1495.0,27912.0,1495.0,27728.0,-0.7117056846618652,1.8493719100952148,-0.6974351406097412,1.8243257999420166,0.0,0.0,0.0,0.0,1495.0,30816.0,1495.0,30633.0,2.2646493911743164,-0.09241202219404537,0.07184947467255767,0.03879950231851797,0.016850760206580162,-0.007372203748673201,-0.0
357,5,-0.000654893578030169,0.00030613760463893414,0.0007007112726569176,-0.004066957626491785,-0.003262877929955721,0.009151330217719078,0.005789878778159618,0.033754050731658936,0.04356615990400314,-0.14350998401641846,0.06991077214479446,-1.158982753753662,0.0,0.0,0.0,0.0056977947242558,-0.0033062826842069626,-0.0,0.0,0.0,0.0,-0.000530966732185334,-0.0025659771636128426,0.033398449420928955,1495.0,27912.0,1495.0,27728.0,-0.7117056846618652,1.8493719100952148,-0.6974351406097412,1.8243257999420166,0.0,0.0,0.0,0.0,1495.0,30816.0,1495.0,30633.0,2.2842044830322266,-0.09349326460431305,0.07147860980818474,0.035627548919604984,0.018197806552052498,0.024123819544911385,-0.0
362,5,-0.0006595866288989782,0.00025962493964470923,0.0006570190307684243,-0.002189944963902235,0.004276369232684374,0.008903599344193935,0.004962062928825617,0.032836124300956726,0.04595131427049637,-0.08758925646543503,-0.01806539297103882,1.3770661354064941,0.0,0.0,0.0,0.0056977947242558,-0.0033062826842069626,-0.0,0.0,0.0,0.0,-0.000530966732185334,-0.0025659771636128426,0.033398449420928955,32872.0,1495.0,32996.0,1495.0,2.586911678314209,-1.4308793544769287,2.606818914413452,-1.4615306854248047,0.0,0.0,0.0,0.0,27346.0,1495.0,27495.0,1495.0,2.2842044830322266,-0.09116319885224387,0.07257010438146136,0.030948500313880314,0.018197806552052498,0.024123819544911385,-0.0
367,5,-0.0006951952236704528,0.0003209825081285089,0.0006683382671326399,-0.005149012431502342,-0.005652362946420908,0.0022031317930668592,0.004962062928825617,0.032836124300956726,0.04595131427049637,-0.08758925646543503,-0.01806539297103882,1.3770661354064941,0.0,0.0,0.0,-0.00338812917470932,-0.0021184824872761965,-0.0,0.0,0.0,0.0,-0.000530966732185334,-0.0025659771636128426,0.033398449420928955,32872.0,1495.0,32996.0,1495.0,2.586911678314209,-1.4308793544769287,2.606818914413452,-1.4615306854248047,0.0,0.0,0.0,0.0,27346.0,1495.0,27495.0,1495.0,2.3259310722351074,-0.0935969313526473,0.07204936437027007,0.036560962966396375,0.011873282492160797,-0.01460709422826767,-0.0
372,5,-0.0007315441034734249,0.00038873168523423374,0.0006613252917304635,-0.006421470548957586,-0.010390844196081161,0.0017228102078661323,0.004516082350164652,0.03330329805612564,0.03929385542869568,0.01355759333819151,0.10537794977426529,-0.8466722965240479,0.0,0.0,0.0,-0.00338812917470932,-0.0021184824872761965,-0.0,0.0,0.0,0.0,-0.0005018754163756967,-0.0030434185173362494,0.05374537408351898,29505.0,1495.0,29655.0,1495.0,2.072814464569092,-0.9250242114067078,2.0943968296051025,-0.95798259973526,0.0,0.0,0.0,0.0,6923.0,21197.0,7336.0,20883.0,2.3259310722351074,-0.0953744080071436,0.07065201950449594,0.03796895293896445,0.011873282492160797,-0.01460709422826767,-0.0
377,5,-0.0007515525794588029,0.0003693130274768919,0.0006417941185645759,-0.00496960524469614,-0.0018261006334796548,0.003032863838598132,0.004516082350164652,0.03330329805612564,0.03929385542869568,0.01355759333819151,0.10537794977426529,-0.8466722965240479,0.0,0.0,0.0,0.010044708847999573,-0.005289569031447172,-0.0,0.0,0.0,0.0,-0.0005018754163756967,-0.0030434185173362494,0.05374537408351898,29505.0,1495.0,29655.0,1495.0,2.072814464569092,-0.9250242114067078,2.0943968296051025,-0.95798259973526,0.0,0.0,0.0,0.0,6923.0,21197.0,7336.0,20883.0,2.207897424697876,-0.09217875536483118,0.0716617951162094,0.03185540432536002,0.028140196576714516,0.04110659658908844,-0.0
382,5,-0.00079760403605178,0.00040197873022407293,0.0007020257762633264,-0.007514019962400198,-0.0046503241173923016,-0.0060146525502204895,0.00394335575401783,0.032240256667137146,0.04594143107533455,-0.1452181190252304,-0.09471061080694199,0.5132238268852234,0.0,0.0,0.0,0.010044708847999573,-0.005289569031447172,-0.0,0.0,0.0,0.0,-0.0010674296645447612,-0.00247007142752409,-0.018969332799315453,29505.0,1495.0,29655.0,1495.0,2.072814464569092,-0.9250242114067078,2.0943968296051025,-0.95798259973526,0.0,0.0,0.0,0.0,1495.0,24327.0,1495.0,24099.0,2.207897424697876,-0.09395204266036813,0.07211974347146838,0.03480635834146492,0.028140196576714516,0.04110659658908844,-0.0
387,5,-0.0008402307284995914,0.0004895807360298932,0.0007242607534863055,-0.008120807819068432,-0.012372368946671486,-0.005074058659374714,0.00394335575401783,0.032240256667137146,0.04594143107533455,-0.1452181190252304,-0.09471061080694199,0.5132238268852234,0.0,0.0,0.0,0.0045590512454509735,-0.005817680153995752,-0.0,0.0,0.0,0.0,-0.0010674296645447612,-0.00247007142752409,-0.018969332799315453,29505.0,1495.0,29655.0,1495.0,2.072814464569092,-0.9250242114067078,2.0943968296051025,-0.95798259973526,0.0,0.0,0.0,0.0,1495.0,24327.0,1495.0,24099.0,2.3258042335510254,-0.09531611246233959,0.07137396467776523,0.04012236743765501,0.032603777945041656,0.019654113799333572,0.0
392,5,-0.0008701203623786569,0.00042348154238425195,0.0007105189724825323,-0.006835080683231354,0.0029829530976712704,-0.00038060839870013297,0.002617655787616968,0.032547224313020706,0.04645451158285141,0.01914631575345993,-0.11769602447748184,-1.3837372064590454,0.0,0.0,0.0,0.0045590512454509735,-0.005817680153995752,-0.0,0.0,0.0,0.0,-0.0002707156236283481,-0.0028187092393636703,-0.017048725858330727,1495.0,28610.0,1495.0,28416.0,-0.8407155275344849,1.9456079006195068,-0.8156630992889404,1.9186681509017944,0.0,0.0,0.0,0.0,32861.0,1495.0,32996.0,1495.0,2.3258042335510254,-0.09717583137169881,0.06965468447375225,0.03204581888144739,0.032603777945041656,0.019654113799333572,0.0
397,5,-0.0009117318550124764,0.00045010962639935315,0.0007016893359832466,-0.0077274092473089695,-0.002002188703045249,0.0009073138935491443,0.002617655787616968,0.032547224313020706,0.04645451158285141,0.01914631575345993,-0.11769602447748184,-1.3837372064590454,0.0,0.0,0.0,-0.0020452348981052637,-0.005414456594735384,-0.0,0.0,0.0,0.0,-0.0002707156236283481,-0.0028187092393636703,-0.017048725858330727,1495.0,28610.0,1495.0,28416.0,-0.8407155275344849,1.9456079006195068,-0.8156630992889404,1.9186681509017944,0.0,0.0,0.0,0.0,32861.0,1495.0,32996.0,1495.0,2.334679126739502,-0.09519787431611113,0.07140155937008441,0.0329737274650409,0.030460074543952942,-0.008850716054439545,0.0
402,5,-0.0009706781711429358,0.0005504462169483304,0.0007163137197494507,-0.010164518840610981,-0.01284126564860344,-0.0013920038472861052,0.002617655787616968,0.032547224313020706,0.04645451158285141,0.01914631575345993,-0.11769602447748184,-1.3837372064590454,0.0,0.0,0.0,-0.0020452348981052637,-0.005414456594735384,-0.0,0.0,0.0,0.0,-0.0002707156236283481,-0.0028187092393636703,-0.017048725858330727,1495.0,28610.0,1495.0,28416.0,-0.8407155275344849,1.9456079006195068,-0.8156630992889404,1.9186681509017944,0.0,0.0,0.0,0.0,32861.0,1495.0,32996.0,1495.0,2.334679126739502,-0.09700638940700819,0.06973252917877461,0.040696278055933566,0.030460074543952942,-0.008850716054439545,0.0
407,5,-0.0010090284049510956,0.0005322748329490423,0.0006779151153750718,-0.008667844347655773,-0.0029559375252574682,0.004051031079143286,0.002576458267867565,0.03250471130013466,0.04580463096499443,-0.15225359797477722,-0.012987164780497551,1.5980621576309204,0.0,0.0,0.0,0.011886103078722954,-0.0077702621929347515,-0.0,0.0,0.0,0.0,-0.0004775651032105088,-0.002962015103548765,0.05306831747293472,34743.0,1495.0,34890.0,1495.0,2.8972301483154297,-1.7302594184875488,2.9222633838653564,-1.763429880142212,0.0,0.0,0.0,0.0,1495.0,32813.0,1495.0,32635.0,2.3235971927642822,-0.09695029160628771,0.06960858112627392,0.035391941622747246,0.04350241646170616,0.051190610975027084,0.0
412,5,-0.001054470776580274,0.0010537412017583847,0.001194445532746613,-0.008920210413634777,-0.06375834345817566,-0.06036323681473732,0.002576458267867565,0.03250471130013466,0.04580463096499443,-0.15225359797477722,-0.012987164780497551,1.5980621576309204,0.0,0.0,0.0,0.011886103078722954,-0.0077702621929347515,-0.0,0.0,0.0,0.0,-0.0004775651032105088,-0.002962015103548765,0.05306831747293472,34743.0,1495.0,34890.0,1495.0,2.8972301483154297,-1.7302594184875488,2.9222633838653564,-1.763429880142212,0.0,0.0,0.0,0.0,1495.0,32813.0,1495.0,32635.0,2.3235971927642822,-0.08901985907833679,0.07882726779814211,0.030796378372491818,0.04350241646170616,0.051190610975027084,0.0
417,5,-0.0011152068618685007,0.0011667368235066533,0.0012570564867928624,-0.010856417939066887,-0.03906281292438507,-0.031658612191677094,0.001987795578315854,0.0337667390704155,0.04114504158496857,0.022739864885807037,-0.019300512969493866,-0.9803467392921448,0.0,0.0,0.0,0.05883463844656944,-0.007267838343977928,-0.0,0.0,0.0,0.0,-0.0001727345515973866,-0.0029961545951664448,-0.05820554122328758,1495.0,32226.0,1495.0,32016.0,-1.3107974529266357,2.4838547706604004,-1.289233922958374,2.4508557319641113,0.0,0.0,0.0,0.0,29066.0,1495.0,29228.0,1495.0,2.2480506896972656,-0.0909671146677602,0.07968367840021531,0.03822538017646436,0.03930133953690529,0.24490198493003845,0.0
422,5,-0.0011734789004549384,0.00119616964366287,0.0012377846287563443,-0.011335211805999279,-0.019157065078616142,-0.010350825265049934,0.001987795578315854,0.0337667390704155,0.04114504158496857,0.022739864885807037,-0.019300512969493866,-0.9803467392921448,0.0,0.0,0.0,0.05883463844656944,-0.007267838343977928,-0.0,0.0,0.0,0.0,-0.0001727345515973866,-0.0029961545951664448,-0.05820554122328758,1495.0,32226.0,1495.0,32016.0,-1.3107974529266357,2.4838547706604004,-1.289233922958374,2.4508557319641113,0.0,0.0,0.0,0.0,29066.0,1495.0,29228.0,1495.0,2.2480506896972656,-0.09173025939433627,0.07900335925625249,0.0368197478877526,0.03930133953690529,0.24490198493003845,0.0
427,5,-0.001192237250506878,0.0011181645095348358,0.0012289753649383783,-0.0067850942723453045,0.0016977982595562935,-0.003083218354731798,0.0011303303763270378,0.034234341233968735,0.048145074397325516,-0.13901686668395996,-0.2138957679271698,0.010397609323263168,0.0,0.0,0.0,0.017900191247463226,-0.008605589158833027,-0.0,0.0,0.0,0.0,-0.0011219329899176955,-0.0033200334291905165,0.04611673578619957,25598.0,1495.0,25810.0,1495.0,1.5473973751068115,-0.381580650806427,1.5739939212799072,-0.41621333360671997,0.0,0.0,0.0,0.0,19379.0,11808.0,19577.0,11190.0,2.3642189502716064,-0.09038373379529291,0.07959477155039468,0.030442532562985077,0.04901683330535889,0.07843533903360367,0.0
433,5,-0.0012302692048251629,0.0011644576443359256,0.0012574056163430214,-0.007277861703187227,-0.0048760585486888885,-0.004644906613975763,0.0011303303763270378,0.034234341233968735,0.048145074397325516,-0.13901686668395996,-0.2138957679271698,0.010397609323263168,0.0,0.0,0.0,0.017900191247463226,-0.008605589158833027,-0.0,0.0,0.0,0.0,-0.0011219329899176955,-0.0033200334291905165,0.04611673578619957,25598.0,1495.0,25810.0,1495.0,1.5473973751068115,-0.381580650806427,1.5739939212799072,-0.41621333360671997,0.0,0.0,0.0,0.0,19379.0,11808.0,19577.0,11190.0,2.3642189502716064,-0.09056242152893568,0.0792719988709776,0.03623137428094578,0.04901683330535889,0.07843533903360367,0.0
438,5,-0.0012804974103346467,0.0012005019234493375,0.0012836743844673038,-0.008938529528677464,-0.006275732535868883,-0.005010225344449282,0.0010487950639799237,0.035052403807640076,0.039470523595809937,0.0567515604197979,0.10252119600772858,1.0438048839569092,0.0,0.0,0.0,0.006029814947396517,-0.00640411302447319,-0.0,0.0,0.0,0.0,-0.0002894692006520927,-0.003050288651138544,-0.0022345061879605055,23947.0,1495.0,24165.0,1495.0,1.3484991788864136,-0.18517768383026123,1.373988151550293,-0.21371245384216309,0.0,0.0,0.0,0.0,1495.0,29926.0,1495.0,29768.0,2.211040735244751,-0.09192009187977472,0.07887977303927858,0.03875570437288474,0.03411903604865074,0.02471180632710457,0.0
443,5,-0.0012988419039174914,0.001118611078709364,0.0013640851248055696,-0.005776757374405861,0.007316607516258955,-0.01165338046848774,0.0010487950639799237,0.035052403807640076,0.039470523595809937,0.0567515604197979,0.10252119600772858,1.0438048839569092,0.0,0.0,0.0,0.006029814947396517,-0.00640411302447319,-0.0,0.0,0.0,0.0,-0.0002894692006520927,-0.003050288651138544,-0.0022345061879605055,23947.0,1495.0,24165.0,1495.0,1.3484991788864136,-0.18517768383026123,1.373988151550293,-0.21371245384216309,0.0,0.0,0.0,0.0,1495.0,29926.0,1495.0,29768.0,2.211040735244751,-0.09265341949874574,0.07997849484538715,0.028850170125320002,0.03411903604865074,0.02471180632710457,0.0
448,5,-0.001317306188866496,0.0011660008458420634,0.0013950271531939507,-0.004526409786194563,-0.0027601299807429314,-0.008374389261007309,0.0010487950639799237,0.035052403807640076,0.039470523595809937,0.0567515604197979,0.10252119600772858,1.0438048839569092,0.0,0.0,0.0,-0.005187198985368013,-0.005419315304607153,-0.0,0.0,0.0,0.0,0.0020049656741321087,-0.003038036869838834,-0.03677443787455559,1495.0,32540.0,1495.0,32479.0,-1.4272639751434326,2.5336782932281494,-1.382232904434204,2.523869276046753,0.0,0.0,0.0,0.0,34932.0,1495.0,35178.0,1495.0,2.211017370223999,-0.09080184999526247,0.08331272735854149,0.03240397172382138,0.02887224219739437,-0.02125837467610836,0.0
453,5,-0.001361945061944425,0.001253284513950348,0.0014335172018036246,-0.007167235016822815,-0.011578099802136421,-0.007968554273247719,0.0010487950639799237,0.035052403807640076,0.039470523595809937,0.0567515604197979,0.10252119600772858,1.0438048839569092,0.0,0.0,0.0,-0.005187198985368013,-0.005419315304607153,-0.0,0.0,0.0,0.0,0.0020049656741321087,-0.003038036869838834,-0.03677443787455559,1495.0,32540.0,1495.0,32479.0,-1.4272639751434326,2.5336782932281494,-1.382232904434204,2.523869276046753,0.0,0.0,0.0,0.0,34932.0,1495.0,35178.0,1495.0,2.211017370223999,-0.0936662193590699,0.0834620634614624,0.03833582449761328,0.02887224219739437,-0.02125837467610836,0.0
458,5,-0.0013791787205263972,0.0012265327386558056,0.0014738092431798577,-0.004934928845614195,-0.001421021413989365,-0.008022471331059933,0.0009813758078962564,0.03458452224731445,0.04450218752026558,-0.08440906554460526,0.08268565684556961,1.4472692012786865,0.0,0.0,0.0,0.011804870329797268,-0.006212250795215368,-0.0,0.0,0.0,0.0,0.0005509197944775224,-0.0031269812025129795,0.06326084583997726,35317.0,1495.0,35517.0,1495.0,2.9959354400634766,-1.818281650543213,3.030578374862671,-1.8440132141113281,0.0,0.0,0.0,0.0,1495.0,31965.0,1495.0,31774.0,2.300823450088501,-0.09466757830248795,0.08639857317514785,0.030048101681261544,0.03443904593586922,0.05034249648451805,0.0
463,5,-0.0014376440085470676,0.0012883367016911507,0.0016236401861533523,-0.008989805355668068,-0.007984882220625877,-0.021188698709011078,0.0009813758078962564,0.03458452224731445,0.04450218752026558,-0.08440906554460526,0.08268565684556961,1.4472692012786865,0.0,0.0,0.0,0.011804870329797268,-0.006212250795215368,-0.0,0.0,0.0,0.0,0.0005509197944775224,-0.0031269812025129795,0.06326084583997726,35317.0,1495.0,35517.0,1495.0,2.9959354400634766,-1.818281650543213,3.030578374862671,-1.8440132141113281,0.0,0.0,0.0,0.0,1495.0,31965.0,1495.0,31774.0,2.300823450088501,-0.0930256661989246,0.09308854376335937,0.02726447417824613,0.03443904593586922,0.05034249648451805,0.0
