timestamp,dt,pos_x,pos_y,pos_z,vel_x,vel_y,vel_z,roll,pitch,yaw,agv_x,agv_y,agv_z,x_ref,y_ref,z_ref,roll_ref,pitch_ref,yaw_ref,x_vel_ref,y_vel_ref,z_vel_ref,x_torque,y_torque,z_torque,w0,w1,w2,w3,u0,u1,u2,u3,m0req,m1req,m2req,m3req,thrust0,thrust1,thrust2,thrust3,thrust_ref,roll_vicon,pitch_vicon,yaw_vicon,acc_x,acc_y,acc_z
5,5,0.0,0.0,0.0,-0.006615946069359779,-0.004244362935423851,-0.004932527430355549,0.05575216934084892,0.05725612863898277,7.163802365539595e-05,-0.0023329455871134996,0.0017418236238881946,-0.0012056553969159722,0.0,0.0,0.0,0.005035982932895422,-0.006038445979356766,-0.0,0.0,0.0,0.0,-0.016733184456825256,-0.017117513343691826,-1.3538756320485845e-05,1495.0,1495.0,1495.0,1495.0,0.0,0.0,0.0,0.0,0.0,0.0,0.0,0.0,1495.0,1495.0,1495.0,1495.0,1.7051173448562622,0.002759063804383242,0.041117547498829767,0.11598597180880925,0.02480979822576046,0.015916360542178154,0.0
32,27,0.0,0.0,0.0,0.002256245817989111,0.001195777440443635,0.001318831811659038,0.05575216934084892,0.05725612863898277,7.163802365539595e-05,-0.0023329455871134996,0.0017418236238881946,-0.0012056553969159722,0.0,0.0,0.0,0.005035982932895422,-0.006038445979356766,-0.0,0.0,0.0,0.0,-0.016733184456825256,-0.017117513343691826,-1.3538756320485845e-05,1495.0,1495.0,1495.0,1495.0,0.0,0.0,0.0,0.0,0.0,0.0,0.0,0.0,1495.0,1495.0,1495.0,1495.0,1.7051173448562622,0.0038916019202336442,0.04086699078572133,0.11673863596037982,0.02480979822576046,0.015916360542178154,0.0
37,5,0.0,0.0,0.0,-0.004671443719416857,-0.0019797268323600292,-0.008261246606707573,0.05575216934084892,0.05725612863898277,7.163802365539595e-05,-0.0023329455871134996,0.0017418236238881946,-0.0012056553969159722,0.0,0.0,0.0,-0.0014646871713921428,0.002125876722857356,-0.0,0.0,0.0,0.0,-0.016733184456825256,-0.017117513343691826,-1.3538756320485845e-05,1495.0,1495.0,1495.0,1495.0,0.0,0.0,0.0,0.0,0.0,0.0,0.0,0.0,1495.0,1495.0,1495.0,1495.0,1.651689887046814,0.0043441322623214325,0.0415645916366496,0.11580452505507459,-0.008460922166705132,-0.004484165459871292,0.0
43,5,0.0,0.0,0.0,-0.0008578928536735475,-4.40793826328445e-07,0.0008556930115446448,0.055740270763635635,0.05726877972483635,7.11101820343174e-05,0.0008618410211056471,-0.0038929563015699387,0.0012197759933769703,0.0,0.0,0.0,-0.0014646871713921428,0.002125876722857356,-0.0,0.0,0.0,0.0,-0.015255186706781387,-0.01905796304345131,6.483589095296338e-05,1495.0,1495.0,1495.0,1495.0,0.0,0.0,0.0,0.0,0.0,0.0,0.0,0.0,1495.0,1495.0,1495.0,1495.0,1.651689887046814,0.0035497937929831963,0.0415627484503289,0.11582989045209503,-0.008460922166705132,-0.004484165459871292,0.0
48,5,1.995399725274183e-05,-1.179924493044382e-05,-5.907746890443377e-05,0.002051322488114238,0.0014157331315800548,0.007431573700159788,0.055740270763635635,0.05726877972483635,7.11101820343174e-05,0.0008618410211056471,-0.0038929563015699387,0.0012197759933769703,0.0,0.0,0.0,-0.0014646871713921428,0.002125876722857356,-0.0,0.0,0.0,0.0,-0.015255186706781387,-0.01905796304345131,6.483589095296338e-05,1495.0,1495.0,1495.0,1495.0,0.0,0.0,0.0,0.0,0.0,0.0,0.0,0.0,1495.0,1495.0,1495.0,1495.0,1.651689887046814,0.003223672234849388,0.039881336218918595,0.11695369974123015,-0.008460922166705132,-0.004484165459871292,0.0
53,5,1.995399725274183e-05,-1.179924493044382e-05,-5.907746890443377e-05,0.002051322488114238,0.0014157331315800548,0.007431573700159788,0.055740270763635635,0.05726877972483635,7.11101820343174e-05,0.0008618410211056471,-0.0038929563015699387,0.0012197759933769703,0.0,0.0,0.0,-0.0014646871713921428,0.002125876722857356,-0.0,0.0,0.0,0.0,-0.015255186706781387,-0.01905796304345131,6.483589095296338e-05,1495.0,1495.0,1495.0,1495.0,0.0,0.0,0.0,0.0,0.0,0.0,0.0,0.0,1495.0,1495.0,1495.0,1495.0,1.651689887046814,0.003223672234849388,0.039881336218918595,0.11695369974123015,-0.008460922166705132,-0.004484165459871292,0.0
58,5,-0.0009943160694092512,-0.004183781798928976,0.007015105802565813,0.00022807347704656422,-0.002122964011505246,-0.001442441833205521,0.055740270763635635,0.05726877972483635,7.11101820343174e-05,0.0008618410211056471,-0.0038929563015699387,0.0012197759933769703,0.0,0.0,0.0,-0.0017556104576215148,0.001960713416337967,-0.0,0.0,0.0,0.0,-0.015255186706781387,-0.01905796304345131,6.483589095296338e-05,1495.0,1495.0,1495.0,1495.0,0.0,0.0,0.0,0.0,0.0,0.0,0.0,0.0,1495.0,1495.0,1495.0,1495.0,1.6514149904251099,3.0855943839386093,0.2375274105778897,0.021150299177460127,-0.007802275940775871,-0.005373936612159014,0.0
63,5,-0.0010798611911013722,-0.00421812292188406,0.0074167209677398205,-0.010174189694225788,0.0032717252615839243,-0.04877082258462906,0.055740270763635635,0.05726877972483635,7.11101820343174e-05,0.0008618410211056471,-0.0038929563015699387,0.0012197759933769703,0.0,0.0,0.0,-0.0017556104576215148,0.001960713416337967,-0.0,0.0,0.0,0.0,-0.015255186706781387,-0.01905796304345131,6.483589095296338e-05,1495.0,1495.0,1495.0,1495.0,0.0,0.0,0.0,0.0,0.0,0.0,0.0,0.0,13598.0,15725.0,13622.0,11020.0,1.6514149904251099,3.0581461994750057,0.26642789901428576,0.027950837437904056,-0.007802275940775871,-0.005373936612159014,0.0
68,5,-0.0008770363638177514,-0.00425928458571434,0.006257958710193634,-0.010174189694225788,0.0032717252615839243,-0.04877082258462906,0.055738139897584915,0.057259734719991684,0.00010033817670773715,-0.0005618763971142471,-0.00012223600060679018,0.0027739766519516706,0.0,0.0,0.0,-0.010774051770567894,-0.010299785993993282,-0.0,0.0,0.0,0.0,-0.01718868315219879,-0.016585038974881172,-4.347545836935751e-05,13586.0,15734.0,13626.0,11018.0,0.41202032566070557,0.5619131922721863,0.4145967364311218,0.2631596326828003,0.0,0.0,0.0,0.0,13598.0,15725.0,13622.0,11020.0,1.7768611907958984,3.1364061726499344,0.18261116385906848,0.01217841686131037,0.04409615695476532,-0.03548344969749451,0.0
73,5,-0.0008747685351409018,-0.00423791678622365,0.006304830778390169,-0.0037975329905748367,-0.0012554355198517442,-0.02513298951089382,0.05574023723602295,0.05723438039422035,0.00012000209972029552,0.0017410742584615946,0.004406238906085491,0.00014758424367755651,0.0,0.0,0.0,-0.005920869298279285,-0.004659306723624468,-0.0,0.0,0.0,0.0,-0.01721726730465889,-0.016464266926050186,4.889281990472227e-05,13605.0,15723.0,13623.0,11014.0,0.41324031352996826,0.5610599517822266,0.4144134521484375,0.26297616958618164,0.0,0.0,0.0,0.0,13640.0,15686.0,13669.0,10967.0,1.697580337524414,3.1367780312608695,0.18259436043689953,0.012478267762706363,0.019058747217059135,-0.018630295991897583,0.0
78,5,-0.0008747685351409018,-0.00423791678622365,0.006304830778390169,-0.0037975329905748367,-0.0012554355198517442,-0.02513298951089382,0.05574023723602295,0.05723438039422035,0.00012000209972029552,0.0017410742584615946,0.004406238906085491,0.00014758424367755651,0.0,0.0,0.0,-0.005920869298279285,-0.004659306723624468,-0.0,0.0,0.0,0.0,-0.01721726730465889,-0.016464266926050186,4.889281990472227e-05,13605.0,15723.0,13623.0,11014.0,0.41324031352996826,0.5610599517822266,0.4144134521484375,0.26297616958618164,0.0,0.0,0.0,0.0,13640.0,15686.0,13669.0,10967.0,1.697580337524414,3.1367780312608695,0.18259436043689953,0.012478267762706363,0.019058747217059135,-0.018630295991897583,0.0
83,5,-0.000259310967521742,-0.00020478251099120826,0.0017637049313634634,-0.009383056312799454,-0.0006973666022531688,-0.00767001835629344,0.05574023723602295,0.05723438039422035,0.00012000209972029552,0.0017410742584615946,0.004406238906085491,0.00014758424367755651,0.0,0.0,0.0,-0.005920869298279285,-0.004659306723624468,-0.0,0.0,0.0,0.0,-0.01721726730465889,-0.016464266926050186,4.889281990472227e-05,13605.0,15723.0,13623.0,11014.0,0.41324031352996826,0.5610599517822266,0.4144134521484375,0.26297616958618164,0.0,0.0,0.0,0.0,13640.0,15686.0,13669.0,10967.0,1.697580337524414,0.037454929753843486,0.017673431566167703,0.12448668712584432,0.019058747217059135,-0.018630295991897583,0.0
88,5,-0.0003715571656357497,-0.00044136313954368234,0.0014460732927545905,-0.01722276583313942,0.028110729530453682,0.035047776997089386,0.05575194209814072,0.05721598491072655,0.00010473308793734759,0.00038424620288424194,0.002601348329335451,-0.0020817629992961884,0.0,0.0,0.0,0.00045635338756255805,-0.008814333938062191,-0.0,0.0,0.0,0.0,-0.01731874607503414,-0.016639353707432747,-8.578319921070943e-07,13579.0,15753.0,13606.0,11019.0,0.4115757346153259,0.563353419303894,0.41327840089797974,0.26320743560791016,0.0,0.0,0.0,0.0,13567.0,15759.0,13588.0,11047.0,1.724196434020996,0.027395136847757844,0.03673906903456091,0.12006610394398459,0.03662034869194031,0.0014584667515009642,0.0
93,5,-0.0003796464006882161,-0.0004104133986402303,0.0013853393029421568,-0.007859813049435616,0.0075303236953914165,0.021307189017534256,0.05575194209814072,0.05721598491072655,0.00010473308793734759,0.00038424620288424194,0.002601348329335451,-0.0020817629992961884,0.0,0.0,0.0,0.00045635338756255805,-0.008814333938062191,-0.0,0.0,0.0,0.0,-0.01731874607503414,-0.016639353707432747,-8.578319921070943e-07,13579.0,15753.0,13606.0,11019.0,0.4115757346153259,0.563353419303894,0.41327840089797974,0.26320743560791016,0.0,0.0,0.0,0.0,13567.0,15759.0,13588.0,11047.0,1.724196434020996,0.025443802624199117,0.039149147249263765,0.12003531545628822,0.03662034869194031,0.0014584667515009642,0.0
99,5,-0.00035775560536421835,-0.00030470950878225267,0.001235784962773323,-0.0005170300137251616,-0.009672337211668491,0.026469407603144646,0.05575581640005112,0.05724918469786644,0.00012167636305093765,0.0017323241336271167,-0.003023917553946376,0.003579470794647932,0.0,0.0,0.0,-0.009446743875741959,-0.007515340577811003,-0.0,0.0,0.0,0.0,-0.02002829499542713,-0.020422060042619705,0.0001251784706255421,14027.0,16491.0,14217.0,10997.0,0.4408664405345917,0.6202784776687622,0.4536196291446686,0.2620966136455536,0.0,0.0,0.0,0.0,14004.0,16512.0,14190.0,11030.0,1.7434769868850708,0.021751338508796365,0.03787897030122792,0.12010449906127688,0.03157136216759682,-0.03052777796983719,-0.0
104,5,-0.00033733798773027956,-0.00029422712395899,0.0010988510912284255,0.0022433013655245304,-0.005126821808516979,0.027019821107387543,0.05576816573739052,0.057241205126047134,0.0001304949400946498,-0.001011045416817069,0.006697007454931736,-0.0010329928481951356,0.0,0.0,0.0,0.005655817687511444,0.0016207012813538313,-0.0,0.0,0.0,0.0,-0.019599178805947304,-0.019304033368825912,2.7213201974518597e-05,13705.0,16090.0,13836.0,10969.0,0.41969674825668335,0.5889661908149719,0.4282708168029785,0.2606465816497803,0.0,0.0,0.0,0.0,13706.0,16091.0,13814.0,10994.0,1.6764225959777832,0.018876216886813457,0.04092281842243829,0.11870649113646727,-0.006546832621097565,0.017574511468410492,-0.0
109,5,-0.0002366371627431363,-0.0002442323020659387,0.0008700067992322147,0.012981419451534748,-0.008050106465816498,0.038269247859716415,0.05576816573739052,0.057241205126047134,0.0001304949400946498,-0.001011045416817069,0.006697007454931736,-0.0010329928481951356,0.0,0.0,0.0,0.005655817687511444,0.0016207012813538313,-0.0,0.0,0.0,0.0,-0.019599178805947304,-0.019304033368825912,2.7213201974518597e-05,13705.0,16090.0,13836.0,10969.0,0.41969674825668335,0.5889661908149719,0.4282708168029785,0.2606465816497803,0.0,0.0,0.0,0.0,13706.0,16091.0,13814.0,10994.0,1.6764225959777832,0.011651487403512325,0.03807442903969179,0.11899793049676678,-0.006546832621097565,0.017574511468410492,-0.0
114,5,-0.00013362892786972225,-0.00017543679859954864,0.0006257755449041724,0.017553556710481644,-0.01147550530731678,0.04461544379591942,0.05576816573739052,0.057241205126047134,0.0001304949400946498,-0.001011045416817069,0.006697007454931736,-0.0010329928481951356,0.0,0.0,0.0,0.005655817687511444,0.0016207012813538313,-0.0,0.0,0.0,0.0,-0.019599178805947304,-0.019304033368825912,2.7213201974518597e-05,13705.0,16090.0,13836.0,10969.0,0.41969674825668335,0.5889661908149719,0.4282708168029785,0.2606465816497803,0.0,0.0,0.0,0.0,13706.0,16091.0,13814.0,10994.0,1.6764225959777832,0.004299287285297649,0.03559161894483327,0.11944485059528134,-0.006546832621097565,0.017574511468410492,-0.0
119,5,-1.1202867426618468e-05,-0.00011456420179456472,0.0004339453298598528,0.021712549030780792,-0.011894913390278816,0.04086580500006676,0.05575406923890114,0.05718466639518738,0.00012306870485190302,-0.00018809264292940497,0.00365099566988647,0.0006892952951602638,0.0,0.0,0.0,0.012384680099785328,0.014750621281564236,-0.0,0.0,0.0,0.0,-0.015132472850382328,-0.016794351860880852,3.878818824887276e-05,13543.0,15702.0,13889.0,11262.0,0.4092618525028229,0.5595259070396423,0.43176648020744324,0.27586838603019714,0.0,0.0,0.0,0.0,13889.0,16351.0,13993.0,11030.0,1.8312004804611206,-0.0008757914611596052,0.03428567161498935,0.1196148672837901,-0.06508022546768188,0.0420348085463047,-0.0
124,5,7.415418076561764e-05,-7.05477868905291e-05,0.00028284883592277765,0.018927864730358124,-0.010039934888482094,0.034477900713682175,0.05575406923890114,0.05718466639518738,0.00012306870485190302,-0.00018809264292940497,0.00365099566988647,0.0006892952951602638,0.0,0.0,0.0,0.012384680099785328,0.014750621281564236,-0.0,0.0,0.0,0.0,-0.015132472850382328,-0.016794351860880852,3.878818824887276e-05,13543.0,15702.0,13889.0,11262.0,0.4092618525028229,0.5595259070396423,0.43176648020744324,0.27586838603019714,0.0,0.0,0.0,0.0,13889.0,16351.0,13993.0,11030.0,1.8312004804611206,-0.004079533730616217,0.03288630811701008,0.12080408818408803,-0.06508022546768188,0.0420348085463047,-0.0
129,5,0.00013059331104159355,-2.4609720640000887e-05,0.00022772325610276312,0.01434384286403656,-0.009528541937470436,0.02040623128414154,0.05576191842556,0.0571824386715889,0.00011425392585806549,0.0027711731381714344,-0.003944887779653072,0.0013741683214902878,0.0,0.0,0.0,0.010921821929514408,0.016108987852931023,-0.0,0.0,0.0,0.0,-0.013116935268044472,-0.012914016842842102,1.5400213669636287e-05,13543.0,15702.0,13889.0,11262.0,0.4092618525028229,0.5595259070396423,0.43176648020744324,0.27586838603019714,0.0,0.0,0.0,0.0,13533.0,15713.0,13872.0,11281.0,1.839003086090088,-0.005254276586751663,0.034293483720648506,0.12101496987830791,-0.07137694209814072,0.037228062748909,-0.0
136,6,0.00019672927737701684,7.010757144598756e-06,0.00016307909390889108,0.013673853129148483,-0.007605873979628086,0.015919789671897888,0.05576191842556,0.0571824386715889,0.00011425392585806549,0.0027711731381714344,-0.003944887779653072,0.0013741683214902878,0.0,0.0,0.0,0.010921821929514408,0.016108987852931023,-0.0,0.0,0.0,0.0,-0.013116935268044472,-0.012914016842842102,1.5400213669636287e-05,13543.0,15702.0,13889.0,11262.0,0.4092618525028229,0.5595259070396423,0.43176648020744324,0.27586838603019714,0.0,0.0,0.0,0.0,13533.0,15713.0,13872.0,11281.0,1.839003086090088,-0.0028851346145489713,0.037225765647507646,0.12009552953170564,-0.07137694209814072,0.037228062748909,-0.0
141,5,0.00021474481036420912,2.6183141017099842e-05,8.277214510599151e-05,0.007631403859704733,-0.0053430357947945595,0.01600475050508976,0.055768754333257675,0.057208653539419174,0.00011850521696032956,-0.0006658403435721993,0.001137642888352275,-0.00034841574961319566,0.0,0.0,0.0,0.008623428642749786,0.012173323892056942,-0.0,0.0,0.0,0.0,-0.013601137325167656,-0.012371687218546867,7.121434464352205e-05,14368.0,15878.0,14298.0,12469.0,0.4639286696910858,0.5727515816688538,0.45914626121520996,0.34317654371261597,0.0,0.0,0.0,0.0,14287.0,15844.0,14331.0,12435.0,1.784745454788208,-0.003368835052314651,0.03773384521286722,0.11998280446552859,-0.05234925076365471,0.028526930138468742,-0.0
146,5,-0.0009587566601112485,-0.004194289445877075,0.007000876124948263,0.007631403859704733,-0.0053430357947945595,0.01600475050508976,0.055768754333257675,0.057208653539419174,0.00011850521696032956,-0.0006658403435721993,0.001137642888352275,-0.00034841574961319566,0.0,0.0,0.0,0.008623428642749786,0.012173323892056942,-0.0,0.0,0.0,0.0,-0.013601137325167656,-0.012371687218546867,7.121434464352205e-05,14368.0,15878.0,14298.0,12469.0,0.4639286696910858,0.5727515816688538,0.45914626121520996,0.34317654371261597,0.0,0.0,0.0,0.0,14287.0,15844.0,14331.0,12435.0,1.784745454788208,3.0943295924521594,0.2296521513288595,0.021659820055481355,-0.05234925076365471,0.028526930138468742,-0.0
151,5,-0.0007610688335262239,-0.0043314192444086075,0.006320246960967779,0.026775099337100983,0.014318383298814297,0.08807740360498428,0.05576610937714577,0.05716456472873688,0.00013953872257843614,0.0030741682276129723,0.002298899693414569,0.0004833072598557919,0.0,0.0,0.0,-0.0009838537080213428,0.005731991957873106,-0.0,0.0,0.0,0.0,-0.01427448820322752,-0.013497634790837765,3.938617373933084e-05,14124.0,15817.0,14119.0,12105.0,0.4473781883716583,0.5681936144828796,0.44706225395202637,0.3221113085746765,0.0,0.0,0.0,0.0,14321.0,15910.0,14252.0,12536.0,1.6892290115356445,3.134766987884239,0.1853977666952804,0.013475737825357966,-0.0233315397053957,-0.003080544527620077,-0.0
156,5,-0.0007787557551637292,-0.0043316129595041275,0.006307384930551052,0.00858761090785265,0.005750609096139669,0.03677438944578171,0.05576610937714577,0.05716456472873688,0.00013953872257843614,0.0030741682276129723,0.002298899693414569,0.0004833072598557919,0.0,0.0,0.0,-0.0009838537080213428,0.005731991957873106,-0.0,0.0,0.0,0.0,-0.01427448820322752,-0.013497634790837765,3.938617373933084e-05,14124.0,15817.0,14119.0,12105.0,0.4473781883716583,0.5681936144828796,0.44706225395202637,0.3221113085746765,0.0,0.0,0.0,0.0,14321.0,15910.0,14252.0,12536.0,1.6892290115356445,3.1337931900906453,0.18555443001813995,0.013014848615339678,-0.0233315397053957,-0.003080544527620077,-0.0
161,5,-0.0007759591098874807,-0.004333633929491043,0.006359080318361521,0.003770642215386033,0.002542733447626233,0.008506296202540398,0.05575455352663994,0.05717692896723747,0.00013324202154763043,-0.003760101506486535,-0.0008549254271201789,-0.001481659128330648,0.0,0.0,0.0,-0.013867868110537529,0.006549485959112644,-0.0,0.0,0.0,0.0,-0.014228344894945621,-0.013598434627056122,2.8060640033800155e-05,13799.0,15791.0,13705.0,11291.0,0.425835520029068,0.5662316083908081,0.4197408854961395,0.2774210274219513,0.0,0.0,0.0,0.0,14107.0,15834.0,14113.0,12110.0,1.768322467803955,3.1347742161000856,0.18531445009586756,0.013678735376938042,-0.02790459431707859,-0.04545215144753456,-0.0
166,5,-0.000858614279422909,-0.004257088992744684,0.006600881461054087,-0.008410369046032429,-0.00816825870424509,-0.025613615289330482,0.05575455352663994,0.05717692896723747,0.00013324202154763043,-0.003760101506486535,-0.0008549254271201789,-0.001481659128330648,0.0,0.0,0.0,-0.013867868110537529,0.006549485959112644,-0.0,0.0,0.0,0.0,-0.014228344894945621,-0.013598434627056122,2.8060640033800155e-05,13799.0,15791.0,13705.0,11291.0,0.425835520029068,0.5662316083908081,0.4197408854961395,0.2774210274219513,0.0,0.0,0.0,0.0,14107.0,15834.0,14113.0,12110.0,1.768322467803955,3.118215909611353,0.20386648236157853,0.016840081075270068,-0.02790459431707859,-0.04545215144753456,-0.0
171,5,-0.0007437384920194745,-0.004310019314289093,0.0065011740662157536,0.010420949198305607,0.00308430939912796,0.00171945383772254,0.05575455352663994,0.05717692896723747,0.00013324202154763043,-0.003760101506486535,-0.0008549254271201789,-0.001481659128330648,0.0,0.0,0.0,0.0022325378376990557,-0.00872805342078209,-0.0,0.0,0.0,0.0,-0.014228344894945621,-0.013598434627056122,2.8060640033800155e-05,13799.0,15791.0,13705.0,11291.0,0.425835520029068,0.5662316083908081,0.4197408854961395,0.2774210274219513,0.0,0.0,0.0,0.0,14107.0,15834.0,14113.0,12110.0,1.7250642776489258,3.136721176842227,0.1901638812090557,0.013864994713368805,0.036280058324337006,0.007138583343476057,0.0
176,5,-0.0007681837887503207,-0.004308952018618584,0.0066176592372357845,0.0012349467724561691,0.0011056403163820505,-0.013290402479469776,0.055815041065216064,0.05714797601103783,-7.081155490595847e-05,0.008655793964862823,0.02144869789481163,0.02867104485630989,0.0,0.0,0.0,0.0022325378376990557,-0.00872805342078209,-0.0,0.0,0.0,0.0,-0.017355401068925858,-0.015310874208807945,-0.0006914287805557251,14356.0,16283.0,13643.0,11445.0,0.4630744755268097,0.6039437651634216,0.4156956970691681,0.2856085002422333,0.0,0.0,0.0,0.0,15207.0,15481.0,14544.0,10275.0,1.7250642776489258,3.1341208901541635,0.19706904112354165,0.014485908614601684,0.036280058324337006,0.007138583343476057,0.0
182,5,-0.000824469665531069,-0.004217780195176601,0.006880642846226692,-0.006260331720113754,-0.01049837190657854,-0.036874230951070786,0.055815041065216064,0.05714797601103783,-7.081155490595847e-05,0.008655793964862823,0.02144869789481163,0.02867104485630989,0.0,0.0,0.0,-0.008861270733177662,9.382330608787015e-05,-0.0,0.0,0.0,0.0,-0.017355401068925858,-0.015310874208807945,-0.0006914287805557251,14356.0,16283.0,13643.0,11445.0,0.4630744755268097,0.6039437651634216,0.4156956970691681,0.2856085002422333,0.0,0.0,0.0,0.0,15207.0,15481.0,14544.0,10275.0,1.7010400295257568,3.125558930441513,0.21234859490785774,0.016459882714003348,-0.0003845564497169107,-0.02793886512517929,0.0
187,5,-0.0007952179294079542,-0.004211768042296171,0.007096828427165747,0.001006078440696001,-0.0049207876436412334,-0.040691934525966644,0.055793024599552155,0.05722292140126228,-0.00010131632734555751,-0.011415758170187473,-0.014256028458476067,-0.1251196414232254,0.0,0.0,0.0,-0.008861270733177662,9.382330608787015e-05,-0.0,0.0,0.0,0.0,-0.02089102752506733,-0.0158486720174551,-0.0014024412957951427,13417.0,17021.0,12832.0,12405.0,0.4011755883693695,0.6628249883651733,0.3648831248283386,0.33943867683410645,0.0,0.0,0.0,0.0,15207.0,15481.0,14544.0,10275.0,1.7010400295257568,3.1206256036547426,0.22237592933578876,0.018216622028192977,-0.0003845564497169107,-0.02793886512517929,0.0
192,5,-0.0007823578198440373,-0.0041831135749816895,0.007303526625037193,0.0019456427544355392,-0.005406832322478294,-0.04108060151338577,0.055793024599552155,0.05722292140126228,-0.00010131632734555751,-0.011415758170187473,-0.014256028458476067,-0.1251196414232254,0.0,0.0,0.0,-0.0015866340836510062,-0.00015830190386623144,-0.0,0.0,0.0,0.0,-0.02089102752506733,-0.0158486720174551,-0.0014024412957951427,13417.0,17021.0,12832.0,12405.0,0.4011755883693695,0.6628249883651733,0.3648831248283386,0.33943867683410645,0.0,0.0,0.0,0.0,15207.0,15481.0,14544.0,10275.0,1.6389329433441162,3.123563354040197,0.22360577246089364,0.018502280400541797,0.0006251708255149424,-0.0048199906013906,0.0
197,5,0.000473786611109972,0.00011702242773026228,0.0019048829562962055,0.0019456427544355392,-0.005406832322478294,-0.04108060151338577,0.05577877163887024,0.057152651250362396,0.00025978495250456035,0.0036095120012760162,-0.004205578006803989,0.2020711600780487,0.0,0.0,0.0,-0.0015866340836510062,-0.00015830190386623144,-0.0,0.0,0.0,0.0,-0.016183994710445404,-0.0196952186524868,0.0040411073714494705,15336.0,14457.0,15881.0,8507.0,0.5324106812477112,0.47003453969955444,0.5730182528495789,0.1496007889509201,0.0,0.0,0.0,0.0,12153.0,17189.0,12872.0,12690.0,1.6389329433441162,0.031160006704850852,-0.028533335817586394,0.12807080689363826,0.0006251708255149424,-0.0048199906013906,0.0
202,5,-0.00037538708420470357,-0.00029719655867666006,0.0016963658854365349,-0.10112258791923523,0.047543544322252274,0.00858980230987072,0.05577877163887024,0.057152651250362396,0.00025978495250456035,0.0036095120012760162,-0.004205578006803989,0.2020711600780487,0.0,0.0,0.0,0.006651951000094414,0.002429055981338024,-0.0,0.0,0.0,0.0,-0.016183994710445404,-0.0196952186524868,0.0040411073714494705,15336.0,14457.0,15881.0,8507.0,0.5324106812477112,0.47003453969955444,0.5730182528495789,0.1496007889509201,0.0,0.0,0.0,0.0,12153.0,17189.0,12872.0,12690.0,1.6879137754440308,0.037009521235994165,0.027642908979644814,0.12298681240483475,-0.009879378601908684,0.02081143483519554,0.0
207,5,-0.00030147191137075424,-0.0003110873803962022,0.0016174466582015157,-0.031579215079545975,0.020684318616986275,0.012906232848763466,0.055861666798591614,0.056877411901950836,-0.0007688263431191444,0.0015686231199651957,0.04759615287184715,-0.17375946044921875,0.0,0.0,0.0,0.006651951000094414,0.002429055981338024,-0.0,0.0,0.0,0.0,-0.019606217741966248,-0.016223156824707985,-0.00711308978497982,11395.0,17905.0,10951.0,13731.0,0.28295964002609253,0.73694908618927,0.2597544193267822,0.42137694358825684,0.0,0.0,0.0,0.0,15094.0,14960.0,14950.0,9168.0,1.6879137754440308,0.032097755089797876,0.026479157675565752,0.1228414427015258,-0.009879378601908684,0.02081143483519554,0.0
212,5,-0.00041782116750255227,-0.000378443073714152,0.001260017859749496,-0.02659359760582447,0.01635640859603882,0.04805395007133484,0.055861666798591614,0.056877411901950836,-0.0007688263431191444,0.0015686231199651957,0.04759615287184715,-0.17375946044921875,0.0,0.0,0.0,-0.021424714475870132,-0.024938393384218216,-0.0,0.0,0.0,0.0,-0.019606217741966248,-0.016223156824707985,-0.00711308978497982,11395.0,17905.0,10951.0,13731.0,0.28295964002609253,0.73694908618927,0.2597544193267822,0.42137694358825684,0.0,0.0,0.0,0.0,15094.0,14960.0,14950.0,9168.0,1.999314546585083,0.01937476173584387,0.0401348068294269,0.11951642931107705,0.12010381370782852,-0.07938607782125473,-0.0
217,5,-0.00023557318490929902,-0.00039075492531992495,0.0010800654999911785,0.011232319287955761,0.008019985631108284,0.04081585258245468,0.05574050545692444,0.0571889765560627,0.0002764423261396587,-0.006732418667525053,-0.038496628403663635,0.02514963410794735,0.0,0.0,0.0,-0.021424714475870132,-0.024938393384218216,-0.0,0.0,0.0,0.0,-0.01728670485317707,-0.01862858049571514,0.0030640417244285345,14129.0,15174.0,14413.0,9789.0,0.44770553708076477,0.5206208229064941,0.4669758379459381,0.20363077521324158,0.0,0.0,0.0,0.0,14003.0,15959.0,13752.0,10957.0,1.999314546585083,0.011861772744932933,0.035549923002193,0.11835127316218359,0.12010381370782852,-0.07938607782125473,-0.0
222,5,-0.0002858975494746119,-0.00026871770387515426,0.0010410500690340996,-0.0015459962887689471,-0.011436471715569496,0.0210082046687603,0.05574050545692444,0.0571889765560627,0.0002764423261396587,-0.006732418667525053,-0.038496628403663635,0.02514963410794735,0.0,0.0,0.0,-0.00988413579761982,0.009594392031431198,-0.0,0.0,0.0,0.0,-0.01728670485317707,-0.01862858049571514,0.0030640417244285345,14129.0,15174.0,14413.0,9789.0,0.44770553708076477,0.5206208229064941,0.4669758379459381,0.20363077521324158,0.0,0.0,0.0,0.0,14003.0,15959.0,13752.0,10957.0,1.7649399042129517,0.012523495303298337,0.03384168072056738,0.12107562811275055,-0.04080105572938919,-0.03233436495065689,-0.0
227,5,-0.00018512048700358719,-0.00023294963466469198,0.0008376260520890355,0.011474848724901676,-0.008866756223142147,0.032814156264066696,0.056077755987644196,0.057341329753398895,-2.724306978052482e-05,0.01578926295042038,-0.01834428496658802,0.07095019519329071,0.0,0.0,0.0,-0.00988413579761982,0.009594392031431198,-0.0,0.0,0.0,0.0,-0.01566135324537754,-0.01680697873234749,-4.285630348022096e-05,13958.0,15451.0,14267.0,10832.0,0.43634679913520813,0.5408676862716675,0.45700547099113464,0.2536937892436981,0.0,0.0,0.0,0.0,12800.0,16331.0,13010.0,11573.0,1.7649399042129517,0.00580598712873708,0.032110540869127215,0.12049597802332475,-0.04080105572938919,-0.03233436495065689,-0.0
232,5,-9.922926255967468e-05,-0.00020124293223489076,0.0006262998795136809,0.014896887354552746,-0.007351506035774946,0.03848480433225632,0.056077755987644196,0.057341329753398895,-2.724306978052482e-05,0.01578926295042038,-0.01834428496658802,0.07095019519329071,0.0,0.0,0.0,0.00972917303442955,0.00986387673765421,-0.0,0.0,0.0,0.0,-0.01566135324537754,-0.01680697873234749,-4.285630348022096e-05,13958.0,15451.0,14267.0,10832.0,0.43634679913520813,0.5408676862716675,0.45700547099113464,0.2536937892436981,0.0,0.0,0.0,0.0,12800.0,16331.0,13010.0,11573.0,1.7666352987289429,-9.49109883134016e-06,0.03246735219525557,0.12000808185522936,-0.04198738560080528,0.03185803070664406,-0.0
238,5,-4.0992916183313355e-05,-0.0001465531822759658,0.0005192204262129962,0.012947116047143936,-0.009503373876214027,0.028243454173207283,0.056490324437618256,0.05758361890912056,-0.0003869578358717263,0.10361433774232864,0.01091597881168127,-0.09034896641969681,0.0,0.0,0.0,0.00972917303442955,0.00986387673765421,-0.0,0.0,0.0,0.0,-0.02475488930940628,-0.025095293298363686,-0.00267995847389102,13835.0,18480.0,13989.0,12508.0,0.4281744658946991,0.7872332334518433,0.4384019076824188,0.34550490975379944,0.0,0.0,0.0,0.0,14253.0,15149.0,14668.0,10320.0,1.7666352987289429,-0.0019867700920046106,0.033314377203387896,0.12062427767802689,-0.04198738560080528,0.03185803070664406,-0.0
243,5,0.0001816441072151065,-5.773435259470716e-05,0.0003210138820577413,0.01755010336637497,-0.009647957980632782,0.014249986968934536,0.056490324437618256,0.05758361890912056,-0.0003869578358717263,0.10361433774232864,0.01091597881168127,-0.09034896641969681,0.0,0.0,0.0,0.010497615672647953,0.01123418565839529,-0.0,0.0,0.0,0.0,-0.02475488930940628,-0.025095293298363686,-0.00267995847389102,13835.0,18480.0,13989.0,12508.0,0.4281744658946991,0.7872332334518433,0.4384019076824188,0.34550490975379944,0.0,0.0,0.0,0.0,14253.0,15149.0,14668.0,10320.0,1.784412145614624,-0.002041085322807853,0.03425724803564256,0.12118518454444792,-0.04830094426870346,0.03472001478075981,-0.0
248,5,0.0002471708576194942,-4.683543011196889e-05,0.0002491636259946972,0.014883252792060375,-0.005167053546756506,0.014322026632726192,0.05782582610845566,0.057259451597929,-0.00021510085207410157,0.11774539947509766,0.028454797342419624,0.012003378942608833,0.0,0.0,0.0,0.010497615672647953,0.01123418565839529,-0.0,0.0,0.0,0.0,-0.02235632762312889,-0.013768141157925129,0.0009995518485084176,14763.0,16022.0,13769.0,11072.0,0.4912875294685364,0.5837799906730652,0.42390331625938416,0.26596900820732117,0.0,0.0,0.0,0.0,14245.0,16475.0,13249.0,11706.0,1.784412145614624,-0.002326977408090967,0.03420028771017427,0.12275192696766461,-0.04830094426870346,0.03472001478075981,-0.0
253,5,0.0002471708576194942,-4.683543011196889e-05,0.0002491636259946972,0.014883252792060375,-0.005167053546756506,0.014322026632726192,0.05782582610845566,0.057259451597929,-0.00021510085207410157,0.11774539947509766,0.028454797342419624,0.012003378942608833,0.0,0.0,0.0,0.005740535445511341,0.013277122750878334,-0.0,0.0,0.0,0.0,-0.02235632762312889,-0.013768141157925129,0.0009995518485084176,14763.0,16022.0,13769.0,11072.0,0.4912875294685364,0.5837799906730652,0.42390331625938416,0.26596900820732117,0.0,0.0,0.0,0.0,14245.0,16475.0,13249.0,11706.0,1.786319613456726,-0.002326977408090967,0.03420028771017427,0.12275192696766461,-0.05714722350239754,0.01900709792971611,-0.0
258,5,0.00030649584368802607,-2.562783811299596e-05,0.0001910749269882217,0.013072299771010876,-0.004611732438206673,0.012699454091489315,0.058498870581388474,0.05690482258796692,-0.0004312201344873756,0.032831281423568726,0.047161903232336044,0.037356287240982056,0.0,0.0,0.0,0.005740535445511341,0.013277122750878334,-0.0,0.0,0.0,0.0,-0.012514361180365086,-0.01202516257762909,-0.0011407146230340004,14424.0,15579.0,14170.0,11675.0,0.46775707602500916,0.5502987504005432,0.4504627585411072,0.2981168031692505,0.0,0.0,0.0,0.0,14450.0,15467.0,14310.0,11622.0,1.786319613456726,-0.0018924734478342948,0.03552121102606273,0.12378996503188053,-0.05714722350239754,0.01900709792971611,-0.0
263,5,-0.0011143992887809873,-0.004185112193226814,0.007580762263387442,0.013072299771010876,-0.004611732438206673,0.012699454091489315,0.058498870581388474,0.05690482258796692,-0.0004312201344873756,0.032831281423568726,0.047161903232336044,0.037356287240982056,0.0,0.0,0.0,0.005198280792683363,0.011893114075064659,-0.0,0.0,0.0,0.0,-0.012514361180365086,-0.01202516257762909,-0.0011407146230340004,14424.0,15579.0,14170.0,11675.0,0.46775707602500916,0.5502987504005432,0.4504627585411072,0.2981168031692505,0.0,0.0,0.0,0.0,14450.0,15467.0,14310.0,11622.0,1.7686231136322021,3.0611514032892484,0.262932921665415,0.02558097947715962,-0.050683509558439255,0.017041195183992386,-0.0
268,5,-0.000994667410850525,-0.004234024323523045,0.007279607467353344,0.019596749916672707,0.004024773370474577,0.041218340396881104,0.05773251876235008,0.055968139320611954,-0.0003809295012615621,-0.17187587916851044,0.09464239329099655,-0.04582423344254494,0.0,0.0,0.0,0.005198280792683363,0.011893114075064659,-0.0,0.0,0.0,0.0,-0.00994548574090004,-0.01104660239070654,0.001136553124524653,13574.0,16041.0,13620.0,12978.0,0.411210298538208,0.5852102041244507,0.41423261165618896,0.37375903129577637,0.0,0.0,0.0,0.0,13831.0,15732.0,13888.0,12802.0,1.7686231136322021,3.0905874201599524,0.2296421558915033,0.019710873369955636,-0.050683509558439255,0.017041195183992386,-0.0
273,5,-0.0007750930963084102,-0.004304101224988699,0.006752539426088333,0.03418761119246483,0.01001915242522955,0.07973551750183105,0.05773251876235008,0.055968139320611954,-0.0003809295012615621,-0.17187587916851044,0.09464239329099655,-0.04582423344254494,0.0,0.0,0.0,-0.011334573850035667,0.015395747497677803,-0.0,0.0,0.0,0.0,-0.00994548574090004,-0.01104660239070654,0.001136553124524653,13574.0,16041.0,13620.0,12978.0,0.411210298538208,0.5852102041244507,0.41423261165618896,0.37375903129577637,0.0,0.0,0.0,0.0,13831.0,15732.0,13888.0,12802.0,1.8329029083251953,3.133190343397197,0.18433106627839188,0.012438441668875783,-0.06799031794071198,-0.038506701588630676,-0.0
278,5,-0.0008608681964688003,-0.0040010917000472546,0.007202828302979469,-0.00505007803440094,-0.02808750420808792,-0.030498620122671127,0.055624037981033325,0.05530158430337906,-0.0002174157853005454,-0.3801598846912384,0.07734038680791855,0.03769795596599579,0.0,0.0,0.0,-0.011334573850035667,0.015395747497677803,-0.0,0.0,0.0,0.0,-0.005844158586114645,-0.009509827941656113,-0.0006364538567140698,13536.0,15237.0,14112.0,13210.0,0.40877795219421387,0.5251347422599792,0.4465859532356262,0.3881244659423828,0.0,0.0,0.0,0.0,14157.0,15075.0,14496.0,12594.0,1.8329029083251953,3.1093882313842394,0.21268139797800922,0.014187884724212469,-0.06799031794071198,-0.038506701588630676,-0.0
283,5,-0.0007779795560054481,-0.0039138756692409515,0.007333632558584213,0.007926602847874165,-0.021700946614146233,-0.027895966544747353,0.055624037981033325,0.05530158430337906,-0.0002174157853005454,-0.3801598846912384,0.07734038680791855,0.03769795596599579,0.0,0.0,0.0,0.024201663210988045,-0.005305422004312277,-0.0,0.0,0.0,0.0,-0.005844158586114645,-0.009509827941656113,-0.0006364538567140698,13536.0,15237.0,14112.0,13210.0,0.40877795219421387,0.5251347422599792,0.4465859532356262,0.3881244659423828,0.0,0.0,0.0,0.0,14157.0,15075.0,14496.0,12594.0,1.854598045349121,3.120712610987887,0.20198026929686227,0.014707258658863019,0.023702403530478477,0.0831814631819725,0.0
288,5,-0.0007779795560054481,-0.0039138756692409515,0.007333632558584213,0.007926602847874165,-0.021700946614146233,-0.027895966544747353,0.04990239813923836,0.05390958860516548,-0.00019880807667504996,-0.54637610912323,0.13034096360206604,-0.013895783573389053,0.0,0.0,0.0,0.024201663210988045,-0.005305422004312277,-0.0,0.0,0.0,0.0,-0.007613798137754202,-0.007201303727924824,0.001494119525887072,13536.0,15237.0,14112.0,13210.0,0.40877795219421387,0.5251347422599792,0.4465859532356262,0.3881244659423828,0.0,0.0,0.0,0.0,13816.0,14833.0,14513.0,12942.0,1.854598045349121,3.120712610987887,0.20198026929686227,0.014707258658863019,0.023702403530478477,0.0831814631819725,0.0
293,5,-0.0008306507952511311,-0.0037781752180308104,0.007486134301871061,-0.0031499082688242197,-0.024964412674307823,-0.02945859730243683,0.04990239813923836,0.05390958860516548,-0.00019880807667504996,-0.54637610912323,0.13034096360206604,-0.013895783573389053,0.0,0.0,0.0,0.017908640205860138,0.005864779930561781,-0.0,0.0,0.0,0.0,-0.007613798137754202,-0.007201303727924824,0.001494119525887072,13536.0,15237.0,14112.0,13210.0,0.40877795219421387,0.5251347422599792,0.4465859532356262,0.3881244659423828,0.0,0.0,0.0,0.0,13816.0,14833.0,14513.0,12942.0,1.7985801696777344,3.110993353558286,0.2159203050188095,0.014968119808356866,-0.025413313880562782,0.05969786271452904,0.0
298,5,-0.0008244072087109089,-0.0035937975626438856,0.007856886833906174,0.001021910342387855,-0.019119104370474815,-0.035113170742988586,0.045334771275520325,0.0526583231985569,0.000189766549738124,-0.596582293510437,0.16761355102062225,0.037325307726860046,0.0,0.0,0.0,0.017908640205860138,0.005864779930561781,-0.0,0.0,0.0,0.0,0.003955823834985495,-0.012221021577715874,-0.00017357367323711514,13211.0,15006.0,15304.0,13829.0,0.3882043659687042,0.5085218548774719,0.5300363302230835,0.42783549427986145,0.0,0.0,0.0,0.0,14473.0,14930.0,14573.0,13090.0,1.7985801696777344,3.104804340884058,0.22577412585189285,0.017451781020969292,-0.025413313880562782,0.05969786271452904,0.0
303,5,0.0004628325696103275,0.0008621118031442165,0.002178056398406625,0.001021910342387855,-0.019119104370474815,-0.035113170742988586,0.045334771275520325,0.0526583231985569,0.000189766549738124,-0.596582293510437,0.16761355102062225,0.037325307726860046,0.0,0.0,0.0,0.015830524265766144,-0.0001735085970722139,-0.0,0.0,0.0,0.0,0.003955823834985495,-0.012221021577715874,-0.00017357367323711514,13211.0,15006.0,15304.0,13829.0,0.3882043659687042,0.5085218548774719,0.5300363302230835,0.42783549427986145,0.0,0.0,0.0,0.0,14473.0,14930.0,14573.0,13090.0,1.7642303705215454,-0.06537818726048973,0.04600526231329213,0.12349825514495542,0.0007375199347734451,0.051763806492090225,0.0
308,5,0.0005217597936280072,0.0009364697034470737,0.002210114849731326,0.007480032742023468,-0.016570590436458588,-0.01789226196706295,0.035304244607686996,0.049080461263656616,0.0006099135498516262,-0.22730588912963867,0.17965064942836761,0.010655747726559639,0.0,0.0,0.0,0.015830524265766144,-0.0001735085970722139,-0.0,0.0,0.0,0.0,-0.0005617015995085239,-0.008957095444202423,0.0007792693213559687,13840.0,14631.0,14850.0,13249.0,0.42852410674095154,0.4820422828197479,0.4974156320095062,0.3905981481075287,0.0,0.0,0.0,0.0,13399.0,14834.0,15544.0,13562.0,1.7642303705215454,-0.06010673855264047,0.0505797854996638,0.11990903218599867,0.0007375199347734451,0.051763806492090225,0.0
313,5,0.0005217597936280072,0.0009364697034470737,0.002210114849731326,0.007480032742023468,-0.016570590436458588,-0.01789226196706295,0.035304244607686996,0.049080461263656616,0.0006099135498516262,-0.22730588912963867,0.17965064942836761,0.010655747726559639,0.0,0.0,0.0,0.019878584891557693,0.007036375347524881,-0.0,0.0,0.0,0.0,-0.0005617015995085239,-0.008957095444202423,0.0007792693213559687,13840.0,14631.0,14850.0,13249.0,0.42852410674095154,0.4820422828197479,0.4974156320095062,0.3905981481075287,0.0,0.0,0.0,0.0,13399.0,14834.0,15544.0,13562.0,1.8220183849334717,-0.06010673855264047,0.0505797854996638,0.11990903218599867,-0.03088618442416191,0.06712662428617477,0.0
319,5,0.00039625936187803745,0.0009278033976443112,0.0021694598253816366,-0.007943698205053806,-0.0009393994696438313,-0.0031099552288651466,0.035304244607686996,0.049080461263656616,0.0006099135498516262,-0.22730588912963867,0.17965064942836761,0.010655747726559639,0.0,0.0,0.0,0.019878584891557693,0.007036375347524881,-0.0,0.0,0.0,0.0,-0.0005617015995085239,-0.008957095444202423,0.0007792693213559687,13840.0,14631.0,14850.0,13249.0,0.42852410674095154,0.4820422828197479,0.4974156320095062,0.3905981481075287,0.0,0.0,0.0,0.0,13399.0,14834.0,15544.0,13562.0,1.8220183849334717,-0.0669691547833107,0.06328529827924519,0.12180861054889203,-0.03088618442416191,0.06712662428617477,0.0
324,5,0.0002763596421573311,0.0009089029626920819,0.0021071869414299726,-0.017565444111824036,0.0018922899616882205,0.006228765472769737,0.035304244607686996,0.049080461263656616,0.0006099135498516262,-0.22730588912963867,0.17965064942836761,0.010655747726559639,0.0,0.0,0.0,0.019878584891557693,0.007036375347524881,-0.0,0.0,0.0,0.0,-0.006565316580235958,-0.010160508565604687,7.400559115922078e-05,13842.0,15110.0,14282.0,12776.0,0.42867201566696167,0.5159773826599121,0.45807045698165894,0.3615105152130127,0.0,0.0,0.0,0.0,13739.0,14844.0,14618.0,13375.0,1.8220183849334717,-0.072133037901984,0.07119496714293923,0.12342324859001726,-0.03088618442416191,0.06712662428617477,0.0
329,5,0.00021056333207525313,0.0008638715371489525,0.0021775406785309315,-0.014921735040843487,0.006160689052194357,-0.0059509496204555035,0.035304244607686996,0.049080461263656616,0.0006099135498516262,-0.22730588912963867,0.17965064942836761,0.010655747726559639,0.0,0.0,0.0,-0.0006776857771910727,-0.014867016114294529,-0.0,0.0,0.0,0.0,-0.006565316580235958,-0.010160508565604687,7.400559115922078e-05,13842.0,15110.0,14282.0,12776.0,0.42867201566696167,0.5159773826599121,0.45807045698165894,0.3615105152130127,0.0,0.0,0.0,0.0,13739.0,14844.0,14618.0,13375.0,1.7972654104232788,-0.0694915185651122,0.07376090388133236,0.12302569474344952,0.06438308954238892,-0.00225761067122221,-0.0
334,5,0.00010921560897259042,0.0007696489337831736,0.002285450231283903,-0.01813041977584362,0.013770988211035728,-0.01532952394336462,0.03683040291070938,0.045529477298259735,0.0007105434779077768,0.3414696455001831,0.15095014870166779,-0.0407717227935791,0.0,0.0,0.0,-0.0006776857771910727,-0.014867016114294529,-0.0,0.0,0.0,0.0,-0.010194041766226292,-0.00812959112226963,-0.00036523008020594716,14096.0,15666.0,13830.0,13269.0,0.44547662138938904,0.556816816329956,0.42785313725471497,0.39187178015708923,0.0,0.0,0.0,0.0,14146.0,14992.0,14436.0,12402.0,1.7972654104232788,-0.06716694230453796,0.07706625607052976,0.12660795398316207,0.06438308954238892,-0.00225761067122221,-0.0
339,5,1.9355316908331588e-05,0.0007033009896986187,0.002165847225114703,-0.0180354043841362,0.013470145873725414,0.008220558054745197,0.03683040291070938,0.045529477298259735,0.0007105434779077768,0.3414696455001831,0.15095014870166779,-0.0407717227935791,0.0,0.0,0.0,-0.013915630988776684,-0.015173639170825481,-0.0,0.0,0.0,0.0,-0.010194041766226292,-0.00812959112226963,-0.00036523008020594716,14096.0,15666.0,13830.0,13269.0,0.44547662138938904,0.556816816329956,0.42785313725471497,0.39187178015708923,0.0,0.0,0.0,0.0,14146.0,14992.0,14436.0,12402.0,1.8442084789276123,-0.0640193056173783,0.07489047020490362,0.12811719961152127,0.06742065399885178,-0.04756593331694603,0.0
344,5,-0.0002553594240453094,0.0007626426522620022,0.0018026119796559215,-0.04017993062734604,-0.0017329349648207426,0.046876441687345505,0.0411490723490715,0.04408247023820877,0.0006578542524948716,0.35377126932144165,0.11972261965274811,0.015751201659440994,0.0,0.0,0.0,-0.013915630988776684,-0.015173639170825481,-0.0,0.0,0.0,0.0,-0.012137375771999359,-0.008979803882539272,0.00021486614423338324,14540.0,15436.0,14178.0,12678.0,0.4757065176963806,0.5397172570228577,0.4509822130203247,0.3556123971939087,0.0,0.0,0.0,0.0,14161.0,15707.0,13860.0,13117.0,1.8442084789276123,-0.044185793344622894,0.0735623648422868,0.11696760105519673,0.15211237967014313,0.010537914000451565,-0.0
349,5,-0.0003020628646481782,0.0007662021089345217,0.001733690034598112,-0.021676383912563324,-0.001120313536375761,0.027021203190088272,0.0411490723490715,0.04408247023820877,0.0006578542524948716,0.35377126932144165,0.11972261965274811,0.015751201659440994,0.0,0.0,0.0,0.0028143723029643297,-0.031254999339580536,-0.0,0.0,0.0,0.0,-0.012137375771999359,-0.008979803882539272,0.00021486614423338324,14540.0,15436.0,14178.0,12678.0,0.4757065176963806,0.5397172570228577,0.4509822130203247,0.3556123971939087,0.0,0.0,0.0,0.0,14161.0,15707.0,13860.0,13117.0,2.020066261291504,-0.04128900236358582,0.07566489149131508,0.11767900070571773,0.15211237967014313,0.010537914000451565,-0.0
354,5,-0.0003494984994176775,0.0008062918204814196,0.0017196921398863196,-0.014362829737365246,-0.0052588926628232,0.012488234788179398,0.04308600723743439,0.04339687526226044,0.0006871395162306726,0.14788377285003662,0.08357874304056168,-0.04013877362012863,0.0,0.0,0.0,0.0028143723029643297,-0.031254999339580536,-0.0,0.0,0.0,0.0,-0.016476042568683624,-0.01623293198645115,-0.0004682656144723296,13832.0,16363.0,13918.0,12162.0,0.42799612879753113,0.6102021932601929,0.43365463614463806,0.32541242241859436,0.0,0.0,0.0,0.0,14570.0,15889.0,14410.0,11322.0,2.020066261291504,-0.038721041413468375,0.07683134799943177,0.1169345349113381,0.05581723898649216,0.024003148078918457,-0.0
359,5,-0.0005091975908726454,0.0007780858431942761,0.0015226263785734773,-0.024909023195505142,0.001281165867112577,0.028643185272812843,0.04308600723743439,0.04339687526226044,0.0006871395162306726,0.14788377285003662,0.08357874304056168,-0.04013877362012863,0.0,0.0,0.0,0.007243796717375517,-0.012958051636815071,-0.0,0.0,0.0,0.0,-0.016476042568683624,-0.01623293198645115,-0.0004682656144723296,13832.0,16363.0,13918.0,12162.0,0.42799612879753113,0.6102021932601929,0.43365463614463806,0.32541242241859436,0.0,0.0,0.0,0.0,14570.0,15889.0,14410.0,11322.0,1.787723183631897,-0.03194199843522878,0.07535286202694584,0.11438963570747099,0.05581723898649216,0.024003148078918457,-0.0
365,5,-0.0004862070200033486,0.0008813177701085806,0.0014487749431282282,-0.0072047412395477295,-0.01187536958605051,0.020319441333413124,0.04336537420749664,0.04254278168082237,0.0005695983418263495,-0.09326788783073425,0.08331500738859177,0.01094652246683836,0.0,0.0,0.0,-0.00019362138118594885,-0.0212546419352293,-0.0,0.0,0.0,0.0,-0.01682484894990921,-0.016320928931236267,0.0003558084135875106,14446.0,16166.0,14495.0,11846.0,0.4692245125770569,0.5948339104652405,0.4726184606552124,0.30753159523010254,0.0,0.0,0.0,0.0,14245.0,16731.0,15691.0,12857.0,1.8793509006500244,-0.03406779257556104,0.07378066873362693,0.11465947896727968,0.09624559432268143,-0.0006744810380041599,-0.0
370,5,-0.000574526668060571,0.0008725200896151364,0.0014020864618942142,-0.013480253517627716,-0.0036944227758795023,0.013730397447943687,0.04336537420749664,0.04254278168082237,0.0005695983418263495,-0.09326788783073425,0.08331500738859177,0.01094652246683836,0.0,0.0,0.0,-0.00019362138118594885,-0.0212546419352293,-0.0,0.0,0.0,0.0,-0.01682484894990921,-0.016320928931236267,0.0003558084135875106,14446.0,16166.0,14495.0,11846.0,0.4692245125770569,0.5948339104652405,0.4726184606552124,0.30753159523010254,0.0,0.0,0.0,0.0,14245.0,16731.0,15691.0,12857.0,1.8793509006500244,-0.03532431421591315,0.07120779685970012,0.11225963855426388,0.09624559432268143,-0.0006744810380041599,-0.0
375,5,-0.0005911706830374897,0.0009664295357652009,0.0012490396620705724,-0.007389380596578121,-0.012746903114020824,0.02385777048766613,0.04156533628702164,0.04187798872590065,0.0003378086257725954,-0.30041494965553284,0.10412462055683136,-0.04605443403124809,0.0,0.0,0.0,-0.00019362138118594885,-0.0212546419352293,-0.0,0.0,0.0,0.0,-0.007546300999820232,-0.02018057368695736,-0.0010199702810496092,13688.0,16918.0,15395.0,13559.0,0.41859006881713867,0.6544530987739563,0.5367490649223328,0.41027408838272095,0.0,0.0,0.0,0.0,13318.0,15406.0,14651.0,12946.0,1.8793509006500244,-0.03177487090311652,0.07181458958453885,0.11283225038420255,0.09624559432268143,-0.0006744810380041599,-0.0
380,5,-0.0006467205821536481,0.0009864323073998094,0.00115396233741194,-0.009621743112802505,-0.00749910157173872,0.02095239795744419,0.04156533628702164,0.04187798872590065,0.0003378086257725954,-0.30041494965553284,0.10412462055683136,-0.04605443403124809,0.0,0.0,0.0,0.015971548855304718,-0.0071904901415109634,-0.0,0.0,0.0,0.0,-0.007546300999820232,-0.02018057368695736,-0.0010199702810496092,13688.0,16918.0,15395.0,13559.0,0.41859006881713867,0.6544530987739563,0.5367490649223328,0.41027408838272095,0.0,0.0,0.0,0.0,13318.0,15406.0,14651.0,12946.0,1.7894039154052734,-0.031220585487606187,0.07036929234639273,0.11227526501471455,0.03099985234439373,0.052970051765441895,-0.0
385,5,-0.0007475370657630265,0.0008906779694370925,0.0010055879829451442,-0.01594667136669159,0.008490885607898235,0.02618587203323841,0.037166234105825424,0.040391482412815094,0.0003059933369513601,-0.3704640567302704,0.14092208445072174,-0.01821953058242798,0.0,0.0,0.0,0.015971548855304718,-0.0071904901415109634,-0.0,0.0,0.0,0.0,-0.0036043997388333082,-0.013496543280780315,0.00045672623673453927,13469.0,15175.0,14804.0,12889.0,0.40449970960617065,0.5206741690635681,0.49419325590133667,0.36835598945617676,0.0,0.0,0.0,0.0,13450.0,16065.0,14760.0,13366.0,1.7894039154052734,-0.02989545333725501,0.0681071789838032,0.11238265581096674,0.03099985234439373,0.052970051765441895,-0.0
390,5,-0.0007162062101997435,0.0008752181893214583,0.0008090175688266754,-0.002618972212076187,0.005251530557870865,0.03406280651688576,0.037166234105825424,0.040391482412815094,0.0003059933369513601,-0.3704640567302704,0.14092208445072174,-0.01821953058242798,0.0,0.0,0.0,-0.008071656338870525,-0.014661053195595741,-0.0,0.0,0.0,0.0,-0.0036043997388333082,-0.013496543280780315,0.00045672623673453927,13469.0,15175.0,14804.0,12889.0,0.40449970960617065,0.5206741690635681,0.49419325590133667,0.36835598945617676,0.0,0.0,0.0,0.0,13450.0,16065.0,14760.0,13366.0,1.8103768825531006,-0.02675803240328445,0.06490051514510593,0.11439677409215177,0.06395232677459717,-0.02708517387509346,-0.0
395,5,-0.0007802442996762693,0.0008520919946022332,0.0006918390281498432,-0.008732154034078121,0.0048757572658360004,0.027686545625329018,0.034933000802993774,0.03925557807087898,6.467659841291606e-05,-0.14980119466781616,0.1585078090429306,-0.00969969667494297,0.0,0.0,0.0,-0.008071656338870525,-0.014661053195595741,-0.0,0.0,0.0,0.0,-0.007460108492523432,-0.01495450921356678,-0.0005284184589982033,13815.0,15988.0,14801.0,13036.0,0.4269122779369354,0.5811529159545898,0.4939432144165039,0.37734243273735046,0.0,0.0,0.0,0.0,14156.0,15847.0,14859.0,12773.0,1.8103768825531006,-0.02617155110595588,0.0628031216206072,0.11569231174474692,0.06395232677459717,-0.02708517387509346,-0.0
400,5,-0.0009164932416751981,0.0007348160143010318,0.0006488915532827377,-0.019842736423015594,0.01602342166006565,0.016228312626481056,0.034933000802993774,0.03925557807087898,6.467659841291606e-05,-0.14980119466781616,0.1585078090429306,-0.00969969667494297,0.0,0.0,0.0,-0.004279468208551407,-0.00888558104634285,-0.0,0.0,0.0,0.0,-0.007460108492523432,-0.01495450921356678,-0.0005284184589982033,13815.0,15988.0,14801.0,13036.0,0.4269122779369354,0.5811529159545898,0.4939432144165039,0.37734243273735046,0.0,0.0,0.0,0.0,14156.0,15847.0,14859.0,12773.0,1.7318791151046753,-0.02520734353696916,0.060346220245939025,0.11581361634964076,0.03708050400018692,-0.013737683184444904,-0.0
405,5,-0.0007420826004818082,0.0007081818184815347,0.00048718994366936386,0.01299218274652958,0.00960547011345625,0.02589551918208599,0.03459669649600983,0.03695626184344292,-0.00017371593276038766,0.07432959228754044,0.2061898559331894,-0.06370241940021515,0.0,0.0,0.0,-0.004279468208551407,-0.00888558104634285,-0.0,0.0,0.0,0.0,-0.0064291576854884624,-0.009168066084384918,-0.0011524367146193981,13387.0,15628.0,13753.0,13607.0,0.3992621600627899,0.5539557337760925,0.42282024025917053,0.41336575150489807,0.0,0.0,0.0,0.0,13558.0,15580.0,13725.0,13520.0,1.7318791151046753,-0.02620901403647355,0.05979180447295877,0.12060538369836687,-0.044593051075935364,-0.03226313367486,-0.0
410,5,-0.0007780620944686234,0.0006718695512972772,0.0004740447911899537,0.0008793314918875694,0.008199655450880527,0.011935625225305557,0.03459669649600983,0.03695626184344292,-0.00017371593276038766,0.07432959228754044,0.2061898559331894,-0.06370241940021515,0.0,0.0,0.0,-0.009818822145462036,0.010439815931022167,-0.0,0.0,0.0,0.0,-0.0064291576854884624,-0.009168066084384918,-0.0011524367146193981,13387.0,15628.0,13753.0,13607.0,0.3992621600627899,0.5539557337760925,0.42282024025917053,0.41336575150489807,0.0,0.0,0.0,0.0,13558.0,15580.0,13725.0,13520.0,1.7727655172348022,-0.02371367974802725,0.06091578933807099,0.12015273780087629,-0.044593051075935364,-0.03226313367486,-0.0
415,5,-0.0007704339805059135,0.0005773305892944336,0.0003312930930405855,0.0012671098811551929,0.014624540694057941,0.02190445549786091,0.03557612746953964,0.035380296409130096,-0.0003017753770109266,0.17637719213962555,0.18757659196853638,-0.03135239705443382,0.0,0.0,0.0,-0.009818822145462036,0.010439815931022167,-0.0,0.0,0.0,0.0,-0.01583939418196678,-0.00863608717918396,-0.0011273531708866358,14290.0,16050.0,13657.0,12572.0,0.45857250690460205,0.5859227180480957,0.41657915711402893,0.3493025600910187,0.0,0.0,0.0,0.0,14180.0,16177.0,13502.0,12700.0,1.7727655172348022,-0.02422967735102853,0.057008661922541,0.12071938755534788,-0.044593051075935364,-0.03226313367486,-0.0
420,5,-0.0008310074335895479,0.000583482498768717,0.00026777057792060077,-0.006761971861124039,0.005111587233841419,0.016384484246373177,0.03557612746953964,0.035380296409130096,-0.0003017753770109266,0.17637719213962555,0.18757659196853638,-0.03135239705443382,0.0,0.0,0.0,-0.015841465443372726,0.0001094834296964109,-0.0,0.0,0.0,0.0,-0.01583939418196678,-0.00863608717918396,-0.0011273531708866358,14290.0,16050.0,13657.0,12572.0,0.45857250690460205,0.5859227180480957,0.41657915711402893,0.3493025600910187,0.0,0.0,0.0,0.0,14180.0,16177.0,13502.0,12700.0,1.764323353767395,-0.022561005407745187,0.05823444248719756,0.12186230533102003,-0.0004653974319808185,-0.05180230736732483,-0.0
426,5,-0.0008458715747110546,0.0005520202103070915,0.00023541052360087633,-0.004488488659262657,0.0058201090432703495,0.01043699961155653,0.03782940283417702,0.03333968669176102,-0.0007880109478719532,0.18010154366493225,0.1566416472196579,-0.032549455761909485,0.0,0.0,0.0,-0.015841465443372726,0.0001094834296964109,-0.0,0.0,0.0,0.0,-0.01583939418196678,-0.00863608717918396,-0.0011273531708866358,13965.0,15776.0,13110.0,12552.0,0.4367995262145996,0.5650418996810913,0.38192588090896606,0.3481118083000183,0.0,0.0,0.0,0.0,14039.0,15718.0,13249.0,12397.0,1.764323353767395,-0.021757770552929042,0.0590717432801034,0.12272604318177542,-0.0004653974319808185,-0.05180230736732483,-0.0
431,5,-0.0008705200743861496,0.0005304032820276916,0.00022089117555879056,-0.00475321663543582,0.0049220784567296505,0.005917121656239033,0.03782940283417702,0.03333968669176102,-0.0007880109478719532,0.18010154366493225,0.1566416472196579,-0.032549455761909485,0.0,0.0,0.0,-0.005994867067784071,-0.00524827279150486,-0.0,0.0,0.0,0.0,-0.01583939418196678,-0.00863608717918396,-0.0011273531708866358,13965.0,15776.0,13110.0,12552.0,0.4367995262145996,0.5650418996810913,0.38192588090896606,0.3481118083000183,0.0,0.0,0.0,0.0,14039.0,15718.0,13249.0,12397.0,1.7029653787612915,-0.020790046883104398,0.059722524269654347,0.12240976902194911,0.02153596468269825,-0.018922965973615646,-0.0
436,5,-0.000958554504904896,0.0005742012872360647,0.00025105910026468337,-0.012465417385101318,-0.0032869356218725443,-0.001253303256817162,0.03782940283417702,0.03333968669176102,-0.0007880109478719532,0.18010154366493225,0.1566416472196579,-0.032549455761909485,0.0,0.0,0.0,-0.005994867067784071,-0.00524827279150486,-0.0,0.0,0.0,0.0,-0.01583939418196678,-0.00863608717918396,-0.0011273531708866358,13965.0,15776.0,13110.0,12552.0,0.4367995262145996,0.5650418996810913,0.38192588090896606,0.3481118083000183,0.0,0.0,0.0,0.0,14039.0,15718.0,13249.0,12397.0,1.7029653787612915,-0.023130155661344964,0.060376058511740265,0.12188329170741247,0.02153596468269825,-0.018922965973615646,-0.0
441,5,-0.0009981226176023483,0.000552667654119432,0.00020282981859054416,-0.009734333492815495,0.0012692641466856003,0.005286193452775478,0.03891987353563309,0.032315444201231,-0.0008631802047602832,0.04683654382824898,0.08411014825105667,-0.06072568893432617,0.0,0.0,0.0,0.004677471239119768,-0.012204259634017944,-0.0,0.0,0.0,0.0,-0.015471191145479679,-0.009440784342586994,-0.000302160537103191,14342.0,15759.0,12808.0,13134.0,0.462104856967926,0.563795268535614,0.36342597007751465,0.38343942165374756,0.0,0.0,0.0,0.0,14019.0,15950.0,12651.0,13400.0,1.770765781402588,-0.022450307169521896,0.059567852171734666,0.12201403288856386,0.05207255855202675,0.015352457761764526,0.0
446,5,-0.0011487696319818497,0.0005764674278907478,0.000336742727085948,-0.021971382200717926,-0.0023482695687562227,-0.0139550706371665,0.03891987353563309,0.032315444201231,-0.0008631802047602832,0.04683654382824898,0.08411014825105667,-0.06072568893432617,0.0,0.0,0.0,0.004677471239119768,-0.012204259634017944,-0.0,0.0,0.0,0.0,-0.015471191145479679,-0.009440784342586994,-0.000302160537103191,14342.0,15759.0,12808.0,13134.0,0.462104856967926,0.563795268535614,0.36342597007751465,0.38343942165374756,0.0,0.0,0.0,0.0,14019.0,15950.0,12651.0,13400.0,1.770765781402588,-0.02246784583345843,0.06190326172796936,0.11988217786028085,0.05207255855202675,0.015352457761764526,0.0
451,5,-0.01856212317943573,-0.0014743148349225521,0.008677992969751358,-0.021971382200717926,-0.0023482695687562227,-0.0139550706371665,0.03876243904232979,0.03182400017976761,-0.00120673724450171,-0.09052358567714691,-0.0015446884790435433,0.006951684132218361,0.0,0.0,0.0,0.003432121127843857,-0.019783776253461838,-0.0,0.0,0.0,0.0,-0.010652617551386356,-0.015270867384970188,-0.0013274443335831165,14356.0,15600.0,13677.0,12267.0,0.46306541562080383,0.55190110206604,0.4179190695285797,0.3314377963542938,0.0,0.0,0.0,0.0,14119.0,15749.0,13651.0,12381.0,1.8622442483901978,-3.0702287485086703,-0.05620578966142636,3.111175834518316,0.08877012878656387,0.011846941895782948,0.0
456,5,-0.012036015279591084,0.005518797785043716,0.0021988784428685904,-0.021971382200717926,-0.0023482695687562227,-0.0139550706371665,0.03876243904232979,0.03182400017976761,-0.00120673724450171,-0.09052358567714691,-0.0015446884790435433,0.006951684132218361,0.0,0.0,0.0,0.003432121127843857,-0.019783776253461838,-0.0,0.0,0.0,0.0,-0.010652617551386356,-0.015270867384970188,-0.0013274443335831165,14356.0,15600.0,13677.0,12267.0,0.46306541562080383,0.55190110206604,0.4179190695285797,0.3314377963542938,0.0,0.0,0.0,0.0,14119.0,15749.0,13651.0,12381.0,1.8622442483901978,-0.3130814052983514,-0.3301843120296152,1.5858007043429476,0.08877012878656387,0.011846941895782948,0.0
461,5,-0.00845260452479124,-0.010356944054365158,0.005568710621446371,-0.021971382200717926,-0.0023482695687562227,-0.0139550706371665,0.03729144111275673,0.0326213538646698,-0.0016017534071579576,-0.16995176672935486,-0.15635046362876892,-0.03092266619205475,0.0,0.0,0.0,0.010413091629743576,-0.03050634264945984,-0.0,0.0,0.0,0.0,-0.0070095183327794075,-0.02222086675465107,-0.0009268606663681567,12856.0,16553.0,14991.0,12806.0,0.3663111925125122,0.6251944899559021,0.5074575543403625,0.3632809519767761,0.0,0.0,0.0,0.0,13134.0,15705.0,14036.0,12038.0,2.023190498352051,0.04949695855239565,-0.1786612853557247,-1.4634754746128964,0.14869210124015808,0.03904907405376434,0.0
466,5,-0.008541119284927845,-0.010347086004912853,0.005567734129726887,-0.019410250708460808,-0.002122288104146719,-0.005464831832796335,0.03729144111275673,0.0326213538646698,-0.0016017534071579576,-0.16995176672935486,-0.15635046362876892,-0.03092266619205475,0.0,0.0,0.0,0.010413091629743576,-0.03050634264945984,-0.0,0.0,0.0,0.0,-0.0070095183327794075,-0.02222086675465107,-0.0009268606663681567,12856.0,16553.0,14991.0,12806.0,0.3663111925125122,0.6251944899559021,0.5074575543403625,0.3632809519767761,0.0,0.0,0.0,0.0,13134.0,15705.0,14036.0,12038.0,2.023190498352051,0.05250447580940702,-0.1761186789731833,-1.4632321276633915,0.14869210124015808,0.03904907405376434,0.0
471,5,-0.00859144888818264,-0.010349098592996597,0.005466596223413944,-0.013803688809275627,-0.0006074791308492422,0.009950610809028149,0.03588779643177986,0.034279197454452515,-0.0017551208147779107,-0.19098041951656342,-0.22695311903953552,-0.042615655809640884,0.0,0.0,0.0,-0.013491167686879635,-0.025346500799059868,-0.0,0.0,0.0,0.0,-0.005965095479041338,-0.025309711694717407,-0.0009650642168708146,13379.0,17055.0,15892.0,13158.0,0.39881786704063416,0.6655993461608887,0.573864221572876,0.38490909337997437,0.0,0.0,0.0,0.0,12576.0,16766.0,14843.0,12975.0,1.963451623916626,0.054649643414125336,-0.17547892486292763,-1.4624334579138016,0.1198958307504654,-0.049096930772066116,0.0
