timestamp,dt,pos_x,pos_y,pos_z,vel_x,vel_y,vel_z,roll,pitch,yaw,agv_x,agv_y,agv_z,x_ref,y_ref,z_ref,roll_ref,pitch_ref,yaw_ref,x_vel_ref,y_vel_ref,z_vel_ref,x_torque,y_torque,z_torque,w0,w1,w2,w3,u0,u1,u2,u3,m0req,m1req,m2req,m3req,thrust0,thrust1,thrust2,thrust3,thrust_ref,roll_vicon,pitch_vicon,yaw_vicon,acc_x,acc_y,acc_z
5,5,0.0,0.0,0.0,0.00010629899043124169,0.0002103969018207863,-0.0014989674091339111,0.042101021856069565,0.0028046341612935066,0.0027251234278082848,-0.00027908614720217884,0.0017646529013291001,0.00232630199752748,0.0,0.0,0.0,-0.0002010673633776605,0.00010158542863791808,-0.0,0.0,0.0,0.0,-0.018956633284687996,-0.0012029148638248444,0.0003735772625077516,1495.0,1495.0,1495.0,1495.0,0.0,0.0,0.0,0.0,0.0,0.0,0.0,0.0,1495.0,1495.0,1495.0,1495.0,1.6284600496292114,-0.016999816166004593,0.09519421733312323,-0.002010336463053854,-0.00039862122503109276,-0.0007889883709140122,0.0
29,24,0.0,0.0,0.0,-0.0006220691138878465,3.069186277571134e-05,0.00022196829377207905,0.042101021856069565,0.0028046341612935066,0.0027251234278082848,-0.00027908614720217884,0.0017646529013291001,0.00232630199752748,0.0,0.0,0.0,-0.0002010673633776605,0.00010158542863791808,-0.0,0.0,0.0,0.0,-0.018956633284687996,-0.0012029148638248444,0.0003735772625077516,1495.0,1495.0,1495.0,1495.0,0.0,0.0,0.0,0.0,0.0,0.0,0.0,0.0,1495.0,1495.0,1495.0,1495.0,1.6284600496292114,-0.016616692136266223,0.0951356215302249,-0.001968818189345198,-0.00039862122503109276,-0.0007889883709140122,0.0
34,5,0.0,0.0,0.0,0.0006700719241052866,-1.941610207722988e-05,0.0026710310485213995,0.042101021856069565,0.0028046341612935066,0.0027251234278082848,-0.00027908614720217884,0.0017646529013291001,0.00232630199752748,0.0,0.0,0.0,-0.0002010673633776605,0.00010158542863791808,-0.0,0.0,0.0,0.0,-0.018956633284687996,-0.0012029148638248444,0.0003735772625077516,1495.0,1495.0,1495.0,1495.0,0.0,0.0,0.0,0.0,0.0,0.0,0.0,0.0,1495.0,1495.0,1495.0,1495.0,1.6284600496292114,-0.016685011237063035,0.0951811684148296,-0.002009343425540781,-0.00039862122503109276,-0.0007889883709140122,0.0
39,5,0.0,0.0,0.0,0.00018573447596281767,4.664605876314454e-05,0.0028431492391973734,0.042101021856069565,0.0028046341612935066,0.0027251234278082848,-0.00027908614720217884,0.0017646529013291001,0.00232630199752748,0.0,0.0,0.0,2.406096609774977e-05,0.0006387473549693823,-0.0,0.0,0.0,0.0,-0.018850356340408325,-0.0010749484645202756,0.0002974771778099239,1495.0,1495.0,1495.0,1495.0,0.0,0.0,0.0,0.0,0.0,0.0,0.0,0.0,1495.0,1495.0,1495.0,1495.0,1.632569670677185,-0.017198542116621533,0.09503203608404169,-0.002007415158839547,-0.0025127697736024857,7.28103841538541e-05,0.0
45,5,-1.3093444977130275e-06,5.551678441406693e-06,-2.2534924937644973e-05,-8.282755152322352e-05,-0.0006475429981946945,0.003841450670734048,0.042101021856069565,0.0028046341612935066,0.0027251234278082848,-0.00027908614720217884,0.0017646529013291001,0.00232630199752748,0.0,0.0,0.0,2.406096609774977e-05,0.0006387473549693823,-0.0,0.0,0.0,0.0,-0.018850356340408325,-0.0010749484645202756,0.0002974771778099239,1495.0,1495.0,1495.0,1495.0,0.0,0.0,0.0,0.0,0.0,0.0,0.0,0.0,1495.0,1495.0,1495.0,1495.0,1.632569670677185,-0.017487506810954314,0.09499805698129017,-0.0018965597585313063,-0.0025127697736024857,7.28103841538541e-05,0.0
50,5,-1.3093444977130275e-06,5.551678441406693e-06,-2.2534924937644973e-05,-8.282755152322352e-05,-0.0006475429981946945,0.003841450670734048,0.042085304856300354,0.0027503634337335825,0.002705241786316037,-0.00030451614293269813,0.0028416940476745367,0.0034853725228458643,0.0,0.0,0.0,0.00081259646685794,-8.079192775767297e-05,-0.0,0.0,0.0,0.0,-0.019076576456427574,-0.0011974195949733257,0.00015389497275464237,1495.0,1495.0,1495.0,1495.0,0.0,0.0,0.0,0.0,0.0,0.0,0.0,0.0,1495.0,1495.0,1495.0,1495.0,1.6324762105941772,-0.017487506810954314,0.09499805698129017,-0.0018965597585313063,0.0003178092883899808,0.002458839910104871,0.0
55,5,-3.790244591073133e-06,1.1949439794989303e-05,8.423996405326761e-06,-0.00016292667714878917,-0.000394422619137913,-0.0014348473632708192,0.04210538789629936,0.0027611451223492622,0.0027014873921871185,0.001184480614028871,-0.004609348252415657,-0.0003406875766813755,0.0,0.0,0.0,0.000511236023157835,-0.00016083972877822816,-0.0,0.0,0.0,0.0,-0.018987145274877548,-0.0015234025195240974,0.0004207105084788054,1495.0,1495.0,1495.0,1495.0,0.0,0.0,0.0,0.0,0.0,0.0,0.0,0.0,1495.0,1495.0,1495.0,1495.0,1.6302770376205444,-0.01677004235019734,0.09535593161590489,-0.002091452165756344,0.0006318392115645111,0.0015448679914698005,0.0
65,10,6.068520633562002e-06,-1.7517431842861697e-06,3.22896012221463e-05,0.0010988999856635928,0.0014286123914644122,-0.0015777201624587178,0.04210538789629936,0.0027611451223492622,0.0027014873921871185,0.001184480614028871,-0.004609348252415657,-0.0003406875766813755,0.0,0.0,0.0,0.000511236023157835,-0.00016083972877822816,-0.0,0.0,0.0,0.0,-0.018987145274877548,-0.0015234025195240974,0.0004207105084788054,1495.0,1495.0,1495.0,1495.0,0.0,0.0,0.0,0.0,0.0,0.0,0.0,0.0,1495.0,1495.0,1495.0,1495.0,1.6302770376205444,-0.01685690195014017,0.094891686110028,-0.0019832033746690525,0.0006318392115645111,0.0015448679914698005,0.0
70,5,4.182166776445229e-06,1.1571938557608519e-05,3.9252914575627074e-05,0.0002131975197698921,-0.0010273968800902367,-0.0014666856732219458,0.04213371500372887,0.0027622475754469633,0.0027174355927854776,0.0008192547829821706,0.003166804788634181,0.0018620933406054974,0.0,0.0,0.0,-0.001761051476933062,0.0010485778329893947,-0.0,0.0,0.0,0.0,-0.0190535020083189,-0.0012053822865709662,0.0004975873162038624,1495.0,1495.0,1495.0,1495.0,0.0,0.0,0.0,0.0,0.0,0.0,0.0,0.0,1495.0,1495.0,1495.0,1495.0,1.644149661064148,-0.017074069653116877,0.09516301253238332,-0.002076743109181604,-0.004154255148023367,-0.0053668757900595665,0.0
75,5,-4.276091203792021e-06,3.9802030187274795e-06,3.976282459916547e-05,-0.0009297119686380029,0.000500049558468163,-0.0006478633149527013,0.04213371500372887,0.0027622475754469633,0.0027174355927854776,0.0008192547829821706,0.003166804788634181,0.0018620933406054974,0.0,0.0,0.0,-0.0006109410314820707,-0.0008900791872292757,-0.0,0.0,0.0,0.0,-0.0190535020083189,-0.0012053822865709662,0.0004975873162038624,1495.0,1495.0,1495.0,1495.0,0.0,0.0,0.0,0.0,0.0,0.0,0.0,0.0,1495.0,1495.0,1495.0,1495.0,1.6365169286727905,-0.016623352608176437,0.09531359663717337,-0.002170075735030678,0.003509949892759323,-0.0018532256362959743,0.0
80,5,1.6435800489489338e-06,-3.3183332561748102e-06,3.1155319447861984e-05,0.0003384757728781551,0.001075844164006412,0.0007737551350146532,0.04213371500372887,0.0027622475754469633,0.0027174355927854776,0.0008192547829821706,0.003166804788634181,0.0018620933406054974,0.0,0.0,0.0,-0.0006109410314820707,-0.0008900791872292757,-0.0,0.0,0.0,0.0,-0.0190535020083189,-0.0012053822865709662,0.0004975873162038624,1495.0,1495.0,1495.0,1495.0,0.0,0.0,0.0,0.0,0.0,0.0,0.0,0.0,1495.0,1495.0,1495.0,1495.0,1.6365169286727905,-0.016709633202325023,0.0955462917217119,-0.0022624993536330767,0.003509949892759323,-0.0018532256362959743,0.0
85,5,-8.43949328555027e-06,4.022785560664488e-06,1.3704304365091957e-05,-0.0010745784966275096,-0.0004505965916905552,0.002403623890131712,0.04213060438632965,0.0027320554945617914,0.0027095747645944357,-0.0036103713791817427,0.0035190104972571135,-0.0063672419637441635,0.0,0.0,0.0,-0.0006109410314820707,-0.0008900791872292757,-0.0,0.0,0.0,0.0,-0.01890714280307293,-0.0011285452637821436,0.0003041918098460883,1495.0,1495.0,1495.0,1495.0,0.0,0.0,0.0,0.0,0.0,0.0,0.0,0.0,1495.0,1495.0,1495.0,1495.0,1.6365169286727905,-0.017351330009731363,0.09506013487323489,-0.0018936417534785855,0.003509949892759323,-0.0018532256362959743,0.0
90,5,-8.106190762191545e-06,4.8094038902490865e-06,1.201326449518092e-05,-0.00038983504055067897,-0.0002746328536886722,0.0011643742909654975,0.042126353830099106,0.002702547935768962,0.0026636288966983557,0.0013789342483505607,-0.005751975812017918,-0.0023501692339777946,0.0,0.0,0.0,0.0005639440496452153,-0.0010328817879781127,-0.0,0.0,0.0,0.0,-0.019042547792196274,-0.0013113897293806076,0.000325417029671371,1495.0,1495.0,1495.0,1495.0,0.0,0.0,0.0,0.0,0.0,0.0,0.0,0.0,1495.0,1495.0,1495.0,1495.0,1.6377418041229248,-0.017273445180101044,0.09530130854985741,-0.002115426803593935,0.004076127894222736,0.0017119456315413117,-0.0
96,5,-1.9502565464790678e-06,5.371014140109764e-06,-6.602235316677252e-06,0.0005827780696563423,-0.00017724637291394174,0.0026996098458766937,0.042126353830099106,0.002702547935768962,0.0026636288966983557,0.0013789342483505607,-0.005751975812017918,-0.0023501692339777946,0.0,0.0,0.0,0.00022953237930778414,0.0005530077614821494,-0.0,0.0,0.0,0.0,-0.019042547792196274,-0.0013113897293806076,0.000325417029671371,1495.0,1495.0,1495.0,1495.0,0.0,0.0,0.0,0.0,0.0,0.0,0.0,0.0,1495.0,1495.0,1495.0,1495.0,1.6319427490234375,-0.017298347753869413,0.09521887210769354,-0.002044238163805952,-0.0021746433340013027,0.0006943164044059813,0.0
102,6,-1.9474107375572203e-06,1.0104908142238855e-05,-1.6419967323599849e-06,0.00023345270892605186,-0.0006389658083207905,0.00048461524420417845,0.042126353830099106,0.002702547935768962,0.0026636288966983557,0.0013789342483505607,-0.005751975812017918,-0.0023501692339777946,0.0,0.0,0.0,0.00022953237930778414,0.0005530077614821494,-0.0,0.0,0.0,0.0,-0.019042547792196274,-0.0013113897293806076,0.000325417029671371,1495.0,1495.0,1495.0,1495.0,0.0,0.0,0.0,0.0,0.0,0.0,0.0,0.0,1495.0,1495.0,1495.0,1495.0,1.6319427490234375,-0.017720251388629142,0.0947227843112743,-0.001901789994704387,-0.0021746433340013027,0.0006943164044059813,0.0
107,5,9.08440415514633e-06,5.0236767492606305e-06,1.8311025996808894e-05,0.0014171988004818559,0.0003541614569257945,-0.002200516639277339,0.04212522134184837,0.0027295395266264677,0.0026670258957892656,0.00180914718657732,-0.0015347873559221625,0.0020692020189017057,0.0,0.0,0.0,0.00022953237930778414,0.0005530077614821494,-0.0,0.0,0.0,0.0,-0.018866879865527153,-0.0013059385819360614,0.000457731366623193,1495.0,1495.0,1495.0,1495.0,0.0,0.0,0.0,0.0,0.0,0.0,0.0,0.0,1495.0,1495.0,1495.0,1495.0,1.6319427490234375,-0.017241393550360928,0.09531779575310455,-0.002043435822636656,-0.0021746433340013027,0.0006943164044059813,0.0
112,5,7.863351129344665e-06,-1.0174370572713087e-06,3.898359136655927e-05,0.00042035317164845765,0.000866598216816783,-0.003360914532095194,0.042116351425647736,0.0027183592319488525,0.002684001112356782,-0.004303543362766504,0.0029554355423897505,0.0014874573098495603,0.0,0.0,0.0,-0.0004275821556802839,0.0013568720314651728,-0.0,0.0,0.0,0.0,-0.019025657325983047,-0.0011070469627156854,0.0002643996267579496,1495.0,1495.0,1495.0,1495.0,0.0,0.0,0.0,0.0,0.0,0.0,0.0,0.0,1495.0,1495.0,1495.0,1495.0,1.6407185792922974,-0.017029579799472498,0.09504373617069102,-0.002035991288265514,-0.005364443641155958,-0.001300355768762529,0.0
118,5,1.8470982467988506e-05,1.226495260198135e-05,5.2506733482005075e-05,0.0014410570729523897,-0.0012472474481910467,-0.002967142965644598,0.042116351425647736,0.0027183592319488525,0.002684001112356782,-0.004303543362766504,0.0029554355423897505,0.0014874573098495603,0.0,0.0,0.0,-0.0004275821556802839,0.0013568720314651728,-0.0,0.0,0.0,0.0,-0.019025657325983047,-0.0011070469627156854,0.0002643996267579496,1495.0,1495.0,1495.0,1495.0,0.0,0.0,0.0,0.0,0.0,0.0,0.0,0.0,1495.0,1495.0,1495.0,1495.0,1.6407185792922974,-0.016246558505099477,0.09485292202560149,-0.0021496077469908208,-0.005364443641155958,-0.001300355768762529,0.0
123,5,4.788020760315703e-06,1.1154635330967722e-06,2.3269667508429848e-05,-0.0010655325604602695,0.00083903968334198,0.0023215909022837877,0.042116351425647736,0.0027183592319488525,0.002684001112356782,-0.004303543362766504,0.0029554355423897505,0.0014874573098495603,0.0,0.0,0.0,0.0015556946163997054,0.0013885725056752563,-0.0,0.0,0.0,0.0,-0.019025657325983047,-0.0011070469627156854,0.0002643996267579496,1495.0,1495.0,1495.0,1495.0,0.0,0.0,0.0,0.0,0.0,0.0,0.0,0.0,1495.0,1495.0,1495.0,1495.0,1.645451545715332,-0.01695417251324538,0.09502014391813011,-0.002117388544164625,-0.005505602806806564,0.004744797479361296,0.0
128,5,-3.4819495340343565e-06,1.5786488347657723e-06,2.1733631001552567e-05,-0.0014186094049364328,0.00028003365150652826,0.00111296062823385,0.042115237563848495,0.002705418271943927,0.002664766041561961,0.0004177157243248075,-0.0026747772935777903,-0.0008839264628477395,0.0,0.0,0.0,0.0015556946163997054,0.0013885725056752563,-0.0,0.0,0.0,0.0,-0.019025657325983047,-0.0011070469627156854,0.0002643996267579496,1495.0,1495.0,1495.0,1495.0,0.0,0.0,0.0,0.0,0.0,0.0,0.0,0.0,1495.0,1495.0,1495.0,1495.0,1.645451545715332,-0.01652989224245173,0.0955477658179809,-0.0020855512751947786,-0.005505602806806564,0.004744797479361296,0.0
133,5,-1.6834532289067283e-05,3.004431391673279e-06,2.772690640995279e-05,-0.002169753657653928,-5.9080455685034394e-05,-0.0002740086929406971,0.042115237563848495,0.002705418271943927,0.002664766041561961,0.0004177157243248075,-0.0026747772935777903,-0.0008839264628477395,0.0,0.0,0.0,-0.00034243700793012977,-0.0013505900278687477,-0.0,0.0,0.0,0.0,-0.019025657325983047,-0.0011070469627156854,0.0002643996267579496,1495.0,1495.0,1495.0,1495.0,0.0,0.0,0.0,0.0,0.0,0.0,0.0,0.0,1495.0,1495.0,1495.0,1495.0,1.6405010223388672,-0.01694874241488909,0.0952719331152277,-0.0019034380967541745,0.005338899791240692,-0.0010412756819278002,-0.0
138,5,-5.268459062790498e-06,2.219801217506756e-06,3.273105903645046e-05,0.0006530584651045501,-4.727352279587649e-05,-0.0013047424145042896,0.042113132774829865,0.0027157971635460854,0.0027075018733739853,-0.0010607868898659945,-0.0008941440610215068,-0.00031002232572063804,0.0,0.0,0.0,-0.00034243700793012977,-0.0013505900278687477,-0.0,0.0,0.0,0.0,-0.018970882520079613,-0.001270522829145193,0.00046028077485971153,1495.0,1495.0,1495.0,1495.0,0.0,0.0,0.0,0.0,0.0,0.0,0.0,0.0,1495.0,1495.0,1495.0,1495.0,1.6405010223388672,-0.016685362790706607,0.09532222984692695,-0.002068194251660268,0.005338899791240692,-0.0010412756819278002,-0.0
143,5,-5.268459062790498e-06,2.219801217506756e-06,3.273105903645046e-05,0.0006530584651045501,-4.727352279587649e-05,-0.0013047424145042896,0.042113132774829865,0.0027157971635460854,0.0027075018733739853,-0.0010607868898659945,-0.0008941440610215068,-0.00031002232572063804,0.0,0.0,0.0,6.268428114708513e-05,0.0006152562564238906,-0.0,0.0,0.0,0.0,-0.018970882520079613,-0.001270522829145193,0.00046028077485971153,1495.0,1495.0,1495.0,1495.0,0.0,0.0,0.0,0.0,0.0,0.0,0.0,0.0,1495.0,1495.0,1495.0,1495.0,1.6323351860046387,-0.016685362790706607,0.09532222984692695,-0.002068194251660268,-0.0024200105108320713,0.0001896603498607874,0.0
148,5,4.373031060822541e-06,-2.3167237941379426e-06,1.865824560809415e-05,0.0014182021841406822,0.0005254736170172691,0.001166840665973723,0.042107582092285156,0.0027052077930420637,0.002683471655473113,-0.002159915631636977,0.002206954639405012,-0.005432161968201399,0.0,0.0,0.0,6.268428114708513e-05,0.0006152562564238906,-0.0,0.0,0.0,0.0,-0.018700508400797844,-0.0010615858482196927,0.00019720234558917582,1495.0,1495.0,1495.0,1495.0,0.0,0.0,0.0,0.0,0.0,0.0,0.0,0.0,1495.0,1495.0,1495.0,1495.0,1.6323351860046387,-0.01732654566457222,0.09512479394396517,-0.002113441850270286,-0.0024200105108320713,0.0001896603498607874,0.0
153,5,2.3792661068000598e-06,1.0163313163502607e-05,1.2880493159173056e-05,-9.904553007800132e-05,-0.001233999035321176,0.0012355541111901402,0.042107582092285156,0.0027052077930420637,0.002683471655473113,-0.002159915631636977,0.002206954639405012,-0.005432161968201399,0.0,0.0,0.0,-0.000651889480650425,0.0013508833944797516,-0.0,0.0,0.0,0.0,-0.018700508400797844,-0.0010615858482196927,0.00019720234558917582,1495.0,1495.0,1495.0,1495.0,0.0,0.0,0.0,0.0,0.0,0.0,0.0,0.0,1495.0,1495.0,1495.0,1495.0,1.641202688217163,-0.017170355063046577,0.09544991411252798,-0.0021110370315024244,-0.0053423428907990456,-0.00198310031555593,-0.0
158,5,2.3792661068000598e-06,1.0163313163502607e-05,1.2880493159173056e-05,-9.904553007800132e-05,-0.001233999035321176,0.0012355541111901402,0.0420958548784256,0.002710288856178522,0.002673148876056075,0.002391490386798978,-0.002589087001979351,0.002597720827907324,0.0,0.0,0.0,-0.000651889480650425,0.0013508833944797516,-0.0,0.0,0.0,0.0,-0.018744606524705887,-0.0013020283076912165,0.0003210280556231737,1495.0,1495.0,1495.0,1495.0,0.0,0.0,0.0,0.0,0.0,0.0,0.0,0.0,1495.0,1495.0,1495.0,1495.0,1.641202688217163,-0.017170355063046577,0.09544991411252798,-0.0021110370315024244,-0.0053423428907990456,-0.00198310031555593,-0.0
163,5,-2.7153114388056565e-06,1.4274518434831407e-05,1.3579087863035966e-05,-0.00042212961125187576,-0.00113875197712332,7.997678039828315e-06,0.0420958548784256,0.002710288856178522,0.002673148876056075,0.002391490386798978,-0.002589087001979351,0.002597720827907324,0.0,0.0,0.0,0.0015421523712575436,-9.074927947949618e-05,-0.0,0.0,0.0,0.0,-0.018744606524705887,-0.0013020283076912165,0.0003210280556231737,1495.0,1495.0,1495.0,1495.0,0.0,0.0,0.0,0.0,0.0,0.0,0.0,0.0,1495.0,1495.0,1495.0,1495.0,1.6384910345077515,-0.01726885318463772,0.09494935836840965,-0.0019634838723688215,0.00035829326952807605,0.004683597944676876,-0.0
168,5,6.194880370458122e-06,7.375276709353784e-06,1.7795282474253327e-05,0.0009003711747936904,0.00037240824894979596,-0.000502744282130152,0.042120546102523804,0.0027450257912278175,0.002709411783143878,-0.003873596666380763,0.0007353011169470847,0.004153077024966478,0.0,0.0,0.0,0.0015421523712575436,-9.074927947949618e-05,-0.0,0.0,0.0,0.0,-0.018942467868328094,-0.0013515121536329389,0.0005323715740814805,1495.0,1495.0,1495.0,1495.0,0.0,0.0,0.0,0.0,0.0,0.0,0.0,0.0,1495.0,1495.0,1495.0,1495.0,1.6384910345077515,-0.016641561540498947,0.09554575617302345,-0.0021566691266621863,0.00035829326952807605,0.004683597944676876,-0.0
173,5,-7.885338163760025e-06,1.0450606168888044e-05,1.8190434275311418e-05,-0.0013294777600094676,-0.00022007619554642588,-0.00024851583293639123,0.042120546102523804,0.0027450257912278175,0.002709411783143878,-0.003873596666380763,0.0007353011169470847,0.004153077024966478,0.0,0.0,0.0,0.00029054383048787713,-0.0012728568399325013,-0.0,0.0,0.0,0.0,-0.018942467868328094,-0.0013515121536329389,0.0005323715740814805,1495.0,1495.0,1495.0,1495.0,0.0,0.0,0.0,0.0,0.0,0.0,0.0,0.0,1495.0,1495.0,1495.0,1495.0,1.6395970582962036,-0.01720772399997104,0.09495416507063573,-0.0020553505372808986,0.0050288476049900055,0.000882993103004992,0.0
178,5,-7.885338163760025e-06,1.0450606168888044e-05,1.8190434275311418e-05,-0.0013294777600094676,-0.00022007619554642588,-0.00024851583293639123,0.04210202768445015,0.002748493105173111,0.0027364667039364576,0.002503891009837389,-0.004659994971007109,0.0035776866134256124,0.0,0.0,0.0,0.00029054383048787713,-0.0012728568399325013,-0.0,0.0,0.0,0.0,-0.019021786749362946,-0.0012943929759785533,0.000501168891787529,1495.0,1495.0,1495.0,1495.0,0.0,0.0,0.0,0.0,0.0,0.0,0.0,0.0,1495.0,1495.0,1495.0,1495.0,1.6395970582962036,-0.01720772399997104,0.09495416507063573,-0.0020553505372808986,0.0050288476049900055,0.000882993103004992,0.0
183,5,-8.305099072458688e-06,1.9599151812599303e-07,2.519687586755026e-05,-0.0005821624072268605,0.0011425232514739037,-0.0009401793358847499,0.04210202768445015,0.002748493105173111,0.0027364667039364576,0.002503891009837389,-0.004659994971007109,0.0035776866134256124,0.0,0.0,0.0,0.00029054383048787713,-0.0012728568399325013,-0.0,0.0,0.0,0.0,-0.019021786749362946,-0.0012943929759785533,0.000501168891787529,1495.0,1495.0,1495.0,1495.0,0.0,0.0,0.0,0.0,0.0,0.0,0.0,0.0,1495.0,1495.0,1495.0,1495.0,1.6388459205627441,-0.016902262303342516,0.09516141642123475,-0.002108760612430231,0.0022287515457719564,-0.004283118527382612,0.0
189,5,3.140986791549949e-06,-4.803574938705424e-06,2.3277749278349802e-05,0.00033807186991907656,0.0006099511520005763,-0.00019571848679333925,0.04210202768445015,0.002748493105173111,0.0027364667039364576,0.002503891009837389,-0.004659994971007109,0.0035776866134256124,0.0,0.0,0.0,-0.001409982331097126,-0.0005643806071020663,-0.0,0.0,0.0,0.0,-0.019021786749362946,-0.0012943929759785533,0.000501168891787529,1495.0,1495.0,1495.0,1495.0,0.0,0.0,0.0,0.0,0.0,0.0,0.0,0.0,1495.0,1495.0,1495.0,1495.0,1.6388459205627441,-0.016697101097636183,0.09540899201975876,-0.0021395477593838153,0.0022287515457719564,-0.004283118527382612,0.0
194,5,6.056271104171174e-06,-7.579291832371382e-06,1.9669778339448385e-05,0.000485062861116603,0.0005770665011368692,0.0003546692314557731,0.04209260269999504,0.0027435822412371635,0.0027468435000628233,-0.000655387993901968,0.0003713975893333554,0.0009398056427016854,0.0,0.0,0.0,-0.0007283666636794806,0.0004705798055510968,-0.0,0.0,0.0,0.0,-0.018868954852223396,-0.0011500255204737186,0.0004187805752735585,1495.0,1495.0,1495.0,1495.0,0.0,0.0,0.0,0.0,0.0,0.0,0.0,0.0,1495.0,1495.0,1495.0,1495.0,1.6335636377334595,-0.017194552400711084,0.09546002170982183,-0.002166407088444983,-0.0018523418111726642,-0.0022054368164390326,-0.0
199,5,5.050507297710283e-06,4.2392827026560553e-07,8.460485332761891e-06,7.333348912652582e-05,-0.0007295598043128848,0.0014869828009977937,0.04209260269999504,0.0027435822412371635,0.0027468435000628233,-0.000655387993901968,0.0003713975893333554,0.0009398056427016854,0.0,0.0,0.0,-0.0007283666636794806,0.0004705798055510968,-0.0,0.0,0.0,0.0,-0.018868954852223396,-0.0011500255204737186,0.0004187805752735585,1495.0,1495.0,1495.0,1495.0,0.0,0.0,0.0,0.0,0.0,0.0,0.0,0.0,1495.0,1495.0,1495.0,1495.0,1.6335636377334595,-0.017647693300570276,0.09514915234421514,-0.002010893507170734,-0.0018523418111726642,-0.0022054368164390326,-0.0
204,5,9.216060789185576e-06,1.0111467645401717e-06,2.154942740162369e-05,0.0005291997804306448,-0.00036229012766852975,-0.0009758798405528069,0.042069241404533386,0.0027308461721986532,0.0027554959524422884,-0.0007840992766432464,-0.0017226113704964519,-0.0011351513676345348,0.0,0.0,0.0,-0.0007283666636794806,0.0004705798055510968,-0.0,0.0,0.0,0.0,-0.018723107874393463,-0.001212655333802104,0.00046085563371889293,1495.0,1495.0,1495.0,1495.0,0.0,0.0,0.0,0.0,0.0,0.0,0.0,0.0,1495.0,1495.0,1495.0,1495.0,1.6323972940444946,-0.016764868024915634,0.09546768966653413,-0.0020645000030150135,-0.0020352518185973167,0.0013643995625898242,0.0
209,5,4.844375780521659e-06,5.762884484283859e-06,1.0559088877926115e-05,-0.0003129222895950079,-0.0007151245372369885,0.0009284886764362454,0.042069241404533386,0.0027308461721986532,0.0027554959524422884,-0.0007840992766432464,-0.0017226113704964519,-0.0011351513676345348,0.0,0.0,0.0,0.0004509279679041356,0.0005174166872166097,-0.0,0.0,0.0,0.0,-0.018723107874393463,-0.001212655333802104,0.00046085563371889293,1495.0,1495.0,1495.0,1495.0,0.0,0.0,0.0,0.0,0.0,0.0,0.0,0.0,1495.0,1495.0,1495.0,1495.0,1.6323972940444946,-0.01735330351904945,0.09528374415980592,-0.0020301429072055763,-0.0020352518185973167,0.0013643995625898242,0.0
214,5,1.4733521311427467e-05,2.6025745683000423e-05,4.7037017793627456e-05,0.0010615285718813539,-0.0027175932191312313,-0.004005955997854471,0.04208347573876381,0.0027586896903812885,0.0027330643497407436,0.0008915185462683439,-0.002455785172060132,-0.0005314242444001138,0.0,0.0,0.0,0.0004509279679041356,0.0005174166872166097,-0.0,0.0,0.0,0.0,-0.0190363060683012,-0.0013314407551661134,0.00036874256329610944,1495.0,1495.0,1495.0,1495.0,0.0,0.0,0.0,0.0,0.0,0.0,0.0,0.0,1495.0,1495.0,1495.0,1495.0,1.6323972940444946,-0.016260502424134106,0.09390753430617721,-0.0017804866991063318,-0.004061882384121418,0.010334457270801067,0.0
219,5,-7.876171366660856e-06,7.875605660956353e-06,1.8938397261081263e-05,-0.0022885515354573727,0.0010909796692430973,0.0017694521229714155,0.04208347573876381,0.0027586896903812885,0.0027330643497407436,0.0008915185462683439,-0.002455785172060132,-0.0005314242444001138,0.0,0.0,0.0,0.0033671900164335966,0.0010180403478443623,-0.0,0.0,0.0,0.0,-0.0190363060683012,-0.0013314407551661134,0.00036874256329610944,1495.0,1495.0,1495.0,1495.0,0.0,0.0,0.0,0.0,0.0,0.0,0.0,0.0,1495.0,1495.0,1495.0,1495.0,1.6558194160461426,-0.017033610097405952,0.0951836025553289,-0.0021269199805924624,-0.004061882384121418,0.010334457270801067,0.0
224,5,-3.994632606918458e-06,7.668789294257294e-06,1.335784781986149e-05,-0.0004496360197663307,0.0004612097982317209,0.001377446693368256,0.042054541409015656,0.0027642110362648964,0.0027088001370429993,-0.0010899604531005025,0.0008093233918771148,0.0027712692972272635,0.0,0.0,0.0,0.0033671900164335966,0.0010180403478443623,-0.0,0.0,0.0,0.0,-0.018690120428800583,-0.0012147584930062294,0.0003499392478261143,1495.0,1495.0,1495.0,1495.0,0.0,0.0,0.0,0.0,0.0,0.0,0.0,0.0,1495.0,1495.0,1495.0,1495.0,1.6558194160461426,-0.01707112675626674,0.09509458072653248,-0.0022687304791909136,-0.004061882384121418,0.010334457270801067,0.0
229,5,-1.7950093251783983e-06,1.3218724234320689e-05,-5.96582268030943e-08,8.41003711684607e-05,-0.0004815082938876003,0.0021610793191939592,0.042054541409015656,0.0027642110362648964,0.0027088001370429993,-0.0010899604531005025,0.0008093233918771148,0.0027712692972272635,0.0,0.0,0.0,-0.0005575887626037002,-0.0004342570900917053,-0.0,0.0,0.0,0.0,-0.018690120428800583,-0.0012147584930062294,0.0003499392478261143,1495.0,1495.0,1495.0,1495.0,0.0,0.0,0.0,0.0,0.0,0.0,0.0,0.0,1495.0,1495.0,1495.0,1495.0,1.6322627067565918,-0.017830786803396628,0.09500540462837666,-0.001936414480428002,0.00170800369232893,-0.0016869902610778809,-0.0
234,5,-9.492529216004186e-07,9.402046089235228e-06,2.3261278329300694e-05,0.00013513091835193336,0.00026539809186942875,-0.0019340807339176536,0.04206807538866997,0.0027817534282803535,0.0027152434922754765,0.0011857178760692477,-0.002428115578368306,0.003356911474838853,0.0,0.0,0.0,-0.0005575887626037002,-0.0004342570900917053,-0.0,0.0,0.0,0.0,-0.018999455496668816,-0.0013299648417159915,0.0004119922232348472,1495.0,1495.0,1495.0,1495.0,0.0,0.0,0.0,0.0,0.0,0.0,0.0,0.0,1495.0,1495.0,1495.0,1495.0,1.6322627067565918,-0.016843607942085663,0.0948917230224338,-0.0018932095159613792,0.00170800369232893,-0.0016869902610778809,-0.0
240,5,-4.056137186125852e-06,9.975105967896525e-07,2.7558780857361853e-05,-0.00031877373112365603,0.001114703482016921,-0.0012893325183540583,0.04206807538866997,0.0027817534282803535,0.0027152434922754765,0.0011857178760692477,-0.002428115578368306,0.003356911474838853,0.0,0.0,0.0,-0.0003124184731859714,0.00012781894474755973,-0.0,0.0,0.0,0.0,-0.018999455496668816,-0.0013299648417159915,0.0004119922232348472,1495.0,1495.0,1495.0,1495.0,0.0,0.0,0.0,0.0,0.0,0.0,0.0,0.0,1495.0,1495.0,1495.0,1495.0,1.628645420074463,-0.017192127401109175,0.09515212871598502,-0.0019014565210240095,-0.0005016186041757464,-0.0009431304642930627,0.0
245,5,8.12365286151362e-08,3.633467031249893e-06,4.030443960800767e-05,0.0003689753357321024,0.00012956661521457136,-0.002045211847871542,0.04206068441271782,0.0028121573850512505,0.0027349169831722975,-0.0033368412405252457,-0.0001455680321669206,0.0010059344349429011,0.0,0.0,0.0,-0.0003124184731859714,0.00012781894474755973,-0.0,0.0,0.0,0.0,-0.018782533705234528,-0.0013541987864300609,0.0005062188138253987,1495.0,1495.0,1495.0,1495.0,0.0,0.0,0.0,0.0,0.0,0.0,0.0,0.0,1495.0,1495.0,1495.0,1495.0,1.628645420074463,-0.017021708875923476,0.09471938860499653,-0.001791344099877245,-0.0005016186041757464,-0.0009431304642930627,0.0
250,5,-7.603897302033147e-06,-1.2096436421416001e-06,2.4991790269268677e-05,-0.0007746259216219187,0.0006329999305307865,0.001019432907924056,0.04206068441271782,0.0028121573850512505,0.0027349169831722975,-0.0033368412405252457,-0.0001455680321669206,0.0010059344349429011,0.0,0.0,0.0,-0.00015409168554469943,0.00035248248605057597,-0.0,0.0,0.0,0.0,-0.018782533705234528,-0.0013541987864300609,0.0005062188138253987,1495.0,1495.0,1495.0,1495.0,0.0,0.0,0.0,0.0,0.0,0.0,0.0,0.0,1495.0,1495.0,1495.0,1495.0,1.62971031665802,-0.01669313349086664,0.09524192194075114,-0.001947358645412464,-0.001384203089401126,-0.00046547691454179585,0.0
255,5,1.8970483779412461e-06,3.3209701086889254e-06,3.0195746148820035e-05,0.0008302630740217865,-0.0002904736902564764,-0.00021670148998964578,0.04204881191253662,0.002799341920763254,0.0027289162389934063,-0.0038314349949359894,-0.0011964994482696056,-0.00044940848601982,0.0,0.0,0.0,-0.00015409168554469943,0.00035248248605057597,-0.0,0.0,0.0,0.0,-0.019025545567274094,-0.0011497869854792953,0.0005948079051449895,1495.0,1495.0,1495.0,1495.0,0.0,0.0,0.0,0.0,0.0,0.0,0.0,0.0,1495.0,1495.0,1495.0,1495.0,1.62971031665802,-0.016528058975716853,0.09551395496478393,-0.002196895855488284,-0.001384203089401126,-0.00046547691454179585,0.0
260,5,8.953628821473103e-06,-1.3704778893952607e-06,2.519284862501081e-05,0.001178894890472293,0.0004467843100428581,0.0005136672407388687,0.04204881191253662,0.002799341920763254,0.0027289162389934063,-0.0038314349949359894,-0.0011964994482696056,-0.00044940848601982,0.0,0.0,0.0,0.00036565292975865304,0.0007930735591799021,-0.0,0.0,0.0,0.0,-0.019025545567274094,-0.0011497869854792953,0.0005948079051449895,1495.0,1495.0,1495.0,1495.0,0.0,0.0,0.0,0.0,0.0,0.0,0.0,0.0,1495.0,1495.0,1495.0,1495.0,1.634742259979248,-0.01710591217904452,0.09527419413136763,-0.0021221680429473295,-0.0031240256503224373,0.0011079671094194055,0.0
265,5,8.561752110836096e-06,2.14050459135251e-07,2.239269088022411e-05,0.00042453280184417963,-1.1429688129283022e-05,0.0005414857878349721,0.04207305982708931,0.002768750535324216,0.0027535997796803713,-0.0028958504553884268,0.004863772541284561,-0.0007655863300897181,0.0,0.0,0.0,0.00036565292975865304,0.0007930735591799021,-0.0,0.0,0.0,0.0,-0.01906178705394268,-0.0015080244047567248,0.0005315789021551609,1495.0,1495.0,1495.0,1495.0,0.0,0.0,0.0,0.0,0.0,0.0,0.0,0.0,1495.0,1495.0,1495.0,1495.0,1.634742259979248,-0.016813213570399683,0.09542638644253099,-0.002171289356433912,-0.0031240256503224373,0.0011079671094194055,0.0
270,5,1.0759123142634053e-05,1.020898616843624e-05,1.659974077483639e-05,0.0004334975965321064,-0.0012039641151204705,0.000911748327780515,0.04207305982708931,0.002768750535324216,0.0027535997796803713,-0.0028958504553884268,0.004863772541284561,-0.0007655863300897181,0.0,0.0,0.0,1.4715245924890041e-05,0.00041729764780029655,-0.0,0.0,0.0,0.0,-0.01906178705394268,-0.0015080244047567248,0.0005315789021551609,1495.0,1495.0,1495.0,1495.0,0.0,0.0,0.0,0.0,0.0,0.0,0.0,0.0,1495.0,1495.0,1495.0,1495.0,1.630197525024414,-0.01718338863886176,0.09528776912044375,-0.0019990412157022035,-0.0016392230754718184,4.446479579200968e-05,-0.0
275,5,7.990722224349156e-06,1.1981099305558018e-05,2.456178845022805e-05,-0.00015880905266385525,-0.000694239279255271,-0.0005907464073970914,0.04206986352801323,0.0027886454481631517,0.0027456344105303288,0.0027123375330120325,-0.0033751819282770157,0.0016150587471202016,0.0,0.0,0.0,1.4715245924890041e-05,0.00041729764780029655,-0.0,0.0,0.0,0.0,-0.018873030319809914,-0.0013356013223528862,0.000301271298667416,1495.0,1495.0,1495.0,1495.0,0.0,0.0,0.0,0.0,0.0,0.0,0.0,0.0,1495.0,1495.0,1495.0,1495.0,1.630197525024414,-0.01748858172007468,0.09500470934730211,-0.0017864209488035704,-0.0016392230754718184,4.446479579200968e-05,-0.0
280,5,-2.837647627984552e-07,1.1562753570615314e-05,2.2137814084999263e-05,-0.0010564620606601238,-0.00022749416530132294,5.4578264098381624e-05,0.04206986352801323,0.0027886454481631517,0.0027456344105303288,0.0027123375330120325,-0.0033751819282770157,0.0016150587471202016,0.0,0.0,0.0,0.0008819399517960846,-0.00014012223982717842,-0.0,0.0,0.0,0.0,-0.018873030319809914,-0.0013356013223528862,0.000301271298667416,1495.0,1495.0,1495.0,1495.0,0.0,0.0,0.0,0.0,0.0,0.0,0.0,0.0,1495.0,1495.0,1495.0,1495.0,1.6331459283828735,-0.017108864898488542,0.09535276719706631,-0.002071107102654424,0.0005514216027222574,0.002669761423021555,0.0
285,5,-4.2497249523876235e-06,-2.1348353129724273e-06,3.708608710439876e-05,-0.0008985000313259661,0.001552712987177074,-0.0017719613388180733,0.04207221046090126,0.0028026967775076628,0.0027297954075038433,-0.0017323312349617481,-0.004735874943435192,0.000807755219284445,0.0,0.0,0.0,0.0008819399517960846,-0.00014012223982717842,-0.0,0.0,0.0,0.0,-0.018986599519848824,-0.0013988539576530457,0.0004258446570020169,1495.0,1495.0,1495.0,1495.0,0.0,0.0,0.0,0.0,0.0,0.0,0.0,0.0,1495.0,1495.0,1495.0,1495.0,1.6331459283828735,-0.01671966664565516,0.09515847117843712,-0.002020967672963112,0.0005514216027222574,0.002669761423021555,0.0
290,5,5.335006676432386e-07,-1.8832682826541713e-06,2.3422997401212342e-05,0.0002145870530512184,0.0005908971070311964,0.0009307861328125,0.04207221046090126,0.0028026967775076628,0.0027297954075038433,-0.0017323312349617481,-0.004735874943435192,0.000807755219284445,0.0,0.0,0.0,-0.0019144359976053238,-0.0008563818992115557,-0.0,0.0,0.0,0.0,-0.018986599519848824,-0.0013988539576530457,0.0004258446570020169,1495.0,1495.0,1495.0,1495.0,0.0,0.0,0.0,0.0,0.0,0.0,0.0,0.0,1495.0,1495.0,1495.0,1495.0,1.6440465450286865,-0.01664996107883575,0.09558884334591759,-0.0020515387251401856,0.0033925999887287617,-0.0058339545503258705,0.0
295,5,-4.837029791815439e-06,-8.694451025803573e-08,3.981700501753949e-06,-0.000558628817088902,2.08000055863522e-05,0.002705270191654563,0.04204713553190231,0.0028239304665476084,0.002743913559243083,-0.0022611203603446484,-0.005678029730916023,6.503242275357479e-06,0.0,0.0,0.0,-0.0019144359976053238,-0.0008563818992115557,-0.0,0.0,0.0,0.0,-0.018765764310956,-0.0013944744132459164,0.0004137236101087183,1495.0,1495.0,1495.0,1495.0,0.0,0.0,0.0,0.0,0.0,0.0,0.0,0.0,1495.0,1495.0,1495.0,1495.0,1.6440465450286865,-0.017070931327589106,0.09521345980276755,-0.00203107993975418,0.0033925999887287617,-0.0058339545503258705,0.0
301,5,-5.305456397763919e-06,-1.2317329947109101e-06,1.3059977845841786e-06,-0.0002796627231873572,0.0001456946338294074,0.0014031922910362482,0.04204713553190231,0.0028239304665476084,0.002743913559243083,-0.0022611203603446484,-0.005678029730916023,6.503242275357479e-06,0.0,0.0,0.0,-2.579860301921144e-05,-0.0005395939806476235,-0.0,0.0,0.0,0.0,-0.018765764310956,-0.0013944744132459164,0.0004137236101087183,1495.0,1495.0,1495.0,1495.0,0.0,0.0,0.0,0.0,0.0,0.0,0.0,0.0,1495.0,1495.0,1495.0,1495.0,1.631508469581604,-0.016918639744222475,0.09531509966361863,-0.002102147039341716,0.002121330238878727,-7.801786705385894e-05,-0.0
306,5,-1.4742340681550559e-06,-3.0403384698729496e-06,2.4663162548677064e-05,0.0003478816070128232,0.00027531050727702677,-0.002241582842543721,0.04204713553190231,0.0028239304665476084,0.002743913559243083,-0.0022611203603446484,-0.005678029730916023,6.503242275357479e-06,0.0,0.0,0.0,-2.579860301921144e-05,-0.0005395939806476235,-0.0,0.0,0.0,0.0,-0.018765764310956,-0.0013944744132459164,0.0004137236101087183,1495.0,1495.0,1495.0,1495.0,0.0,0.0,0.0,0.0,0.0,0.0,0.0,0.0,1495.0,1495.0,1495.0,1495.0,1.631508469581604,-0.017099277551847123,0.09519648411886242,-0.0019613813503366793,0.002121330238878727,-7.801786705385894e-05,-0.0
311,5,2.560960183473071e-06,3.7419324598886305e-06,2.625927845656406e-05,0.0006233759340830147,-0.0007037483155727386,-0.0010881670750677586,0.042043495923280716,0.0027952364180237055,0.002769151935353875,-0.00010696658864617348,0.0024363151751458645,0.005541963968425989,0.0,0.0,0.0,-0.00034703785786405206,0.00033005414297804236,-0.0,0.0,0.0,0.0,-0.01888073794543743,-0.001083633047528565,0.00050444679800421,1495.0,1495.0,1495.0,1495.0,0.0,0.0,0.0,0.0,0.0,0.0,0.0,0.0,1495.0,1495.0,1495.0,1495.0,1.6302728652954102,-0.017001950981298457,0.09543800044084408,-0.002037716554573569,-0.0012965741334483027,-0.001048686564899981,0.0
316,5,1.8483859776097233e-06,1.5325871572713368e-05,2.8640892196563073e-05,0.00016384148329962045,-0.001671571983024478,-0.0007210604380816221,0.042043495923280716,0.0027952364180237055,0.002769151935353875,-0.00010696658864617348,0.0024363151751458645,0.005541963968425989,0.0,0.0,0.0,-0.00034703785786405206,0.00033005414297804236,-0.0,0.0,0.0,0.0,-0.01888073794543743,-0.001083633047528565,0.00050444679800421,1495.0,1495.0,1495.0,1495.0,0.0,0.0,0.0,0.0,0.0,0.0,0.0,0.0,1495.0,1495.0,1495.0,1495.0,1.6302728652954102,-0.017504067540712372,0.09478034439738774,-0.0018911543880405378,-0.0012965741334483027,-0.001048686564899981,0.0
321,5,1.0111505616805516e-05,1.5974837879184633e-05,3.571050183381885e-05,0.0010571109596639872,-0.000746504869312048,-0.001136777107603848,0.04201063513755798,0.0027696320321410894,0.0027409950271248817,-0.0026643481105566025,0.002826949115842581,-0.0030248661059886217,0.0,0.0,0.0,-0.00034703785786405206,0.00033005414297804236,-0.0,0.0,0.0,0.0,-0.018598316237330437,-0.001087706652469933,0.0001474540331400931,1495.0,1495.0,1495.0,1495.0,0.0,0.0,0.0,0.0,0.0,0.0,0.0,0.0,1495.0,1495.0,1495.0,1495.0,1.6302728652954102,-0.01708481345568623,0.09477272693208846,-0.0018896289195407727,-0.0012965741334483027,-0.001048686564899981,0.0
326,5,1.0111505616805516e-05,1.5974837879184633e-05,3.571050183381885e-05,0.0010571109596639872,-0.000746504869312048,-0.001136777107603848,0.04201063513755798,0.0027696320321410894,0.0027409950271248817,-0.0026643481105566025,0.002826949115842581,-0.0030248661059886217,0.0,0.0,0.0,0.0009504462941549718,0.0010177541989833117,-0.0,0.0,0.0,0.0,-0.018598316237330437,-0.001087706652469933,0.0001474540331400931,1495.0,1495.0,1495.0,1495.0,0.0,0.0,0.0,0.0,0.0,0.0,0.0,0.0,1495.0,1495.0,1495.0,1495.0,1.6391743421554565,-0.01708481345568623,0.09477272693208846,-0.0018896289195407727,-0.0040199412032961845,0.0028877605218440294,0.0
331,5,8.962590072769672e-06,-5.901803888264112e-06,1.840937875385862e-05,0.0002786907716654241,0.0012826805468648672,0.0014014227781444788,0.04202758148312569,0.002788861747831106,0.002746006939560175,0.0007175722275860608,-0.00037233991315588355,0.0015671588480472565,0.0,0.0,0.0,0.0009504462941549718,0.0010177541989833117,-0.0,0.0,0.0,0.0,-0.01910925842821598,-0.0013821693137288094,0.000451021856861189,1495.0,1495.0,1495.0,1495.0,0.0,0.0,0.0,0.0,0.0,0.0,0.0,0.0,1495.0,1495.0,1495.0,1495.0,1.6391743421554565,-0.016930585934391746,0.09526747141883532,-0.0022138702687866923,-0.0040199412032961845,0.0028877605218440294,0.0
336,5,7.910771273600403e-06,4.66346500616055e-06,2.4232569558080286e-05,-1.474203327234136e-05,-0.0007547600544057786,-0.0001382137998007238,0.04202758148312569,0.002788861747831106,0.002746006939560175,0.0007175722275860608,-0.00037233991315588355,0.0015671588480472565,0.0,0.0,0.0,-0.001593614462763071,0.00027711468283087015,-0.0,0.0,0.0,0.0,-0.01910925842821598,-0.0013821693137288094,0.000451021856861189,1495.0,1495.0,1495.0,1495.0,0.0,0.0,0.0,0.0,0.0,0.0,0.0,0.0,1495.0,1495.0,1495.0,1495.0,1.639214277267456,-0.01685518550874197,0.09522462241698833,-0.0020846825682806092,-0.0010945778340101242,-0.004842027090489864,-0.0
341,5,-3.701344894579961e-06,3.591022732507554e-06,1.449418778065592e-05,-0.0013993507018312812,-0.00017321095219813287,0.0011133203515782952,0.04201865196228027,0.0028095494490116835,0.002742385258898139,-0.0028090071864426136,-0.007589278277009726,-0.00021492544328793883,0.0,0.0,0.0,-0.001593614462763071,0.00027711468283087015,-0.0,0.0,0.0,0.0,-0.018805254250764847,-0.0015602209605276585,0.00031887792283669114,1495.0,1495.0,1495.0,1495.0,0.0,0.0,0.0,0.0,0.0,0.0,0.0,0.0,1495.0,1495.0,1495.0,1495.0,1.639214277267456,-0.017078040452544924,0.09520197719952062,-0.00191717899072605,-0.0010945778340101242,-0.004842027090489864,-0.0
346,5,-5.398204848461319e-06,3.551882628016756e-07,1.1384889148757793e-05,-0.0007633634959347546,0.00031901575857773423,0.0008184440084733069,0.04201865196228027,0.0028095494490116835,0.002742385258898139,-0.0028090071864426136,-0.007589278277009726,-0.00021492544328793883,0.0,0.0,0.0,0.00022031590924598277,-0.0013328737113624811,-0.0,0.0,0.0,0.0,-0.018805254250764847,-0.0015602209605276585,0.00031887792283669114,1495.0,1495.0,1495.0,1495.0,0.0,0.0,0.0,0.0,0.0,0.0,0.0,0.0,1495.0,1495.0,1495.0,1495.0,1.6401506662368774,-0.016856568575760938,0.09522205713159504,-0.0020734701309024356,0.0052677420899271965,0.0006697892094962299,-0.0
351,5,-9.23344305192586e-06,5.500488896359457e-06,1.1606998668867163e-05,-0.0007655739900656044,-0.0004898298066109419,0.00030072437948547304,0.042017724364995956,0.0028228466399013996,0.002728327875956893,0.0008490986656397581,-0.0025616122875362635,-0.004110912326723337,0.0,0.0,0.0,0.0006068996153771877,-0.0007340696174651384,-0.0,0.0,0.0,0.0,-0.018818926066160202,-0.0013647036394104362,0.00019739108392968774,1495.0,1495.0,1495.0,1495.0,0.0,0.0,0.0,0.0,0.0,0.0,0.0,0.0,1495.0,1495.0,1495.0,1495.0,1.6350481510162354,-0.016956542614443876,0.09493436721120452,-0.0019893939964041878,0.002892141928896308,0.0018393141217529774,-0.0
356,5,1.0075032150780316e-06,5.862889338459354e-06,1.0472251233295538e-05,0.0009226839756593108,-0.00023941996914800256,0.00025645943242125213,0.042017724364995956,0.0028228466399013996,0.002728327875956893,0.0008490986656397581,-0.0025616122875362635,-0.004110912326723337,0.0,0.0,0.0,0.0006068996153771877,-0.0007340696174651384,-0.0,0.0,0.0,0.0,-0.018818926066160202,-0.0013647036394104362,0.00019739108392968774,1495.0,1495.0,1495.0,1495.0,0.0,0.0,0.0,0.0,0.0,0.0,0.0,0.0,1495.0,1495.0,1495.0,1495.0,1.6350481510162354,-0.016868877747570253,0.09550454937596368,-0.0020863387199955663,0.002892141928896308,0.0018393141217529774,-0.0
361,5,-5.223584594205022e-06,4.781984898727387e-06,1.1246794201724697e-05,-0.00037865692866034806,3.3940563298529014e-05,9.638651135901455e-06,0.04202021658420563,0.002781260060146451,0.0027123447507619858,0.0008144568419083953,0.004936085548251867,-0.001292482134886086,0.0,0.0,0.0,0.0006068996153771877,-0.0007340696174651384,-0.0,0.0,0.0,0.0,-0.01897481456398964,-0.0010091527365148067,0.00030232255812734365,1495.0,1495.0,1495.0,1495.0,0.0,0.0,0.0,0.0,0.0,0.0,0.0,0.0,1495.0,1495.0,1495.0,1495.0,1.6350481510162354,-0.017020319358845584,0.09506338996767441,-0.0020093212219790364,0.002892141928896308,0.0018393141217529774,-0.0
366,5,-1.4876153500154032e-06,8.046520179050276e-07,1.9820201487164013e-05,0.00029685351182706654,0.0004908561822958291,-0.0010249534389004111,0.04202021658420563,0.002781260060146451,0.0027123447507619858,0.0008144568419083953,0.004936085548251867,-0.001292482134886086,0.0,0.0,0.0,-3.325701254652813e-05,-0.000368873355910182,-0.0,0.0,0.0,0.0,-0.01897481456398964,-0.0010091527365148067,0.00030232255812734365,1495.0,1495.0,1495.0,1495.0,0.0,0.0,0.0,0.0,0.0,0.0,0.0,0.0,1495.0,1495.0,1495.0,1495.0,1.6296875476837158,-0.017092561626736887,0.09511553848474794,-0.002097391690656798,0.0014485501451417804,-0.00010046068200608715,-0.0
371,5,7.550525879196357e-06,4.373654519440606e-06,3.9007460145512596e-05,0.0012033183593302965,-0.00023193783999886364,-0.00271245208568871,0.04202890023589134,0.0027649805415421724,0.00270622200332582,0.0012005610624328256,-0.005861470475792885,5.645216879202053e-05,0.0,0.0,0.0,-3.325701254652813e-05,-0.000368873355910182,-0.0,0.0,0.0,0.0,-0.018908850848674774,-0.0013641717378050089,0.00037803594022989273,1495.0,1495.0,1495.0,1495.0,0.0,0.0,0.0,0.0,0.0,0.0,0.0,0.0,1495.0,1495.0,1495.0,1495.0,1.6296875476837158,-0.01660562667630724,0.09458343554179553,-0.0018449503435510881,0.0014485501451417804,-0.00010046068200608715,-0.0
376,5,2.0716092876682524e-06,4.068330781592522e-06,2.244204188173171e-05,-0.00017614263924770057,-5.6136261264327914e-05,0.0009028690401464701,0.04202890023589134,0.0027649805415421724,0.00270622200332582,0.0012005610624328256,-0.005861470475792885,5.645216879202053e-05,0.0,0.0,0.0,0.0002945078012999147,0.0011535892263054848,-0.0,0.0,0.0,0.0,-0.018908850848674774,-0.0013641717378050089,0.00037803594022989273,1495.0,1495.0,1495.0,1495.0,0.0,0.0,0.0,0.0,0.0,0.0,0.0,0.0,1495.0,1495.0,1495.0,1495.0,1.6383380889892578,-0.017471616195221414,0.09513015183184963,-0.002090257450125165,-0.004554141312837601,0.0008943527936935425,0.0
381,5,-8.559821935705259e-07,8.137298209476285e-06,2.793972089421004e-05,-0.0004217680252622813,-0.0005107306060381234,-0.0002985736937262118,0.04203459993004799,0.002788268029689789,0.0027123866602778435,0.0015673884190618992,0.0008742417558096349,-0.00023072754265740514,0.0,0.0,0.0,0.0002945078012999147,0.0011535892263054848,-0.0,0.0,0.0,0.0,-0.01892920583486557,-0.001554566086269915,0.0005654298001900315,1495.0,1495.0,1495.0,1495.0,0.0,0.0,0.0,0.0,0.0,0.0,0.0,0.0,1495.0,1495.0,1495.0,1495.0,1.6383380889892578,-0.017786331281650178,0.09496440398239506,-0.0019045558575445695,-0.004554141312837601,0.0008943527936935425,0.0
387,5,6.8453155108727515e-06,-2.1346020275814226e-06,2.6134262952837162e-05,0.0007554485346190631,0.001028335769660771,9.72254274529405e-05,0.04203459993004799,0.002788268029689789,0.0027123866602778435,0.0015673884190618992,0.0008742417558096349,-0.00023072754265740514,0.0,0.0,0.0,0.0006478773429989815,-0.00040320027619600296,-0.0,0.0,0.0,0.0,-0.01892920583486557,-0.001554566086269915,0.0005654298001900315,1495.0,1495.0,1495.0,1495.0,0.0,0.0,0.0,0.0,0.0,0.0,0.0,0.0,1495.0,1495.0,1495.0,1495.0,1.6325916051864624,-0.01736945474799001,0.0952070495234659,-0.0019920011384188083,0.0015861715655773878,0.0019605541601777077,0.0
392,5,5.848651198903099e-06,1.0641411790857092e-05,2.5433679184061475e-05,0.00018257967894896865,-0.00112178735435009,0.00012296027853153646,0.04203459993004799,0.002788268029689789,0.0027123866602778435,0.0015673884190618992,0.0008742417558096349,-0.00023072754265740514,0.0,0.0,0.0,0.0006478773429989815,-0.00040320027619600296,-0.0,0.0,0.0,0.0,-0.01892920583486557,-0.001554566086269915,0.0005654298001900315,1495.0,1495.0,1495.0,1495.0,0.0,0.0,0.0,0.0,0.0,0.0,0.0,0.0,1495.0,1495.0,1495.0,1495.0,1.6325916051864624,-0.017858680355386642,0.09488105191163511,-0.001901688274996422,0.0015861715655773878,0.0019605541601777077,0.0
397,5,8.749892003834248e-06,5.572804639086826e-06,4.6590721467509866e-05,0.00042118082637898624,0.00015951793466228992,-0.002489660866558552,0.0420408733189106,0.002846437506377697,0.0027498051058501005,0.002932633738964796,-0.005978955887258053,0.003194724442437291,0.0,0.0,0.0,0.0014054580824449658,0.000181722134584561,-0.0,0.0,0.0,0.0,-0.018936309963464737,-0.0009043485624715686,0.000311745039653033,1495.0,1495.0,1495.0,1495.0,0.0,0.0,0.0,0.0,0.0,0.0,0.0,0.0,1495.0,1495.0,1495.0,1495.0,1.637483835220337,-0.016700686871009625,0.09561484107470797,-0.002228023908787173,-0.0007170283352024853,0.004265826661139727,-0.0
402,5,-4.943122348777251e-06,-9.289045124205586e-07,1.5645582607248798e-05,-0.0014746894594281912,0.0008440122473984957,0.0027175522409379482,0.0420408733189106,0.002846437506377697,0.0027498051058501005,0.002932633738964796,-0.005978955887258053,0.003194724442437291,0.0,0.0,0.0,0.0014054580824449658,0.000181722134584561,-0.0,0.0,0.0,0.0,-0.018936309963464737,-0.0009043485624715686,0.000311745039653033,1495.0,1495.0,1495.0,1495.0,0.0,0.0,0.0,0.0,0.0,0.0,0.0,0.0,1495.0,1495.0,1495.0,1495.0,1.637483835220337,-0.016823227014542454,0.09533679972826538,-0.002233297360876014,-0.0007170283352024853,0.004265826661139727,-0.0
407,5,-1.0208682397205848e-05,5.135482297191629e-06,5.307179890223779e-06,-0.0012217429466545582,-0.00039012153865769506,0.002327629132196307,0.042037706822156906,0.0027831518091261387,0.002728621009737253,0.0036380980163812637,0.005560011137276888,-0.00027954045799560845,0.0,0.0,0.0,-0.001040706061758101,-0.001403570408001542,-0.0,0.0,0.0,0.0,-0.018884282559156418,-0.0011814049212262034,0.000526538526173681,1495.0,1495.0,1495.0,1495.0,0.0,0.0,0.0,0.0,0.0,0.0,0.0,0.0,1495.0,1495.0,1495.0,1495.0,1.6430951356887817,-0.01698391314095344,0.09528612081108512,-0.0021034169288621095,0.005557103082537651,-0.003169561503455043,-0.0
412,5,-9.865213542070705e-06,8.282129783765413e-06,4.793621428689221e-06,-0.00044748096843250096,-0.0005336463218554854,0.0009926786879077554,0.042037706822156906,0.0027831518091261387,0.002728621009737253,0.0036380980163812637,0.005560011137276888,-0.00027954045799560845,0.0,0.0,0.0,-0.001040706061758101,-0.001403570408001542,-0.0,0.0,0.0,0.0,-0.018884282559156418,-0.0011814049212262034,0.000526538526173681,1495.0,1495.0,1495.0,1495.0,0.0,0.0,0.0,0.0,0.0,0.0,0.0,0.0,1495.0,1495.0,1495.0,1495.0,1.6430951356887817,-0.017163989377129953,0.09521078347041895,-0.002101061896744779,0.005557103082537651,-0.003169561503455043,-0.0
417,5,-5.506027719093254e-06,7.02544093655888e-06,1.1938464012928307e-05,0.0003441099252086133,-6.265582487685606e-05,-0.0004603096458595246,0.04205071181058884,0.0027795922942459583,0.002768381964415312,-0.0025414142291992903,-0.0005273696733638644,0.003122797468677163,0.0,0.0,0.0,0.0006763789569959044,-0.00044019747292622924,-0.0,0.0,0.0,0.0,-0.0187548641115427,-0.0012960387393832207,0.0005488198949024081,1495.0,1495.0,1495.0,1495.0,0.0,0.0,0.0,0.0,0.0,0.0,0.0,0.0,1495.0,1495.0,1495.0,1495.0,1.6330256462097168,-0.017113786525523512,0.09506731361790201,-0.001995455517667577,0.001732177217490971,0.002047347603365779,-0.0
422,5,-5.257889824861195e-06,7.317833933484508e-06,1.016469923342811e-05,0.00016742052685003728,-6.0149501223349944e-05,2.8727881726808846e-05,0.04205071181058884,0.0027795922942459583,0.002768381964415312,-0.0025414142291992903,-0.0005273696733638644,0.003122797468677163,0.0,0.0,0.0,0.0006763789569959044,-0.00044019747292622924,-0.0,0.0,0.0,0.0,-0.0187548641115427,-0.0012960387393832207,0.0005488198949024081,1495.0,1495.0,1495.0,1495.0,0.0,0.0,0.0,0.0,0.0,0.0,0.0,0.0,1495.0,1495.0,1495.0,1495.0,1.6330256462097168,-0.01732487832282337,0.09521600435331788,-0.002135914991055601,0.001732177217490971,0.002047347603365779,-0.0
427,5,-3.22176265399321e-06,7.556599030067446e-06,2.3380123820970766e-05,0.000311303447233513,-5.271162808639929e-05,-0.0015743598341941833,0.04205071181058884,0.0027795922942459583,0.002768381964415312,-0.0025414142291992903,-0.0005273696733638644,0.003122797468677163,0.0,0.0,0.0,0.0006763789569959044,-0.00044019747292622924,-0.0,0.0,0.0,0.0,-0.018616240471601486,-0.0013253529323264956,0.00038144277641549706,1495.0,1495.0,1495.0,1495.0,0.0,0.0,0.0,0.0,0.0,0.0,0.0,0.0,1495.0,1495.0,1495.0,1495.0,1.6330256462097168,-0.01739786202816726,0.09502035058594942,-0.0019939053259541077,-0.0011497921077534556,0.00023987863096408546,0.0
433,5,9.736366337165236e-06,1.6853863371579791e-06,2.5009991077240556e-05,0.0016794968396425247,0.0006834608502686024,-0.0008253278792835772,0.04205071181058884,0.0027795922942459583,0.002768381964415312,-0.0025414142291992903,-0.0005273696733638644,0.003122797468677163,0.0,0.0,0.0,7.944736717035994e-05,0.0002929300535470247,-0.0,0.0,0.0,0.0,-0.018616240471601486,-0.0013253529323264956,0.00038144277641549706,1495.0,1495.0,1495.0,1495.0,0.0,0.0,0.0,0.0,0.0,0.0,0.0,0.0,1495.0,1495.0,1495.0,1495.0,1.6289341449737549,-0.0173677417909853,0.09509746320465598,-0.0019666998484545958,-0.0011497921077534556,0.00023987863096408546,0.0
438,5,2.0105619114474393e-05,7.18342153049889e-06,2.7415257136453874e-05,0.0019161091186106205,-0.000386379862902686,-0.0006187630351632833,0.04201502725481987,0.002787868957966566,0.002761158626526594,-0.0006711937021464109,0.0049177599139511585,0.0013338112039491534,0.0,0.0,0.0,7.944736717035994e-05,0.0002929300535470247,-0.0,0.0,0.0,0.0,-0.01868611015379429,-0.0011556049576029181,0.00047744097537361085,1495.0,1495.0,1495.0,1495.0,0.0,0.0,0.0,0.0,0.0,0.0,0.0,0.0,1495.0,1495.0,1495.0,1495.0,1.6289341449737549,-0.01720745124581848,0.09563799152956057,-0.0020883539941541755,-0.0011497921077534556,0.00023987863096408546,0.0
443,5,1.56142905325396e-05,-7.312536354220356e-07,2.271616722282488e-05,0.00022748415358364582,0.0007952090818434954,0.000316385441692546,0.04201502725481987,0.002787868957966566,0.002761158626526594,-0.0006711937021464109,0.0049177599139511585,0.0013338112039491534,0.0,0.0,0.0,0.00048809582949616015,0.001839635893702507,-0.0,0.0,0.0,0.0,-0.01868611015379429,-0.0011556049576029181,0.00047744097537361085,1495.0,1495.0,1495.0,1495.0,0.0,0.0,0.0,0.0,0.0,0.0,0.0,0.0,1495.0,1495.0,1495.0,1495.0,1.645933747291565,-0.01749533147353675,0.09530570535410096,-0.001977797073982781,-0.007296184543520212,0.0014891071477904916,0.0
448,5,5.368088977775187e-07,2.81541417734843e-07,1.8301991076441482e-05,-0.001718304120004177,0.0001965482224477455,0.0006562553462572396,0.04203866422176361,0.0027419584803283215,0.0027960725128650665,0.0005592098459601402,-6.9508237174886744e-06,0.0017045119311660528,0.0,0.0,0.0,0.00048809582949616015,0.001839635893702507,-0.0,0.0,0.0,0.0,-0.018975581973791122,-0.0011345632374286652,0.0005682778428308666,1495.0,1495.0,1495.0,1495.0,0.0,0.0,0.0,0.0,0.0,0.0,0.0,0.0,1495.0,1495.0,1495.0,1495.0,1.645933747291565,-0.017041712199682993,0.09537585818982995,-0.0020991170053295725,-0.007296184543520212,0.0014891071477904916,0.0
453,5,-7.890872439020313e-06,1.4453560197580373e-06,1.9063727449974976e-05,-0.001698643434792757,-6.103845953475684e-05,0.0001710938522592187,0.04203866422176361,0.0027419584803283215,0.0027960725128650665,0.0005592098459601402,-6.9508237174886744e-06,0.0017045119311660528,0.0,0.0,0.0,-0.00024124399351421744,-0.0016264624428004026,-0.0,0.0,0.0,0.0,-0.018975581973791122,-0.0011345632374286652,0.0005682778428308666,1495.0,1495.0,1495.0,1495.0,0.0,0.0,0.0,0.0,0.0,0.0,0.0,0.0,1495.0,1495.0,1495.0,1495.0,1.643324375152588,-0.017213194477266255,0.09517794775165,-0.0021373472474102402,0.006440491881221533,-0.0007348324870690703,-0.0
458,5,-1.4100222870183643e-05,4.992437425244134e-06,1.488250018155668e-05,-0.0014245794154703617,-0.00045006515574641526,0.0005701847258023918,0.042044054716825485,0.0027531906962394714,0.002768266946077347,-0.001487358589656651,-0.007234835997223854,-0.003574694972485304,0.0,0.0,0.0,-0.00024124399351421744,-0.0016264624428004026,-0.0,0.0,0.0,0.0,-0.018774889409542084,-0.0014264853671193123,0.0002491322229616344,1495.0,1495.0,1495.0,1495.0,0.0,0.0,0.0,0.0,0.0,0.0,0.0,0.0,1495.0,1495.0,1495.0,1495.0,1.643324375152588,-0.017351995242153848,0.09514138479384589,-0.002082694670681568,0.006440491881221533,-0.0007348324870690703,-0.0
463,5,-1.3298546946316492e-05,3.4922124996228376e-06,1.456282006984111e-05,-0.0004736306145787239,9.240899156992555e-10,0.0002664354396983981,0.042044054716825485,0.0027531906962394714,0.002768266946077347,-0.001487358589656651,-0.007234835997223854,-0.003574694972485304,0.0,0.0,0.0,0.000564065994694829,-0.0013704444281756878,-0.0,0.0,0.0,0.0,-0.018774889409542084,-0.0014264853671193123,0.0002491322229616344,1495.0,1495.0,1495.0,1495.0,0.0,0.0,0.0,0.0,0.0,0.0,0.0,0.0,1495.0,1495.0,1495.0,1495.0,1.6411652565002441,-0.017238268202672005,0.09514698668052884,-0.0020694104164651656,0.005419577471911907,0.0017158950213342905,-0.0
468,5,1.6478027475841373e-07,3.479653742033406e-06,1.9156275811837986e-05,0.0010849711252376437,-4.901570355286822e-05,-0.000758694892283529,0.04205852374434471,0.0027763331308960915,0.0027717913035303354,0.0009514354169368744,0.001894256449304521,-0.001984690548852086,0.0,0.0,0.0,0.000564065994694829,-0.0013704444281756878,-0.0,0.0,0.0,0.0,-0.0190117284655571,-0.0013654445065185428,0.0004585711576510221,1495.0,1495.0,1495.0,1495.0,0.0,0.0,0.0,0.0,0.0,0.0,0.0,0.0,1495.0,1495.0,1495.0,1495.0,1.6411652565002441,-0.01693289099972447,0.09519971724271648,-0.002185392316142457,0.005419577471911907,0.0017158950213342905,-0.0
473,5,3.940420356229879e-06,4.913932116323849e-06,1.2468413842725568e-05,0.0008870652527548373,-0.0001917197078000754,0.0004990653833374381,0.04205852374434471,0.0027763331308960915,0.0027717913035303354,0.0009514354169368744,0.001894256449304521,-0.001984690548852086,0.0,0.0,0.0,6.712473987136036e-05,0.001031843014061451,-0.0,0.0,0.0,0.0,-0.0190117284655571,-0.0013654445065185428,0.0004585711576510221,1495.0,1495.0,1495.0,1495.0,0.0,0.0,0.0,0.0,0.0,0.0,0.0,0.0,1495.0,1495.0,1495.0,1495.0,1.636803150177002,-0.017246569989284498,0.09498112022456161,-0.002000173041940368,-0.004069695249199867,0.0002036514924839139,0.0
478,5,3.940420356229879e-06,4.913932116323849e-06,1.2468413842725568e-05,0.0008870652527548373,-0.0001917197078000754,0.0004990653833374381,0.04204386845231056,0.002732532564550638,0.002742546843364835,0.0008012098260223866,0.005237889941781759,0.0017887097783386707,0.0,0.0,0.0,6.712473987136036e-05,0.001031843014061451,-0.0,0.0,0.0,0.0,-0.01889631897211075,-0.001051083905622363,0.00037584450910799205,1495.0,1495.0,1495.0,1495.0,0.0,0.0,0.0,0.0,0.0,0.0,0.0,0.0,1495.0,1495.0,1495.0,1495.0,1.636803150177002,-0.017246569989284498,0.09498112022456161,-0.002000173041940368,-0.004069695249199867,0.0002036514924839139,0.0
483,5,5.387991222960409e-06,8.237288966483902e-06,1.7920236132340506e-05,-0.00024455078528262675,-1.0289319106959738e-05,-0.000656446092762053,0.04204386845231056,0.002732532564550638,0.002742546843364835,0.0008012098260223866,0.005237889941781759,0.0017887097783386707,0.0,0.0,0.0,0.0002463787386659533,0.0008498522220179439,-0.0,0.0,0.0,0.0,-0.01889631897211075,-0.001051083905622363,0.00037584450910799205,1495.0,1495.0,1495.0,1495.0,0.0,0.0,0.0,0.0,0.0,0.0,0.0,0.0,1495.0,1495.0,1495.0,1495.0,1.635056495666504,-0.017198721566031732,0.09534262947253981,-0.0018955167652592345,-0.003348328173160553,0.000746697245631367,-0.0
489,5,7.414441824948881e-06,6.064643457648344e-06,2.609488001326099e-05,0.00014535374066326767,0.000256601779256016,-0.001243535545654595,0.042065445333719254,0.002728232415392995,0.0027512586675584316,0.0007931340951472521,-0.0011273975251242518,-0.0024603763595223427,0.0,0.0,0.0,0.0002463787386659533,0.0008498522220179439,-0.0,0.0,0.0,0.0,-0.01906403712928295,-0.001275775139220059,0.0005025454447604716,1495.0,1495.0,1495.0,1495.0,0.0,0.0,0.0,0.0,0.0,0.0,0.0,0.0,1495.0,1495.0,1495.0,1495.0,1.635056495666504,-0.017119671097896094,0.09526813080090733,-0.0019068521304988677,-0.003348328173160553,0.000746697245631367,-0.0
494,5,1.4914230632712133e-06,-7.609828855947853e-08,1.7853166355052963e-05,-0.0006526207434944808,0.0008395297336392105,0.0004915913450531662,0.042065445333719254,0.002728232415392995,0.0027512586675584316,0.0007931340951472521,-0.0011273975251242518,-0.0024603763595223427,0.0,0.0,0.0,-0.000307443697238341,0.0001493240415584296,-0.0,0.0,0.0,0.0,-0.01906403712928295,-0.001275775139220059,0.0005025454447604716,1495.0,1495.0,1495.0,1495.0,0.0,0.0,0.0,0.0,0.0,0.0,0.0,0.0,1495.0,1495.0,1495.0,1495.0,1.6287254095077515,-0.01707373732986238,0.095254437065023,-0.0020603057773340315,-0.0005860429955646396,-0.0009281581733375788,0.0
499,5,-8.492630513501354e-06,3.871071839967044e-06,1.9977060219389386e-05,-0.0014591346262022853,-0.00013784854672849178,-5.823082756251097e-05,0.04206287860870361,0.0027343176770955324,0.00275786267593503,-0.004606292583048344,0.0010103571694344282,-0.00023651520314160734,0.0,0.0,0.0,-0.000307443697238341,0.0001493240415584296,-0.0,0.0,0.0,0.0,-0.018684007227420807,-0.001240679994225502,0.0004043124208692461,1495.0,1495.0,1495.0,1495.0,0.0,0.0,0.0,0.0,0.0,0.0,0.0,0.0,1495.0,1495.0,1495.0,1495.0,1.6287254095077515,-0.01683505114507601,0.09507868340212218,-0.001957557385908841,-0.0005860429955646396,-0.0009281581733375788,0.0
504,5,-5.971104201307753e-06,3.6642247778218007e-06,2.1366509827203117e-05,-0.00028107076650485396,-3.0317749406094663e-05,-0.00019002625776920468,0.04206287860870361,0.0027343176770955324,0.00275786267593503,-0.004606292583048344,0.0010103571694344282,-0.00023651520314160734,0.0,0.0,0.0,4.458537296159193e-05,-0.000276890437817201,-0.0,0.0,0.0,0.0,-0.018684007227420807,-0.001240679994225502,0.0004043124208692461,1495.0,1495.0,1495.0,1495.0,0.0,0.0,0.0,0.0,0.0,0.0,0.0,0.0,1495.0,1495.0,1495.0,1495.0,1.6287180185317993,-0.01723381991551704,0.09504040206954668,-0.0020688896728639932,0.001086690230295062,0.0001346005592495203,0.0
