timestamp,dt,pos_x,pos_y,pos_z,vel_x,vel_y,vel_z,roll,pitch,yaw,agv_x,agv_y,agv_z,x_ref,y_ref,z_ref,roll_ref,pitch_ref,yaw_ref,x_vel_ref,y_vel_ref,z_vel_ref,x_torque,y_torque,z_torque,w0,w1,w2,w3,u0,u1,u2,u3,m0req,m1req,m2req,m3req,thrust0,thrust1,thrust2,thrust3,thrust_ref,roll_vicon,pitch_vicon,yaw_vicon,acc_x,acc_y,acc_z
5,5,0.0,0.0,0.0,-0.0010643668938428164,0.002356285462155938,0.0027924745809286833,0.0,0.0,0.0,0.0,0.0,0.0,0.0,0.0,0.0,-0.0028856087010353804,-0.001002670731395483,-0.0,0.0,0.0,0.0,0.0,0.0,0.0,0.0,0.0,0.0,0.0,0.0,0.0,0.0,0.0,0.0,0.0,0.0,0.0,0.0,0.0,0.0,0.0,1.652016043663025,-0.27835769929185766,-0.31376864884212674,-0.12503565751788814,0.003991375677287579,-0.008836070075631142,0.0
41,36,0.0,0.0,0.0,0.0010385001078248024,-0.0015911385416984558,-0.0005315392045304179,0.0,0.0,0.0,0.0,0.0,0.0,0.0,0.0,0.0,-0.0028856087010353804,-0.001002670731395483,-0.0,0.0,0.0,0.0,0.0,0.0,0.0,0.0,0.0,0.0,0.0,0.0,0.0,0.0,0.0,0.0,0.0,0.0,0.0,0.0,0.0,0.0,0.0,1.652016043663025,-0.2778222917764369,-0.3144452325058133,-0.12526308194904914,0.003991375677287579,-0.008836070075631142,0.0
46,5,0.0,0.0,0.0,-0.0009670655708760023,0.0005204548360779881,0.00520692951977253,0.0,0.0,0.0,0.0,0.0,0.0,0.0,0.0,0.0,0.001956807216629386,0.0009824346052482724,-0.0,0.0,0.0,0.0,0.0,0.0,0.0,0.0,0.0,0.0,0.0,0.0,0.0,0.0,0.0,0.0,0.0,0.0,0.0,0.0,0.0,0.0,0.0,1.645065426826477,-0.2772213752935824,-0.31486929667789393,-0.12512758670636165,-0.003894375404343009,0.005966769531369209,0.0
51,5,0.0,0.0,0.0,0.0006669240538030863,-0.00029776187147945166,0.0017098266398534179,0.0,0.0,0.0,0.0,0.0,0.0,0.0,0.0,0.0,0.001956807216629386,0.0009824346052482724,-0.0,0.0,0.0,0.0,0.0,0.0,0.0,0.0,0.0,0.0,0.0,0.0,0.0,0.0,0.0,0.0,0.0,0.0,0.0,0.0,0.0,0.0,0.0,1.645065426826477,-0.2777821285899661,-0.31405018374395327,-0.1250727887540833,-0.003894375404343009,0.005966769531369209,0.0
56,5,0.0,0.0,0.0,0.0006669240538030863,-0.00029776187147945166,0.0017098266398534179,0.0,0.0,0.0,0.0,0.0,0.0,0.0,0.0,0.0,0.001956807216629386,0.0009824346052482724,-0.0,0.0,0.0,0.0,0.0,0.0,0.0,0.0,0.0,0.0,0.0,0.0,0.0,0.0,0.0,0.0,0.0,0.0,0.0,0.0,0.0,0.0,0.0,1.645065426826477,-0.2777821285899661,-0.31405018374395327,-0.1250727887540833,-0.003894375404343009,0.005966769531369209,0.0
61,5,-6.950291663088137e-06,1.4982486391090788e-05,1.8682430891203694e-05,-0.00024495538673363626,-0.0018795110518112779,-0.0017641234444454312,0.0,0.0,0.0,0.0,0.0,0.0,0.0,0.0,0.0,0.001956807216629386,0.0009824346052482724,-0.0,0.0,0.0,0.0,0.0,0.0,0.0,0.0,0.0,0.0,0.0,0.0,0.0,0.0,0.0,0.0,0.0,0.0,0.0,0.0,0.0,0.0,0.0,1.645065426826477,-0.2786386146605489,-0.3136788446246344,-0.125359937162418,-0.003894375404343009,0.005966769531369209,0.0
66,5,1.4502445537800668e-06,2.5623860437917756e-06,1.5806197552592494e-05,0.0009100821916945279,0.0007386076031252742,-0.000360501348040998,0.0,0.0,0.0,0.0,0.0,0.0,0.0,0.0,0.0,0.002338229911401868,-0.0002413539623375982,-0.0,0.0,0.0,0.0,0.0,0.0,0.0,0.0,0.0,0.0,0.0,0.0,0.0,0.0,0.0,0.0,0.0,0.0,0.0,0.0,0.0,0.0,0.0,1.6452536582946777,-0.27886394594075664,-0.3129321719591915,-0.1254339140260137,0.0009568370878696442,0.007130629848688841,0.0
72,5,-9.801749911275692e-06,-3.2366356208513025e-06,3.595426460378803e-05,-0.000986206461675465,0.0009913257090374827,-0.0025619687512516975,0.0,0.0,0.0,0.0,0.0,0.0,0.0,0.0,0.0,0.002338229911401868,-0.0002413539623375982,-0.0,0.0,0.0,0.0,0.0,0.0,0.0,0.0,0.0,0.0,0.0,0.0,0.0,0.0,0.0,0.0,0.0,0.0,0.0,0.0,0.0,0.0,0.0,1.6452536582946777,-0.27882583275171197,-0.3128001069998804,-0.1251358834541445,0.0009568370878696442,0.007130629848688841,0.0
77,5,4.401781552587636e-07,-9.490659977018367e-06,1.8411961718811654e-05,0.0008345487876795232,0.0011470132740214467,0.001080289133824408,0.0,0.0,0.0,0.0,0.0,0.0,0.0,0.0,0.0,-0.0012286718701943755,-0.0009494404657743871,-0.0,0.0,0.0,0.0,0.0,0.0,0.0,0.0,0.0,0.0,0.0,0.0,0.0,0.0,0.0,0.0,0.0,0.0,0.0,0.0,0.0,0.0,0.0,1.640108585357666,-0.2781094567354968,-0.31375885977714063,-0.12480196452088399,0.003752250922843814,-0.0037352258805185556,0.0
82,5,-6.116536951594753e-06,-2.1223995645414107e-05,1.5915173207758926e-05,-0.0004529863072093576,0.0018668054835870862,0.0007317301351577044,0.0,0.0,0.0,0.0,0.0,0.0,0.0,0.0,0.0,-0.002333354903385043,-0.0004368971276562661,-0.0,0.0,0.0,0.0,0.0,0.0,0.0,0.0,0.0,0.0,0.0,0.0,0.0,0.0,0.0,0.0,0.0,0.0,0.0,0.0,0.0,0.0,0.0,1.6456067562103271,-0.2776583442301178,-0.3142350312813881,-0.1247018371367804,0.0017324311193078756,-0.007117290515452623,-0.0
87,5,-1.90154150914168e-05,-1.882149081211537e-05,4.850863479077816e-05,-0.0017290599644184113,0.0004584215930663049,-0.003618523245677352,0.0,0.0,0.0,0.0,0.0,0.0,0.0,0.0,0.0,-0.002333354903385043,-0.0004368971276562661,-0.0,0.0,0.0,0.0,0.0,0.0,0.0,0.0,0.0,0.0,0.0,0.0,0.0,0.0,0.0,0.0,0.0,0.0,0.0,0.0,0.0,0.0,0.0,1.6456067562103271,-0.27828308694683773,-0.3139557093965297,-0.12519254300901522,0.0017324311193078756,-0.007117290515452623,-0.0
92,5,-2.6131267077289522e-05,-1.2666469046962447e-05,4.7456796892220154e-05,-0.00154552620369941,-0.0005552339716814458,-0.0013211886398494244,0.0,0.0,0.0,0.0,0.0,0.0,0.0,0.0,0.0,-0.002333354903385043,-0.0004368971276562661,-0.0,0.0,0.0,0.0,0.0,0.0,0.0,0.0,0.0,0.0,0.0,0.0,0.0,0.0,0.0,0.0,0.0,0.0,0.0,0.0,0.0,0.0,0.0,1.6456067562103271,-0.2778904459228875,-0.3149128231050919,-0.12554145066500652,0.0017324311193078756,-0.007117290515452623,-0.0
97,5,-1.120454089686973e-05,-1.050190803653095e-05,4.972510214429349e-05,0.0011729967081919312,-0.0004818409215658903,-0.0008006723364815116,0.0,0.0,0.0,0.0,0.0,0.0,0.0,0.0,0.0,0.0006608876865357161,-0.0015005005989223719,-0.0,0.0,0.0,0.0,0.0,0.0,0.0,0.0,0.0,0.0,0.0,0.0,0.0,0.0,0.0,0.0,0.0,0.0,0.0,0.0,0.0,0.0,0.0,1.6427533626556396,-0.27867795991368005,-0.31393502546456464,-0.12529304003675854,0.005939641036093235,0.0020123731810599566,0.0
102,5,-1.5800664186826907e-05,-1.2002318726445083e-05,2.002843757509254e-05,-8.233606058638543e-05,-1.2687012713286094e-05,0.003243330866098404,0.0,0.0,0.0,0.0,0.0,0.0,0.0,0.0,0.0,0.0006608876865357161,-0.0015005005989223719,-0.0,0.0,0.0,0.0,0.0,0.0,0.0,0.0,0.0,0.0,0.0,0.0,0.0,0.0,0.0,0.0,0.0,0.0,0.0,0.0,0.0,0.0,0.0,1.6427533626556396,-0.27808699661800895,-0.3135223423295613,-0.12562208058086785,0.005939641036093235,0.0020123731810599566,0.0
107,5,1.5078963770065457e-05,6.893180852785008e-06,2.2276108211372048e-05,0.0036726207472383976,-0.0022725348826497793,0.0010276120156049728,0.0,0.0,0.0,0.0,0.0,0.0,0.0,0.0,0.0,-6.153148660814622e-06,-0.00010089783609146252,-0.0,0.0,0.0,0.0,0.0,0.0,0.0,0.0,0.0,0.0,0.0,0.0,0.0,0.0,0.0,0.0,0.0,0.0,0.0,0.0,0.0,0.0,0.0,1.6284600496292114,-0.2790659682561035,-0.3131923128735404,-0.12534431020201925,0.00039592309622094035,-1.8573042325442657e-05,-0.0
112,5,1.622680611035321e-05,7.008663033047924e-06,7.91392994869966e-06,0.0016067895339801908,-0.0009228718117810786,0.0021345061250030994,0.0,0.0,0.0,0.0,0.0,0.0,0.0,0.0,0.0,-6.153148660814622e-06,-0.00010089783609146252,-0.0,0.0,0.0,0.0,0.0,0.0,0.0,0.0,0.0,0.0,0.0,0.0,0.0,0.0,0.0,0.0,0.0,0.0,0.0,0.0,0.0,0.0,0.0,1.6284600496292114,-0.2778981028197841,-0.31353855677994386,-0.1254131168012398,0.00039592309622094035,-1.8573042325442657e-05,-0.0
118,5,1.881404205050785e-05,2.6074235393025447e-06,2.43919621425448e-05,0.000953183975070715,0.00015900003199931234,-0.0011235614074394107,0.0,0.0,0.0,0.0,0.0,0.0,0.0,0.0,0.0,0.0011477195657789707,0.0015427119797095656,-0.0,0.0,0.0,0.0,0.0,0.0,0.0,0.0,0.0,0.0,0.0,0.0,0.0,0.0,0.0,0.0,0.0,0.0,0.0,0.0,0.0,0.0,0.0,1.6448475122451782,-0.2780129899612862,-0.3137514787292458,-0.1251236630670462,-0.0061145140789449215,0.0034992084838449955,-0.0
125,8,-1.2316422726144083e-05,-2.4658853362780064e-05,-6.034149464539951e-06,-0.0025918991304934025,0.002302988898009062,0.0023842330556362867,0.0,0.0,0.0,0.0,0.0,0.0,0.0,0.0,0.0,-0.0028486575465649366,-0.0024449722841382027,-0.0,0.0,0.0,0.0,0.0,0.0,0.0,0.0,0.0,0.0,0.0,0.0,0.0,0.0,0.0,0.0,0.0,0.0,0.0,0.0,0.0,0.0,0.0,1.6613181829452515,-0.277713148485883,-0.31461359138156925,-0.12503014247542557,0.009787606075406075,-0.008772038854658604,0.0
133,8,-4.545295723801246e-06,-3.0751554731978104e-05,-1.0905238013947383e-05,-0.00010422443301649764,0.0016523196827620268,0.0015382239362224936,0.0,0.0,0.0,0.0,0.0,0.0,0.0,0.0,0.0,-0.0028486575465649366,-0.0024449722841382027,-0.0,0.0,0.0,0.0,0.0,0.0,0.0,0.0,0.0,0.0,0.0,0.0,0.0,0.0,0.0,0.0,0.0,0.0,0.0,0.0,0.0,0.0,0.0,1.6613181829452515,-0.2783290290144657,-0.31401670591271935,-0.12517346508717406,0.009787606075406075,-0.008772038854658604,0.0
138,5,-1.1989926861133426e-05,-3.13199452648405e-05,5.21153879162739e-06,-0.0004653711221180856,0.0010943864472210407,-0.00019483089272398502,0.0,0.0,0.0,0.0,0.0,0.0,0.0,0.0,0.0,-0.0020901893731206656,-0.00010509919957257807,-0.0,0.0,0.0,0.0,0.0,0.0,0.0,0.0,0.0,0.0,0.0,0.0,0.0,0.0,0.0,0.0,0.0,0.0,0.0,0.0,0.0,0.0,0.0,1.6430469751358032,-0.2774523184707602,-0.31407320895226737,-0.12491287782939715,0.0004161024990025908,-0.006365662440657616,0.0
144,5,-1.1989926861133426e-05,-3.13199452648405e-05,5.21153879162739e-06,-0.0004653711221180856,0.0010943864472210407,-0.00019483089272398502,0.0,0.0,0.0,0.0,0.0,0.0,0.0,0.0,0.0,-0.0020901893731206656,-0.00010509919957257807,-0.0,0.0,0.0,0.0,0.0,0.0,0.0,0.0,0.0,0.0,0.0,0.0,0.0,0.0,0.0,0.0,0.0,0.0,0.0,0.0,0.0,0.0,0.0,1.6430469751358032,-0.2774523184707602,-0.31407320895226737,-0.12491287782939715,0.0004161024990025908,-0.006365662440657616,0.0
149,5,-5.915694032410101e-07,-2.0284920537960716e-05,2.4526250854250975e-05,-8.756940951570868e-05,0.00025439937599003315,7.560994708910584e-05,0.0,0.0,0.0,0.0,0.0,0.0,0.0,0.0,0.0,-0.001408285810612142,-0.00045883425627835095,-0.0,0.0,0.0,0.0,0.0,0.0,0.0,0.0,0.0,0.0,0.0,0.0,0.0,0.0,0.0,0.0,0.0,0.0,0.0,0.0,0.0,0.0,0.0,1.6383477449417114,-0.2773260800562543,-0.31422557805801293,-0.1253318795067299,0.001811395981349051,-0.004276664461940527,0.0
161,13,2.9317025109776296e-06,-2.482247509760782e-06,3.307839870103635e-05,0.0002893594792112708,-0.001075264299288392,-5.456573126139119e-05,0.0,0.0,0.0,0.0,0.0,0.0,0.0,0.0,0.0,-0.00035312495310790837,-8.457860531052575e-05,-0.0,0.0,0.0,0.0,0.0,0.0,0.0,0.0,0.0,0.0,0.0,0.0,0.0,0.0,0.0,0.0,0.0,0.0,0.0,0.0,0.0,0.0,0.0,1.6287767887115479,-0.2779538023227039,-0.31428078647306057,-0.1256155690811098,0.00033195098512806,-0.0010661013657227159,-0.0
166,5,1.2915013485326199e-06,6.056262691345182e-07,1.0790211490530055e-05,-8.108035399345681e-05,-0.00080065056681633,0.002652756404131651,0.0,0.0,0.0,0.0,0.0,0.0,0.0,0.0,0.0,-0.00035312495310790837,-8.457860531052575e-05,-0.0,0.0,0.0,0.0,0.0,0.0,0.0,0.0,0.0,0.0,0.0,0.0,0.0,0.0,0.0,0.0,0.0,0.0,0.0,0.0,0.0,0.0,0.0,1.6287767887115479,-0.2776024066978076,-0.3140514216401611,-0.12522284208811166,0.00033195098512806,-0.0010661013657227159,-0.0
172,5,-3.4032140661111043e-07,-1.2723603504127823e-05,-1.4977603314036969e-05,-0.000228250864893198,0.001279247342608869,0.004153240472078323,0.0,0.0,0.0,0.0,0.0,0.0,0.0,0.0,0.0,0.0009922778699547052,-7.549888687208295e-05,-0.0,0.0,0.0,0.0,0.0,0.0,0.0,0.0,0.0,0.0,0.0,0.0,0.0,0.0,0.0,0.0,0.0,0.0,0.0,0.0,0.0,0.0,0.0,1.63394296169281,-0.278953447484434,-0.31309614995229007,-0.12551770564817605,0.0002972549700643867,0.0030052363872528076,-0.0
177,6,4.5286077465789276e-07,-1.3050953384663444e-05,-4.271332727512345e-06,3.88151420338545e-06,0.0005509809125214815,0.0003765436413232237,0.0,0.0,0.0,0.0,0.0,0.0,0.0,0.0,0.0,0.0009922778699547052,-7.549888687208295e-05,-0.0,0.0,0.0,0.0,0.0,0.0,0.0,0.0,0.0,0.0,0.0,0.0,0.0,0.0,0.0,0.0,0.0,0.0,0.0,0.0,0.0,0.0,0.0,1.63394296169281,-0.2790239307984559,-0.3126412102929138,-0.12523371045107123,0.0002972549700643867,0.0030052363872528076,-0.0
182,5,-1.8471848306944594e-05,-1.1287710549368057e-05,-4.0005020309763495e-06,-0.0022694123908877373,8.80328025232302e-06,0.0001181177722173743,0.0,0.0,0.0,0.0,0.0,0.0,0.0,0.0,0.0,-0.0007071460131555796,4.258308763382956e-06,-0.0,0.0,0.0,0.0,0.0,0.0,0.0,0.0,0.0,0.0,0.0,0.0,0.0,0.0,0.0,0.0,0.0,0.0,0.0,0.0,0.0,0.0,0.0,1.6315516233444214,-0.2779699212874821,-0.31384064215300933,-0.1253917605488313,-1.6741321815061383e-05,-0.002138545038178563,0.0
187,5,5.222925665293587e-06,-2.8174431463412475e-06,4.0681705286260694e-05,0.0019356078701093793,-0.0010129108559340239,-0.00531461788341403,0.0,0.0,0.0,0.0,0.0,0.0,0.0,0.0,0.0,-0.0007071460131555796,4.258308763382956e-06,-0.0,0.0,0.0,0.0,0.0,0.0,0.0,0.0,0.0,0.0,0.0,0.0,0.0,0.0,0.0,0.0,0.0,0.0,0.0,0.0,0.0,0.0,0.0,1.6315516233444214,-0.2781736355648827,-0.3139407854775038,-0.12485734924698885,-1.6741321815061383e-05,-0.002138545038178563,0.0
193,5,2.561931296440889e-06,9.03067302715499e-06,5.9651953051798046e-05,0.0004549238074105233,-0.0018269383581355214,-0.004402277059853077,0.0,0.0,0.0,0.0,0.0,0.0,0.0,0.0,0.0,0.0012382069835439324,0.0018350115278735757,-0.0,0.0,0.0,0.0,0.0,0.0,0.0,0.0,0.0,0.0,0.0,0.0,0.0,0.0,0.0,0.0,0.0,0.0,0.0,0.0,0.0,0.0,0.0,1.6479989290237427,-0.278016431657845,-0.3148006845905711,-0.12502115737399944,-0.0072869714349508286,0.0037823221646249294,0.0
198,5,-1.7987393903240445e-06,-1.0371439202572219e-05,6.183882942423224e-05,-0.0003413109516259283,0.0015974781708791852,-0.002023336011916399,0.0,0.0,0.0,0.0,0.0,0.0,0.0,0.0,0.0,0.0012382069835439324,0.0018350115278735757,-0.0,0.0,0.0,0.0,0.0,0.0,0.0,0.0,0.0,0.0,0.0,0.0,0.0,0.0,0.0,0.0,0.0,0.0,0.0,0.0,0.0,0.0,0.0,1.6479989290237427,-0.27762282717172754,-0.3145855228262669,-0.12521243270737317,-0.0072869714349508286,0.0037823221646249294,0.0
203,5,5.726112703996478e-06,-3.6064025721316284e-07,6.306215800577775e-05,0.0007664578733965755,-0.0005623045726679265,-0.0009561340557411313,0.0,0.0,0.0,0.0,0.0,0.0,0.0,0.0,0.0,-0.0019865958020091057,-0.0003259583318140358,-0.0,0.0,0.0,0.0,0.0,0.0,0.0,0.0,0.0,0.0,0.0,0.0,0.0,0.0,0.0,0.0,0.0,0.0,0.0,0.0,0.0,0.0,0.0,1.6425189971923828,-0.27769792334892085,-0.3145562863143752,-0.12526007613734016,0.0012901005102321506,-0.006048225332051516,0.0
208,5,-7.015756182227051e-06,9.746967407409102e-06,3.7420380976982415e-05,-0.0012224410893395543,-0.0014378346968442202,0.002694559982046485,0.0,0.0,0.0,0.0,0.0,0.0,0.0,0.0,0.0,-0.0019865958020091057,-0.0003259583318140358,-0.0,0.0,0.0,0.0,0.0,0.0,0.0,0.0,0.0,0.0,0.0,0.0,0.0,0.0,0.0,0.0,0.0,0.0,0.0,0.0,0.0,0.0,0.0,1.6425189971923828,-0.27748979484036074,-0.3145338233977923,-0.12530389347348092,0.0012901005102321506,-0.006048225332051516,0.0
213,5,6.831362043158151e-06,-2.9686029847653117e-06,2.9980394174344838e-05,0.0011726777302101254,0.0009507345384918153,0.0019706226885318756,0.0,0.0,0.0,0.0,0.0,0.0,0.0,0.0,0.0,0.0017856040503829718,-0.0011662259930744767,-0.0,0.0,0.0,0.0,0.0,0.0,0.0,0.0,0.0,0.0,0.0,0.0,0.0,0.0,0.0,0.0,0.0,0.0,0.0,0.0,0.0,0.0,0.0,1.6451128721237183,-0.27797624167180696,-0.3139779782095648,-0.12496782683737666,0.004623060114681721,0.005444888491183519,-0.0
218,5,-6.561317150044488e-06,-1.5729188817203976e-05,-1.4652098798251245e-05,-0.0011380503419786692,0.0019115641480311751,0.006144148297607899,0.0,0.0,0.0,0.0,0.0,0.0,0.0,0.0,0.0,0.0017856040503829718,-0.0011662259930744767,-0.0,0.0,0.0,0.0,0.0,0.0,0.0,0.0,0.0,0.0,0.0,0.0,0.0,0.0,0.0,0.0,0.0,0.0,0.0,0.0,0.0,0.0,0.0,1.6451128721237183,-0.27773162415244146,-0.3137318974857916,-0.125156875984126,0.004623060114681721,0.005444888491183519,-0.0
223,5,1.4636038031312637e-05,1.758926941874961e-06,-1.0769364052976016e-05,0.002088462468236685,-0.0013339483411982656,0.0019917311146855354,0.0,0.0,0.0,0.0,0.0,0.0,0.0,0.0,0.0,-0.0023743438068777323,-0.001083466922864318,-0.0,0.0,0.0,0.0,0.0,0.0,0.0,0.0,0.0,0.0,0.0,0.0,0.0,0.0,0.0,0.0,0.0,0.0,0.0,0.0,0.0,0.0,0.0,1.6486114263534546,-0.2778154395944992,-0.3135612888956488,-0.1253166892284785,0.0043041217140853405,-0.007255539298057556,0.0
228,5,-2.271726543767727e-06,-6.549615136464126e-06,-7.712146725680213e-06,-0.0011935466900467873,0.00046344572911038995,0.0004298262938391417,0.0,0.0,0.0,0.0,0.0,0.0,0.0,0.0,0.0,-0.0023743438068777323,-0.001083466922864318,-0.0,0.0,0.0,0.0,0.0,0.0,0.0,0.0,0.0,0.0,0.0,0.0,0.0,0.0,0.0,0.0,0.0,0.0,0.0,0.0,0.0,0.0,0.0,1.6486114263534546,-0.27809973528625087,-0.31327796577167155,-0.1251380983286767,0.0043041217140853405,-0.007255539298057556,0.0
233,5,-9.065868653124198e-06,-1.1853059731947724e-05,1.1768917147492175e-06,-0.0012927156640216708,0.0008217915892601013,-0.0008947540773078799,0.0,0.0,0.0,0.0,0.0,0.0,0.0,0.0,0.0,-0.0005842024111188948,-0.0011366509133949876,-0.0,0.0,0.0,0.0,0.0,0.0,0.0,0.0,0.0,0.0,0.0,0.0,0.0,0.0,0.0,0.0,0.0,0.0,0.0,0.0,0.0,0.0,0.0,1.638841152191162,-0.278659074450466,-0.3133218326243452,-0.12512580824333916,0.004488649312406778,-0.0017746336525306106,0.0
238,5,-1.3419958122540265e-05,-9.690221304481383e-06,4.7062963858479634e-05,-0.00030252712895162404,-0.0009674977627582848,-0.005539273843169212,0.0,0.0,0.0,0.0,0.0,0.0,0.0,0.0,0.0,-0.0005842024111188948,-0.0011366509133949876,-0.0,0.0,0.0,0.0,0.0,0.0,0.0,0.0,0.0,0.0,0.0,0.0,0.0,0.0,0.0,0.0,0.0,0.0,0.0,0.0,0.0,0.0,0.0,1.638841152191162,-0.2788668230300537,-0.3137177462646089,-0.12500514139779034,0.004488649312406778,-0.0017746336525306106,0.0
243,5,-1.2324330782575998e-05,1.7633727111387998e-05,6.61616722936742e-05,1.0464427759870887e-05,-0.003665872849524021,-0.004507554695010185,0.0,0.0,0.0,0.0,0.0,0.0,0.0,0.0,0.0,0.0011786314425989985,-0.000306609581457451,-0.0,0.0,0.0,0.0,0.0,0.0,0.0,0.0,0.0,0.0,0.0,0.0,0.0,0.0,0.0,0.0,0.0,0.0,0.0,0.0,0.0,0.0,0.0,1.635985255241394,-0.27859038354735577,-0.31430936160613143,-0.12505808366748908,0.0012086950009688735,0.0035740924067795277,0.0
248,5,2.6244722448609537e-06,8.47954197524814e-06,6.655885954387486e-05,0.001798042212612927,-0.00036784703843295574,-0.0018506842898204923,0.0,0.0,0.0,0.0,0.0,0.0,0.0,0.0,0.0,0.0011786314425989985,-0.000306609581457451,-0.0,0.0,0.0,0.0,0.0,0.0,0.0,0.0,0.0,0.0,0.0,0.0,0.0,0.0,0.0,0.0,0.0,0.0,0.0,0.0,0.0,0.0,0.0,1.635985255241394,-0.27828394105178317,-0.31390686633443143,-0.12493853632728663,0.0012086950009688735,0.0035740924067795277,0.0
254,5,-6.449256034102291e-06,1.76846549493348e-06,4.9123347707791254e-05,-0.0003696305211633444,0.0006581904017366469,0.0013519872445613146,0.0,0.0,0.0,0.0,0.0,0.0,0.0,0.0,0.0,0.0004676201206166297,0.0017051274189725518,-0.0,0.0,0.0,0.0,0.0,0.0,0.0,0.0,0.0,0.0,0.0,0.0,0.0,0.0,0.0,0.0,0.0,0.0,0.0,0.0,0.0,0.0,0.0,1.6444694995880127,-0.27735322172667787,-0.3146382234575646,-0.12499263579839812,-0.006756694987416267,0.0014253697590902448,0.0
259,5,2.0101449536014115e-06,1.3246178696135757e-06,5.629852967103943e-05,0.0008672759286127985,0.0003165378875564784,-0.0003202267689630389,0.0,0.0,0.0,0.0,0.0,0.0,0.0,0.0,0.0,0.0004676201206166297,0.0017051274189725518,-0.0,0.0,0.0,0.0,0.0,0.0,0.0,0.0,0.0,0.0,0.0,0.0,0.0,0.0,0.0,0.0,0.0,0.0,0.0,0.0,0.0,0.0,0.0,1.6444694995880127,-0.2774512507654317,-0.31489026394007197,-0.1250162501106659,-0.006756694987416267,0.0014253697590902448,0.0
264,5,-7.276809355971636e-06,-1.0071480573969893e-05,3.647164339781739e-05,-0.0007675241795368493,0.0014941469999030232,0.002251135651022196,0.0,0.0,0.0,0.0,0.0,0.0,0.0,0.0,0.0,-0.00038946382119320333,0.0008281281916424632,-0.0,0.0,0.0,0.0,0.0,0.0,0.0,0.0,0.0,0.0,0.0,0.0,0.0,0.0,0.0,0.0,0.0,0.0,0.0,0.0,0.0,0.0,0.0,1.6351631879806519,-0.2775596888182649,-0.31475058508400217,-0.12520467962581117,-0.003262950573116541,-0.0011804205132648349,0.0
269,5,-1.3225067050370853e-05,-3.891699634550605e-06,2.3493090338888578e-05,-0.0010208005551248789,-0.00014391493459697813,0.002457880647853017,0.0,0.0,0.0,0.0,0.0,0.0,0.0,0.0,0.0,-0.00038946382119320333,0.0008281281916424632,-0.0,0.0,0.0,0.0,0.0,0.0,0.0,0.0,0.0,0.0,0.0,0.0,0.0,0.0,0.0,0.0,0.0,0.0,0.0,0.0,0.0,0.0,0.0,1.6351631879806519,-0.27804304474284397,-0.31446467114795784,-0.12534238836129208,-0.003262950573116541,-0.0011804205132648349,0.0
274,5,-1.1253124284849036e-05,3.533508277087094e-07,2.5386239030922297e-06,-0.00017168710473924875,-0.0005669720703735948,0.0034976880997419357,0.0,0.0,0.0,0.0,0.0,0.0,0.0,0.0,0.0,-0.00038946382119320333,0.0008281281916424632,-0.0,0.0,0.0,0.0,0.0,0.0,0.0,0.0,0.0,0.0,0.0,0.0,0.0,0.0,0.0,0.0,0.0,0.0,0.0,0.0,0.0,0.0,0.0,1.6351631879806519,-0.27819122223969783,-0.3145207935184447,-0.12519159890978868,-0.003262950573116541,-0.0011804205132648349,0.0
279,5,-1.6153904653037898e-05,-5.1361021178308874e-06,-1.1520323823788203e-05,-0.0006567683885805309,0.0004319455474615097,0.0030861489940434694,0.0,0.0,0.0,0.0,0.0,0.0,0.0,0.0,0.0,0.0007033407455310225,-0.00017958592798095196,-0.0,0.0,0.0,0.0,0.0,0.0,0.0,0.0,0.0,0.0,0.0,0.0,0.0,0.0,0.0,0.0,0.0,0.0,0.0,0.0,0.0,0.0,0.0,1.6318309307098389,-0.2780760297005244,-0.314389339613987,-0.12516030962901986,0.0007061537471599877,0.0021274012979120016,-0.0
284,5,-4.385400188766653e-06,3.6651076698035467e-06,2.0666511773015372e-05,0.0011495130602270365,-0.0008833669708110392,-0.0026279606390744448,0.0,0.0,0.0,0.0,0.0,0.0,0.0,0.0,0.0,0.0010958272032439709,0.0010842811316251755,-0.0,0.0,0.0,0.0,0.0,0.0,0.0,0.0,0.0,0.0,0.0,0.0,0.0,0.0,0.0,0.0,0.0,0.0,0.0,0.0,0.0,0.0,0.0,1.6404728889465332,-0.2778960393234757,-0.3131814557627322,-0.12497369723429332,-0.004286102019250393,0.003332111518830061,0.0
289,5,-6.953604497539345e-06,-1.5349030945799313e-05,1.6326184777426533e-05,0.00015162066847551614,0.0019283498404547572,-0.0005303450743667781,0.0,0.0,0.0,0.0,0.0,0.0,0.0,0.0,0.0,0.0010958272032439709,0.0010842811316251755,-0.0,0.0,0.0,0.0,0.0,0.0,0.0,0.0,0.0,0.0,0.0,0.0,0.0,0.0,0.0,0.0,0.0,0.0,0.0,0.0,0.0,0.0,0.0,1.6404728889465332,-0.2776201815381496,-0.3140012363081706,-0.12481853817978956,-0.004286102019250393,0.003332111518830061,0.0
294,5,3.963154085795395e-06,-1.4516854207613505e-06,3.043232391064521e-05,0.0013706593308597803,-0.000896341516636312,-0.0019048746908083558,0.0,0.0,0.0,0.0,0.0,0.0,0.0,0.0,0.0,0.0011012520408257842,0.0013041316997259855,-0.0,0.0,0.0,0.0,0.0,0.0,0.0,0.0,0.0,0.0,0.0,0.0,0.0,0.0,0.0,0.0,0.0,0.0,0.0,0.0,0.0,0.0,0.0,1.6424378156661987,-0.2778750888092745,-0.31324115376623196,-0.12470747306842135,-0.005161333363503218,0.003352617844939232,0.0
299,5,-7.071048457873985e-06,-1.583685661898926e-05,2.801349364744965e-05,-0.0007758405990898609,0.0013676838716492057,-0.0004716903204098344,0.0,0.0,0.0,0.0,0.0,0.0,0.0,0.0,0.0,0.0011012520408257842,0.0013041316997259855,-0.0,0.0,0.0,0.0,0.0,0.0,0.0,0.0,0.0,0.0,0.0,0.0,0.0,0.0,0.0,0.0,0.0,0.0,0.0,0.0,0.0,0.0,0.0,1.6424378156661987,-0.27750465566089333,-0.31446861995709563,-0.12489282700674006,-0.005161333363503218,0.003352617844939232,0.0
304,5,-1.0475941962795332e-05,-4.026914666610537e-06,4.430873741512187e-05,-0.000718923460226506,-0.0008701194310560822,-0.002144105499610305,0.0,0.0,0.0,0.0,0.0,0.0,0.0,0.0,0.0,0.0010676438687369227,-0.0006980673642829061,-0.0,0.0,0.0,0.0,0.0,0.0,0.0,0.0,0.0,0.0,0.0,0.0,0.0,0.0,0.0,0.0,0.0,0.0,0.0,0.0,0.0,0.0,0.0,1.6372849941253662,-0.27840415025647636,-0.3143868643373266,-0.12523467624924353,0.0027540591545403004,0.0032401052303612232,0.0
309,5,-1.2573700587381609e-05,-7.2582438406243455e-06,3.853977977996692e-05,-0.000539300381205976,3.971173646277748e-05,-0.00016536717885173857,0.0,0.0,0.0,0.0,0.0,0.0,0.0,0.0,0.0,0.0010676438687369227,-0.0006980673642829061,-0.0,0.0,0.0,0.0,0.0,0.0,0.0,0.0,0.0,0.0,0.0,0.0,0.0,0.0,0.0,0.0,0.0,0.0,0.0,0.0,0.0,0.0,0.0,1.6372849941253662,-0.2782825833543855,-0.31450569484885554,-0.12530111590333898,0.0027540591545403004,0.0032401052303612232,0.0
314,5,-8.84796645550523e-06,6.846449650765862e-06,4.3632189772324637e-05,0.00023136795789469033,-0.0016766785411164165,-0.0006772361812181771,0.0,0.0,0.0,0.0,0.0,0.0,0.0,0.0,0.0,0.0010676438687369227,-0.0006980673642829061,-0.0,0.0,0.0,0.0,0.0,0.0,0.0,0.0,0.0,0.0,0.0,0.0,0.0,0.0,0.0,0.0,0.0,0.0,0.0,0.0,0.0,0.0,0.0,1.6372849941253662,-0.27824624616850585,-0.31389652399766704,-0.12559077691279097,0.0027540591545403004,0.0032401052303612232,0.0
320,5,-1.042963322106516e-05,-1.306601825490361e-05,3.0437589884968475e-05,-9.725281415740028e-05,0.0017188247293233871,0.0013124578399583697,0.0,0.0,0.0,0.0,0.0,0.0,0.0,0.0,0.0,0.002076691249385476,0.00020672535174526274,-0.0,0.0,0.0,0.0,0.0,0.0,0.0,0.0,0.0,0.0,0.0,0.0,0.0,0.0,0.0,0.0,0.0,0.0,0.0,0.0,0.0,0.0,0.0,1.6430416107177734,-0.27847755453509526,-0.31370408542160255,-0.12523624175604894,-0.0008184520993381739,0.00632453290745616,0.0
325,5,-3.82516736863181e-06,1.0204747013631277e-05,2.77607177849859e-05,0.0007536347839049995,-0.0021049620117992163,0.0008462076657451689,0.0,0.0,0.0,0.0,0.0,0.0,0.0,0.0,0.0,0.002076691249385476,0.00020672535174526274,-0.0,0.0,0.0,0.0,0.0,0.0,0.0,0.0,0.0,0.0,0.0,0.0,0.0,0.0,0.0,0.0,0.0,0.0,0.0,0.0,0.0,0.0,0.0,1.6430416107177734,-0.2787434592645617,-0.31286907936351194,-0.12498015361379305,-0.0008184520993381739,0.00632453290745616,0.0
330,5,-2.4555598429287784e-05,9.685885743238032e-06,1.991366661968641e-05,-0.0021861977875232697,-0.0007797214202582836,0.001280129188671708,0.0,0.0,0.0,0.0,0.0,0.0,0.0,0.0,0.0,0.0026013401802629232,0.0007059943163767457,-0.0,0.0,0.0,0.0,0.0,0.0,0.0,0.0,0.0,0.0,0.0,0.0,0.0,0.0,0.0,0.0,0.0,0.0,0.0,0.0,0.0,0.0,0.0,1.6485934257507324,-0.27816977045746644,-0.3141998135900356,-0.12509113701166083,-0.002804562682285905,0.007949107326567173,-0.0
335,5,-8.23168556962628e-06,7.738339263596572e-06,2.9092085242155008e-05,0.001084390445612371,-7.818296580808237e-05,-0.0005893585039302707,0.0,0.0,0.0,0.0,0.0,0.0,0.0,0.0,0.0,0.0026013401802629232,0.0007059943163767457,-0.0,0.0,0.0,0.0,0.0,0.0,0.0,0.0,0.0,0.0,0.0,0.0,0.0,0.0,0.0,0.0,0.0,0.0,0.0,0.0,0.0,0.0,0.0,1.6485934257507324,-0.2779054749643883,-0.31437489611493413,-0.12475486449691695,-0.002804562682285905,0.007949107326567173,-0.0
340,5,-1.0941989785351325e-05,9.03180171007989e-06,4.803530828212388e-05,0.000108519678178709,-0.0001864887453848496,-0.0025089303962886333,0.0,0.0,0.0,0.0,0.0,0.0,0.0,0.0,0.0,0.00011047526641050354,0.0010194701608270407,-0.0,0.0,0.0,0.0,0.0,0.0,0.0,0.0,0.0,0.0,0.0,0.0,0.0,0.0,0.0,0.0,0.0,0.0,0.0,0.0,0.0,0.0,0.0,1.6366941928863525,-0.27773936069873706,-0.3151351043269232,-0.1250135707075103,-0.004020627588033676,0.0003351514751557261,0.0
345,5,-1.3754402061749715e-05,-6.459680207626661e-06,3.679786459542811e-05,-0.0002940816048067063,0.00178438238799572,0.00034492145641706884,0.0,0.0,0.0,0.0,0.0,0.0,0.0,0.0,0.0,-0.0022073884028941393,-0.0002975892275571823,-0.0,0.0,0.0,0.0,0.0,0.0,0.0,0.0,0.0,0.0,0.0,0.0,0.0,0.0,0.0,0.0,0.0,0.0,0.0,0.0,0.0,0.0,0.0,1.6442674398422241,-0.27774678129775615,-0.3153166913515542,-0.1251000026888862,0.001179072423838079,-0.006727583706378937,-0.0
350,5,-7.420970177918207e-06,-2.3259929093910614e-06,5.042485645390116e-05,0.0006423791637644172,0.00021771046158391982,-0.00149727042298764,0.0,0.0,0.0,0.0,0.0,0.0,0.0,0.0,0.0,-0.0022073884028941393,-0.0002975892275571823,-0.0,0.0,0.0,0.0,0.0,0.0,0.0,0.0,0.0,0.0,0.0,0.0,0.0,0.0,0.0,0.0,0.0,0.0,0.0,0.0,0.0,0.0,0.0,1.6442674398422241,-0.2773538597028471,-0.3145381872335291,-0.12515922456868955,0.001179072423838079,-0.006727583706378937,-0.0
355,5,-3.02004991681315e-07,6.565258445334621e-06,3.908828512066975e-05,0.0011112274369224906,-0.000979865901172161,0.0007614800124429166,0.0,0.0,0.0,0.0,0.0,0.0,0.0,0.0,0.0,0.00121980719268322,0.001053342130035162,-0.0,0.0,0.0,0.0,0.0,0.0,0.0,0.0,0.0,0.0,0.0,0.0,0.0,0.0,0.0,0.0,0.0,0.0,0.0,0.0,0.0,0.0,0.0,1.6408755779266357,-0.2779587357855327,-0.31383434493628415,-0.12501591688052122,-0.004164823330938816,0.0037100110203027725,-0.0
360,5,-1.6419650137322606e-06,1.5860387065913528e-06,3.0134940971038304e-05,0.00028369578649289906,0.00020555996161419898,0.0013789935037493706,0.0,0.0,0.0,0.0,0.0,0.0,0.0,0.0,0.0,0.00121980719268322,0.001053342130035162,-0.0,0.0,0.0,0.0,0.0,0.0,0.0,0.0,0.0,0.0,0.0,0.0,0.0,0.0,0.0,0.0,0.0,0.0,0.0,0.0,0.0,0.0,0.0,1.6408755779266357,-0.27781142927849906,-0.31344449606643815,-0.12505278976576192,-0.004164823330938816,0.0037100110203027725,-0.0
365,5,9.737049367686268e-06,1.4538238701788941e-06,9.361606316815596e-06,0.0014789600390940905,9.80897675617598e-05,0.003044397570192814,0.0,0.0,0.0,0.0,0.0,0.0,0.0,0.0,0.0,-0.00011849854490719736,0.001416006707586348,-0.0,0.0,0.0,0.0,0.0,0.0,0.0,0.0,0.0,0.0,0.0,0.0,0.0,0.0,0.0,0.0,0.0,0.0,0.0,0.0,0.0,0.0,0.0,1.6409645080566406,-0.2778370667496129,-0.3135759352009629,-0.12531490738800283,-0.0055990745313465595,-0.00036042986903339624,-0.0
370,5,6.142996085145569e-07,-6.9744510255986825e-06,1.6311964827764314e-06,-0.0005031459149904549,0.0010506288381293416,0.0021454081870615482,0.0,0.0,0.0,0.0,0.0,0.0,0.0,0.0,0.0,-0.00011849854490719736,0.001416006707586348,-0.0,0.0,0.0,0.0,0.0,0.0,0.0,0.0,0.0,0.0,0.0,0.0,0.0,0.0,0.0,0.0,0.0,0.0,0.0,0.0,0.0,0.0,0.0,1.6409645080566406,-0.27772937770219924,-0.313857071633174,-0.12491011436451405,-0.0055990745313465595,-0.00036042986903339624,-0.0
375,5,-8.20011700852774e-06,-3.363030918990262e-05,-1.1570285096240696e-05,-0.0012589883990585804,0.0036189546808600426,0.0024423410650342703,0.0,0.0,0.0,0.0,0.0,0.0,0.0,0.0,0.0,-0.00011849854490719736,0.001416006707586348,-0.0,0.0,0.0,0.0,0.0,0.0,0.0,0.0,0.0,0.0,0.0,0.0,0.0,0.0,0.0,0.0,0.0,0.0,0.0,0.0,0.0,0.0,0.0,1.6409645080566406,-0.27790641555307016,-0.31408370188287504,-0.12500209885261482,-0.0055990745313465595,-0.00036042986903339624,-0.0
380,5,-1.9284989321022294e-05,-3.0045523089938797e-05,1.3035585652687587e-05,-0.0018337799701839685,0.0010174072813242674,-0.0019757680129259825,0.0,0.0,0.0,0.0,0.0,0.0,0.0,0.0,0.0,-0.004457184579223394,-0.0011880653910338879,-0.0,0.0,0.0,0.0,0.0,0.0,0.0,0.0,0.0,0.0,0.0,0.0,0.0,0.0,0.0,0.0,0.0,0.0,0.0,0.0,0.0,0.0,0.0,1.6651369333267212,-0.27829573516376976,-0.3137761181008842,-0.1251751292809713,0.004766919184476137,-0.013756770640611649,0.0
385,5,-2.672505252121482e-05,-3.19112696161028e-05,2.9975677534821443e-05,-0.0016263194847851992,0.0006308525917120278,-0.0028231183532625437,0.0,0.0,0.0,0.0,0.0,0.0,0.0,0.0,0.0,-0.004457184579223394,-0.0011880653910338879,-0.0,0.0,0.0,0.0,0.0,0.0,0.0,0.0,0.0,0.0,0.0,0.0,0.0,0.0,0.0,0.0,0.0,0.0,0.0,0.0,0.0,0.0,0.0,1.6651369333267212,-0.2786111701648113,-0.31341926796089964,-0.12517814348687006,0.004766919184476137,-0.013756770640611649,0.0
391,5,-2.9631586585310288e-05,-4.302983506931923e-05,2.258103086205665e-05,-0.0009993119165301323,0.0015865687746554613,-0.0002418895746814087,0.0,0.0,0.0,0.0,0.0,0.0,0.0,0.0,0.0,-0.0008341939537785947,-0.0015767693985253572,-0.0,0.0,0.0,0.0,0.0,0.0,0.0,0.0,0.0,0.0,0.0,0.0,0.0,0.0,0.0,0.0,0.0,0.0,0.0,0.0,0.0,0.0,0.0,1.644032597541809,-0.2788624090267384,-0.31348921478151226,-0.12494040668545887,0.006246405187994242,-0.0025420605670660734,0.0
396,5,-3.9151918826974e-06,3.905568135564863e-08,4.4283649913268164e-05,0.0026862425729632378,-0.0045336391776800156,-0.002701069926843047,0.0,0.0,0.0,0.0,0.0,0.0,0.0,0.0,0.0,-0.0008341939537785947,-0.0015767693985253572,-0.0,0.0,0.0,0.0,0.0,0.0,0.0,0.0,0.0,0.0,0.0,0.0,0.0,0.0,0.0,0.0,0.0,0.0,0.0,0.0,0.0,0.0,0.0,1.644032597541809,-0.27850308447208477,-0.31394028350887554,-0.12541497377330066,0.006246405187994242,-0.0025420605670660734,0.0
401,5,-3.701963578350842e-06,4.482204076339258e-06,3.977127926191315e-05,0.00110008439514786,-0.002346633467823267,-0.0005389435682445765,0.0,0.0,0.0,0.0,0.0,0.0,0.0,0.0,0.0,0.005462386179715395,0.002484251046553254,-0.0,0.0,0.0,0.0,0.0,0.0,0.0,0.0,0.0,0.0,0.0,0.0,0.0,0.0,0.0,0.0,0.0,0.0,0.0,0.0,0.0,0.0,0.0,1.6790937185287476,-0.2781262063209959,-0.31415586689749864,-0.12523133682672308,-0.010051141493022442,0.017000511288642883,0.0
406,5,8.39002586872084e-06,1.3822472283209208e-05,3.7097346648806706e-05,0.0018910724902525544,-0.0020594855304807425,0.00010529414430493489,0.0,0.0,0.0,0.0,0.0,0.0,0.0,0.0,0.0,0.005462386179715395,0.002484251046553254,-0.0,0.0,0.0,0.0,0.0,0.0,0.0,0.0,0.0,0.0,0.0,0.0,0.0,0.0,0.0,0.0,0.0,0.0,0.0,0.0,0.0,0.0,0.0,1.6790937185287476,-0.27802116740589977,-0.3140216936995146,-0.12531357507866175,-0.010051141493022442,0.017000511288642883,0.0
411,5,8.812015039438847e-06,2.5562649170751683e-05,3.041245690837968e-05,0.0008070676703937352,-0.0022326153703033924,0.0008443047408945858,0.0,0.0,0.0,0.0,0.0,0.0,0.0,0.0,0.0,0.002543062437325716,0.001790309906937182,-0.0,0.0,0.0,0.0,0.0,0.0,0.0,0.0,0.0,0.0,0.0,0.0,0.0,0.0,0.0,0.0,0.0,0.0,0.0,0.0,0.0,0.0,0.0,1.6543794870376587,-0.27749600003182245,-0.3141441423951028,-0.12519079333923833,-0.00713696563616395,0.007798298262059689,-0.0
416,5,3.0684534522151807e-06,4.5230481191538274e-06,3.08858034259174e-05,-0.00036640025791712105,0.0016317059053108096,0.000280920387012884,0.0,0.0,0.0,0.0,0.0,0.0,0.0,0.0,0.0,0.002543062437325716,0.001790309906937182,-0.0,0.0,0.0,0.0,0.0,0.0,0.0,0.0,0.0,0.0,0.0,0.0,0.0,0.0,0.0,0.0,0.0,0.0,0.0,0.0,0.0,0.0,0.0,1.6543794870376587,-0.27772146083740296,-0.31355400378846016,-0.12519448621118512,-0.00713696563616395,0.007798298262059689,-0.0
421,5,-9.959654562408105e-06,-1.1378991075616796e-05,1.9597708160290495e-05,-0.0017099331598728895,0.00256092706695199,0.0014669394586235285,0.0,0.0,0.0,0.0,0.0,0.0,0.0,0.0,0.0,-0.00200169556774199,-0.0003430329088587314,-0.0,0.0,0.0,0.0,0.0,0.0,0.0,0.0,0.0,0.0,0.0,0.0,0.0,0.0,0.0,0.0,0.0,0.0,0.0,0.0,0.0,0.0,0.0,1.6426812410354614,-0.27803917361884606,-0.3135281413322496,-0.12523965859356706,0.0013578134821727872,-0.006094798445701599,-0.0
426,5,-8.769834494160023e-06,-9.897612471831962e-06,1.823005368351005e-05,-0.0005411948077380657,0.0008466053986921906,0.0007508941926062107,0.0,0.0,0.0,0.0,0.0,0.0,0.0,0.0,0.0,-0.00200169556774199,-0.0003430329088587314,-0.0,0.0,0.0,0.0,0.0,0.0,0.0,0.0,0.0,0.0,0.0,0.0,0.0,0.0,0.0,0.0,0.0,0.0,0.0,0.0,0.0,0.0,0.0,1.6426812410354614,-0.27819795767551503,-0.3138533495141572,-0.1253743545177936,0.0013578134821727872,-0.006094798445701599,-0.0
431,5,-1.2633531696337741e-05,-2.3058359147398733e-05,-4.857619387621526e-06,-0.0006801215349696577,0.001917931716889143,0.0030708785634487867,0.0,0.0,0.0,0.0,0.0,0.0,0.0,0.0,0.0,-0.001065047807060182,-0.0005271779373288155,-0.0,0.0,0.0,0.0,0.0,0.0,0.0,0.0,0.0,0.0,0.0,0.0,0.0,0.0,0.0,0.0,0.0,0.0,0.0,0.0,0.0,0.0,0.0,1.636169672012329,-0.27812959072658633,-0.3136552565157237,-0.12516194787449084,0.0020784386433660984,-0.0032300245948135853,-0.0
436,5,-2.103343149428838e-06,-2.994403439515736e-05,9.431773833057377e-06,0.0009915739065036178,0.0015934538096189499,-0.0004863757349085063,0.0,0.0,0.0,0.0,0.0,0.0,0.0,0.0,0.0,-0.001065047807060182,-0.0005271779373288155,-0.0,0.0,0.0,0.0,0.0,0.0,0.0,0.0,0.0,0.0,0.0,0.0,0.0,0.0,0.0,0.0,0.0,0.0,0.0,0.0,0.0,0.0,0.0,1.636169672012329,-0.27800376610472793,-0.31382052815422967,-0.12501444245941343,0.0020784386433660984,-0.0032300245948135853,-0.0
441,5,-1.4036321772437077e-05,-3.383699731784873e-05,1.23425425044843e-05,-0.0010353279067203403,0.0011045371647924185,-0.0005438425578176975,0.0,0.0,0.0,0.0,0.0,0.0,0.0,0.0,0.0,-0.0020138155668973923,0.0009348656167276204,-0.0,0.0,0.0,0.0,0.0,0.0,0.0,0.0,0.0,0.0,0.0,0.0,0.0,0.0,0.0,0.0,0.0,0.0,0.0,0.0,0.0,0.0,0.0,1.645194172859192,-0.2777905305824754,-0.3140161863583589,-0.12484580126705755,-0.0037061013281345367,-0.00614108145236969,0.0
446,5,-1.396151401422685e-05,-3.4297732781851664e-05,2.3221229639602825e-05,-0.0004051541327498853,0.0004971030284650624,-0.0015229794662445784,0.0,0.0,0.0,0.0,0.0,0.0,0.0,0.0,0.0,-0.0020138155668973923,0.0009348656167276204,-0.0,0.0,0.0,0.0,0.0,0.0,0.0,0.0,0.0,0.0,0.0,0.0,0.0,0.0,0.0,0.0,0.0,0.0,0.0,0.0,0.0,0.0,0.0,1.645194172859192,-0.27803562074073185,-0.3140276095722985,-0.12490045499977744,-0.0037061013281345367,-0.00614108145236969,0.0
451,5,-1.2353110832918901e-05,-3.4202148526674137e-05,2.321132706128992e-05,3.094673957093619e-05,0.00018737111531663686,-0.0006080034072510898,0.0,0.0,0.0,0.0,0.0,0.0,0.0,0.0,0.0,-0.0006786169833503664,-0.0004058747726958245,-0.0,0.0,0.0,0.0,0.0,0.0,0.0,0.0,0.0,0.0,0.0,0.0,0.0,0.0,0.0,0.0,0.0,0.0,0.0,0.0,0.0,0.0,0.0,1.632807970046997,-0.2775518767998501,-0.3145249464168786,-0.1251853264630762,0.001596904592588544,-0.002053848234936595,0.0
456,5,-1.6592970496276394e-05,-1.941778464242816e-05,3.2786632800707594e-05,-0.0004964045365341008,-0.0016991753363981843,-0.0013922381913289428,0.0,0.0,0.0,0.0,0.0,0.0,0.0,0.0,0.0,-0.0006786169833503664,-0.0004058747726958245,-0.0,0.0,0.0,0.0,0.0,0.0,0.0,0.0,0.0,0.0,0.0,0.0,0.0,0.0,0.0,0.0,0.0,0.0,0.0,0.0,0.0,0.0,0.0,1.632807970046997,-0.2776505305363901,-0.3145315543947245,-0.1252597958923222,0.001596904592588544,-0.002053848234936595,0.0
462,5,-5.684937150363112e-06,4.101228569197701e-06,4.042428554384969e-05,0.0011104021687060595,-0.0035019516944885254,-0.0014734137803316116,0.0,0.0,0.0,0.0,0.0,0.0,0.0,0.0,0.0,-0.0006786169833503664,-0.0004058747726958245,-0.0,0.0,0.0,0.0,0.0,0.0,0.0,0.0,0.0,0.0,0.0,0.0,0.0,0.0,0.0,0.0,0.0,0.0,0.0,0.0,0.0,0.0,0.0,1.632807970046997,-0.27876995237714164,-0.31327896403676764,-0.12534226264640255,0.001596904592588544,-0.002053848234936595,0.0
467,5,-9.87248495221138e-06,3.067405486945063e-06,1.4959367945266422e-05,-5.8344874560134485e-05,-0.0012767218286171556,0.002466424833983183,0.0,0.0,0.0,0.0,0.0,0.0,0.0,0.0,0.0,0.004267154261469841,0.0010310928337275982,-0.0,0.0,0.0,0.0,0.0,0.0,0.0,0.0,0.0,0.0,0.0,0.0,0.0,0.0,0.0,0.0,0.0,0.0,0.0,0.0,0.0,0.0,0.0,1.6630576848983765,-0.2782636046769586,-0.31405937425248637,-0.12506695395533377,-0.004131929948925972,0.013153817504644394,0.0
472,5,-4.682308826886583e-06,1.7084350474760868e-05,2.331200084881857e-05,0.0005994832026772201,-0.0021927221678197384,-1.574599082232453e-05,0.0,0.0,0.0,0.0,0.0,0.0,0.0,0.0,0.0,0.004267154261469841,0.0010310928337275982,-0.0,0.0,0.0,0.0,0.0,0.0,0.0,0.0,0.0,0.0,0.0,0.0,0.0,0.0,0.0,0.0,0.0,0.0,0.0,0.0,0.0,0.0,0.0,1.6630576848983765,-0.2784765717549025,-0.3132922734554215,-0.1250733045856914,-0.004131929948925972,0.013153817504644394,0.0
477,5,-1.9501023871271173e-06,3.5394014048506506e-06,7.44805765862111e-06,0.00056765804765746,0.0007483050576411188,0.0018973747501149774,0.0,0.0,0.0,0.0,0.0,0.0,0.0,0.0,0.0,0.002720508025959134,0.0005590514047071338,-0.0,0.0,0.0,0.0,0.0,0.0,0.0,0.0,0.0,0.0,0.0,0.0,0.0,0.0,0.0,0.0,0.0,0.0,0.0,0.0,0.0,0.0,0.0,1.649074673652649,-0.2784281643693108,-0.3126027883747591,-0.12516187534295928,-0.002221479546278715,0.008315682411193848,0.0
482,5,1.3211641771704308e-06,1.3559354556491598e-05,2.869275886041578e-05,0.0006196151953190565,-0.0009030723595060408,-0.0017904142150655389,0.0,0.0,0.0,0.0,0.0,0.0,0.0,0.0,0.0,0.002720508025959134,0.0005590514047071338,-0.0,0.0,0.0,0.0,0.0,0.0,0.0,0.0,0.0,0.0,0.0,0.0,0.0,0.0,0.0,0.0,0.0,0.0,0.0,0.0,0.0,0.0,0.0,1.649074673652649,-0.27812362851898603,-0.3135053443524002,-0.1253528416799688,-0.002221479546278715,0.008315682411193848,0.0
487,5,-3.3626665754127316e-06,-7.034215286694234e-06,1.7653504983172752e-05,-0.00031421362655237317,0.0021099995356053114,0.0006085447384975851,0.0,0.0,0.0,0.0,0.0,0.0,0.0,0.0,0.0,0.0011403074022382498,0.000590660551097244,-0.0,0.0,0.0,0.0,0.0,0.0,0.0,0.0,0.0,0.0,0.0,0.0,0.0,0.0,0.0,0.0,0.0,0.0,0.0,0.0,0.0,0.0,0.0,1.6370657682418823,-0.2782446799705723,-0.31399650539555235,-0.12503376311259173,-0.0023299988824874163,0.0034601623192429543,0.0
492,5,2.521508122299565e-07,-1.9985040125902742e-05,7.003350674494868e-06,0.0003080926544498652,0.0023980988189578056,0.0015214363811537623,0.0,0.0,0.0,0.0,0.0,0.0,0.0,0.0,0.0,0.0011403074022382498,0.000590660551097244,-0.0,0.0,0.0,0.0,0.0,0.0,0.0,0.0,0.0,0.0,0.0,0.0,0.0,0.0,0.0,0.0,0.0,0.0,0.0,0.0,0.0,0.0,0.0,1.6370657682418823,-0.2779884031729631,-0.3142381583189559,-0.12527115825584767,-0.0023299988824874163,0.0034601623192429543,0.0
497,5,-8.206615348171908e-06,-3.562722122296691e-05,4.991137725340877e-09,-0.0008918148814700544,0.0028363014571368694,0.0014483777340501547,0.0,0.0,0.0,0.0,0.0,0.0,0.0,0.0,0.0,-0.0029755677096545696,0.00029062211979180574,-0.0,0.0,0.0,0.0,0.0,0.0,0.0,0.0,0.0,0.0,0.0,0.0,0.0,0.0,0.0,0.0,0.0,0.0,0.0,0.0,0.0,0.0,0.0,1.6506145000457764,-0.2782202634452479,-0.31360909442314955,-0.12513572035739706,-0.0011559107806533575,-0.009103803895413876,-0.0
502,5,5.680972208210733e-07,-2.8751008358085528e-05,1.9706058083102107e-05,0.0006962395273149014,0.00030937479459680617,-0.0017847769195213914,0.0,0.0,0.0,0.0,0.0,0.0,0.0,0.0,0.0,-0.0029755677096545696,0.00029062211979180574,-0.0,0.0,0.0,0.0,0.0,0.0,0.0,0.0,0.0,0.0,0.0,0.0,0.0,0.0,0.0,0.0,0.0,0.0,0.0,0.0,0.0,0.0,0.0,1.6506145000457764,-0.2779005375809435,-0.31399551054321106,-0.12523831732466476,-0.0011559107806533575,-0.009103803895413876,-0.0
507,5,-4.8774586502986494e-06,-1.9947978216805495e-05,2.3968545065145008e-05,-0.0003749708994291723,-0.0009326135623268783,-0.0012254092143848538,0.0,0.0,0.0,0.0,0.0,0.0,0.0,0.0,0.0,-0.0004357157158665359,0.0006638209451921284,-0.0,0.0,0.0,0.0,0.0,0.0,0.0,0.0,0.0,0.0,0.0,0.0,0.0,0.0,0.0,0.0,0.0,0.0,0.0,0.0,0.0,0.0,0.0,1.6336917877197266,-0.2782573398205616,-0.3138617768966687,-0.12507066008475176,-0.002613201504573226,-0.001319416449405253,0.0
512,5,3.4701588447205722e-06,-4.5580700316349976e-06,3.86086649086792e-05,0.0008517257519997656,-0.0022198345977813005,-0.0022469779942184687,0.0,0.0,0.0,0.0,0.0,0.0,0.0,0.0,0.0,-0.0004357157158665359,0.0006638209451921284,-0.0,0.0,0.0,0.0,0.0,0.0,0.0,0.0,0.0,0.0,0.0,0.0,0.0,0.0,0.0,0.0,0.0,0.0,0.0,0.0,0.0,0.0,0.0,1.6336917877197266,-0.27775288387042524,-0.31392613892832844,-0.12527476049192351,-0.002613201504573226,-0.001319416449405253,0.0
518,5,-5.713756308978191e-06,-2.010422804232803e-06,3.67440479749348e-05,-0.0007613794878125191,-0.0011936514638364315,-0.0006750374450348318,0.0,0.0,0.0,0.0,0.0,0.0,0.0,0.0,0.0,0.002713482128456235,0.000808000739198178,-0.0,0.0,0.0,0.0,0.0,0.0,0.0,0.0,0.0,0.0,0.0,0.0,0.0,0.0,0.0,0.0,0.0,0.0,0.0,0.0,0.0,0.0,0.0,1.6498608589172363,-0.27742474831933966,-0.3140552978053928,-0.1252030854023951,-0.0032122500706464052,0.008298161439597607,0.0
523,5,1.1590030908337212e-06,9.422224138688762e-06,4.2685136577347293e-05,0.0005201792810112238,-0.0018493782263249159,-0.0009829452028498054,0.0,0.0,0.0,0.0,0.0,0.0,0.0,0.0,0.0,0.002713482128456235,0.000808000739198178,-0.0,0.0,0.0,0.0,0.0,0.0,0.0,0.0,0.0,0.0,0.0,0.0,0.0,0.0,0.0,0.0,0.0,0.0,0.0,0.0,0.0,0.0,0.0,1.6498608589172363,-0.27774835377844387,-0.31385025243225445,-0.1251365808484059,-0.0032122500706464052,0.008298161439597607,0.0
528,5,-8.45067643240327e-06,6.503106305899564e-06,4.444465957931243e-05,-0.0009450897923670709,-0.0003894571273121983,-0.0006043211906217039,0.0,0.0,0.0,0.0,0.0,0.0,0.0,0.0,0.0,0.0022905380465090275,0.0004933971213176847,-0.0,0.0,0.0,0.0,0.0,0.0,0.0,0.0,0.0,0.0,0.0,0.0,0.0,0.0,0.0,0.0,0.0,0.0,0.0,0.0,0.0,0.0,0.0,1.645416021347046,-0.2778517760199431,-0.3142653805187872,-0.125280643149215,-0.001956244232133031,0.006985879503190517,0.0
533,5,-1.4852961612632498e-05,5.17133048560936e-06,4.140032979194075e-05,-0.001146310125477612,4.030234322272008e-06,0.00012359130778349936,0.0,0.0,0.0,0.0,0.0,0.0,0.0,0.0,0.0,0.0022905380465090275,0.0004933971213176847,-0.0,0.0,0.0,0.0,0.0,0.0,0.0,0.0,0.0,0.0,0.0,0.0,0.0,0.0,0.0,0.0,0.0,0.0,0.0,0.0,0.0,0.0,0.0,1.645416021347046,-0.27857535819260815,-0.31382279148998543,-0.12529027110953436,-0.001956244232133031,0.006985879503190517,0.0
538,5,-5.470176802191418e-06,-6.367847163346596e-06,2.4843186110956594e-05,0.0006674101459793746,0.0013863134663552046,0.002036293502897024,0.0,0.0,0.0,0.0,0.0,0.0,0.0,0.0,0.0,4.031890057376586e-06,-0.0011102635180577636,-0.0,0.0,0.0,0.0,0.0,0.0,0.0,0.0,0.0,0.0,0.0,0.0,0.0,0.0,0.0,0.0,0.0,0.0,0.0,0.0,0.0,0.0,0.0,1.6376338005065918,-0.27895690108902055,-0.31316545173383575,-0.12531043440137996,0.0043812161311507225,1.2238663657626603e-05,-0.0
543,5,-5.32761805516202e-06,-4.945512159792997e-07,1.4452218238147907e-05,0.00028407108038663864,-0.00015027016343083233,0.0020614336244761944,0.0,0.0,0.0,0.0,0.0,0.0,0.0,0.0,0.0,4.031890057376586e-06,-0.0011102635180577636,-0.0,0.0,0.0,0.0,0.0,0.0,0.0,0.0,0.0,0.0,0.0,0.0,0.0,0.0,0.0,0.0,0.0,0.0,0.0,0.0,0.0,0.0,0.0,1.6376338005065918,-0.27949253868181634,-0.31277136587984844,-0.12521163706380217,0.0043812161311507225,1.2238663657626603e-05,-0.0
548,5,-6.545627911691554e-06,-4.816994305656408e-07,2.0632736777770333e-05,-3.253276736359112e-05,-6.16502802586183e-05,8.291116682812572e-05,0.0,0.0,0.0,0.0,0.0,0.0,0.0,0.0,0.0,0.00018537121650297195,0.00026370445266366005,-0.0,0.0,0.0,0.0,0.0,0.0,0.0,0.0,0.0,0.0,0.0,0.0,0.0,0.0,0.0,0.0,0.0,0.0,0.0,0.0,0.0,0.0,0.0,1.6289399862289429,-0.27931508203352456,-0.31323539760272673,-0.12504982096298284,-0.001035081222653389,0.0005597008275799453,-0.0
553,5,-7.35353933123406e-06,-1.2877807421318721e-05,4.530343630904099e-06,-0.00010996244964189827,0.0014628729550167918,0.001965451752766967,0.0,0.0,0.0,0.0,0.0,0.0,0.0,0.0,0.0,0.00018537121650297195,0.00026370445266366005,-0.0,0.0,0.0,0.0,0.0,0.0,0.0,0.0,0.0,0.0,0.0,0.0,0.0,0.0,0.0,0.0,0.0,0.0,0.0,0.0,0.0,0.0,0.0,1.6289399862289429,-0.2782876933163429,-0.31386583157322107,-0.12517560722823443,-0.001035081222653389,0.0005597008275799453,-0.0
558,5,-1.0891321835515555e-06,-1.0821452633535955e-05,2.4023478545132093e-05,0.0007077438640408218,0.0003383865114301443,-0.001552995410747826,0.0,0.0,0.0,0.0,0.0,0.0,0.0,0.0,0.0,-0.0018273246241733432,-0.00011475154315121472,-0.0,0.0,0.0,0.0,0.0,0.0,0.0,0.0,0.0,0.0,0.0,0.0,0.0,0.0,0.0,0.0,0.0,0.0,0.0,0.0,0.0,0.0,0.0,1.6408724784851074,-0.2776143194679734,-0.3141673083264769,-0.1251343120353511,0.00045371646410785615,-0.0055577452294528484,-0.0
563,5,2.6640873329597525e-06,-2.5636940335971303e-05,2.3176000468083657e-05,0.0007334838737733662,0.0019132130546495318,-0.0005195009289309382,0.0,0.0,0.0,0.0,0.0,0.0,0.0,0.0,0.0,-0.0018273246241733432,-0.00011475154315121472,-0.0,0.0,0.0,0.0,0.0,0.0,0.0,0.0,0.0,0.0,0.0,0.0,0.0,0.0,0.0,0.0,0.0,0.0,0.0,0.0,0.0,0.0,0.0,1.6408724784851074,-0.27756358864652914,-0.3145830367478837,-0.1249821349694509,0.00045371646410785615,-0.0055577452294528484,-0.0
568,5,7.833458539607818e-07,-4.972129318048246e-06,3.910305895260535e-05,6.77045900374651e-05,-0.0017144919838756323,-0.0021190475672483444,0.0,0.0,0.0,0.0,0.0,0.0,0.0,0.0,0.0,-0.002396806376054883,0.0006965568172745407,-0.0,0.0,0.0,0.0,0.0,0.0,0.0,0.0,0.0,0.0,0.0,0.0,0.0,0.0,0.0,0.0,0.0,0.0,0.0,0.0,0.0,0.0,0.0,1.6469497680664062,-0.27683000002707814,-0.3140754060218832,-0.12509560347021847,-0.002764314878731966,-0.007316798437386751,0.0
573,5,-2.463575583533384e-06,-1.8346096112509258e-05,2.1871439457754605e-05,-0.0003625487443059683,0.0009190792334266007,0.0012201754143461585,0.0,0.0,0.0,0.0,0.0,0.0,0.0,0.0,0.0,-0.002396806376054883,0.0006965568172745407,-0.0,0.0,0.0,0.0,0.0,0.0,0.0,0.0,0.0,0.0,0.0,0.0,0.0,0.0,0.0,0.0,0.0,0.0,0.0,0.0,0.0,0.0,0.0,1.6469497680664062,-0.27758656120134056,-0.3139432215690829,-0.12505521276391937,-0.002764314878731966,-0.007316798437386751,0.0
578,5,4.844961495109601e-06,4.872421754953393e-07,7.034249392745551e-06,0.00024319984368048608,-0.0014281455660238862,0.001920446869917214,0.0,0.0,0.0,0.0,0.0,0.0,0.0,0.0,0.0,0.0017617163248360157,0.00023722817422822118,-0.0,0.0,0.0,0.0,0.0,0.0,0.0,0.0,0.0,0.0,0.0,0.0,0.0,0.0,0.0,0.0,0.0,0.0,0.0,0.0,0.0,0.0,0.0,1.6404991149902344,-0.2781608935257945,-0.31326177794729704,-0.12511704022864978,-0.0009377638925798237,0.005356981419026852,-0.0
584,5,-3.9419323911715765e-06,-1.4550660125678405e-05,6.718363238178426e-06,-0.000957147276494652,0.00123329006601125,0.0008060850668698549,0.0,0.0,0.0,0.0,0.0,0.0,0.0,0.0,0.0,0.0017617163248360157,0.00023722817422822118,-0.0,0.0,0.0,0.0,0.0,0.0,0.0,0.0,0.0,0.0,0.0,0.0,0.0,0.0,0.0,0.0,0.0,0.0,0.0,0.0,0.0,0.0,0.0,1.6404991149902344,-0.2779024979130572,-0.31363169503655086,-0.12489985086095631,-0.0009377638925798237,0.005356981419026852,-0.0
589,5,-8.637553037260659e-07,-4.982104655937292e-06,3.1009749363875017e-05,-1.3477683751261793e-05,-0.0006549106328748167,-0.002592532429844141,0.0,0.0,0.0,0.0,0.0,0.0,0.0,0.0,0.0,0.0008022248512133956,-1.4282570191426203e-05,-0.0,0.0,0.0,0.0,0.0,0.0,0.0,0.0,0.0,0.0,0.0,0.0,0.0,0.0,0.0,0.0,0.0,0.0,0.0,0.0,0.0,0.0,0.0,1.6323367357254028,-0.2772549438344139,-0.3146179243131893,-0.12528991868549713,5.617820715997368e-05,0.0024272489827126265,0.0
594,5,-8.932113814807963e-06,-1.53495875565568e-05,4.590022945194505e-05,-0.0009735940839163959,0.000982133555226028,-0.0028238706290721893,0.0,0.0,0.0,0.0,0.0,0.0,0.0,0.0,0.0,0.0008022248512133956,-1.4282570191426203e-05,-0.0,0.0,0.0,0.0,0.0,0.0,0.0,0.0,0.0,0.0,0.0,0.0,0.0,0.0,0.0,0.0,0.0,0.0,0.0,0.0,0.0,0.0,0.0,1.6323367357254028,-0.277376025673752,-0.3143322557616231,-0.12481474816247089,5.617820715997368e-05,0.0024272489827126265,0.0
599,5,-1.8209730967555515e-07,2.693697297218023e-06,7.131869642762467e-05,0.0006605643429793417,-0.0017723406199365854,-0.004179764539003372,0.0,0.0,0.0,0.0,0.0,0.0,0.0,0.0,0.0,0.0021841730922460556,0.0006244468968361616,-0.0,0.0,0.0,0.0,0.0,0.0,0.0,0.0,0.0,0.0,0.0,0.0,0.0,0.0,0.0,0.0,0.0,0.0,0.0,0.0,0.0,0.0,0.0,1.6450109481811523,-0.27840310225093623,-0.31387075655502594,-0.1253028953477911,-0.0024752276949584484,0.006659839302301407,0.0
604,5,-6.120067723713873e-07,-4.637614381408639e-07,4.685248859459534e-05,0.00021263660164549947,-0.0003300411917734891,0.0012640393106266856,0.0,0.0,0.0,0.0,0.0,0.0,0.0,0.0,0.0,0.0021841730922460556,0.0006244468968361616,-0.0,0.0,0.0,0.0,0.0,0.0,0.0,0.0,0.0,0.0,0.0,0.0,0.0,0.0,0.0,0.0,0.0,0.0,0.0,0.0,0.0,0.0,0.0,1.6450109481811523,-0.27877181341821383,-0.3148674274931063,-0.1251924737389676,-0.0024752276949584484,0.006659839302301407,0.0
609,5,2.1625271529046586e-06,-9.425679309060797e-06,3.2164956792257726e-05,0.00041799870086833835,0.0009434136445634067,0.0022681194823235273,0.0,0.0,0.0,0.0,0.0,0.0,0.0,0.0,0.0,-0.0011838915525004268,0.00040032147080637515,-0.0,0.0,0.0,0.0,0.0,0.0,0.0,0.0,0.0,0.0,0.0,0.0,0.0,0.0,0.0,0.0,0.0,0.0,0.0,0.0,0.0,0.0,0.0,1.6363909244537354,-0.27962931613184977,-0.3128634406884762,-0.12525286127781823,-0.0015785107389092445,-0.0035909335128962994,-0.0
614,5,1.0290767704645987e-06,-2.4090604711091146e-05,8.065767360676546e-06,3.1185441912384704e-05,0.002137156669050455,0.003799150697886944,0.0,0.0,0.0,0.0,0.0,0.0,0.0,0.0,0.0,-0.0011838915525004268,0.00040032147080637515,-0.0,0.0,0.0,0.0,0.0,0.0,0.0,0.0,0.0,0.0,0.0,0.0,0.0,0.0,0.0,0.0,0.0,0.0,0.0,0.0,0.0,0.0,0.0,1.6363909244537354,-0.2790013084336426,-0.31295959394184475,-0.12505520767579806,-0.0015785107389092445,-0.0035909335128962994,-0.0
619,5,1.0290767704645987e-06,-2.4090604711091146e-05,8.065767360676546e-06,3.1185441912384704e-05,0.002137156669050455,0.003799150697886944,0.0,0.0,0.0,0.0,0.0,0.0,0.0,0.0,0.0,-0.0026677267160266638,3.065754208364524e-05,-0.0,0.0,0.0,0.0,0.0,0.0,0.0,0.0,0.0,0.0,0.0,0.0,0.0,0.0,0.0,0.0,0.0,0.0,0.0,0.0,0.0,0.0,0.0,1.6478359699249268,-0.2790013084336426,-0.31295959394184475,-0.12505520767579806,-0.00012173112918389961,-0.008148223161697388,-0.0
624,5,2.8479680835857835e-08,-1.8877957700169645e-05,9.318694083049195e-08,0.0006123053608462214,-9.932665125234053e-05,0.000907061155885458,0.0,0.0,0.0,0.0,0.0,0.0,0.0,0.0,0.0,-0.0026677267160266638,3.065754208364524e-05,-0.0,0.0,0.0,0.0,0.0,0.0,0.0,0.0,0.0,0.0,0.0,0.0,0.0,0.0,0.0,0.0,0.0,0.0,0.0,0.0,0.0,0.0,0.0,1.6478359699249268,-0.2780526548997353,-0.3127592037462235,-0.12492234987870893,-0.00012173112918389961,-0.008148223161697388,-0.0
630,5,-5.000395503884647e-06,-1.6068668628577143e-05,1.9750890714931302e-05,-0.00035854289308190346,-0.0003768454189412296,-0.0019960999488830566,0.0,0.0,0.0,0.0,0.0,0.0,0.0,0.0,0.0,0.00043775374069809914,-0.000349352543707937,-0.0,0.0,0.0,0.0,0.0,0.0,0.0,0.0,0.0,0.0,0.0,0.0,0.0,0.0,0.0,0.0,0.0,0.0,0.0,0.0,0.0,0.0,0.0,1.630922555923462,-0.2773319253561759,-0.31356736194927964,-0.12514123152302045,0.0013729322236031294,0.001323340809904039,0.0
635,5,-3.840558292722562e-06,-1.8344708223594353e-05,2.6588133550831117e-05,-4.236705535731744e-06,0.0001223866711370647,-0.0016189091838896275,0.0,0.0,0.0,0.0,0.0,0.0,0.0,0.0,0.0,0.00043775374069809914,-0.000349352543707937,-0.0,0.0,0.0,0.0,0.0,0.0,0.0,0.0,0.0,0.0,0.0,0.0,0.0,0.0,0.0,0.0,0.0,0.0,0.0,0.0,0.0,0.0,0.0,1.630922555923462,-0.27788070715251073,-0.31410206242889455,-0.12496687268053135,0.0013729322236031294,0.001323340809904039,0.0
640,5,-3.3317530778731452e-06,-1.2441249964467715e-05,2.8916265364387073e-05,5.9361958847148344e-05,-0.0006594604346901178,-0.0009269394213333726,0.0,0.0,0.0,0.0,0.0,0.0,0.0,0.0,0.0,0.00043775374069809914,-0.000349352543707937,-0.0,0.0,0.0,0.0,0.0,0.0,0.0,0.0,0.0,0.0,0.0,0.0,0.0,0.0,0.0,0.0,0.0,0.0,0.0,0.0,0.0,0.0,0.0,1.630922555923462,-0.27738906784601,-0.31460761438707846,-0.12503872946626166,0.0013729322236031294,0.001323340809904039,0.0
645,5,-9.581242920830846e-06,-1.8434791854815558e-05,2.1497929992619902e-05,-0.0007261939463205636,0.000455440953373909,0.000519424385856837,0.0,0.0,0.0,0.0,0.0,0.0,0.0,0.0,0.0,0.0007942477241158485,5.1706858357647434e-05,-0.0,0.0,0.0,0.0,0.0,0.0,0.0,0.0,0.0,0.0,0.0,0.0,0.0,0.0,0.0,0.0,0.0,0.0,0.0,0.0,0.0,0.0,0.0,1.632292628288269,-0.27728891338109946,-0.3148561587311634,-0.12509013487047996,-0.00020337516616564244,0.002403048099949956,0.0
650,5,-1.3907938409829512e-06,6.6310826696280856e-06,5.292598143569194e-05,0.0006923762848600745,-0.002825728617608547,-0.0035635961685329676,0.0,0.0,0.0,0.0,0.0,0.0,0.0,0.0,0.0,0.0007942477241158485,5.1706858357647434e-05,-0.0,0.0,0.0,0.0,0.0,0.0,0.0,0.0,0.0,0.0,0.0,0.0,0.0,0.0,0.0,0.0,0.0,0.0,0.0,0.0,0.0,0.0,0.0,1.632292628288269,-0.27741762305592216,-0.31410829296553044,-0.12535633410510982,-0.00020337516616564244,0.002403048099949956,0.0
655,5,-6.095128810557071e-07,-1.1145510143251158e-05,4.815770444110967e-05,0.0003707042196765542,0.0010028997203335166,-0.0008532453211955726,0.0,0.0,0.0,0.0,0.0,0.0,0.0,0.0,0.0,0.003464882029220462,0.0006487708888016641,-0.0,0.0,0.0,0.0,0.0,0.0,0.0,0.0,0.0,0.0,0.0,0.0,0.0,0.0,0.0,0.0,0.0,0.0,0.0,0.0,0.0,0.0,0.0,1.6553820371627808,-0.2774605840099449,-0.31459751396723384,-0.1251044493738832,-0.002587848575785756,0.010631478391587734,0.0
660,5,-4.320221705711447e-06,-1.129272368416423e-05,3.907674545189366e-05,-0.00029700336745008826,0.00041882554069161415,0.0007484170491807163,0.0,0.0,0.0,0.0,0.0,0.0,0.0,0.0,0.0,0.003464882029220462,0.0006487708888016641,-0.0,0.0,0.0,0.0,0.0,0.0,0.0,0.0,0.0,0.0,0.0,0.0,0.0,0.0,0.0,0.0,0.0,0.0,0.0,0.0,0.0,0.0,0.0,1.6553820371627808,-0.2771146883708762,-0.31495713624170546,-0.12500770000538108,-0.002587848575785756,0.010631478391587734,0.0
665,5,-2.6481455279281363e-05,-1.2516315109678544e-05,3.447463677730411e-05,-0.0027781494427472353,0.00031436115386895835,0.0008516197558492422,0.0,0.0,0.0,0.0,0.0,0.0,0.0,0.0,0.0,-0.000540516572073102,-0.0002896470541600138,-0.0,0.0,0.0,0.0,0.0,0.0,0.0,0.0,0.0,0.0,0.0,0.0,0.0,0.0,0.0,0.0,0.0,0.0,0.0,0.0,0.0,0.0,0.0,1.6311527490615845,-0.2780010864565435,-0.3147961322451252,-0.12505903558488726,0.0011384541867300868,-0.001634226064197719,-0.0
670,5,-2.2928261387278326e-05,-7.98787732492201e-06,4.059098500874825e-05,-0.0006848765187896788,-0.00041766802314668894,-0.0003933139378204942,0.0,0.0,0.0,0.0,0.0,0.0,0.0,0.0,0.0,-0.000540516572073102,-0.0002896470541600138,-0.0,0.0,0.0,0.0,0.0,0.0,0.0,0.0,0.0,0.0,0.0,0.0,0.0,0.0,0.0,0.0,0.0,0.0,0.0,0.0,0.0,0.0,0.0,1.6311527490615845,-0.2786243271873452,-0.3133214842252947,-0.12485328006040493,0.0011384541867300868,-0.001634226064197719,-0.0
676,5,-1.2408984730427619e-05,-1.4266523749029147e-06,2.8886734071420506e-05,0.0009883627062663436,-0.000954414252191782,0.0012471844675019383,0.0,0.0,0.0,0.0,0.0,0.0,0.0,0.0,0.0,0.0005020697135478258,-0.0006845148745924234,-0.0,0.0,0.0,0.0,0.0,0.0,0.0,0.0,0.0,0.0,0.0,0.0,0.0,0.0,0.0,0.0,0.0,0.0,0.0,0.0,0.0,0.0,0.0,1.634145975112915,-0.2785273647422713,-0.31419773928972067,-0.1250241736087884,0.0026954144705086946,0.0015207695541903377,0.0
681,5,-9.634537491365336e-06,1.1784890375565737e-05,3.959807145292871e-05,0.0007282786536961794,-0.001967150717973709,-0.0007864865474402905,0.0,0.0,0.0,0.0,0.0,0.0,0.0,0.0,0.0,0.0005020697135478258,-0.0006845148745924234,-0.0,0.0,0.0,0.0,0.0,0.0,0.0,0.0,0.0,0.0,0.0,0.0,0.0,0.0,0.0,0.0,0.0,0.0,0.0,0.0,0.0,0.0,0.0,1.634145975112915,-0.2794919220916618,-0.31281693506792096,-0.1253487269122105,0.0026954144705086946,0.0015207695541903377,0.0
686,5,-9.628334737499245e-06,2.0413135644048452e-05,3.714628837769851e-05,0.0002920558035839349,-0.0018222498474642634,-2.038094862655271e-05,0.0,0.0,0.0,0.0,0.0,0.0,0.0,0.0,0.0,0.002436863724142313,0.0006744589773006737,-0.0,0.0,0.0,0.0,0.0,0.0,0.0,0.0,0.0,0.0,0.0,0.0,0.0,0.0,0.0,0.0,0.0,0.0,0.0,0.0,0.0,0.0,0.0,1.6471810340881348,-0.27954850692313504,-0.31171491229269593,-0.12549414201386205,-0.0026769943069666624,0.007440126966685057,0.0
691,5,-1.2747380424116272e-05,1.4063169146538712e-05,3.4240867535118014e-05,-0.00025746316532604396,3.309603562229313e-05,0.00034049819805659354,0.0,0.0,0.0,0.0,0.0,0.0,0.0,0.0,0.0,0.002436863724142313,0.0006744589773006737,-0.0,0.0,0.0,0.0,0.0,0.0,0.0,0.0,0.0,0.0,0.0,0.0,0.0,0.0,0.0,0.0,0.0,0.0,0.0,0.0,0.0,0.0,0.0,1.6471810340881348,-0.27896803941091214,-0.3127502727218675,-0.1249731555734504,-0.0026769943069666624,0.007440126966685057,0.0
696,5,-1.7998907424043864e-05,1.9111423625872703e-06,4.0261100366478786e-05,-0.0007331684464588761,0.00147148163523525,-0.000586228386964649,0.0,0.0,0.0,0.0,0.0,0.0,0.0,0.0,0.0,-1.5971212633303367e-05,-0.0002641803293954581,-0.0,0.0,0.0,0.0,0.0,0.0,0.0,0.0,0.0,0.0,0.0,0.0,0.0,0.0,0.0,0.0,0.0,0.0,0.0,0.0,0.0,0.0,0.0,1.6285628080368042,-0.2776353539358064,-0.3137965400500268,-0.1251277275908159,0.001036709058098495,-4.82115319755394e-05,-0.0
701,5,-1.967460229934659e-05,-1.2419843187672086e-05,1.743154825817328e-05,-0.0004943507956340909,0.002308310940861702,0.002505054697394371,0.0,0.0,0.0,0.0,0.0,0.0,0.0,0.0,0.0,-1.5971212633303367e-05,-0.0002641803293954581,-0.0,0.0,0.0,0.0,0.0,0.0,0.0,0.0,0.0,0.0,0.0,0.0,0.0,0.0,0.0,0.0,0.0,0.0,0.0,0.0,0.0,0.0,0.0,1.6285628080368042,-0.2774266797001803,-0.31471118349991073,-0.12497210496598711,0.001036709058098495,-4.82115319755394e-05,-0.0
706,5,-1.4379132153408136e-05,-2.0534655050141737e-05,-1.3422324627754278e-05,0.0004377160803414881,0.001897101872600615,0.004704486578702927,0.0,0.0,0.0,0.0,0.0,0.0,0.0,0.0,0.0,-0.0028531616553664207,-0.0004937850753776729,-0.0,0.0,0.0,0.0,0.0,0.0,0.0,0.0,0.0,0.0,0.0,0.0,0.0,0.0,0.0,0.0,0.0,0.0,0.0,0.0,0.0,0.0,0.0,1.6499851942062378,-0.27794869647668136,-0.3146363366106938,-0.12512275152352098,0.0019632161129266024,-0.008725973777472973,-0.0
711,5,-3.353724196131225e-07,-1.8365439245826565e-05,1.7464942629885627e-06,0.0018603375647217035,0.0004985347623005509,6.153638241812587e-05,0.0,0.0,0.0,0.0,0.0,0.0,0.0,0.0,0.0,-0.0028531616553664207,-0.0004937850753776729,-0.0,0.0,0.0,0.0,0.0,0.0,0.0,0.0,0.0,0.0,0.0,0.0,0.0,0.0,0.0,0.0,0.0,0.0,0.0,0.0,0.0,0.0,0.0,1.6499851942062378,-0.27739451786144986,-0.3145335563659434,-0.12503977358022353,0.0019632161129266024,-0.008725973777472973,-0.0
716,5,-8.583198905398604e-06,-1.751570925989654e-05,7.723201633780263e-06,-0.00024560411111451685,9.74462236627005e-05,-0.0006925903726369143,0.0,0.0,0.0,0.0,0.0,0.0,0.0,0.0,0.0,-0.0006466182530857623,0.0017587848706170917,-0.0,0.0,0.0,0.0,0.0,0.0,0.0,0.0,0.0,0.0,0.0,0.0,0.0,0.0,0.0,0.0,0.0,0.0,0.0,0.0,0.0,0.0,0.0,1.6453931331634521,-0.2772894344487402,-0.3146970305797253,-0.1251783528141253,-0.006973229814320803,-0.0019720871932804585,-0.0
721,5,-9.942989436240168e-07,-1.529364635644015e-05,3.303995617898181e-05,0.0008124263258650899,-0.0002276690793223679,-0.0033150468952953815,0.0,0.0,0.0,0.0,0.0,0.0,0.0,0.0,0.0,-0.0006466182530857623,0.0017587848706170917,-0.0,0.0,0.0,0.0,0.0,0.0,0.0,0.0,0.0,0.0,0.0,0.0,0.0,0.0,0.0,0.0,0.0,0.0,0.0,0.0,0.0,0.0,0.0,1.6453931331634521,-0.27776651149625653,-0.3141586992814725,-0.12508936020877537,-0.006973229814320803,-0.0019720871932804585,-0.0
726,5,-1.397628784616245e-05,-8.496264854329638e-06,6.13095544395037e-05,-0.0012328681768849492,-0.0009067532955668867,-0.004718370735645294,0.0,0.0,0.0,0.0,0.0,0.0,0.0,0.0,0.0,0.0011017369106411934,-0.0011886577121913433,-0.0,0.0,0.0,0.0,0.0,0.0,0.0,0.0,0.0,0.0,0.0,0.0,0.0,0.0,0.0,0.0,0.0,0.0,0.0,0.0,0.0,0.0,0.0,1.6414071321487427,-0.27750598397781373,-0.31414517036169376,-0.12497891589964703,0.0047013727016747,0.00335198943503201,0.0
731,5,-1.1634524526016321e-05,-1.8865748643293045e-05,6.0452905017882586e-05,-0.00021213565196376294,0.0008816366316750646,-0.001784549793228507,0.0,0.0,0.0,0.0,0.0,0.0,0.0,0.0,0.0,0.0011017369106411934,-0.0011886577121913433,-0.0,0.0,0.0,0.0,0.0,0.0,0.0,0.0,0.0,0.0,0.0,0.0,0.0,0.0,0.0,0.0,0.0,0.0,0.0,0.0,0.0,0.0,0.0,1.6414071321487427,-0.2773911390970081,-0.3147844463537542,-0.1250321032607453,0.0047013727016747,0.00335198943503201,0.0
