timestamp,dt,pos_x,pos_y,pos_z,vel_x,vel_y,vel_z,roll,pitch,yaw,agv_x,agv_y,agv_z,x_ref,y_ref,z_ref,roll_ref,pitch_ref,yaw_ref,x_vel_ref,y_vel_ref,z_vel_ref,x_torque,y_torque,z_torque,w0,w1,w2,w3,u0,u1,u2,u3,m0req,m1req,m2req,m3req,thrust0,thrust1,thrust2,thrust3,thrust_ref,roll_vicon,pitch_vicon,yaw_vicon,acc_x,acc_y,acc_z
5,5,0.0,0.0,0.0,0.0015057091368362308,0.0005293606081977487,-0.001069979858584702,0.10916028171777725,0.0003739559615496546,0.003216957440599799,-0.001410114113241434,0.00726426113396883,-0.008034949190914631,0.0,0.0,0.0,-0.0006522390758618712,0.0014270958490669727,-0.0,0.0,0.0,0.0,-0.032887689769268036,0.0005363739910535514,0.0002507628523744643,1495.0,1495.0,1495.0,1495.0,0.0,0.0,0.0,0.0,0.0,0.0,0.0,0.0,1495.0,1495.0,1495.0,1495.0,1.6419788599014282,0.03360331849721003,0.10228351587419729,0.01790415068548323,-0.0056464094668626785,-0.001985102193430066,0.0
44,39,0.0,0.0,0.0,-0.0015149450628086925,0.0003200724895577878,-0.0032006229739636183,0.10916028171777725,0.0003739559615496546,0.003216957440599799,-0.001410114113241434,0.00726426113396883,-0.008034949190914631,0.0,0.0,0.0,-0.0006522390758618712,0.0014270958490669727,-0.0,0.0,0.0,0.0,-0.032887689769268036,0.0005363739910535514,0.0002507628523744643,1495.0,1495.0,1495.0,1495.0,0.0,0.0,0.0,0.0,0.0,0.0,0.0,0.0,1495.0,1495.0,1495.0,1495.0,1.6419788599014282,0.03366491445391958,0.10237986615051259,0.017833107158674793,-0.0056464094668626785,-0.001985102193430066,0.0
49,5,0.0,0.0,0.0,-0.0013034794246777892,0.0021858655381947756,-0.001891578547656536,0.1091822013258934,0.0003942733455915004,0.0032386037055402994,0.0027947258204221725,-0.008391303941607475,0.000989877968095243,0.0,0.0,0.0,-0.00039448600728064775,-0.0014362727524712682,-0.0,0.0,0.0,0.0,-0.032919447869062424,0.0002198405854869634,0.0002675355353858322,1495.0,1495.0,1495.0,1495.0,0.0,0.0,0.0,0.0,0.0,0.0,0.0,0.0,1495.0,1495.0,1495.0,1495.0,1.6414947509765625,0.03358042730801698,0.10224278066034476,0.01791369170327689,0.005681043956428766,-0.0012002718867734075,0.0
54,5,0.0,0.0,0.0,-0.0006207674741744995,4.37014750787057e-05,0.0010750775691121817,0.1091822013258934,0.0003942733455915004,0.0032386037055402994,0.0027947258204221725,-0.008391303941607475,0.000989877968095243,0.0,0.0,0.0,-5.417228749138303e-05,-0.0005919250543229282,-0.0,0.0,0.0,0.0,-0.032919447869062424,0.0002198405854869634,0.0002675355353858322,1495.0,1495.0,1495.0,1495.0,0.0,0.0,0.0,0.0,0.0,0.0,0.0,0.0,1495.0,1495.0,1495.0,1495.0,1.6320806741714478,0.033586894537829474,0.10213237240108694,0.018107158863982523,0.002327878028154373,-0.00016388052608817816,0.0
59,5,0.0,0.0,0.0,0.00016711569332983345,-0.00046679185470566154,0.0024014313239604235,0.1091822013258934,0.0003942733455915004,0.0032386037055402994,0.0027947258204221725,-0.008391303941607475,0.000989877968095243,0.0,0.0,0.0,-5.417228749138303e-05,-0.0005919250543229282,-0.0,0.0,0.0,0.0,-0.032919447869062424,0.0002198405854869634,0.0002675355353858322,1495.0,1495.0,1495.0,1495.0,0.0,0.0,0.0,0.0,0.0,0.0,0.0,0.0,1495.0,1495.0,1495.0,1495.0,1.6320806741714478,0.033758206185165014,0.10230439730917104,0.017792369398086674,0.002327878028154373,-0.00016388052608817816,0.0
65,5,0.0,0.0,0.0,-0.0008238028967753053,-0.0007109809084795415,0.00244527799077332,0.10920338332653046,0.0004385565116535872,0.0032184498850256205,0.0022564923856407404,-0.0011079213581979275,0.002905256813392043,0.0,0.0,0.0,-5.417228749138303e-05,-0.0005919250543229282,-0.0,0.0,0.0,0.0,-0.03302409127354622,0.00025771913351491094,0.00024781524552963674,15678.0,15534.0,11325.0,10910.0,0.5577405691146851,0.5469446182250977,0.2791975736618042,0.2576119303703308,0.0,0.0,0.0,0.0,1495.0,1495.0,1495.0,1495.0,1.6320806741714478,0.0330731559313857,0.1020642291302522,0.01769738764222752,0.002327878028154373,-0.00016388052608817816,0.0
70,5,0.0,0.0,0.0,-0.0008238028967753053,-0.0007109809084795415,0.00244527799077332,0.10920338332653046,0.0004385565116535872,0.0032184498850256205,0.0022564923856407404,-0.0011079213581979275,0.002905256813392043,0.0,0.0,0.0,0.0008787796250544488,-0.0007832530536688864,-0.0,0.0,0.0,0.0,-0.03302409127354622,0.00025771913351491094,0.00024781524552963674,15678.0,15534.0,11325.0,10910.0,0.5577405691146851,0.5469446182250977,0.2791975736618042,0.2576119303703308,0.0,0.0,0.0,0.0,1495.0,1495.0,1495.0,1495.0,1.6368193626403809,0.0330731559313857,0.1020642291302522,0.01769738764222752,0.0030892607755959034,0.0026661783922463655,0.0
75,5,1.1835314580821432e-05,1.3364910955715459e-05,9.740479981701355e-06,0.0006743341218680143,-0.0007702099974267185,-6.847060285508633e-05,0.1092175617814064,0.0004309086943976581,0.003240275662392378,-0.0015587103553116322,0.0017383709782734513,-0.00011550319322850555,0.0,0.0,0.0,0.0008787796250544488,-0.0007832530536688864,-0.0,0.0,0.0,0.0,-0.03292500600218773,-0.0006135929725132883,0.0003718442458193749,15685.0,15523.0,11334.0,10905.0,0.5582289099693298,0.5461516976356506,0.2797122001647949,0.2574019432067871,0.0,0.0,0.0,0.0,15706.0,15501.0,11371.0,10867.0,1.6368193626403809,0.033340554431557985,0.1023137666796239,0.01768018662013024,0.0030892607755959034,0.0026661783922463655,0.0
80,5,2.6497560611460358e-05,4.208086011203704e-06,5.777229489467572e-06,0.002029203111305833,0.0007907350081950426,0.0004482018412090838,0.10921001434326172,0.0004500125942286104,0.0032459471840411425,-0.002544621005654335,-0.004276630934327841,-0.0015573775162920356,0.0,0.0,0.0,0.0009764631395228207,0.0006578125758096576,-0.0,0.0,0.0,0.0,-0.03280720114707947,-0.0004431054985616356,0.000368960463674739,15648.0,15484.0,11278.0,10889.0,0.5554997324943542,0.5432812571525574,0.2767125070095062,0.2565871775150299,0.0,0.0,0.0,0.0,15646.0,15484.0,11253.0,10918.0,1.636430263519287,0.03231819142304655,0.10178672724612269,0.017655132279760604,-0.002593888668343425,0.0029618411790579557,0.0
85,5,4.0006241761147976e-05,2.28553517445107e-06,3.0871364288032055e-05,0.002432722831144929,0.0005470001487992704,-0.002832015510648489,0.10921001434326172,0.0004500125942286104,0.0032459471840411425,-0.002544621005654335,-0.004276630934327841,-0.0015573775162920356,0.0,0.0,0.0,0.0009764631395228207,0.0006578125758096576,-0.0,0.0,0.0,0.0,-0.03280720114707947,-0.0004431054985616356,0.000368960463674739,15648.0,15484.0,11278.0,10889.0,0.5554997324943542,0.5432812571525574,0.2767125070095062,0.2565871775150299,0.0,0.0,0.0,0.0,15646.0,15484.0,11253.0,10918.0,1.636430263519287,0.03316332648229006,0.10261012920636568,0.017694932524516656,-0.002593888668343425,0.0029618411790579557,0.0
90,5,2.1143541744095273e-05,9.272090210288297e-06,1.5346466170740314e-05,-0.0012904346222057939,-0.0006195864989422262,0.0007301815785467625,0.10921001434326172,0.0004500125942286104,0.0032459471840411425,-0.002544621005654335,-0.004276630934327841,-0.0015573775162920356,0.0,0.0,0.0,-0.0006659012287855148,0.002347536850720644,-0.0,0.0,0.0,0.0,-0.03280720114707947,-0.0004431054985616356,0.000368960463674739,15648.0,15484.0,11278.0,10889.0,0.5554997324943542,0.5432812571525574,0.2767125070095062,0.2565871775150299,0.0,0.0,0.0,0.0,15646.0,15484.0,11253.0,10918.0,1.6516541242599487,0.03333327309940757,0.10244869827773596,0.017969412033223536,-0.009342926554381847,-0.0020386253017932177,0.0
95,5,3.103937706327997e-05,-1.1604104656726122e-05,1.2957768376509193e-05,0.0006713263574056327,0.002257308689877391,0.0005787164554931223,0.10918211936950684,0.0004861385968979448,0.003232832532376051,-0.0002937899262178689,-0.00214041443541646,-0.00022840910241939127,0.0,0.0,0.0,-0.0006659012287855148,0.002347536850720644,-0.0,0.0,0.0,0.0,-0.03254879638552666,-0.0005038149538449943,0.0003458551364019513,15653.0,15483.0,11331.0,10922.0,0.5558757781982422,0.5431687831878662,0.2795371115207672,0.25823774933815,0.0,0.0,0.0,0.0,15639.0,15494.0,11221.0,11032.0,1.6516541242599487,0.03340650297920478,0.1027734693462778,0.017832142836772258,-0.009342926554381847,-0.0020386253017932177,0.0
100,5,1.7696464055916294e-05,-4.750223070004722e-06,2.9868120691389777e-05,-0.0013326189946383238,8.045767026487738e-05,-0.001797755598090589,0.10918211936950684,0.0004861385968979448,0.003232832532376051,-0.0002937899262178689,-0.00214041443541646,-0.00022840910241939127,0.0,0.0,0.0,-0.0027886710595339537,0.0006762042175978422,-0.0,0.0,0.0,0.0,-0.03254879638552666,-0.0005038149538449943,0.0003458551364019513,15653.0,15483.0,11331.0,10922.0,0.5558757781982422,0.5431687831878662,0.2795371115207672,0.25823774933815,0.0,0.0,0.0,0.0,15639.0,15494.0,11221.0,11032.0,1.6499805450439453,0.03381317056781417,0.1027641170019741,0.017690008525355155,-0.0026884805411100388,-0.008528715930879116,-0.0
105,5,9.996080734708812e-06,-5.782412699772976e-06,2.872407821996603e-05,-0.0014570936327800155,0.00015604586224071681,-0.0005818172357976437,0.10919945687055588,0.00047808888484723866,0.0032074113842099905,-0.0003403494192752987,0.0035516470670700073,-0.0013450603000819683,0.0,0.0,0.0,-0.0027886710595339537,0.0006762042175978422,-0.0,0.0,0.0,0.0,-0.03257796913385391,7.069179264362901e-05,0.0003229661379009485,15679.0,15455.0,11265.0,10984.0,0.557797908782959,0.5411554574966431,0.2760476768016815,0.26142922043800354,0.0,0.0,0.0,0.0,15764.0,15526.0,11223.0,11098.0,1.6499805450439453,0.033468786207201104,0.10256355935139483,0.017609568977866613,-0.0026884805411100388,-0.008528715930879116,-0.0
111,5,4.248857294442132e-06,-4.3201757193855883e-07,4.191856714896858e-05,-0.0012725042179226875,-0.0005796290934085846,-0.001816065632738173,0.10918108373880386,0.00046003054012544453,0.0031940750777721405,-0.0011278375750407577,-0.0005053172935731709,0.0010665602749213576,0.0,0.0,0.0,-0.00020290084648877382,-0.001368262222968042,-0.0,0.0,0.0,0.0,-0.03302769735455513,0.000556591316126287,0.0003262982063461095,15792.0,15499.0,11270.0,11048.0,0.5662456750869751,0.5443862676620483,0.27632826566696167,0.2646939158439636,0.0,0.0,0.0,0.0,15794.0,15500.0,11273.0,11041.0,1.6405128240585327,0.033412305133180234,0.10209950776545205,0.01782015529465788,0.005408797413110733,-0.000616981356870383,0.0
116,5,-4.229464138916228e-07,7.362550604739226e-06,2.7849584512296133e-05,-0.0010696181561797857,-0.001167199807241559,0.0009618517360650003,0.10918108373880386,0.00046003054012544453,0.0031940750777721405,-0.0011278375750407577,-0.0005053172935731709,0.0010665602749213576,0.0,0.0,0.0,-0.00020290084648877382,-0.001368262222968042,-0.0,0.0,0.0,0.0,-0.03302769735455513,0.000556591316126287,0.0003262982063461095,15792.0,15499.0,11270.0,11048.0,0.5662456750869751,0.5443862676620483,0.27632826566696167,0.2646939158439636,0.0,0.0,0.0,0.0,15794.0,15500.0,11273.0,11041.0,1.6405128240585327,0.03321850114623789,0.10208795788493329,0.01771353156665913,0.005408797413110733,-0.000616981356870383,0.0
121,5,-4.684165105572902e-06,4.642096428142395e-06,2.9112685297150165e-05,-0.0009391935309395194,-0.00014042542898096144,0.00023316865554079413,0.1091708317399025,0.00045100471470505,0.0031906920485198498,-0.002672841539606452,-0.0011028398294001818,-0.00013684199075214565,0.0,0.0,0.0,0.001451489981263876,-0.0010143081890419126,-0.0,0.0,0.0,0.0,-0.03368411213159561,4.950480433763005e-05,0.0003231055452488363,15790.0,15564.0,11252.0,10943.0,0.566100001335144,0.5492384433746338,0.27534064650535583,0.25930139422416687,0.0,0.0,0.0,0.0,15771.0,15586.0,11221.0,10970.0,1.6419333219528198,0.0330057298295886,0.10169075172928842,0.0178338881083715,0.004013070836663246,0.004417513031512499,-0.0
126,5,1.2527979379228782e-05,-1.6757909406805993e-06,4.286460750790866e-07,0.0016897800378501415,0.00070197629975155,0.0035353521816432476,0.1091708317399025,0.00045100471470505,0.0031906920485198498,-0.002672841539606452,-0.0011028398294001818,-0.00013684199075214565,0.0,0.0,0.0,0.001451489981263876,-0.0010143081890419126,-0.0,0.0,0.0,0.0,-0.03368411213159561,4.950480433763005e-05,0.0003231055452488363,15790.0,15564.0,11252.0,10943.0,0.566100001335144,0.5492384433746338,0.27534064650535583,0.25930139422416687,0.0,0.0,0.0,0.0,15771.0,15586.0,11221.0,10970.0,1.6419333219528198,0.032615808463784146,0.10226906947961925,0.017606330323996076,0.004013070836663246,0.004417513031512499,-0.0
131,5,9.281337042921223e-06,-8.968385373009369e-06,1.0482339348527603e-05,0.00028631489840336144,0.0011559018166735768,0.00020769763796124607,0.1091708317399025,0.00045100471470505,0.0031906920485198498,-0.002672841539606452,-0.0011028398294001818,-0.00013684199075214565,0.0,0.0,0.0,0.001451489981263876,-0.0010143081890419126,-0.0,0.0,0.0,0.0,-0.03368411213159561,4.950480433763005e-05,0.0003231055452488363,15790.0,15564.0,11252.0,10943.0,0.566100001335144,0.5492384433746338,0.27534064650535583,0.25930139422416687,0.0,0.0,0.0,0.0,15771.0,15586.0,11221.0,10970.0,1.6419333219528198,0.033019155547823226,0.10225471958393735,0.017621096783977393,0.004013070836663246,0.004417513031512499,-0.0
136,5,1.5841553249629214e-05,8.006521966308355e-06,1.3990596926305443e-05,0.000901751802302897,-0.0015746280550956726,-0.0003379117988515645,0.10918086022138596,0.0004241605056449771,0.0032057242933660746,-0.00012756200158037245,0.0035251397639513016,0.001745007699355483,0.0,0.0,0.0,-0.001443903660401702,0.0002850444579962641,-0.0,0.0,0.0,0.0,-0.032478492707014084,-0.00044141264515928924,0.00034333852818235755,15714.0,15496.0,11346.0,10870.0,0.560403048992157,0.5441859364509583,0.2803308665752411,0.2555929124355316,0.0,0.0,0.0,0.0,15673.0,15536.0,11286.0,10933.0,1.6380269527435303,0.03323127201304319,0.10234485180067467,0.017935679334172977,-0.0011250843526795506,-0.004383969586342573,-0.0
141,5,2.7588404918788e-05,6.407467935787281e-06,2.051694309557206e-06,0.0006230196449905634,-0.0006773779750801623,0.0011443401454016566,0.10918086022138596,0.0004241605056449771,0.0032057242933660746,-0.00012756200158037245,0.0035251397639513016,0.001745007699355483,0.0,0.0,0.0,-0.001443903660401702,0.0002850444579962641,-0.0,0.0,0.0,0.0,-0.032478492707014084,-0.00044141264515928924,0.00034333852818235755,15714.0,15496.0,11346.0,10870.0,0.560403048992157,0.5441859364509583,0.2803308665752411,0.2555929124355316,0.0,0.0,0.0,0.0,15673.0,15536.0,11286.0,10933.0,1.6380269527435303,0.03338241958987549,0.10262834984402622,0.017913605014492014,-0.0011250843526795506,-0.004383969586342573,-0.0
146,5,3.2299529266310856e-05,-5.189755256651551e-07,6.782433047192171e-06,0.0008145428146235645,0.0005602220189757645,-0.00010995258344337344,0.10917915403842926,0.00040467464714311063,0.0032056753989309072,0.0005146152107045054,-0.0028124144300818443,0.0012739311205223203,0.0,0.0,0.0,0.0008495679358020425,0.0006314613274298608,-0.0,0.0,0.0,0.0,-0.032478492707014084,-0.00044141264515928924,0.00034333852818235755,15672.0,15491.0,11366.0,10946.0,0.5572413206100464,0.5438114404678345,0.2814253866672516,0.2594551742076874,0.0,0.0,0.0,0.0,15673.0,15536.0,11286.0,10933.0,1.635465383529663,0.03348766625761054,0.10279884149104736,0.017853545868755354,-0.002488512545824051,0.002575419144704938,-0.0
151,5,2.1728452338720672e-05,8.942558338276285e-07,2.8983613447053358e-05,-0.0009427121258340776,5.450104072224349e-05,-0.0027081225998699665,0.10917915403842926,0.00040467464714311063,0.0032056753989309072,0.0005146152107045054,-0.0028124144300818443,0.0012739311205223203,0.0,0.0,0.0,0.0008495679358020425,0.0006314613274298608,-0.0,0.0,0.0,0.0,-0.032478492707014084,-0.00044141264515928924,0.00034333852818235755,15672.0,15491.0,11366.0,10946.0,0.5572413206100464,0.5438114404678345,0.2814253866672516,0.2594551742076874,0.0,0.0,0.0,0.0,15673.0,15536.0,11286.0,10933.0,1.635465383529663,0.03327600742490618,0.10256135345479801,0.017783216934447465,-0.002488512545824051,0.002575419144704938,-0.0
156,5,8.099237675196491e-06,-2.0395991668920033e-06,3.465387999312952e-05,-0.0020125906448811293,0.0003738630039151758,-0.001763680949807167,0.1091967225074768,0.00042203100747428834,0.00317295640707016,0.0008477636147290468,-0.003250968409702182,-0.004165436141192913,0.0,0.0,0.0,-6.581006164196879e-05,-0.0008668226073496044,-0.0,0.0,0.0,0.0,-0.03272559493780136,-0.00010346593626309186,0.00037776041426695883,15678.0,15468.0,11269.0,10944.0,0.5576999187469482,0.542110800743103,0.2762649655342102,0.2593896985054016,0.0,0.0,0.0,0.0,15716.0,15527.0,11220.0,10904.0,1.6350303888320923,0.033212943020242185,0.1022186110035711,0.01779742450060076,0.0034151352010667324,-0.00019944662926718593,0.0
161,5,1.5259153087754385e-06,2.1816279058839427e-06,5.4033982451073825e-05,-0.0015938349533826113,-0.0003570020489860326,-0.0030310850124806166,0.1091967225074768,0.00042203100747428834,0.00317295640707016,0.0008477636147290468,-0.003250968409702182,-0.004165436141192913,0.0,0.0,0.0,-6.581006164196879e-05,-0.0008668226073496044,-0.0,0.0,0.0,0.0,-0.03272559493780136,-0.00010346593626309186,0.00037776041426695883,15678.0,15468.0,11269.0,10944.0,0.5576999187469482,0.542110800743103,0.2762649655342102,0.2593896985054016,0.0,0.0,0.0,0.0,15716.0,15527.0,11220.0,10904.0,1.6350303888320923,0.033885564758996616,0.1020055674278311,0.017916607097982946,0.0034151352010667324,-0.00019944662926718593,0.0
171,9,2.8599465622392017e-06,-2.2704657567373943e-06,2.6637497285264544e-05,-0.0004774502303916961,0.0003914504195563495,0.00207514432258904,0.10919837653636932,0.00046398534323088825,0.0031876296270638704,-0.0008591553196310997,-0.0028489255346357822,-0.001740514300763607,0.0,0.0,0.0,0.0004437232855707407,-0.0015080319717526436,-0.0,0.0,0.0,0.0,-0.033006299287080765,-0.00034823312307707965,0.0004062797233927995,15678.0,15468.0,11269.0,10944.0,0.5576999187469482,0.542110800743103,0.2762649655342102,0.2593896985054016,0.0,0.0,0.0,0.0,15666.0,15478.0,11228.0,10990.0,1.6423407793045044,0.033633593595126916,0.10226425601249842,0.018029339116920014,0.0059679546393454075,0.00135077815502882,0.0
176,5,5.5210868595167994e-05,-9.196013706969097e-05,-6.173608562676236e-05,0.005375715438276529,0.010877902619540691,0.010908691212534904,0.10919837653636932,0.00046398534323088825,0.0031876296270638704,-0.0008591553196310997,-0.0028489255346357822,-0.001740514300763607,0.0,0.0,0.0,-0.0004893835284747183,-0.00045114586828276515,-0.0,0.0,0.0,0.0,-0.033006299287080765,-0.00034823312307707965,0.0004062797233927995,15678.0,15468.0,11269.0,10944.0,0.5576999187469482,0.542110800743103,0.2762649655342102,0.2593896985054016,0.0,0.0,0.0,0.0,15666.0,15478.0,11228.0,10990.0,1.6320185661315918,0.029673940443023204,0.10201787803218067,0.015665299930456015,0.0017741646151989698,-0.0014804131351411343,-0.0
181,5,6.604293594136834e-05,-7.364161137957126e-05,-6.238927744561806e-05,0.0034501338377594948,0.0021529383957386017,0.004441859666258097,0.10922093689441681,0.00031893167761154473,0.0028631810564547777,0.0035446754191070795,0.006869560107588768,-0.0025610157754272223,0.0,0.0,0.0,-0.0004893835284747183,-0.00045114586828276515,-0.0,0.0,0.0,0.0,-0.03308510035276413,-0.0003719734668266028,-0.0010943830711767077,15375.0,15851.0,10836.0,11386.0,0.5352689623832703,0.5707568526268005,0.2538721561431885,0.28244274854660034,0.0,0.0,0.0,0.0,15576.0,15593.0,11118.0,11058.0,1.6320185661315918,0.029119371487856857,0.10146312160913669,0.01661358183146267,0.0017741646151989698,-0.0014804131351411343,-0.0
186,5,7.299715070985258e-05,-8.538177644368261e-05,-4.595899736159481e-05,0.002214559819549322,0.002269994467496872,-0.00019488953694235533,0.10922093689441681,0.00031893167761154473,0.0028631810564547777,0.0035446754191070795,0.006869560107588768,-0.0025610157754272223,0.0,0.0,0.0,-0.0027417337987571955,0.003308771178126335,-0.0,0.0,0.0,0.0,-0.03308510035276413,-0.0003719734668266028,-0.0010943830711767077,15375.0,15851.0,10836.0,11386.0,0.5352689623832703,0.5707568526268005,0.2538721561431885,0.28244274854660034,0.0,0.0,0.0,0.0,15576.0,15593.0,11118.0,11058.0,1.6684037446975708,0.029849240614313297,0.10198018829565902,0.015920221217207584,-0.013302013278007507,-0.008478792384266853,0.0
191,5,6.705020496156067e-05,-0.00010045988892670721,-3.904079130734317e-05,0.00017219044093508273,0.002717371564358473,-0.0009081405005417764,0.10922093689441681,0.00031893167761154473,0.0028631810564547777,0.0035446754191070795,0.006869560107588768,-0.0025610157754272223,0.0,0.0,0.0,-0.0027417337987571955,0.003308771178126335,-0.0,0.0,0.0,0.0,-0.033381085842847824,-0.0009611158748157322,-0.0008934111101552844,15375.0,15851.0,10836.0,11386.0,0.5352689623832703,0.5707568526268005,0.2538721561431885,0.28244274854660034,0.0,0.0,0.0,0.0,16517.0,14618.0,12490.0,9583.0,1.6684037446975708,0.029606219663704487,0.10189566904067879,0.01489908012739979,-0.013302013278007507,-0.008478792384266853,0.0
196,5,5.640705785481259e-05,-7.203461427707225e-05,-5.1331600843695924e-05,-0.0012083015171810985,-0.0023240845184773207,0.0011116405948996544,0.10922093689441681,0.00031893167761154473,0.0028631810564547777,0.0035446754191070795,0.006869560107588768,-0.0025610157754272223,0.0,0.0,0.0,-0.0035021761432290077,0.00025464739883318543,-0.0,0.0,0.0,0.0,-0.033381085842847824,-0.0009611158748157322,-0.0008934111101552844,15375.0,15851.0,10836.0,11386.0,0.5352689623832703,0.5707568526268005,0.2538721561431885,0.28244274854660034,0.0,0.0,0.0,0.0,16517.0,14618.0,12490.0,9583.0,1.6549752950668335,0.029238022591728443,0.10203263329045958,0.016830327774530224,-0.0010155001655220985,-0.010743268765509129,0.0
202,5,6.307254079729319e-05,-7.364794873865321e-05,-6.36452532489784e-05,0.00031653765472583473,-0.0007360336603596807,0.001922294613905251,0.10926764458417892,0.0004706070467364043,0.002840320812538266,0.027882147580385208,-0.018028490245342255,-0.2345094084739685,0.0,0.0,0.0,-0.0035021761432290077,0.00025464739883318543,-0.0,0.0,0.0,0.0,-0.03332437574863434,0.0008143782033585012,0.00877661444246769,18679.0,12003.0,15063.0,4527.0,0.8050379753112793,0.31636056303977966,0.512565016746521,0.034440189599990845,0.0,0.0,0.0,0.0,13020.0,17821.0,6770.0,13959.0,1.6549752950668335,0.029210755849808066,0.10090054834475254,0.016441875552951117,-0.0010155001655220985,-0.010743268765509129,0.0
207,5,6.246514385566115e-05,-0.00010976883640978485,-4.2180810851277784e-05,5.3727100748801604e-05,0.004040093161165714,-0.0018068150384351611,0.10926764458417892,0.0004706070467364043,0.002840320812538266,0.027882147580385208,-0.018028490245342255,-0.2345094084739685,0.0,0.0,0.0,-0.0035021761432290077,0.00025464739883318543,-0.0,0.0,0.0,0.0,-0.03332437574863434,0.0008143782033585012,0.00877661444246769,18679.0,12003.0,15063.0,4527.0,0.8050379753112793,0.31636056303977966,0.512565016746521,0.034440189599990845,0.0,0.0,0.0,0.0,13020.0,17821.0,6770.0,13959.0,1.6549752950668335,0.028609356847612854,0.1012487324772566,0.015345604614692445,-0.0010155001655220985,-0.010743268765509129,0.0
212,5,4.9172107537742704e-05,-8.494453504681587e-05,-6.839515117462724e-05,-0.0015736734494566917,-0.0013628783635795116,0.0024229944683611393,0.10920501500368118,0.00038407460669986904,0.0035513693001121283,-0.03180399537086487,-0.020763130858540535,0.34956005215644836,0.0,0.0,0.0,-0.005094704683870077,0.00013588140427600592,-0.0,0.0,0.0,0.0,-0.03424764797091484,0.0012619034387171268,-0.006546244956552982,14405.0,16943.0,8891.0,12868.0,0.4664439558982849,0.6564958691596985,0.16495157778263092,0.36708390712738037,0.0,0.0,0.0,0.0,16987.0,14379.0,12927.0,9087.0,1.6683833599090576,0.029641215767746663,0.1016890562918353,0.01633817282953646,-0.0005462634144350886,-0.015755057334899902,0.0
217,5,4.315117985242978e-05,-7.867198291933164e-05,-8.652596443425864e-05,-0.0013519807253032923,-0.001297858078032732,0.0031448956578969955,0.10920501500368118,0.00038407460669986904,0.0035513693001121283,-0.03180399537086487,-0.020763130858540535,0.34956005215644836,0.0,0.0,0.0,0.0014551718486472964,-0.0012199116172268987,-0.0,0.0,0.0,0.0,-0.03424764797091484,0.0012619034387171268,-0.006546244956552982,14405.0,16943.0,8891.0,12868.0,0.4664439558982849,0.6564958691596985,0.16495157778263092,0.36708390712738037,0.0,0.0,0.0,0.0,16987.0,14379.0,12927.0,9087.0,1.6435269117355347,0.029717093076139928,0.10146651759808958,0.016163771629768554,0.004831216763705015,0.004433016758412123,0.0
222,5,3.296993236290291e-05,-9.289694571634755e-05,-6.024726098985411e-05,-0.0017625419422984123,0.0011878528166562319,-0.0018954864935949445,0.1092323437333107,0.00039533188100904226,0.0025669345632195473,-0.007359709125012159,0.03782277554273605,-0.051364071667194366,0.0,0.0,0.0,0.0014551718486472964,-0.0012199116172268987,-0.0,0.0,0.0,0.0,-0.03391079977154732,-0.0005612624227069318,0.0012924509355798364,15349.0,16080.0,10592.0,11558.0,0.5333200097084045,0.5882368683815002,0.24169063568115234,0.29172778129577637,0.0,0.0,0.0,0.0,16962.0,14303.0,12782.0,9150.0,1.6435269117355347,0.0294691528460208,0.10142444763949568,0.01563373348231235,0.004831216763705015,0.004433016758412123,0.0
227,5,5.5224951211130247e-05,-7.470902346540242e-05,-3.4576009056763723e-05,0.0019655851647257805,-0.0017074099741876125,-0.003838744480162859,0.1092323437333107,0.00039533188100904226,0.0025669345632195473,-0.007359709125012159,0.03782277554273605,-0.051364071667194366,0.0,0.0,0.0,0.0014551718486472964,-0.0012199116172268987,-0.0,0.0,0.0,0.0,-0.03391079977154732,-0.0005612624227069318,0.0012924509355798364,15349.0,16080.0,10592.0,11558.0,0.5333200097084045,0.5882368683815002,0.24169063568115234,0.29172778129577637,0.0,0.0,0.0,0.0,16962.0,14303.0,12782.0,9150.0,1.6435269117355347,0.029778582732566054,0.10184037151270223,0.01642485042202443,0.004831216763705015,0.004433016758412123,0.0
232,5,7.935291796457022e-05,-8.722860366106033e-05,-3.896686030202545e-05,0.003681590547785163,0.0008193857502192259,-0.0010085956891998649,0.10892431437969208,-0.00012360667460598052,0.0036426777951419353,-0.027960345149040222,0.04440399631857872,0.12734299898147583,0.0,0.0,0.0,0.0019561515655368567,0.0019282146822661161,-0.0,0.0,0.0,0.0,-0.03408006578683853,0.0018216883763670921,0.003574123838916421,16874.0,14131.0,12818.0,9271.0,0.6508466005325317,0.44782423973083496,0.3640521168708801,0.18080395460128784,0.0,0.0,0.0,0.0,14451.0,17046.0,8782.0,12973.0,1.6521260738372803,0.03031116443503263,0.10215745936876293,0.016470357933253143,-0.007676254492253065,0.005990371108055115,0.0
238,6,7.30804240447469e-05,-9.858604607870802e-05,-9.26327356864931e-06,0.0007199367973953485,0.0016906468663364649,-0.003967868629842997,0.10892431437969208,-0.00012360667460598052,0.0036426777951419353,-0.027960345149040222,0.04440399631857872,0.12734299898147583,0.0,0.0,0.0,0.0019561515655368567,0.0019282146822661161,-0.0,0.0,0.0,0.0,-0.03408006578683853,0.0018216883763670921,0.003574123838916421,16874.0,14131.0,12818.0,9271.0,0.6508466005325317,0.44782423973083496,0.3640521168708801,0.18080395460128784,0.0,0.0,0.0,0.0,14451.0,17046.0,8782.0,12973.0,1.6521260738372803,0.0295971129618991,0.10236801695529366,0.015826170737399368,-0.007676254492253065,0.005990371108055115,0.0
243,5,8.944032742874697e-05,-9.263076935894787e-05,9.459627108299173e-06,0.0022511628922075033,-3.837385884253308e-05,-0.0038338955491781235,0.10892431437969208,-0.00012360667460598052,0.0036426777951419353,-0.027960345149040222,0.04440399631857872,0.12734299898147583,0.0,0.0,0.0,-0.0022560369689017534,0.0007823809864930809,-0.0,0.0,0.0,0.0,-0.032486442476511,0.0014534526271745563,-0.0026780825573951006,15069.0,16084.0,10095.0,12142.0,0.5130388140678406,0.5885284543037415,0.21773692965507507,0.32422271370887756,0.0,0.0,0.0,0.0,16104.0,15033.0,11879.0,10428.0,1.6462184190750122,0.03024502150083747,0.10314211290595955,0.016645164904254318,-0.0031035339925438166,-0.006884010974317789,0.0
248,5,9.038120333570987e-05,-0.00010483310325071216,3.1636540370527655e-05,0.0010133706964552402,0.0014489302411675453,-0.004194788169115782,0.10892431437969208,-0.00012360667460598052,0.0036426777951419353,-0.027960345149040222,0.04440399631857872,0.12734299898147583,0.0,0.0,0.0,-0.0022560369689017534,0.0007823809864930809,-0.0,0.0,0.0,0.0,-0.032486442476511,0.0014534526271745563,-0.0026780825573951006,15069.0,16084.0,10095.0,12142.0,0.5130388140678406,0.5885284543037415,0.21773692965507507,0.32422271370887756,0.0,0.0,0.0,0.0,16104.0,15033.0,11879.0,10428.0,1.6462184190750122,0.029271171719300826,0.10310135706872497,0.0162647756452214,-0.0031035339925438166,-0.006884010974317789,0.0
256,8,0.00010122216190211475,-0.00012338263331912458,6.693318573525175e-05,0.001706262701191008,0.002805516589432955,-0.0059135123156011105,0.10885234922170639,-0.0005829827859997749,0.0030526104383170605,-0.0126797528937459,0.08520814031362534,-0.030368058010935783,0.0,0.0,0.0,-0.001970876008272171,0.0010841310722753406,-0.0,0.0,0.0,0.0,-0.03195638954639435,0.003129149554297328,0.0002790949074551463,15498.0,15709.0,10482.0,11917.0,0.5442934036254883,0.5600428581237793,0.2362695336341858,0.31152021884918213,0.0,0.0,0.0,0.0,16546.0,14575.0,12032.0,10381.0,1.6457855701446533,0.030048002883500537,0.10495148148374511,0.015979729225936018,-0.004299381747841835,-0.006012299098074436,0.0
261,5,0.00010815460700541735,-0.00013287599722389132,7.154820923460647e-05,0.0015143990749493241,0.002261409070342779,-0.002919208025559783,0.10860347002744675,-0.0016975237522274256,0.0033752131275832653,0.009979278780519962,0.10182059556245804,-0.09933504462242126,0.0,0.0,0.0,-0.0036374994087964296,0.0017379340715706348,-0.0,0.0,0.0,0.0,-0.03195638954639435,0.003129149554297328,0.0002790949074551463,15498.0,15709.0,10482.0,11917.0,0.5442934036254883,0.5600428581237793,0.2362695336341858,0.31152021884918213,0.0,0.0,0.0,0.0,14734.0,16576.0,8869.0,12850.0,1.6614373922348022,0.030116228278697758,0.10500285481140774,0.016423432093099707,-0.006957706063985825,-0.011201952584087849,0.0
266,5,0.000104576422017999,-0.00014212711539585143,0.00010866862430702895,0.00017637756536714733,0.0020146979950368404,-0.005622133146971464,0.10860347002744675,-0.0016975237522274256,0.0033752131275832653,0.009979278780519962,0.10182059556245804,-0.09933504462242126,0.0,0.0,0.0,-0.0036374994087964296,0.0017379340715706348,-0.0,0.0,0.0,0.0,-0.03195638954639435,0.003129149554297328,0.0002790949074551463,15498.0,15709.0,10482.0,11917.0,0.5442934036254883,0.5600428581237793,0.2362695336341858,0.31152021884918213,0.0,0.0,0.0,0.0,14734.0,16576.0,8869.0,12850.0,1.6614373922348022,0.029941562240707813,0.1052348169259657,0.01629622834577505,-0.006957706063985825,-0.011201952584087849,0.0
271,5,8.835407788865268e-05,-0.00015216923202387989,0.00014790009299758822,-0.0018761310493573546,0.00201093265786767,-0.006956629920750856,0.10835229605436325,-0.002340549835935235,0.0035189262125641108,-0.05342628061771393,0.056133367121219635,0.07583953440189362,0.0,0.0,0.0,-0.0027292415034025908,0.0003120067704003304,-0.0,0.0,0.0,0.0,-0.029088173061609268,-0.00026902498211711645,-0.002474223729223013,16603.0,14574.0,12110.0,10070.0,0.6291024684906006,0.4781057834625244,0.3224228620529175,0.21658731997013092,0.0,0.0,0.0,0.0,16009.0,15107.0,11606.0,10826.0,1.648599624633789,0.02811751334666055,0.10401623988362495,0.015921676065031903,-0.0012394514633342624,-0.008339975029230118,0.0
276,5,8.234381675720215e-05,-0.00011467825243016705,0.0002383521932642907,-0.0014716830337420106,-0.0036945443134754896,-0.013636902906000614,0.10835229605436325,-0.002340549835935235,0.0035189262125641108,-0.05342628061771393,0.056133367121219635,0.07583953440189362,0.0,0.0,0.0,-0.0027292415034025908,0.0003120067704003304,-0.0,0.0,0.0,0.0,-0.029088173061609268,-0.00026902498211711645,-0.002474223729223013,16603.0,14574.0,12110.0,10070.0,0.6291024684906006,0.4781057834625244,0.3224228620529175,0.21658731997013092,0.0,0.0,0.0,0.0,16009.0,15107.0,11606.0,10826.0,1.648599624633789,0.02506016661114955,0.10338731364533492,0.01667241782651736,-0.0012394514633342624,-0.008339975029230118,0.0
281,5,8.010790043044835e-05,-0.00010150036541745067,0.0003039842704311013,-0.0008569831261411309,-0.0030591636896133423,-0.013330613262951374,0.10607430338859558,-0.0022129244171082973,0.0028522119391709566,-0.31578031182289124,-0.07162036746740341,-0.03794277831912041,0.0,0.0,0.0,0.004286143928766251,-0.0012626218376681209,-0.0,0.0,0.0,0.0,-0.024833157658576965,-0.0018206582171842456,-0.001435853191651404,14783.0,15933.0,10771.0,12165.0,0.49270686507225037,0.576940655708313,0.25060170888900757,0.32553631067276,0.0,0.0,0.0,0.0,16008.0,14637.0,12746.0,10488.0,1.6640516519546509,0.02309379214173845,0.10299267747786986,0.015763849877011023,0.0050627668388187885,0.01322025153785944,0.0
286,5,7.161759276641533e-05,-9.823449363466352e-05,0.0003997037129011005,-0.0013616306241601706,-0.0016155698103830218,-0.01681857742369175,0.10607430338859558,-0.0022129244171082973,0.0028522119391709566,-0.31578031182289124,-0.07162036746740341,-0.03794277831912041,0.0,0.0,0.0,0.004286143928766251,-0.0012626218376681209,-0.0,0.0,0.0,0.0,-0.024833157658576965,-0.0018206582171842456,-0.001435853191651404,14783.0,15933.0,10771.0,12165.0,0.49270686507225037,0.576940655708313,0.25060170888900757,0.32553631067276,0.0,0.0,0.0,0.0,16008.0,14637.0,12746.0,10488.0,1.6640516519546509,0.02017737516943006,0.10206789093023419,0.014715918184705277,0.0050627668388187885,0.01322025153785944,0.0
291,5,-9.862925253401045e-06,-0.00010659790859790519,0.0006368494941852987,-0.008058834820985794,0.003398728556931019,-0.024724872782826424,0.09577348083257675,-0.0005045586149208248,0.0029393043369054794,-0.6372968554496765,-0.051377058029174805,0.08781418204307556,0.0,0.0,0.0,0.0018080099252983928,-0.0011876469943672419,-0.0,0.0,0.0,0.0,-0.020859237760305405,-0.0019241035915911198,0.00410764804109931,15952.0,13774.0,13635.0,10369.0,0.5784491896629333,0.42420199513435364,0.4151805341243744,0.2307678759098053,0.0,0.0,0.0,0.0,13606.0,16360.0,10387.0,13298.0,1.6454060077667236,0.009930141072641055,0.0997657142598663,0.014497611515194497,0.0047088139690458775,0.005514193791896105,0.0
296,5,3.2364725484512746e-05,-4.264448580215685e-05,0.0006180375930853188,0.0018437843536958098,-0.006314919795840979,-0.007632517255842686,0.09577348083257675,-0.0005045586149208248,0.0029393043369054794,-0.6372968554496765,-0.051377058029174805,0.08781418204307556,0.0,0.0,0.0,0.0018080099252983928,-0.0011876469943672419,-0.0,0.0,0.0,0.0,-0.020859237760305405,-0.0019241035915911198,0.00410764804109931,15952.0,13774.0,13635.0,10369.0,0.5784491896629333,0.42420199513435364,0.4151805341243744,0.2307678759098053,0.0,0.0,0.0,0.0,13606.0,16360.0,10387.0,13298.0,1.6454060077667236,0.010283233859851653,0.10251235297856283,0.014822691530304008,0.0047088139690458775,0.005514193791896105,0.0
301,5,2.940097874670755e-05,-3.063264739466831e-05,0.0006392076029442251,0.0003818640543613583,-0.003967388533055782,-0.005593408364802599,0.08973626792430878,-0.000944575120229274,0.001990067772567272,-0.8247291445732117,0.07688459008932114,-0.088560089468956,0.0,0.0,0.0,0.007475622929632664,0.0017406200058758259,-0.0,0.0,0.0,0.0,-0.01339553389698267,0.0020277872681617737,-0.005565355531871319,13122.0,15735.0,10808.0,14412.0,0.3826524615287781,0.5620112419128418,0.2524647116661072,0.46692323684692383,0.0,0.0,0.0,0.0,14728.0,14017.0,12824.0,12617.0,1.6918139457702637,0.00577788658291689,0.10268783439457059,0.014937990034010229,-0.007095714565366507,0.023442352190613747,0.0
306,5,2.5334302335977554e-05,-1.1058799827878829e-05,0.000674130511470139,-0.00033525540493428707,-0.003935817163437605,-0.006428112275898457,0.08973626792430878,-0.000944575120229274,0.001990067772567272,-0.8247291445732117,0.07688459008932114,-0.088560089468956,0.0,0.0,0.0,0.007475622929632664,0.0017406200058758259,-0.0,0.0,0.0,0.0,-0.01339553389698267,0.0020277872681617737,-0.005565355531871319,13122.0,15735.0,10808.0,14412.0,0.3826524615287781,0.5620112419128418,0.2524647116661072,0.46692323684692383,0.0,0.0,0.0,0.0,14728.0,14017.0,12824.0,12617.0,1.6918139457702637,0.0012656208563142266,0.10334481857241204,0.01518864997057987,-0.007095714565366507,0.023442352190613747,0.0
312,5,3.841253783321008e-05,-3.356447632540949e-05,0.0006878986023366451,0.001435286132618785,0.0011263542110100389,-0.004223416559398174,0.08973626792430878,-0.000944575120229274,0.001990067772567272,-0.8247291445732117,0.07688459008932114,-0.088560089468956,0.0,0.0,0.0,0.004759612493216991,-0.0002776297915261239,-0.0,0.0,0.0,0.0,-0.01339553389698267,0.0020277872681617737,-0.005565355531871319,13122.0,15735.0,10808.0,14412.0,0.3826524615287781,0.5620112419128418,0.2524647116661072,0.46692323684692383,0.0,0.0,0.0,0.0,14728.0,14017.0,12824.0,12617.0,1.6656153202056885,-0.002218677106614615,0.10381878879208128,0.01484755549426461,0.0011142630828544497,0.014694400131702423,0.0
317,5,4.5777625928167254e-05,-4.3387226469349116e-05,0.0007022970239631832,0.0014579249545931816,0.001629271893762052,-0.003417175728827715,0.07977760583162308,-0.001992050791159272,0.0026206697802990675,-0.7836371660232544,0.11642765998840332,-0.09397446364164352,0.0,0.0,0.0,0.004759612493216991,-0.0002776297915261239,-0.0,0.0,0.0,0.0,-0.01176095474511385,0.002435015281662345,0.003431492019444704,14685.0,14018.0,12719.0,12771.0,0.4858306050300598,0.4403042197227478,0.35808026790618896,0.36119091510772705,0.0,0.0,0.0,0.0,13239.0,15349.0,10861.0,14412.0,1.6656153202056885,-0.005256566219519915,0.10431517411427946,0.014691099307569804,0.0011142630828544497,0.014694400131702423,0.0
322,5,3.205299799446948e-05,-4.904566958430223e-05,0.0007137144566513598,-0.0010637855157256126,0.001330721890553832,-0.002736962167546153,0.0741642564535141,-0.002743598073720932,0.0017394872847944498,-0.6179762482643127,0.025361428037285805,0.14219078421592712,0.0,0.0,0.0,-0.0020784856751561165,0.001440308173187077,-0.0,0.0,0.0,0.0,-0.010058524087071419,0.0027493182569742203,-0.0006767059676349163,15261.0,13520.0,13691.0,12386.0,0.5269024968147278,0.40779855847358704,0.41878536343574524,0.3383274972438812,0.0,0.0,0.0,0.0,16076.0,12510.0,14718.0,11152.0,1.6489193439483643,-0.007152976743996504,0.10496534214268587,0.014845728743946573,-0.005722761619836092,-0.006352642551064491,0.0
327,5,4.604483910952695e-05,-6.628831761190668e-05,0.0007538122590631247,0.0012535067507997155,0.002601406304165721,-0.005906523671001196,0.0741642564535141,-0.002743598073720932,0.0017394872847944498,-0.6179762482643127,0.025361428037285805,0.14219078421592712,0.0,0.0,0.0,-0.0020784856751561165,0.001440308173187077,-0.0,0.0,0.0,0.0,-0.010058524087071419,0.0027493182569742203,-0.0006767059676349163,15261.0,13520.0,13691.0,12386.0,0.5269024968147278,0.40779855847358704,0.41878536343574524,0.3383274972438812,0.0,0.0,0.0,0.0,16076.0,12510.0,14718.0,11152.0,1.6489193439483643,-0.009920670381722193,0.10558097987608633,0.014501802911039557,-0.005722761619836092,-0.006352642551064491,0.0
332,5,3.526511136442423e-05,-0.0001320927549386397,0.0007657940732315183,-0.0007921644719317555,0.008937095291912556,-0.003800428006798029,0.0741642564535141,-0.002743598073720932,0.0017394872847944498,-0.6179762482643127,0.025361428037285805,0.14219078421592712,0.0,0.0,0.0,-0.010753442533314228,-0.0006697712815366685,-0.0,0.0,0.0,0.0,-0.010058524087071419,0.0027493182569742203,-0.0006767059676349163,15261.0,13520.0,13691.0,12386.0,0.5269024968147278,0.40779855847358704,0.41878536343574524,0.3383274972438812,0.0,0.0,0.0,0.0,16076.0,12510.0,14718.0,11152.0,1.7181473970413208,-0.014949434335842669,0.1040785288371945,0.012818565402320133,0.002772768959403038,-0.0342453233897686,0.0
337,5,3.294623820693232e-05,-9.195922029903159e-05,0.000710554828401655,-0.0005951308994553983,-0.0012411861680448055,0.005108538083732128,0.06688208132982254,-0.0028987235855311155,0.0024099950678646564,-0.6285117268562317,0.019074730575084686,-0.14621950685977936,0.0,0.0,0.0,-0.010753442533314228,-0.0006697712815366685,-0.0,0.0,0.0,0.0,-0.010057368315756321,0.0008688169182278216,-0.0007067682454362512,13426.0,15118.0,11816.0,14034.0,0.40175679326057434,0.5165671110153198,0.30590227246284485,0.4413891136646271,0.0,0.0,0.0,0.0,12555.0,15681.0,11083.0,14786.0,1.7181473970413208,-0.016421972182840628,0.10525990666908519,0.013522247851038042,0.002772768959403038,-0.0342453233897686,0.0
342,5,2.999052230734378e-05,-4.9799582484411076e-05,0.0006755220238119364,-0.0005927380989305675,-0.005555631127208471,0.00624734815210104,0.06688208132982254,-0.0028987235855311155,0.0024099950678646564,-0.6285117268562317,0.019074730575084686,-0.14621950685977936,0.0,0.0,0.0,-0.010753442533314228,-0.0006697712815366685,-0.0,0.0,0.0,0.0,-0.010057368315756321,0.0008688169182278216,-0.0007067682454362512,13426.0,15118.0,11816.0,14034.0,0.40175679326057434,0.5165671110153198,0.30590227246284485,0.4413891136646271,0.0,0.0,0.0,0.0,12555.0,15681.0,11083.0,14786.0,1.7181473970413208,-0.020436919436396778,0.10529916696641793,0.01448838534491182,0.002772768959403038,-0.0342453233897686,0.0
347,5,3.973106140620075e-05,-3.855780596495606e-05,0.0006995884468778968,0.0009317696676589549,-0.0035712653771042824,-0.00038903128006495535,0.06100447475910187,-0.0023573064245283604,0.001589006744325161,-0.8163073658943176,-0.12273004651069641,0.16807283461093903,0.0,0.0,0.0,0.006594860460609198,-0.0005068920436315238,-0.0,0.0,0.0,0.0,-0.0067347511649131775,-0.0019128400599583983,0.0011308372486382723,14895.0,13081.0,14389.0,11761.0,0.5005723237991333,0.380134254693985,0.4653564989566803,0.3028562366962433,0.0,0.0,0.0,0.0,15860.0,11823.0,15401.0,10436.0,1.681533932685852,-0.02592755000296523,0.10530870913825013,0.012853692092613335,0.002053825417533517,0.020554838702082634,-0.0
352,5,4.904350498691201e-05,3.850721441267524e-06,0.0006809982587583363,0.0014902008697390556,-0.006517529487609863,0.002075210679322481,0.050986990332603455,-0.0013941237702965736,0.0014394501922652125,-0.8756951689720154,-0.06621525436639786,-0.2674125134944916,0.0,0.0,0.0,0.007791111711412668,0.0014365308452397585,-0.0,0.0,0.0,0.0,-0.005834492389112711,-0.0013471900019794703,-0.003940240014344454,11896.0,16229.0,11141.0,15419.0,0.3103092908859253,0.5997650027275085,0.2695707082748413,0.5385023951530457,0.0,0.0,0.0,0.0,11566.0,16344.0,10878.0,15726.0,1.6935734748840332,-0.029549439508050678,0.10597417836474017,0.012866356800308093,-0.005862158723175526,0.024457048624753952,-0.0
357,5,3.668950012070127e-05,7.247686153277755e-05,0.000659100478515029,-0.00088640017202124,-0.010842149145901203,0.003457818878814578,0.050986990332603455,-0.0013941237702965736,0.0014394501922652125,-0.8756951689720154,-0.06621525436639786,-0.2674125134944916,0.0,0.0,0.0,0.007791111711412668,0.0014365308452397585,-0.0,0.0,0.0,0.0,-0.005834492389112711,-0.0013471900019794703,-0.003940240014344454,11896.0,16229.0,11141.0,15419.0,0.3103092908859253,0.5997650027275085,0.2695707082748413,0.5385023951530457,0.0,0.0,0.0,0.0,11566.0,16344.0,10878.0,15726.0,1.6935734748840332,-0.03515713452505063,0.1050744968868811,0.014448106481399735,-0.005862158723175526,0.024457048624753952,-0.0
362,5,2.9081045795464888e-05,0.00011519929830683395,0.0006362240528687835,-0.0012675744947046041,-0.009463552385568619,0.004128300119191408,0.050986990332603455,-0.0013941237702965736,0.0014394501922652125,-0.8756951689720154,-0.06621525436639786,-0.2674125134944916,0.0,0.0,0.0,0.007791111711412668,0.0014365308452397585,-0.0,0.0,0.0,0.0,-0.005834492389112711,-0.0013471900019794703,-0.003940240014344454,11896.0,16229.0,11141.0,15419.0,0.3103092908859253,0.5997650027275085,0.2695707082748413,0.5385023951530457,0.0,0.0,0.0,0.0,11566.0,16344.0,10878.0,15726.0,1.6935734748840332,-0.03931723647518112,0.10511741562640302,0.014625830834829209,-0.005862158723175526,0.024457048624753952,-0.0
367,5,1.4913805898686405e-05,0.00013425997167360038,0.0006235733162611723,-0.0022070985287427902,-0.006072701420634985,0.003169411327689886,0.043970491737127304,-0.0006394314114004374,0.002537226304411888,-0.8888213038444519,-0.11587054282426834,0.2936679422855377,0.0,0.0,0.0,0.011305476538836956,-0.0011050337925553322,-0.0,0.0,0.0,0.0,0.0050985850393772125,0.0013585351407527924,-0.006186004728078842,15939.0,10598.0,16617.0,10391.0,0.5774626731872559,0.2419949471950531,0.630241870880127,0.23183444142341614,0.0,0.0,0.0,0.0,15191.0,11632.0,15839.0,11602.0,1.7236000299453735,-0.04287849752840557,0.10579295098778954,0.013266181195429556,0.00458919070661068,0.03611745312809944,-0.0
372,5,-8.329120646521915e-06,0.0001845317892730236,0.0005729402182623744,-0.0036719907075166702,-0.008461699821054935,0.007343736011534929,0.043970491737127304,-0.0006394314114004374,0.002537226304411888,-0.8888213038444519,-0.11587054282426834,0.2936679422855377,0.0,0.0,0.0,0.011305476538836956,-0.0011050337925553322,-0.0,0.0,0.0,0.0,0.0050985850393772125,0.0013585351407527924,-0.006186004728078842,15939.0,10598.0,16617.0,10391.0,0.5774626731872559,0.2419949471950531,0.630241870880127,0.23183444142341614,0.0,0.0,0.0,0.0,15191.0,11632.0,15839.0,11602.0,1.7236000299453735,-0.04661453613176465,0.10590196587514496,0.01466178454922753,0.00458919070661068,0.03611745312809944,-0.0
377,5,-3.398194530745968e-05,0.0002253366692457348,0.0005414444021880627,-0.0045471349731087685,-0.008281265385448933,0.0067169927060604095,0.036788396537303925,-0.00035990928881801665,0.00204807473346591,-0.8776707053184509,0.014869578182697296,-0.20508919656276703,0.0,0.0,0.0,0.010262805037200451,-0.003330143401399255,-0.0,0.0,0.0,0.0,0.004825745243579149,-0.0005481778061948717,0.00669664004817605,10828.0,15568.0,11427.0,16309.0,0.25348520278930664,0.5494962334632874,0.2846531867980957,0.6059388518333435,0.0,0.0,0.0,0.0,13477.0,13339.0,14072.0,14140.0,1.721277117729187,-0.04903129894126915,0.10604576184921385,0.015320887589812164,0.013811536133289337,0.03274248167872429,-0.0
383,5,-2.8231028409209102e-05,0.00024149828823283315,0.0005206885398365557,-0.001128744101151824,-0.005251900292932987,0.005177499260753393,0.036788396537303925,-0.00035990928881801665,0.00204807473346591,-0.8776707053184509,0.014869578182697296,-0.20508919656276703,0.0,0.0,0.0,0.010262805037200451,-0.003330143401399255,-0.0,0.0,0.0,0.0,0.004825745243579149,-0.0005481778061948717,0.00669664004817605,10828.0,15568.0,11427.0,16309.0,0.25348520278930664,0.5494962334632874,0.2846531867980957,0.6059388518333435,0.0,0.0,0.0,0.0,13477.0,13339.0,14072.0,14140.0,1.721277117729187,-0.05201167140018174,0.10648613491670901,0.01384448828930974,0.013811536133289337,0.03274248167872429,-0.0
388,5,-3.42087987519335e-05,0.00026144899311475456,0.0004664866137318313,-0.0011688299709931016,-0.004494844935834408,0.008575230836868286,0.027701694518327713,-0.0004002750210929662,0.0032534075435250998,-0.620915949344635,0.02943790704011917,0.053336337208747864,0.0,0.0,0.0,0.006735316943377256,-0.0010805648053064942,-0.0,0.0,0.0,0.0,-0.0005279364413581789,0.0001821457117330283,0.00047615639050491154,15107.0,11735.0,15744.0,12478.0,0.515795886516571,0.3013738691806793,0.5626721978187561,0.3437580168247223,0.0,0.0,0.0,0.0,12595.0,14683.0,12755.0,15263.0,1.6837201118469238,-0.051747462579871936,0.10747774358281906,0.014797663142459786,0.004383920691907406,0.021019894629716873,-0.0
393,5,-5.174683246877976e-05,0.00026653899112716317,0.00045401675743050873,-0.0025720959529280663,-0.0024087352212518454,0.00492647523060441,0.027701694518327713,-0.0004002750210929662,0.0032534075435250998,-0.620915949344635,0.02943790704011917,0.053336337208747864,0.0,0.0,0.0,0.006735316943377256,-0.0010805648053064942,-0.0,0.0,0.0,0.0,-0.0005279364413581789,0.0001821457117330283,0.00047615639050491154,15107.0,11735.0,15744.0,12478.0,0.515795886516571,0.3013738691806793,0.5626721978187561,0.3437580168247223,0.0,0.0,0.0,0.0,12595.0,14683.0,12755.0,15263.0,1.6837201118469238,-0.052094651289313364,0.10717680708803248,0.015599264423487335,0.004383920691907406,0.021019894629716873,-0.0
398,5,-5.3946958360029384e-05,0.0002504244330339134,0.0004739969444926828,-0.0012928538490086794,0.0009702499955892563,-0.00042703276267275214,0.024389270693063736,-0.0009351246990263462,0.002042570384219289,-0.18207882344722748,-0.005650660023093224,0.20731449127197266,0.0,0.0,0.0,0.003401534864678979,-0.0024743182584643364,-0.0,0.0,0.0,0.0,-0.00581372668966651,-0.00015161006012931466,-0.0044691781513392925,15011.0,12783.0,14940.0,12529.0,0.508886992931366,0.36188411712646484,0.5037895441055298,0.3467164635658264,0.0,0.0,0.0,0.0,16884.0,10460.0,16691.0,9671.0,1.6648308038711548,-0.05238503393452814,0.10702364617087665,0.014661444706219062,0.009926008060574532,0.010496682487428188,-0.0
403,5,-7.762275345157832e-05,0.0002508004254195839,0.0004813509585801512,-0.0033582369796931744,0.00034298200625926256,-0.0010532945161685348,0.024389270693063736,-0.0009351246990263462,0.002042570384219289,-0.18207882344722748,-0.005650660023093224,0.20731449127197266,0.0,0.0,0.0,0.003401534864678979,-0.0024743182584643364,-0.0,0.0,0.0,0.0,-0.00581372668966651,-0.00015161006012931466,-0.0044691781513392925,15011.0,12783.0,14940.0,12529.0,0.508886992931366,0.36188411712646484,0.5037895441055298,0.3467164635658264,0.0,0.0,0.0,0.0,16884.0,10460.0,16691.0,9671.0,1.6648308038711548,-0.05157919183880262,0.10680639737315016,0.014508409661762985,0.009926008060574532,0.010496682487428188,-0.0
408,5,-0.0001256355899386108,0.00023982723359949887,0.0005504005239345133,-0.007104835473001003,0.0014539767289534211,-0.008707269094884396,0.023514823988080025,-0.000776963890530169,0.0025561698712408543,0.01469290629029274,-0.01213289238512516,-0.3242928981781006,0.0,0.0,0.0,2.990147186210379e-05,-0.0032522522378712893,-0.0,0.0,0.0,0.0,-0.006773070897907019,-0.0029413029551506042,0.008990208618342876,11274.0,16431.0,10345.0,15735.0,0.2765335738658905,0.6155128479003906,0.2296524941921234,0.5620211362838745,0.0,0.0,0.0,0.0,11908.0,16016.0,10989.0,15272.0,1.6609749794006348,-0.05396470230967983,0.10607724367203383,0.015186217059005858,0.013016626238822937,9.205856622429565e-05,0.0
413,5,-9.72715497482568e-05,0.0002587022609077394,0.0005234168493188918,0.0005617514834739268,-0.001683414215222001,-0.00024486141046509147,0.023514823988080025,-0.000776963890530169,0.0025561698712408543,0.01469290629029274,-0.01213289238512516,-0.3242928981781006,0.0,0.0,0.0,2.990147186210379e-05,-0.0032522522378712893,-0.0,0.0,0.0,0.0,-0.006773070897907019,-0.0029413029551506042,0.008990208618342876,11274.0,16431.0,10345.0,15735.0,0.2765335738658905,0.6155128479003906,0.2296524941921234,0.5620211362838745,0.0,0.0,0.0,0.0,11908.0,16016.0,10989.0,15272.0,1.6609749794006348,-0.052552029042637054,0.1060159690146234,0.015032464013888837,0.013016626238822937,9.205856622429565e-05,0.0
418,5,-0.00011581797298276797,0.00025863596238195896,0.0005324148223735392,-0.0020008704159408808,-0.0006654079188592732,-0.001177705475129187,0.023724684491753578,-0.0005442990805022418,0.003322598058730364,-0.03367193788290024,-0.10907596349716187,0.22187653183937073,0.0,0.0,0.0,0.002533631632104516,0.0003968041855841875,-0.0,0.0,0.0,0.0,-0.007143471390008926,-0.0013045365922152996,-0.004873454105108976,13031.0,15068.0,12315.0,13965.0,0.37704992294311523,0.51295405626297,0.3342018723487854,0.43676912784576416,0.0,0.0,0.0,0.0,14115.0,13988.0,13646.0,12815.0,1.6471461057662964,-0.05284106683636646,0.10605445439439204,0.014784419829062732,-0.0015749214217066765,0.007735409773886204,0.0
424,5,-0.0001688680931692943,0.0003055928973481059,0.0005293418653309345,-0.007166361901909113,-0.005900997668504715,-0.00010232972999801859,0.023724684491753578,-0.0005442990805022418,0.003322598058730364,-0.03367193788290024,-0.10907596349716187,0.22187653183937073,0.0,0.0,0.0,0.002533631632104516,0.0003968041855841875,-0.0,0.0,0.0,0.0,-0.007143471390008926,-0.0013045365922152996,-0.004873454105108976,13031.0,15068.0,12315.0,13965.0,0.37704992294311523,0.51295405626297,0.3342018723487854,0.43676912784576416,0.0,0.0,0.0,0.0,14115.0,13988.0,13646.0,12815.0,1.6471461057662964,-0.05346428517646631,0.10552444358063703,0.016380800013786913,-0.0015749214217066765,0.007735409773886204,0.0
429,5,-0.0002059553371509537,0.00029253168031573296,0.0005336292670108378,-0.007317014969885349,-0.0007930528954602778,-0.0005554155213758349,0.023321986198425293,-1.9311810319777578e-05,0.0022158741485327482,-0.055011868476867676,-0.05057832971215248,0.005869863089174032,0.0,0.0,0.0,0.007450808770954609,-0.0066918437369167805,-0.0,0.0,0.0,0.0,-0.005872397683560848,-0.0010393662378191948,0.0004070347349625081,12870.0,14959.0,12158.0,14157.0,0.3672092854976654,0.5051851272583008,0.32518240809440613,0.44956931471824646,0.0,0.0,0.0,0.0,16125.0,11660.0,15663.0,10046.0,1.7240921258926392,-0.054074563170068535,0.10583323842944894,0.014944619065001403,0.027799876406788826,0.023810315877199173,0.0
434,5,-0.0002121411671396345,0.00032571752672083676,0.0004949503927491605,-0.003669105237349868,-0.004299522843211889,0.004419296979904175,0.0230044424533844,0.0004708661581389606,0.003950536251068115,-0.07871930301189423,-0.01682002656161785,-0.23373232781887054,0.0,0.0,0.0,0.0057241241447627544,-0.0036677198950201273,-0.0,0.0,0.0,0.0,-0.005741051398217678,-0.0007020747871138155,0.0074442424811422825,17040.0,10440.0,16963.0,8952.0,0.6643427610397339,0.234224334359169,0.6580985188484192,0.16742654144763947,0.0,0.0,0.0,0.0,10556.0,16648.0,9438.0,16058.0,1.6886614561080933,-0.052892066450767175,0.10551132693917359,0.014605619363992036,0.014923907816410065,0.017916610464453697,-0.0
440,6,-0.00023897248320281506,0.00035966254654340446,0.0005126841715537012,-0.004687400534749031,-0.005793210584670305,-0.00036033682408742607,0.0230044424533844,0.0004708661581389606,0.003950536251068115,-0.07871930301189423,-0.01682002656161785,-0.23373232781887054,0.0,0.0,0.0,0.0057241241447627544,-0.0036677198950201273,-0.0,0.0,0.0,0.0,-0.005741051398217678,-0.0007020747871138155,0.0074442424811422825,17040.0,10440.0,16963.0,8952.0,0.6643427610397339,0.234224334359169,0.6580985188484192,0.16742654144763947,0.0,0.0,0.0,0.0,10556.0,16648.0,9438.0,16058.0,1.6886614561080933,-0.05374978760185656,0.10484460095400105,0.016388263172763092,0.014923907816410065,0.017916610464453697,-0.0
445,5,-0.0003092417900916189,0.00035256578121334314,0.0005198995349928737,-0.010307276621460915,-0.0014656729763373733,-0.001009973231703043,0.0230044424533844,0.0004708661581389606,0.003950536251068115,-0.07871930301189423,-0.01682002656161785,-0.23373232781887054,0.0,0.0,0.0,0.0057241241447627544,-0.0036677198950201273,-0.0,0.0,0.0,0.0,-0.005741051398217678,-0.0007020747871138155,0.0074442424811422825,17040.0,10440.0,16963.0,8952.0,0.6643427610397339,0.234224334359169,0.6580985188484192,0.16742654144763947,0.0,0.0,0.0,0.0,10556.0,16648.0,9438.0,16058.0,1.6886614561080933,-0.05506467857053377,0.10480534840362773,0.015212471412492887,0.014923907816410065,0.017916610464453697,-0.0
450,5,-0.0002933679206762463,0.000390869565308094,0.000495627464260906,-0.002218044362962246,-0.005182723049074411,0.0025086572859436274,0.0220893993973732,0.0006324828136712313,0.002676137024536729,-0.04004321247339249,-0.00624983012676239,-0.18189318478107452,0.0,0.0,0.0,0.002311946591362357,-0.009647594764828682,-0.0,0.0,0.0,0.0,-0.004588820040225983,-0.0017178734997287393,-0.008555378764867783,11127.0,16477.0,10459.0,15783.0,0.26880282163619995,0.619128406047821,0.23514264822006226,0.56558758020401,0.0,0.0,0.0,0.0,15951.0,12123.0,15822.0,10839.0,1.7358171939849854,-0.0533723288237253,0.10505556313175825,0.014462567043317758,0.04035218432545662,0.007438573054969311,0.0
455,5,-0.00033210337278433144,0.00044307729694992304,0.0005027576116845012,-0.005535473581403494,-0.008338016457855701,0.00014784367522224784,0.0220893993973732,0.0006324828136712313,0.002676137024536729,-0.04004321247339249,-0.00624983012676239,-0.18189318478107452,0.0,0.0,0.0,0.002311946591362357,-0.009647594764828682,-0.0,0.0,0.0,0.0,-0.004588820040225983,-0.0017178734997287393,-0.008555378764867783,11127.0,16477.0,10459.0,15783.0,0.26880282163619995,0.619128406047821,0.23514264822006226,0.56558758020401,0.0,0.0,0.0,0.0,15951.0,12123.0,15822.0,10839.0,1.7358171939849854,-0.0545496866116916,0.10405327926247131,0.016544320029381585,0.04035218432545662,0.007438573054969311,0.0
460,5,-0.00040249002631753683,0.00043813695083372295,0.0005152494413778186,-0.010660586878657341,-0.00274236430414021,-0.0014398805797100067,0.02162850648164749,0.0013159455265849829,0.004175558686256409,-0.027115831151604652,-0.06113536283373833,-0.10864220559597015,0.0,0.0,0.0,0.010484406724572182,-0.00540356058627367,-0.0,0.0,0.0,0.0,-0.005133277270942926,-0.0034462392795830965,0.00474410317838192,14373.0,13770.0,14175.0,12578.0,0.46426326036453247,0.42392098903656006,0.45082610845565796,0.3496510982513428,0.0,0.0,0.0,0.0,14825.0,13215.0,14543.0,12219.0,1.7346458435058594,-0.05653963841890064,0.10375976893316345,0.015807778910591347,0.02258482575416565,0.03370922431349754,-0.0
465,5,-0.00038642011350020766,0.0004746550985146314,0.0005037125665694475,-0.0023358454927802086,-0.00547912297770381,0.0008084747241809964,0.02162850648164749,0.0013159455265849829,0.004175558686256409,-0.027115831151604652,-0.06113536283373833,-0.10864220559597015,0.0,0.0,0.0,0.010484406724572182,-0.00540356058627367,-0.0,0.0,0.0,0.0,-0.005133277270942926,-0.0034462392795830965,0.00474410317838192,14373.0,13770.0,14175.0,12578.0,0.46426326036453247,0.42392098903656006,0.45082610845565796,0.3496510982513428,0.0,0.0,0.0,0.0,14825.0,13215.0,14543.0,12219.0,1.7346458435058594,-0.05434279931077043,0.1039374182267296,0.014234309316197721,0.02258482575416565,0.03370922431349754,-0.0
471,5,-0.00044372104457579553,0.0005168138304725289,0.0004899983759969473,-0.007810449693351984,-0.007250696886330843,0.0019690897315740585,0.021129678934812546,0.0015387407038360834,0.0027016985695809126,-0.05593268200755119,-0.09634947031736374,0.3997451663017273,0.0,0.0,0.0,0.007373922038823366,-0.002665833802893758,-0.0,0.0,0.0,0.0,-0.005458236671984196,-0.005199218634516001,0.004879028536379337,16716.0,11277.0,16764.0,9226.0,0.6381734609603882,0.2766924500465393,0.6420394778251648,0.17891179025173187,0.0,0.0,0.0,0.0,10262.0,17369.0,9998.0,16301.0,1.6947600841522217,-0.05567048486429367,0.10243533271875656,0.016307714200530628,0.010886315256357193,0.02316371351480484,-0.0
476,5,-0.0004954178584739566,0.0004973371396772563,0.0005204489571042359,-0.00932779535651207,-0.0005630804807879031,-0.0028664309065788984,0.021129678934812546,0.0015387407038360834,0.0027016985695809126,-0.05593268200755119,-0.09634947031736374,0.3997451663017273,0.0,0.0,0.0,0.007373922038823366,-0.002665833802893758,-0.0,0.0,0.0,0.0,-0.005458236671984196,-0.005199218634516001,0.004879028536379337,16716.0,11277.0,16764.0,9226.0,0.6381734609603882,0.2766924500465393,0.6420394778251648,0.17891179025173187,0.0,0.0,0.0,0.0,10262.0,17369.0,9998.0,16301.0,1.6947600841522217,-0.058120098580719946,0.10134359493289337,0.0158288796570185,0.010886315256357193,0.02316371351480484,-0.0
481,5,-0.0004714813840109855,0.0005328687257133424,0.0005165738984942436,-0.0008587431511841714,-0.004489019047468901,-0.0006815694505348802,0.020818572491407394,0.0022459307219833136,0.002518011722713709,-0.03312905877828598,-0.002844145754352212,-0.30428722500801086,0.0,0.0,0.0,0.0015159468166530132,-0.009056895039975643,-0.0,0.0,0.0,0.0,-0.0034980045165866613,-0.002635728567838669,-0.009501343593001366,9779.0,17388.0,9639.0,16758.0,0.20318147540092468,0.693078875541687,0.19688913226127625,0.6414963006973267,0.0,0.0,0.0,0.0,16830.0,10722.0,17002.0,9203.0,1.7278306484222412,-0.05559834875483316,0.102016290676495,0.014287360896784465,0.03770734742283821,0.004855046514421701,0.0
486,5,-0.0005220856983214617,0.0005719796172343194,0.0005282929632812738,-0.006416019052267075,-0.006488913204520941,-0.0016789126675575972,0.020818572491407394,0.0022459307219833136,0.002518011722713709,-0.03312905877828598,-0.002844145754352212,-0.30428722500801086,0.0,0.0,0.0,0.0015159468166530132,-0.009056895039975643,-0.0,0.0,0.0,0.0,-0.0034980045165866613,-0.002635728567838669,-0.009501343593001366,9779.0,17388.0,9639.0,16758.0,0.20318147540092468,0.693078875541687,0.19688913226127625,0.6414963006973267,0.0,0.0,0.0,0.0,16830.0,10722.0,17002.0,9203.0,1.7278306484222412,-0.05724384701504279,0.10108252206737725,0.01595973216947697,0.03770734742283821,0.004855046514421701,0.0
