timestamp,dt,pos_x,pos_y,pos_z,vel_x,vel_y,vel_z,roll,pitch,yaw,agv_x,agv_y,agv_z,x_ref,y_ref,z_ref,roll_ref,pitch_ref,yaw_ref,x_vel_ref,y_vel_ref,z_vel_ref,x_torque,y_torque,z_torque,w0,w1,w2,w3,u0,u1,u2,u3,m0req,m1req,m2req,m3req,thrust0,thrust1,thrust2,thrust3,thrust_ref,roll_vicon,pitch_vicon,yaw_vicon,acc_x,acc_y,acc_z
5,5,0.0,0.0,0.0,0.0016627073055133224,0.003890456398949027,0.004953451454639435,-0.10746665298938751,-0.022230196744203568,0.00457944767549634,-0.0017469021258875728,0.0068229204043745995,0.003202464897185564,0.0,0.0,0.0,-0.00471693417057395,0.0015507213538512588,-0.0,0.0,0.0,0.0,0.030846375972032547,0.007263915613293648,0.0006642799125984311,1495.0,1495.0,1495.0,1495.0,0.0,0.0,0.0,0.0,0.0,0.0,0.0,0.0,1495.0,1495.0,1495.0,1495.0,1.668654441833496,-0.1257440568049245,0.044538742487169644,-0.03263457382476203,-0.00623515248298645,-0.014589211903512478,0.0
39,34,0.0,0.0,0.0,-0.0035813015419989824,-0.0016431332333013415,-0.008139439858496189,-0.10746665298938751,-0.022230196744203568,0.00457944767549634,-0.0017469021258875728,0.0068229204043745995,0.003202464897185564,0.0,0.0,0.0,-0.00471693417057395,0.0015507213538512588,-0.0,0.0,0.0,0.0,0.030846375972032547,0.007263915613293648,0.0006642799125984311,1495.0,1495.0,1495.0,1495.0,0.0,0.0,0.0,0.0,0.0,0.0,0.0,0.0,1495.0,1495.0,1495.0,1495.0,1.668654441833496,-0.1262620176655276,0.04367685784291154,-0.032769971469041474,-0.00623515248298645,-0.014589211903512478,0.0
44,5,0.0,0.0,0.0,-0.0002703503705561161,-0.0015999505994841456,-0.0033847345039248466,-0.10746665298938751,-0.022230196744203568,0.00457944767549634,-0.0017469021258875728,0.0068229204043745995,0.003202464897185564,0.0,0.0,0.0,0.0019710178021341562,-0.00025619339430704713,-0.0,0.0,0.0,0.0,0.030846375972032547,0.007263915613293648,0.0006642799125984311,1495.0,1495.0,1495.0,1495.0,0.0,0.0,0.0,0.0,0.0,0.0,0.0,0.0,1495.0,1495.0,1495.0,1495.0,1.6422498226165771,-0.12681074336734502,0.04372982645646655,-0.03274765298097344,0.0010138138895854354,0.005999814718961716,0.0
49,5,0.0,0.0,0.0,-0.0001890156854642555,0.001026737503707409,0.0032160067930817604,-0.10746484994888306,-0.02222788892686367,0.004544112831354141,-0.0006933071999810636,-0.005162587855011225,-0.0030711644794791937,0.0,0.0,0.0,0.0019710178021341562,-0.00025619339430704713,-0.0,0.0,0.0,0.0,0.030807577073574066,0.007049062289297581,0.0003622855874709785,1495.0,1495.0,1495.0,1495.0,0.0,0.0,0.0,0.0,0.0,0.0,0.0,0.0,1495.0,1495.0,1495.0,1495.0,1.6422498226165771,-0.12687540680986747,0.04356782178798759,-0.032375229498893765,0.0010138138895854354,0.005999814718961716,0.0
54,5,0.0,0.0,0.0,-0.0001890156854642555,0.001026737503707409,0.0032160067930817604,-0.10746484994888306,-0.02222788892686367,0.004544112831354141,-0.0006933071999810636,-0.005162587855011225,-0.0030711644794791937,0.0,0.0,0.0,0.0019710178021341562,-0.00025619339430704713,-0.0,0.0,0.0,0.0,0.030807577073574066,0.007049062289297581,0.0003622855874709785,1495.0,1495.0,1495.0,1495.0,0.0,0.0,0.0,0.0,0.0,0.0,0.0,0.0,1495.0,1495.0,1495.0,1495.0,1.6422498226165771,-0.12687540680986747,0.04356782178798759,-0.032375229498893765,0.0010138138895854354,0.005999814718961716,0.0
61,7,0.0,0.0,0.0,-0.0001890156854642555,0.001026737503707409,0.0032160067930817604,-0.10743839293718338,-0.02215990424156189,0.004597185179591179,0.0014320432674139738,-0.0009605706436559558,0.004758790135383606,0.0,0.0,0.0,-0.0012694065226241946,-0.00017976119124796242,-0.0,0.0,0.0,0.0,0.032814133912324905,0.006538137793540955,0.0005451625329442322,1495.0,1495.0,1495.0,1495.0,0.0,0.0,0.0,0.0,0.0,0.0,0.0,0.0,1495.0,1495.0,1495.0,1495.0,1.6363704204559326,-0.12687540680986747,0.04356782178798759,-0.032375229498893765,0.0007088088314048946,-0.0038502656389027834,0.0
67,5,0.0,0.0,0.0,-0.0001890156854642555,0.001026737503707409,0.0032160067930817604,-0.10743564367294312,-0.022172143682837486,0.004625551402568817,0.0022236998192965984,-0.0020175392273813486,0.005224435590207577,0.0,0.0,0.0,-0.0012694065226241946,-0.00017976119124796242,-0.0,0.0,0.0,0.0,0.032814133912324905,0.006538137793540955,0.0005451625329442322,11946.0,10252.0,15395.0,15804.0,0.31314679980278015,0.22517940402030945,0.5367400050163269,0.5671836733818054,0.0,0.0,0.0,0.0,1495.0,1495.0,1495.0,1495.0,1.6363704204559326,-0.12687540680986747,0.04356782178798759,-0.032375229498893765,0.0007088088314048946,-0.0038502656389027834,0.0
72,5,-4.016937964479439e-06,9.207022230839357e-06,4.292552330298349e-05,0.0003209092537872493,-0.0008053986239247024,-0.0030631590634584427,-0.10743564367294312,-0.022172143682837486,0.004625551402568817,0.0022236998192965984,-0.0020175392273813486,0.005224435590207577,0.0,0.0,0.0,-0.0012694065226241946,-0.00017976119124796242,-0.0,0.0,0.0,0.0,0.032814133912324905,0.006538137793540955,0.0005451625329442322,11946.0,10252.0,15395.0,15804.0,0.31314679980278015,0.22517940402030945,0.5367400050163269,0.5671836733818054,0.0,0.0,0.0,0.0,1495.0,1495.0,1495.0,1495.0,1.6363704204559326,-0.12565197048567323,0.044044548170479994,-0.03323518815825555,0.0007088088314048946,-0.0038502656389027834,0.0
77,5,6.38193068880355e-06,2.9267499485285953e-05,3.8507452700287104e-05,0.0002870217722374946,-0.0009712007595226169,-0.0029662351589649916,-0.10743843019008636,-0.022201010957360268,0.00462446128949523,-0.0012080003507435322,0.006891362834721804,0.0015269219875335693,0.0,0.0,0.0,0.0010135091142728925,0.00029990082839503884,-0.0,0.0,0.0,0.0,0.03287002071738243,0.006761475931853056,0.0003931692917831242,11901.0,10293.0,15336.0,15869.0,0.3105931878089905,0.22716087102890015,0.532389223575592,0.5721065402030945,0.0,0.0,0.0,0.0,11990.0,10305.0,15299.0,15753.0,1.6346763372421265,-0.12639246478957833,0.04373307851437293,-0.03253402079668939,-0.0011813024757429957,0.0030709155835211277,0.0
82,5,4.597162842401303e-06,-1.8264659047417808e-06,-8.264345524366945e-06,-9.936346032191068e-05,0.003342795418575406,0.004426121711730957,-0.10743843019008636,-0.022201010957360268,0.00462446128949523,-0.0012080003507435322,0.006891362834721804,0.0015269219875335693,0.0,0.0,0.0,0.0010135091142728925,0.00029990082839503884,-0.0,0.0,0.0,0.0,0.03287002071738243,0.006761475931853056,0.0003931692917831242,11901.0,10293.0,15336.0,15869.0,0.3105931878089905,0.22716087102890015,0.532389223575592,0.5721065402030945,0.0,0.0,0.0,0.0,11990.0,10305.0,15299.0,15753.0,1.6346763372421265,-0.12617187336602398,0.04385671680620457,-0.03289877827903508,-0.0011813024757429957,0.0030709155835211277,0.0
87,5,-1.311917367274873e-05,-2.0008663341286592e-05,-1.0708943136705784e-06,-0.0021657056640833616,0.003518981859087944,0.0009072346147149801,-0.10745280236005783,-0.022240672260522842,0.0046491664834320545,-0.0013325329637154937,0.001435157610103488,0.00038187523023225367,0.0,0.0,0.0,-0.004077990539371967,-8.68468705448322e-05,-0.0,0.0,0.0,0.0,0.03257453069090843,0.0068289367482066154,0.00046977063175290823,11907.0,10260.0,15301.0,15819.0,0.31095272302627563,0.22556757926940918,0.5298372507095337,0.5683187246322632,0.0,0.0,0.0,0.0,11963.0,10325.0,15300.0,15760.0,1.6597225666046143,-0.12743784542199102,0.04290021788375839,-0.032257057217315976,0.0003473265387583524,-0.012545502744615078,0.0
92,5,8.300540685013402e-06,-1.2918171705678105e-05,-1.7805998140829615e-05,0.0017040834063664079,0.0005567337502725422,0.0023711062967777252,-0.10745280236005783,-0.022240672260522842,0.0046491664834320545,-0.0013325329637154937,0.001435157610103488,0.00038187523023225367,0.0,0.0,0.0,-0.004077990539371967,-8.68468705448322e-05,-0.0,0.0,0.0,0.0,0.03257453069090843,0.0068289367482066154,0.00046977063175290823,11907.0,10260.0,15301.0,15819.0,0.31095272302627563,0.22556757926940918,0.5298372507095337,0.5683187246322632,0.0,0.0,0.0,0.0,11963.0,10325.0,15300.0,15760.0,1.6597225666046143,-0.1263599911199128,0.04429446003662336,-0.032859592475993175,0.0003473265387583524,-0.012545502744615078,0.0
97,5,-2.5290401026722975e-05,-3.29125759890303e-05,-2.3207117919810116e-05,-0.0033492795191705227,0.0026220218278467655,0.001596576883457601,-0.10745280236005783,-0.022240672260522842,0.0046491664834320545,-0.0013325329637154937,0.001435157610103488,0.00038187523023225367,0.0,0.0,0.0,-0.0007083793170750141,0.0016245084116235375,-0.0,0.0,0.0,0.0,0.03257453069090843,0.0068289367482066154,0.00046977063175290823,11907.0,10260.0,15301.0,15819.0,0.31095272302627563,0.22556757926940918,0.5298372507095337,0.5683187246322632,0.0,0.0,0.0,0.0,11963.0,10325.0,15300.0,15760.0,1.6441529989242554,-0.12798410079769706,0.0431087836586186,-0.0321762141134226,-0.006435996852815151,-0.0021588208619505167,0.0
103,5,1.556565439386759e-05,-1.8171202100347728e-05,-4.721785808214918e-05,0.003563014790415764,-0.0007201559492386878,0.003519919700920582,-0.1074521616101265,-0.022245120257139206,0.004632334690541029,-0.0015870778588578105,0.005043637473136187,-0.00011854239710373804,0.0,0.0,0.0,-0.0007083793170750141,0.0016245084116235375,-0.0,0.0,0.0,0.0,0.03265795484185219,0.006866988260298967,0.00035495992051437497,11868.0,10289.0,15272.0,15858.0,0.30877184867858887,0.22695375978946686,0.527698814868927,0.5712519288063049,0.0,0.0,0.0,0.0,11877.0,10293.0,15284.0,15838.0,1.6441529989242554,-0.12690431095454655,0.04380072486090091,-0.03221132978124287,-0.006435996852815151,-0.0021588208619505167,0.0
108,5,-2.073377345368499e-06,1.6520181816304103e-05,4.808965968550183e-06,-0.0006914778496138752,-0.004451028537005186,-0.0048352512530982494,-0.10745418071746826,-0.02225896343588829,0.00463327718898654,-0.0006940448074601591,-0.00048132395022548735,-0.004676295910030603,0.0,0.0,0.0,0.00541619211435318,-0.0006465573678724468,-0.0,0.0,0.0,0.0,0.0311479102820158,0.0066680386662483215,0.00033080254797823727,12050.0,10605.0,15260.0,15861.0,0.3190077245235443,0.24234148859977722,0.5268718600273132,0.5715015530586243,0.0,0.0,0.0,0.0,12177.0,10466.0,15341.0,15778.0,1.6716618537902832,-0.12835625216305532,0.04317458853891899,-0.03194490126948361,0.002604359993711114,0.016782134771347046,0.0
113,5,2.619054794195108e-05,2.5155626644846052e-05,9.736751053424086e-06,0.0031150798313319683,-0.0028166647534817457,-0.002525434596464038,-0.10745418071746826,-0.02225896343588829,0.00463327718898654,-0.0006940448074601591,-0.00048132395022548735,-0.004676295910030603,0.0,0.0,0.0,0.00541619211435318,-0.0006465573678724468,-0.0,0.0,0.0,0.0,0.0311479102820158,0.0066680386662483215,0.00033080254797823727,12050.0,10605.0,15260.0,15861.0,0.3190077245235443,0.24234148859977722,0.5268718600273132,0.5715015530586243,0.0,0.0,0.0,0.0,12177.0,10466.0,15341.0,15778.0,1.6716618537902832,-0.12566004834272723,0.04409503895522038,-0.032676846102028916,0.002604359993711114,0.016782134771347046,0.0
118,5,-4.862308742303867e-06,1.6285132005577907e-05,1.3765125004283618e-05,-0.0024803108535706997,-6.220651266630739e-05,-0.0014935786603018641,-0.10745418071746826,-0.02225896343588829,0.00463327718898654,-0.0006940448074601591,-0.00048132395022548735,-0.004676295910030603,0.0,0.0,0.0,0.00541619211435318,-0.0006465573678724468,-0.0,0.0,0.0,0.0,0.0311479102820158,0.0066680386662483215,0.00033080254797823727,12050.0,10605.0,15260.0,15861.0,0.3190077245235443,0.24234148859977722,0.5268718600273132,0.5715015530586243,0.0,0.0,0.0,0.0,12177.0,10466.0,15341.0,15778.0,1.6716618537902832,-0.12738285965852827,0.04274044893048717,-0.03164269285658073,0.009327840059995651,0.00032281666062772274,0.0
123,5,5.5111718211264815e-06,-4.364679625723511e-06,5.911220341658918e-06,0.0002526933094486594,0.002453094581142068,0.000345037056831643,-0.10742335766553879,-0.02220328338444233,0.004638857673853636,0.0012332884361967444,-0.0037953907158225775,-0.001229458604939282,0.0,0.0,0.0,0.00010548513091634959,-0.0023446253035217524,-0.0,0.0,0.0,0.0,0.03209901601076126,0.007047549355775118,0.0005049149040132761,11999.0,10333.0,15287.0,15843.0,0.31614935398101807,0.22905248403549194,0.5288204550743103,0.5701307654380798,0.0,0.0,0.0,0.0,12014.0,10320.0,15293.0,15835.0,1.6510344743728638,-0.12598511371576496,0.04349210880264838,-0.032659940263641454,0.009327840059995651,0.00032281666062772274,0.0
128,5,2.594044963188935e-05,-3.6282492601458216e-06,1.863313286776247e-06,0.0025525905657559633,0.0008928662282414734,0.0006237636553123593,-0.10742335766553879,-0.02220328338444233,0.004638857673853636,0.0012332884361967444,-0.0037953907158225775,-0.001229458604939282,0.0,0.0,0.0,0.00010548513091634959,-0.0023446253035217524,-0.0,0.0,0.0,0.0,0.03209901601076126,0.007047549355775118,0.0005049149040132761,11999.0,10333.0,15287.0,15843.0,0.31614935398101807,0.22905248403549194,0.5288204550743103,0.5701307654380798,0.0,0.0,0.0,0.0,12014.0,10320.0,15293.0,15835.0,1.6510344743728638,-0.1252919169197541,0.04380656185076,-0.032486461491036685,0.009327840059995651,0.00032281666062772274,0.0
133,5,2.5149824978143442e-06,-1.3044370462012012e-05,-2.0815930838580243e-05,-0.0017900197999551892,0.0014870810555294156,0.002971014706417918,-0.10743819922208786,-0.02219599112868309,0.0046682823449373245,-0.0010466381208971143,0.0006238493951968849,0.001011005020700395,0.0,0.0,0.0,-0.001847420702688396,-0.0016853155102580786,-0.0,0.0,0.0,0.0,0.03404353931546211,0.006491809617727995,0.0005748723051510751,11960.0,10320.0,15552.0,15986.0,0.3139188885688782,0.22842910885810852,0.5483263731002808,0.5809874534606934,0.0,0.0,0.0,0.0,11954.0,10331.0,15546.0,15989.0,1.6494919061660767,-0.12770099457426703,0.04321059338083514,-0.032304215735556606,0.006698573939502239,-0.005648382473737001,0.0
140,7,2.1079589714645408e-05,1.7375667766827974e-06,-4.432348760019522e-06,8.305516530526802e-05,-0.0019774457905441523,-0.0030724420212209225,-0.10743819922208786,-0.02219599112868309,0.0046682823449373245,-0.0010466381208971143,0.0006238493951968849,0.001011005020700395,0.0,0.0,0.0,-0.001847420702688396,-0.0016853155102580786,-0.0,0.0,0.0,0.0,0.03404353931546211,0.006491809617727995,0.0005748723051510751,11960.0,10320.0,15552.0,15986.0,0.3139188885688782,0.22842910885810852,0.5483263731002808,0.5809874534606934,0.0,0.0,0.0,0.0,11954.0,10331.0,15546.0,15989.0,1.6494919061660767,-0.12657916428439714,0.04408080260560943,-0.03259878213686567,0.006698573939502239,-0.005648382473737001,0.0
145,5,-1.8498161580282613e-06,-1.896759022201877e-05,-1.547850843053311e-05,-0.0027183066122233868,0.0016936406027525663,9.656237671151757e-05,-0.1074197068810463,-0.022221794351935387,0.004681816324591637,-0.0031243697740137577,0.003541100537404418,0.0028666271828114986,0.0,0.0,0.0,-0.001847420702688396,-0.0016853155102580786,-0.0,0.0,0.0,0.0,0.032424964010715485,0.006043640896677971,0.0005589023348875344,11968.0,10380.0,15427.0,15792.0,0.31435921788215637,0.23133692145347595,0.5390564799308777,0.5662818551063538,0.0,0.0,0.0,0.0,11927.0,10441.0,15383.0,15826.0,1.6494919061660767,-0.12881422690084313,0.04331118942879101,-0.032106265220876166,0.006698573939502239,-0.005648382473737001,0.0
152,7,-8.770811291469727e-06,2.0559868062264286e-05,1.413260088156676e-05,-0.0019178420770913363,-0.004065839108079672,-0.0035147082526236773,-0.10742831230163574,-0.022218341007828712,0.004693032242357731,0.004213846288621426,-0.0064643993973731995,0.0032329584937542677,0.0,0.0,0.0,-0.0021000609267503023,-0.00255333143286407,-0.0,0.0,0.0,0.0,0.03204049542546272,0.007283348124474287,0.0005659762537106872,12111.0,10315.0,15338.0,15846.0,0.32247135043144226,0.22821296751499176,0.5325130224227905,0.570400595664978,0.0,0.0,0.0,0.0,11974.0,10459.0,15358.0,15783.0,1.6584348678588867,-0.12828187780756048,0.04264818408441638,-0.03199361535856633,0.01020366232842207,-0.00645562494173646,0.0
157,5,1.500652069807984e-05,-1.4782983271288686e-05,-1.596624861122109e-05,0.002086143009364605,0.0026148066390305758,0.002205978613346815,-0.10742831230163574,-0.022218341007828712,0.004693032242357731,0.004213846288621426,-0.0064643993973731995,0.0032329584937542677,0.0,0.0,0.0,-0.0021000609267503023,-0.00255333143286407,-0.0,0.0,0.0,0.0,0.03204049542546272,0.007283348124474287,0.0005659762537106872,12111.0,10315.0,15338.0,15846.0,0.32247135043144226,0.22821296751499176,0.5325130224227905,0.570400595664978,0.0,0.0,0.0,0.0,11974.0,10459.0,15358.0,15783.0,1.6584348678588867,-0.12604617713806218,0.04393807963185655,-0.03295682945271656,0.01020366232842207,-0.00645562494173646,0.0
162,5,1.8269523934577592e-05,-2.4554203264415264e-05,-3.0124008844722994e-05,0.0012260174844413996,0.0022184690460562706,0.0025813227985054255,-0.10742831230163574,-0.022218341007828712,0.004693032242357731,0.004213846288621426,-0.0064643993973731995,0.0032329584937542677,0.0,0.0,0.0,-0.0021000609267503023,-0.00255333143286407,-0.0,0.0,0.0,0.0,0.03204049542546272,0.007283348124474287,0.0005659762537106872,12111.0,10315.0,15338.0,15846.0,0.32247135043144226,0.22821296751499176,0.5325130224227905,0.570400595664978,0.0,0.0,0.0,0.0,11974.0,10459.0,15358.0,15783.0,1.6584348678588867,-0.12558093171615606,0.04401242144762051,-0.032751454356023536,0.01020366232842207,-0.00645562494173646,0.0
167,5,2.198443326051347e-05,2.8006165848637465e-06,1.2889936442661565e-05,0.0009361961274407804,-0.002395190764218569,-0.004129144363105297,-0.1074223592877388,-0.02217225916683674,0.004709488712251186,-0.00032640460995025933,-0.0025760952848941088,0.0022667760495096445,0.0,0.0,0.0,-0.0027611185796558857,0.0011802951339632273,-0.0,0.0,0.0,0.0,0.0319160632789135,0.006093279458582401,0.0004951623268425465,11991.0,10435.0,15376.0,15769.0,0.31567010283470154,0.23397116363048553,0.5353035926818848,0.564547061920166,0.0,0.0,0.0,0.0,11968.0,10469.0,15334.0,15804.0,1.6519525051116943,-0.12408031296528597,0.04454210810706989,-0.033513166081805504,-0.004698273725807667,-0.00845454353839159,0.0
172,5,2.171575943066273e-06,-1.3496759265763103e-06,-3.92150686820969e-05,-0.002003064379096031,-0.0004600411921273917,0.004600943066179752,-0.1074223592877388,-0.02217225916683674,0.004709488712251186,-0.00032640460995025933,-0.0025760952848941088,0.0022667760495096445,0.0,0.0,0.0,-0.0027611185796558857,0.0011802951339632273,-0.0,0.0,0.0,0.0,0.0319160632789135,0.006093279458582401,0.0004951623268425465,11991.0,10435.0,15376.0,15769.0,0.31567010283470154,0.23397116363048553,0.5353035926818848,0.564547061920166,0.0,0.0,0.0,0.0,11968.0,10469.0,15334.0,15804.0,1.6519525051116943,-0.12661341633525397,0.04383514084741721,-0.033245356738643254,-0.004698273725807667,-0.00845454353839159,0.0
177,5,5.463394700200297e-06,2.8300904887146316e-05,2.0357678295113146e-05,-0.0004062074585817754,-0.003742086235433817,-0.0053083524107933044,-0.10739167034626007,-0.02219812199473381,0.00470414524897933,0.005706004332751036,-0.0015953003894537687,-0.0011404018150642514,0.0,0.0,0.0,0.0005627262871712446,-0.0018900856375694275,-0.0,0.0,0.0,0.0,0.031768929213285446,0.006036065518856049,0.0005060026305727661,12016.0,10523.0,15394.0,15795.0,0.3170805275440216,0.23826800286769867,0.5366116762161255,0.5664746761322021,0.0,0.0,0.0,0.0,11771.0,10793.0,15252.0,15935.0,1.6466014385223389,-0.12728919244783946,0.043753811359238254,-0.03257428503480255,0.00749931437894702,0.0017174899112433195,0.0
182,5,1.657461325521581e-05,6.706865406158613e-06,-3.119457687716931e-05,0.0011708632810041308,0.0010944503592327237,0.004062929656356573,-0.10739167034626007,-0.02219812199473381,0.00470414524897933,0.005706004332751036,-0.0015953003894537687,-0.0011404018150642514,0.0,0.0,0.0,0.0005627262871712446,-0.0018900856375694275,-0.0,0.0,0.0,0.0,0.031768929213285446,0.006036065518856049,0.0005060026305727661,12016.0,10523.0,15394.0,15795.0,0.3170805275440216,0.23826800286769867,0.5366116762161255,0.5664746761322021,0.0,0.0,0.0,0.0,11771.0,10793.0,15252.0,15935.0,1.6466014385223389,-0.12708735550297115,0.04307145637486171,-0.03239772282578479,0.00749931437894702,0.0017174899112433195,0.0
188,5,3.182523505529389e-05,-1.5260506188496947e-05,-7.335181726375595e-05,0.0022984198294579983,0.0030738646164536476,0.006684040650725365,-0.10735929012298584,-0.02211359329521656,0.0048244004137814045,0.007739821448922157,-0.000676395429763943,0.044835399836301804,0.0,0.0,0.0,-0.0013363041216507554,0.0011327203828841448,-0.0,0.0,0.0,0.0,0.03179815039038658,0.005721684545278549,0.0014222345780581236,12506.0,9932.0,15794.0,15392.0,0.3453551232814789,0.2101689875125885,0.5664195418357849,0.5364912152290344,0.0,0.0,0.0,0.0,12100.0,10462.0,15366.0,15798.0,1.6421619653701782,-0.1262670663825599,0.044236040306024856,-0.03307135771568906,-0.004482188727706671,-0.004067519214004278,0.0
193,5,3.241164449718781e-05,-3.6733379147335654e-06,-1.5203116163320374e-05,0.0009897369891405106,-0.00016091430734377354,-0.004304227884858847,-0.10735929012298584,-0.02211359329521656,0.0048244004137814045,0.007739821448922157,-0.000676395429763943,0.044835399836301804,0.0,0.0,0.0,-0.0013363041216507554,0.0011327203828841448,-0.0,0.0,0.0,0.0,0.03179815039038658,0.005721684545278549,0.0014222345780581236,12506.0,9932.0,15794.0,15392.0,0.3453551232814789,0.2101689875125885,0.5664195418357849,0.5364912152290344,0.0,0.0,0.0,0.0,12100.0,10462.0,15366.0,15798.0,1.6421619653701782,-0.12766079477532405,0.04404714283508764,-0.0319081961501152,-0.004482188727706671,-0.004067519214004278,0.0
198,5,1.987743416975718e-05,-6.485051784466123e-08,2.251562909805216e-05,-0.00110821018461138,-0.0004973842296749353,-0.006247940473258495,-0.10728347301483154,-0.022310715168714523,0.00455855205655098,-0.011190082877874374,0.0042642769403755665,-0.027960456907749176,0.0,0.0,0.0,0.00019220338435843587,0.0009865593165159225,-0.0,0.0,0.0,0.0,0.03162127360701561,0.007822053506970406,-0.0012269798899069428,11465.0,11069.0,14767.0,16334.0,0.28668826818466187,0.26579931378364563,0.49155277013778687,0.6079121232032776,0.0,0.0,0.0,0.0,13205.0,8812.0,16320.0,14824.0,1.636420488357544,-0.1257553578176572,0.0445007897301124,-0.033091849851670414,-0.0038901823572814465,0.0005829945439472795,0.0
203,5,-8.854226507537533e-07,7.385795015579788e-06,4.729003194370307e-05,-0.0021137779112905264,-0.002794975880533457,-0.0069402954541146755,-0.10728347301483154,-0.022310715168714523,0.00455855205655098,-0.011190082877874374,0.0042642769403755665,-0.027960456907749176,0.0,0.0,0.0,0.00019220338435843587,0.0009865593165159225,-0.0,0.0,0.0,0.0,0.03162127360701561,0.007822053506970406,-0.0012269798899069428,11465.0,11069.0,14767.0,16334.0,0.28668826818466187,0.26579931378364563,0.49155277013778687,0.6079121232032776,0.0,0.0,0.0,0.0,13205.0,8812.0,16320.0,14824.0,1.636420488357544,-0.12484105585092409,0.04486869308354547,-0.03293963375625603,-0.0038901823572814465,0.0005829945439472795,0.0
208,5,7.458638265234185e-06,1.419319346496195e-06,1.0557701898505911e-05,0.00015577609883621335,-0.00040201330557465553,0.0016317615518346429,-0.10746477544307709,-0.022303370758891106,0.004763849079608917,0.012802989222109318,0.04453117027878761,-0.15976162254810333,0.0,0.0,0.0,0.0034166276454925537,-0.0019811170641332865,-0.0,0.0,0.0,0.0,0.03285294771194458,0.006513464730232954,-0.0003199427737854421,10699.0,11611.0,14389.0,16734.0,0.24700425565242767,0.2946065068244934,0.4653615355491638,0.6396291851997375,0.0,0.0,0.0,0.0,10759.0,11569.0,14396.0,16721.0,1.661407470703125,-0.12886804912364133,0.04330778578126937,-0.03271372383733734,0.007931135594844818,0.01052157673984766,0.0
213,5,2.9435700525937136e-06,-1.1931112567253876e-05,-8.163596248778049e-06,-0.0004794977430719882,0.0014412464806810021,0.0028992602601647377,-0.10746477544307709,-0.022303370758891106,0.004763849079608917,0.012802989222109318,0.04453117027878761,-0.15976162254810333,0.0,0.0,0.0,0.0034166276454925537,-0.0019811170641332865,-0.0,0.0,0.0,0.0,0.03285294771194458,0.006513464730232954,-0.0003199427737854421,10699.0,11611.0,14389.0,16734.0,0.24700425565242767,0.2946065068244934,0.4653615355491638,0.6396291851997375,0.0,0.0,0.0,0.0,10759.0,11569.0,14396.0,16721.0,1.661407470703125,-0.12712936858729962,0.04404899749238318,-0.03258945446743764,0.007931135594844818,0.01052157673984766,0.0
218,5,2.278331885463558e-05,4.481799351196969e-06,-6.006002877256833e-05,0.0021889708004891872,-0.0013930508866906166,0.0073872762732207775,-0.10757763683795929,-0.022380303591489792,0.005118800327181816,-0.029018187895417213,-0.02903936058282852,0.12383533269166946,0.0,0.0,0.0,-0.0017981277778744698,-0.00045043963473290205,-0.0,0.0,0.0,0.0,0.03337153419852257,0.009191494435071945,8.196825365303084e-05,13826.0,7445.0,16932.0,14131.0,0.4276302456855774,0.11111725866794586,0.6555768847465515,0.4478376507759094,0.0,0.0,0.0,0.0,10572.0,11722.0,14065.0,16954.0,1.6413519382476807,-0.12832486818036395,0.04383814645427839,-0.03209173752097897,0.0017815150786191225,-0.00547054223716259,0.0
223,5,2.278331885463558e-05,4.481799351196969e-06,-6.006002877256833e-05,0.0021889708004891872,-0.0013930508866906166,0.0073872762732207775,-0.10757763683795929,-0.022380303591489792,0.005118800327181816,-0.029018187895417213,-0.02903936058282852,0.12383533269166946,0.0,0.0,0.0,-0.0017981277778744698,-0.00045043963473290205,-0.0,0.0,0.0,0.0,0.03337153419852257,0.009191494435071945,8.196825365303084e-05,13826.0,7445.0,16932.0,14131.0,0.4276302456855774,0.11111725866794586,0.6555768847465515,0.4478376507759094,0.0,0.0,0.0,0.0,10572.0,11722.0,14065.0,16954.0,1.6413519382476807,-0.12832486818036395,0.04383814645427839,-0.03209173752097897,0.0017815150786191225,-0.00547054223716259,0.0
228,5,3.145289883832447e-05,4.221478957333602e-05,-4.040035037178313e-06,0.0009888489730656147,-0.0051797605119645596,-0.004588915966451168,-0.10795313119888306,-0.022950895130634308,0.004711946472525597,-0.04270462691783905,0.038288798183202744,0.11344019323587418,0.0,0.0,0.0,0.001713533652946353,0.0020931612234562635,-0.0,0.0,0.0,0.0,0.03237675130367279,0.00807208102196455,-0.002471923828125,10569.0,11712.0,14114.0,16913.0,0.24052950739860535,0.3001093566417694,0.4466792941093445,0.6540338397026062,0.0,0.0,0.0,0.0,13286.0,8230.0,16391.0,14774.0,1.6524289846420288,-0.12873674586928585,0.0442139980719784,-0.033053296221763145,-0.008334440179169178,0.0052483598701655865,0.0
233,5,3.46295018971432e-05,4.974030525772832e-05,6.196623871801421e-05,0.0007767319330014288,-0.002974966075271368,-0.009756319224834442,-0.10795313119888306,-0.022950895130634308,0.004711946472525597,-0.04270462691783905,0.038288798183202744,0.11344019323587418,0.0,0.0,0.0,0.001713533652946353,0.0020931612234562635,-0.0,0.0,0.0,0.0,0.03237675130367279,0.00807208102196455,-0.002471923828125,10569.0,11712.0,14114.0,16913.0,0.24052950739860535,0.3001093566417694,0.4466792941093445,0.6540338397026062,0.0,0.0,0.0,0.0,13286.0,8230.0,16391.0,14774.0,1.6524289846420288,-0.12558272267900208,0.044610001436453835,-0.033715803479107666,-0.008334440179169178,0.0052483598701655865,0.0
238,5,3.46295018971432e-05,4.974030525772832e-05,6.196623871801421e-05,0.0007767319330014288,-0.002974966075271368,-0.009756319224834442,-0.10806575417518616,-0.02314072474837303,0.004860451444983482,-0.021842511370778084,0.04915967583656311,-0.11314170807600021,0.0,0.0,0.0,0.0037195421755313873,0.0007769828662276268,-0.0,0.0,0.0,0.0,0.03268047794699669,0.008803804405033588,0.002014330355450511,12575.0,9647.0,15525.0,15701.0,0.3494487702846527,0.19725361466407776,0.5463263988494873,0.559400200843811,0.0,0.0,0.0,0.0,12008.0,10201.0,15257.0,15911.0,1.6578155755996704,-0.12558272267900208,0.044610001436453835,-0.033715803479107666,-0.0031038199085742235,0.011429637670516968,0.0
243,5,5.657575820805505e-05,6.890998338349164e-05,0.00012953368423040956,0.0005189363146200776,-0.006333223544061184,-0.00819016806781292,-0.10806575417518616,-0.02314072474837303,0.004860451444983482,-0.021842511370778084,0.04915967583656311,-0.11314170807600021,0.0,0.0,0.0,0.0037195421755313873,0.0007769828662276268,-0.0,0.0,0.0,0.0,0.03268047794699669,0.008803804405033588,0.002014330355450511,12575.0,9647.0,15525.0,15701.0,0.3494487702846527,0.19725361466407776,0.5463263988494873,0.559400200843811,0.0,0.0,0.0,0.0,12008.0,10201.0,15257.0,15911.0,1.6578155755996704,-0.12609235801003932,0.04499164458209106,-0.03438410234428241,-0.0031038199085742235,0.011429637670516968,0.0
249,5,8.680665632709861e-05,4.408969834912568e-05,0.000149745203088969,0.0038352818228304386,0.0004451446875464171,-0.005701449699699879,-0.10719957947731018,-0.024502618238329887,0.004448053427040577,0.2270253598690033,0.07378605008125305,0.048728831112384796,0.0,0.0,0.0,0.007697669789195061,0.000554124650079757,-0.0,0.0,0.0,0.0,0.03100285865366459,0.010380387306213379,1.1490561519167386e-05,12581.0,10058.0,15198.0,15836.0,0.3498263955116272,0.21603381633758545,0.5223162770271301,0.5696390271186829,0.0,0.0,0.0,0.0,11881.0,10559.0,14766.0,16378.0,1.691123366355896,-0.12870900315558573,0.043014447392033715,-0.03417438395130723,-0.002257988788187504,0.024128777906298637,0.0
254,5,9.91671986412257e-05,7.674159860471264e-05,0.00020237934950273484,0.003017377806827426,-0.003740169806405902,-0.008596677333116531,-0.10719957947731018,-0.024502618238329887,0.004448053427040577,0.2270253598690033,0.07378605008125305,0.048728831112384796,0.0,0.0,0.0,0.007697669789195061,0.000554124650079757,-0.0,0.0,0.0,0.0,0.03100285865366459,0.010380387306213379,1.1490561519167386e-05,12581.0,10058.0,15198.0,15836.0,0.3498263955116272,0.21603381633758545,0.5223162770271301,0.5696390271186829,0.0,0.0,0.0,0.0,11881.0,10559.0,14766.0,16378.0,1.691123366355896,-0.12280801088128508,0.04482374865338692,-0.035478520118670684,-0.002257988788187504,0.024128777906298637,0.0
259,5,0.00010473905422259122,2.717309871513862e-05,0.00028451706748455763,0.0018755740020424128,0.004452151712030172,-0.013295196928083897,-0.10254619270563126,-0.025012753903865814,0.004720618948340416,0.5935328006744385,0.011960385367274284,-0.06536594778299332,0.0,0.0,0.0,0.004650147631764412,0.0029367138631641865,-0.0,0.0,0.0,0.0,0.02456090599298477,0.008719295263290405,-0.00016616348875686526,12279.0,11630.0,14267.0,15881.0,0.33213114738464355,0.29566121101379395,0.45702046155929565,0.5730027556419373,0.0,0.0,0.0,0.0,13354.0,9395.0,15766.0,15029.0,1.6762559413909912,-0.11633910205655355,0.04537605445508946,-0.036446613964909357,-0.011861744336783886,0.014448168687522411,0.0
264,5,0.00010818974260473624,3.0973751563578844e-06,0.000324369320878759,0.0011643123580142856,0.004669947549700737,-0.010100350715219975,-0.10254619270563126,-0.025012753903865814,0.004720618948340416,0.5935328006744385,0.011960385367274284,-0.06536594778299332,0.0,0.0,0.0,0.004650147631764412,0.0029367138631641865,-0.0,0.0,0.0,0.0,0.02456090599298477,0.008719295263290405,-0.00016616348875686526,12279.0,11630.0,14267.0,15881.0,0.33213114738464355,0.29566121101379395,0.45702046155929565,0.5730027556419373,0.0,0.0,0.0,0.0,13354.0,9395.0,15766.0,15029.0,1.6762559413909912,-0.11063245457722216,0.04423105384770909,-0.036844066772170905,-0.011861744336783886,0.014448168687522411,0.0
269,5,9.022281301440671e-05,-5.381765004131012e-05,0.0003844791790470481,-0.0016903068171814084,0.008697781711816788,-0.011253321543335915,-0.09568043053150177,-0.024528414011001587,0.004908310249447823,1.1861711740493774,-0.1485394835472107,0.05139267444610596,0.0,0.0,0.0,-0.0056353057734668255,0.0012296753702685237,-0.0,0.0,0.0,0.0,0.01456514373421669,0.004178308416157961,0.002304094610735774,13993.0,11562.0,14916.0,14068.0,0.43861013650894165,0.2919154763221741,0.5021018385887146,0.4436284899711609,0.0,0.0,0.0,0.0,12689.0,11997.0,14363.0,15646.0,1.6748934984207153,-0.10138983666182122,0.043164673851112424,-0.03871451627874056,-0.004962751641869545,-0.01749480329453945,0.0
274,5,0.0001009353218250908,-0.0001958697394002229,0.0005554878734983504,0.0006093787960708141,0.020525364205241203,-0.025022374466061592,-0.09568043053150177,-0.024528414011001587,0.004908310249447823,1.1861711740493774,-0.1485394835472107,0.05139267444610596,0.0,0.0,0.0,-0.0056353057734668255,0.0012296753702685237,-0.0,0.0,0.0,0.0,0.01456514373421669,0.004178308416157961,0.002304094610735774,13993.0,11562.0,14916.0,14068.0,0.43861013650894165,0.2919154763221741,0.5021018385887146,0.4436284899711609,0.0,0.0,0.0,0.0,12689.0,11997.0,14363.0,15646.0,1.6748934984207153,-0.09839075584576303,0.041603115976191346,-0.034640610695618856,-0.004962751641869545,-0.01749480329453945,0.0
279,5,0.00010835174907697365,-0.0002224523777840659,0.0006881016306579113,0.0011337221367284656,0.011400062590837479,-0.02592259645462036,-0.09568043053150177,-0.024528414011001587,0.004908310249447823,1.1861711740493774,-0.1485394835472107,0.05139267444610596,0.0,0.0,0.0,-0.022975709289312363,0.00064367480808869,-0.0,0.0,0.0,0.0,0.01456514373421669,0.004178308416157961,0.002304094610735774,13993.0,11562.0,14916.0,14068.0,0.43861013650894165,0.2919154763221741,0.5021018385887146,0.4436284899711609,0.0,0.0,0.0,0.0,12689.0,11997.0,14363.0,15646.0,1.8329540491104126,-0.08939105346547711,0.040105523306733,-0.03343791899480641,-0.0028422046452760696,-0.07804761826992035,0.0
284,5,6.506301724584773e-05,-0.00027044632588513196,0.0006250270525924861,-0.004741158802062273,0.010319296270608902,-0.0028000916354358196,-0.07852032035589218,-0.02280186489224434,0.004478776827454567,1.6813030242919922,-0.1501525491476059,-0.034371379762887955,0.0,0.0,0.0,-0.012437756173312664,-0.0041473559103906155,-0.0,0.0,0.0,0.0,0.001667084638029337,0.004451364744454622,-0.0016896078595891595,13689.0,13844.0,12934.0,14277.0,0.41866442561149597,0.42880257964134216,0.3711017072200775,0.45768722891807556,0.0,0.0,0.0,0.0,13352.0,13040.0,13770.0,14567.0,1.743188500404358,-0.0771934319919986,0.039729458543879395,-0.033163812564841334,0.01741938106715679,-0.04018598422408104,0.0
290,5,0.00010578371438896284,-0.00031908470555208623,0.000560021260753274,0.0029900202061980963,0.009964325465261936,0.006680657155811787,-0.07852032035589218,-0.02280186489224434,0.004478776827454567,1.6813030242919922,-0.1501525491476059,-0.034371379762887955,0.0,0.0,0.0,-0.012437756173312664,-0.0041473559103906155,-0.0,0.0,0.0,0.0,0.001667084638029337,0.004451364744454622,-0.0016896078595891595,13689.0,13844.0,12934.0,14277.0,0.41866442561149597,0.42880257964134216,0.3711017072200775,0.45768722891807556,0.0,0.0,0.0,0.0,13352.0,13040.0,13770.0,14567.0,1.743188500404358,-0.06899207855294372,0.0381795565139388,-0.03282185771567875,0.01741938106715679,-0.04018598422408104,0.0
295,5,9.021448931889609e-05,-0.0004306657356210053,0.000460569717688486,-0.0006722982507199049,0.01737545244395733,0.014606447890400887,-0.06373542547225952,-0.021613582968711853,0.0052909874357283115,2.0645275115966797,-0.12351062148809433,0.02280302345752716,0.0,0.0,0.0,-0.012437756173312664,-0.0041473559103906155,-0.0,0.0,0.0,0.0,-0.01424549613147974,0.0035167220048606396,0.002681424841284752,15558.0,13668.0,13153.0,12142.0,0.5487340688705444,0.4173235595226288,0.38459840416908264,0.3242374360561371,0.0,0.0,0.0,0.0,15303.0,13081.0,13778.0,12421.0,1.743188500404358,-0.054844385134168026,0.03781298892530592,-0.033646186116285205,0.0020225055050104856,-0.06752928346395493,-0.0
300,5,0.00013718637637794018,-0.0006169481202960014,0.00021466599719133228,0.0053677065297961235,0.02930406853556633,0.03535102680325508,-0.06373542547225952,-0.021613582968711853,0.0052909874357283115,2.0645275115966797,-0.12351062148809433,0.02280302345752716,0.0,0.0,0.0,-0.02017991617321968,-0.00046495237620547414,-0.0,0.0,0.0,0.0,-0.01424549613147974,0.0035167220048606396,0.002681424841284752,15558.0,13668.0,13153.0,12142.0,0.5487340688705444,0.4173235595226288,0.38459840416908264,0.3242374360561371,0.0,0.0,0.0,0.0,15303.0,13081.0,13778.0,12421.0,1.8055843114852905,-0.040569311643145846,0.038301614476814315,-0.03335430688087371,0.0020225055050104856,-0.06752928346395493,-0.0
305,5,5.988610064378008e-05,-0.0007154279155656695,0.00019596626225393265,-0.007128950208425522,0.02353920042514801,0.01638437807559967,-0.03786665201187134,-0.020436396822333336,0.005233013536781073,2.2536587715148926,-0.09770313650369644,0.060248423367738724,0.0,0.0,0.0,-0.02017991617321968,-0.00046495237620547414,-0.0,0.0,0.0,0.0,-0.028559602797031403,0.003923976793885231,0.0007204836583696306,16838.0,15425.0,12419.0,11815.0,0.6479513645172119,0.538925290107727,0.34024372696876526,0.3058336675167084,0.0,0.0,0.0,0.0,15724.0,15764.0,12095.0,13176.0,1.8055843114852905,-0.030095437145761416,0.037143402757491124,-0.03440623426530755,0.0020225055050104856,-0.06752928346395493,-0.0
310,5,6.978352030273527e-05,-0.0007426739321090281,0.00015218049520626664,-0.0016638899687677622,0.012685204856097698,0.011808043345808983,-0.03786665201187134,-0.020436396822333336,0.005233013536781073,2.2536587715148926,-0.09770313650369644,0.060248423367738724,0.0,0.0,0.0,-0.0264847781509161,-0.005833877716213465,-0.0,0.0,0.0,0.0,-0.028559602797031403,0.003923976793885231,0.0007204836583696306,16838.0,15425.0,12419.0,11815.0,0.6479513645172119,0.538925290107727,0.34024372696876526,0.3058336675167084,0.0,0.0,0.0,0.0,15724.0,15764.0,12095.0,13176.0,1.8787758350372314,-0.02071399785142441,0.036846643382491294,-0.03509565978434352,0.026401547715067863,-0.09221203625202179,-0.0
315,5,2.878295890695881e-05,-0.0008163992897607386,0.00018275836191605777,-0.005585622973740101,0.013921122066676617,0.0010538732167333364,-0.02104792185127735,-0.019417380914092064,0.005837023723870516,1.8108243942260742,-0.13781796395778656,-0.05388025939464569,0.0,0.0,0.0,-0.0264847781509161,-0.005833877716213465,-0.0,0.0,0.0,0.0,-0.02832632139325142,0.0012391869677230716,0.0006202242220751941,15654.0,15575.0,11913.0,12171.0,0.5559435486793518,0.5500455498695374,0.311283141374588,0.32591626048088074,0.0,0.0,0.0,0.0,15524.0,16094.0,11783.0,12851.0,1.8787758350372314,-0.02111251154318373,0.032464926987737154,-0.03539789153125538,0.026401547715067863,-0.09221203625202179,-0.0
320,5,-3.984673821832985e-05,-0.0007291285437531769,0.0002661724283825606,-0.010469812899827957,-0.004904039204120636,-0.009588138200342655,-0.02104792185127735,-0.019417380914092064,0.005837023723870516,1.8108243942260742,-0.13781796395778656,-0.05388025939464569,0.0,0.0,0.0,-0.01712157018482685,-0.004828097298741341,-0.0,0.0,0.0,0.0,-0.02832632139325142,0.0012391869677230716,0.0006202242220751941,15654.0,15575.0,11913.0,12171.0,0.5559435486793518,0.5500455498695374,0.311283141374588,0.32591626048088074,0.0,0.0,0.0,0.0,15524.0,16094.0,11783.0,12851.0,1.7868503332138062,-0.012674834375317684,0.033512143445414665,-0.033817009724356896,0.02078503556549549,-0.05670244246721268,-0.0
325,5,-9.904999751597643e-05,-0.0007029154803603888,0.00028706120792776346,-0.011292316019535065,-0.005107180215418339,-0.006341907661408186,-0.0035124679561704397,-0.01733068749308586,0.005804657470434904,1.0047273635864258,-0.2272324413061142,0.0725456178188324,0.0,0.0,0.0,-0.01712157018482685,-0.004828097298741341,-0.0,0.0,0.0,0.0,-0.02223348058760166,4.779391747433692e-05,0.0018927768105641007,16280.0,14755.0,13616.0,11660.0,0.6036814451217651,0.49069952964782715,0.41394472122192383,0.2972586750984192,0.0,0.0,0.0,0.0,15627.0,15585.0,13539.0,12835.0,1.7868503332138062,-0.011632268043783435,0.03296517413746055,-0.03482807992541067,0.02078503556549549,-0.05670244246721268,-0.0
330,5,-0.00014820032811257988,-0.0005957416724413633,0.0003477409190963954,-0.010414965450763702,-0.014903733506798744,-0.00981833040714264,-0.0035124679561704397,-0.01733068749308586,0.005804657470434904,1.0047273635864258,-0.2272324413061142,0.0725456178188324,0.0,0.0,0.0,0.004715395625680685,-0.010184349492192268,-0.0,0.0,0.0,0.0,-0.02223348058760166,4.779391747433692e-05,0.0018927768105641007,16280.0,14755.0,13616.0,11660.0,0.6036814451217651,0.49069952964782715,0.41394472122192383,0.2972586750984192,0.0,0.0,0.0,0.0,15627.0,15585.0,13539.0,12835.0,1.7477070093154907,-0.010874182916403912,0.031920155054516945,-0.03464945998197475,0.04288856312632561,0.01527539361268282,0.0
335,5,-0.00018353575433138758,-0.0004877764731645584,0.00036521503352560103,-0.008406237699091434,-0.018917318433523178,-0.0060242242179811,0.001358955865725875,-0.015752919018268585,0.0053523629903793335,0.16661962866783142,-0.15208959579467773,-0.0959080159664154,0.0,0.0,0.0,0.004715395625680685,-0.010184349492192268,-0.0,0.0,0.0,0.0,-0.012816423550248146,-0.0011387022677809,-0.002395017771050334,14317.0,15972.0,12848.0,14494.0,0.4604211747646332,0.5799294710159302,0.36584407091140747,0.47258108854293823,0.0,0.0,0.0,0.0,15004.0,14793.0,14166.0,13813.0,1.7477070093154907,-0.012562653317876541,0.03195715758796444,-0.03549845265066485,0.04288856312632561,0.01527539361268282,0.0
340,5,-0.00024073527310974896,-0.0003876529517583549,0.0004423260979820043,-0.010226438753306866,-0.01958174630999565,-0.011663018725812435,0.001358955865725875,-0.015752919018268585,0.0053523629903793335,0.16661962866783142,-0.15208959579467773,-0.0959080159664154,0.0,0.0,0.0,0.02016078494489193,-0.007393170613795519,-0.0,0.0,0.0,0.0,-0.012816423550248146,-0.0011387022677809,-0.002395017771050334,14317.0,15972.0,12848.0,14494.0,0.4604211747646332,0.5799294710159302,0.36584407091140747,0.47258108854293823,0.0,0.0,0.0,0.0,15004.0,14793.0,14166.0,13813.0,1.8264514207839966,-0.01808114574202074,0.030532407426986277,-0.035594797451232986,0.03253108263015747,0.06824497133493423,0.0
345,5,-0.0003478826256468892,-0.00021027920593041927,0.0005558072589337826,-0.016948256641626358,-0.02911754883825779,-0.018282948061823845,5.237922596279532e-05,-0.014235114678740501,0.005096228793263435,-0.43704521656036377,-0.06364326924085617,-0.04342621937394142,0.0,0.0,0.0,0.02016078494489193,-0.007393170613795519,-0.0,0.0,0.0,0.0,0.016224820166826248,0.00040824973257258534,-0.0001944854884641245,14206.0,13813.0,14225.0,14207.0,0.4529137909412384,0.42678096890449524,0.454166978597641,0.4529885947704315,0.0,0.0,0.0,0.0,13205.0,14286.0,13654.0,15225.0,1.8264514207839966,-0.022850541564982493,0.030615186789237425,-0.035317460259782996,0.03253108263015747,0.06824497133493423,0.0
350,5,-0.00041481555672362447,-1.9705086742760614e-05,0.000564657268114388,-0.014811255969107151,-0.03451591357588768,-0.008375177159905434,5.237922596279532e-05,-0.014235114678740501,0.005096228793263435,-0.43704521656036377,-0.06364326924085617,-0.04342621937394142,0.0,0.0,0.0,0.02980790287256241,-0.013899619691073895,-0.0,0.0,0.0,0.0,0.016224820166826248,0.00040824973257258534,-0.0001944854884641245,14206.0,13813.0,14225.0,14207.0,0.4529137909412384,0.42678096890449524,0.454166978597641,0.4529885947704315,0.0,0.0,0.0,0.0,13205.0,14286.0,13654.0,15225.0,1.9556286334991455,-0.02868972077072659,0.030300263636222482,-0.03510218747260991,0.06546878069639206,0.1080213338136673,0.0
355,5,-0.0004796778957825154,0.0001875362213468179,0.0006800169358029962,-0.013707983307540417,-0.038675323128700256,-0.017193229869008064,-0.005007724277675152,-0.013954335823655128,0.004506273660808802,-0.8617591857910156,-0.05001579970121384,0.052534595131874084,0.0,0.0,0.0,0.02980790287256241,-0.013899619691073895,-0.0,0.0,0.0,0.0,0.027416884899139404,0.0006933195982128382,-0.0015546634094789624,13248.0,12393.0,15332.0,14692.0,0.39051222801208496,0.338772177696228,0.5321176648139954,0.4863049387931824,0.0,0.0,0.0,0.0,13344.0,11827.0,15819.0,14549.0,1.9556286334991455,-0.03565583354454986,0.03047538363532468,-0.03544706674286339,0.06546878069639206,0.1080213338136673,0.0
360,5,-0.0005151131772436202,0.0003392034850548953,0.0005925011355429888,-0.009735423140227795,-0.033670201897621155,0.0036246012896299362,-0.0166462454944849,-0.01335899531841278,0.004535109736025333,-1.077401041984558,-0.06530267745256424,-0.10595289617776871,0.0,0.0,0.0,0.03501035273075104,-0.00827208161354065,-0.0,0.0,0.0,0.0,0.03282393887639046,-0.0015754267806187272,0.00040882648318074644,11451.0,13055.0,15277.0,16663.0,0.2859549820423126,0.37848976254463196,0.5280619263648987,0.6339446902275085,0.0,0.0,0.0,0.0,11165.0,13177.0,15149.0,16873.0,1.9749829769134521,-0.04229069522726521,0.029927187390044543,-0.0356416963349897,0.03934222459793091,0.1281171292066574,-0.0
366,6,-0.0005419643712230027,0.0005090045160613954,0.0005073455395177007,-0.0071163116954267025,-0.033844202756881714,0.011668510735034943,-0.0166462454944849,-0.01335899531841278,0.004535109736025333,-1.077401041984558,-0.06530267745256424,-0.10595289617776871,0.0,0.0,0.0,0.03501035273075104,-0.00827208161354065,-0.0,0.0,0.0,0.0,0.03282393887639046,-0.0015754267806187272,0.00040882648318074644,11451.0,13055.0,15277.0,16663.0,0.2859549820423126,0.37848976254463196,0.5280619263648987,0.6339446902275085,0.0,0.0,0.0,0.0,11165.0,13177.0,15149.0,16873.0,1.9749829769134521,-0.04483858666873639,0.030862456507879794,-0.03555055488494163,0.03934222459793091,0.1281171292066574,-0.0
371,5,-0.000622041814494878,0.0006444590981118381,0.0004360005841590464,-0.012455818243324757,-0.02979223057627678,0.013228798285126686,-0.0166462454944849,-0.01335899531841278,0.004535109736025333,-1.077401041984558,-0.06530267745256424,-0.10595289617776871,0.0,0.0,0.0,0.03183005377650261,-0.010652663186192513,-0.0,0.0,0.0,0.0,0.03282393887639046,-0.0015754267806187272,0.00040882648318074644,11451.0,13055.0,15277.0,16663.0,0.2859549820423126,0.37848976254463196,0.5280619263648987,0.6339446902275085,0.0,0.0,0.0,0.0,11165.0,13177.0,15149.0,16873.0,1.9541165828704834,-0.04817688529402685,0.030560000403647567,-0.035198243333139916,0.05013399198651314,0.11525589227676392,-0.0
376,5,-0.000698744086548686,0.0007552654133178294,0.0003621341602411121,-0.014186602085828781,-0.02521365135908127,0.014155492186546326,-0.0166462454944849,-0.01335899531841278,0.004535109736025333,-1.077401041984558,-0.06530267745256424,-0.10595289617776871,0.0,0.0,0.0,0.03183005377650261,-0.010652663186192513,-0.0,0.0,0.0,0.0,0.03282393887639046,-0.0015754267806187272,0.00040882648318074644,11451.0,13055.0,15277.0,16663.0,0.2859549820423126,0.37848976254463196,0.5280619263648987,0.6339446902275085,0.0,0.0,0.0,0.0,11165.0,13177.0,15149.0,16873.0,1.9541165828704834,-0.04971897712018712,0.030961172782906648,-0.03567707522666299,0.05013399198651314,0.11525589227676392,-0.0
381,5,-0.0007054002489894629,0.000786720251198858,0.0001847310777520761,-0.0064733801409602165,-0.01386004313826561,0.026950566098093987,-0.02491803467273712,-0.01281663402915001,0.004011764656752348,-0.9224330186843872,-0.0524541400372982,0.0438900925219059,0.0,0.0,0.0,0.03183005377650261,-0.010652663186192513,-0.0,0.0,0.0,0.0,0.028286388143897057,0.0015285726403817534,-0.0021800457034260035,12106.0,13824.0,15475.0,17263.0,0.3222162127494812,0.42749375104904175,0.5425770878791809,0.6826959252357483,0.0,0.0,0.0,0.0,12882.0,12518.0,16761.0,16231.0,1.9541165828704834,-0.044349062358338014,0.03276450186965576,-0.03713208360216255,0.028160788118839264,0.056295379996299744,-0.0
386,5,-0.0007621526601724327,0.0008722259663045406,0.0001808720699045807,-0.00939964223653078,-0.015804702416062355,0.011243307031691074,-0.02491803467273712,-0.01281663402915001,0.004011764656752348,-0.9224330186843872,-0.0524541400372982,0.0438900925219059,0.0,0.0,0.0,0.01693541929125786,-0.006517068948596716,-0.0,0.0,0.0,0.0,0.028286388143897057,0.0015285726403817534,-0.0021800457034260035,12106.0,13824.0,15475.0,17263.0,0.3222162127494812,0.42749375104904175,0.5425770878791809,0.6826959252357483,0.0,0.0,0.0,0.0,12882.0,12518.0,16761.0,16231.0,1.7935189008712769,-0.04171200206550957,0.032310350204327494,-0.035723943087006785,0.028160788118839264,0.056295379996299744,-0.0
391,5,-0.000834666658192873,0.0008016186184249818,0.00021902250591665506,-0.012461538426578045,0.0021510024089366198,-8.072856144281104e-05,-0.03354251757264137,-0.012327635660767555,0.003668771591037512,0.37997379899024963,0.023115884512662888,-2.2089214326115325e-05,0.0,0.0,0.0,0.01693541929125786,-0.006517068948596716,-0.0,0.0,0.0,0.0,0.01635747030377388,0.00017120775009971112,0.0011988695478066802,14067.0,13438.0,15814.0,15441.0,0.4435368776321411,0.4025592803955078,0.5679435729980469,0.5400768518447876,0.0,0.0,0.0,0.0,12895.0,13725.0,15721.0,16542.0,1.7935189008712769,-0.0427341716512829,0.03159063423931303,-0.0372147881847596,0.028160788118839264,0.056295379996299744,-0.0
397,5,-0.0008531820494681597,0.0007971432060003281,0.000278630992397666,-0.007206458132714033,0.0013974470784887671,-0.007185311987996101,-0.03354251757264137,-0.012327635660767555,0.003668771591037512,0.37997379899024963,0.023115884512662888,-2.2089214326115325e-05,0.0,0.0,0.0,-0.0011201929301023483,-0.012080890126526356,-0.0,0.0,0.0,0.0,0.01635747030377388,0.00017120775009971112,0.0011988695478066802,14067.0,13438.0,15814.0,15441.0,0.4435368776321411,0.4025592803955078,0.5679435729980469,0.5400768518447876,0.0,0.0,0.0,0.0,12895.0,13725.0,15721.0,16542.0,1.7633297443389893,-0.03862002259715829,0.031048867536078023,-0.03645413801173943,0.05133026838302612,-0.0036612951662391424,0.0
402,5,-0.0008894614293240011,0.0007483154768124223,0.0003424003953114152,-0.007236110977828503,0.006418309640139341,-0.010526451282203197,-0.025794168934226036,-0.012207482010126114,0.002905279630795121,0.9820711016654968,-0.04893650487065315,-0.06067400425672531,0.0,0.0,0.0,-0.0011201929301023483,-0.012080890126526356,-0.0,0.0,0.0,0.0,0.00015581097977701575,0.0005288227112032473,-0.0017924434505403042,13702.0,14770.0,13423.0,14610.0,0.4195290803909302,0.49180060625076294,0.4015880823135376,0.48060113191604614,0.0,0.0,0.0,0.0,13662.0,14444.0,14955.0,15751.0,1.7633297443389893,-0.033123592171008284,0.030572182558551597,-0.036435481133880475,0.032039400190114975,-0.019954245537519455,0.0
407,5,-0.0009644782403483987,0.0006491558160632849,0.000364480831194669,-0.011896464973688126,0.01446648221462965,-0.006860234308987856,-0.025794168934226036,-0.012207482010126114,0.002905279630795121,0.9820711016654968,-0.04893650487065315,-0.06067400425672531,0.0,0.0,0.0,-0.006233182270079851,-0.007698802277445793,-0.0,0.0,0.0,0.0,0.00015581097977701575,0.0005288227112032473,-0.0017924434505403042,13702.0,14770.0,13423.0,14610.0,0.4195290803909302,0.49180060625076294,0.4015880823135376,0.48060113191604614,0.0,0.0,0.0,0.0,13662.0,14444.0,14955.0,15751.0,1.7271180152893066,-0.02644772254227359,0.02985874278821908,-0.03662735206704883,0.032039400190114975,-0.019954245537519455,0.0
412,5,-0.0010340468725189567,0.0005586275365203619,0.0004169554158579558,-0.013106822036206722,0.016649989411234856,-0.009041042998433113,-0.01656307652592659,-0.01179375872015953,0.003026378806680441,1.3581562042236328,-0.078140489757061,-0.046236321330070496,0.0,0.0,0.0,-0.006233182270079851,-0.007698802277445793,-0.0,0.0,0.0,0.0,-0.01047603227198124,-1.792780494724866e-05,0.0007109404541552067,14962.0,15126.0,13111.0,12732.0,0.5053751468658447,0.5171419382095337,0.3819757401943207,0.35883691906929016,0.0,0.0,0.0,0.0,14710.0,14325.0,13952.0,13539.0,1.7271180152893066,-0.01872647144290976,0.02826217841610781,-0.03673142027893633,0.032039400190114975,-0.019954245537519455,0.0
417,5,-0.001136450911872089,0.0004459724295884371,0.0004721099103335291,-0.01753121241927147,0.02017860673367977,-0.010234957560896873,-0.01656307652592659,-0.01179375872015953,0.003026378806680441,1.3581562042236328,-0.078140489757061,-0.046236321330070496,0.0,0.0,0.0,-0.017408467829227448,-0.012374622747302055,-0.0,0.0,0.0,0.0,-0.021916018798947334,-0.0026363639626652002,-0.00026858961791731417,15372.0,15592.0,12760.0,12005.0,0.5350605249404907,0.5512704849243164,0.36054468154907227,0.31645405292510986,0.0,0.0,0.0,0.0,14453.0,15970.0,12043.0,13322.0,1.8399102687835693,-0.010726375581074034,0.026624149125177958,-0.03674094187045124,0.054853405803442,-0.05936437472701073,0.0
422,5,-0.001244061510078609,0.00034305485314689577,0.0004963370738551021,-0.01992574892938137,0.020421549677848816,-0.007001239340752363,-0.01656307652592659,-0.01179375872015953,0.003026378806680441,1.3581562042236328,-0.078140489757061,-0.046236321330070496,0.0,0.0,0.0,-0.017408467829227448,-0.012374622747302055,-0.0,0.0,0.0,0.0,-0.021916018798947334,-0.0026363639626652002,-0.00026858961791731417,15372.0,15592.0,12760.0,12005.0,0.5350605249404907,0.5512704849243164,0.36054468154907227,0.31645405292510986,0.0,0.0,0.0,0.0,14453.0,15970.0,12043.0,13322.0,1.8399102687835693,-0.005341900986086758,0.025111811128283874,-0.03666457457944375,0.054853405803442,-0.05936437472701073,0.0
427,5,-0.0013306852197274566,0.00024538676370866597,0.0005191984819248319,-0.018365144729614258,0.01988879404962063,-0.005543865263462067,0.01128826942294836,-0.009645000100135803,0.002129737287759781,1.2441149950027466,-0.16548530757427216,-0.09889830648899078,0.0,0.0,0.0,-0.02103443071246147,-0.01767570897936821,-0.0,0.0,0.0,0.0,-0.025626081973314285,-0.0028475462459027767,-0.0018243626691401005,15101.0,16878.0,11891.0,12806.0,0.5153526663780212,0.6511937975883484,0.31006771326065063,0.3632960915565491,0.0,0.0,0.0,0.0,15594.0,15401.0,12573.0,11511.0,1.9159932136535645,-3.9489280199866525e-05,0.023453135408230682,-0.0366312040324403,0.08158381283283234,-0.07469217479228973,0.0
432,5,-0.0014361757785081863,0.0001517489436082542,0.0005022804834879935,-0.02000492997467518,0.019192054867744446,-0.00018738607468549162,0.01128826942294836,-0.009645000100135803,0.002129737287759781,1.2441149950027466,-0.16548530757427216,-0.09889830648899078,0.0,0.0,0.0,-0.02103443071246147,-0.01767570897936821,-0.0,0.0,0.0,0.0,-0.025626081973314285,-0.0028475462459027767,-0.0018243626691401005,15101.0,16878.0,11891.0,12806.0,0.5153526663780212,0.6511937975883484,0.31006771326065063,0.3632960915565491,0.0,0.0,0.0,0.0,15594.0,15401.0,12573.0,11511.0,1.9159932136535645,0.0033986691157419312,0.02253087077632577,-0.037092259237533905,0.08158381283283234,-0.07469217479228973,0.0
437,5,-0.0015489005018025637,-1.4428969734581187e-06,0.00046698952792212367,-0.02152894251048565,0.026059841737151146,0.004159959033131599,0.024252627044916153,-0.007766773458570242,0.001777156605385244,0.8296954035758972,-0.17236240208148956,0.06088617816567421,0.0,0.0,0.0,-0.020067676901817322,-0.018001796677708626,-0.0,0.0,0.0,0.0,-0.026046693325042725,-0.005070358514785767,0.0009264024556614459,16093.0,15677.0,13550.0,11402.0,0.5892459154129028,0.5576525926589966,0.40967708826065063,0.2833346128463745,0.0,0.0,0.0,0.0,15177.0,16769.0,12189.0,12580.0,1.9125807285308838,0.0002915312442520748,0.017838403112186745,-0.038604486766701494,0.0829424038529396,-0.07113321870565414,0.0
442,5,-0.0016593248583376408,6.973148992983624e-05,0.000393474823795259,-0.02186250127851963,0.0018830104963853955,0.010485748760402203,0.024252627044916153,-0.007766773458570242,0.001777156605385244,0.8296954035758972,-0.17236240208148956,0.06088617816567421,0.0,0.0,0.0,-0.020067676901817322,-0.018001796677708626,-0.0,0.0,0.0,0.0,-0.026046693325042725,-0.005070358514785767,0.0009264024556614459,16093.0,15677.0,13550.0,11402.0,0.5892459154129028,0.5576525926589966,0.40967708826065063,0.2833346128463745,0.0,0.0,0.0,0.0,15177.0,16769.0,12189.0,12580.0,1.9125807285308838,0.010348190364391817,0.02087214992582599,-0.0373109166386935,0.0829424038529396,-0.07113321870565414,0.0
447,5,-0.001794354640878737,4.586525392369367e-05,0.00037145850365050137,-0.024948569014668465,0.0036171528045088053,0.006836255546659231,0.02874644659459591,-0.006502969190478325,0.0015626100357621908,0.24455539882183075,-0.17294766008853912,-0.09352187812328339,0.0,0.0,0.0,-0.001928974175825715,-0.020261311903595924,-0.0,0.0,0.0,0.0,-0.020490705966949463,-0.007503216154873371,-0.0016115560429170728,14579.0,16835.0,13056.0,13575.0,0.4784134030342102,0.6476917862892151,0.37855806946754456,0.4113299548625946,0.0,0.0,0.0,0.0,15986.0,16086.0,13929.0,12046.0,1.8669248819351196,0.011722592692022605,0.01995831501331856,-0.03823672525508089,0.09114141762256622,-0.006675154436379671,-0.0
452,5,-0.0019673537462949753,-1.344711836281931e-05,0.0005124003509990871,-0.030739331617951393,0.00856434553861618,-0.014178515411913395,0.02874644659459591,-0.006502969190478325,0.0015626100357621908,0.24455539882183075,-0.17294766008853912,-0.09352187812328339,0.0,0.0,0.0,-0.001928974175825715,-0.020261311903595924,-0.0,0.0,0.0,0.0,-0.020490705966949463,-0.007503216154873371,-0.0016115560429170728,14579.0,16835.0,13056.0,13575.0,0.4784134030342102,0.6476917862892151,0.37855806946754456,0.4113299548625946,0.0,0.0,0.0,0.0,15986.0,16086.0,13929.0,12046.0,1.8669248819351196,0.006530477950186526,0.016372350667517886,-0.04089655436603305,0.09114141762256622,-0.006675154436379671,-0.0
458,5,-0.0020402895752340555,0.00012983745546080172,0.00029338206513784826,-0.021048031747341156,-0.013768410310149193,0.020610783249139786,0.02874644659459591,-0.006502969190478325,0.0015626100357621908,0.24455539882183075,-0.17294766008853912,-0.09352187812328339,0.0,0.0,0.0,-0.00883775856345892,-0.026643266901373863,-0.0,0.0,0.0,0.0,-0.020490705966949463,-0.007503216154873371,-0.0016115560429170728,14579.0,16835.0,13056.0,13575.0,0.4784134030342102,0.6476917862892151,0.37855806946754456,0.4113299548625946,0.0,0.0,0.0,0.0,15986.0,16086.0,13929.0,12046.0,1.9649403095245361,0.009025829926932323,0.01810462660091512,-0.03947192151161726,0.1261305809020996,-0.03218768909573555,0.0
463,5,-0.002112777205184102,0.00020631753432098776,0.0004036538302898407,-0.017117729410529137,-0.01468497421592474,-0.0049882978200912476,0.02673514559864998,-0.00446889316663146,0.0011632072273641825,-0.49757906794548035,-0.18625439703464508,0.018743004649877548,0.0,0.0,0.0,-0.00883775856345892,-0.026643266901373863,-0.0,0.0,0.0,0.0,-0.008323339745402336,-0.007915720343589783,0.0006478446302935481,14714.0,15321.0,14865.0,13318.0,0.48785462975502014,0.5312761068344116,0.49850228428840637,0.39494773745536804,0.0,0.0,0.0,0.0,14272.0,16542.0,13376.0,13898.0,1.9649403095245361,0.0029253069240729903,0.01704477335418595,-0.03940138079427211,0.1261305809020996,-0.03218768909573555,0.0
468,5,-0.002289659809321165,0.00030832012998871505,0.0006125965737737715,-0.028072990477085114,-0.018114300444722176,-0.027068449184298515,0.02673514559864998,-0.00446889316663146,0.0011632072273641825,-0.49757906794548035,-0.18625439703464508,0.018743004649877548,0.0,0.0,0.0,0.016175881028175354,-0.016794763505458832,-0.0,0.0,0.0,0.0,-0.008323339745402336,-0.007915720343589783,0.0006478446302935481,14714.0,15321.0,14865.0,13318.0,0.48785462975502014,0.5312761068344116,0.49850228428840637,0.39494773745536804,0.0,0.0,0.0,0.0,14272.0,16542.0,13376.0,13898.0,1.8747611045837402,-0.004851257471066612,0.015153016124618389,-0.03986370205236322,0.07585679739713669,0.05620668828487396,0.0
473,5,-0.0022730582859367132,0.00046413441305048764,0.0005445803399197757,-0.00923701748251915,-0.025943433865904808,-0.002665427513420582,0.020335791632533073,-0.0033569333609193563,0.0006513953558169305,-1.019242763519287,-0.12500740587711334,-0.10978899896144867,0.0,0.0,0.0,0.016175881028175354,-0.016794763505458832,-0.0,0.0,0.0,0.0,0.008827329613268375,-0.008041818626224995,-0.002482509007677436,12141.0,15264.0,14554.0,15425.0,0.32419517636299133,0.5271120071411133,0.4766782224178314,0.5389394164085388,0.0,0.0,0.0,0.0,12930.0,15129.0,15562.0,15272.0,1.8747611045837402,-0.00440258684138399,0.017301732798795596,-0.039589923421518444,0.07585679739713669,0.05620668828487396,0.0
478,5,-0.0023087002336978912,0.0005704002105630934,0.0005379504873417318,-0.00797184370458126,-0.02312927320599556,-0.0002705874212551862,0.020335791632533073,-0.0033569333609193563,0.0006513953558169305,-1.019242763519287,-0.12500740587711334,-0.10978899896144867,0.0,0.0,0.0,0.02812541276216507,-0.01022788044065237,-0.0,0.0,0.0,0.0,0.008827329613268375,-0.008041818626224995,-0.002482509007677436,12141.0,15264.0,14554.0,15425.0,0.32419517636299133,0.5271120071411133,0.4766782224178314,0.5389394164085388,0.0,0.0,0.0,0.0,12930.0,15129.0,15562.0,15272.0,1.9156898260116577,-0.00826606335610196,0.018172171894389057,-0.03983768556841585,0.047193627804517746,0.0998455286026001,0.0
