timestamp,dt,pos_x,pos_y,pos_z,vel_x,vel_y,vel_z,roll,pitch,yaw,agv_x,agv_y,agv_z,x_ref,y_ref,z_ref,roll_ref,pitch_ref,yaw_ref,x_vel_ref,y_vel_ref,z_vel_ref,x_torque,y_torque,z_torque,w0,w1,w2,w3,u0,u1,u2,u3,m0req,m1req,m2req,m3req,thrust0,thrust1,thrust2,thrust3,thrust_ref,roll_vicon,pitch_vicon,yaw_vicon,acc_x,acc_y,acc_z
5,5,0.0,0.0,0.0,0.0,-0.0,-0.0,0.02689412236213684,0.17932653427124023,-0.007999471388757229,0.00436204532161355,0.0008906347793526947,0.002766967983916402,0.0,0.0,0.0,-0.0,-0.0,-0.0,0.0,0.0,0.0,-0.008117047138512135,-0.05382972210645676,-0.0007051303400658071,1495.0,1495.0,1495.0,1495.0,0.0,0.0,0.0,0.0,0.0,0.0,0.0,0.0,1495.0,1495.0,1495.0,1495.0,1.6284600496292114,0.0,0.0,0.0,0.0,0.0,0.0
29,24,0.0,0.0,0.0,0.0,-0.0,-0.0,0.02689412236213684,0.17932653427124023,-0.007999471388757229,0.00436204532161355,0.0008906347793526947,0.002766967983916402,0.0,0.0,0.0,-0.0,-0.0,-0.0,0.0,0.0,0.0,-0.008117047138512135,-0.05382972210645676,-0.0007051303400658071,1495.0,1495.0,1495.0,1495.0,0.0,0.0,0.0,0.0,0.0,0.0,0.0,0.0,1495.0,1495.0,1495.0,1495.0,1.6284600496292114,0.0,0.0,0.0,0.0,0.0,0.0
34,5,0.0,0.0,0.0,0.0,-0.0,-0.0,0.02689412236213684,0.17932653427124023,-0.007999471388757229,0.00436204532161355,0.0008906347793526947,0.002766967983916402,0.0,0.0,0.0,-0.0,-0.0,-0.0,0.0,0.0,0.0,-0.008117047138512135,-0.05382972210645676,-0.0007051303400658071,1495.0,1495.0,1495.0,1495.0,0.0,0.0,0.0,0.0,0.0,0.0,0.0,0.0,1495.0,1495.0,1495.0,1495.0,1.6284600496292114,0.0,0.0,0.0,0.0,0.0,0.0
50,16,0.0,0.0,0.0,0.0,-0.0,-0.0,0.026894614100456238,0.1792985498905182,-0.0079877320677042,-0.0032866369001567364,-0.0016993869794532657,0.0012121688341721892,0.0,0.0,0.0,-0.0,-0.0,-0.0,0.0,0.0,0.0,-0.008089217357337475,-0.05373912677168846,-0.0008254109416157007,1495.0,1495.0,1495.0,1495.0,0.0,0.0,0.0,0.0,0.0,0.0,0.0,0.0,1495.0,1495.0,1495.0,1495.0,1.6284600496292114,0.0,0.0,0.0,0.0,0.0,0.0
56,5,0.0,0.0,0.0,0.0,-0.0,-0.0,0.026898108422756195,0.17925964295864105,-0.008014783263206482,0.0012754055205732584,0.0003012646920979023,0.0016435766592621803,0.0,0.0,0.0,-0.0,-0.0,-0.0,0.0,0.0,0.0,-0.008089217357337475,-0.05373912677168846,-0.0008254109416157007,1495.0,1495.0,1495.0,1495.0,0.0,0.0,0.0,0.0,0.0,0.0,0.0,0.0,1495.0,1495.0,1495.0,1495.0,1.6284600496292114,0.0,0.0,0.0,0.0,0.0,0.0
64,8,0.0,0.0,0.0,0.0,-0.0,-0.0,0.026898108422756195,0.17925964295864105,-0.008014783263206482,0.0012754055205732584,0.0003012646920979023,0.0016435766592621803,0.0,0.0,0.0,-0.0,-0.0,-0.0,0.0,0.0,0.0,-0.008089217357337475,-0.05373912677168846,-0.0008254109416157007,1495.0,1495.0,1495.0,1495.0,0.0,0.0,0.0,0.0,0.0,0.0,0.0,0.0,1495.0,1495.0,1495.0,1495.0,1.6284600496292114,0.0,0.0,0.0,0.0,0.0,0.0
69,5,0.0,0.0,0.0,0.0,-0.0,-0.0,0.026888052001595497,0.17925888299942017,-0.00801854208111763,-0.0016537298215553164,-0.004734840244054794,-0.003211091971024871,0.0,0.0,0.0,-0.0,-0.0,-0.0,0.0,0.0,0.0,-0.008017640560865402,-0.05389406904578209,-0.000809483346529305,9141.0,17566.0,16183.0,8488.0,0.17530934512615204,0.708085298538208,0.5961852073669434,0.14888013899326324,0.0,0.0,0.0,0.0,9171.0,17555.0,16184.0,8477.0,1.6284600496292114,0.0,0.0,0.0,0.0,0.0,0.0
75,6,0.0,0.0,0.0,0.0,-0.0,-0.0,0.026888052001595497,0.17925888299942017,-0.00801854208111763,-0.0016537298215553164,-0.004734840244054794,-0.003211091971024871,0.0,0.0,0.0,-0.0,-0.0,-0.0,0.0,0.0,0.0,-0.008017640560865402,-0.05389406904578209,-0.000809483346529305,9141.0,17566.0,16183.0,8488.0,0.17530934512615204,0.708085298538208,0.5961852073669434,0.14888013899326324,0.0,0.0,0.0,0.0,9171.0,17555.0,16184.0,8477.0,1.6284600496292114,0.0,0.0,0.0,0.0,0.0,0.0
80,5,0.0,0.0,0.0,0.0,-0.0,-0.0,0.026869868859648705,0.17926111817359924,-0.008016989566385746,-0.0012744511477649212,0.0027616345323622227,-0.0007141637033782899,0.0,0.0,0.0,-0.0,-0.0,-0.0,0.0,0.0,0.0,-0.008054467849433422,-0.0538613498210907,-0.0009437947301194072,9171.0,17552.0,16180.0,8493.0,0.17658814787864685,0.7068694233894348,0.5959374904632568,0.1490650177001953,0.0,0.0,0.0,0.0,9267.0,17508.0,16224.0,8395.0,1.6284600496292114,0.0,0.0,0.0,0.0,0.0,0.0
85,5,0.0,0.0,0.0,0.0,-0.0,-0.0,0.026869868859648705,0.17926111817359924,-0.008016989566385746,-0.0012744511477649212,0.0027616345323622227,-0.0007141637033782899,0.0,0.0,0.0,-0.0,-0.0,-0.0,0.0,0.0,0.0,-0.008054467849433422,-0.0538613498210907,-0.0009437947301194072,9171.0,17552.0,16180.0,8493.0,0.17658814787864685,0.7068694233894348,0.5959374904632568,0.1490650177001953,0.0,0.0,0.0,0.0,9267.0,17508.0,16224.0,8395.0,1.6284600496292114,0.0,0.0,0.0,0.0,0.0,0.0
90,5,0.0,0.0,0.0,0.0,-0.0,-0.0,0.026869868859648705,0.17926111817359924,-0.008016989566385746,-0.0012744511477649212,0.0027616345323622227,-0.0007141637033782899,0.0,0.0,0.0,-0.0,-0.0,-0.0,0.0,0.0,0.0,-0.008054467849433422,-0.0538613498210907,-0.0009437947301194072,9171.0,17552.0,16180.0,8493.0,0.17658814787864685,0.7068694233894348,0.5959374904632568,0.1490650177001953,0.0,0.0,0.0,0.0,9267.0,17508.0,16224.0,8395.0,1.6284600496292114,0.0,0.0,0.0,0.0,0.0,0.0
95,5,0.0,0.0,0.0,0.0,-0.0,-0.0,0.026883495971560478,0.179213747382164,-0.008048729039728642,0.00020908491569571197,-0.0025119585916399956,0.0002985658647958189,0.0,0.0,0.0,-0.0,-0.0,-0.0,0.0,0.0,0.0,-0.008102468214929104,-0.05376103147864342,-0.0008179402211681008,9202.0,17543.0,16195.0,8451.0,0.17787352204322815,0.7060819268226624,0.5970694422721863,0.14743515849113464,0.0,0.0,0.0,0.0,9125.0,17577.0,16155.0,8540.0,1.6284600496292114,0.0,0.0,0.0,0.0,0.0,0.0
100,5,0.0,0.0,0.0,0.0,-0.0,-0.0,0.026883495971560478,0.179213747382164,-0.008048729039728642,0.00020908491569571197,-0.0025119585916399956,0.0002985658647958189,0.0,0.0,0.0,-0.0,-0.0,-0.0,0.0,0.0,0.0,-0.008102468214929104,-0.05376103147864342,-0.0008179402211681008,9202.0,17543.0,16195.0,8451.0,0.17787352204322815,0.7060819268226624,0.5970694422721863,0.14743515849113464,0.0,0.0,0.0,0.0,9125.0,17577.0,16155.0,8540.0,1.6284600496292114,0.0,0.0,0.0,0.0,0.0,0.0
105,5,0.0,0.0,0.0,0.0,-0.0,-0.0,0.026876281946897507,0.17924131453037262,-0.00806792639195919,0.001521867117844522,0.0007327651837840676,0.0026338028255850077,0.0,0.0,0.0,-0.0,-0.0,-0.0,0.0,0.0,0.0,-0.008075344376266003,-0.05375517159700394,-0.0007890195120126009,9236.0,17525.0,16211.0,8418.0,0.17934127151966095,0.7046129703521729,0.5983240604400635,0.14618171751499176,0.0,0.0,0.0,0.0,9153.0,17561.0,16195.0,8463.0,1.6284600496292114,0.0,0.0,0.0,0.0,0.0,0.0
110,5,0.0,0.0,0.0,0.0,-0.0,-0.0,0.026876281946897507,0.17924131453037262,-0.00806792639195919,0.001521867117844522,0.0007327651837840676,0.0026338028255850077,0.0,0.0,0.0,-0.0,-0.0,-0.0,0.0,0.0,0.0,-0.008075344376266003,-0.05375517159700394,-0.0007890195120126009,9236.0,17525.0,16211.0,8418.0,0.17934127151966095,0.7046129703521729,0.5983240604400635,0.14618171751499176,0.0,0.0,0.0,0.0,9153.0,17561.0,16195.0,8463.0,1.6284600496292114,0.0,0.0,0.0,0.0,0.0,0.0
116,5,0.0,0.0,0.0,0.0,-0.0,-0.0,0.026866519823670387,0.1792280226945877,-0.008073839358985424,-0.0030410613398998976,-0.002711152657866478,-0.0002705652732402086,0.0,0.0,0.0,-0.0,-0.0,-0.0,0.0,0.0,0.0,-0.007986177690327168,-0.05379151180386543,-0.0008512352360412478,9165.0,17552.0,16189.0,8481.0,0.17632246017456055,0.7068558931350708,0.5966705679893494,0.1486111581325531,0.0,0.0,0.0,0.0,9196.0,17539.0,16205.0,8445.0,1.6284600496292114,0.0,0.0,0.0,0.0,0.0,0.0
121,5,0.0,0.0,0.0,0.0,-0.0,-0.0,0.026866519823670387,0.1792280226945877,-0.008073839358985424,-0.0030410613398998976,-0.002711152657866478,-0.0002705652732402086,0.0,0.0,0.0,-0.0,-0.0,-0.0,0.0,0.0,0.0,-0.007986177690327168,-0.05379151180386543,-0.0008512352360412478,9165.0,17552.0,16189.0,8481.0,0.17632246017456055,0.7068558931350708,0.5966705679893494,0.1486111581325531,0.0,0.0,0.0,0.0,9196.0,17539.0,16205.0,8445.0,1.6284600496292114,0.0,0.0,0.0,0.0,0.0,0.0
126,5,0.0,0.0,0.0,0.0,-0.0,-0.0,0.026856979355216026,0.17923623323440552,-0.00807662308216095,0.003781903302296996,-0.003106034127995372,-0.0036262362264096737,0.0,0.0,0.0,-0.0,-0.0,-0.0,0.0,0.0,0.0,-0.007986861281096935,-0.053741056472063065,-0.0009433581144548953,9127.0,17570.0,16162.0,8537.0,0.17471542954444885,0.7084128260612488,0.5945284962654114,0.1508033573627472,0.0,0.0,0.0,0.0,9133.0,17574.0,16170.0,8507.0,1.6284600496292114,0.0,0.0,0.0,0.0,0.0,0.0
131,5,0.0,0.0,0.0,0.0,-0.0,-0.0,0.026856979355216026,0.17923623323440552,-0.00807662308216095,0.003781903302296996,-0.003106034127995372,-0.0036262362264096737,0.0,0.0,0.0,-0.0,-0.0,-0.0,0.0,0.0,0.0,-0.007986861281096935,-0.053741056472063065,-0.0009433581144548953,9127.0,17570.0,16162.0,8537.0,0.17471542954444885,0.7084128260612488,0.5945284962654114,0.1508033573627472,0.0,0.0,0.0,0.0,9133.0,17574.0,16170.0,8507.0,1.6284600496292114,0.0,0.0,0.0,0.0,0.0,0.0
136,5,0.0,0.0,0.0,0.0,-0.0,-0.0,0.026855314150452614,0.1792292296886444,-0.008126946166157722,-0.003215417265892029,0.00042651614057831466,-0.0015341585967689753,0.0,0.0,0.0,-0.0,-0.0,-0.0,0.0,0.0,0.0,-0.008055073209106922,-0.05386235937476158,-0.0008400395745411515,9171.0,17554.0,16190.0,8469.0,0.1765652447938919,0.7070044279098511,0.596750020980835,0.14814041554927826,0.0,0.0,0.0,0.0,9225.0,17526.0,16206.0,8439.0,1.6284600496292114,0.0,0.0,0.0,0.0,0.0,0.0
141,5,0.0,0.0,0.0,0.0,-0.0,-0.0,0.026855314150452614,0.1792292296886444,-0.008126946166157722,-0.003215417265892029,0.00042651614057831466,-0.0015341585967689753,0.0,0.0,0.0,-0.0,-0.0,-0.0,0.0,0.0,0.0,-0.008055073209106922,-0.05386235937476158,-0.0008400395745411515,9171.0,17554.0,16190.0,8469.0,0.1765652447938919,0.7070044279098511,0.596750020980835,0.14814041554927826,0.0,0.0,0.0,0.0,9225.0,17526.0,16206.0,8439.0,1.6284600496292114,0.0,0.0,0.0,0.0,0.0,0.0
146,5,0.0,0.0,0.0,0.0,-0.0,-0.0,0.026836149394512177,0.17920440435409546,-0.00812761951237917,-0.0010007972596213222,0.0031500731129199266,0.0015732644824311137,0.0,0.0,0.0,-0.0,-0.0,-0.0,0.0,0.0,0.0,-0.008058552630245686,-0.05375855788588524,-0.0007727580377832055,9221.0,17529.0,16203.0,8443.0,0.17870011925697327,0.7049388885498047,0.5976855754852295,0.1471354067325592,0.0,0.0,0.0,0.0,9135.0,17568.0,16167.0,8524.0,1.6284600496292114,0.0,0.0,0.0,0.0,0.0,0.0
151,5,0.0,0.0,0.0,0.0,-0.0,-0.0,0.026836149394512177,0.17920440435409546,-0.00812761951237917,-0.0010007972596213222,0.0031500731129199266,0.0015732644824311137,0.0,0.0,0.0,-0.0,-0.0,-0.0,0.0,0.0,0.0,-0.008058552630245686,-0.05375855788588524,-0.0007727580377832055,9221.0,17529.0,16203.0,8443.0,0.17870011925697327,0.7049388885498047,0.5976855754852295,0.1471354067325592,0.0,0.0,0.0,0.0,9135.0,17568.0,16167.0,8524.0,1.6284600496292114,0.0,0.0,0.0,0.0,0.0,0.0
156,5,0.0,0.0,0.0,0.0,-0.0,-0.0,0.026836149394512177,0.17920440435409546,-0.00812761951237917,-0.0010007972596213222,0.0031500731129199266,0.0015732644824311137,0.0,0.0,0.0,-0.0,-0.0,-0.0,0.0,0.0,0.0,-0.008058552630245686,-0.05375855788588524,-0.0007727580377832055,9221.0,17529.0,16203.0,8443.0,0.17870011925697327,0.7049388885498047,0.5976855754852295,0.1471354067325592,0.0,0.0,0.0,0.0,9135.0,17568.0,16167.0,8524.0,1.6284600496292114,0.0,0.0,0.0,0.0,0.0,0.0
161,5,0.0,0.0,0.0,0.0,-0.0,-0.0,0.026822324842214584,0.1791752576828003,-0.00812737550586462,0.0026327285449951887,-0.0038416406605392694,-0.006593239028006792,0.0,0.0,0.0,-0.0,-0.0,-0.0,0.0,0.0,0.0,-0.008117885328829288,-0.053381338715553284,-0.0019559250213205814,9086.0,17601.0,16139.0,8560.0,0.172986701130867,0.7109822630882263,0.5928077697753906,0.15168331563472748,0.0,0.0,0.0,0.0,9248.0,17526.0,16218.0,8389.0,1.6284600496292114,0.0,0.0,0.0,0.0,0.0,0.0
166,5,0.0,0.0,0.0,0.0,-0.0,-0.0,0.026822324842214584,0.1791752576828003,-0.00812737550586462,0.0026327285449951887,-0.0038416406605392694,-0.006593239028006792,0.0,0.0,0.0,-0.0,-0.0,-0.0,0.0,0.0,0.0,-0.008117885328829288,-0.053381338715553284,-0.0019559250213205814,9086.0,17601.0,16139.0,8560.0,0.172986701130867,0.7109822630882263,0.5928077697753906,0.15168331563472748,0.0,0.0,0.0,0.0,9248.0,17526.0,16218.0,8389.0,1.6284600496292114,0.0,0.0,0.0,0.0,0.0,0.0
171,5,0.0,0.0,0.0,0.0,-0.0,-0.0,0.02690526470541954,0.179123193025589,-0.008263497613370419,0.0038901406805962324,0.01811586692929268,-0.10288147628307343,0.0,0.0,0.0,-0.0,-0.0,-0.0,0.0,0.0,0.0,-0.007892012596130371,-0.054352179169654846,0.004915637895464897,8022.0,18091.0,15520.0,9667.0,0.1313164085149765,0.7530493140220642,0.5459414124488831,0.19815288484096527,0.0,0.0,0.0,0.0,7766.0,18192.0,15412.0,9853.0,1.6284600496292114,0.0,0.0,0.0,0.0,0.0,0.0
176,5,0.0,0.0,0.0,0.0,-0.0,-0.0,0.02690526470541954,0.179123193025589,-0.008263497613370419,0.0038901406805962324,0.01811586692929268,-0.10288147628307343,0.0,0.0,0.0,-0.0,-0.0,-0.0,0.0,0.0,0.0,-0.007892012596130371,-0.054352179169654846,0.004915637895464897,8022.0,18091.0,15520.0,9667.0,0.1313164085149765,0.7530493140220642,0.5459414124488831,0.19815288484096527,0.0,0.0,0.0,0.0,7766.0,18192.0,15412.0,9853.0,1.6284600496292114,0.0,0.0,0.0,0.0,0.0,0.0
181,5,0.0,0.0,0.0,0.0,-0.0,-0.0,0.026810843497514725,0.1791110634803772,-0.00783947017043829,-0.02073882333934307,-0.026140332221984863,0.15938453376293182,0.0,0.0,0.0,-0.0,-0.0,-0.0,0.0,0.0,0.0,-0.00869495328515768,-0.052911609411239624,-0.0030393870547413826,11846.0,15896.0,17879.0,3066.0,0.307523250579834,0.5741674900054932,0.7346804141998291,0.012088954448699951,0.0,0.0,0.0,0.0,8545.0,17798.0,15959.0,9030.0,1.6284600496292114,0.0,0.0,0.0,0.0,0.0,0.0
187,5,0.0,0.0,0.0,0.0,-0.0,-0.0,0.026810843497514725,0.1791110634803772,-0.00783947017043829,-0.02073882333934307,-0.026140332221984863,0.15938453376293182,0.0,0.0,0.0,-0.0,-0.0,-0.0,0.0,0.0,0.0,-0.00869495328515768,-0.052911609411239624,-0.0030393870547413826,11846.0,15896.0,17879.0,3066.0,0.307523250579834,0.5741674900054932,0.7346804141998291,0.012088954448699951,0.0,0.0,0.0,0.0,8545.0,17798.0,15959.0,9030.0,1.6284600496292114,0.0,0.0,0.0,0.0,0.0,0.0
192,5,0.0,0.0,0.0,0.0,-0.0,-0.0,0.02700093388557434,0.1790102869272232,-0.008542346768081188,0.052698154002428055,0.014083394780755043,0.12401287257671356,0.0,0.0,0.0,-0.0,-0.0,-0.0,0.0,0.0,0.0,-0.006626329384744167,-0.05476439744234085,-0.004410675261169672,9683.0,17377.0,16289.0,8069.0,0.19885855913162231,0.692162036895752,0.6043800115585327,0.13305941224098206,0.0,0.0,0.0,0.0,12184.0,15729.0,17985.0,1495.0,1.6284600496292114,0.0,0.0,0.0,0.0,0.0,0.0
197,5,0.0,0.0,0.0,0.0,-0.0,-0.0,0.02700093388557434,0.1790102869272232,-0.008542346768081188,0.052698154002428055,0.014083394780755043,0.12401287257671356,0.0,0.0,0.0,-0.0,-0.0,-0.0,0.0,0.0,0.0,-0.006626329384744167,-0.05476439744234085,-0.004410675261169672,9683.0,17377.0,16289.0,8069.0,0.19885855913162231,0.692162036895752,0.6043800115585327,0.13305941224098206,0.0,0.0,0.0,0.0,12184.0,15729.0,17985.0,1495.0,1.6284600496292114,0.0,0.0,0.0,0.0,0.0,0.0
202,5,0.0,0.0,0.0,0.0,-0.0,-0.0,0.026596667245030403,0.17931565642356873,-0.007869911380112171,-0.030675692483782768,-0.006920709274709225,-0.15495379269123077,0.0,0.0,0.0,-0.0,-0.0,-0.0,0.0,0.0,0.0,-0.00820800568908453,-0.05389213562011719,0.0009062766330316663,8902.0,17629.0,16136.0,8698.0,0.16538120806217194,0.7133898138999939,0.5925396084785461,0.15714941918849945,0.0,0.0,0.0,0.0,8790.0,17836.0,15802.0,9003.0,1.6284600496292114,0.0,0.0,0.0,0.0,0.0,0.0
207,5,0.0,0.0,0.0,0.0,-0.0,-0.0,0.026596667245030403,0.17931565642356873,-0.007869911380112171,-0.030675692483782768,-0.006920709274709225,-0.15495379269123077,0.0,0.0,0.0,-0.0,-0.0,-0.0,0.0,0.0,0.0,-0.00820800568908453,-0.05389213562011719,0.0009062766330316663,8902.0,17629.0,16136.0,8698.0,0.16538120806217194,0.7133898138999939,0.5925396084785461,0.15714941918849945,0.0,0.0,0.0,0.0,8790.0,17836.0,15802.0,9003.0,1.6284600496292114,0.0,0.0,0.0,0.0,0.0,0.0
212,5,0.0,0.0,0.0,0.0,-0.0,-0.0,0.026959707960486412,0.17929764091968536,-0.007814534939825535,-0.06582712382078171,-0.015226335264742374,-0.09583590179681778,0.0,0.0,0.0,-0.0,-0.0,-0.0,0.0,0.0,0.0,-0.009357556700706482,-0.053277064114809036,0.002817502012476325,8902.0,17629.0,16136.0,8698.0,0.16538120806217194,0.7133898138999939,0.5925396084785461,0.15714941918849945,0.0,0.0,0.0,0.0,6251.0,18612.0,14984.0,10716.0,1.6284600496292114,0.0,0.0,0.0,0.0,0.0,0.0
217,5,0.0,0.0,0.0,0.0,-0.0,-0.0,0.026959707960486412,0.17929764091968536,-0.007814534939825535,-0.06582712382078171,-0.015226335264742374,-0.09583590179681778,0.0,0.0,0.0,-0.0,-0.0,-0.0,0.0,0.0,0.0,-0.009357556700706482,-0.053277064114809036,0.002817502012476325,8902.0,17629.0,16136.0,8698.0,0.16538120806217194,0.7133898138999939,0.5925396084785461,0.15714941918849945,0.0,0.0,0.0,0.0,6251.0,18612.0,14984.0,10716.0,1.6284600496292114,0.0,0.0,0.0,0.0,0.0,0.0
222,5,0.0,0.0,0.0,0.0,-0.0,-0.0,0.026982108131051064,0.17922911047935486,-0.0076843006536364555,0.05789493769407272,0.014907382428646088,0.06681140512228012,0.0,0.0,0.0,-0.0,-0.0,-0.0,0.0,0.0,0.0,-0.009357556700706482,-0.053277064114809036,0.002817502012476325,10910.0,16696.0,17015.0,6157.0,0.2576351463794708,0.6365432143211365,0.6622921228408813,0.07198956608772278,0.0,0.0,0.0,0.0,8350.0,17966.0,15681.0,9362.0,1.6284600496292114,0.0,0.0,0.0,0.0,0.0,0.0
227,5,0.0,0.0,0.0,0.0,-0.0,-0.0,0.026982108131051064,0.17922911047935486,-0.0076843006536364555,0.05789493769407272,0.014907382428646088,0.06681140512228012,0.0,0.0,0.0,-0.0,-0.0,-0.0,0.0,0.0,0.0,-0.009357556700706482,-0.053277064114809036,0.002817502012476325,10910.0,16696.0,17015.0,6157.0,0.2576351463794708,0.6365432143211365,0.6622921228408813,0.07198956608772278,0.0,0.0,0.0,0.0,8350.0,17966.0,15681.0,9362.0,1.6284600496292114,0.0,0.0,0.0,0.0,0.0,0.0
232,5,0.0,0.0,0.0,0.0,-0.0,-0.0,0.02684319205582142,0.17882734537124634,-0.007725394330918789,0.0006912847748026252,0.08001617342233658,0.14613130688667297,0.0,0.0,0.0,-0.0,-0.0,-0.0,0.0,0.0,0.0,-0.008000651374459267,-0.04963696748018265,-0.003948521800339222,10912.0,16519.0,17030.0,6609.0,0.2577163577079773,0.6224604249000549,0.6635184288024902,0.08476485311985016,0.0,0.0,0.0,0.0,11042.0,16532.0,16968.0,6516.0,1.6284600496292114,0.0,0.0,0.0,0.0,0.0,0.0
237,5,0.0,0.0,0.0,0.0,-0.0,-0.0,0.02684319205582142,0.17882734537124634,-0.007725394330918789,0.0006912847748026252,0.08001617342233658,0.14613130688667297,0.0,0.0,0.0,-0.0,-0.0,-0.0,0.0,0.0,0.0,-0.008000651374459267,-0.04963696748018265,-0.003948521800339222,10912.0,16519.0,17030.0,6609.0,0.2577163577079773,0.6224604249000549,0.6635184288024902,0.08476485311985016,0.0,0.0,0.0,0.0,11042.0,16532.0,16968.0,6516.0,1.6284600496292114,0.0,0.0,0.0,0.0,0.0,0.0
242,5,0.0,0.0,0.0,0.0,-0.0,-0.0,0.0269977655261755,0.17795833945274353,-0.007941282354295254,0.011015426367521286,0.18637047708034515,-0.06543545424938202,0.0,0.0,0.0,-0.0,-0.0,-0.0,0.0,0.0,0.0,-0.00704490439966321,-0.042776919901371,0.0008838713401928544,8144.0,18038.0,15071.0,10375.0,0.13580352067947388,0.7484380602836609,0.5131444931030273,0.23107394576072693,0.0,0.0,0.0,0.0,9982.0,17177.0,15837.0,9030.0,1.6284600496292114,0.0,0.0,0.0,0.0,0.0,0.0
248,5,0.0,0.0,0.0,0.0,-0.0,-0.0,0.0269977655261755,0.17795833945274353,-0.007941282354295254,0.011015426367521286,0.18637047708034515,-0.06543545424938202,0.0,0.0,0.0,-0.0,-0.0,-0.0,0.0,0.0,0.0,-0.00704490439966321,-0.042776919901371,0.0008838713401928544,8144.0,18038.0,15071.0,10375.0,0.13580352067947388,0.7484380602836609,0.5131444931030273,0.23107394576072693,0.0,0.0,0.0,0.0,9982.0,17177.0,15837.0,9030.0,1.6284600496292114,0.0,0.0,0.0,0.0,0.0,0.0
253,5,0.0,0.0,0.0,0.0,-0.0,-0.0,0.026819627732038498,0.16873101890087128,-0.007938244380056858,-0.006351612973958254,0.9360288977622986,0.0850149616599083,0.0,0.0,0.0,-0.0,-0.0,-0.0,0.0,0.0,0.0,-0.00785086490213871,-0.029416952282190323,0.0008897242369130254,12535.0,15363.0,15413.0,9904.0,0.3471039831638336,0.5344006419181824,0.5380716919898987,0.20888374745845795,0.0,0.0,0.0,0.0,8825.0,17724.0,13990.0,11824.0,1.6284600496292114,0.0,0.0,0.0,0.0,0.0,0.0
258,5,0.0,0.0,0.0,0.0,-0.0,-0.0,0.026819627732038498,0.16873101890087128,-0.007938244380056858,-0.006351612973958254,0.9360288977622986,0.0850149616599083,0.0,0.0,0.0,-0.0,-0.0,-0.0,0.0,0.0,0.0,-0.00785086490213871,-0.029416952282190323,0.0008897242369130254,12535.0,15363.0,15413.0,9904.0,0.3471039831638336,0.5344006419181824,0.5380716919898987,0.20888374745845795,0.0,0.0,0.0,0.0,8825.0,17724.0,13990.0,11824.0,1.6284600496292114,0.0,0.0,0.0,0.0,0.0,0.0
263,5,0.0,0.0,0.0,0.0,-0.0,-0.0,0.02681562304496765,0.15496496856212616,-0.008182638324797153,0.014247747138142586,1.434302806854248,-0.1353931576013565,0.0,0.0,0.0,-0.0,-0.0,-0.0,0.0,0.0,0.0,-0.008651447482407093,-0.014624827541410923,-0.004037098027765751,11532.0,16232.0,12114.0,13641.0,0.29030078649520874,0.5999972224235535,0.3226282000541687,0.4155338406562805,0.0,0.0,0.0,0.0,12442.0,15420.0,14831.0,10802.0,1.6284600496292114,0.0,0.0,0.0,0.0,0.0,0.0
268,5,0.0,0.0,0.0,0.0,-0.0,-0.0,0.02681562304496765,0.15496496856212616,-0.008182638324797153,0.014247747138142586,1.434302806854248,-0.1353931576013565,0.0,0.0,0.0,-0.0,-0.0,-0.0,0.0,0.0,0.0,-0.008651447482407093,-0.014624827541410923,-0.004037098027765751,11532.0,16232.0,12114.0,13641.0,0.29030078649520874,0.5999972224235535,0.3226282000541687,0.4155338406562805,0.0,0.0,0.0,0.0,12442.0,15420.0,14831.0,10802.0,1.6284600496292114,0.0,0.0,0.0,0.0,0.0,0.0
273,5,0.0,0.0,0.0,0.0,-0.0,-0.0,0.026049170643091202,0.14236806333065033,-0.007592204958200455,-0.20771721005439758,1.7337298393249512,-0.044983167201280594,0.0,0.0,0.0,-0.0,-0.0,-0.0,0.0,0.0,0.0,-0.005114721134305,-0.0011657187715172768,-0.0003361304698046297,13382.0,14277.0,12750.0,13583.0,0.39900365471839905,0.4576787054538727,0.35994377732276917,0.41183391213417053,0.0,0.0,0.0,0.0,12325.0,15557.0,12494.0,13403.0,1.6284600496292114,0.0,0.0,0.0,0.0,0.0,0.0
278,5,0.0,0.0,0.0,0.0,-0.0,-0.0,0.026049170643091202,0.14236806333065033,-0.007592204958200455,-0.20771721005439758,1.7337298393249512,-0.044983167201280594,0.0,0.0,0.0,-0.0,-0.0,-0.0,0.0,0.0,0.0,-0.005114721134305,-0.0011657187715172768,-0.0003361304698046297,13382.0,14277.0,12750.0,13583.0,0.39900365471839905,0.4576787054538727,0.35994377732276917,0.41183391213417053,0.0,0.0,0.0,0.0,12325.0,15557.0,12494.0,13403.0,1.6284600496292114,0.0,0.0,0.0,0.0,0.0,0.0
283,5,0.0,0.0,0.0,0.0,-0.0,-0.0,0.023121168836951256,0.12073112279176712,-0.008024986833333969,-0.22112922370433807,1.7827742099761963,0.06473252922296524,0.0,0.0,0.0,-0.0,-0.0,-0.0,0.0,0.0,0.0,-0.003252234309911728,0.006401422433555126,-0.0021845472510904074,14102.0,13297.0,12493.0,14078.0,0.44591251015663147,0.39363786578178406,0.34461596608161926,0.44429370760917664,0.0,0.0,0.0,0.0,12449.0,14966.0,11311.0,14920.0,1.6284600496292114,0.0,0.0,0.0,0.0,0.0,0.0
288,5,0.0,0.0,0.0,0.0,-0.0,-0.0,0.023121168836951256,0.12073112279176712,-0.008024986833333969,-0.22112922370433807,1.7827742099761963,0.06473252922296524,0.0,0.0,0.0,-0.0,-0.0,-0.0,0.0,0.0,0.0,-0.003252234309911728,0.006401422433555126,-0.0021845472510904074,14102.0,13297.0,12493.0,14078.0,0.44591251015663147,0.39363786578178406,0.34461596608161926,0.44429370760917664,0.0,0.0,0.0,0.0,12449.0,14966.0,11311.0,14920.0,1.6284600496292114,0.0,0.0,0.0,0.0,0.0,0.0
294,5,0.0,0.0,0.0,0.0,-0.0,-0.0,0.02236187644302845,0.10708915442228317,-0.0076234363950788975,0.04352205619215965,1.6313756704330444,-0.17669042944908142,0.0,0.0,0.0,-0.0,-0.0,-0.0,0.0,0.0,0.0,-0.00731565710157156,0.00859000999480486,-0.0036648341920226812,12637.0,15290.0,9895.0,15410.0,0.35314032435417175,0.5290402173995972,0.20846006274223328,0.537819504737854,0.0,0.0,0.0,0.0,14643.0,12857.0,13148.0,13317.0,1.6284600496292114,0.0,0.0,0.0,0.0,0.0,0.0
299,5,0.0,0.0,0.0,0.0,-0.0,-0.0,0.02236187644302845,0.10708915442228317,-0.0076234363950788975,0.04352205619215965,1.6313756704330444,-0.17669042944908142,0.0,0.0,0.0,-0.0,-0.0,-0.0,0.0,0.0,0.0,-0.00731565710157156,0.00859000999480486,-0.0036648341920226812,12637.0,15290.0,9895.0,15410.0,0.35314032435417175,0.5290402173995972,0.20846006274223328,0.537819504737854,0.0,0.0,0.0,0.0,14643.0,12857.0,13148.0,13317.0,1.6284600496292114,0.0,0.0,0.0,0.0,0.0,0.0
304,5,0.0,0.0,0.0,0.0,-0.0,-0.0,0.022584224119782448,0.08933872729539871,-0.007823549211025238,-0.016842201352119446,1.3099980354309082,0.06604369729757309,0.0,0.0,0.0,-0.0,-0.0,-0.0,0.0,0.0,0.0,-0.006564049050211906,0.005476775113493204,0.0015906497137621045,14948.0,12827.0,13280.0,12866.0,0.5043888092041016,0.3645625114440918,0.3925366997718811,0.36697202920913696,0.0,0.0,0.0,0.0,13274.0,14748.0,10600.0,14942.0,1.6284600496292114,0.0,0.0,0.0,0.0,0.0,0.0
309,5,0.0,0.0,0.0,0.0,-0.0,-0.0,0.022584224119782448,0.08933872729539871,-0.007823549211025238,-0.016842201352119446,1.3099980354309082,0.06604369729757309,0.0,0.0,0.0,-0.0,-0.0,-0.0,0.0,0.0,0.0,-0.006564049050211906,0.005476775113493204,0.0015906497137621045,14948.0,12827.0,13280.0,12866.0,0.5043888092041016,0.3645625114440918,0.3925366997718811,0.36697202920913696,0.0,0.0,0.0,0.0,13274.0,14748.0,10600.0,14942.0,1.6284600496292114,0.0,0.0,0.0,0.0,0.0,0.0
314,5,0.0,0.0,0.0,0.0,-0.0,-0.0,0.022634165361523628,0.08011951297521591,-0.007860912010073662,0.03158561885356903,0.8483719229698181,-0.08300384879112244,0.0,0.0,0.0,-0.0,-0.0,-0.0,0.0,0.0,0.0,-0.007617732509970665,-0.00028637523064389825,-0.0036864352878183126,12623.0,15269.0,11754.0,14107.0,0.3523305654525757,0.527482271194458,0.30243194103240967,0.44621527194976807,0.0,0.0,0.0,0.0,14374.0,13462.0,12946.0,13211.0,1.6284600496292114,0.0,0.0,0.0,0.0,0.0,0.0
319,5,0.0,0.0,0.0,0.0,-0.0,-0.0,0.022634165361523628,0.08011951297521591,-0.007860912010073662,0.03158561885356903,0.8483719229698181,-0.08300384879112244,0.0,0.0,0.0,-0.0,-0.0,-0.0,0.0,0.0,0.0,-0.007617732509970665,-0.00028637523064389825,-0.0036864352878183126,12623.0,15269.0,11754.0,14107.0,0.3523305654525757,0.527482271194458,0.30243194103240967,0.44621527194976807,0.0,0.0,0.0,0.0,14374.0,13462.0,12946.0,13211.0,1.6284600496292114,0.0,0.0,0.0,0.0,0.0,0.0
325,5,0.0,0.0,0.0,0.0,-0.0,-0.0,0.022533707320690155,0.07229158282279968,-0.007472672965377569,-0.04188293591141701,0.4048648774623871,0.0766259953379631,0.0,0.0,0.0,-0.0,-0.0,-0.0,0.0,0.0,0.0,-0.006170444190502167,-0.010273555293679237,0.0015817310195416212,13691.0,14128.0,14383.0,11657.0,0.4187789559364319,0.44766271114349365,0.4649176001548767,0.2971007823944092,0.0,0.0,0.0,0.0,13168.0,14643.0,14174.0,11877.0,1.6284600496292114,0.0,0.0,0.0,0.0,0.0,0.0
330,5,0.0,0.0,0.0,0.0,-0.0,-0.0,0.022533707320690155,0.07229158282279968,-0.007472672965377569,-0.04188293591141701,0.4048648774623871,0.0766259953379631,0.0,0.0,0.0,-0.0,-0.0,-0.0,0.0,0.0,0.0,-0.006170444190502167,-0.010273555293679237,0.0015817310195416212,13691.0,14128.0,14383.0,11657.0,0.4187789559364319,0.44766271114349365,0.4649176001548767,0.2971007823944092,0.0,0.0,0.0,0.0,13168.0,14643.0,14174.0,11877.0,1.6284600496292114,0.0,0.0,0.0,0.0,0.0,0.0
335,5,0.0,0.0,0.0,0.0,-0.0,-0.0,0.022629432380199432,0.0703328549861908,-0.007598014548420906,0.016947785392403603,0.1029815748333931,-0.06412465870380402,0.0,0.0,0.0,-0.0,-0.0,-0.0,0.0,0.0,0.0,-0.007277855649590492,-0.017218219116330147,-0.0023353116121143103,11612.0,15996.0,13318.0,12703.0,0.2946564257144928,0.5817887783050537,0.3949393332004547,0.3570754826068878,0.0,0.0,0.0,0.0,13168.0,14643.0,14174.0,11877.0,1.6284600496292114,0.0,0.0,0.0,0.0,0.0,0.0
340,5,0.0,0.0,0.0,0.0,-0.0,-0.0,0.022629432380199432,0.0703328549861908,-0.007598014548420906,0.016947785392403603,0.1029815748333931,-0.06412465870380402,0.0,0.0,0.0,-0.0,-0.0,-0.0,0.0,0.0,0.0,-0.007277855649590492,-0.017218219116330147,-0.0023353116121143103,11612.0,15996.0,13318.0,12703.0,0.2946564257144928,0.5817887783050537,0.3949393332004547,0.3570754826068878,0.0,0.0,0.0,0.0,13168.0,14643.0,14174.0,11877.0,1.6284600496292114,0.0,0.0,0.0,0.0,0.0,0.0
345,5,0.0,0.0,0.0,0.0,-0.0,-0.0,0.022370267659425735,0.07033349573612213,-0.007270703557878733,-0.06407951563596725,-0.10287057608366013,0.02812962234020233,0.0,0.0,0.0,-0.0,-0.0,-0.0,0.0,0.0,0.0,-0.006062861531972885,-0.023227719590067863,0.0010483391815796494,12498.0,15161.0,14992.0,10886.0,0.3448960483074188,0.519640326499939,0.5075194835662842,0.25640419125556946,0.0,0.0,0.0,0.0,11395.0,15997.0,14171.0,11947.0,1.6284600496292114,0.0,0.0,0.0,0.0,0.0,0.0
350,5,0.0,0.0,0.0,0.0,-0.0,-0.0,0.022370267659425735,0.07033349573612213,-0.007270703557878733,-0.06407951563596725,-0.10287057608366013,0.02812962234020233,0.0,0.0,0.0,-0.0,-0.0,-0.0,0.0,0.0,0.0,-0.006062861531972885,-0.023227719590067863,0.0010483391815796494,12498.0,15161.0,14992.0,10886.0,0.3448960483074188,0.519640326499939,0.5075194835662842,0.25640419125556946,0.0,0.0,0.0,0.0,11395.0,15997.0,14171.0,11947.0,1.6284600496292114,0.0,0.0,0.0,0.0,0.0,0.0
355,5,0.0,0.0,0.0,0.0,-0.0,-0.0,0.022309109568595886,0.07093936949968338,-0.0077669364400208,0.029629932716488838,-0.020011821761727333,0.013323629274964333,0.0,0.0,0.0,-0.0,-0.0,-0.0,0.0,0.0,0.0,-0.007051288150250912,-0.02263101004064083,-0.0018522684695199132,11921.0,15770.0,14166.0,11744.0,0.3117421567440033,0.5646533370018005,0.450176864862442,0.30188772082328796,0.0,0.0,0.0,0.0,12478.0,15274.0,14689.0,11164.0,1.6284600496292114,0.0,0.0,0.0,0.0,0.0,0.0
360,5,0.0,0.0,0.0,0.0,-0.0,-0.0,0.022309109568595886,0.07093936949968338,-0.0077669364400208,0.029629932716488838,-0.020011821761727333,0.013323629274964333,0.0,0.0,0.0,-0.0,-0.0,-0.0,0.0,0.0,0.0,-0.007051288150250912,-0.02263101004064083,-0.0018522684695199132,11921.0,15770.0,14166.0,11744.0,0.3117421567440033,0.5646533370018005,0.450176864862442,0.30188772082328796,0.0,0.0,0.0,0.0,12478.0,15274.0,14689.0,11164.0,1.6284600496292114,0.0,0.0,0.0,0.0,0.0,0.0
365,5,0.0,0.0,0.0,0.0,-0.0,-0.0,0.022309109568595886,0.07093936949968338,-0.0077669364400208,0.029629932716488838,-0.020011821761727333,0.013323629274964333,0.0,0.0,0.0,-0.0,-0.0,-0.0,0.0,0.0,0.0,-0.007051288150250912,-0.02263101004064083,-0.0018522684695199132,11921.0,15770.0,14166.0,11744.0,0.3117421567440033,0.5646533370018005,0.450176864862442,0.30188772082328796,0.0,0.0,0.0,0.0,12478.0,15274.0,14689.0,11164.0,1.6284600496292114,0.0,0.0,0.0,0.0,0.0,0.0
370,5,0.0,0.0,0.0,0.0,-0.0,-0.0,0.02222076617181301,0.07084548473358154,-0.00776870409026742,-0.012059830129146576,0.08996953815221786,-0.10067752003669739,0.0,0.0,0.0,-0.0,-0.0,-0.0,0.0,0.0,0.0,-0.006306624971330166,-0.020239055156707764,-0.0021006357856094837,11326.0,16103.0,13429.0,12705.0,0.2793019115924835,0.5899583101272583,0.401990681886673,0.35720911622047424,0.0,0.0,0.0,0.0,10733.0,16519.0,12684.0,13420.0,1.6284600496292114,0.0,0.0,0.0,0.0,0.0,0.0
375,5,0.0,0.0,0.0,0.0,-0.0,-0.0,0.02222076617181301,0.07084548473358154,-0.00776870409026742,-0.012059830129146576,0.08996953815221786,-0.10067752003669739,0.0,0.0,0.0,-0.0,-0.0,-0.0,0.0,0.0,0.0,-0.006306624971330166,-0.020239055156707764,-0.0021006357856094837,11326.0,16103.0,13429.0,12705.0,0.2793019115924835,0.5899583101272583,0.401990681886673,0.35720911622047424,0.0,0.0,0.0,0.0,10733.0,16519.0,12684.0,13420.0,1.6284600496292114,0.0,0.0,0.0,0.0,0.0,0.0
380,5,0.0,0.0,0.0,0.0,-0.0,-0.0,0.02224210649728775,0.06946693360805511,-0.00819824356585741,-0.031644195318222046,0.24398066103458405,0.09885197877883911,0.0,0.0,0.0,-0.0,-0.0,-0.0,0.0,0.0,0.0,-0.006305811461061239,-0.011634159833192825,-0.0035407559480518103,13268.0,14561.0,14489.0,11476.0,0.39176344871520996,0.47715604305267334,0.4722365736961365,0.28730398416519165,0.0,0.0,0.0,0.0,13186.0,14589.0,14340.0,11721.0,1.6284600496292114,0.0,0.0,0.0,0.0,0.0,0.0
385,5,0.0,0.0,0.0,0.0,-0.0,-0.0,0.02224210649728775,0.06946693360805511,-0.00819824356585741,-0.031644195318222046,0.24398066103458405,0.09885197877883911,0.0,0.0,0.0,-0.0,-0.0,-0.0,0.0,0.0,0.0,-0.006305811461061239,-0.011634159833192825,-0.0035407559480518103,13268.0,14561.0,14489.0,11476.0,0.39176344871520996,0.47715604305267334,0.4722365736961365,0.28730398416519165,0.0,0.0,0.0,0.0,13186.0,14589.0,14340.0,11721.0,1.6284600496292114,0.0,0.0,0.0,0.0,0.0,0.0
390,5,0.0,0.0,0.0,0.0,-0.0,-0.0,0.022034144029021263,0.06579579412937164,-0.00824266392737627,0.006278978195041418,0.3728286027908325,-0.11897530406713486,0.0,0.0,0.0,-0.0,-0.0,-0.0,0.0,0.0,0.0,-0.006537113804370165,-0.008284041658043861,0.0011286092922091484,11460.0,16033.0,12193.0,13866.0,0.28643664717674255,0.5846338868141174,0.32716402411460876,0.43022552132606506,0.0,0.0,0.0,0.0,12240.0,15501.0,12777.0,13280.0,1.6284600496292114,0.0,0.0,0.0,0.0,0.0,0.0
395,5,0.0,0.0,0.0,0.0,-0.0,-0.0,0.022034144029021263,0.06579579412937164,-0.00824266392737627,0.006278978195041418,0.3728286027908325,-0.11897530406713486,0.0,0.0,0.0,-0.0,-0.0,-0.0,0.0,0.0,0.0,-0.006537113804370165,-0.008284041658043861,0.0011286092922091484,11460.0,16033.0,12193.0,13866.0,0.28643664717674255,0.5846338868141174,0.32716402411460876,0.43022552132606506,0.0,0.0,0.0,0.0,12240.0,15501.0,12777.0,13280.0,1.6284600496292114,0.0,0.0,0.0,0.0,0.0,0.0
400,5,0.0,0.0,0.0,0.0,-0.0,-0.0,0.022203760221600533,0.06261737644672394,-0.008060779422521591,-0.008055038750171661,0.42956265807151794,0.0482066310942173,0.0,0.0,0.0,-0.0,-0.0,-0.0,0.0,0.0,0.0,-0.006143487989902496,-0.005494122393429279,-0.004197689238935709,13754.0,14121.0,14042.0,12007.0,0.4228854179382324,0.44715243577957153,0.44187480211257935,0.3165473937988281,0.0,0.0,0.0,0.0,12794.0,14962.0,13038.0,13127.0,1.6284600496292114,0.0,0.0,0.0,0.0,0.0,0.0
405,5,0.0,0.0,0.0,0.0,-0.0,-0.0,0.022203760221600533,0.06261737644672394,-0.008060779422521591,-0.008055038750171661,0.42956265807151794,0.0482066310942173,0.0,0.0,0.0,-0.0,-0.0,-0.0,0.0,0.0,0.0,-0.006143487989902496,-0.005494122393429279,-0.004197689238935709,13754.0,14121.0,14042.0,12007.0,0.4228854179382324,0.44715243577957153,0.44187480211257935,0.3165473937988281,0.0,0.0,0.0,0.0,12794.0,14962.0,13038.0,13127.0,1.6284600496292114,0.0,0.0,0.0,0.0,0.0,0.0
410,5,0.0,0.0,0.0,0.0,-0.0,-0.0,0.021999282762408257,0.05713928863406181,-0.008724549785256386,-0.026533951982855797,0.49532631039619446,-0.03802023082971573,0.0,0.0,0.0,-0.0,-0.0,-0.0,0.0,0.0,0.0,-0.005574359558522701,-0.006132078357040882,-0.00029448303394019604,12820.0,14854.0,12978.0,13285.0,0.36415162682533264,0.4976845681667328,0.37375685572624207,0.39286699891090393,0.0,0.0,0.0,0.0,13597.0,14256.0,13516.0,12617.0,1.6284600496292114,0.0,0.0,0.0,0.0,0.0,0.0
416,5,0.0,0.0,0.0,0.0,-0.0,-0.0,0.021999282762408257,0.05713928863406181,-0.008724549785256386,-0.026533951982855797,0.49532631039619446,-0.03802023082971573,0.0,0.0,0.0,-0.0,-0.0,-0.0,0.0,0.0,0.0,-0.005574359558522701,-0.006132078357040882,-0.00029448303394019604,12820.0,14854.0,12978.0,13285.0,0.36415162682533264,0.4976845681667328,0.37375685572624207,0.39286699891090393,0.0,0.0,0.0,0.0,13597.0,14256.0,13516.0,12617.0,1.6284600496292114,0.0,0.0,0.0,0.0,0.0,0.0
421,5,0.0,0.0,0.0,0.0,-0.0,-0.0,0.021510139107704163,0.04935102164745331,-0.008921041153371334,0.001679066801443696,0.2824883460998535,0.03937780484557152,0.0,0.0,0.0,-0.0,-0.0,-0.0,0.0,0.0,0.0,-0.006592247635126114,-0.007356598041951656,-0.0011019088560715318,13220.0,14635.0,13388.0,12717.0,0.38879793882369995,0.4823378324508667,0.3993743658065796,0.3579499125480652,0.0,0.0,0.0,0.0,11986.0,15579.0,12009.0,14105.0,1.6284600496292114,0.0,0.0,0.0,0.0,0.0,0.0
426,5,0.0,0.0,0.0,0.0,-0.0,-0.0,0.021510139107704163,0.04935102164745331,-0.008921041153371334,0.001679066801443696,0.2824883460998535,0.03937780484557152,0.0,0.0,0.0,-0.0,-0.0,-0.0,0.0,0.0,0.0,-0.006592247635126114,-0.007356598041951656,-0.0011019088560715318,13220.0,14635.0,13388.0,12717.0,0.38879793882369995,0.4823378324508667,0.3993743658065796,0.3579499125480652,0.0,0.0,0.0,0.0,11986.0,15579.0,12009.0,14105.0,1.6284600496292114,0.0,0.0,0.0,0.0,0.0,0.0
431,5,0.0,0.0,0.0,0.0,-0.0,-0.0,0.021510139107704163,0.04935102164745331,-0.008921041153371334,0.001679066801443696,0.2824883460998535,0.03937780484557152,0.0,0.0,0.0,-0.0,-0.0,-0.0,0.0,0.0,0.0,-0.006592247635126114,-0.007356598041951656,-0.0011019088560715318,13220.0,14635.0,13388.0,12717.0,0.38879793882369995,0.4823378324508667,0.3993743658065796,0.3579499125480652,0.0,0.0,0.0,0.0,11986.0,15579.0,12009.0,14105.0,1.6284600496292114,0.0,0.0,0.0,0.0,0.0,0.0
436,5,0.0,0.0,0.0,0.0,-0.0,-0.0,0.021271975710988045,0.04768666252493858,-0.0085367476567626,-0.03223537653684616,0.1641440987586975,-0.11366131901741028,0.0,0.0,0.0,-0.0,-0.0,-0.0,0.0,0.0,0.0,-0.005731233861297369,-0.010100978426635265,-0.0018866503378376365,11992.0,15559.0,12699.0,13508.0,0.3157407343387604,0.548851490020752,0.356857568025589,0.4070102870464325,0.0,0.0,0.0,0.0,13940.0,13910.0,14300.0,11726.0,1.6284600496292114,0.0,0.0,0.0,0.0,0.0,0.0
441,5,0.0,0.0,0.0,0.0,-0.0,-0.0,0.021271975710988045,0.04768666252493858,-0.0085367476567626,-0.03223537653684616,0.1641440987586975,-0.11366131901741028,0.0,0.0,0.0,-0.0,-0.0,-0.0,0.0,0.0,0.0,-0.005731233861297369,-0.010100978426635265,-0.0018866503378376365,11992.0,15559.0,12699.0,13508.0,0.3157407343387604,0.548851490020752,0.356857568025589,0.4070102870464325,0.0,0.0,0.0,0.0,13940.0,13910.0,14300.0,11726.0,1.6284600496292114,0.0,0.0,0.0,0.0,0.0,0.0
446,5,0.0,0.0,0.0,0.0,-0.0,-0.0,0.021270882338285446,0.0464603565633297,-0.00868351012468338,-0.0026721099857240915,0.02943623997271061,0.10601196438074112,0.0,0.0,0.0,-0.0,-0.0,-0.0,0.0,0.0,0.0,-0.006496635731309652,-0.012948504649102688,0.0012857515830546618,13781.0,14087.0,14703.0,11184.0,0.4246613085269928,0.44492724537849426,0.4870862662792206,0.2717852294445038,0.0,0.0,0.0,0.0,11560.0,15909.0,12417.0,13730.0,1.6284600496292114,0.0,0.0,0.0,0.0,0.0,0.0
451,5,0.0,0.0,0.0,0.0,-0.0,-0.0,0.021270882338285446,0.0464603565633297,-0.00868351012468338,-0.0026721099857240915,0.02943623997271061,0.10601196438074112,0.0,0.0,0.0,-0.0,-0.0,-0.0,0.0,0.0,0.0,-0.006496635731309652,-0.012948504649102688,0.0012857515830546618,13781.0,14087.0,14703.0,11184.0,0.4246613085269928,0.44492724537849426,0.4870862662792206,0.2717852294445038,0.0,0.0,0.0,0.0,11560.0,15909.0,12417.0,13730.0,1.6284600496292114,0.0,0.0,0.0,0.0,0.0,0.0
456,5,0.0,0.0,0.0,0.0,-0.0,-0.0,0.021005382761359215,0.046509988605976105,-0.00897746067494154,-0.001686444622464478,-0.008572929538786411,-0.056917306035757065,0.0,0.0,0.0,-0.0,-0.0,-0.0,0.0,0.0,0.0,-0.005942780990153551,-0.014284471981227398,-0.003574113827198744,11598.0,15877.0,12917.0,13269.0,0.29389700293540955,0.5726808309555054,0.37005797028541565,0.39182427525520325,0.0,0.0,0.0,0.0,13024.0,14734.0,14214.0,11874.0,1.6284600496292114,0.0,0.0,0.0,0.0,0.0,0.0
461,5,0.0,0.0,0.0,0.0,-0.0,-0.0,0.021005382761359215,0.046509988605976105,-0.00897746067494154,-0.001686444622464478,-0.008572929538786411,-0.056917306035757065,0.0,0.0,0.0,-0.0,-0.0,-0.0,0.0,0.0,0.0,-0.005942780990153551,-0.014284471981227398,-0.003574113827198744,11598.0,15877.0,12917.0,13269.0,0.29389700293540955,0.5726808309555054,0.37005797028541565,0.39182427525520325,0.0,0.0,0.0,0.0,13024.0,14734.0,14214.0,11874.0,1.6284600496292114,0.0,0.0,0.0,0.0,0.0,0.0
467,5,0.0,0.0,0.0,0.0,-0.0,-0.0,0.020863335579633713,0.04684113711118698,-0.008575886487960815,-0.04842657968401909,-0.0829477459192276,0.03534980118274689,0.0,0.0,0.0,-0.0,-0.0,-0.0,0.0,0.0,0.0,-0.005918462295085192,-0.015544844791293144,0.0007142076501622796,12907.0,14787.0,14391.0,11720.0,0.3694177269935608,0.4929722547531128,0.4654831886291504,0.30058687925338745,0.0,0.0,0.0,0.0,11839.0,15672.0,13401.0,12816.0,1.6284600496292114,0.0,0.0,0.0,0.0,0.0,0.0
472,5,0.0,0.0,0.0,0.0,-0.0,-0.0,0.020863335579633713,0.04684113711118698,-0.008575886487960815,-0.04842657968401909,-0.0829477459192276,0.03534980118274689,0.0,0.0,0.0,-0.0,-0.0,-0.0,0.0,0.0,0.0,-0.005918462295085192,-0.015544844791293144,0.0007142076501622796,12907.0,14787.0,14391.0,11720.0,0.3694177269935608,0.4929722547531128,0.4654831886291504,0.30058687925338745,0.0,0.0,0.0,0.0,11839.0,15672.0,13401.0,12816.0,1.6284600496292114,0.0,0.0,0.0,0.0,0.0,0.0
477,5,0.0,0.0,0.0,0.0,-0.0,-0.0,0.021031906828284264,0.04711846262216568,-0.00921804178506136,0.02070578746497631,-0.06132631376385689,0.029360845685005188,0.0,0.0,0.0,-0.0,-0.0,-0.0,0.0,0.0,0.0,-0.006865771021693945,-0.014957761391997337,-0.002245208015665412,12243.0,15475.0,13558.0,12510.0,0.330022931098938,0.5426414012908936,0.410183846950531,0.3456118702888489,0.0,0.0,0.0,0.0,13510.0,14347.0,14854.0,10979.0,1.6284600496292114,0.0,0.0,0.0,0.0,0.0,0.0
482,5,0.0,0.0,0.0,0.0,-0.0,-0.0,0.021031906828284264,0.04711846262216568,-0.00921804178506136,0.02070578746497631,-0.06132631376385689,0.029360845685005188,0.0,0.0,0.0,-0.0,-0.0,-0.0,0.0,0.0,0.0,-0.006865771021693945,-0.014957761391997337,-0.002245208015665412,12243.0,15475.0,13558.0,12510.0,0.330022931098938,0.5426414012908936,0.410183846950531,0.3456118702888489,0.0,0.0,0.0,0.0,13510.0,14347.0,14854.0,10979.0,1.6284600496292114,0.0,0.0,0.0,0.0,0.0,0.0
487,5,0.0,0.0,0.0,0.0,-0.0,-0.0,0.021066242828965187,0.04767143353819847,-0.009095491841435432,-0.008311428129673004,0.002558168489485979,-0.14001896977424622,0.0,0.0,0.0,-0.0,-0.0,-0.0,0.0,0.0,0.0,-0.005925432313233614,-0.014720117673277855,-0.0019596638157963753,11380.0,16021.0,12795.0,13399.0,0.28213149309158325,0.5836714506149292,0.3626164197921753,0.4000406861305237,0.0,0.0,0.0,0.0,11109.0,16247.0,12407.0,13708.0,1.6284600496292114,0.0,0.0,0.0,0.0,0.0,0.0
492,5,0.0,0.0,0.0,0.0,-0.0,-0.0,0.021066242828965187,0.04767143353819847,-0.009095491841435432,-0.008311428129673004,0.002558168489485979,-0.14001896977424622,0.0,0.0,0.0,-0.0,-0.0,-0.0,0.0,0.0,0.0,-0.005925432313233614,-0.014720117673277855,-0.0019596638157963753,11380.0,16021.0,12795.0,13399.0,0.28213149309158325,0.5836714506149292,0.3626164197921753,0.4000406861305237,0.0,0.0,0.0,0.0,11109.0,16247.0,12407.0,13708.0,1.6284600496292114,0.0,0.0,0.0,0.0,0.0,0.0
497,5,0.0,0.0,0.0,0.0,-0.0,-0.0,0.021106379106640816,0.04742858186364174,-0.009247281588613987,-0.019755646586418152,0.03661113232374191,0.12385125458240509,0.0,0.0,0.0,-0.0,-0.0,-0.0,0.0,0.0,0.0,-0.006189900450408459,-0.013283586129546165,0.001647049910388887,13831.0,13988.0,14860.0,11036.0,0.42792564630508423,0.43830472230911255,0.4981488585472107,0.26408082246780396,0.0,0.0,0.0,0.0,13231.0,14542.0,14237.0,11855.0,1.6284600496292114,0.0,0.0,0.0,0.0,0.0,0.0
502,5,0.0,0.0,0.0,0.0,-0.0,-0.0,0.021106379106640816,0.04742858186364174,-0.009247281588613987,-0.019755646586418152,0.03661113232374191,0.12385125458240509,0.0,0.0,0.0,-0.0,-0.0,-0.0,0.0,0.0,0.0,-0.006189900450408459,-0.013283586129546165,0.001647049910388887,13831.0,13988.0,14860.0,11036.0,0.42792564630508423,0.43830472230911255,0.4981488585472107,0.26408082246780396,0.0,0.0,0.0,0.0,13231.0,14542.0,14237.0,11855.0,1.6284600496292114,0.0,0.0,0.0,0.0,0.0,0.0
507,5,0.0,0.0,0.0,0.0,-0.0,-0.0,0.02091284655034542,0.046582162380218506,-0.009811499156057835,-0.012292840518057346,0.10114335268735886,-0.11838758736848831,0.0,0.0,0.0,-0.0,-0.0,-0.0,0.0,0.0,0.0,-0.005639923736453056,-0.011602375656366348,0.001773608266375959,11010.0,16279.0,11961.0,14135.0,0.26273638010025024,0.6036593317985535,0.3139657974243164,0.4480985403060913,0.0,0.0,0.0,0.0,12682.0,15073.0,13455.0,12680.0,1.6284600496292114,0.0,0.0,0.0,0.0,0.0,0.0
512,5,0.0,0.0,0.0,0.0,-0.0,-0.0,0.02091284655034542,0.046582162380218506,-0.009811499156057835,-0.012292840518057346,0.10114335268735886,-0.11838758736848831,0.0,0.0,0.0,-0.0,-0.0,-0.0,0.0,0.0,0.0,-0.005639923736453056,-0.011602375656366348,0.001773608266375959,11010.0,16279.0,11961.0,14135.0,0.26273638010025024,0.6036593317985535,0.3139657974243164,0.4480985403060913,0.0,0.0,0.0,0.0,12682.0,15073.0,13455.0,12680.0,1.6284600496292114,0.0,0.0,0.0,0.0,0.0,0.0
518,5,0.0,0.0,0.0,0.0,-0.0,-0.0,0.02091284655034542,0.046582162380218506,-0.009811499156057835,-0.012292840518057346,0.10114335268735886,-0.11838758736848831,0.0,0.0,0.0,-0.0,-0.0,-0.0,0.0,0.0,0.0,-0.005639923736453056,-0.011602375656366348,0.001773608266375959,11010.0,16279.0,11961.0,14135.0,0.26273638010025024,0.6036593317985535,0.3139657974243164,0.4480985403060913,0.0,0.0,0.0,0.0,12682.0,15073.0,13455.0,12680.0,1.6284600496292114,0.0,0.0,0.0,0.0,0.0,0.0
523,5,0.0,0.0,0.0,0.0,-0.0,-0.0,0.020811941474676132,0.04584624618291855,-0.009085125289857388,-0.040642332285642624,0.08890470862388611,-0.006042426452040672,0.0,0.0,0.0,-0.0,-0.0,-0.0,0.0,0.0,0.0,-0.006614229641854763,-0.010190107859671116,-0.0025428745429962873,13273.0,14468.0,14153.0,12001.0,0.39211949706077576,0.47076013684272766,0.44935527443885803,0.31622514128685,0.0,0.0,0.0,0.0,11347.0,16021.0,12198.0,13968.0,1.6284600496292114,0.0,0.0,0.0,0.0,0.0,0.0
528,5,0.0,0.0,0.0,0.0,-0.0,-0.0,0.020811941474676132,0.04584624618291855,-0.009085125289857388,-0.040642332285642624,0.08890470862388611,-0.006042426452040672,0.0,0.0,0.0,-0.0,-0.0,-0.0,0.0,0.0,0.0,-0.006614229641854763,-0.010190107859671116,-0.0025428745429962873,13273.0,14468.0,14153.0,12001.0,0.39211949706077576,0.47076013684272766,0.44935527443885803,0.31622514128685,0.0,0.0,0.0,0.0,11347.0,16021.0,12198.0,13968.0,1.6284600496292114,0.0,0.0,0.0,0.0,0.0,0.0
533,5,0.0,0.0,0.0,0.0,-0.0,-0.0,0.020936472341418266,0.044379521161317825,-0.010226928628981113,0.014504805207252502,0.13304422795772552,0.06281381100416183,0.0,0.0,0.0,-0.0,-0.0,-0.0,0.0,0.0,0.0,-0.005524179898202419,-0.010274279862642288,-0.00419406546279788,10660.0,16459.0,11502.0,14559.0,0.24503591656684875,0.6176937818527222,0.28867200016975403,0.47705838084220886,0.0,0.0,0.0,0.0,14271.0,13534.0,14877.0,11017.0,1.6284600496292114,0.0,0.0,0.0,0.0,0.0,0.0
538,5,0.0,0.0,0.0,0.0,-0.0,-0.0,0.020936472341418266,0.044379521161317825,-0.010226928628981113,0.014504805207252502,0.13304422795772552,0.06281381100416183,0.0,0.0,0.0,-0.0,-0.0,-0.0,0.0,0.0,0.0,-0.005524179898202419,-0.010274279862642288,-0.00419406546279788,10660.0,16459.0,11502.0,14559.0,0.24503591656684875,0.6176937818527222,0.28867200016975403,0.47705838084220886,0.0,0.0,0.0,0.0,14271.0,13534.0,14877.0,11017.0,1.6333194971084595,0.0,0.0,0.0,0.0,0.0,0.0
543,5,0.0,0.0,0.0,0.0,-0.0,-0.0,0.020652884617447853,0.0435216911137104,-0.009738311171531677,-0.02532808668911457,0.12069081515073776,-0.24014727771282196,0.0,0.0,0.0,-0.0,-0.0,-0.0,0.0,0.0,0.0,-0.00625056866556406,-0.01082869153469801,0.0024702807422727346,14511.0,13265.0,15146.0,10650.0,0.47371697425842285,0.391593873500824,0.5186004638671875,0.2445487380027771,0.0,0.0,0.0,0.0,9393.0,17263.0,10247.0,15368.0,1.6333194971084595,0.0,0.0,0.0,0.0,0.0,0.0
548,5,0.0,0.0,0.0,0.0,-0.0,-0.0,0.020652884617447853,0.0435216911137104,-0.009738311171531677,-0.02532808668911457,0.12069081515073776,-0.24014727771282196,0.0,0.0,0.0,-0.0,-0.0,-0.0,0.0,0.0,0.0,-0.00625056866556406,-0.01082869153469801,0.0024702807422727346,14511.0,13265.0,15146.0,10650.0,0.47371697425842285,0.391593873500824,0.5186004638671875,0.2445487380027771,0.0,0.0,0.0,0.0,9393.0,17263.0,10247.0,15368.0,1.6284600496292114,0.0,0.0,0.0,0.0,0.0,0.0
553,5,0.0,0.0,0.0,0.0,-0.0,-0.0,0.020686352625489235,0.0422942154109478,-0.010265743359923363,-0.03041970729827881,0.08701030910015106,0.1969044804573059,0.0,0.0,0.0,-0.0,-0.0,-0.0,0.0,0.0,0.0,-0.006184546276926994,-0.010225268080830574,-0.00971220899373293,9064.0,17472.0,9821.0,15655.0,0.17207543551921844,0.7001234292984009,0.20511125028133392,0.5560093522071838,0.0,0.0,0.0,0.0,13581.0,14154.0,14362.0,11781.0,1.6284600496292114,0.0,0.0,0.0,0.0,0.0,0.0
558,5,0.0,0.0,0.0,0.0,-0.0,-0.0,0.020686352625489235,0.0422942154109478,-0.010265743359923363,-0.03041970729827881,0.08701030910015106,0.1969044804573059,0.0,0.0,0.0,-0.0,-0.0,-0.0,0.0,0.0,0.0,-0.006184546276926994,-0.010225268080830574,-0.00971220899373293,9064.0,17472.0,9821.0,15655.0,0.17207543551921844,0.7001234292984009,0.20511125028133392,0.5560093522071838,0.0,0.0,0.0,0.0,13581.0,14154.0,14362.0,11781.0,1.6341501474380493,0.0,0.0,0.0,0.0,0.0,0.0
563,5,0.0,0.0,0.0,0.0,-0.0,-0.0,0.020242242142558098,0.04095795378088951,-0.0108290771022439,-0.06646811217069626,0.04764033854007721,-0.032245077192783356,0.0,0.0,0.0,-0.0,-0.0,-0.0,0.0,0.0,0.0,-0.004919623956084251,-0.011312004178762436,0.003236275864765048,13321.0,14321.0,14241.0,12021.0,0.3951045572757721,0.4607154428958893,0.45526841282844543,0.3173716366291046,0.0,0.0,0.0,0.0,12643.0,15173.0,13200.0,12945.0,1.6341501474380493,0.0,0.0,0.0,0.0,0.0,0.0
568,5,0.0,0.0,0.0,0.0,-0.0,-0.0,0.020242242142558098,0.04095795378088951,-0.0108290771022439,-0.06646811217069626,0.04764033854007721,-0.032245077192783356,0.0,0.0,0.0,-0.0,-0.0,-0.0,0.0,0.0,0.0,-0.004919623956084251,-0.011312004178762436,0.003236275864765048,13321.0,14321.0,14241.0,12021.0,0.3951045572757721,0.4607154428958893,0.45526841282844543,0.3173716366291046,0.0,0.0,0.0,0.0,12643.0,15173.0,13200.0,12945.0,1.6461859941482544,0.0,0.0,0.0,0.0,0.0,0.0
573,5,0.0,0.0,0.0,0.0,-0.0,-0.0,0.020179467275738716,0.04018927738070488,-0.012848950922489166,-0.013498079031705856,0.09135475754737854,0.1073925569653511,0.0,0.0,0.0,-0.0,-0.0,-0.0,0.0,0.0,0.0,-0.006113710347563028,-0.009177030995488167,-0.00365719897672534,12948.0,14834.0,13516.0,12726.0,0.37191641330718994,0.4962879419326782,0.40749257802963257,0.3584532141685486,0.0,0.0,0.0,0.0,10233.0,16701.0,11268.0,14759.0,1.6461859941482544,0.0,0.0,0.0,0.0,0.0,0.0
579,5,0.0,0.0,0.0,0.0,-0.0,-0.0,0.020179467275738716,0.04018927738070488,-0.012848950922489166,-0.013498079031705856,0.09135475754737854,0.1073925569653511,0.0,0.0,0.0,-0.0,-0.0,-0.0,0.0,0.0,0.0,-0.006113710347563028,-0.009177030995488167,-0.00365719897672534,12948.0,14834.0,13516.0,12726.0,0.37191641330718994,0.4962879419326782,0.40749257802963257,0.3584532141685486,0.0,0.0,0.0,0.0,10233.0,16701.0,11268.0,14759.0,1.6461859941482544,0.0,0.0,0.0,0.0,0.0,0.0
584,5,0.0,0.0,0.0,0.0,-0.0,-0.0,0.019703689962625504,0.039380092173814774,-0.012359232641756535,-0.02087724581360817,0.06604466587305069,-0.3161904215812683,0.0,0.0,0.0,-0.0,-0.0,-0.0,0.0,0.0,0.0,-0.005259411409497261,-0.010305176489055157,-0.0047056665644049644,9874.0,16945.0,10835.0,15113.0,0.2075089067220688,0.6566596031188965,0.25381070375442505,0.5161709189414978,0.0,0.0,0.0,0.0,14896.0,12815.0,15462.0,10309.0,1.68904709815979,0.0,0.0,0.0,0.0,0.0,0.0
589,5,0.0,0.0,0.0,0.0,-0.0,-0.0,0.019703689962625504,0.039380092173814774,-0.012359232641756535,-0.02087724581360817,0.06604466587305069,-0.3161904215812683,0.0,0.0,0.0,-0.0,-0.0,-0.0,0.0,0.0,0.0,-0.005259411409497261,-0.010305176489055157,-0.0047056665644049644,9874.0,16945.0,10835.0,15113.0,0.2075089067220688,0.6566596031188965,0.25381070375442505,0.5161709189414978,0.0,0.0,0.0,0.0,14896.0,12815.0,15462.0,10309.0,1.68904709815979,0.0,0.0,0.0,0.0,0.0,0.0
594,5,0.0,0.0,0.0,0.0,-0.0,-0.0,0.019669953733682632,0.0384841226041317,-0.01324334368109703,-0.06528013199567795,0.05698657035827637,0.27211663126945496,0.0,0.0,0.0,-0.0,-0.0,-0.0,0.0,0.0,0.0,-0.005113431718200445,-0.009005498141050339,0.0031179888173937798,15018.0,12693.0,15613.0,10300.0,0.5093647837638855,0.3565286099910736,0.5528302192687988,0.22746244072914124,0.0,0.0,0.0,0.0,8077.0,17957.0,8869.0,16327.0,1.6786977052688599,0.0,0.0,0.0,0.0,0.0,0.0
599,5,0.0,0.0,0.0,0.0,-0.0,-0.0,0.019669953733682632,0.0384841226041317,-0.01324334368109703,-0.06528013199567795,0.05698657035827637,0.27211663126945496,0.0,0.0,0.0,-0.0,-0.0,-0.0,0.0,0.0,0.0,-0.005113431718200445,-0.009005498141050339,0.0031179888173937798,15018.0,12693.0,15613.0,10300.0,0.5093647837638855,0.3565286099910736,0.5528302192687988,0.22746244072914124,0.0,0.0,0.0,0.0,8077.0,17957.0,8869.0,16327.0,1.6786977052688599,0.0,0.0,0.0,0.0,0.0,0.0
604,5,0.0,0.0,0.0,0.0,-0.0,-0.0,0.019272152334451675,0.03824280574917793,-0.014268502593040466,0.008703668601810932,0.08205804228782654,-0.3163781762123108,0.0,0.0,0.0,-0.0,-0.0,-0.0,0.0,0.0,0.0,-0.005761302541941404,-0.010588479228317738,-0.010917122475802898,8056.0,18200.0,9094.0,16495.0,0.13257983326911926,0.7625811100006104,0.1733480989933014,0.6205381155014038,0.0,0.0,0.0,0.0,14520.0,13537.0,15457.0,11045.0,1.6973623037338257,0.0,0.0,0.0,0.0,0.0,0.0
609,5,0.0,0.0,0.0,0.0,-0.0,-0.0,0.019272152334451675,0.03824280574917793,-0.014268502593040466,0.008703668601810932,0.08205804228782654,-0.3163781762123108,0.0,0.0,0.0,-0.0,-0.0,-0.0,0.0,0.0,0.0,-0.005761302541941404,-0.010588479228317738,-0.010917122475802898,8056.0,18200.0,9094.0,16495.0,0.13257983326911926,0.7625811100006104,0.1733480989933014,0.6205381155014038,0.0,0.0,0.0,0.0,14520.0,13537.0,15457.0,11045.0,1.6973623037338257,0.0,0.0,0.0,0.0,0.0,0.0
614,5,0.0,0.0,0.0,0.0,-0.0,-0.0,0.018897105008363724,0.0378413163125515,-0.013264155015349388,-0.052416298538446426,-0.016239408403635025,0.06313944607973099,0.0,0.0,0.0,-0.0,-0.0,-0.0,0.0,0.0,0.0,-0.004618221893906593,-0.011722775176167488,0.004236630629748106,14092.0,13936.0,15074.0,11438.0,0.4452096223831177,0.4348486661911011,0.5133640170097351,0.285275399684906,0.0,0.0,0.0,0.0,11560.0,16199.0,12181.0,14355.0,1.7188942432403564,0.0,0.0,0.0,0.0,0.0,0.0
619,5,0.0,0.0,0.0,0.0,-0.0,-0.0,0.018897105008363724,0.0378413163125515,-0.013264155015349388,-0.052416298538446426,-0.016239408403635025,0.06313944607973099,0.0,0.0,0.0,-0.0,-0.0,-0.0,0.0,0.0,0.0,-0.004618221893906593,-0.011722775176167488,0.004236630629748106,14092.0,13936.0,15074.0,11438.0,0.4452096223831177,0.4348486661911011,0.5133640170097351,0.285275399684906,0.0,0.0,0.0,0.0,11560.0,16199.0,12181.0,14355.0,1.7188942432403564,0.0,0.0,0.0,0.0,0.0,0.0
624,5,0.0,0.0,0.0,0.0,-0.0,-0.0,0.0186521727591753,0.03729120269417763,-0.015349107794463634,-0.003172982716932893,0.09232159703969955,-0.025261277332901955,0.0,0.0,0.0,-0.0,-0.0,-0.0,0.0,0.0,0.0,-0.005457618273794651,-0.009515673853456974,-0.006776760797947645,11571.0,16299.0,12162.0,14521.0,0.2924082279205322,0.6051640510559082,0.3253698945045471,0.47442013025283813,0.0,0.0,0.0,0.0,11292.0,16427.0,12314.0,14464.0,1.697800636291504,0.0,0.0,0.0,0.0,0.0,0.0
629,5,0.0,0.0,0.0,0.0,-0.0,-0.0,0.0186521727591753,0.03729120269417763,-0.015349107794463634,-0.003172982716932893,0.09232159703969955,-0.025261277332901955,0.0,0.0,0.0,-0.0,-0.0,-0.0,0.0,0.0,0.0,-0.005457618273794651,-0.009515673853456974,-0.006776760797947645,11571.0,16299.0,12162.0,14521.0,0.2924082279205322,0.6051640510559082,0.3253698945045471,0.47442013025283813,0.0,0.0,0.0,0.0,11292.0,16427.0,12314.0,14464.0,1.697800636291504,0.0,0.0,0.0,0.0,0.0,0.0
634,5,0.0,0.0,0.0,0.0,-0.0,-0.0,0.018218789249658585,0.03731519356369972,-0.014063136652112007,-0.038283176720142365,0.028878822922706604,-0.2589174211025238,0.0,0.0,0.0,-0.0,-0.0,-0.0,0.0,0.0,0.0,-0.004544996190816164,-0.011511924676597118,-0.0020860908553004265,11301.0,16515.0,12359.0,14632.0,0.2779281735420227,0.6221145391464233,0.33676081895828247,0.48209071159362793,0.0,0.0,0.0,0.0,14688.0,13665.0,15330.0,11411.0,1.7414624691009521,0.0,0.0,0.0,0.0,0.0,0.0
639,5,0.0,0.0,0.0,0.0,-0.0,-0.0,0.018218789249658585,0.03731519356369972,-0.014063136652112007,-0.038283176720142365,0.028878822922706604,-0.2589174211025238,0.0,0.0,0.0,-0.0,-0.0,-0.0,0.0,0.0,0.0,-0.004544996190816164,-0.011511924676597118,-0.0020860908553004265,11301.0,16515.0,12359.0,14632.0,0.2779281735420227,0.6221145391464233,0.33676081895828247,0.48209071159362793,0.0,0.0,0.0,0.0,14688.0,13665.0,15330.0,11411.0,1.7414624691009521,0.0,0.0,0.0,0.0,0.0,0.0
644,5,0.0,0.0,0.0,0.0,-0.0,-0.0,0.018218789249658585,0.03731519356369972,-0.014063136652112007,-0.038283176720142365,0.028878822922706604,-0.2589174211025238,0.0,0.0,0.0,-0.0,-0.0,-0.0,0.0,0.0,0.0,-0.004544996190816164,-0.011511924676597118,-0.0020860908553004265,11301.0,16515.0,12359.0,14632.0,0.2779281735420227,0.6221145391464233,0.33676081895828247,0.48209071159362793,0.0,0.0,0.0,0.0,14688.0,13665.0,15330.0,11411.0,1.714590311050415,0.0,0.0,0.0,0.0,0.0,0.0
649,5,0.0,0.0,0.0,0.0,-0.0,-0.0,0.01796233281493187,0.03659861534833908,-0.015546523965895176,-0.05422051250934601,0.04160657525062561,0.23201534152030945,0.0,0.0,0.0,-0.0,-0.0,-0.0,0.0,0.0,0.0,-0.00511143309995532,-0.009163755923509598,0.0005601962329819798,14523.0,13636.0,15165.0,11489.0,0.47457602620124817,0.41526779532432556,0.5199639797210693,0.2879928648471832,0.0,0.0,0.0,0.0,14648.0,13757.0,15524.0,11505.0,1.714590311050415,0.0,0.0,0.0,0.0,0.0,0.0
654,5,0.0,0.0,0.0,0.0,-0.0,-0.0,0.01796233281493187,0.03659861534833908,-0.015546523965895176,-0.05422051250934601,0.04160657525062561,0.23201534152030945,0.0,0.0,0.0,-0.0,-0.0,-0.0,0.0,0.0,0.0,-0.00511143309995532,-0.009163755923509598,0.0005601962329819798,14523.0,13636.0,15165.0,11489.0,0.47457602620124817,0.41526779532432556,0.5199639797210693,0.2879928648471832,0.0,0.0,0.0,0.0,14648.0,13757.0,15524.0,11505.0,1.745571255683899,0.0,0.0,0.0,0.0,0.0,0.0
659,5,0.0,0.0,0.0,0.0,-0.0,-0.0,0.0173471849411726,0.036500222980976105,-0.016064507886767387,-0.019084734842181206,0.03382871299982071,-0.33173230290412903,0.0,0.0,0.0,-0.0,-0.0,-0.0,0.0,0.0,0.0,-0.004448876716196537,-0.010328247211873531,-0.010248873382806778,8265.0,18300.0,9537.0,16707.0,0.1403343677520752,0.7713037729263306,0.19238954782485962,0.6374347805976868,0.0,0.0,0.0,0.0,10870.0,16972.0,11659.0,15301.0,1.745571255683899,0.0,0.0,0.0,0.0,0.0,0.0
665,5,0.0,0.0,0.0,0.0,-0.0,-0.0,0.0173471849411726,0.036500222980976105,-0.016064507886767387,-0.019084734842181206,0.03382871299982071,-0.33173230290412903,0.0,0.0,0.0,-0.0,-0.0,-0.0,0.0,0.0,0.0,-0.004448876716196537,-0.010328247211873531,-0.010248873382806778,8265.0,18300.0,9537.0,16707.0,0.1403343677520752,0.7713037729263306,0.19238954782485962,0.6374347805976868,0.0,0.0,0.0,0.0,10870.0,16972.0,11659.0,15301.0,1.7563310861587524,0.0,0.0,0.0,0.0,0.0,0.0
670,5,0.0,0.0,0.0,0.0,-0.0,-0.0,0.01696362905204296,0.03594065457582474,-0.01614137552678585,-0.05969179794192314,0.0010878561297431588,0.0629395991563797,0.0,0.0,0.0,-0.0,-0.0,-0.0,0.0,0.0,0.0,-0.004297764506191015,-0.01017636526376009,0.003793250070884824,14193.0,14029.0,15061.0,11873.0,0.4520082473754883,0.44106119871139526,0.5124778747558594,0.3090429902076721,0.0,0.0,0.0,0.0,12490.0,15564.0,13513.0,13612.0,1.7563310861587524,0.0,0.0,0.0,0.0,0.0,0.0
675,5,0.0,0.0,0.0,0.0,-0.0,-0.0,0.01696362905204296,0.03594065457582474,-0.01614137552678585,-0.05969179794192314,0.0010878561297431588,0.0629395991563797,0.0,0.0,0.0,-0.0,-0.0,-0.0,0.0,0.0,0.0,-0.004297764506191015,-0.01017636526376009,0.003793250070884824,14193.0,14029.0,15061.0,11873.0,0.4520082473754883,0.44106119871139526,0.5124778747558594,0.3090429902076721,0.0,0.0,0.0,0.0,12490.0,15564.0,13513.0,13612.0,1.7579251527786255,0.0,0.0,0.0,0.0,0.0,0.0
680,5,0.0,0.0,0.0,0.0,-0.0,-0.0,0.016932236030697823,0.03584282100200653,-0.018233168870210648,-0.020704345777630806,0.04939917474985123,-0.034010011702775955,0.0,0.0,0.0,-0.0,-0.0,-0.0,0.0,0.0,0.0,-0.00521341385319829,-0.009863249026238918,-0.007754575926810503,11540.0,16554.0,12346.0,14795.0,0.2907217741012573,0.6252661347389221,0.3360190987586975,0.493564248085022,0.0,0.0,0.0,0.0,13270.0,15174.0,13987.0,13316.0,1.7579251527786255,0.0,0.0,0.0,0.0,0.0,0.0
685,5,0.0,0.0,0.0,0.0,-0.0,-0.0,0.016932236030697823,0.03584282100200653,-0.018233168870210648,-0.020704345777630806,0.04939917474985123,-0.034010011702775955,0.0,0.0,0.0,-0.0,-0.0,-0.0,0.0,0.0,0.0,-0.00521341385319829,-0.009863249026238918,-0.007754575926810503,11540.0,16554.0,12346.0,14795.0,0.2907217741012573,0.6252661347389221,0.3360190987586975,0.493564248085022,0.0,0.0,0.0,0.0,13270.0,15174.0,13987.0,13316.0,1.8010507822036743,0.0,0.0,0.0,0.0,0.0,0.0
690,5,0.0,0.0,0.0,0.0,-0.0,-0.0,0.016663748770952225,0.03577521815896034,-0.017989370971918106,-0.008716091513633728,-0.01889999397099018,-0.1762930303812027,0.0,0.0,0.0,-0.0,-0.0,-0.0,0.0,0.0,0.0,-0.00488666957244277,-0.009520048275589943,-0.001528210355900228,13845.0,14735.0,14538.0,12820.0,0.4288594424724579,0.4893222153186798,0.47556570172309875,0.36417779326438904,0.0,0.0,0.0,0.0,9005.0,18060.0,10289.0,16354.0,1.8010507822036743,0.0,0.0,0.0,0.0,0.0,0.0
695,5,0.0,0.0,0.0,0.0,-0.0,-0.0,0.016663748770952225,0.03577521815896034,-0.017989370971918106,-0.008716091513633728,-0.01889999397099018,-0.1762930303812027,0.0,0.0,0.0,-0.0,-0.0,-0.0,0.0,0.0,0.0,-0.00488666957244277,-0.009520048275589943,-0.001528210355900228,13845.0,14735.0,14538.0,12820.0,0.4288594424724579,0.4893222153186798,0.47556570172309875,0.36417779326438904,0.0,0.0,0.0,0.0,9005.0,18060.0,10289.0,16354.0,1.8010507822036743,0.0,0.0,0.0,0.0,0.0,0.0
