timestamp,dt,pos_x,pos_y,pos_z,vel_x,vel_y,vel_z,roll,pitch,yaw,agv_x,agv_y,agv_z,x_ref,y_ref,z_ref,roll_ref,pitch_ref,yaw_ref,x_vel_ref,y_vel_ref,z_vel_ref,x_torque,y_torque,z_torque,w0,w1,w2,w3,u0,u1,u2,u3,m0req,m1req,m2req,m3req,thrust0,thrust1,thrust2,thrust3,thrust_ref,roll_vicon,pitch_vicon,yaw_vicon,acc_x,acc_y,acc_z
5,5,0.0,0.0,0.0,-0.0012678062776103616,0.0014755644369870424,-0.004284974187612534,-0.006408016663044691,0.3708447813987732,-0.0029264409095048904,-0.0002859942032955587,0.004406323656439781,-0.00024425110314041376,0.0,0.0,0.0,-0.001814164686948061,-0.0011990256607532501,-0.0,0.0,0.0,0.0,0.0013700600247830153,-0.11157796531915665,-0.00038801110349595547,1495.0,1495.0,1495.0,1495.0,0.0,0.0,0.0,0.0,0.0,0.0,0.0,0.0,1495.0,1495.0,1495.0,1495.0,1.6455254554748535,0.05029075331672802,-0.6072563901545898,-3.0304959902163393,0.004754273686558008,-0.005533366464078426,0.0
30,24,0.0,0.0,0.0,0.0017878914950415492,-0.0008119455887936056,0.0015057919081300497,-0.006408016663044691,0.3708447813987732,-0.0029264409095048904,-0.0002859942032955587,0.004406323656439781,-0.00024425110314041376,0.0,0.0,0.0,-0.001814164686948061,-0.0011990256607532501,-0.0,0.0,0.0,0.0,0.0013700600247830153,-0.11157796531915665,-0.00038801110349595547,1495.0,1495.0,1495.0,1495.0,0.0,0.0,0.0,0.0,0.0,0.0,0.0,0.0,1495.0,1495.0,1495.0,1495.0,1.6455254554748535,0.050947805020953876,-0.6084045157135631,-3.030162586334362,0.004754273686558008,-0.005533366464078426,0.0
35,5,0.0,0.0,0.0,-0.0011500576511025429,-5.095092274132185e-05,-0.0016153267351910472,-0.006408016663044691,0.3708447813987732,-0.0029264409095048904,-0.0002859942032955587,0.004406323656439781,-0.00024425110314041376,0.0,0.0,0.0,0.0009981518378481269,0.0016907048411667347,-0.0,0.0,0.0,0.0,0.0013700600247830153,-0.11157796531915665,-0.00038801110349595547,1495.0,1495.0,1495.0,1495.0,0.0,0.0,0.0,0.0,0.0,0.0,0.0,0.0,1495.0,1495.0,1495.0,1495.0,1.6457093954086304,0.05096064279300152,-0.6071081297364977,-3.030251926676384,-0.006704593077301979,0.0030447959434241056,0.0
40,6,0.0,0.0,0.0,-0.0005642871255986392,9.752013284014538e-05,-0.0010952041484415531,-0.006392807234078646,0.37081193923950195,-0.002953216200694442,0.0009798299288377166,-0.0008500363328494132,-0.004982297774404287,0.0,0.0,0.0,0.0009981518378481269,0.0016907048411667347,-0.0,0.0,0.0,0.0,0.0013700600247830153,-0.11157796531915665,-0.00038801110349595547,1495.0,1495.0,1495.0,1495.0,0.0,0.0,0.0,0.0,0.0,0.0,0.0,0.0,1495.0,1495.0,1495.0,1495.0,1.6457093954086304,0.049769697447048324,-0.6077931106943067,-3.0305721479042287,-0.006704593077301979,0.0030447959434241056,0.0
54,14,0.0,0.0,0.0,0.0019861774053424597,0.0014216137351468205,0.004352130927145481,-0.006392807234078646,0.37081193923950195,-0.002953216200694442,0.0009798299288377166,-0.0008500363328494132,-0.004982297774404287,0.0,0.0,0.0,-0.00012092325778212398,-0.000538235530257225,-0.0,0.0,0.0,0.0,0.0013700600247830153,-0.11157796531915665,-0.00038801110349595547,1495.0,1495.0,1495.0,1495.0,0.0,0.0,0.0,0.0,0.0,0.0,0.0,0.0,1495.0,1495.0,1495.0,1495.0,1.6315754652023315,0.050939392462044084,-0.6080716647983371,-3.029559100357194,0.002116076648235321,-0.00036570048541761935,0.0
59,5,0.0,0.0,0.0,-0.0011392716551199555,-2.0348956240923144e-05,-0.0016394180711358786,-0.006392807234078646,0.37081193923950195,-0.002953216200694442,0.0009798299288377166,-0.0008500363328494132,-0.004982297774404287,0.0,0.0,0.0,-0.0017424968536943197,0.0018726886482909322,-0.0,0.0,0.0,0.0,0.0013700600247830153,-0.11157796531915665,-0.00038801110349595547,1495.0,1495.0,1495.0,1495.0,0.0,0.0,0.0,0.0,0.0,0.0,0.0,0.0,1495.0,1495.0,1495.0,1495.0,1.6505653858184814,0.05026964715364673,-0.6073490858614103,-3.0303661386483274,-0.007448165211826563,-0.0053310515359044075,0.0
64,5,7.327154889935628e-06,8.181091288861353e-06,-6.071306870580884e-06,0.0004235499072819948,-0.0009898706339299679,7.278962584678084e-05,-0.006392807234078646,0.37081193923950195,-0.002953216200694442,0.0009798299288377166,-0.0008500363328494132,-0.004982297774404287,0.0,0.0,0.0,-0.0017424968536943197,0.0018726886482909322,-0.0,0.0,0.0,0.0,0.0013700600247830153,-0.11157796531915665,-0.00038801110349595547,1495.0,1495.0,1495.0,1495.0,0.0,0.0,0.0,0.0,0.0,0.0,0.0,0.0,1495.0,1495.0,1495.0,1495.0,1.6505653858184814,0.051143250340630095,-0.6076469966630225,-3.0300698512158,-0.007448165211826563,-0.0053310515359044075,0.0
69,5,2.0360579583211802e-05,3.314268724352587e-06,-4.176066431682557e-05,0.0017334310105070472,0.00018807050946634263,0.004311838652938604,-0.006384146865457296,0.3708086609840393,-0.002951843896880746,-0.00010367093636887148,-0.000659052049741149,0.0034109402913600206,0.0,0.0,0.0,0.001238301512785256,0.0004129160661250353,-0.0,0.0,0.0,0.0,0.0022028011735528708,-0.11086051166057587,-0.00042898100218735635,1495.0,1495.0,1495.0,1495.0,0.0,0.0,0.0,0.0,0.0,0.0,0.0,0.0,1495.0,1495.0,1495.0,1495.0,1.6368581056594849,0.051464982847712046,-0.6087922327252275,-3.029885667045893,-0.0016286371974274516,0.003757039550691843,0.0
74,5,-1.1488656127767172e-05,9.606513231119607e-06,1.2269942999409977e-05,-0.0031285358127206564,-0.0006798411486670375,-0.004758937284350395,-0.006384146865457296,0.3708086609840393,-0.002951843896880746,-0.00010367093636887148,-0.000659052049741149,0.0034109402913600206,0.0,0.0,0.0,0.001238301512785256,0.0004129160661250353,-0.0,0.0,0.0,0.0,0.0022028011735528708,-0.11086051166057587,-0.00042898100218735635,1495.0,1495.0,1495.0,1495.0,0.0,0.0,0.0,0.0,0.0,0.0,0.0,0.0,1495.0,1495.0,1495.0,1495.0,1.6368581056594849,0.05041155569255555,-0.6069913042285826,-3.0304112410106505,-0.0016286371974274516,0.003757039550691843,0.0
80,5,7.563081453554332e-06,-3.850556822726503e-06,1.4824712479821756e-06,0.0010347941424697638,0.001342911971732974,-0.0006090783281251788,-0.0063701048493385315,0.37081941962242126,-0.0029670826625078917,0.0007291263900697231,-0.0004220382252242416,-0.003941347822546959,0.0,0.0,0.0,0.0008465410792268813,-0.0029515717178583145,-0.0,0.0,0.0,0.0,0.0021930490620434284,-0.11085762828588486,-0.00024039494746830314,1495.0,19840.0,19893.0,1495.0,-0.10888221859931946,0.9128327965736389,0.9179708957672119,-0.07621201872825623,0.0,0.0,0.0,0.0,1495.0,19826.0,19890.0,1495.0,1.6584458351135254,0.049827417652471555,-0.6077808730522338,-3.030300573714978,0.01179521158337593,0.0026023024693131447,0.0
85,5,2.1102489426993998e-06,-8.402206731261685e-06,-1.2907486052426975e-05,-0.00024042227596510202,0.0010833628475666046,0.0014831634471192956,-0.0063701048493385315,0.37081941962242126,-0.0029670826625078917,0.0007291263900697231,-0.0004220382252242416,-0.003941347822546959,0.0,0.0,0.0,0.0008465410792268813,-0.0029515717178583145,-0.0,0.0,0.0,0.0,0.0021930490620434284,-0.11085762828588486,-0.00024039494746830314,1495.0,19840.0,19893.0,1495.0,-0.10888221859931946,0.9128327965736389,0.9179708957672119,-0.07621201872825623,0.0,0.0,0.0,0.0,1495.0,19826.0,19890.0,1495.0,1.6584458351135254,0.04977663045910471,-0.6076654005885678,-3.0304276694831205,0.01179521158337593,0.0026023024693131447,0.0
90,5,1.9306171452626586e-05,3.618228220148012e-06,-3.17550657200627e-05,0.001967341871932149,-0.0010091071017086506,0.0028549751732498407,-0.006376279983669519,0.3707719147205353,-0.0029685168992727995,0.0004519576614256948,0.006810240913182497,-4.962876482750289e-05,0.0,0.0,0.0,-0.0013539917999878526,-0.00022560113575309515,-0.0,0.0,0.0,0.0,0.0019152944441884756,-0.11142290383577347,-0.00023675696866121143,1495.0,19837.0,19873.0,1495.0,-0.11322373151779175,0.9125280380249023,0.9159886837005615,-0.08371749520301819,0.0,0.0,0.0,0.0,1495.0,19874.0,19842.0,1495.0,1.637154221534729,0.050177846334638856,-0.6084099826356331,-3.0302120806290955,0.0008899843669496477,-0.0041087898425757885,0.0
95,5,1.5247848750732373e-05,4.163749053986976e-06,-2.3104759748093784e-05,0.000299938052194193,-0.00046910534729249775,0.00010395311983302236,-0.006376279983669519,0.3707719147205353,-0.0029685168992727995,0.0004519576614256948,0.006810240913182497,-4.962876482750289e-05,0.0,0.0,0.0,-0.0013539917999878526,-0.00022560113575309515,-0.0,0.0,0.0,0.0,0.0014654421247541904,-0.11085998266935349,-0.0002777976915240288,1495.0,19898.0,19864.0,1495.0,-0.10568695515394211,0.9184172749519348,0.915176272392273,-0.07734125107526779,0.0,0.0,0.0,0.0,1495.0,19897.0,19846.0,1495.0,1.637154221534729,0.05027149074396095,-0.6080586642810342,-3.029938132264003,0.0008899843669496477,-0.0041087898425757885,0.0
100,5,8.381739462492988e-06,2.1437033865367994e-05,-2.4902874429244548e-05,-0.000703957979567349,-0.0022604363039135933,0.0002573550445958972,-0.006376279983669519,0.3707719147205353,-0.0029685168992727995,0.0004519576614256948,0.006810240913182497,-4.962876482750289e-05,0.0,0.0,0.0,0.0005892647313885391,0.000307430571410805,-0.0,0.0,0.0,0.0,0.0014654421247541904,-0.11085998266935349,-0.0002777976915240288,1495.0,19898.0,19864.0,1495.0,-0.10568695515394211,0.9184172749519348,0.915176272392273,-0.07734125107526779,0.0,0.0,0.0,0.0,1495.0,19897.0,19846.0,1495.0,1.6315914392471313,0.05078420198518338,-0.6080048076809607,-3.030039636751191,-0.0012086770730093122,0.0017820930806919932,0.0
105,5,-5.4428815019491594e-06,2.482117633917369e-05,2.9042817004665267e-06,-0.0019405377097427845,-0.0013102716766297817,-0.0032339165918529034,-0.006376279983669519,0.3707719147205353,-0.0029685168992727995,0.0004519576614256948,0.006810240913182497,-4.962876482750289e-05,0.0,0.0,0.0,0.0005892647313885391,0.000307430571410805,-0.0,0.0,0.0,0.0,0.0014654421247541904,-0.11085998266935349,-0.0002777976915240288,1495.0,19898.0,19864.0,1495.0,-0.10568695515394211,0.9184172749519348,0.915176272392273,-0.07734125107526779,0.0,0.0,0.0,0.0,1495.0,19897.0,19846.0,1495.0,1.6315914392471313,0.04973079345376253,-0.6071617638013328,-3.0307994067962714,-0.0012086770730093122,0.0017820930806919932,0.0
110,5,1.9518560293363407e-05,1.2010246791760437e-05,-4.225036173011176e-05,0.0022191579919308424,0.0010132029419764876,0.004124990198761225,-0.006405685096979141,0.3708239495754242,-0.0029371611308306456,0.0014321968192234635,-0.0056907497346401215,-0.0005108199547976255,0.0,0.0,0.0,0.0005892647313885391,0.000307430571410805,-0.0,0.0,0.0,0.0,0.002292955294251442,-0.1116040050983429,-0.00015752743638586253,1495.0,19832.0,19923.0,1495.0,-0.11345778405666351,0.912118136882782,0.920867383480072,-0.08266961574554443,0.0,0.0,0.0,0.0,1495.0,19839.0,19909.0,1495.0,1.6315914392471313,0.05044606137294126,-0.6079729061891053,-3.0298892272485,-0.0012086770730093122,0.0017820930806919932,0.0
115,5,1.086848078557523e-05,1.1101100199084613e-06,-4.693842492997646e-05,-0.0001503463863627985,0.001713297562673688,0.002212563995271921,-0.006405685096979141,0.3708239495754242,-0.0029371611308306456,0.0014321968192234635,-0.0056907497346401215,-0.0005108199547976255,0.0,0.0,0.0,-0.001220160978846252,0.0021191698033362627,-0.0,0.0,0.0,0.0,0.002292955294251442,-0.1116040050983429,-0.00015752743638586253,1495.0,19832.0,19923.0,1495.0,-0.11345778405666351,0.912118136882782,0.920867383480072,-0.08266961574554443,0.0,0.0,0.0,0.0,1495.0,19839.0,19909.0,1495.0,1.6507259607315063,0.04999454154250432,-0.6078405022316957,-3.0303943307771424,-0.008429309353232384,-0.0037333653308451176,0.0
120,5,1.2873192645201925e-05,-4.552390237222426e-06,-3.391598875168711e-05,0.00018042681040242314,0.0013648191234096885,-0.0006776668014936149,-0.006380031351000071,0.37082037329673767,-0.002948054112493992,0.0017726672813296318,0.0028704211581498384,-6.375544762704521e-05,0.0,0.0,0.0,-0.001220160978846252,0.0021191698033362627,-0.0,0.0,0.0,0.0,0.0021272175945341587,-0.1124449372291565,-0.00032753360574133694,1495.0,19958.0,19988.0,1495.0,-0.11345072835683823,0.9242320656776428,0.9270880222320557,-0.07942347973585129,0.0,0.0,0.0,0.0,1495.0,19863.0,19893.0,1495.0,1.6507259607315063,0.049692513165886416,-0.6080738716604348,-3.0304155006710456,-0.008429309353232384,-0.0037333653308451176,0.0
125,5,-1.115775648941053e-05,3.4458812478987966e-06,-1.635957414691802e-05,-0.0028115431778132915,-0.0004138649383094162,-0.002377836499363184,-0.006371182389557362,0.37083449959754944,-0.0029518259689211845,-0.0012571295956149697,-0.0022077143657952547,-0.004714447073638439,0.0,0.0,0.0,0.000512195925693959,-0.0026595003437250853,-0.0,0.0,0.0,0.0,0.0014903565170243382,-0.11187156289815903,-0.00026855964097194374,1495.0,19902.0,19882.0,1495.0,-0.11332256346940994,0.9188458919525146,0.9168931841850281,-0.0852622464299202,0.0,0.0,0.0,0.0,1495.0,19931.0,19843.0,1495.0,1.6547799110412598,0.05031555426215026,-0.6071336755507333,-3.0305550328070123,0.010604534298181534,0.0015710314037278295,0.0
133,8,1.224659263243666e-05,-5.197731297812425e-06,-1.3813448276778217e-05,0.002098983619362116,-0.0005465260474011302,-3.075373388128355e-05,-0.006371182389557362,0.37083449959754944,-0.0029518259689211845,-0.0012571295956149697,-0.0022077143657952547,-0.004714447073638439,0.0,0.0,0.0,0.000512195925693959,-0.0026595003437250853,-0.0,0.0,0.0,0.0,0.0014903565170243382,-0.11187156289815903,-0.00026855964097194374,1495.0,19902.0,19882.0,1495.0,-0.11332256346940994,0.9188458919525146,0.9168931841850281,-0.0852622464299202,0.0,0.0,0.0,0.0,1495.0,19931.0,19843.0,1495.0,1.6547799110412598,0.05101369730301271,-0.6072729499292364,-3.029978481562031,0.010604534298181534,0.0015710314037278295,0.0
138,5,1.6896829038159922e-06,1.5092480225575855e-06,-1.6327379853464663e-05,-0.00042723576189018786,-0.0010234479559585452,0.0002893703058362007,-0.006371182389557362,0.37083449959754944,-0.0029518259689211845,-0.0012571295956149697,-0.0022077143657952547,-0.004714447073638439,0.0,0.0,0.0,0.000512195925693959,-0.0026595003437250853,-0.0,0.0,0.0,0.0,0.0014903565170243382,-0.11187156289815903,-0.00026855964097194374,1495.0,19902.0,19882.0,1495.0,-0.11332256346940994,0.9188458919525146,0.9168931841850281,-0.0852622464299202,0.0,0.0,0.0,0.0,1495.0,19931.0,19843.0,1495.0,1.6547799110412598,0.05087474848187849,-0.6074093247671373,-3.03042860682623,0.010604534298181534,0.0015710314037278295,0.0
143,5,1.3581990970124025e-05,1.1498031199153047e-05,-2.042551204795018e-05,0.0012561826733872294,-0.001608033198863268,0.0006075239507481456,-0.006402964238077402,0.3708380162715912,-0.0029419781640172005,-0.005578980315476656,0.0008856974309310317,0.00013349257642403245,0.0,0.0,0.0,0.0012675852049142122,-0.0004037627950310707,-0.0,0.0,0.0,0.0,0.0015545232454314828,-0.11123708635568619,-0.0003330931649543345,1495.0,19914.0,19883.0,1495.0,-0.10791192948818207,0.9199360609054565,0.9169813990592957,-0.07827956974506378,0.0,0.0,0.0,0.0,1495.0,19846.0,19888.0,1495.0,1.6370428800582886,0.05067103087541873,-0.6079387152942508,-3.0302828185047486,0.001592714455910027,0.003846321487799287,0.0
148,5,1.086614702217048e-05,-1.1687518508551875e-06,-2.1176643713261e-05,0.0001765718188835308,0.0008768006809987128,0.0003331453481223434,-0.006402964238077402,0.3708380162715912,-0.0029419781640172005,-0.005578980315476656,0.0008856974309310317,0.00013349257642403245,0.0,0.0,0.0,0.0012675852049142122,-0.0004037627950310707,-0.0,0.0,0.0,0.0,0.0015545232454314828,-0.11123708635568619,-0.0003330931649543345,1495.0,19914.0,19883.0,1495.0,-0.10791192948818207,0.9199360609054565,0.9169813990592957,-0.07827956974506378,0.0,0.0,0.0,0.0,1495.0,19846.0,19888.0,1495.0,1.6370428800582886,0.049922570024366154,-0.6076868698414388,-3.030411522618183,0.001592714455910027,0.003846321487799287,0.0
153,5,1.1197503226867411e-05,-2.5441563593631145e-06,-3.188836490153335e-05,0.00011039146920666099,0.0005157688283361495,0.0014186645857989788,-0.006396598182618618,0.3708660900592804,-0.0029293913394212723,0.002194421598687768,0.0011225186754018068,0.0018135847058147192,0.0,0.0,0.0,-0.001087099895812571,0.00018328972510062158,-0.0,0.0,0.0,0.0,0.001338281319476664,-0.1118517592549324,-0.00025139848003163934,1495.0,19897.0,19898.0,1495.0,-0.11000087112188339,0.9183267951011658,0.9183881878852844,-0.08686868101358414,0.0,0.0,0.0,0.0,1495.0,19905.0,19907.0,1495.0,1.6348994970321655,0.05062189555698605,-0.60725838482688,-3.029916449969165,-0.0007220725528895855,-0.003294343827292323,0.0
158,5,-1.0822468539117835e-05,1.846277655204176e-06,-8.80472634889884e-06,-0.002598240040242672,-0.000320544553687796,-0.0022025706712156534,-0.006396598182618618,0.3708660900592804,-0.0029293913394212723,0.002194421598687768,0.0011225186754018068,0.0018135847058147192,0.0,0.0,0.0,-0.001087099895812571,0.00018328972510062158,-0.0,0.0,0.0,0.0,0.001338281319476664,-0.1118517592549324,-0.00025139848003163934,1495.0,19897.0,19898.0,1495.0,-0.11000087112188339,0.9183267951011658,0.9183881878852844,-0.08686868101358414,0.0,0.0,0.0,0.0,1495.0,19905.0,19907.0,1495.0,1.6348994970321655,0.04978174473110404,-0.6072712293845879,-3.030718796823206,-0.0007220725528895855,-0.003294343827292323,0.0
164,5,-1.0646144801285118e-05,1.0795849448186345e-05,-1.425809387001209e-05,-0.0010181372053921223,-0.001202166429720819,-0.00022662414994556457,-0.006422169506549835,0.3708595335483551,-0.0029473768081516027,-0.0008841694216243923,-0.0012762247351929545,0.000531044031959027,0.0,0.0,0.0,0.0003957813896704465,-0.002461818279698491,-0.0,0.0,0.0,0.0,0.002169880783185363,-0.11280897259712219,-0.00034492864506319165,1495.0,19969.0,19997.0,1495.0,-0.11632929742336273,0.9252418875694275,0.9280059933662415,-0.08213871717453003,0.0,0.0,0.0,0.0,1495.0,19963.0,20006.0,1495.0,1.6525042057037354,0.05044680779219415,-0.6071640226168127,-3.03067927630083,0.009802796877920628,0.0012122897896915674,0.0
169,5,-4.520138190855505e-06,8.385180080949795e-06,-4.471053671295522e-06,0.0003278659423813224,-0.00019158629584126174,-0.001265094499103725,-0.006422169506549835,0.3708595335483551,-0.0029473768081516027,-0.0008841694216243923,-0.0012762247351929545,0.000531044031959027,0.0,0.0,0.0,0.0003957813896704465,-0.002461818279698491,-0.0,0.0,0.0,0.0,0.002169880783185363,-0.11280897259712219,-0.00034492864506319165,1495.0,19969.0,19997.0,1495.0,-0.11632929742336273,0.9252418875694275,0.9280059933662415,-0.08213871717453003,0.0,0.0,0.0,0.0,1495.0,19963.0,20006.0,1495.0,1.6525042057037354,0.05052088015272603,-0.607545747023525,-3.0305713372316045,0.009802796877920628,0.0012122897896915674,0.0
174,5,-4.609512416209327e-06,2.2935733795748092e-05,5.815673375764163e-06,0.00012042142043355852,-0.001822700840421021,-0.00174044503364712,-0.006472836248576641,0.37086814641952515,-0.002918679267168045,-2.608222530398052e-06,-9.45440333453007e-05,0.006369004957377911,0.0,0.0,0.0,0.0002531573118176311,0.0003068017540499568,-0.0,0.0,0.0,0.0,0.001681220717728138,-0.11218423396348953,-0.00041705305920913815,1495.0,19829.0,19986.0,1495.0,-0.11424160748720169,0.9118554592132568,0.9268797039985657,-0.08745063096284866,0.0,0.0,0.0,0.0,1495.0,19843.0,19985.0,1495.0,1.6296194791793823,0.05131715833523309,-0.6074254561973595,-3.030773274688119,-0.0012047472409904003,0.000764689699281007,0.0
179,5,-4.440557859197725e-06,9.555507858749479e-06,3.195841782144271e-05,6.844311428721994e-05,0.0008765467209741473,-0.003833307418972254,-0.006472836248576641,0.37086814641952515,-0.002918679267168045,-2.608222530398052e-06,-9.45440333453007e-05,0.006369004957377911,0.0,0.0,0.0,0.0002531573118176311,0.0003068017540499568,-0.0,0.0,0.0,0.0,0.001681220717728138,-0.11218423396348953,-0.00041705305920913815,1495.0,19829.0,19986.0,1495.0,-0.11424160748720169,0.9118554592132568,0.9268797039985657,-0.08745063096284866,0.0,0.0,0.0,0.0,1495.0,19843.0,19985.0,1495.0,1.6296194791793823,0.04997894879369971,-0.6075302094980334,-3.030545032662595,-0.0012047472409904003,0.000764689699281007,0.0
184,5,5.6293611123692244e-06,1.233283182955347e-05,-1.1167846423632e-05,0.0012357676168903708,1.7339756595902145e-05,0.0036418286617845297,-0.0064438884146511555,0.3708783984184265,-0.0030244451481848955,0.0026715013664215803,0.011013799346983433,-0.03930307552218437,0.0,0.0,0.0,-0.0010675288503989577,5.8987949159927666e-05,-0.0,0.0,0.0,0.0,0.0023179056588560343,-0.11322905123233795,0.0008780420757830143,1495.0,19642.0,20356.0,1495.0,-0.0885455310344696,0.8940169215202332,0.9629936814308167,-0.11596092581748962,0.0,0.0,0.0,0.0,1495.0,20023.0,19745.0,1495.0,1.634547233581543,0.050248708021992,-0.6071514437913332,-3.0304186164411617,-0.00023233382671605796,-0.0032343389466404915,0.0
189,5,4.002476634923369e-05,3.835214101854945e-06,-5.2662770031020045e-05,0.004621755797415972,0.0010266500758007169,0.006436122115701437,-0.0064438884146511555,0.3708783984184265,-0.0030244451481848955,0.0026715013664215803,0.011013799346983433,-0.03930307552218437,0.0,0.0,0.0,-0.0010675288503989577,5.8987949159927666e-05,-0.0,0.0,0.0,0.0,0.0023179056588560343,-0.11322905123233795,0.0008780420757830143,1495.0,19642.0,20356.0,1495.0,-0.0885455310344696,0.8940169215202332,0.9629936814308167,-0.11596092581748962,0.0,0.0,0.0,0.0,1495.0,20023.0,19745.0,1495.0,1.634547233581543,0.05119938200982764,-0.6089996745397965,-3.0296950595193883,-0.00023233382671605796,-0.0032343389466404915,0.0
194,5,1.9880239051417448e-05,1.4134036973700859e-05,-2.6572763090371154e-05,-0.0005686410004273057,-0.0008251987164840102,-0.0005563517916016281,-0.0063231629319489,0.3709195852279663,-0.0032781788613647223,0.023302264511585236,-0.00841260701417923,-0.061552807688713074,0.0,0.0,0.0,-0.0012336989166215062,0.0043505518697202206,-0.0,0.0,0.0,0.0,0.0017962914425879717,-0.11253593116998672,-0.002596070757135749,1495.0,20483.0,19241.0,1495.0,-0.17523959279060364,0.9754794239997864,0.8564162850379944,-0.02703665941953659,0.0,0.0,0.0,0.0,1495.0,19862.0,20124.0,1495.0,1.6742910146713257,0.05097631678341567,-0.6089092577173287,-3.030176309805583,-0.017551954835653305,-0.003828674554824829,0.0
199,5,8.907287337933667e-06,1.1345897554804196e-08,-1.1652476132439915e-05,-0.0015442107105627656,0.0013646434526890516,-0.002012975048273802,-0.0063231629319489,0.3709195852279663,-0.0032781788613647223,0.023302264511585236,-0.00841260701417923,-0.061552807688713074,0.0,0.0,0.0,-0.0012336989166215062,0.0043505518697202206,-0.0,0.0,0.0,0.0,0.0017962914425879717,-0.11253593116998672,-0.002596070757135749,1495.0,20483.0,19241.0,1495.0,-0.17523959279060364,0.9754794239997864,0.8564162850379944,-0.02703665941953659,0.0,0.0,0.0,0.0,1495.0,19862.0,20124.0,1495.0,1.6742910146713257,0.0509571462570355,-0.608208271505075,-3.0291547228625966,-0.017551954835653305,-0.003828674554824829,0.0
204,5,-1.950817386386916e-05,9.834233424044214e-06,-1.8521039237384684e-05,-0.004027539398521185,-0.0006328891613520682,1.9037432139157318e-05,-0.006931448355317116,0.37113696336746216,-0.0025766107719391584,-0.03841147944331169,0.016419611871242523,-0.051736410707235336,0.0,0.0,0.0,-0.0016766240587458014,-0.0014470710884779692,-0.0,0.0,0.0,0.0,0.0031442791223526,-0.11299889534711838,0.002678381046280265,1495.0,19329.0,20476.0,1495.0,-0.07727910578250885,0.8645866513252258,0.9747992157936096,-0.13248728215694427,0.0,0.0,0.0,0.0,1495.0,19856.0,19992.0,1495.0,1.6465954780578613,0.05113983379688706,-0.6075751521591148,-3.030348492357416,0.005741533823311329,-0.005117181222885847,0.0
209,5,-8.331065146194305e-06,1.280896867683623e-05,-1.4660377019026782e-05,-0.000269762851530686,-0.0006101239123381674,-0.00045566449989564717,-0.006931448355317116,0.37113696336746216,-0.0025766107719391584,-0.03841147944331169,0.016419611871242523,-0.051736410707235336,0.0,0.0,0.0,-0.0016766240587458014,-0.0014470710884779692,-0.0,0.0,0.0,0.0,0.0031442791223526,-0.11299889534711838,0.002678381046280265,1495.0,19329.0,20476.0,1495.0,-0.07727910578250885,0.8645866513252258,0.9747992157936096,-0.13248728215694427,0.0,0.0,0.0,0.0,1495.0,19856.0,19992.0,1495.0,1.6465954780578613,0.05151654858580449,-0.6075226633657067,-3.030153145640016,0.005741533823311329,-0.005117181222885847,0.0
215,5,-2.929639413196128e-05,2.690658402570989e-05,-1.337032335868571e-05,-0.002623744774609804,-0.00193576340097934,-0.00033707215334288776,-0.00674568023532629,0.37081965804100037,-0.002828438999131322,0.002116544870659709,0.014123343862593174,0.11690827459096909,0.0,0.0,0.0,0.0007793420227244496,-0.0002687076630536467,-0.0,0.0,0.0,0.0,0.001209487789310515,-0.11173094063997269,0.00017690760432742536,1495.0,19478.0,20288.0,1495.0,-0.07225516438484192,0.8785630464553833,0.9562228918075562,-0.12798358500003815,0.0,0.0,0.0,0.0,1495.0,20784.0,18906.0,2609.0,1.6327621936798096,0.05092373983113607,-0.6071691849949736,-3.0303796413930844,0.0010571941966190934,0.002358628436923027,0.0
220,5,-1.2561447874759324e-05,1.919336136779748e-05,2.6819130653166212e-05,0.0009586957166902721,0.00015128141967579722,-0.004957563243806362,-0.00674568023532629,0.37081965804100037,-0.002828438999131322,0.002116544870659709,0.014123343862593174,0.11690827459096909,0.0,0.0,0.0,0.0007793420227244496,-0.0002687076630536467,-0.0,0.0,0.0,0.0,0.001209487789310515,-0.11173094063997269,0.00017690760432742536,1495.0,19478.0,20288.0,1495.0,-0.07225516438484192,0.8785630464553833,0.9562228918075562,-0.12798358500003815,0.0,0.0,0.0,0.0,1495.0,20784.0,18906.0,2609.0,1.6327621936798096,0.04984906322383522,-0.6061718388274819,-3.0310906813788465,0.0010571941966190934,0.002358628436923027,0.0
225,5,-8.328150215675123e-06,3.701079185702838e-05,6.065095294616185e-05,0.000891474075615406,-0.002077579265460372,-0.006042844150215387,-0.00643665436655283,0.3699900209903717,-0.003627174533903599,0.05417855829000473,0.18186673521995544,-0.07228460162878036,0.0,0.0,0.0,-0.0001522308011772111,0.0008948156028054655,-0.0,0.0,0.0,0.0,0.0012967929942533374,-0.1077822893857956,-0.004344613291323185,1495.0,20815.0,18658.0,4868.0,-0.17861075699329376,1.0085797309875488,0.8031250238418579,0.04119710624217987,0.0,0.0,0.0,0.0,1495.0,19357.0,20462.0,1495.0,1.6353974342346191,0.05111221356178388,-0.6049596239280015,-3.030852549506909,-0.003526214277371764,-0.0004614603240042925,0.0
230,5,3.055498018511571e-05,1.3656258488481399e-05,5.541633800021373e-05,0.0050225649029016495,0.0019715125672519207,-0.0017889839364215732,-0.00643665436655283,0.3699900209903717,-0.003627174533903599,0.05417855829000473,0.18186673521995544,-0.07228460162878036,0.0,0.0,0.0,-0.0001522308011772111,0.0008948156028054655,-0.0,0.0,0.0,0.0,0.0012967929942533374,-0.1077822893857956,-0.004344613291323185,1495.0,20815.0,18658.0,4868.0,-0.17861075699329376,1.0085797309875488,0.8031250238418579,0.04119710624217987,0.0,0.0,0.0,0.0,1495.0,19357.0,20462.0,1495.0,1.6353974342346191,0.05028657135199837,-0.6035267521570709,-3.0303159315544743,-0.003526214277371764,-0.0004614603240042925,0.0
235,5,7.075737084960565e-05,1.7266756913159043e-05,0.00013682577991858125,0.006833313032984734,0.0003553452552296221,-0.01048472709953785,-0.006602187640964985,0.3653617203235626,-0.003261848585680127,-0.06743504852056503,0.6003167033195496,-0.06957045942544937,0.0,0.0,0.0,-0.0023489308077841997,0.0046921707689762115,-0.0,0.0,0.0,0.0,0.001443109824322164,-0.10257202386856079,0.0024480207357555628,1495.0,19277.0,19434.0,1495.0,-0.05520452931523323,0.8597543239593506,0.874401867389679,-0.03235612437129021,0.0,0.0,0.0,0.0,1495.0,19845.0,19601.0,1495.0,1.6807323694229126,0.050225506167515636,-0.6006295574796596,-3.030493672208421,-0.019002970308065414,-0.007317733485251665,0.0
240,5,0.00012379956024233252,2.7121574021293782e-05,0.00021494925022125244,0.009098388254642487,-0.0010404400527477264,-0.013568706810474396,-0.006602187640964985,0.3653617203235626,-0.003261848585680127,-0.06743504852056503,0.6003167033195496,-0.06957045942544937,0.0,0.0,0.0,-0.0023489308077841997,0.0046921707689762115,-0.0,0.0,0.0,0.0,0.001443109824322164,-0.10257202386856079,0.0024480207357555628,1495.0,19277.0,19434.0,1495.0,-0.05520452931523323,0.8597543239593506,0.874401867389679,-0.03235612437129021,0.0,0.0,0.0,0.0,1495.0,19845.0,19601.0,1495.0,1.6807323694229126,0.050979023678096765,-0.5961883982956122,-3.0299421804694457,-0.019002970308065414,-0.007317733485251665,0.0
245,5,0.0002141833392670378,0.00011233980330871418,0.0004396812291815877,0.014485408551990986,-0.01064236368983984,-0.03239532187581062,-0.006460709497332573,0.357045441865921,-0.003069682512432337,0.01752115786075592,1.4862658977508545,0.08892780542373657,0.0,0.0,0.0,0.0012707910500466824,0.008397196419537067,-0.0,0.0,0.0,0.0,0.0017400257056578994,-0.08342503011226654,0.0011919715907424688,7897.0,17144.0,19143.0,1495.0,0.1268218457698822,0.6729142665863037,0.847281813621521,-0.014255769550800323,0.0,0.0,0.0,0.0,1495.0,19625.0,18422.0,5704.0,1.7199102640151978,0.05405899270459758,-0.5863190354271748,-3.0305935776727084,-0.034800585359334946,0.004051242955029011,0.0
250,5,0.00034007817157544196,0.00027684675296768546,0.0007633530185557902,0.020901542156934738,-0.023997778072953224,-0.0517987422645092,-0.006460709497332573,0.357045441865921,-0.003069682512432337,0.01752115786075592,1.4862658977508545,0.08892780542373657,0.0,0.0,0.0,0.0012707910500466824,0.008397196419537067,-0.0,0.0,0.0,0.0,0.0017400257056578994,-0.08342503011226654,0.0011919715907424688,7897.0,17144.0,19143.0,1495.0,0.1268218457698822,0.6729142665863037,0.847281813621521,-0.014255769550800323,0.0,0.0,0.0,0.0,1495.0,19625.0,18422.0,5704.0,1.7199102640151978,0.05845129995582317,-0.5714538327148397,-3.0325929177042266,-0.034800585359334946,0.004051242955029011,0.0
255,5,0.0005001964746043086,0.00027642823988571763,0.0009192060679197311,0.0275748148560524,-0.009548891335725784,-0.03942186012864113,-0.006743898149579763,0.3417200446128845,-0.003157996805384755,-0.016175491735339165,2.6026010513305664,0.005097472574561834,0.0,0.0,0.0,0.0012707910500466824,0.008397196419537067,-0.0,0.0,0.0,0.0,0.0027737559285014868,-0.04854308441281319,-0.0015456457622349262,8633.0,16759.0,16049.0,10826.0,0.15455541014671326,0.6416308879852295,0.5858257412910461,0.25338539481163025,0.0,0.0,0.0,0.0,7816.0,17171.0,18197.0,6234.0,1.7199102640151978,0.057397985398637545,-0.5583494810093165,-3.0334030092679463,-0.034800585359334946,0.004051242955029011,0.0
260,5,0.0007141910027712584,0.00021528720390051603,0.0010033128783106804,0.036709267646074295,0.0035173678770661354,-0.025861557573080063,-0.006743898149579763,0.3417200446128845,-0.003157996805384755,-0.016175491735339165,2.6026010513305664,0.005097472574561834,0.0,0.0,0.0,0.010485831648111343,0.022940628230571747,-0.0,0.0,0.0,0.0,0.0027737559285014868,-0.04854308441281319,-0.0015456457622349262,8633.0,16759.0,16049.0,10826.0,0.15455541014671326,0.6416308879852295,0.5858257412910461,0.25338539481163025,0.0,0.0,0.0,0.0,7816.0,17171.0,18197.0,6234.0,1.9207111597061157,0.05493128072584863,-0.5447242530942057,-3.0331718802940975,-0.10615912079811096,0.03733009099960327,0.0
266,5,0.01734067313373089,0.003619158174842596,0.007001216989010572,0.036709267646074295,0.0035173678770661354,-0.025861557573080063,-0.00711870240047574,0.30336833000183105,-0.002351846545934677,-0.052727531641721725,3.9732136726379395,0.036497972905635834,0.0,0.0,0.0,0.010485831648111343,0.022940628230571747,-0.0,0.0,0.0,0.0,0.002707653446123004,-0.007500514853745699,0.003141640452668071,14214.0,12798.0,15058.0,12622.0,0.4534425735473633,0.36279523372650146,0.5122585892677307,0.35223597288131714,0.0,0.0,0.0,0.0,12267.0,14801.0,16284.0,10785.0,1.9207111597061157,-0.0733238248575371,-0.21804994308400158,0.08097757239987509,-0.10615912079811096,0.03733009099960327,0.0
271,5,0.01789003424346447,0.004217711742967367,0.006767699960619211,0.08060714602470398,-0.07041949033737183,0.01767740771174431,-0.00711870240047574,0.30336833000183105,-0.002351846545934677,-0.052727531641721725,3.9732136726379395,0.036497972905635834,0.0,0.0,0.0,0.001640993170440197,0.043738942593336105,-0.0,0.0,0.0,0.0,0.002707653446123004,-0.007500514853745699,0.003141640452668071,14214.0,12798.0,15058.0,12622.0,0.4534425735473633,0.36279523372650146,0.5122585892677307,0.35223597288131714,0.0,0.0,0.0,0.0,12267.0,14801.0,16284.0,10785.0,2.212355375289917,-0.047663021562822025,-0.18251993610471784,0.09297476368632666,-0.2330966293811798,0.0067292992025613785,0.0
276,5,0.018354469910264015,0.003975553438067436,0.006392894312739372,0.08797499537467957,0.0008912233170121908,0.052047666162252426,-0.007198058068752289,0.2667093873023987,-0.002272270619869232,-0.00986477080732584,5.318476676940918,0.16669055819511414,0.0,0.0,0.0,0.001640993170440197,0.043738942593336105,-0.0,0.0,0.0,0.0,0.0037465335335582495,0.0433514378964901,0.0022441381588578224,17430.0,7922.0,11882.0,16051.0,0.696631908416748,0.1277216225862503,0.30954593420028687,0.5860108137130737,0.0,0.0,0.0,0.0,14658.0,12553.0,12870.0,15174.0,2.212355375289917,-0.06730717586369989,-0.17035626423141556,0.09162559743382523,-0.2330966293811798,0.0067292992025613785,0.0
281,5,0.018990391865372658,0.004096022807061672,0.005937925539910793,0.11150071769952774,-0.014099830761551857,0.07541532814502716,-0.007198058068752289,0.2667093873023987,-0.002272270619869232,-0.00986477080732584,5.318476676940918,0.16669055819511414,0.0,0.0,0.0,0.0037973930593580008,0.06791415810585022,-0.0,0.0,0.0,0.0,0.0037465335335582495,0.0433514378964901,0.0022441381588578224,17430.0,7922.0,11882.0,16051.0,0.696631908416748,0.1277216225862503,0.30954593420028687,0.5860108137130737,0.0,0.0,0.0,0.0,14658.0,12553.0,12870.0,15174.0,2.635634422302246,-0.06595539503063082,-0.13890847460389666,0.09665616698316765,-0.4309832453727722,0.018551429733633995,-0.0
286,5,0.019610602408647537,0.003921478986740112,0.005753055214881897,0.11902546882629395,0.01530529372394085,0.05235055834054947,-0.007685319986194372,0.19695040583610535,-0.0018589135725051165,-0.016087470576167107,6.423424243927002,0.024909602478146553,0.0,0.0,0.0,0.0037973930593580008,0.06791415810585022,-0.0,0.0,0.0,0.0,0.006718182470649481,0.09131627529859543,0.0005545110325329006,19466.0,4260.0,6421.0,20064.0,0.8773600459098816,0.029548104852437973,0.07933379709720612,0.9344692230224609,0.0,0.0,0.0,0.0,21928.0,1495.0,7750.0,20995.0,2.635634422302246,-0.07357292020405606,-0.09789616146966865,0.09356658579598169,-0.4309832453727722,0.018551429733633995,-0.0
291,5,0.020193837583065033,0.004198143724352121,0.005295279435813427,0.1175985112786293,-0.02707764133810997,0.07587332278490067,-0.007685319986194372,0.19695040583610535,-0.0018589135725051165,-0.016087470576167107,6.423424243927002,0.024909602478146553,0.0,0.0,0.0,-0.006737957708537579,0.08038564026355743,-0.0,0.0,0.0,0.0,0.006718182470649481,0.09131627529859543,0.0005545110325329006,19466.0,4260.0,6421.0,20064.0,0.8773600459098816,0.029548104852437973,0.07933379709720612,0.9344692230224609,0.0,0.0,0.0,0.0,21928.0,1495.0,7750.0,20995.0,2.8653018474578857,-0.07246757634495013,-0.05974133911155967,0.09976469353651826,-0.554399847984314,-0.035785019397735596,-0.0
296,5,0.020805751904845238,0.004583523143082857,0.005021702963858843,0.1204690933227539,-0.057076595723629,0.06317848712205887,-0.008144875057041645,0.1438290923833847,-0.0009061543387360871,-0.11578769981861115,6.9856767654418945,0.09791021049022675,0.0,0.0,0.0,-0.006737957708537579,0.08038564026355743,-0.0,0.0,0.0,0.0,0.007647683843970299,0.13837452232837677,0.004994808696210384,23181.0,1495.0,5642.0,21822.0,1.260857343673706,-0.21976640820503235,0.05869164317846298,1.1125727891921997,0.0,0.0,0.0,0.0,24154.0,1495.0,1495.0,24345.0,2.8653018474578857,-0.05725822961497665,-0.007937516051674203,0.10226693924238751,-0.554399847984314,-0.035785019397735596,-0.0
301,5,0.021520793437957764,0.00445563904941082,0.004442702513188124,0.13399256765842438,-0.007484517525881529,0.09475145488977432,-0.008144875057041645,0.1438290923833847,-0.0009061543387360871,-0.11578769981861115,6.9856767654418945,0.09791021049022675,0.0,0.0,0.0,0.04354516789317131,0.07940244674682617,-0.0,0.0,0.0,0.0,0.007647683843970299,0.13837452232837677,0.004994808696210384,23181.0,1495.0,5642.0,21822.0,1.260857343673706,-0.21976640820503235,0.05869164317846298,1.1125727891921997,0.0,0.0,0.0,0.0,24154.0,1495.0,1495.0,24345.0,2.9665486812591553,-0.07225103184812931,0.01692858140905425,0.10954341928308231,-0.566459596157074,0.2393043488264084,-0.0
306,5,0.021581320092082024,0.004625607747584581,0.003523532534018159,0.13399256765842438,-0.007484517525881529,0.09475145488977432,-0.008694017305970192,0.059074681252241135,-0.00044997577788308263,-0.02720990590751171,7.176430702209473,0.1935567557811737,0.0,0.0,0.0,0.04354516789317131,0.07940244674682617,-0.0,0.0,0.0,0.0,0.006793579086661339,0.17039643228054047,0.003931214101612568,25371.0,1495.0,4441.0,23944.0,1.5193498134613037,-0.26470518112182617,0.03282412886619568,1.34816575050354,0.0,0.0,0.0,0.0,26327.0,1495.0,3721.0,24841.0,2.9665486812591553,-0.0510639598327267,0.08484240104938942,0.1038481421085695,-0.566459596157074,0.2393043488264084,-0.0
311,5,0.022148432210087776,0.004716517869383097,0.003287125378847122,0.12165062874555588,-0.013903003185987473,0.06626944243907928,-0.008694017305970192,0.059074681252241135,-0.00044997577788308263,-0.02720990590751171,7.176430702209473,0.1935567557811737,0.0,0.0,0.0,0.009701048023998737,0.08666851371526718,-0.0,0.0,0.0,0.0,0.006793579086661339,0.17039643228054047,0.003931214101612568,25371.0,1495.0,4441.0,23944.0,1.5193498134613037,-0.26470518112182617,0.03282412886619568,1.34816575050354,0.0,0.0,0.0,0.0,26327.0,1495.0,3721.0,24841.0,2.979900598526001,-0.052460234760557625,0.11273077059305284,0.10982028179915752,-0.6215137839317322,0.05358171463012695,-0.0
316,5,0.023287851363420486,0.005084226373583078,0.00281256390735507,0.10390613973140717,-0.03273589536547661,0.06012343987822533,-0.009342835284769535,0.002137276576831937,-1.7887685316964053e-05,-0.05178862065076828,7.065279006958008,0.038597892969846725,0.0,0.0,0.0,0.009701048023998737,0.08666851371526718,-0.0,0.0,0.0,0.0,0.0030241692438721657,0.19890864193439484,0.0014679020969197154,26178.0,1495.0,1495.0,26150.0,1.6206233501434326,-0.20628054440021515,-0.16606174409389496,1.617020845413208,0.0,0.0,0.0,0.0,26805.0,1495.0,1495.0,25613.0,2.979900598526001,-0.04185180497813225,0.1911974787272569,0.11581167844869002,-0.6215137839317322,0.05358171463012695,-0.0
321,5,0.023864610120654106,0.005128913093358278,0.0024674180895090103,0.11077345162630081,-0.018456773832440376,0.06546686589717865,-0.009342835284769535,0.002137276576831937,-1.7887685316964053e-05,-0.05178862065076828,7.065279006958008,0.038597892969846725,0.0,0.0,0.0,0.028677938506007195,0.07587697356939316,-0.0,0.0,0.0,0.0,0.0030241692438721657,0.19890864193439484,0.0014679020969197154,26178.0,1495.0,1495.0,26150.0,1.6206233501434326,-0.20628054440021515,-0.16606174409389496,1.617020845413208,0.0,0.0,0.0,0.0,26805.0,1495.0,1495.0,25613.0,2.837886333465576,-0.04712871751126835,0.2161727946910802,0.12157749891409855,-0.5181571245193481,0.15081457793712616,-0.0
327,5,0.02430877648293972,0.005289529450237751,0.002147908788174391,0.09760930389165878,-0.026656625792384148,0.06452789157629013,-0.01005078200250864,-0.0807623639702797,0.0012155355652794242,-0.08759193122386932,6.816631317138672,0.07806701958179474,0.0,0.0,0.0,0.028677938506007195,0.07587697356939316,-0.0,0.0,0.0,0.0,0.021407708525657654,0.20000000298023224,0.006753152702003717,26802.0,1495.0,5798.0,26018.0,1.7012168169021606,-0.39747780561447144,0.06257032603025436,1.6002392768859863,0.0,0.0,0.0,0.0,26111.0,1495.0,1495.0,26763.0,2.837886333465576,-0.04481291812038668,0.25563982747123976,0.12165950016691567,-0.5181571245193481,0.15081457793712616,-0.0
332,5,0.02487308159470558,0.00544528104364872,0.001747675589285791,0.10676033794879913,-0.02935286983847618,0.07383912801742554,-0.01005078200250864,-0.0807623639702797,0.0012155355652794242,-0.08759193122386932,6.816631317138672,0.07806701958179474,0.0,0.0,0.0,0.024921994656324387,0.0743241161108017,-0.0,0.0,0.0,0.0,0.021407708525657654,0.20000000298023224,0.006753152702003717,26802.0,1495.0,5798.0,26018.0,1.7012168169021606,-0.39747780561447144,0.06257032603025436,1.6002392768859863,0.0,0.0,0.0,0.0,26111.0,1495.0,1495.0,26763.0,2.796631097793579,-0.047348725396060276,0.2947936631004322,0.12470224496632869,-0.500244140625,0.12916499376296997,-0.0
337,5,0.008813533000648022,-0.00023131154011934996,0.00477562565356493,0.10676033794879913,-0.02935286983847618,0.07383912801742554,-0.01081916131079197,-0.13397656381130219,0.0012038529384881258,-0.10201003402471542,6.46123743057251,0.31744804978370667,0.0,0.0,0.0,0.024921994656324387,0.0743241161108017,-0.0,0.0,0.0,0.0,0.012706076726317406,0.20000000298023224,0.0008536275709047914,27146.0,1495.0,4110.0,25712.0,1.7464240789413452,-0.35519716143608093,0.02696562558412552,1.5617079734802246,0.0,0.0,0.0,0.0,27640.0,1495.0,7271.0,25179.0,2.796631097793579,0.02323340943632539,-0.07130824454482873,-3.0372290814253806,-0.500244140625,0.12916499376296997,-0.0
342,5,0.009256117045879364,-0.00017021545500028878,0.005078885238617659,0.0958142951130867,-0.019072679802775383,-0.006855529733002186,-0.01081916131079197,-0.13397656381130219,0.0012038529384881258,-0.10201003402471542,6.46123743057251,0.31744804978370667,0.0,0.0,0.0,0.014631190337240696,0.06544151157140732,-0.0,0.0,0.0,0.0,0.012706076726317406,0.20000000298023224,0.0008536275709047914,27146.0,1495.0,4110.0,25712.0,1.7464240789413452,-0.35519716143608093,0.02696562558412552,1.5617079734802246,0.0,0.0,0.0,0.0,27640.0,1495.0,7271.0,25179.0,2.6069626808166504,0.026353365020491668,-0.03942064909921286,-3.037675293130504,-0.41075563430786133,0.07069600373506546,0.0
347,5,0.009760062210261822,-0.00017064803978428245,0.005260107573121786,0.09879911690950394,-0.007577160838991404,-0.02448887936770916,-0.011449592188000679,-0.209180548787117,0.0021710579749196768,-0.04556962847709656,6.036515712738037,-0.029853660613298416,0.0,0.0,0.0,0.014631190337240696,0.06544151157140732,-0.0,0.0,0.0,0.0,0.019157638773322105,0.20000000298023224,0.011487468145787716,25697.0,1495.0,1495.0,26619.0,1.55976140499115,-0.2443772852420807,-0.15486137568950653,1.6773635149002075,0.0,0.0,0.0,0.0,26165.0,1495.0,1495.0,26159.0,2.6069626808166504,0.02836882322705471,-0.010019373131921775,-3.03706576019378,-0.41075563430786133,0.07069600373506546,0.0
352,5,0.01021882425993681,-9.425190364709124e-05,0.005437009036540985,0.094571053981781,-0.012198400683701038,-0.031023750081658363,-0.011449592188000679,-0.209180548787117,0.0021710579749196768,-0.04556962847709656,6.036515712738037,-0.029853660613298416,0.0,0.0,0.0,0.014631190337240696,0.06544151157140732,-0.0,0.0,0.0,0.0,0.019157638773322105,0.20000000298023224,0.011487468145787716,25697.0,1495.0,1495.0,26619.0,1.55976140499115,-0.2443772852420807,-0.15486137568950653,1.6773635149002075,0.0,0.0,0.0,0.0,26165.0,1495.0,1495.0,26159.0,2.6069626808166504,0.032821626290707145,0.017803766224036965,-3.0383240613665152,-0.41075563430786133,0.07069600373506546,0.0
357,5,0.01064686942845583,-2.5470881155342795e-05,0.005695180967450142,0.08919388055801392,-0.01313308347016573,-0.043390095233917236,-0.011449592188000679,-0.209180548787117,0.0021710579749196768,-0.04556962847709656,6.036515712738037,-0.029853660613298416,0.0,0.0,0.0,0.009403026662766933,0.06569027900695801,-0.0,0.0,0.0,0.0,0.019157638773322105,0.20000000298023224,0.011487468145787716,25697.0,1495.0,1495.0,26619.0,1.55976140499115,-0.2443772852420807,-0.15486137568950653,1.6773635149002075,0.0,0.0,0.0,0.0,26165.0,1495.0,1495.0,26159.0,2.601167917251587,0.035748590181205055,0.04530645134147739,-3.039002214647115,-0.4114241600036621,0.04533493146300316,0.0
362,5,0.01064686942845583,-2.5470881155342795e-05,0.005695180967450142,0.08919388055801392,-0.01313308347016573,-0.043390095233917236,-0.011866971850395203,-0.2554249167442322,0.0042120227590203285,-0.062158599495887756,5.490780830383301,0.24512706696987152,0.0,0.0,0.0,0.009403026662766933,0.06569027900695801,-0.0,0.0,0.0,0.0,0.009785618633031845,0.20000000298023224,0.0008979103295132518,27494.0,1495.0,8063.0,24585.0,1.7927820682525635,-0.552701473236084,0.13283519446849823,1.4237152338027954,0.0,0.0,0.0,0.0,26039.0,1495.0,1495.0,26122.0,2.601167917251587,0.035748590181205055,0.04530645134147739,-3.039002214647115,-0.4114241600036621,0.04533493146300316,0.0
367,5,0.027379686012864113,0.004299154505133629,0.002086987718939781,0.0926096960902214,-0.03306211158633232,0.0858507752418518,-0.011866971850395203,-0.2554249167442322,0.0042120227590203285,-0.062158599495887756,5.490780830383301,0.24512706696987152,0.0,0.0,0.0,0.01034571323543787,0.06369508057832718,-0.0,0.0,0.0,0.0,0.009785618633031845,0.20000000298023224,0.0008979103295132518,27494.0,1495.0,8063.0,24585.0,1.7927820682525635,-0.552701473236084,0.13283519446849823,1.4237152338027954,0.0,0.0,0.0,0.0,26039.0,1495.0,1495.0,26122.0,2.5666744709014893,-0.15586348957499932,0.4444435121902993,0.1165319537134234,-0.39365124702453613,0.04921819642186165,0.0
372,5,0.027379686012864113,0.004299154505133629,0.002086987718939781,0.0926096960902214,-0.03306211158633232,0.0858507752418518,-0.012553181499242783,-0.3182048201560974,0.004586207680404186,-0.14181596040725708,4.933416366577148,0.28402966260910034,0.0,0.0,0.0,0.01034571323543787,0.06369508057832718,-0.0,0.0,0.0,0.0,0.007332243025302887,0.20000000298023224,0.0028019417077302933,25916.0,1495.0,1495.0,25493.0,1.5873076915740967,-0.38100874423980713,-0.13369175791740417,1.5343555212020874,0.0,0.0,0.0,0.0,27136.0,1495.0,5424.0,24187.0,2.5666744709014893,-0.15586348957499932,0.4444435121902993,0.1165319537134234,-0.39365124702453613,0.04921819642186165,0.0
377,5,0.01537465862929821,0.004644123837351799,0.014881028793752193,0.08149109780788422,-0.04410072788596153,0.0341130830347538,-0.012553181499242783,-0.3182048201560974,0.004586207680404186,-0.14181596040725708,4.933416366577148,0.28402966260910034,0.0,0.0,0.0,0.028447072952985764,0.07392052561044693,-0.0,0.0,0.0,0.0,0.007332243025302887,0.20000000298023224,0.0028019417077302933,25916.0,1495.0,1495.0,25493.0,1.5873076915740967,-0.38100874423980713,-0.13369175791740417,1.5343555212020874,0.0,0.0,0.0,0.0,27136.0,1495.0,5424.0,24187.0,2.8028202056884766,-3.129690983326579,-0.5138876604848847,-3.1217153145991023,-0.49858689308166504,0.1477525383234024,-0.0
382,5,0.015946896746754646,0.004508223384618759,0.014996250160038471,0.10126499831676483,-0.0013322359882295132,-0.00018129672389477491,-0.01248309575021267,-0.3555823862552643,0.005991255398839712,0.007073571905493736,4.380523204803467,0.01413716934621334,0.0,0.0,0.0,0.028447072952985764,0.07392052561044693,-0.0,0.0,0.0,0.0,0.012030151672661304,0.20000000298023224,0.00917288102209568,27035.0,1495.0,3163.0,24129.0,1.7317299842834473,-0.5480823516845703,0.013237729668617249,1.3697891235351562,0.0,0.0,0.0,0.0,25955.0,1495.0,1495.0,25429.0,2.8028202056884766,-3.116043606067507,-0.5435727970321833,-3.1180099452488506,-0.49858689308166504,0.1477525383234024,-0.0
388,5,0.01635000854730606,0.004056863021105528,0.014507138170301914,0.08887951076030731,0.053630366921424866,0.058620885014534,-0.01248309575021267,-0.3555823862552643,0.005991255398839712,0.007073571905493736,4.380523204803467,0.01413716934621334,0.0,0.0,0.0,0.005962104070931673,0.07180565595626831,-0.0,0.0,0.0,0.0,0.012030151672661304,0.20000000298023224,0.00917288102209568,27035.0,1495.0,3163.0,24129.0,1.7317299842834473,-0.5480823516845703,0.013237729668617249,1.3697891235351562,0.0,0.0,0.0,0.0,25955.0,1495.0,1495.0,25429.0,2.7084457874298096,-3.0833913625065086,-0.5649165166891766,-3.1054776273046523,-0.4682197570800781,0.029931163415312767,0.0
393,5,0.016629016026854515,0.004337588790804148,0.014468965120613575,0.06903274357318878,-0.012234915979206562,0.028029073029756546,-0.01247198786586523,-0.4299754500389099,0.008424564264714718,-0.150918111205101,2.6455471515655518,0.2887857258319855,0.0,0.0,0.0,0.005962104070931673,0.07180565595626831,-0.0,0.0,0.0,0.0,0.008599543012678623,0.20000000298023224,0.0029537007212638855,26469.0,1495.0,1495.0,25712.0,1.6579142808914185,-0.38672512769699097,-0.03004661202430725,1.5616776943206787,0.0,0.0,0.0,0.0,26219.0,1495.0,1495.0,25016.0,2.7084457874298096,-3.099437784081796,-0.5634918000311621,-3.10919753469078,-0.4682197570800781,0.029931163415312767,0.0
398,5,0.01696450635790825,0.00422623148187995,0.014522086828947067,0.06787185370922089,0.008468909189105034,0.004837022628635168,-0.01247198786586523,-0.4299754500389099,0.008424564264714718,-0.150918111205101,2.6455471515655518,0.2887857258319855,0.0,0.0,0.0,0.015161328949034214,0.05863173305988312,-0.0,0.0,0.0,0.0,0.008599543012678623,0.20000000298023224,0.0029537007212638855,26469.0,1495.0,1495.0,25712.0,1.6579142808914185,-0.38672512769699097,-0.03004661202430725,1.5616776943206787,0.0,0.0,0.0,0.0,26219.0,1495.0,1495.0,25016.0,2.487238883972168,-3.0941937729720035,-0.5754759450375223,-3.108965103990017,-0.35115864872932434,0.06989290565252304,-0.0
403,5,0.017035014927387238,0.004588345997035503,0.014906739816069603,0.035609759390354156,-0.04006621241569519,-0.04422353208065033,-0.011631404981017113,-0.45348140597343445,0.010979433543980122,0.10555779188871384,1.1369916200637817,0.0685679018497467,0.0,0.0,0.0,0.015161328949034214,0.05863173305988312,-0.0,0.0,0.0,0.0,0.011882243677973747,0.19583088159561157,0.005170347634702921,26256.0,1495.0,1495.0,24912.0,1.630545735359192,-0.3155662715435028,-0.0697026327252388,1.4631688594818115,0.0,0.0,0.0,0.0,27361.0,1495.0,7018.0,24758.0,2.487238883972168,-3.112008828425039,-0.5715018382565455,-3.1179740730609815,-0.35115864872932434,0.06989290565252304,-0.0
408,5,0.01717548258602619,0.004456593655049801,0.01483162771910429,0.031100023537874222,-0.00021617925085593015,-0.008675931952893734,-0.011631404981017113,-0.45348140597343445,0.010979433543980122,0.10555779188871384,1.1369916200637817,0.0685679018497467,0.0,0.0,0.0,0.040571428835392,0.040553588420152664,-0.0,0.0,0.0,0.0,0.011882243677973747,0.19583088159561157,0.005170347634702921,26256.0,1495.0,1495.0,24912.0,1.630545735359192,-0.3155662715435028,-0.0697026327252388,1.4631688594818115,0.0,0.0,0.0,0.0,27361.0,1495.0,7018.0,24758.0,2.3369498252868652,-3.1024388668816956,-0.5701212619152773,-3.11496295932887,-0.22811506688594818,0.17565548419952393,0.0
413,5,0.017126919701695442,0.004651990719139576,0.015101191587746143,0.006612557917833328,-0.02353416010737419,-0.03581802546977997,-0.00967528484761715,-0.45600882172584534,0.012778280302882195,0.26455652713775635,-0.6504586338996887,0.16836275160312653,0.0,0.0,0.0,0.040571428835392,0.040553588420152664,-0.0,0.0,0.0,0.0,0.0017391936853528023,0.1551220715045929,0.007492450997233391,24771.0,1495.0,8419.0,21999.0,1.4461207389831543,-0.23643998801708221,0.14620544016361237,1.1313527822494507,0.0,0.0,0.0,0.0,25684.0,1495.0,1495.0,24350.0,2.3369498252868652,-3.1050364554495937,-0.5601462803096631,-3.1164653442616954,-0.22811506688594818,0.17565548419952393,0.0
418,5,0.017064645886421204,0.004639212507754564,0.015259191393852234,-0.004828025586903095,-0.00788023043423891,-0.03328723832964897,-0.00967528484761715,-0.45600882172584534,0.012778280302882195,0.26455652713775635,-0.6504586338996887,0.16836275160312653,0.0,0.0,0.0,0.029984131455421448,0.024267729371786118,-0.0,0.0,0.0,0.0,0.0017391936853528023,0.1551220715045929,0.007492450997233391,24771.0,1495.0,8419.0,21999.0,1.4461207389831543,-0.23643998801708221,0.14620544016361237,1.1313527822494507,0.0,0.0,0.0,0.0,25684.0,1495.0,1495.0,24350.0,2.052222490310669,-3.111455662954796,-0.542144469848284,-3.1206285875467787,-0.11994098871946335,0.11402662098407745,0.0
423,5,0.016887051984667778,0.00456938287243247,0.015483558177947998,-0.02324240282177925,0.005227414891123772,-0.040238864719867706,-0.004375965800136328,-0.43813613057136536,0.01410720031708479,0.5492549538612366,-2.460232734680176,0.15034519135951996,0.0,0.0,0.0,0.029984131455421448,0.024267729371786118,-0.0,0.0,0.0,0.0,-0.0012398046674206853,0.10385841131210327,0.0034032969269901514,22538.0,6083.0,11172.0,20291.0,1.189497709274292,0.06999354809522629,0.27117133140563965,0.9565761685371399,0.0,0.0,0.0,0.0,23313.0,1495.0,8097.0,21951.0,2.052222490310669,-3.1113307996218436,-0.5239976991082277,-3.1213792462720282,-0.11994098871946335,0.11402662098407745,0.0
428,5,0.016581697389483452,0.004453571978956461,0.01557776890695095,-0.045939404517412186,0.01598828285932541,-0.02740085870027542,-0.004375965800136328,-0.43813613057136536,0.01410720031708479,0.5492549538612366,-2.460232734680176,0.15034519135951996,0.0,0.0,0.0,0.0018027275800704956,0.0016267742030322552,-0.0,0.0,0.0,0.0,-0.0012398046674206853,0.10385841131210327,0.0034032969269901514,22538.0,6083.0,11172.0,20291.0,1.189497709274292,0.06999354809522629,0.27117133140563965,0.9565761685371399,0.0,0.0,0.0,0.0,23313.0,1495.0,8097.0,21951.0,1.7155193090438843,-3.1092897699602826,-0.5064594954543437,-3.122544305148397,-0.006724715232849121,0.0057323649525642395,0.0
433,5,0.015910880640149117,0.004175246227532625,0.015123856253921986,-0.045939404517412186,0.01598828285932541,-0.02740085870027542,0.0020497299265116453,-0.4119420647621155,0.01512158289551735,0.9181541204452515,-4.28196907043457,-0.04309692233800888,0.0,0.0,0.0,0.0018027275800704956,0.0016267742030322552,-0.0,0.0,0.0,0.0,-0.002623958745971322,0.04214772582054138,0.00348667916841805,18852.0,12941.0,14199.0,17379.0,0.8206819295883179,0.37150999903678894,0.4524093568325043,0.6923484802246094,0.0,0.0,0.0,0.0,21115.0,7450.0,13338.0,18516.0,1.7155193090438843,-3.1356249992888445,-0.4476826199680093,-3.140301752641652,-0.006724715232849121,0.0057323649525642395,0.0
439,5,0.015352060087025166,0.004120261408388615,0.015356031246483326,-0.08543414622545242,0.012993455864489079,-0.03882135823369026,0.0020497299265116453,-0.4119420647621155,0.01512158289551735,0.9181541204452515,-4.28196907043457,-0.04309692233800888,0.0,0.0,0.0,-0.010626442730426788,-0.018606960773468018,-0.0,0.0,0.0,0.0,-0.002623958745971322,0.04214772582054138,0.00348667916841805,18852.0,12941.0,14199.0,17379.0,0.8206819295883179,0.37150999903678894,0.4524093568325043,0.6923484802246094,0.0,0.0,0.0,0.0,21115.0,7450.0,13338.0,18516.0,1.867065668106079,-3.1263002253691234,-0.42737942933411477,-3.134251963721775,0.08370229601860046,-0.03677402809262276,0.0
444,5,0.014718427322804928,0.003937681671231985,0.015332784503698349,-0.11020953208208084,0.027106942608952522,-0.012738870456814766,0.0020497299265116453,-0.4119420647621155,0.01512158289551735,0.9181541204452515,-4.28196907043457,-0.04309692233800888,0.0,0.0,0.0,-0.010626442730426788,-0.018606960773468018,-0.0,0.0,0.0,0.0,-0.002623958745971322,0.04214772582054138,0.00348667916841805,18852.0,12941.0,14199.0,17379.0,0.8206819295883179,0.37150999903678894,0.4524093568325043,0.6923484802246094,0.0,0.0,0.0,0.0,21115.0,7450.0,13338.0,18516.0,1.867065668106079,-3.1295644086867376,-0.38609369866185905,-3.137505447231372,0.08370229601860046,-0.03677402809262276,0.0
449,5,0.014136035926640034,0.003743419423699379,0.015367849729955196,-0.11397077143192291,0.0341542586684227,-0.009303472936153412,0.013608444482088089,-0.3510655462741852,0.014831510372459888,1.0360589027404785,-6.076857566833496,0.057998791337013245,0.0,0.0,0.0,-0.017560262233018875,-0.056126318871974945,-0.0,0.0,0.0,0.0,-0.01036028377711773,-0.018977131694555283,0.001970346551388502,14999.0,16359.0,16565.0,11859.0,0.5079864263534546,0.6098973751068115,0.6260800361633301,0.30825865268707275,0.0,0.0,0.0,0.0,13477.0,16813.0,17450.0,1495.0,2.4507334232330322,-3.119353336950333,-0.35663313505092004,-3.136325009071916,0.331222265958786,-0.07976182550191879,0.0
454,5,0.013391021639108658,0.0036060239654034376,0.015290003269910812,-0.13499011099338531,0.030149150639772415,0.005620190408080816,0.013608444482088089,-0.3510655462741852,0.014831510372459888,1.0360589027404785,-6.076857566833496,0.057998791337013245,0.0,0.0,0.0,-0.017560262233018875,-0.056126318871974945,-0.0,0.0,0.0,0.0,-0.01036028377711773,-0.018977131694555283,0.001970346551388502,14999.0,16359.0,16565.0,11859.0,0.5079864263534546,0.6098973751068115,0.6260800361633301,0.30825865268707275,0.0,0.0,0.0,0.0,13477.0,16813.0,17450.0,1495.0,2.4507334232330322,-3.115375870103003,-0.31799305313144866,-3.1350804335553244,0.331222265958786,-0.07976182550191879,0.0
459,5,0.012344532646238804,0.003255748888477683,0.015103313140571117,-0.179574653506279,0.05409267172217369,0.02465096488595009,0.02226053737103939,-0.2969815135002136,0.015306840650737286,1.0889674425125122,-7.459842681884766,0.1518992781639099,0.0,0.0,0.0,-0.018894698470830917,-0.0674906075000763,-0.0,0.0,0.0,0.0,-0.02655440755188465,-0.087835393846035,0.006438853684812784,11520.0,18603.0,19554.0,1495.0,0.2896500825881958,0.7982170581817627,0.8857025504112244,-0.25805044174194336,0.0,0.0,0.0,0.0,9821.0,20681.0,20465.0,1495.0,2.655189037322998,-3.113417104736082,-0.2779919429677984,-3.137730577630783,0.4314032793045044,-0.09298159927129745,-0.0
464,5,0.01163722574710846,0.003126299474388361,0.014715748839080334,-0.15670673549175262,0.037171002477407455,0.056368034332990646,0.02226053737103939,-0.2969815135002136,0.015306840650737286,1.0889674425125122,-7.459842681884766,0.1518992781639099,0.0,0.0,0.0,-0.018894698470830917,-0.0674906075000763,-0.0,0.0,0.0,0.0,-0.02655440755188465,-0.087835393846035,0.006438853684812784,11520.0,18603.0,19554.0,1495.0,0.2896500825881958,0.7982170581817627,0.8857025504112244,-0.25805044174194336,0.0,0.0,0.0,0.0,9821.0,20681.0,20465.0,1495.0,2.655189037322998,-3.106539822218304,-0.2391022329292283,-3.1383268500271,0.4314032793045044,-0.09298159927129745,-0.0
469,5,0.010922055691480637,0.0030470441561192274,0.014526243321597576,-0.14850306510925293,0.02437903918325901,0.04528789594769478,0.03434973210096359,-0.20593270659446716,0.014866773970425129,0.8772978186607361,-7.758781433105469,0.242268368601799,0.0,0.0,0.0,-0.023232854902744293,-0.07665173709392548,-0.0,0.0,0.0,0.0,-0.032946258783340454,-0.12717881798744202,0.008109345100820065,10630.0,20459.0,21890.0,1495.0,0.24358277022838593,0.9730932116508484,1.1196789741516113,-0.46928930282592773,0.0,0.0,0.0,0.0,11712.0,22755.0,23852.0,1495.0,2.832108736038208,-3.102127774388084,-0.20232279288452043,-3.1393129100828876,0.522445797920227,-0.12194108963012695,-0.0
474,5,0.010298105888068676,0.003113820217549801,0.014440781436860561,-0.13427525758743286,0.0017384992679581046,0.028370609506964684,0.03434973210096359,-0.20593270659446716,0.014866773970425129,0.8772978186607361,-7.758781433105469,0.242268368601799,0.0,0.0,0.0,-0.023232854902744293,-0.07665173709392548,-0.0,0.0,0.0,0.0,-0.032946258783340454,-0.12717881798744202,0.008109345100820065,10630.0,20459.0,21890.0,1495.0,0.24358277022838593,0.9730932116508484,1.1196789741516113,-0.46928930282592773,0.0,0.0,0.0,0.0,11712.0,22755.0,23852.0,1495.0,2.832108736038208,-3.098788633400593,-0.17327117390312877,-3.1395224924386804,0.522445797920227,-0.12194108963012695,-0.0
479,5,0.009783465415239334,0.003237594850361347,0.01424961257725954,-0.11546692997217178,-0.0141575513407588,0.03428850695490837,0.03979118540883064,-0.14613090455532074,0.01477222703397274,0.26807865500450134,-7.055815696716309,0.20034530758857727,0.0,0.0,0.0,0.002202225150540471,-0.06948916614055634,-0.0,0.0,0.0,0.0,-0.029770804569125175,-0.15601307153701782,0.0076689948327839375,9925.0,23151.0,24082.0,1495.0,0.20986655354499817,1.2575056552886963,1.3642170429229736,-0.3808559775352478,0.0,0.0,0.0,0.0,10893.0,22473.0,24483.0,1495.0,2.6636807918548584,-3.099894612523164,-0.1423118652576129,-3.1400832993264465,0.44565683603286743,0.010873060673475266,-0.0
484,5,0.009390918537974358,0.003228343091905117,0.014021143317222595,-0.09329236298799515,-0.004552813246846199,0.04113171622157097,0.03979118540883064,-0.14613090455532074,0.01477222703397274,0.26807865500450134,-7.055815696716309,0.20034530758857727,0.0,0.0,0.0,0.002202225150540471,-0.06948916614055634,-0.0,0.0,0.0,0.0,-0.029770804569125175,-0.15601307153701782,0.0076689948327839375,9925.0,23151.0,24082.0,1495.0,0.20986655354499817,1.2575056552886963,1.3642170429229736,-0.3808559775352478,0.0,0.0,0.0,0.0,10893.0,22473.0,24483.0,1495.0,2.6636807918548584,-3.098314572783249,-0.11361548039217215,3.1410215527421057,0.44565683603286743,0.010873060673475266,-0.0
