timestamp,dt,pos_x,pos_y,pos_z,vel_x,vel_y,vel_z,roll,pitch,yaw,agv_x,agv_y,agv_z,x_ref,y_ref,z_ref,roll_ref,pitch_ref,yaw_ref,x_vel_ref,y_vel_ref,z_vel_ref,x_torque,y_torque,z_torque,w0,w1,w2,w3,u0,u1,u2,u3,m0req,m1req,m2req,m3req,thrust0,thrust1,thrust2,thrust3,thrust_ref,roll_vicon,pitch_vicon,yaw_vicon,acc_x,acc_y,acc_z
5,5,0.0,0.0,0.0,0.0002519323898013681,0.0005057355738244951,-0.001956857042387128,0.033300772309303284,0.10127702355384827,-0.013644163496792316,0.0035284932237118483,0.0019289948977530003,-0.0038515767082571983,0.0,0.0,0.0,-0.0005998156266286969,0.00022984495444688946,-0.0,0.0,0.0,0.0,-0.010016805492341518,-0.030308546498417854,-0.0013731018407270312,1495.0,1495.0,1495.0,1495.0,0.0,0.0,0.0,0.0,0.0,0.0,0.0,0.0,1495.0,1495.0,1495.0,1495.0,1.7058014869689941,0.04525925359908182,-0.37902709730697665,-3.0990953072076737,-0.0009447464835830033,-0.0018965083872899413,0.0
32,26,0.0,0.0,0.0,2.254377250210382e-05,0.00012337557564023882,-0.0029188592452555895,0.033300772309303284,0.10127702355384827,-0.013644163496792316,0.0035284932237118483,0.0019289948977530003,-0.0038515767082571983,0.0,0.0,0.0,-0.0005998156266286969,0.00022984495444688946,-0.0,0.0,0.0,0.0,-0.010016805492341518,-0.030308546498417854,-0.0013731018407270312,1495.0,1495.0,1495.0,1495.0,0.0,0.0,0.0,0.0,0.0,0.0,0.0,0.0,1495.0,1495.0,1495.0,1495.0,1.7058014869689941,0.044494555809265944,-0.3801886759013064,-3.098880391605234,-0.0009447464835830033,-0.0018965083872899413,0.0
37,5,0.0,0.0,0.0,-0.0010550798615440726,-0.0004942193045280874,-0.0005727746756747365,0.033300772309303284,0.10127702355384827,-0.013644163496792316,0.0035284932237118483,0.0019289948977530003,-0.0038515767082571983,0.0,0.0,0.0,-0.0001463272055843845,2.056738594546914e-05,-0.0,0.0,0.0,0.0,-0.010016805492341518,-0.030308546498417854,-0.0013731018407270312,1495.0,1495.0,1495.0,1495.0,0.0,0.0,0.0,0.0,0.0,0.0,0.0,0.0,1495.0,1495.0,1495.0,1495.0,1.7057950496673584,0.04359611600147857,-0.38067518867703937,-3.0993868275540954,-8.453914779238403e-05,-0.0004626584122888744,0.0
42,5,0.0,0.0,0.0,-0.0011136920657008886,0.000662829028442502,-0.0002573981473688036,0.033318035304546356,0.10127880424261093,-0.013678813353180885,0.0008352609002031386,0.007822401821613312,-0.0033134077675640583,0.0,0.0,0.0,-0.0001463272055843845,2.056738594546914e-05,-0.0,0.0,0.0,0.0,-0.010185246355831623,-0.03020300343632698,-0.0014223228208720684,1495.0,1495.0,1495.0,1495.0,0.0,0.0,0.0,0.0,0.0,0.0,0.0,0.0,1495.0,1495.0,1495.0,1495.0,1.7057950496673584,0.04376498995893805,-0.3796466586125908,-3.099350635207113,-8.453914779238403e-05,-0.0004626584122888744,0.0
47,5,9.633080480853096e-06,9.553657037031371e-06,-7.45105853638961e-06,0.000710492895450443,-0.0008813072345219553,0.0007911677239462733,0.033318035304546356,0.10127880424261093,-0.013678813353180885,0.0008352609002031386,0.007822401821613312,-0.0033134077675640583,0.0,0.0,0.0,-0.0007857995224185288,-0.0010156220523640513,-0.0,0.0,0.0,0.0,-0.010185246355831623,-0.03020300343632698,-0.0014223228208720684,1495.0,1495.0,1495.0,1495.0,0.0,0.0,0.0,0.0,0.0,0.0,0.0,0.0,1495.0,1495.0,1495.0,1495.0,1.7065246105194092,0.04510885489626299,-0.3782999620305238,-3.0990818882925026,0.0041763451881706715,-0.0024856089148670435,0.0
52,5,9.633080480853096e-06,9.553657037031371e-06,-7.45105853638961e-06,0.000710492895450443,-0.0008813072345219553,0.0007911677239462733,0.033318035304546356,0.10127880424261093,-0.013678813353180885,0.0008352609002031386,0.007822401821613312,-0.0033134077675640583,0.0,0.0,0.0,0.001061432994902134,0.0006608207477256656,-0.0,0.0,0.0,0.0,-0.010185246355831623,-0.03020300343632698,-0.0014223228208720684,1495.0,1495.0,1495.0,1495.0,0.0,0.0,0.0,0.0,0.0,0.0,0.0,0.0,1495.0,1495.0,1495.0,1495.0,1.7065244913101196,0.04510885489626299,-0.3782999620305238,-3.0990818882925026,-0.002717364113777876,0.0033574807457625866,0.0
63,11,2.1592861230601557e-05,2.2374554191628704e-06,-1.4789848137297668e-05,0.0017193708335980773,0.0005254212883301079,0.0011971219209954143,0.033318035304546356,0.10127880424261093,-0.013678813353180885,0.0008352609002031386,0.007822401821613312,-0.0033134077675640583,0.0,0.0,0.0,-0.0006189954583533108,0.001596872229129076,-0.0,0.0,0.0,0.0,-0.010185246355831623,-0.03020300343632698,-0.0014223228208720684,1495.0,1495.0,1495.0,1495.0,0.0,0.0,0.0,0.0,0.0,0.0,0.0,0.0,1495.0,1495.0,1495.0,1495.0,1.7065256834030151,0.0450807884952559,-0.37974659859868637,-3.0989332948467876,-0.006566510535776615,-0.0019579825457185507,0.0
68,5,1.7890122762764804e-05,1.1181125046277884e-05,-4.983259714208543e-05,-0.0006855710525996983,-0.00030239662737585604,0.00421463418751955,0.033318035304546356,0.10127880424261093,-0.013678813353180885,0.0008352609002031386,0.007822401821613312,-0.0033134077675640583,0.0,0.0,0.0,-0.0006189954583533108,0.001596872229129076,-0.0,0.0,0.0,0.0,-0.010185246355831623,-0.03020300343632698,-0.0014223228208720684,1495.0,1495.0,1495.0,1495.0,0.0,0.0,0.0,0.0,0.0,0.0,0.0,0.0,1495.0,1495.0,1495.0,1495.0,1.7065256834030151,0.04557095916452161,-0.38043191215909,-3.0990263802260323,-0.006566510535776615,-0.0019579825457185507,0.0
73,6,2.901059269788675e-05,2.1257888874970376e-05,-2.6539060854702257e-05,0.0010602278634905815,-0.001330170314759016,-0.0011093703797087073,0.033318035304546356,0.10127880424261093,-0.013678813353180885,0.0008352609002031386,0.007822401821613312,-0.0033134077675640583,0.0,0.0,0.0,-0.0006189954583533108,0.001596872229129076,-0.0,0.0,0.0,0.0,-0.010185246355831623,-0.03020300343632698,-0.0014223228208720684,1495.0,1495.0,1495.0,1495.0,0.0,0.0,0.0,0.0,0.0,0.0,0.0,0.0,1495.0,1495.0,1495.0,1495.0,1.7065256834030151,0.04482501237010424,-0.3802830338681263,-3.0993430799336465,-0.006566510535776615,-0.0019579825457185507,0.0
78,5,-1.3545680985771469e-06,1.2351229088380933e-05,-3.6281048210184963e-07,-0.00321972812525928,0.0005367310950532556,-0.0035848983097821474,0.03331572189927101,0.10125789046287537,-0.013685761950910091,-0.004002034198492765,0.006659646052867174,0.0016369032673537731,0.0,0.0,0.0,0.0016138089122250676,0.001005633152090013,-0.0,0.0,0.0,0.0,-0.010024300776422024,-0.030220041051506996,-0.0013884109212085605,1495.0,1495.0,1495.0,1495.0,0.0,0.0,0.0,0.0,0.0,0.0,0.0,0.0,11702.0,16733.0,14713.0,11320.0,1.7066723108291626,0.043961160499082455,-0.3793484274526928,-3.099539981428474,-0.004135623574256897,0.005105172749608755,0.0
83,5,4.094439191248966e-06,2.5173285393975675e-06,-1.881320531538222e-05,-0.0006340103573165834,0.0013947604456916451,0.0007800880703143775,0.033304620534181595,0.10122190415859222,-0.013688452541828156,0.0003610939020290971,0.0024011405184865,-0.0011583312880247831,0.0,0.0,0.0,-0.0016489094123244286,-0.0005725814262405038,-0.0,0.0,0.0,0.0,-0.010024532675743103,-0.030330725014209747,-0.0013861695770174265,11648.0,16774.0,14690.0,11345.0,0.29660701751708984,0.6427760720252991,0.48614656925201416,0.2802654206752777,0.0,0.0,0.0,0.0,11673.0,16756.0,14718.0,11309.0,1.7067283391952515,0.04524479274598715,-0.37919916501765494,-3.0988577823452923,0.002354794181883335,-0.005216381978243589,0.0
89,5,5.2518676056934055e-06,8.632730896351859e-06,3.7588181385217467e-06,-0.00011471273319330066,-0.00017594415112398565,-0.0023966075386852026,0.033304620534181595,0.10122190415859222,-0.013688452541828156,0.0003610939020290971,0.0024011405184865,-0.0011583312880247831,0.0,0.0,0.0,-0.0016489094123244286,-0.0005725814262405038,-0.0,0.0,0.0,0.0,-0.010024532675743103,-0.030330725014209747,-0.0013861695770174265,11648.0,16774.0,14690.0,11345.0,0.29660701751708984,0.6427760720252991,0.48614656925201416,0.2802654206752777,0.0,0.0,0.0,0.0,11673.0,16756.0,14718.0,11309.0,1.7067283391952515,0.04426620363396741,-0.3787864052956215,-3.0994820199354285,0.002354794181883335,-0.005216381978243589,0.0
94,5,1.5066014384501614e-05,9.566828396145866e-08,-2.271356606797781e-05,0.0011318125762045383,0.0009540698956698179,0.002218042965978384,0.033304620534181595,0.10122190415859222,-0.013688452541828156,0.0003610939020290971,0.0024011405184865,-0.0011583312880247831,0.0,0.0,0.0,-0.0016489094123244286,-0.0005725814262405038,-0.0,0.0,0.0,0.0,-0.010024532675743103,-0.030330725014209747,-0.0013861695770174265,11648.0,16774.0,14690.0,11345.0,0.29660701751708984,0.6427760720252991,0.48614656925201416,0.2802654206752777,0.0,0.0,0.0,0.0,11673.0,16756.0,14718.0,11309.0,1.7067283391952515,0.045461082001457515,-0.37923108482515144,-3.0989538835636026,0.002354794181883335,-0.005216381978243589,0.0
99,5,-1.560077362228185e-05,4.227200861350866e-06,3.896524867741391e-05,-0.0032272895332425833,-0.00011415593326091766,-0.006514240521937609,0.03330526873469353,0.10126297175884247,-0.013726986013352871,0.0010537628550082445,0.0016435125144198537,-0.005267446860671043,0.0,0.0,0.0,-0.0011301961494609714,0.001051741768606007,-0.0,0.0,0.0,0.0,-0.00969794113188982,-0.030194683000445366,-0.0015650078421458602,11574.0,16793.0,14653.0,11453.0,0.29258275032043457,0.6443154811859131,0.48356133699417114,0.28606492280960083,0.0,0.0,0.0,0.0,11628.0,16788.0,14689.0,11344.0,1.707537293434143,0.04320825984455453,-0.37957043375793154,-3.099628761377003,-0.004327438306063414,-0.0035771110560745,0.0
104,5,1.3043792932876386e-05,3.9877209019323345e-06,-1.7051821487257257e-05,0.002146432176232338,-1.6924819647101685e-05,0.004116352181881666,0.03330526873469353,0.10126297175884247,-0.013726986013352871,0.0010537628550082445,0.0016435125144198537,-0.005267446860671043,0.0,0.0,0.0,-0.0011301961494609714,0.001051741768606007,-0.0,0.0,0.0,0.0,-0.00969794113188982,-0.030194683000445366,-0.0015650078421458602,11574.0,16793.0,14653.0,11453.0,0.29258275032043457,0.6443154811859131,0.48356133699417114,0.28606492280960083,0.0,0.0,0.0,0.0,11628.0,16788.0,14689.0,11344.0,1.707537293434143,0.04490993824082255,-0.37960585535033486,-3.0991129047909025,-0.004327438306063414,-0.0035771110560745,0.0
109,5,6.958514859434217e-06,-5.566371783061186e-06,4.4523258111439645e-06,0.00012833952496293932,0.0011397212510928512,-0.0009339567623101175,0.03330148756504059,0.10124658793210983,-0.013729979284107685,-0.003052109619602561,0.0031413519755005836,-0.005741315893828869,0.0,0.0,0.0,2.702630627027247e-05,0.001973773119971156,-0.0,0.0,0.0,0.0,-0.010188405402004719,-0.029830800369381905,-0.0014479119563475251,11668.0,16780.0,14623.0,11416.0,0.29769808053970337,0.6432754397392273,0.48147153854370117,0.2840806245803833,0.0,0.0,0.0,0.0,11667.0,16777.0,14635.0,11405.0,1.7075386047363281,0.04428061262539021,-0.37933800851774263,-3.0990751803840837,-0.008121185004711151,8.553931547794491e-05,0.0
114,5,1.4412674318009522e-05,5.351317213353468e-06,-1.5710154912085272e-05,0.0009458349086344242,-0.0008542342111468315,0.0020459149964153767,0.033310357481241226,0.10124552994966507,-0.013759448193013668,0.0007316472474485636,0.004557711537927389,-0.002333278302103281,0.0,0.0,0.0,0.001021426054649055,0.000881359213963151,-0.0,0.0,0.0,0.0,-0.010593709535896778,-0.030841199681162834,-0.001486408757045865,11635.0,16738.0,14693.0,11423.0,0.29590967297554016,0.639944314956665,0.48637163639068604,0.284446656703949,0.0,0.0,0.0,0.0,11611.0,16750.0,14696.0,11427.0,1.7075997591018677,0.0443194608468757,-0.38005584819520993,-3.099178161506761,-0.003626524703577161,0.0032329680398106575,0.0
119,5,5.924306151428027e-06,1.673172664595768e-05,2.2346324840327725e-05,-0.0006402701837942004,-0.0017073428025469184,-0.0037484115455299616,0.033310357481241226,0.10124552994966507,-0.013759448193013668,0.0007316472474485636,0.004557711537927389,-0.002333278302103281,0.0,0.0,0.0,0.001021426054649055,0.000881359213963151,-0.0,0.0,0.0,0.0,-0.010593709535896778,-0.030841199681162834,-0.001486408757045865,11635.0,16738.0,14693.0,11423.0,0.29590967297554016,0.639944314956665,0.48637163639068604,0.284446656703949,0.0,0.0,0.0,0.0,11611.0,16750.0,14696.0,11427.0,1.7075997591018677,0.044930781244301075,-0.3780649033480276,-3.0995417286709617,-0.003626524703577161,0.0032329680398106575,0.0
124,5,2.6652738597476855e-05,2.000183940253919e-06,-3.6278670449974015e-05,0.00223130383528769,0.0010848479578271508,0.005535634700208902,0.033310357481241226,0.10124552994966507,-0.013759448193013668,0.0007316472474485636,0.004557711537927389,-0.002333278302103281,0.0,0.0,0.0,0.001021426054649055,0.000881359213963151,-0.0,0.0,0.0,0.0,-0.010593709535896778,-0.030841199681162834,-0.001486408757045865,11635.0,16738.0,14693.0,11423.0,0.29590967297554016,0.639944314956665,0.48637163639068604,0.284446656703949,0.0,0.0,0.0,0.0,11611.0,16750.0,14696.0,11427.0,1.7075997591018677,0.04488928965504783,-0.3802937923292908,-3.0988896010133353,-0.003626524703577161,0.0032329680398106575,0.0
129,5,1.727159906295128e-05,1.1112841093563475e-05,-7.857457603677176e-06,-0.00023321519256569445,-0.0006595796439796686,-0.0011962915305048227,0.03333374112844467,0.10129431635141373,-0.013787000440061092,0.0031859539449214935,-0.007999744266271591,-0.002383661223575473,0.0,0.0,0.0,-0.0012813089415431023,0.0020685254130512476,-0.0,0.0,0.0,0.0,-0.010387665592133999,-0.030092839151620865,-0.0014546866295859218,11674.0,16805.0,14629.0,11382.0,0.29807060956954956,0.6453142166137695,0.48188936710357666,0.2822631001472473,0.0,0.0,0.0,0.0,11659.0,16826.0,14699.0,11258.0,1.7082221508026123,0.04491825264688616,-0.37932315210472556,-3.0991538492822044,-0.008514447137713432,-0.004057014361023903,0.0
134,5,3.899658258887939e-05,4.478534265217604e-06,-5.1073075155727565e-05,0.002513711806386709,0.0005322849610820413,0.004707357380539179,0.03333374112844467,0.10129431635141373,-0.013787000440061092,0.0031859539449214935,-0.007999744266271591,-0.002383661223575473,0.0,0.0,0.0,-0.0012813089415431023,0.0020685254130512476,-0.0,0.0,0.0,0.0,-0.010387665592133999,-0.030092839151620865,-0.0014546866295859218,11674.0,16805.0,14629.0,11382.0,0.29807060956954956,0.6453142166137695,0.48188936710357666,0.2822631001472473,0.0,0.0,0.0,0.0,11659.0,16826.0,14699.0,11258.0,1.7082221508026123,0.045268634083637516,-0.3799191746670445,-3.0988181819441527,-0.008514447137713432,-0.004057014361023903,0.0
139,5,2.5933746655937284e-05,6.091701834520791e-06,-2.9224218451417983e-05,-0.0005620555020868778,1.933386010932736e-05,-0.0007389199454337358,0.03333541005849838,0.10132670402526855,-0.013800873421132565,0.000699053518474102,0.006372681353241205,-0.004433052148669958,0.0,0.0,0.0,-0.0006223621894605458,0.002341541927307844,-0.0,0.0,0.0,0.0,-0.009708607569336891,-0.030039800330996513,-0.0012827480677515268,11674.0,16805.0,14629.0,11382.0,0.29807060956954956,0.6453142166137695,0.48188936710357666,0.2822631001472473,0.0,0.0,0.0,0.0,11681.0,16800.0,14630.0,11382.0,1.7088007926940918,0.04524643379539625,-0.3799202030965327,-3.099025328088023,-0.009641503915190697,-0.0019712564535439014,0.0
144,5,-3.626963916758541e-06,2.4365101126022637e-05,4.451842323760502e-05,-0.0037721076514571905,-0.0021850743796676397,-0.009144685231149197,0.033322498202323914,0.10127608478069305,-0.013787618838250637,-0.002649775007739663,0.0071821450255811214,0.0021559179294854403,0.0,0.0,0.0,0.0026289394591003656,-0.003439469262957573,-0.0,0.0,0.0,0.0,-0.010392534546554089,-0.02986941672861576,-0.0013834007550030947,11735.0,16769.0,14651.0,11359.0,0.30139273405075073,0.6423958539962769,0.4834297001361847,0.2810038626194,0.0,0.0,0.0,0.0,11645.0,16753.0,14702.0,11396.0,1.7091031074523926,0.04262028115357107,-0.37916435407980786,-3.0999801401933547,0.014164760708808899,0.008328302763402462,0.0
150,6,-1.014137887977995e-05,8.046561561059207e-06,1.6216588846873492e-05,-0.002290572738274932,0.0010841949842870235,-0.00026165382587350905,0.033322498202323914,0.10127608478069305,-0.013787618838250637,-0.002649775007739663,0.0071821450255811214,0.0021559179294854403,0.0,0.0,0.0,0.0026289394591003656,-0.003439469262957573,-0.0,0.0,0.0,0.0,-0.010392534546554089,-0.02986941672861576,-0.0013834007550030947,11735.0,16769.0,14651.0,11359.0,0.30139273405075073,0.6423958539962769,0.4834297001361847,0.2810038626194,0.0,0.0,0.0,0.0,11645.0,16753.0,14702.0,11396.0,1.7091031074523926,0.044621235541058,-0.37830944033668784,-3.0994844214878667,0.014164760708808899,0.008328302763402462,0.0
155,5,2.2014934074832126e-05,1.7857043985713972e-06,-6.957373898330843e-06,0.0029425283428281546,0.0011849808506667614,0.0026762138586491346,0.033322498202323914,0.10127608478069305,-0.013787618838250637,-0.002649775007739663,0.0071821450255811214,0.0021559179294854403,0.0,0.0,0.0,0.0026289394591003656,-0.003439469262957573,-0.0,0.0,0.0,0.0,-0.010392534546554089,-0.02986941672861576,-0.0013834007550030947,11735.0,16769.0,14651.0,11359.0,0.30139273405075073,0.6423958539962769,0.4834297001361847,0.2810038626194,0.0,0.0,0.0,0.0,11645.0,16753.0,14702.0,11396.0,1.7091031074523926,0.04427842163093404,-0.37996021092796983,-3.09920436861506,0.014164760708808899,0.008328302763402462,0.0
160,5,-3.163558403684874e-06,4.050156974244601e-07,4.036945483676391e-06,-0.001844407757744193,0.0006396749522536993,-0.0002488327445462346,0.033314671367406845,0.10133958607912064,-0.013796493411064148,-0.001315232366323471,8.471070759696886e-05,-0.0004000680346507579,0.0,0.0,0.0,-0.0013997526839375496,0.0027093871030956507,-0.0,0.0,0.0,0.0,-0.010213828645646572,-0.02996513433754444,-0.0014601887669414282,11698.0,16777.0,14652.0,11394.0,0.29935222864151,0.6430600881576538,0.48348766565322876,0.2829008102416992,0.0,0.0,0.0,0.0,11719.0,16787.0,14655.0,11342.0,1.7088167667388916,0.04501864239083547,-0.3786650871776741,-3.09922354082554,-0.011156231164932251,-0.0044335853308439255,0.0
166,5,4.97776409247308e-06,-6.469346317317104e-06,-3.1098254567041295e-06,0.00023919563682284206,0.0010807934449985623,0.00075807940447703,0.033314671367406845,0.10133958607912064,-0.013796493411064148,-0.001315232366323471,8.471070759696886e-05,-0.0004000680346507579,0.0,0.0,0.0,-0.0013997526839375496,0.0027093871030956507,-0.0,0.0,0.0,0.0,-0.010213828645646572,-0.02996513433754444,-0.0014601887669414282,11698.0,16777.0,14652.0,11394.0,0.29935222864151,0.6430600881576538,0.48348766565322876,0.2829008102416992,0.0,0.0,0.0,0.0,11719.0,16787.0,14655.0,11342.0,1.7088167667388916,0.044792223625709164,-0.37848690495066434,-3.099191439555466,-0.011156231164932251,-0.0044335853308439255,0.0
171,5,8.49324442242505e-06,1.7963557183975354e-06,-6.522835974465124e-06,0.0005175358965061605,-0.0005595668917521834,0.0007127930293790996,0.03333638980984688,0.10132240504026413,-0.013830163516104221,0.0033530518412590027,0.0031140223145484924,-0.0029265936464071274,0.0,0.0,0.0,-0.0012906070332974195,0.00022463167260866612,-0.0,0.0,0.0,0.0,-0.00928998738527298,-0.031495679169893265,-0.001635784050449729,11436.0,16859.0,14767.0,11391.0,0.2851451635360718,0.6496744751930237,0.4915316104888916,0.2827518880367279,0.0,0.0,0.0,0.0,11747.0,16749.0,14670.0,11362.0,1.7089966535568237,0.044031778258120206,-0.3793247650313703,-3.099427981060871,-0.0009250468574464321,-0.004088307730853558,0.0
176,5,-9.088828960557294e-07,1.3385852980718482e-05,1.0352190429330221e-06,-0.000921240949537605,-0.0016145664267241955,-0.0006218493799678981,0.03333638980984688,0.10132240504026413,-0.013830163516104221,0.0033530518412590027,0.0031140223145484924,-0.0029265936464071274,0.0,0.0,0.0,-0.0012906070332974195,0.00022463167260866612,-0.0,0.0,0.0,0.0,-0.00928998738527298,-0.031495679169893265,-0.001635784050449729,11436.0,16859.0,14767.0,11391.0,0.2851451635360718,0.6496744751930237,0.4915316104888916,0.2827518880367279,0.0,0.0,0.0,0.0,11747.0,16749.0,14670.0,11362.0,1.7089966535568237,0.044549376663301186,-0.3793527453593792,-3.099199599265994,-0.0009250468574464321,-0.004088307730853558,0.0
181,5,5.438232051346858e-07,7.573679795314092e-06,1.2554080967674963e-05,-0.0001941716473083943,5.163423702470027e-05,-0.0016310032224282622,0.03333214670419693,0.101267509162426,-0.013780960813164711,0.0029904935508966446,0.0024726055562496185,-0.013353047892451286,0.0,0.0,0.0,0.001933871884830296,-0.0008396037155762315,-0.0,0.0,0.0,0.0,-0.009269238449633121,-0.03143561631441116,-0.0014231891836971045,11419.0,16872.0,14751.0,11409.0,0.2842148542404175,0.6507377624511719,0.49044716358184814,0.2837033271789551,0.0,0.0,0.0,0.0,11409.0,16872.0,14765.0,11402.0,1.7097059488296509,0.04477919680168743,-0.3783568170219652,-3.0994880827527513,0.003458969993516803,0.006128542125225067,0.0
186,5,1.4052596270630602e-05,3.5533141726773465e-06,-4.321542292018421e-05,0.0015433840453624725,0.0005030975444242358,0.006039939355105162,0.03333214670419693,0.101267509162426,-0.013780960813164711,0.0029904935508966446,0.0024726055562496185,-0.013353047892451286,0.0,0.0,0.0,0.001933871884830296,-0.0008396037155762315,-0.0,0.0,0.0,0.0,-0.009269238449633121,-0.03143561631441116,-0.0014231891836971045,11419.0,16872.0,14751.0,11409.0,0.2842148542404175,0.6507377624511719,0.49044716358184814,0.2837033271789551,0.0,0.0,0.0,0.0,11409.0,16872.0,14765.0,11402.0,1.7097059488296509,0.044758470523376594,-0.37977086341490035,-3.099248116160207,0.003458969993516803,0.006128542125225067,0.0
191,5,1.7465351902501425e-06,1.0072229997604154e-05,-3.6164925404591486e-05,-0.0008593736565671861,-0.0005810309085063636,0.001569915795698762,0.033301644027233124,0.10126062482595444,-0.013846767134964466,-0.006582037080079317,0.003993662539869547,-0.02143588289618492,0.0,0.0,0.0,-0.000589416769798845,0.0014246576465666294,-0.0,0.0,0.0,0.0,-0.010676744394004345,-0.030238263309001923,-0.00037103198701515794,11521.0,16911.0,14461.0,11617.0,0.28971683979034424,0.6538976430892944,0.4702707827091217,0.29493141174316406,0.0,0.0,0.0,0.0,11552.0,16906.0,14491.0,11556.0,1.708670973777771,0.04452974787398158,-0.37956193482889405,-3.0991020233369655,-0.005865710787475109,-0.0018667641561478376,0.0
196,5,8.505578989570495e-06,1.2288341167732142e-05,-6.104252747718419e-07,0.0013520661741495132,0.0003278168442193419,0.0006098762387409806,0.033301644027233124,0.10126062482595444,-0.013846767134964466,-0.006582037080079317,0.003993662539869547,-0.02143588289618492,0.0,0.0,0.0,-0.000589416769798845,0.0014246576465666294,-0.0,0.0,0.0,0.0,-0.010676744394004345,-0.030238263309001923,-0.00037103198701515794,11521.0,16911.0,14461.0,11617.0,0.28971683979034424,0.6538976430892944,0.4702707827091217,0.29493141174316406,0.0,0.0,0.0,0.0,11552.0,16906.0,14491.0,11556.0,1.708670973777771,0.04449067012330979,-0.3787522884901197,-3.0997266682791778,-0.005865710787475109,-0.0018667641561478376,0.0
201,5,2.7596362997428514e-05,-7.380761417152826e-06,-5.8607427490642294e-05,0.002831720747053623,0.002491418970748782,0.007203590590506792,0.033377379179000854,0.1013617143034935,-0.013723690062761307,-0.0014261173782870173,-0.010514729656279087,0.06545624136924744,0.0,0.0,0.0,-0.0003663995594251901,0.0012419993290677667,-0.0,0.0,0.0,0.0,-0.010515405796468258,-0.03010687604546547,-0.004545682109892368,10777.0,17427.0,13897.0,12232.0,0.25091445446014404,0.6963735222816467,0.4322708249092102,0.32943785190582275,0.0,0.0,0.0,0.0,12165.0,16453.0,15117.0,10753.0,1.7100521326065063,0.045733206479467194,-0.37995028029103217,-3.0982791938122256,-0.005117790307849646,-0.001161375897936523,0.0
206,5,-2.447943870720337e-06,1.899385461001657e-05,5.783702727057971e-05,-0.0024726286064833403,-0.0021683864761143923,-0.011091898195445538,0.033377379179000854,0.1013617143034935,-0.013723690062761307,-0.0014261173782870173,-0.010514729656279087,0.06545624136924744,0.0,0.0,0.0,-0.0003663995594251901,0.0012419993290677667,-0.0,0.0,0.0,0.0,-0.010515405796468258,-0.03010687604546547,-0.004545682109892368,10777.0,17427.0,13897.0,12232.0,0.25091445446014404,0.6963735222816467,0.4322708249092102,0.32943785190582275,0.0,0.0,0.0,0.0,12165.0,16453.0,15117.0,10753.0,1.7100521326065063,0.04453409815585789,-0.3779576037923787,-3.0995473021950684,-0.005117790307849646,-0.001161375897936523,0.0
211,5,-7.690579764130234e-07,1.4559825103788171e-05,3.5148470487911254e-05,-0.0007875851588323712,-0.00033527094637975097,-0.001714132260531187,0.033429961651563644,0.10147657990455627,-0.01370992325246334,-0.003838854841887951,0.02035984769463539,-0.11412488669157028,0.0,0.0,0.0,0.0026023853570222855,-0.002256734063848853,-0.0,0.0,0.0,0.0,-0.009393475018441677,-0.03131023421883583,-0.0024081282317638397,10556.0,17423.0,14010.0,12311.0,0.2398972511291504,0.69605553150177,0.4397764801979065,0.333976686000824,0.0,0.0,0.0,0.0,12750.0,15990.0,15647.0,9996.0,1.7074761390686035,0.044230101465987964,-0.379457549518205,-3.099794578592091,0.00928506813943386,0.008236333727836609,0.0
216,5,1.862486169557087e-05,1.073864268619218e-06,-2.1950419977656566e-05,0.002012236276641488,0.0014842068776488304,0.006166213657706976,0.033429961651563644,0.10147657990455627,-0.01370992325246334,-0.003838854841887951,0.02035984769463539,-0.11412488669157028,0.0,0.0,0.0,0.0026023853570222855,-0.002256734063848853,-0.0,0.0,0.0,0.0,-0.009393475018441677,-0.03131023421883583,-0.0024081282317638397,10556.0,17423.0,14010.0,12311.0,0.2398972511291504,0.69605553150177,0.4397764801979065,0.333976686000824,0.0,0.0,0.0,0.0,12750.0,15990.0,15647.0,9996.0,1.7074761390686035,0.0456909900668025,-0.37952715795007674,-3.0987785674983535,0.00928506813943386,0.008236333727836609,0.0
221,5,1.0055887287307996e-05,7.73370084061753e-06,3.4584889363031834e-05,-0.00022338240523822606,-0.00020549762120936066,-0.004317751619964838,0.03360134735703468,0.10133995115756989,-0.013709728606045246,-0.023968925699591637,-0.0034677814692258835,0.046001359820365906,0.0,0.0,0.0,-0.0017568861367180943,0.0018594382563605905,-0.0,0.0,0.0,0.0,-0.010765381157398224,-0.03044075332581997,0.0008296341984532773,12498.0,16221.0,15333.0,10403.0,0.3449060618877411,0.5991262793540955,0.5321854948997498,0.2324531078338623,0.0,0.0,0.0,0.0,10465.0,17599.0,13555.0,12624.0,1.7071824073791504,0.04359112054204282,-0.3794595445833412,-3.099916278267812,-0.007649140898138285,-0.005559448152780533,0.0
226,5,-5.042872999183601e-06,4.473967237572651e-06,4.6834647946525365e-05,-0.0019012042321264744,0.0003089689707849175,-0.0031970718409866095,0.03360134735703468,0.10133995115756989,-0.013709728606045246,-0.023968925699591637,-0.0034677814692258835,0.046001359820365906,0.0,0.0,0.0,-0.0017568861367180943,0.0018594382563605905,-0.0,0.0,0.0,0.0,-0.010765381157398224,-0.03044075332581997,0.0008296341984532773,12498.0,16221.0,15333.0,10403.0,0.3449060618877411,0.5991262793540955,0.5321854948997498,0.2324531078338623,0.0,0.0,0.0,0.0,10465.0,17599.0,13555.0,12624.0,1.7071824073791504,0.04465726434442142,-0.3782910823261635,-3.0993484208076008,-0.007649140898138285,-0.005559448152780533,0.0
232,5,1.4288645616034046e-05,-1.7949529137695208e-05,2.6632947992766276e-05,0.0015593005809932947,0.002814407227560878,0.0011453753104433417,0.03360134735703468,0.10133995115756989,-0.013709728606045246,-0.023968925699591637,-0.0034677814692258835,0.046001359820365906,0.0,0.0,0.0,-0.0003582359349820763,-0.001739674131385982,-0.0,0.0,0.0,0.0,-0.010765381157398224,-0.03044075332581997,0.0008296341984532773,12498.0,16221.0,15333.0,10403.0,0.3449060618877411,0.5991262793540955,0.5321854948997498,0.2324531078338623,0.0,0.0,0.0,0.0,10465.0,17599.0,13555.0,12624.0,1.7071754932403564,0.04424483726683623,-0.3792976809544359,-3.0989028556874696,0.007156451232731342,-0.0011335895396769047,0.0
237,5,-1.0418662895972375e-05,8.067264388955664e-06,0.00012125277135055512,-0.0023411568254232407,-0.00199625245295465,-0.010896229185163975,0.033508557826280594,0.10121182352304459,-0.013992423191666603,0.03624686226248741,0.028462089598178864,0.061617717146873474,0.0,0.0,0.0,-0.0003582359349820763,-0.001739674131385982,-0.0,0.0,0.0,0.0,-0.010586380027234554,-0.03003445267677307,-0.0013996990164741874,12150.0,16529.0,14937.0,10927.0,0.3246842622756958,0.6232427954673767,0.5036147236824036,0.2585103213787079,0.0,0.0,0.0,0.0,11315.0,16951.0,14481.0,11756.0,1.7071754932403564,0.0441192809902149,-0.3767766794575462,-3.0993373697850295,0.007156451232731342,-0.0011335895396769047,0.0
242,5,-5.670492100762203e-06,1.2705899280263111e-05,0.00013550682342611253,-0.00036668224493041635,-0.001355137093923986,-0.006068977061659098,0.033508557826280594,0.10121182352304459,-0.013992423191666603,0.03624686226248741,0.028462089598178864,0.061617717146873474,0.0,0.0,0.0,0.002371622249484062,-0.0021404868457466364,-0.0,0.0,0.0,0.0,-0.010586380027234554,-0.03003445267677307,-0.0013996990164741874,12150.0,16529.0,14937.0,10927.0,0.3246842622756958,0.6232427954673767,0.5036147236824036,0.2585103213787079,0.0,0.0,0.0,0.0,11315.0,16951.0,14481.0,11756.0,1.7131160497665405,0.04323452319793341,-0.3771545422712113,-3.099835500951744,0.008835877291858196,0.007530782371759415,0.0
247,5,-5.670492100762203e-06,1.2705899280263111e-05,0.00013550682342611253,-0.00036668224493041635,-0.001355137093923986,-0.006068977061659098,0.03328847885131836,0.09997402131557465,-0.013833529315888882,-0.07311306148767471,0.17842181026935577,-0.005371422506868839,0.0,0.0,0.0,0.002371622249484062,-0.0021404868457466364,-0.0,0.0,0.0,0.0,-0.009876314550638199,-0.026469821110367775,-0.001917475601658225,11884.0,16581.0,14344.0,11852.0,0.309673547744751,0.6273702383041382,0.46227526664733887,0.30786335468292236,0.0,0.0,0.0,0.0,12583.0,16236.0,15094.0,10601.0,1.7131160497665405,0.04323452319793341,-0.3771545422712113,-3.099835500951744,0.008835877291858196,0.007530782371759415,0.0
252,5,3.70075686078053e-05,1.2313063962210435e-05,0.0003104950883425772,0.003823760896921158,-0.0008639242732897401,-0.017468543723225594,0.03328847885131836,0.09997402131557465,-0.013833529315888882,-0.07311306148767471,0.17842181026935577,-0.005371422506868839,0.0,0.0,0.0,0.001043779426254332,0.003530026413500309,-0.0,0.0,0.0,0.0,-0.009876314550638199,-0.026469821110367775,-0.001917475601658225,11884.0,16581.0,14344.0,11852.0,0.309673547744751,0.6273702383041382,0.46227526664733887,0.30786335468292236,0.0,0.0,0.0,0.0,12583.0,16236.0,15094.0,10601.0,1.7097843885421753,0.04303216225653259,-0.37414969711962337,-3.099042100389595,-0.014543537981808186,0.003307946491986513,0.0
257,5,4.419951073941775e-05,1.185067230835557e-05,0.00039071025094017386,0.0023925371933728456,-0.00029008270939812064,-0.01661323569715023,0.0326269194483757,0.097922682762146,-0.01347656361758709,-0.13366274535655975,0.36133986711502075,0.02309054136276245,0.0,0.0,0.0,0.001043779426254332,0.003530026413500309,-0.0,0.0,0.0,0.0,-0.008509195409715176,-0.0225102249532938,0.0005467028240673244,12779.0,15742.0,14755.0,11568.0,0.3616843521595001,0.562480628490448,0.4907477796077728,0.2922627627849579,0.0,0.0,0.0,0.0,11985.0,16198.0,13983.0,12793.0,1.7097843885421753,0.04294148771101325,-0.37077066389709307,-3.098800753549788,-0.014543537981808186,0.003307946491986513,0.0
262,5,4.8924604925559834e-05,-2.2526260181621183e-06,0.00041776630678214133,0.0015240262728184462,0.0015763627598062158,-0.009892023168504238,0.0326269194483757,0.097922682762146,-0.01347656361758709,-0.13366274535655975,0.36133986711502075,0.02309054136276245,0.0,0.0,0.0,0.001043779426254332,0.003530026413500309,-0.0,0.0,0.0,0.0,-0.008509195409715176,-0.0225102249532938,0.0005467028240673244,12779.0,15742.0,14755.0,11568.0,0.3616843521595001,0.562480628490448,0.4907477796077728,0.2922627627849579,0.0,0.0,0.0,0.0,11985.0,16198.0,13983.0,12793.0,1.7097843885421753,0.04028216755191283,-0.3689574666137459,-3.0991088808309484,-0.014543537981808186,0.003307946491986513,0.0
267,5,4.8924604925559834e-05,-2.2526260181621183e-06,0.00041776630678214133,0.0015240262728184462,0.0015763627598062158,-0.009892023168504238,0.030585873872041702,0.09218387305736542,-0.01349839847534895,-0.17842420935630798,0.5808452367782593,0.00994078442454338,0.0,0.0,0.0,-0.0018772493349388242,0.001459154300391674,-0.0,0.0,0.0,0.0,-0.00557124987244606,-0.016242556273937225,-0.0008795724716037512,12802.0,15475.0,14255.0,12606.0,0.3630423843860626,0.5425886511802673,0.45619717240333557,0.3512878119945526,0.0,0.0,0.0,0.0,12754.0,15555.0,13542.0,13269.0,1.7022759914398193,0.04028216755191283,-0.3689574666137459,-3.0991088808309484,-0.005985248368233442,-0.005923249293118715,0.0
272,5,0.00011131816427223384,-3.873616151395254e-05,0.00044867710676044226,0.008096837438642979,0.005008569452911615,-0.007666104007512331,0.030585873872041702,0.09218387305736542,-0.01349839847534895,-0.17842420935630798,0.5808452367782593,0.00994078442454338,0.0,0.0,0.0,-0.0018772493349388242,0.001459154300391674,-0.0,0.0,0.0,0.0,-0.00557124987244606,-0.016242556273937225,-0.0008795724716037512,12802.0,15475.0,14255.0,12606.0,0.3630423843860626,0.5425886511802673,0.45619717240333557,0.3512878119945526,0.0,0.0,0.0,0.0,12754.0,15555.0,13542.0,13269.0,1.7022759914398193,0.03798719294758821,-0.3661420816796645,-3.0993498953979266,-0.005985248368233442,-0.005923249293118715,0.0
277,5,0.00025480639305897057,-7.604478014400229e-05,0.00032492002355866134,0.020457323640584946,0.006480461917817593,0.01178441010415554,0.02895968407392502,0.08623159676790237,-0.013223166577517986,-0.22907179594039917,0.8949190378189087,0.15844585001468658,0.0,0.0,0.0,-0.005946349818259478,0.007459611166268587,-0.0,0.0,0.0,0.0,-0.006344453431665897,0.0030514721293002367,-0.003415950806811452,14163.0,14100.0,14034.0,12960.0,0.44997209310531616,0.44579803943634033,0.44135135412216187,0.37266290187835693,0.0,0.0,0.0,0.0,15452.0,12571.0,15068.0,11831.0,1.7233790159225464,0.0426040092239015,-0.3629947596496132,-3.0972086780466164,-0.03097684495151043,-0.01899481937289238,0.0
282,5,0.00045788096031174064,-0.00016253227659035474,0.000333860662067309,0.021825147792696953,0.008090664632618427,0.003944826778024435,0.02895968407392502,0.08623159676790237,-0.013223166577517986,-0.22907179594039917,0.8949190378189087,0.15844585001468658,0.0,0.0,0.0,-0.005946349818259478,0.007459611166268587,-0.0,0.0,0.0,0.0,-0.006344453431665897,0.0030514721293002367,-0.003415950806811452,14163.0,14100.0,14034.0,12960.0,0.44997209310531616,0.44579803943634033,0.44135135412216187,0.37266290187835693,0.0,0.0,0.0,0.0,15452.0,12571.0,15068.0,11831.0,1.7233790159225464,0.039794413963821065,-0.35525467305302105,-3.0982483927665507,-0.03097684495151043,-0.01899481937289238,0.0
287,5,0.00045788096031174064,-0.00016253227659035474,0.000333860662067309,0.021825147792696953,0.008090664632618427,0.003944826778024435,0.026594476774334908,0.07428562641143799,-0.012489932589232922,-0.14038215577602386,1.0882000923156738,-0.20059943199157715,0.0,0.0,0.0,-0.00904371403157711,0.018791984766721725,-0.0,0.0,0.0,0.0,-0.006344453431665897,0.0030514721293002367,-0.003415950806811452,12378.0,15858.0,10757.0,15483.0,0.3378516733646393,0.5713100433349609,0.24990257620811462,0.5432116985321045,0.0,0.0,0.0,0.0,12232.0,16033.0,10190.0,15788.0,1.8633081912994385,0.039794413963821065,-0.35525467305302105,-3.0982483927665507,-0.08436570316553116,-0.031234122812747955,-0.0
292,5,0.0005656819557771087,-0.00025133098824881017,0.000347667169990018,0.011386577971279621,0.008395650424063206,-0.0007834408315829933,0.026594476774334908,0.07428562641143799,-0.012489932589232922,-0.14038215577602386,1.0882000923156738,-0.20059943199157715,0.0,0.0,0.0,-0.00904371403157711,0.018791984766721725,-0.0,0.0,0.0,0.0,-0.006344453431665897,0.0030514721293002367,-0.003415950806811452,12378.0,15858.0,10757.0,15483.0,0.3378516733646393,0.5713100433349609,0.24990257620811462,0.5432116985321045,0.0,0.0,0.0,0.0,12232.0,16033.0,10190.0,15788.0,1.8633081912994385,0.03824981136196593,-0.3472861457652708,-3.097541569626085,-0.08436570316553116,-0.031234122812747955,-0.0
297,5,0.0005395584739744663,-0.00026983433053828776,0.0004317458369769156,0.0014198177959769964,0.0055786604061722755,-0.010402819141745567,0.0255128163844347,0.06587842106819153,-0.011707996018230915,-0.14377926290035248,0.9763001203536987,0.22923414409160614,0.0,0.0,0.0,-0.009982768446207047,0.010704834014177322,-0.0,0.0,0.0,0.0,-0.006915675941854715,0.007134097628295422,0.004562245681881905,16384.0,11854.0,14810.0,11872.0,0.6118142604827881,0.3080199956893921,0.4945636987686157,0.3089810609817505,0.0,0.0,0.0,0.0,15405.0,13135.0,13568.0,13265.0,1.7762939929962158,0.03504112140885189,-0.3439235231442708,-3.099325480333551,-0.045815955847501755,-0.03286709263920784,0.0
302,5,0.0005395584739744663,-0.00026983433053828776,0.0004317458369769156,0.0014198177959769964,0.0055786604061722755,-0.010402819141745567,0.0255128163844347,0.06587842106819153,-0.011707996018230915,-0.14377926290035248,0.9763001203536987,0.22923414409160614,0.0,0.0,0.0,-0.009982768446207047,0.010704834014177322,-0.0,0.0,0.0,0.0,-0.006915675941854715,0.007134097628295422,0.004562245681881905,16384.0,11854.0,14810.0,11872.0,0.6118142604827881,0.3080199956893921,0.4945636987686157,0.3089810609817505,0.0,0.0,0.0,0.0,15405.0,13135.0,13568.0,13265.0,1.7762939929962158,0.03504112140885189,-0.3439235231442708,-3.099325480333551,-0.045815955847501755,-0.03286709263920784,0.0
308,5,0.0005366957047954202,-0.0003367858880665153,0.00048511644126847386,-0.001283236313611269,0.006070621311664581,-0.005564355291426182,0.02435869723558426,0.05527202785015106,-0.012091554701328278,-0.04526232182979584,0.7317759990692139,-0.08071933686733246,0.0,0.0,0.0,-0.007151941303163767,0.002037676051259041,-0.0,0.0,0.0,0.0,-0.009463231079280376,0.008335921913385391,-0.005946439690887928,13676.0,16192.0,11141.0,15961.0,0.41780102252960205,0.5968480110168457,0.26952096819877625,0.5791382193565369,0.0,0.0,0.0,0.0,15829.0,14068.0,14067.0,13509.0,1.690208911895752,0.034661414554121035,-0.33990876227969674,-3.0980844769899347,-0.008298813365399837,-0.022406093776226044,0.0
313,5,0.0004847173986490816,-0.00033338210778310895,0.0005375572363846004,-0.006750688888132572,0.002019795123487711,-0.008518639020621777,0.02435869723558426,0.05527202785015106,-0.012091554701328278,-0.04526232182979584,0.7317759990692139,-0.08071933686733246,0.0,0.0,0.0,-0.007151941303163767,0.002037676051259041,-0.0,0.0,0.0,0.0,-0.009463231079280376,0.008335921913385391,-0.005946439690887928,13676.0,16192.0,11141.0,15961.0,0.41780102252960205,0.5968480110168457,0.26952096819877625,0.5791382193565369,0.0,0.0,0.0,0.0,15829.0,14068.0,14067.0,13509.0,1.690208911895752,0.03515995837651945,-0.33741834087948297,-3.099243820352291,-0.008298813365399837,-0.022406093776226044,0.0
318,5,0.000391285284422338,-0.00033347817952744663,0.0006239233771339059,-0.01391212921589613,0.0008194464026018977,-0.013771389611065388,0.023978332057595253,0.05128094181418419,-0.010629418306052685,-0.06015586853027344,0.35344070196151733,-0.1053885966539383,0.0,0.0,0.0,-0.0030009825713932514,-0.005553571507334709,-0.0,0.0,0.0,0.0,-0.00929460022598505,-0.0020728905219584703,0.0011128034675493836,14917.0,14400.0,14027.0,12869.0,0.502204418182373,0.46606847643852234,0.4409230053424835,0.3670981228351593,0.0,0.0,0.0,0.0,11177.0,17478.0,10371.0,15885.0,1.6918669939041138,0.0355810715222764,-0.33534056218244573,-3.099043491245094,0.022640515118837357,-0.009411027655005455,0.0
323,5,0.0002530822530388832,-0.0003191516443621367,0.0007564837578684092,-0.022149216383695602,-0.0013914053561165929,-0.021415801718831062,0.023978332057595253,0.05128094181418419,-0.010629418306052685,-0.06015586853027344,0.35344070196151733,-0.1053885966539383,0.0,0.0,0.0,-0.0030009825713932514,-0.005553571507334709,-0.0,0.0,0.0,0.0,-0.00929460022598505,-0.0020728905219584703,0.0011128034675493836,14917.0,14400.0,14027.0,12869.0,0.502204418182373,0.46606847643852234,0.4409230053424835,0.3670981228351593,0.0,0.0,0.0,0.0,11177.0,17478.0,10371.0,15885.0,1.6918669939041138,0.03408534049818953,-0.3338109263011035,-3.0991773451626474,0.022640515118837357,-0.009411027655005455,0.0
328,5,0.0002023922570515424,-0.00028208026196807623,0.0007596523500978947,-0.014942485839128494,-0.0050051272846758366,-0.008946551010012627,0.023685574531555176,0.049108680337667465,-0.010791630484163761,-0.05787547677755356,-0.0009566862718202174,0.2955797612667084,0.0,0.0,0.0,0.0010127739515155554,-0.01839723065495491,-0.0,0.0,0.0,0.0,-0.006467635277658701,-0.01740473136305809,-0.007458770181983709,15073.0,13506.0,15720.0,9909.0,0.5133475661277771,0.4068831205368042,0.5608570575714111,0.2091212421655655,0.0,0.0,0.0,0.0,15434.0,12999.0,16453.0,8727.0,1.8421273231506348,0.03414685408516289,-0.33422198343427423,-3.1002380862621126,0.08165810257196426,0.003458124352619052,0.0
333,5,0.00010922318324446678,-0.000275967875495553,0.0007721785805188119,-0.017157282680273056,-0.0027355363126844168,-0.0050817690789699554,0.023685574531555176,0.049108680337667465,-0.010791630484163761,-0.05787547677755356,-0.0009566862718202174,0.2955797612667084,0.0,0.0,0.0,0.0010127739515155554,-0.01839723065495491,-0.0,0.0,0.0,0.0,-0.006467635277658701,-0.01740473136305809,-0.007458770181983709,15073.0,13506.0,15720.0,9909.0,0.5133475661277771,0.4068831205368042,0.5608570575714111,0.2091212421655655,0.0,0.0,0.0,0.0,15434.0,12999.0,16453.0,8727.0,1.8421273231506348,0.03500588199992227,-0.33308506832017404,-3.0991882812006772,0.08165810257196426,0.003458124352619052,0.0
338,5,5.881725519429892e-05,-0.00026921462267637253,0.0007647927268408239,-0.012911624275147915,-0.0019046063534915447,-0.0011464046547189355,0.02271348051726818,0.04977480694651604,-0.011217695660889149,-0.15955880284309387,-0.1328529417514801,-0.25950056314468384,0.0,0.0,0.0,0.0017384858801960945,-0.011368811130523682,-0.0,0.0,0.0,0.0,-0.004585849586874247,-0.021125897765159607,0.008313662372529507,9416.0,17634.0,11517.0,14884.0,0.1870594024658203,0.7138005495071411,0.2895287275314331,0.4998202323913574,0.0,0.0,0.0,0.0,11210.0,16584.0,13136.0,13491.0,1.755319356918335,0.03368214295135464,-0.33577034537006345,-3.0972109797619414,0.04808538407087326,0.005656339693814516,0.0
343,5,-9.32861803448759e-06,-0.0002042866835836321,0.0008218130678869784,-0.013342154212296009,-0.00855319481343031,-0.007301001809537411,0.02271348051726818,0.04977480694651604,-0.011217695660889149,-0.15955880284309387,-0.1328529417514801,-0.25950056314468384,0.0,0.0,0.0,0.0017384858801960945,-0.011368811130523682,-0.0,0.0,0.0,0.0,-0.004585849586874247,-0.021125897765159607,0.008313662372529507,9416.0,17634.0,11517.0,14884.0,0.1870594024658203,0.7138005495071411,0.2895287275314331,0.4998202323913574,0.0,0.0,0.0,0.0,11210.0,16584.0,13136.0,13491.0,1.755319356918335,0.03215909656893428,-0.3355095607460015,-3.0990910984227025,0.04808538407087326,0.005656339693814516,0.0
348,5,-7.402923074550927e-05,-0.00017070396279450506,0.0008497097296640277,-0.013100935146212578,-0.007451204117387533,-0.006268003489822149,0.020655395463109016,0.05170242860913277,-0.009537125006318092,-0.19023840129375458,-0.13423146307468414,0.19225278496742249,0.0,0.0,0.0,0.0017384858801960945,-0.011368811130523682,-0.0,0.0,0.0,0.0,-0.003010663203895092,-0.021123306825757027,-0.00698587903752923,9817.0,17965.0,12932.0,15222.0,0.20491772890090942,0.742099940776825,0.37099379301071167,0.5241158604621887,0.0,0.0,0.0,0.0,11243.0,16311.0,13717.0,13245.0,1.755319356918335,0.030756599148676515,-0.33405804478545326,-3.1004655720673155,0.04808538407087326,0.005656339693814516,0.0
353,5,-0.00015240341599565,-0.00012972332478966564,0.0008954411023296416,-0.014645276591181755,-0.007898158393800259,-0.007994964718818665,0.020655395463109016,0.05170242860913277,-0.009537125006318092,-0.19023840129375458,-0.13423146307468414,0.19225278496742249,0.0,0.0,0.0,0.008199647068977356,-0.011571301147341728,-0.0,0.0,0.0,0.0,-0.003010663203895092,-0.021123306825757027,-0.00698587903752923,9817.0,17965.0,12932.0,15222.0,0.20491772890090942,0.742099940776825,0.37099379301071167,0.5241158604621887,0.0,0.0,0.0,0.0,11243.0,16311.0,13717.0,13245.0,1.776336908340454,0.031381589154540916,-0.3318244975905236,-3.0984542334851586,0.049526214599609375,0.026997292414307594,0.0
359,5,-0.00018525430641602725,-0.00010209815081907436,0.0008662245818413794,-0.009800218045711517,-0.006474283989518881,0.0003079958842135966,0.019424524158239365,0.05195007100701332,-0.011768759228289127,-0.1675977110862732,0.03573938459157944,0.05345537140965462,0.0,0.0,0.0,0.008199647068977356,-0.011571301147341728,-0.0,0.0,0.0,0.0,-0.0029215749818831682,-0.015401721931993961,-0.00184107746463269,10418.0,17126.0,12400.0,15048.0,0.23316322267055511,0.6714524030685425,0.33917683362960815,0.511526882648468,0.0,0.0,0.0,0.0,15655.0,13192.0,17672.0,9300.0,1.776336908340454,0.030454485195343717,-0.33146182352098486,-3.099171487961137,0.049526214599609375,0.026997292414307594,0.0
364,5,-0.00016962042718660086,-8.507727034157142e-05,0.0007731788791716099,-0.0020440206862986088,-0.004632219672203064,0.011288686655461788,0.019424524158239365,0.05195007100701332,-0.011768759228289127,-0.1675977110862732,0.03573938459157944,0.05345537140965462,0.0,0.0,0.0,0.007329773623496294,-0.008979530073702335,-0.0,0.0,0.0,0.0,-0.0029215749818831682,-0.015401721931993961,-0.00184107746463269,10418.0,17126.0,12400.0,15048.0,0.23316322267055511,0.6714524030685425,0.33917683362960815,0.511526882648468,0.0,0.0,0.0,0.0,15655.0,13192.0,17672.0,9300.0,1.7452372312545776,0.029876333295020072,-0.3328147044857091,-3.100097771849869,0.037760909646749496,0.023710817098617554,-0.0
369,5,-0.00017764198128134012,-7.571490277769044e-05,0.000815492938272655,-0.0017801960930228233,-0.00297637190669775,-0.0005622163298539817,0.017195461317896843,0.04739591106772423,-0.010897401720285416,-0.10033505409955978,0.38789764046669006,0.4170013666152954,0.0,0.0,0.0,0.007329773623496294,-0.008979530073702335,-0.0,0.0,0.0,0.0,-0.0016829264350235462,-0.007892620749771595,0.006151204463094473,15807.0,12333.0,16547.0,10739.0,0.5674192905426025,0.3352571725845337,0.6246623992919922,0.2489980310201645,0.0,0.0,0.0,0.0,6591.0,18925.0,8486.0,17409.0,1.7452372312545776,0.030479743970763584,-0.3293517445892134,-3.098476186299679,0.037760909646749496,0.023710817098617554,-0.0
374,5,-0.00021027369075454772,-3.89885826734826e-05,0.0008677787845954299,-0.004627882968634367,-0.005597706884145737,-0.006499188952147961,0.017195461317896843,0.04739591106772423,-0.010897401720285416,-0.10033505409955978,0.38789764046669006,0.4170013666152954,0.0,0.0,0.0,0.0034870330709964037,-0.0019095215247943997,-0.0,0.0,0.0,0.0,-0.0016829264350235462,-0.007892620749771595,0.006151204463094473,15807.0,12333.0,16547.0,10739.0,0.5674192905426025,0.3352571725845337,0.6246623992919922,0.2489980310201645,0.0,0.0,0.0,0.0,6591.0,18925.0,8486.0,17409.0,1.661422848701477,0.029919427675238922,-0.3271934543408223,-3.098094591426546,0.007644582074135542,0.010738489218056202,0.0
379,5,-0.00021190369443502277,1.4124584595265333e-05,0.0008755961898714304,-0.0020467538852244616,-0.008612663485109806,-0.003537761280313134,0.017195461317896843,0.04739591106772423,-0.010897401720285416,-0.10033505409955978,0.38789764046669006,0.4170013666152954,0.0,0.0,0.0,0.0034870330709964037,-0.0019095215247943997,-0.0,0.0,0.0,0.0,-0.0016829264350235462,-0.007892620749771595,0.006151204463094473,15807.0,12333.0,16547.0,10739.0,0.5674192905426025,0.3352571725845337,0.6246623992919922,0.2489980310201645,0.0,0.0,0.0,0.0,6591.0,18925.0,8486.0,17409.0,1.661422848701477,0.027977410584913934,-0.32676814524963715,-3.1005378215705544,0.007644582074135542,0.010738489218056202,0.0
384,5,-0.0002137095871148631,3.153104626107961e-05,0.0008811699226498604,-0.00103540881536901,-0.005533840507268906,-0.0020839516073465347,0.016180116683244705,0.042104508727788925,-0.012369816191494465,-0.049656398594379425,0.5460264086723328,-0.3962707221508026,0.0,0.0,0.0,0.010176843963563442,-0.0021363813430070877,-0.0,0.0,0.0,0.0,-0.0021092353854328394,-0.003870546817779541,-0.01319984532892704,7463.0,18423.0,7676.0,17850.0,0.11173379421234131,0.782228410243988,0.11902326345443726,0.732251763343811,0.0,0.0,0.0,0.0,16008.0,11913.0,16892.0,10353.0,1.7160022258758545,0.029028814260622555,-0.3237548918480648,-3.099386460743349,0.008833355270326138,0.032368749380111694,0.0
389,5,-0.0002550664939917624,7.509628630941734e-05,0.0009610402630642056,-0.00537699181586504,-0.007441365160048008,-0.010418025776743889,0.016180116683244705,0.042104508727788925,-0.012369816191494465,-0.049656398594379425,0.5460264086723328,-0.3962707221508026,0.0,0.0,0.0,0.010176843963563442,-0.0021363813430070877,-0.0,0.0,0.0,0.0,-0.0021092353854328394,-0.003870546817779541,-0.01319984532892704,7463.0,18423.0,7676.0,17850.0,0.11173379421234131,0.782228410243988,0.11902326345443726,0.732251763343811,0.0,0.0,0.0,0.0,16008.0,11913.0,16892.0,10353.0,1.7160022258758545,0.02792542541373887,-0.32095748348518083,-3.0986610448254357,0.008833355270326138,0.032368749380111694,0.0
394,5,-0.0002855949569493532,0.00013187424337957054,0.0010016339365392923,-0.005814212840050459,-0.009789900854229927,-0.009038444608449936,0.016180116683244705,0.042104508727788925,-0.012369816191494465,-0.049656398594379425,0.5460264086723328,-0.3962707221508026,0.0,0.0,0.0,0.00887339934706688,-0.0051979785785079,-0.0,0.0,0.0,0.0,-0.0014120491687208414,-0.004913049750030041,0.007810157723724842,16399.0,11184.0,16807.0,10035.0,0.613002359867096,0.2717890739440918,0.6454936265945435,0.21495217084884644,0.0,0.0,0.0,0.0,12373.0,15676.0,12384.0,15053.0,1.721401333808899,0.025655481400975722,-0.3203018283312219,-3.1008299751467425,0.02156003564596176,0.028311988338828087,0.0
399,5,-0.000297436083201319,0.00016736863472033292,0.0009884724859148264,-0.0037466208450496197,-0.008175286464393139,-0.0020360073540359735,0.016180116683244705,0.042104508727788925,-0.012369816191494465,-0.049656398594379425,0.5460264086723328,-0.3962707221508026,0.0,0.0,0.0,0.00887339934706688,-0.0051979785785079,-0.0,0.0,0.0,0.0,-0.0014120491687208414,-0.004913049750030041,0.007810157723724842,16399.0,11184.0,16807.0,10035.0,0.613002359867096,0.2717890739440918,0.6454936265945435,0.21495217084884644,0.0,0.0,0.0,0.0,12373.0,15676.0,12384.0,15053.0,1.721401333808899,0.02601173855749523,-0.31760283484166535,-3.101452049960247,0.02156003564596176,0.028311988338828087,0.0
404,5,-0.00028875909629277885,0.00019144565158057958,0.000958567950874567,-0.00045740927453152835,-0.006159357260912657,0.0027741414960473776,0.015378274023532867,0.03383395075798035,-0.012009593658149242,-0.016785388812422752,0.3668169379234314,0.1647273451089859,0.0,0.0,0.0,0.009900358505547047,-0.003782363375648856,-0.0,0.0,0.0,0.0,-0.003704097820445895,-0.0017076809890568256,-0.005919450893998146,13194.0,14514.0,13003.0,13787.0,0.38717466592788696,0.47390466928482056,0.3752986788749695,0.42504483461380005,0.0,0.0,0.0,0.0,10272.0,16594.0,10308.0,15959.0,1.7205182313919067,0.02567652564330482,-0.31696165588078656,-3.099612401198875,0.01568021811544895,0.03157227486371994,0.0
409,5,-0.00031980755738914013,0.0002412767062196508,0.0009830489289015532,-0.003908779472112656,-0.008443469181656837,-0.001828054548241198,0.015378274023532867,0.03383395075798035,-0.012009593658149242,-0.016785388812422752,0.3668169379234314,0.1647273451089859,0.0,0.0,0.0,0.009900358505547047,-0.003782363375648856,-0.0,0.0,0.0,0.0,-0.003704097820445895,-0.0017076809890568256,-0.005919450893998146,13194.0,14514.0,13003.0,13787.0,0.38717466592788696,0.47390466928482056,0.3752986788749695,0.42504483461380005,0.0,0.0,0.0,0.0,10272.0,16594.0,10308.0,15959.0,1.7205182313919067,0.02397610105251961,-0.3159581011016344,-3.1006147929740573,0.01568021811544895,0.03157227486371994,0.0
414,5,-0.0003263677062932402,0.00028466444928199053,0.0009759860695339739,-0.002350727329030633,-0.008583917282521725,0.00011631567758740857,0.014590575359761715,0.03228830546140671,-0.011168242432177067,-0.12170843780040741,0.16429686546325684,-0.2802727520465851,0.0,0.0,0.0,0.010318114422261715,-0.00394930737093091,-0.0,0.0,0.0,0.0,0.00019415418501012027,-0.006904206238687038,-0.005168766714632511,11132.0,16067.0,12303.0,15250.0,0.26909399032592773,0.5872333645820618,0.33353328704833984,0.5261415839195251,0.0,0.0,0.0,0.0,16342.0,10906.0,16727.0,9951.0,1.7247475385665894,0.023693937099648905,-0.31479242307215166,-3.102362437009804,0.01641247607767582,0.032985299825668335,0.0
419,5,-0.00037612771848216653,0.00031977478647604585,0.0010343161411583424,-0.006911494769155979,-0.007646806072443724,-0.006953079719096422,0.014590575359761715,0.03228830546140671,-0.011168242432177067,-0.12170843780040741,0.16429686546325684,-0.2802727520465851,0.0,0.0,0.0,0.010318114422261715,-0.00394930737093091,-0.0,0.0,0.0,0.0,0.00019415418501012027,-0.006904206238687038,-0.005168766714632511,11132.0,16067.0,12303.0,15250.0,0.26909399032592773,0.5872333645820618,0.33353328704833984,0.5261415839195251,0.0,0.0,0.0,0.0,16342.0,10906.0,16727.0,9951.0,1.7247475385665894,0.021869970430331155,-0.31350112734135926,-3.101341194258076,0.01641247607767582,0.032985299825668335,0.0
424,5,-0.00039586788625456393,0.0003049960359930992,0.001029835781082511,-0.005133415572345257,-0.0012852742802351713,-0.0022435933351516724,0.013993586413562298,0.03098578192293644,-0.012523510493338108,-0.05869298428297043,0.07897026091814041,0.29236650466918945,0.0,0.0,0.0,0.010318114422261715,-0.00394930737093091,-0.0,0.0,0.0,0.0,-0.0007759512518532574,-0.008678724057972431,0.0051641990430653095,15445.0,12185.0,16496.0,10429.0,0.540360689163208,0.32670092582702637,0.6206475496292114,0.23369216918945312,0.0,0.0,0.0,0.0,14225.0,13556.0,15631.0,11747.0,1.7247475385665894,0.022330895352794266,-0.3131876309622993,-3.101352039249576,0.02142457850277424,0.0064935931004583836,0.0
429,5,-0.00037969264667481184,0.00031012907857075334,0.0010230266489088535,-0.00011233764234930277,-0.0011300730984658003,-8.033701305976138e-05,0.013993586413562298,0.03098578192293644,-0.012523510493338108,-0.05869298428297043,0.07897026091814041,0.29236650466918945,0.0,0.0,0.0,0.002077680779621005,-0.005273088812828064,-0.0,0.0,0.0,0.0,-0.0007759512518532574,-0.008678724057972431,0.0051641990430653095,15445.0,12185.0,16496.0,10429.0,0.540360689163208,0.32670092582702637,0.6206475496292114,0.23369216918945312,0.0,0.0,0.0,0.0,14225.0,13556.0,15631.0,11747.0,1.6861579418182373,0.02174891040131362,-0.31293480639805854,-3.1029325643976446,0.02142457850277424,0.0064935931004583836,0.0
434,5,-0.00042254102299921215,0.0003334484063088894,0.0010894581209868193,-0.00518674124032259,-0.003250350710004568,-0.008003910072147846,0.013323823921382427,0.03083391860127449,-0.013086827471852303,-0.0369604155421257,0.03526889905333519,-0.31401488184928894,0.0,0.0,0.0,0.002077680779621005,-0.005273088812828064,-0.0,0.0,0.0,0.0,-0.0006359103135764599,-0.01101744920015335,-0.009907511994242668,8074.0,17845.0,10215.0,16639.0,0.13322457671165466,0.7318195104598999,0.22344031929969788,0.6320338249206543,0.0,0.0,0.0,0.0,11134.0,16243.0,12617.0,14926.0,1.6861579418182373,0.020833293238751518,-0.3125633480997372,-3.102544958822559,0.02142457850277424,0.0064935931004583836,0.0
440,5,-0.00042382298852317035,0.00031748233595862985,0.001097046653740108,-0.0022285333834588528,0.0006157909519970417,-0.004112194292247295,0.013323823921382427,0.03083391860127449,-0.013086827471852303,-0.0369604155421257,0.03526889905333519,-0.31401488184928894,0.0,0.0,0.0,0.004461068194359541,-0.005329118110239506,-0.0,0.0,0.0,0.0,-0.0006359103135764599,-0.01101744920015335,-0.009907511994242668,8074.0,17845.0,10215.0,16639.0,0.13322457671165466,0.7318195104598999,0.22344031929969788,0.6320338249206543,0.0,0.0,0.0,0.0,11134.0,16243.0,12617.0,14926.0,1.6955556869506836,0.02281397809790723,-0.3111593571487324,-3.1013560853972115,0.021772731095552444,0.0140202846378088,0.0
445,5,-0.00041318623698316514,0.00031012349063530564,0.0010981010273098946,0.00038499917718581855,0.0011293756542727351,-0.0017714012647047639,0.012889412231743336,0.03080723062157631,-0.011972123757004738,-0.06497132778167725,-0.04572450369596481,0.0612061470746994,0.0,0.0,0.0,0.004461068194359541,-0.005329118110239506,-0.0,0.0,0.0,0.0,-4.05650354196041e-07,-0.012016979046165943,0.0050071487203240395,14193.0,13551.0,15737.0,11726.0,0.45199477672576904,0.40973180532455444,0.5621311068534851,0.30088984966278076,0.0,0.0,0.0,0.0,10075.0,16825.0,12164.0,15378.0,1.6955556869506836,0.02072507980945153,-0.3127319451497552,-3.103449719094453,0.021772731095552444,0.0140202846378088,0.0
450,5,-0.0004540466470643878,0.0003219687787350267,0.001205644803121686,-0.004749252460896969,-0.0009696836350485682,-0.013613811694085598,0.012889412231743336,0.03080723062157631,-0.011972123757004738,-0.06497132778167725,-0.04572450369596481,0.0612061470746994,0.0,0.0,0.0,-0.0008173704263754189,-0.00020587275503203273,-0.0,0.0,0.0,0.0,-4.05650354196041e-07,-0.012016979046165943,0.0050071487203240395,14193.0,13551.0,15737.0,11726.0,0.45199477672576904,0.40973180532455444,0.5621311068534851,0.30088984966278076,0.0,0.0,0.0,0.0,10075.0,16825.0,12164.0,15378.0,1.6704981327056885,0.018929315345319164,-0.3101304384548537,-3.104626183156157,0.0008286986849270761,-0.0025308907497674227,0.0
455,5,-0.00045390328159555793,0.0003031484957318753,0.0011970135383307934,-0.001882494194433093,0.0018705613911151886,-0.004409778863191605,0.012889412231743336,0.03080723062157631,-0.011972123757004738,-0.06497132778167725,-0.04572450369596481,0.0612061470746994,0.0,0.0,0.0,-0.0008173704263754189,-0.00020587275503203273,-0.0,0.0,0.0,0.0,-4.05650354196041e-07,-0.012016979046165943,0.0050071487203240395,14193.0,13551.0,15737.0,11726.0,0.45199477672576904,0.40973180532455444,0.5621311068534851,0.30088984966278076,0.0,0.0,0.0,0.0,10075.0,16825.0,12164.0,15378.0,1.6704981327056885,0.019723130838599553,-0.3107594583081445,-3.1026467195336154,0.0008286986849270761,-0.0025308907497674227,0.0
460,5,-0.0004375097341835499,0.00030220780172385275,0.0011484071146696806,0.0012142251944169402,0.0008611067314632237,0.004068867769092321,0.01257825456559658,0.030747592449188232,-0.013740787282586098,-0.005149994045495987,0.06965658068656921,0.13375256955623627,0.0,0.0,0.0,-0.0016893073916435242,-0.002322418848052621,-0.0,0.0,0.0,0.0,-0.003190393326804042,-0.010120436549186707,-0.004955544602125883,12687.0,15098.0,13645.0,13384.0,0.3561246395111084,0.5151204466819763,0.4158119559288025,0.3991008996963501,0.0,0.0,0.0,0.0,15352.0,12306.0,16325.0,9964.0,1.7078322172164917,0.0211704360701627,-0.3105827385349985,-3.1042867126067226,0.00955733098089695,-0.0053476388566195965,0.0
465,5,-0.00044221218558959663,0.00032371465931646526,0.0012132894480600953,-7.86033779149875e-05,-0.0022363814059644938,-0.006158334668725729,0.01257825456559658,0.030747592449188232,-0.013740787282586098,-0.005149994045495987,0.06965658068656921,0.13375256955623627,0.0,0.0,0.0,-0.0016893073916435242,-0.002322418848052621,-0.0,0.0,0.0,0.0,-0.003190393326804042,-0.010120436549186707,-0.004955544602125883,12687.0,15098.0,13645.0,13384.0,0.3561246395111084,0.5151204466819763,0.4158119559288025,0.3991008996963501,0.0,0.0,0.0,0.0,15352.0,12306.0,16325.0,9964.0,1.7078322172164917,0.019402906988731858,-0.30871237608456736,-3.1053703594559163,0.00955733098089695,-0.0053476388566195965,0.0
470,5,-0.0003896315465681255,0.0002639842568896711,0.0011434718035161495,0.0062782373279333115,0.006273095961660147,0.005914777517318726,0.012238278053700924,0.030727870762348175,-0.012825105339288712,-0.030635453760623932,0.0621882788836956,-0.37818798422813416,0.0,0.0,0.0,0.0032486163545399904,-0.000670959590934217,-0.0,0.0,0.0,0.0,-0.0018281098455190659,-0.010850954800844193,-0.006796999368816614,8577.0,17610.0,10371.0,16239.0,0.1523749679327011,0.7117897868156433,0.23088400065898895,0.6005069017410278,0.0,0.0,0.0,0.0,7903.0,17950.0,9411.0,16750.0,1.6885530948638916,0.020018245466132106,-0.3095546771582197,-3.103275683009269,0.0027299874927848577,0.010167643427848816,0.0
475,5,-0.00036384721170179546,0.0002522401337046176,0.0011339071206748486,0.005605412647128105,0.003918534144759178,0.0035136763472110033,0.012238278053700924,0.030727870762348175,-0.012825105339288712,-0.030635453760623932,0.0621882788836956,-0.37818798422813416,0.0,0.0,0.0,0.0032486163545399904,-0.000670959590934217,-0.0,0.0,0.0,0.0,-0.0018281098455190659,-0.010850954800844193,-0.006796999368816614,8577.0,17610.0,10371.0,16239.0,0.1523749679327011,0.7117897868156433,0.23088400065898895,0.6005069017410278,0.0,0.0,0.0,0.0,7903.0,17950.0,9411.0,16750.0,1.6885530948638916,0.019448054668374234,-0.30972276794820325,-3.105197153311818,0.0027299874927848577,0.010167643427848816,0.0
