timestamp,dt,pos_x,pos_y,pos_z,vel_x,vel_y,vel_z,roll,pitch,yaw,agv_x,agv_y,agv_z,x_ref,y_ref,z_ref,roll_ref,pitch_ref,yaw_ref,x_vel_ref,y_vel_ref,z_vel_ref,x_torque,y_torque,z_torque,w0,w1,w2,w3,u0,u1,u2,u3,m0req,m1req,m2req,m3req,thrust0,thrust1,thrust2,thrust3,thrust_ref,roll_vicon,pitch_vicon,yaw_vicon,acc_x,acc_y,acc_z
5,5,0.0,0.0,0.0,-0.0007180299144238234,0.0017892257310450077,-0.0010919887572526932,0.13623976707458496,0.05397013947367668,-0.0012173907598480582,0.0019550106953829527,-0.001956220483407378,0.0005450677126646042,0.0,0.0,0.0,-0.0022000400349497795,-0.0006791490013711154,-0.0,0.0,0.0,0.0,-0.04084663465619087,-0.016262739896774292,-0.0001312557578785345,1495.0,1495.0,1495.0,1495.0,0.0,0.0,0.0,0.0,0.0,0.0,0.0,0.0,1495.0,1495.0,1495.0,1495.0,1.6453485488891602,0.05817850315262981,0.041619919652292794,-0.03554131385427524,0.0026926121208816767,-0.006709596607834101,0.0
31,26,0.0,0.0,0.0,-0.0004309833166189492,-0.0011175962863489985,-0.0015826307935640216,0.13623976707458496,0.05397013947367668,-0.0012173907598480582,0.0019550106953829527,-0.001956220483407378,0.0005450677126646042,0.0,0.0,0.0,-0.0022000400349497795,-0.0006791490013711154,-0.0,0.0,0.0,0.0,-0.04084663465619087,-0.016262739896774292,-0.0001312557578785345,1495.0,1495.0,1495.0,1495.0,0.0,0.0,0.0,0.0,0.0,0.0,0.0,0.0,1495.0,1495.0,1495.0,1495.0,1.6453485488891602,0.058131897415406975,0.04205997941275134,-0.035675260260151144,0.0026926121208816767,-0.006709596607834101,0.0
36,5,0.0,0.0,0.0,-7.088646088959649e-05,-0.00042287897667847574,-0.0030710489954799414,0.1362736076116562,0.05401989817619324,-0.0012163518695160747,-0.001262742094695568,0.001164822606369853,-0.00015798919775988907,0.0,0.0,0.0,0.0005248336237855256,-6.767457671230659e-05,-0.0,0.0,0.0,0.0,-0.04151780903339386,-0.016397716477513313,-0.00011150388309033588,15071.0,17078.0,11785.0,8783.0,0.5131814479827881,0.6674566268920898,0.3041415214538574,0.1605689823627472,0.0,0.0,0.0,0.0,1495.0,1495.0,1495.0,1495.0,1.6301109790802002,0.0578368019026218,0.04163213903740458,-0.0358065286651491,0.00026582423015497625,0.001585796126164496,0.0
54,18,0.0,0.0,0.0,-1.8215558156953193e-05,-0.0006759706302545965,0.0019801538437604904,0.1362736076116562,0.05401989817619324,-0.0012163518695160747,-0.001262742094695568,0.001164822606369853,-0.00015798919775988907,0.0,0.0,0.0,0.0005248336237855256,-6.767457671230659e-05,-0.0,0.0,0.0,0.0,-0.04151780903339386,-0.016397716477513313,-0.00011150388309033588,15071.0,17078.0,11785.0,8783.0,0.5131814479827881,0.6674566268920898,0.3041415214538574,0.1605689823627472,0.0,0.0,0.0,0.0,1495.0,1495.0,1495.0,1495.0,1.6301109790802002,0.057874628826450183,0.04155948264880294,-0.035414224158869696,0.00026582423015497625,0.001585796126164496,0.0
59,5,0.0,0.0,0.0,0.00012236073962412775,0.0006215594476088881,0.0013691935455426574,0.1362736076116562,0.05401989817619324,-0.0012163518695160747,-0.001262742094695568,0.001164822606369853,-0.00015798919775988907,0.0,0.0,0.0,-0.0007704305462539196,0.00011666742648230866,-0.0,0.0,0.0,0.0,-0.04151780903339386,-0.016397716477513313,-0.00011150388309033588,15071.0,17078.0,11785.0,8783.0,0.5131814479827881,0.6674566268920898,0.3041415214538574,0.1605689823627472,0.0,0.0,0.0,0.0,1495.0,1495.0,1495.0,1495.0,1.6321947574615479,0.05787697273125731,0.042456506477592075,-0.03570904629899591,-0.00045885276631452143,-0.002330848015844822,0.0
64,5,0.0,0.0,0.0,-0.0008271908736787736,0.00055663101375103,-0.0015555876307189465,0.1362736076116562,0.05401989817619324,-0.0012163518695160747,-0.001262742094695568,0.001164822606369853,-0.00015798919775988907,0.0,0.0,0.0,-0.0007704305462539196,0.00011666742648230866,-0.0,0.0,0.0,0.0,-0.04151780903339386,-0.016397716477513313,-0.00011150388309033588,15071.0,17078.0,11785.0,8783.0,0.5131814479827881,0.6674566268920898,0.3041415214538574,0.1605689823627472,0.0,0.0,0.0,0.0,1495.0,1495.0,1495.0,1495.0,1.6321947574615479,0.05746630663184508,0.042224182212734204,-0.03592642524212987,-0.00045885276631452143,-0.002330848015844822,0.0
69,5,4.402992999530397e-06,-6.028497864463134e-06,2.119693817803636e-06,0.00019748280465137213,0.0009460721630603075,-0.0008765982929617167,0.13627426326274872,0.05402546748518944,-0.0012145387008786201,-0.0028389624785631895,-0.004353464115411043,0.0009724409901537001,0.0,0.0,0.0,-0.0007704305462539196,0.00011666742648230866,-0.0,0.0,0.0,0.0,-0.04158550873398781,-0.0165382232517004,-5.965366290183738e-05,14986.0,16997.0,11849.0,8826.0,0.5070518255233765,0.6608736515045166,0.30771976709365845,0.1622888296842575,0.0,0.0,0.0,0.0,14984.0,17004.0,11839.0,8828.0,1.6321947574615479,0.05780168377983672,0.04219701756901007,-0.03575383866468488,-0.00045885276631452143,-0.002330848015844822,0.0
74,5,5.823562787554692e-07,-1.168614653579425e-05,1.1689446182572283e-05,-0.0003794832737185061,0.0010573467006906867,-0.0014990096678957343,0.13627426326274872,0.05402546748518944,-0.0012145387008786201,-0.0028389624785631895,-0.004353464115411043,0.0009724409901537001,0.0,0.0,0.0,-0.0011811100412160158,0.00019404060731176287,-0.0,0.0,0.0,0.0,-0.04158550873398781,-0.0165382232517004,-5.965366290183738e-05,14986.0,16997.0,11849.0,8826.0,0.5070518255233765,0.6608736515045166,0.30771976709365845,0.1622888296842575,0.0,0.0,0.0,0.0,14984.0,17004.0,11839.0,8828.0,1.6356836557388306,0.05789359084982397,0.04222108277854011,-0.035890968801467395,-0.0007647923775948584,-0.0035809483379125595,0.0
79,5,4.8618357340046714e-08,-5.244804924586788e-06,1.1397541129554156e-05,-0.00021584186470136046,-0.00035002236836589873,-0.0005645753117278218,0.13631080090999603,0.05404515564441681,-0.0012077591381967068,-0.0003501111059449613,0.00053206249140203,0.003036953741684556,0.0,0.0,0.0,0.0004249155754223466,-0.00020602102449629456,-0.0,0.0,0.0,0.0,-0.04077143594622612,-0.01624058559536934,-0.000178894231794402,14967.0,16997.0,11744.0,8809.0,0.5057486891746521,0.6608430743217468,0.3019023537635803,0.16161684691905975,0.0,0.0,0.0,0.0,15002.0,16970.0,11790.0,8739.0,1.6298651695251465,0.05786309349243953,0.04232263178803638,-0.03591850227033485,0.0008091240306384861,0.0012836980167776346,0.0
86,6,-1.5458591633432661e-06,-1.3479613699018955e-05,-7.368435035459697e-06,-0.0002776740584522486,0.0008481680997647345,0.002026087138801813,0.13631080090999603,0.05404515564441681,-0.0012077591381967068,-0.0003501111059449613,0.00053206249140203,0.003036953741684556,0.0,0.0,0.0,0.0004249155754223466,-0.00020602102449629456,-0.0,0.0,0.0,0.0,-0.04077143594622612,-0.01624058559536934,-0.000178894231794402,14967.0,16997.0,11744.0,8809.0,0.5057486891746521,0.6608430743217468,0.3019023537635803,0.16161684691905975,0.0,0.0,0.0,0.0,15002.0,16970.0,11790.0,8739.0,1.6298651695251465,0.05838892880576443,0.04123417120644161,-0.035449414933877134,0.0008091240306384861,0.0012836980167776346,0.0
91,5,7.3587530096119735e-06,-1.0822674994415138e-05,-1.851308115874417e-05,0.0009574838331900537,2.0434616089914925e-05,0.002147792372852564,0.1362750232219696,0.05399258807301521,-0.001198731828480959,0.0007777477730996907,-0.0013847335940226912,-0.0013673353241756558,0.0,0.0,0.0,0.0004249155754223466,-0.00020602102449629456,-0.0,0.0,0.0,0.0,-0.041186001151800156,-0.016111154109239578,-0.00016437012527603656,14999.0,17028.0,11704.0,8796.0,0.5079889893531799,0.6634159684181213,0.2996945083141327,0.1610952913761139,0.0,0.0,0.0,0.0,15037.0,17031.0,11747.0,8751.0,1.6298651695251465,0.05847238435607772,0.04155883916694128,-0.03563066057769527,-0.0036310788709670305,-0.00013623185805045068,0.0
96,5,1.0818774171639234e-05,1.7720434470902546e-06,-2.15536911127856e-05,0.0007981960661709309,-0.0015031923539936543,0.0012239901116117835,0.1362750232219696,0.05399258807301521,-0.001198731828480959,0.0007777477730996907,-0.0013847335940226912,-0.0013673353241756558,0.0,0.0,0.0,-4.493565938901156e-05,0.0009213080047629774,-0.0,0.0,0.0,0.0,-0.041186001151800156,-0.016111154109239578,-0.00016437012527603656,14999.0,17028.0,11704.0,8796.0,0.5079889893531799,0.6634159684181213,0.2996945083141327,0.1610952913761139,0.0,0.0,0.0,0.0,15037.0,17031.0,11747.0,8751.0,1.635607123374939,0.057998208933597716,0.04107684732887289,-0.03550904877802741,-0.0036310788709670305,-0.00013623185805045068,0.0
101,5,1.9703018551808782e-05,8.787139449850656e-06,-3.312609260319732e-05,0.0013853877317160368,-0.001443088403902948,0.0018782844999805093,0.13627547025680542,0.05398613214492798,-0.0012032254599034786,0.003184420056641102,-0.0011748641263693571,-0.0002596344274934381,0.0,0.0,0.0,0.0017891355091705918,0.0013368905056267977,-0.0,0.0,0.0,0.0,-0.041383568197488785,-0.01618368737399578,-0.00011645369522739202,15039.0,17035.0,11731.0,8761.0,0.5108678936958313,0.6639651656150818,0.3012009859085083,0.1596495360136032,0.0,0.0,0.0,0.0,15027.0,17045.0,11719.0,8777.0,1.6463814973831177,0.05869779313404016,0.04169431367371162,-0.035489742251367244,-0.005303680896759033,0.005459864158183336,0.0
106,5,4.527651526586851e-06,1.2301427432248602e-06,-3.2768468372523785e-05,-0.0012668889248743653,0.00032960419775918126,0.0007083985838107765,0.13627547025680542,0.05398613214492798,-0.0012032254599034786,0.003184420056641102,-0.0011748641263693571,-0.0002596344274934381,0.0,0.0,0.0,0.0017891355091705918,0.0013368905056267977,-0.0,0.0,0.0,0.0,-0.041383568197488785,-0.01618368737399578,-0.00011645369522739202,15039.0,17035.0,11731.0,8761.0,0.5108678936958313,0.6639651656150818,0.3012009859085083,0.1596495360136032,0.0,0.0,0.0,0.0,15027.0,17045.0,11719.0,8777.0,1.6463814973831177,0.05816386396085044,0.04178534837970152,-0.03551455854078106,-0.005303680896759033,0.005459864158183336,0.0
111,5,3.5260929962532828e-06,-6.400210168067133e-06,-5.483252971316688e-05,-0.0006269426085054874,0.0010474841110408306,0.0029310467652976513,0.13628563284873962,0.05399690940976143,-0.0012096831342205405,-0.0009749482851475477,-0.0069885882548987865,-0.003933930303901434,0.0,0.0,0.0,0.0017891355091705918,0.0013368905056267977,-0.0,0.0,0.0,0.0,-0.04111652821302414,-0.015974771231412888,-5.52310302737169e-05,15045.0,16999.0,11749.0,8797.0,0.511286199092865,0.661004364490509,0.3021968901157379,0.16111969947814941,0.0,0.0,0.0,0.0,14955.0,17020.0,11723.0,8808.0,1.6463814973831177,0.05841430668168476,0.04159502840871171,-0.035453675013334435,-0.005303680896759033,0.005459864158183336,0.0
116,5,1.5130642623262247e-06,-6.38779920336674e-06,-3.159689367748797e-05,-0.0004923404776491225,0.0004175042558927089,-0.0016158577054738998,0.13628563284873962,0.05399690940976143,-0.0012096831342205405,-0.0009749482851475477,-0.0069885882548987865,-0.003933930303901434,0.0,0.0,0.0,-0.00130520761013031,-0.0005906285950914025,-0.0,0.0,0.0,0.0,-0.04111652821302414,-0.015974771231412888,-5.52310302737169e-05,15045.0,16999.0,11749.0,8797.0,0.511286199092865,0.661004364490509,0.3021968901157379,0.16111969947814941,0.0,0.0,0.0,0.0,14955.0,17020.0,11723.0,8808.0,1.6382224559783936,0.057774612532615184,0.041647417559484645,-0.03556875510719096,0.002331518568098545,-0.003963335417211056,0.0
122,6,-1.225420305672742e-06,-5.1022407205891795e-06,-1.922184856084641e-05,-0.0005255543510429561,1.2734714800899383e-05,-0.0021313484758138657,0.13627740740776062,0.05398964136838913,-0.0012149132089689374,0.0016183824045583606,-0.0005247567314654589,0.0004057416517753154,0.0,0.0,0.0,-2.510572267055977e-05,-0.000503116229083389,-0.0,0.0,0.0,0.0,-0.040551502257585526,-0.015942417085170746,-9.954197594197467e-05,15045.0,16999.0,11749.0,8797.0,0.511286199092865,0.661004364490509,0.3021968901157379,0.16111969947814941,0.0,0.0,0.0,0.0,15055.0,16993.0,11768.0,8767.0,1.6311179399490356,0.05810601321420721,0.04169068857668601,-0.03558012939739244,0.0019774502143263817,-7.590434688609093e-05,0.0
128,6,1.420537955709733e-05,-1.5466323020518757e-05,9.443111594009679e-06,0.0015686405822634697,0.0007375106797553599,-0.0036769972648471594,0.13627740740776062,0.05398964136838913,-0.0012149132089689374,0.0016183824045583606,-0.0005247567314654589,0.0004057416517753154,0.0,0.0,0.0,-2.510572267055977e-05,-0.000503116229083389,-0.0,0.0,0.0,0.0,-0.040551502257585526,-0.015942417085170746,-9.954197594197467e-05,15045.0,16999.0,11749.0,8797.0,0.511286199092865,0.661004364490509,0.3021968901157379,0.16111969947814941,0.0,0.0,0.0,0.0,15055.0,16993.0,11768.0,8767.0,1.6311179399490356,0.058368727382776237,0.0414287468739096,-0.03569599553628093,0.0019774502143263817,-7.590434688609093e-05,0.0
133,5,5.118640274304198e-06,-1.1246229405514896e-05,-7.58505166231771e-06,-0.00046295239008031785,-0.00021140709577593952,0.0005725806695409119,0.13628734648227692,0.05399821326136589,-0.0011985664023086429,-0.0014409333234652877,-0.0015036110999062657,-0.00038213649531826377,0.0,0.0,0.0,-0.0009357422823086381,0.0015049873618409038,-0.0,0.0,0.0,0.0,-0.04155580326914787,-0.016603194177150726,-0.00011164451279910281,15036.0,17070.0,11772.0,8702.0,0.5106298923492432,0.6668059825897217,0.3034650385379791,0.1573215126991272,0.0,0.0,0.0,0.0,15064.0,16999.0,11827.0,8923.0,1.6436631679534912,0.058369150106168714,0.04136531595633657,-0.03559454551040889,-0.005960699636489153,-0.0028508708346635103,0.0
138,5,5.294662059895927e-06,-6.605864655284677e-06,5.911798780289246e-06,-0.00016405836504418403,-0.000641406571958214,-0.0013905897503718734,0.13628734648227692,0.05399821326136589,-0.0011985664023086429,-0.0014409333234652877,-0.0015036110999062657,-0.00038213649531826377,0.0,0.0,0.0,-0.0009357422823086381,0.0015049873618409038,-0.0,0.0,0.0,0.0,-0.04155580326914787,-0.016603194177150726,-0.00011164451279910281,15036.0,17070.0,11772.0,8702.0,0.5106298923492432,0.6668059825897217,0.3034650385379791,0.1573215126991272,0.0,0.0,0.0,0.0,15064.0,16999.0,11827.0,8923.0,1.6436631679534912,0.05804683861202003,0.04152398771434879,-0.03565765354977245,-0.005960699636489153,-0.0028508708346635103,0.0
143,5,3.3151825391541934e-06,5.162465868124855e-07,1.1321977581246756e-05,-0.0003031608648598194,-0.0011112160282209516,-0.0012054573744535446,0.1363118588924408,0.05396432802081108,-0.0011927802115678787,-0.0015463317977264524,-0.0030541957821696997,-0.003318904433399439,0.0,0.0,0.0,-0.0009357422823086381,0.0015049873618409038,-0.0,0.0,0.0,0.0,-0.041155941784381866,-0.016510577872395515,-0.0001938165951287374,14954.0,17055.0,11715.0,8781.0,0.5047900676727295,0.6655842065811157,0.3002857267856598,0.16045796871185303,0.0,0.0,0.0,0.0,15063.0,17039.0,11765.0,8727.0,1.6436631679534912,0.058166272716078514,0.041540514281300164,-0.035763615883105886,-0.005960699636489153,-0.0028508708346635103,0.0
148,5,-1.6856552065291908e-07,4.2608198782545514e-06,-6.804953500250122e-06,-0.0005393141182139516,-0.0008938352111726999,0.0016930487472563982,0.1363118588924408,0.05396432802081108,-0.0011927802115678787,-0.0015463317977264524,-0.0030541957821696997,-0.003318904433399439,0.0,0.0,0.0,0.001373826526105404,-0.000283459055935964,-0.0,0.0,0.0,0.0,-0.041155941784381866,-0.016510577872395515,-0.0001938165951287374,14954.0,17055.0,11715.0,8781.0,0.5047900676727295,0.6655842065811157,0.3002857267856598,0.16045796871185303,0.0,0.0,0.0,0.0,15063.0,17039.0,11765.0,8727.0,1.637460708618164,0.05835551995091338,0.041966343972864924,-0.03556777781629836,0.0011184400646016002,0.004169760271906853,0.0
153,5,-4.37346670878469e-07,3.2342675240215613e-06,-8.672567673784215e-06,-0.0002479793911334127,-0.00023434776812791824,0.0009013332310132682,0.1363118588924408,0.05396432802081108,-0.0011927802115678787,-0.0015463317977264524,-0.0030541957821696997,-0.003318904433399439,0.0,0.0,0.0,0.001373826526105404,-0.000283459055935964,-0.0,0.0,0.0,0.0,-0.041155941784381866,-0.016510577872395515,-0.0001938165951287374,14954.0,17055.0,11715.0,8781.0,0.5047900676727295,0.6655842065811157,0.3002857267856598,0.16045796871185303,0.0,0.0,0.0,0.0,15063.0,17039.0,11765.0,8727.0,1.637460708618164,0.05839014958105883,0.0415284848998965,-0.035479177349714126,0.0011184400646016002,0.004169760271906853,0.0
158,5,-2.830914581863908e-06,9.941808457369916e-06,-1.744477413012646e-05,-0.00038641990977339447,-0.000898644037079066,0.0014131980715319514,0.1363193392753601,0.053981930017471313,-0.001164191635325551,0.007680422160774469,-0.013001812621951103,0.014464857056736946,0.0,0.0,0.0,0.00029684873879887164,-0.00023743484052829444,-0.0,0.0,0.0,0.0,-0.04152798652648926,-0.01594332978129387,1.9214328858652152e-05,15163.0,16992.0,11845.0,8666.0,0.5198323726654053,0.6604522466659546,0.30749496817588806,0.1558835357427597,0.0,0.0,0.0,0.0,14995.0,17017.0,11755.0,8729.0,1.6292564868927002,0.05819765919523462,0.041729712953139056,-0.03499644270340362,0.0009321499965153635,0.0008964647422544658,0.0
163,5,-8.25197494123131e-05,-2.525540185160935e-05,2.0955665149813285e-06,-0.009717227891087532,0.003864207537844777,-0.0017795617459341884,0.1363193392753601,0.053981930017471313,-0.001164191635325551,0.007680422160774469,-0.013001812621951103,0.014464857056736946,0.0,0.0,0.0,0.00029684873879887164,-0.00023743484052829444,-0.0,0.0,0.0,0.0,-0.04152798652648926,-0.01594332978129387,1.9214328858652152e-05,15163.0,16992.0,11845.0,8666.0,0.5198323726654053,0.6604522466659546,0.30749496817588806,0.1558835357427597,0.0,0.0,0.0,0.0,14995.0,17017.0,11755.0,8729.0,1.6292564868927002,0.057138389203997046,0.04380121898600166,-0.03724245501433846,0.0009321499965153635,0.0008964647422544658,0.0
168,5,-3.163629662594758e-05,-0.000138164556119591,0.0001408158423146233,0.0022191230673342943,0.015094781294465065,-0.01735825650393963,0.13633950054645538,0.05409867316484451,-0.0011324124643579125,0.000110780936665833,0.00704577099531889,-0.15497013926506042,0.0,0.0,0.0,-0.004556396044790745,-0.008838832378387451,-0.0,0.0,0.0,0.0,-0.04147648811340332,-0.016020579263567924,-0.0024196445010602474,13852.0,18057.0,10057.0,10725.0,0.42929506301879883,0.7500965595245361,0.21596117317676544,0.24831035733222961,0.0,0.0,0.0,0.0,15479.0,16708.0,12296.0,7989.0,1.7322639226913452,0.04961062994125877,0.03412195660501131,-0.03928330173826805,0.0368935726583004,-0.014629899524152279,0.0
173,5,-2.9551481929956935e-05,-0.00013681019481737167,0.00014294801803771406,0.0011378269409760833,0.0058753895573318005,-0.007199164479970932,0.13633950054645538,0.05409867316484451,-0.0011324124643579125,0.000110780936665833,0.00704577099531889,-0.15497013926506042,0.0,0.0,0.0,-0.004556396044790745,-0.008838832378387451,-0.0,0.0,0.0,0.0,-0.04147648811340332,-0.016020579263567924,-0.0024196445010602474,13852.0,18057.0,10057.0,10725.0,0.42929506301879883,0.7500965595245361,0.21596117317676544,0.24831035733222961,0.0,0.0,0.0,0.0,15479.0,16708.0,12296.0,7989.0,1.7322639226913452,0.048802598386999074,0.033416621905875875,-0.03896601090859279,0.0368935726583004,-0.014629899524152279,0.0
178,5,-1.4320628906716593e-05,-0.000125183243653737,0.00017726591613609344,0.00228283298201859,0.0009549222304485738,-0.006997814401984215,0.13630571961402893,0.053951703011989594,-0.0006645364919677377,-0.034652020782232285,0.007482283748686314,0.047941356897354126,0.0,0.0,0.0,-0.007281711790710688,0.0010088988346979022,-0.0,0.0,0.0,0.0,-0.04068484902381897,-0.016171284019947052,0.004169787745922804,16012.0,16031.0,13109.0,6723.0,0.5830053687095642,0.5844272971153259,0.3818585276603699,0.08816953748464584,0.0,0.0,0.0,0.0,14883.0,17142.0,11532.0,9125.0,1.688225269317627,0.04971844134682268,0.03346942844191114,-0.039882813747902715,-0.004104103893041611,-0.022785862907767296,0.0
183,5,-2.3682818209636025e-05,-0.00014487611770164222,0.00017231953097507358,-0.00021032955555710942,0.0027451138012111187,-0.00220555835403502,0.13630571961402893,0.053951703011989594,-0.0006645364919677377,-0.034652020782232285,0.007482283748686314,0.047941356897354126,0.0,0.0,0.0,-0.007281711790710688,0.0010088988346979022,-0.0,0.0,0.0,0.0,-0.04068484902381897,-0.016171284019947052,0.004169787745922804,16012.0,16031.0,13109.0,6723.0,0.5830053687095642,0.5844272971153259,0.3818585276603699,0.08816953748464584,0.0,0.0,0.0,0.0,14883.0,17142.0,11532.0,9125.0,1.688225269317627,0.04973712286495617,0.03348660168559817,-0.03914240521586527,-0.004104103893041611,-0.022785862907767296,0.0
189,5,-3.653663952718489e-05,-0.00014825559628661722,0.00017831548757385463,-0.0016265901504084468,0.0015035817632451653,-0.0016017383895814419,0.13633596897125244,0.05376284196972847,-0.0014816859038546681,0.05539659783244133,-0.006936040706932545,0.10831490904092789,0.0,0.0,0.0,-0.0036139246076345444,-0.0002303939254488796,-0.0,0.0,0.0,0.0,-0.04340968653559685,-0.018762586638331413,-4.6941451728343964e-05,15848.0,17121.0,12870.0,7806.0,0.5705069899559021,0.671014130115509,0.36716365814208984,0.12357915937900543,0.0,0.0,0.0,0.0,13878.0,18591.0,10540.0,11052.0,1.655890703201294,0.04917088726280646,0.03378541521452058,-0.039499476115496854,0.0009192883153446019,-0.01109219714999199,0.0
194,5,-4.22834673372563e-05,-0.00014178546553011984,0.0001724237808957696,-0.0013402554905042052,-0.00017498193483334035,6.6309206886217e-05,0.13633596897125244,0.05376284196972847,-0.0014816859038546681,0.05539659783244133,-0.006936040706932545,0.10831490904092789,0.0,0.0,0.0,-0.0036139246076345444,-0.0002303939254488796,-0.0,0.0,0.0,0.0,-0.04340968653559685,-0.018762586638331413,-4.6941451728343964e-05,15848.0,17121.0,12870.0,7806.0,0.5705069899559021,0.671014130115509,0.36716365814208984,0.12357915937900543,0.0,0.0,0.0,0.0,13878.0,18591.0,10540.0,11052.0,1.655890703201294,0.04973957170632904,0.03442346939220289,-0.039678413610402814,0.0009192883153446019,-0.01109219714999199,0.0
199,5,-4.1276744013885036e-05,-0.0001367852237308398,0.00017486131400801241,-0.0004152953624725342,-0.0006700214580632746,-0.00026598048862069845,0.13616865873336792,0.05355671048164368,-0.0014322185888886452,-0.043480753898620605,0.04609085991978645,-0.03385411947965622,0.0,0.0,0.0,-4.123062171856873e-05,-0.0013307613553479314,-0.0,0.0,0.0,0.0,-0.04235435277223587,-0.014848295599222183,-0.002923321910202503,14672.0,17769.0,10814.0,10255.0,0.484882652759552,0.7252469658851624,0.2527765929698944,0.2253190577030182,0.0,0.0,0.0,0.0,16003.0,16725.0,12643.0,7518.0,1.6400160789489746,0.050239703042191164,0.03418255729704634,-0.03933243747767994,0.005258962046355009,-0.00012533619883470237,-0.0
204,5,-2.642030995048117e-05,-0.00014709332026541233,0.00016404925554525107,0.0016166537534445524,0.0009689614525996149,0.0011910549364984035,0.13616865873336792,0.05355671048164368,-0.0014322185888886452,-0.043480753898620605,0.04609085991978645,-0.03385411947965622,0.0,0.0,0.0,-4.123062171856873e-05,-0.0013307613553479314,-0.0,0.0,0.0,0.0,-0.04235435277223587,-0.014848295599222183,-0.002923321910202503,14672.0,17769.0,10814.0,10255.0,0.484882652759552,0.7252469658851624,0.2527765929698944,0.2253190577030182,0.0,0.0,0.0,0.0,16003.0,16725.0,12643.0,7518.0,1.6400160789489746,0.05063878024750069,0.03417620245724081,-0.03951747357013991,0.005258962046355009,-0.00012533619883470237,-0.0
209,5,-1.986388087971136e-05,-0.00012514392437878996,0.0001515907351858914,0.0014334330335259438,-0.002246342832222581,0.0019714441150426865,0.1362496018409729,0.053469620645046234,-0.001204836298711598,-0.04030965268611908,0.0024593744892627,-0.06554568558931351,0.0,0.0,0.0,-0.0014570272760465741,0.0014919069362804294,-0.0,0.0,0.0,0.0,-0.04231633245944977,-0.016048461198806763,-0.0009243919630534947,14697.0,17511.0,11171.0,9590.0,0.48666274547576904,0.7034003734588623,0.2710936665534973,0.19473396241664886,0.0,0.0,0.0,0.0,15731.0,16665.0,12347.0,7822.0,1.6458088159561157,0.050371596690689205,0.03439276942328152,-0.0391971220846962,-0.005916602443903685,-0.004444831982254982,-0.0
214,5,-2.6568663088255562e-05,-0.00012603661161847413,0.00016277885879389942,-0.00023120053810998797,-0.0007914140005595982,-0.000553996185772121,0.1362496018409729,0.053469620645046234,-0.001204836298711598,-0.04030965268611908,0.0024593744892627,-0.06554568558931351,0.0,0.0,0.0,-0.0014570272760465741,0.0014919069362804294,-0.0,0.0,0.0,0.0,-0.04231633245944977,-0.016048461198806763,-0.0009243919630534947,14697.0,17511.0,11171.0,9590.0,0.48666274547576904,0.7034003734588623,0.2710936665534973,0.19473396241664886,0.0,0.0,0.0,0.0,15731.0,16665.0,12347.0,7822.0,1.6458088159561157,0.05108901960841635,0.03539253407096534,-0.03872239486644313,-0.005916602443903685,-0.004444831982254982,-0.0
219,5,-1.591536056366749e-05,-0.00011764251394197345,0.00016272506036330014,0.0011859160149469972,-0.001323857344686985,-0.00021514235413633287,0.13620001077651978,0.05334620922803879,-0.0012219568016007543,0.034116506576538086,0.006874046288430691,0.05769069492816925,0.0,0.0,0.0,0.000750821374822408,-0.0002577094710431993,-0.0,0.0,0.0,0.0,-0.04194314032793045,-0.016223715618252754,0.0011481294641271234,15581.0,16629.0,12362.0,7744.0,0.5504948496818542,0.631202757358551,0.3369370400905609,0.12138139456510544,0.0,0.0,0.0,0.0,14960.0,17216.0,11516.0,9070.0,1.6324994564056396,0.05199536244813304,0.03601338466454094,-0.03876154721222023,0.0010137601057067513,0.0022719467524439096,0.0
224,5,-4.83661210637365e-07,-9.47387597989291e-05,0.00017035372729878873,0.002326170215383172,-0.0032779930625110865,-0.001001496915705502,0.13620001077651978,0.05334620922803879,-0.0012219568016007543,0.034116506576538086,0.006874046288430691,0.05769069492816925,0.0,0.0,0.0,0.000750821374822408,-0.0002577094710431993,-0.0,0.0,0.0,0.0,-0.04194314032793045,-0.016223715618252754,0.0011481294641271234,15581.0,16629.0,12362.0,7744.0,0.5504948496818542,0.631202757358551,0.3369370400905609,0.12138139456510544,0.0,0.0,0.0,0.0,14960.0,17216.0,11516.0,9070.0,1.6324994564056396,0.05289288214828386,0.03740091753443538,-0.03788305336875094,0.0010137601057067513,0.0022719467524439096,0.0
229,5,1.0636193110258318e-05,-0.00011949650070164353,0.00024700004723854363,0.0022648507729172707,0.0016597314970567822,-0.009598158299922943,0.13601335883140564,0.05329141020774841,-0.0016502727521583438,-0.08087671548128128,0.02788354642689228,0.03403846174478531,0.0,0.0,0.0,0.003812419483438134,0.0021729483269155025,-0.0,0.0,0.0,0.0,-0.040535904467105865,-0.015264718793332577,-0.0016613370971754193,14953.0,17070.0,11595.0,9265.0,0.504709005355835,0.6667953729629517,0.29373735189437866,0.18056713044643402,0.0,0.0,0.0,0.0,15611.0,16372.0,12433.0,7924.0,1.665371060371399,0.052251974918866864,0.03712783241749563,-0.03844925087855656,-0.008719845674932003,0.01176842488348484,0.0
234,5,9.314480848843232e-06,-7.891809946158901e-05,0.00022809897200204432,0.0007473347941413522,-0.004205515142530203,-0.0015711343148723245,0.13601335883140564,0.05329141020774841,-0.0016502727521583438,-0.08087671548128128,0.02788354642689228,0.03403846174478531,0.0,0.0,0.0,0.003812419483438134,0.0021729483269155025,-0.0,0.0,0.0,0.0,-0.040535904467105865,-0.015264718793332577,-0.0016613370971754193,14953.0,17070.0,11595.0,9265.0,0.504709005355835,0.6667953729629517,0.29373735189437866,0.18056713044643402,0.0,0.0,0.0,0.0,15611.0,16372.0,12433.0,7924.0,1.665371060371399,0.054097504343994456,0.0402277209217733,-0.037478975532876775,-0.008719845674932003,0.01176842488348484,0.0
239,5,1.1046049621654674e-05,-5.122096263221465e-05,0.0002730536798480898,0.0005067221354693174,-0.005005863029509783,-0.00602301862090826,0.13520580530166626,0.05244758352637291,-0.0014420195948332548,-0.09769821166992188,0.12155424803495407,-0.061978936195373535,0.0,0.0,0.0,0.004959687124937773,0.0007099010981619358,-0.0,0.0,0.0,0.0,-0.039667513221502304,-0.013467269949615002,-0.00129879848100245,14597.0,17182.0,10962.0,10068.0,0.4796940088272095,0.6760320663452148,0.2602843642234802,0.21648898720741272,0.0,0.0,0.0,0.0,14906.0,16807.0,11414.0,9745.0,1.6679308414459229,0.053802339331684684,0.041814967032370594,-0.03690597968553507,-0.0028531355783343315,0.015333370305597782,0.0
244,5,1.556002644065302e-05,-3.644011667347513e-05,0.00032263834145851433,0.0007443660288117826,-0.0037760466802865267,-0.008359365165233612,0.13520580530166626,0.05244758352637291,-0.0014420195948332548,-0.09769821166992188,0.12155424803495407,-0.061978936195373535,0.0,0.0,0.0,0.004959687124937773,0.0007099010981619358,-0.0,0.0,0.0,0.0,-0.039667513221502304,-0.013467269949615002,-0.00129879848100245,14597.0,17182.0,10962.0,10068.0,0.4796940088272095,0.6760320663452148,0.2602843642234802,0.21648898720741272,0.0,0.0,0.0,0.0,14906.0,16807.0,11414.0,9745.0,1.6679308414459229,0.05273524629359928,0.04257203412029448,-0.03624667785147396,-0.0028531355783343315,0.015333370305597782,0.0
249,5,5.619645435217535e-06,-4.1616265662014484e-05,0.000417805538745597,-0.0008950992487370968,-0.0008892810437828302,-0.014763809740543365,0.13373719155788422,0.05148373544216156,-0.0010872206185013056,-0.2822808623313904,0.12414590269327164,0.05298274755477905,0.0,0.0,0.0,0.0045241182669997215,0.0007172499317675829,-0.0,0.0,0.0,0.0,-0.03583788499236107,-0.012010249309241772,0.001929930062033236,15703.0,15956.0,12791.0,8885.0,0.559552788734436,0.5787588357925415,0.36238765716552734,0.16467168927192688,0.0,0.0,0.0,0.0,14415.0,16859.0,11575.0,10928.0,1.6643034219741821,0.05063183135412738,0.04531825136163119,-0.03708845082308299,-0.0028764076996594667,0.013956365175545216,0.0
254,5,4.106014966964722e-05,-1.689694784090534e-07,0.0005104237934574485,0.003894820809364319,-0.005329387728124857,-0.017019713297486305,0.13373719155788422,0.05148373544216156,-0.0010872206185013056,-0.2822808623313904,0.12414590269327164,0.05298274755477905,0.0,0.0,0.0,0.0045241182669997215,0.0007172499317675829,-0.0,0.0,0.0,0.0,-0.03583788499236107,-0.012010249309241772,0.001929930062033236,15703.0,15956.0,12791.0,8885.0,0.559552788734436,0.5787588357925415,0.36238765716552734,0.16467168927192688,0.0,0.0,0.0,0.0,14415.0,16859.0,11575.0,10928.0,1.6643034219741821,0.0495050519530742,0.04538636555536424,-0.036775515528457446,-0.0028764076996594667,0.013956365175545216,0.0
259,5,4.8356807383242995e-05,2.3409993445966393e-05,0.0006467232014983892,0.002433527261018753,-0.004961230792105198,-0.023163815960288048,0.12878166139125824,0.049844637513160706,-0.001175704295746982,-0.560138463973999,0.13900093734264374,0.026695990934967995,0.0,0.0,0.0,0.006367835681885481,0.0036358744837343693,-0.0,0.0,0.0,0.0,-0.030587637796998024,-0.011635850183665752,-0.0017319496255367994,14447.0,16465.0,12050.0,10983.0,0.4693337380886078,0.6182336807250977,0.3189919888973236,0.261371374130249,0.0,0.0,0.0,0.0,15516.0,15081.0,13794.0,9318.0,1.6928545236587524,0.04712010491408041,0.046653584083284814,-0.0370044776301602,-0.014831007458269596,0.019980885088443756,0.0
265,5,5.9177025832468644e-05,6.068711445550434e-05,0.0008039549575187266,0.002271836856380105,-0.006457746960222721,-0.028133340179920197,0.12878166139125824,0.049844637513160706,-0.001175704295746982,-0.560138463973999,0.13900093734264374,0.026695990934967995,0.0,0.0,0.0,0.006367835681885481,0.0036358744837343693,-0.0,0.0,0.0,0.0,-0.030587637796998024,-0.011635850183665752,-0.0017319496255367994,14447.0,16465.0,12050.0,10983.0,0.4693337380886078,0.6182336807250977,0.3189919888973236,0.261371374130249,0.0,0.0,0.0,0.0,15516.0,15081.0,13794.0,9318.0,1.6928545236587524,0.042529369832750644,0.04837521734072476,-0.03730538226361479,-0.014831007458269596,0.019980885088443756,0.0
270,5,6.721598765579984e-05,9.092059190152213e-05,0.0009277078206650913,0.0018734104232862592,-0.006211115978658199,-0.026103675365447998,0.122911736369133,0.04880758747458458,-0.0006316739018075168,-0.9338878393173218,0.15244871377944946,-0.0720282569527626,0.0,0.0,0.0,0.007808200549334288,0.002164181089028716,-0.0,0.0,0.0,0.0,-0.02230369672179222,-0.010937202721834183,-0.0007476192549802363,13871.0,16086.0,12417.0,11798.0,0.43058791756629944,0.5887206196784973,0.3401305079460144,0.3048642873764038,0.0,0.0,0.0,0.0,13244.0,16249.0,12180.0,12521.0,1.6960928440093994,0.03780099542335441,0.04925927952878734,-0.03715873033878035,-0.008844668045639992,0.02454715222120285,0.0
275,5,8.27595722512342e-05,0.00014063807611819357,0.0010179592063650489,0.0026145942974835634,-0.008450544439256191,-0.021271640434861183,0.122911736369133,0.04880758747458458,-0.0006316739018075168,-0.9338878393173218,0.15244871377944946,-0.0720282569527626,0.0,0.0,0.0,0.007808200549334288,0.002164181089028716,-0.0,0.0,0.0,0.0,-0.02230369672179222,-0.010937202721834183,-0.0007476192549802363,13871.0,16086.0,12417.0,11798.0,0.43058791756629944,0.5887206196784973,0.3401305079460144,0.3048642873764038,0.0,0.0,0.0,0.0,13244.0,16249.0,12180.0,12521.0,1.6960928440093994,0.03141973317832861,0.05024047478092266,-0.03653038089834484,-0.008844668045639992,0.02454715222120285,0.0
280,5,0.00010886265954468399,0.00018103157344739884,0.0010620581451803446,0.004178207833319902,-0.008227436803281307,-0.01380053348839283,0.109756700694561,0.04693935066461563,-0.00016255011723842472,-1.3141881227493286,0.1905927062034607,0.1483360230922699,0.0,0.0,0.0,0.010197890922427177,0.002479535760357976,-0.0,0.0,0.0,0.0,0.00017315075092483312,-0.005275358911603689,-0.002121106255799532,15151.0,13750.0,14985.0,10644.0,0.5189300179481506,0.42266085743904114,0.5070268511772156,0.2442367672920227,0.0,0.0,0.0,0.0,13730.0,14600.0,13884.0,12754.0,1.7173079252243042,0.02368486270753281,0.05167594783168428,-0.03687987176318636,-0.010260001756250858,0.03246036544442177,0.0
285,5,0.0001253539085155353,0.00024668077821843326,0.0010778376599773765,0.003650232683867216,-0.011168879456818104,-0.0074137551710009575,0.109756700694561,0.04693935066461563,-0.00016255011723842472,-1.3141881227493286,0.1905927062034607,0.1483360230922699,0.0,0.0,0.0,0.010197890922427177,0.002479535760357976,-0.0,0.0,0.0,0.0,0.00017315075092483312,-0.005275358911603689,-0.002121106255799532,15151.0,13750.0,14985.0,10644.0,0.5189300179481506,0.42266085743904114,0.5070268511772156,0.2442367672920227,0.0,0.0,0.0,0.0,13730.0,14600.0,13884.0,12754.0,1.7173079252243042,0.01594694463381201,0.05404532458083335,-0.03742523890184201,-0.010260001756250858,0.03246036544442177,0.0
290,5,0.0001031209685606882,0.00028036662843078375,0.0010324401082471013,-0.001207859255373478,-0.008509855717420578,0.002482210285961628,0.09746403247117996,0.04494022578001022,-0.00021926677436567843,-1.8205595016479492,0.297104150056839,-0.04581962525844574,0.0,0.0,0.0,0.01334673073142767,0.003414200386032462,-0.0,0.0,0.0,0.0,0.009673423133790493,-0.002888827119022608,-0.00019086409884039313,12586.0,14747.0,13473.0,14178.0,0.3501271605491638,0.4901406764984131,0.40479326248168945,0.45103174448013306,0.0,0.0,0.0,0.0,13650.0,12993.0,15198.0,13126.0,1.7478644847869873,0.00530209195099457,0.05787759836922142,-0.03826201636347404,-0.014378353022038937,0.04323821887373924,0.0
295,5,0.00018226090469397604,0.00037108658580109477,0.0009390919585712254,0.009013649076223373,-0.014290334656834602,0.012194662354886532,0.09746403247117996,0.04494022578001022,-0.00021926677436567843,-1.8205595016479492,0.297104150056839,-0.04581962525844574,0.0,0.0,0.0,0.01334673073142767,0.003414200386032462,-0.0,0.0,0.0,0.0,0.009673423133790493,-0.002888827119022608,-0.00019086409884039313,12586.0,14747.0,13473.0,14178.0,0.3501271605491638,0.4901406764984131,0.40479326248168945,0.45103174448013306,0.0,0.0,0.0,0.0,13650.0,12993.0,15198.0,13126.0,1.7478644847869873,-0.0015939168353349177,0.06052115817846183,-0.03757949417641678,-0.014378353022038937,0.04323821887373924,0.0
300,5,0.00021270783327054232,0.0004529008292593062,0.0008389680879190564,0.007259089965373278,-0.015533842146396637,0.016892729327082634,0.09746403247117996,0.04494022578001022,-0.00021926677436567843,-1.8205595016479492,0.297104150056839,-0.04581962525844574,0.0,0.0,0.0,0.01667019911110401,0.008023466914892197,-0.0,0.0,0.0,0.0,0.009673423133790493,-0.002888827119022608,-0.00019086409884039313,12586.0,14747.0,13473.0,14178.0,0.3501271605491638,0.4901406764984131,0.40479326248168945,0.45103174448013306,0.0,0.0,0.0,0.0,13650.0,12993.0,15198.0,13126.0,1.8004873991012573,-0.012676140957302948,0.06214788443540884,-0.037767930486568735,-0.03480479121208191,0.05562920868396759,-0.0
305,5,0.00022118643391877413,0.0005202121683396399,0.0007485862588509917,0.003921068273484707,-0.01429089903831482,0.017602913081645966,0.07421807199716568,0.04109644144773483,0.0002510002232156694,-1.9439280033111572,0.38265925645828247,-0.07638397067785263,0.0,0.0,0.0,0.01667019911110401,0.008023466914892197,-0.0,0.0,0.0,0.0,0.014966328628361225,-0.0017174548702314496,0.002216448774561286,12575.0,13527.0,14442.0,14754.0,0.3494836091995239,0.4082047939300537,0.46895748376846313,0.4906620383262634,0.0,0.0,0.0,0.0,11783.0,14059.0,13709.0,15578.0,1.8004873991012573,-0.02036734228747187,0.06470136550757678,-0.0377702706499868,-0.03480479121208191,0.05562920868396759,-0.0
310,5,0.00022408673248719424,0.0005454146303236485,0.0006705668638460338,0.0019164633704349399,-0.008740657940506935,0.01640349254012108,0.07421807199716568,0.04109644144773483,0.0002510002232156694,-1.9439280033111572,0.38265925645828247,-0.07638397067785263,0.0,0.0,0.0,0.017089778557419777,0.003708003321662545,-0.0,0.0,0.0,0.0,0.014966328628361225,-0.0017174548702314496,0.002216448774561286,12575.0,13527.0,14442.0,14754.0,0.3494836091995239,0.4082047939300537,0.46895748376846313,0.4906620383262634,0.0,0.0,0.0,0.0,11783.0,14059.0,13709.0,15578.0,1.7823091745376587,-0.027156764323792788,0.06753688318772666,-0.038900192852216485,-0.01592247746884823,0.05645333603024483,-0.0
315,5,0.00019127229461446404,0.0005490379990078509,0.0005592801608145237,-0.0031711466144770384,-0.0039310636930167675,0.019915800541639328,0.05922877788543701,0.03789777308702469,0.00023784050426911563,-1.7668484449386597,0.35756251215934753,0.11190292239189148,0.0,0.0,0.0,0.017089778557419777,0.003708003321662545,-0.0,0.0,0.0,0.0,0.014611353166401386,-0.0011661507887765765,-0.0032503921538591385,12068.0,14106.0,14400.0,15817.0,0.32002806663513184,0.4461967349052429,0.4660736322402954,0.5681889057159424,0.0,0.0,0.0,0.0,12725.0,13187.0,14869.0,14942.0,1.7823091745376587,-0.034189220186391006,0.06929187592647808,-0.03975227125598192,-0.01592247746884823,0.05645333603024483,-0.0
320,5,0.000205786302103661,0.0005767024122178555,0.0004938055062666535,0.00047322249156422913,-0.004892156459391117,0.015823278576135635,0.05922877788543701,0.03789777308702469,0.00023784050426911563,-1.7668484449386597,0.35756251215934753,0.11190292239189148,0.0,0.0,0.0,0.005698188208043575,-0.0026740056928247213,-0.0,0.0,0.0,0.0,0.014611353166401386,-0.0011661507887765765,-0.0032503921538591385,12068.0,14106.0,14400.0,15817.0,0.32002806663513184,0.4461967349052429,0.4660736322402954,0.5681889057159424,0.0,0.0,0.0,0.0,12725.0,13187.0,14869.0,14942.0,1.681937575340271,-0.03932028683250159,0.06974214039809426,-0.03927001092904415,0.010837186127901077,0.017764417454600334,-0.0
325,5,0.00017906173889059573,0.000550618045963347,0.00045561752631329,-0.003017658833414316,0.001173261203803122,0.010911867022514343,0.03983563929796219,0.03391863778233528,1.6119288375193719e-06,-1.3854141235351562,0.23873165249824524,-0.051661234349012375,0.0,0.0,0.0,0.005698188208043575,-0.0026740056928247213,-0.0,0.0,0.0,0.0,0.009571293368935585,-0.007943770848214626,0.001238413155078888,13096.0,13988.0,15309.0,13900.0,0.38107603788375854,0.4382803440093994,0.530444860458374,0.43250787258148193,0.0,0.0,0.0,0.0,13862.0,12571.0,16028.0,13970.0,1.681937575340271,-0.042915096445029895,0.07030606906543424,-0.039601668891229465,0.010837186127901077,0.017764417454600334,-0.0
330,5,0.0001310112129431218,0.0005063142743892968,0.0004595224163495004,-0.006973127368837595,0.005785755813121796,0.003896160051226616,0.03983563929796219,0.03391863778233528,1.6119288375193719e-06,-1.3854141235351562,0.23873165249824524,-0.051661234349012375,0.0,0.0,0.0,-0.00044563025585375726,-0.0025914604775607586,-0.0,0.0,0.0,0.0,0.009571293368935585,-0.007943770848214626,0.001238413155078888,13096.0,13988.0,15309.0,13900.0,0.38107603788375854,0.4382803440093994,0.530444860458374,0.43250787258148193,0.0,0.0,0.0,0.0,13862.0,12571.0,16028.0,13970.0,1.6539640426635742,-0.04477424477242132,0.07018043666667899,-0.04014236621866739,0.010328138247132301,-0.0013661842094734311,-0.0
335,5,9.501173190074041e-05,0.00045338328345678747,0.0005249243695288897,-0.007109188474714756,0.008666022680699825,-0.0062897689640522,0.030766509473323822,0.03284504637122154,0.0007233831565827131,-0.7340245842933655,-0.014293854124844074,-0.03416687250137329,0.0,0.0,0.0,-0.00044563025585375726,-0.0025914604775607586,-0.0,0.0,0.0,0.0,0.0008218621369451284,-0.013868966139853,0.001121430192142725,13809.0,14099.0,15441.0,11143.0,0.4265018105506897,0.44570422172546387,0.5400723814964294,0.2696591019630432,0.0,0.0,0.0,0.0,11474.0,15644.0,13900.0,14991.0,1.6539640426635742,-0.04536674945570483,0.06992258790566293,-0.039583586283675136,0.010328138247132301,-0.0013661842094734311,-0.0
340,5,7.417957385769114e-05,0.000369344576029107,0.0005654004053212702,-0.005343534052371979,0.013551054522395134,-0.0073730358853936195,0.030766509473323822,0.03284504637122154,0.0007233831565827131,-0.7340245842933655,-0.014293854124844074,-0.03416687250137329,0.0,0.0,0.0,-0.009341157041490078,-0.006260093301534653,-0.0,0.0,0.0,0.0,0.0008218621369451284,-0.013868966139853,0.001121430192142725,13809.0,14099.0,15441.0,11143.0,0.4265018105506897,0.44570422172546387,0.5400723814964294,0.2696591019630432,0.0,0.0,0.0,0.0,11474.0,15644.0,13900.0,14991.0,1.7325413227081299,-0.044481972216529206,0.06958792079861069,-0.03973699708202068,0.02613331750035286,-0.029997244477272034,0.0
345,5,2.6852112569031306e-05,0.00026325066573917866,0.0006451860535889864,-0.007816709578037262,0.018151691183447838,-0.012523485347628593,0.026129819452762604,0.03572005033493042,0.00034707042505033314,0.11202674359083176,-0.12805429100990295,-0.09761623293161392,0.0,0.0,0.0,-0.009341157041490078,-0.006260093301534653,-0.0,0.0,0.0,0.0,-0.008541276678442955,-0.016070177778601646,-0.003999979700893164,11448.0,16641.0,12309.0,13431.0,0.2858125567436218,0.6321567296981812,0.3338860869407654,0.40210866928100586,0.0,0.0,0.0,0.0,14147.0,14171.0,15537.0,10461.0,1.7325413227081299,-0.046333539983314555,0.06842364859041691,-0.04120439690104283,0.02613331750035286,-0.029997244477272034,0.0
350,5,1.230496582138585e-05,0.0002149261417798698,0.0006376662058755755,-0.004872341174632311,0.013059619814157486,-0.004107015207409859,0.026129819452762604,0.03572005033493042,0.00034707042505033314,0.11202674359083176,-0.12805429100990295,-0.09761623293161392,0.0,0.0,0.0,-0.019759582355618477,-0.006654524244368076,-0.0,0.0,0.0,0.0,-0.008541276678442955,-0.016070177778601646,-0.003999979700893164,11448.0,16641.0,12309.0,13431.0,0.2858125567436218,0.6321567296981812,0.3338860869407654,0.40210866928100586,0.0,0.0,0.0,0.0,14147.0,14171.0,15537.0,10461.0,1.818972110748291,-0.04422612141307357,0.06901782590042806,-0.03934201154208924,0.029161306098103523,-0.06661330908536911,0.0
355,5,-0.0001519999059382826,8.837749192025512e-05,0.0003770776966121048,-0.02166552096605301,0.020409686490893364,0.029627813026309013,0.027043649926781654,0.03647660091519356,0.0009162024944089353,0.03090011700987816,0.013045012950897217,0.018763601779937744,0.0,0.0,0.0,-0.019759582355618477,-0.006654524244368076,-0.0,0.0,0.0,0.0,-0.0097296591848135,-0.013540748506784439,0.0031137980986386538,14076.0,14394.0,14533.0,11127.0,0.44417884945869446,0.46571022272109985,0.4752427041530609,0.2688322961330414,0.0,0.0,0.0,0.0,13321.0,15179.0,14001.0,11686.0,1.818972110748291,-0.03203044819907301,0.07436960894525227,-0.043055743800703414,0.029161306098103523,-0.06661330908536911,0.0
360,5,-0.0001954974140971899,1.4143660337140318e-05,0.00040138387703336775,-0.013885908760130405,0.017071934416890144,0.008934385143220425,0.027043649926781654,0.03647660091519356,0.0009162024944089353,0.03090011700987816,0.013045012950897217,0.018763601779937744,0.0,0.0,0.0,-0.021378641948103905,-0.01775306463241577,-0.0,0.0,0.0,0.0,-0.0097296591848135,-0.013540748506784439,0.0031137980986386538,14076.0,14394.0,14533.0,11127.0,0.44417884945869446,0.46571022272109985,0.4752427041530609,0.2688322961330414,0.0,0.0,0.0,0.0,13321.0,15179.0,14001.0,11686.0,1.9192280769348145,-0.032817089341394844,0.07384797129744002,-0.044239553684279564,0.08207856863737106,-0.0760422870516777,-0.0
366,5,-0.00020737438171636313,-2.8489936084952205e-05,0.0003948377270717174,-0.00697960052639246,0.011944805271923542,0.0043592932634055614,0.026761598885059357,0.03572734072804451,-1.542852260172367e-05,-0.08518437296152115,0.168237566947937,0.1395549476146698,0.0,0.0,0.0,-0.021378641948103905,-0.01775306463241577,-0.0,0.0,0.0,0.0,-0.010264754295349121,-0.010143955238163471,-0.000566433067433536,14471.0,14651.0,14430.0,11890.0,0.47093814611434937,0.48345816135406494,0.46814727783203125,0.3099977374076843,0.0,0.0,0.0,0.0,11789.0,16945.0,12062.0,14191.0,1.9192280769348145,-0.03287694217058082,0.07493442093414734,-0.04327883025235772,0.08207856863737106,-0.0760422870516777,-0.0
371,5,-0.00022815448755864054,-6.295859202509746e-05,0.00038355813012458384,-0.005285452585667372,0.008914160542190075,0.003097266424447298,0.026761598885059357,0.03572734072804451,-1.542852260172367e-05,-0.08518437296152115,0.168237566947937,0.1395549476146698,0.0,0.0,0.0,-0.013727349229156971,-0.006417404394596815,-0.0,0.0,0.0,0.0,-0.010264754295349121,-0.010143955238163471,-0.000566433067433536,14471.0,14651.0,14430.0,11890.0,0.47093814611434937,0.48345816135406494,0.46814727783203125,0.3099977374076843,0.0,0.0,0.0,0.0,11789.0,16945.0,12062.0,14191.0,1.7663651704788208,-0.033147085689341695,0.07602195282063601,-0.04288056425289899,0.027311649173498154,-0.04494185000658035,-0.0
376,5,-0.0002733572036959231,-0.00015585387882310897,0.0004410462570376694,-0.007538505829870701,0.014713099226355553,-0.0056596677750349045,0.025582855567336082,0.033144041895866394,-0.00022575868933927268,-0.1152704730629921,0.26524999737739563,-0.2250354290008545,0.0,0.0,0.0,-0.013727349229156971,-0.006417404394596815,-0.0,0.0,0.0,0.0,-0.012622740119695663,-0.0071663567796349525,-0.005085952114313841,12304.0,17288.0,11408.0,15124.0,0.3335580825805664,0.6847683191299438,0.28367018699645996,0.5169755816459656,0.0,0.0,0.0,0.0,13974.0,16662.0,13615.0,13925.0,1.7663651704788208,-0.03563649343142778,0.07620133711056293,-0.04526761105312283,0.027311649173498154,-0.04494185000658035,-0.0
381,5,-0.0002591376251075417,-0.00015669115236960351,0.0003604935482144356,-0.0013090524589642882,0.0059857117012143135,0.007402458228170872,0.025582855567336082,0.033144041895866394,-0.00022575868933927268,-0.1152704730629921,0.26524999737739563,-0.2250354290008545,0.0,0.0,0.0,-0.016841595992445946,-0.006884824950248003,-0.0,0.0,0.0,0.0,-0.012622740119695663,-0.0071663567796349525,-0.005085952114313841,12304.0,17288.0,11408.0,15124.0,0.3335580825805664,0.6847683191299438,0.28367018699645996,0.5169755816459656,0.0,0.0,0.0,0.0,13974.0,16662.0,13615.0,13925.0,1.7948147058486938,-0.034137288783160344,0.07743123354835571,-0.04314377128106524,0.029771408066153526,-0.05602400004863739,0.0
386,5,-0.00026791144046001136,-0.00017444700642954558,0.00032318607554771006,-0.0015764805721119046,0.004524987190961838,0.007437879219651222,0.024600457400083542,0.031426310539245605,0.0004791147366631776,-0.14752675592899323,0.1859593242406845,0.10352163761854172,0.0,0.0,0.0,-0.016841595992445946,-0.006884824950248003,-0.0,0.0,0.0,0.0,-0.012196937575936317,-0.010718636214733124,0.004142335150390863,15882.0,14751.0,15787.0,11523.0,0.5730702877044678,0.49043500423431396,0.5659130811691284,0.2898097038269043,0.0,0.0,0.0,0.0,13974.0,16662.0,13615.0,13925.0,1.7948147058486938,-0.034818670639716005,0.07790866465855374,-0.04232425632214061,0.029771408066153526,-0.05602400004863739,0.0
391,5,-0.00030995297129265964,-0.00022708169126417488,0.0003466712078079581,-0.0056755742989480495,0.008126157335937023,0.00015693489694967866,0.024600457400083542,0.031426310539245605,0.0004791147366631776,-0.14752675592899323,0.1859593242406845,0.10352163761854172,0.0,0.0,0.0,-0.005761666223406792,-0.0018263047095388174,-0.0,0.0,0.0,0.0,-0.012196937575936317,-0.010718636214733124,0.004142335150390863,15882.0,14751.0,15787.0,11523.0,0.5730702877044678,0.49043500423431396,0.5659130811691284,0.2898097038269043,0.0,0.0,0.0,0.0,13974.0,16662.0,13615.0,13925.0,1.6781120300292969,-0.036710031653348234,0.07819769962620127,-0.04406205430777648,0.007384798489511013,-0.017921453341841698,-0.0
396,5,-0.00032076219213195145,-0.00019406480714678764,0.00036807573633268476,-0.003567337989807129,-0.0007115633343346417,-0.0025057673919945955,0.02309419773519039,0.02940288372337818,-0.00039564771577715874,-0.1256086677312851,0.16442497074604034,0.055522721260786057,0.0,0.0,0.0,-0.005761666223406792,-0.0018263047095388174,-0.0,0.0,0.0,0.0,-0.009530379436910152,-0.007177849765866995,-0.003552075708284974,13689.0,15543.0,13413.0,13385.0,0.41864386200904846,0.5476251244544983,0.4009229242801666,0.3991732895374298,0.0,0.0,0.0,0.0,12554.0,16459.0,12256.0,14451.0,1.6781120300292969,-0.034561520087066165,0.0795246137673942,-0.042535101227067884,0.007384798489511013,-0.017921453341841698,-0.0
401,5,-0.00032188184559345245,-0.00018476819968782365,0.00039391880272887647,-0.0015612919814884663,-0.0014002184616401792,-0.004103475250303745,0.02309419773519039,0.02940288372337818,-0.00039564771577715874,-0.1256086677312851,0.16442497074604034,0.055522721260786057,0.0,0.0,0.0,0.0005201153107918799,-0.0037698529195040464,-0.0,0.0,0.0,0.0,-0.009530379436910152,-0.007177849765866995,-0.003552075708284974,13689.0,15543.0,13413.0,13385.0,0.41864386200904846,0.5476251244544983,0.4009229242801666,0.3991732895374298,0.0,0.0,0.0,0.0,12554.0,16459.0,12256.0,14451.0,1.6669288873672485,-0.034291561613455326,0.08055992194520992,-0.041454206134790665,0.015142315998673439,0.0016070347046479583,0.0
406,5,-0.0003593639994505793,-0.0002015460340771824,0.0004708353662863374,-0.0021685855463147163,0.000548248877748847,-0.005433337297290564,0.02309419773519039,0.02940288372337818,-0.00039564771577715874,-0.1256086677312851,0.16442497074604034,0.055522721260786057,0.0,0.0,0.0,0.0005201153107918799,-0.0037698529195040464,-0.0,0.0,0.0,0.0,-0.009530379436910152,-0.007177849765866995,-0.003552075708284974,13689.0,15543.0,13413.0,13385.0,0.41864386200904846,0.5476251244544983,0.4009229242801666,0.3991732895374298,0.0,0.0,0.0,0.0,12554.0,16459.0,12256.0,14451.0,1.6669288873672485,-0.03486379628157985,0.08154044770607646,-0.0425211510308763,0.015142315998673439,0.0016070347046479583,0.0
411,5,-0.0003593639994505793,-0.0002015460340771824,0.0004708353662863374,-0.0021685855463147163,0.000548248877748847,-0.005433337297290564,0.022260762751102448,0.0284099280834198,-0.00024819528334774077,-0.12277904897928238,0.12471466511487961,-0.24648094177246094,0.0,0.0,0.0,-0.001030165352858603,-0.002536145970225334,-0.0,0.0,0.0,0.0,-0.010628344491124153,-0.007911574095487595,-0.0034209543373435736,12199.0,16998.0,11859.0,14859.0,0.3275316655635834,0.6609424948692322,0.3082636296749115,0.4980769455432892,0.0,0.0,0.0,0.0,11820.0,16168.0,11782.0,14501.0,1.6544355154037476,-0.03486379628157985,0.08154044770607646,-0.0425211510308763,0.010110561735928059,-0.0031591132283210754,0.0
416,5,-0.00040120515041053295,-0.0001297536218771711,0.000472606741823256,-0.0058883740566670895,-0.008395790122449398,-0.002385898493230343,0.022260762751102448,0.0284099280834198,-0.00024819528334774077,-0.12277904897928238,0.12471466511487961,-0.24648094177246094,0.0,0.0,0.0,-0.001030165352858603,-0.002536145970225334,-0.0,0.0,0.0,0.0,-0.010628344491124153,-0.007911574095487595,-0.0034209543373435736,12199.0,16998.0,11859.0,14859.0,0.3275316655635834,0.6609424948692322,0.3082636296749115,0.4980769455432892,0.0,0.0,0.0,0.0,11820.0,16168.0,11782.0,14501.0,1.6544355154037476,-0.0321206798913577,0.08315909486661668,-0.040568074467572775,0.010110561735928059,-0.0031591132283210754,0.0
421,5,-0.00042446848237887025,-0.00010218352690571919,0.0004910115385428071,-0.005146948620676994,-0.00666672782972455,-0.0031629372388124466,0.02108403854072094,0.027301186695694923,-0.00016784526815172285,-0.12177298963069916,0.029713863506913185,0.15267285704612732,0.0,0.0,0.0,0.009591958485543728,-0.005823992658406496,-0.0,0.0,0.0,0.0,-0.007377812173217535,-0.007922213524580002,0.005115438252687454,15331.0,12896.0,15535.0,10358.0,0.5320225954055786,0.3687669634819031,0.5470443964004517,0.23027808964252472,0.0,0.0,0.0,0.0,12936.0,15194.0,13212.0,13344.0,1.731013536453247,-0.032309423836389066,0.08294349749082129,-0.041989854523294824,0.024291299283504486,0.030775437131524086,0.0
427,5,-0.00035229185596108437,-0.0003190834540873766,0.0004686727770604193,0.006148466374725103,0.02497437596321106,-0.004125464707612991,0.02108403854072094,0.027301186695694923,-0.00016784526815172285,-0.12177298963069916,0.029713863506913185,0.15267285704612732,0.0,0.0,0.0,0.009591958485543728,-0.005823992658406496,-0.0,0.0,0.0,0.0,-0.007377812173217535,-0.007922213524580002,0.005115438252687454,15331.0,12896.0,15535.0,10358.0,0.5320225954055786,0.3687669634819031,0.5470443964004517,0.23027808964252472,0.0,0.0,0.0,0.0,12936.0,15194.0,13212.0,13344.0,1.731013536453247,-0.045824389267822084,0.08537021928077604,-0.03933092770336148,0.024291299283504486,0.030775437131524086,0.0
432,5,-0.00035229185596108437,-0.0003190834540873766,0.0004686727770604193,0.006148466374725103,0.02497437596321106,-0.004125464707612991,0.02004123106598854,0.026806216686964035,-0.0015857797116041183,-0.14783047139644623,0.04302375763654709,-0.05527681112289429,0.0,0.0,0.0,-0.027335327118635178,0.004654345102608204,-0.0,0.0,0.0,0.0,-0.004215068183839321,-0.007707410026341677,-0.00518850376829505,11841.0,15738.0,12521.0,14180.0,0.3072701096534729,0.5622352957725525,0.3462452292442322,0.45117825269699097,0.0,0.0,0.0,0.0,15300.0,12446.0,15883.0,10189.0,1.8833762407302856,-0.045824389267822084,0.08537021928077604,-0.03933092770336148,-0.021114641800522804,-0.09540511667728424,0.0
437,5,-0.0003517868753988296,-0.0002400473749730736,0.00042871120967902243,0.0013752899831160903,-0.0021931391675025225,0.0033398952800780535,0.02004123106598854,0.026806216686964035,-0.0015857797116041183,-0.14783047139644623,0.04302375763654709,-0.05527681112289429,0.0,0.0,0.0,-0.027335327118635178,0.004654345102608204,-0.0,0.0,0.0,0.0,-0.004215068183839321,-0.007707410026341677,-0.00518850376829505,11841.0,15738.0,12521.0,14180.0,0.3072701096534729,0.5622352957725525,0.3462452292442322,0.45117825269699097,0.0,0.0,0.0,0.0,15300.0,12446.0,15883.0,10189.0,1.8833762407302856,-0.04590262769034254,0.08582498654856342,-0.041371037100627964,-0.021114641800522804,-0.09540511667728424,0.0
442,5,-0.0003517868753988296,-0.0002400473749730736,0.00042871120967902243,0.0013752899831160903,-0.0021931391675025225,0.0033398952800780535,0.018639029935002327,0.026622077450156212,-0.0013879230245947838,-0.12593479454517365,0.010569177567958832,-0.2489461451768875,0.0,0.0,0.0,0.0022632929030805826,0.0008108383044600487,-0.0,0.0,0.0,0.0,-0.0025000781752169132,-0.010272739455103874,0.004966579843312502,11723.0,15809.0,12438.0,14085.0,0.30074548721313477,0.5675485134124756,0.34137797355651855,0.44476354122161865,0.0,0.0,0.0,0.0,10170.0,16893.0,10752.0,15318.0,1.646402359008789,-0.04590262769034254,0.08582498654856342,-0.041371037100627964,-0.003216777229681611,0.006906923372298479,-0.0
447,5,-0.00036691012792289257,-0.00016723854059819132,0.00045912517816759646,-0.0008730822592042387,-0.005378954578191042,-0.002589205279946327,0.018639029935002327,0.026622077450156212,-0.0013879230245947838,-0.12593479454517365,0.010569177567958832,-0.2489461451768875,0.0,0.0,0.0,0.0022632929030805826,0.0008108383044600487,-0.0,0.0,0.0,0.0,-0.0025000781752169132,-0.010272739455103874,0.004966579843312502,11723.0,15809.0,12438.0,14085.0,0.30074548721313477,0.5675485134124756,0.34137797355651855,0.44476354122161865,0.0,0.0,0.0,0.0,10170.0,16893.0,10752.0,15318.0,1.646402359008789,-0.04547326379238255,0.08681056547894836,-0.04133424292892182,-0.003216777229681611,0.006906923372298479,-0.0
452,5,-0.0003810603520832956,-0.0001569912419654429,0.0005162734887562692,-0.0020472595933824778,-0.0033812576439231634,-0.007893478497862816,0.01817723549902439,0.02656809613108635,-0.0014482713304460049,-0.05721573531627655,-0.022910740226507187,0.25416240096092224,0.0,0.0,0.0,0.0022632929030805826,0.0008108383044600487,-0.0,0.0,0.0,0.0,-0.013469522818922997,-0.006165485363453627,-0.00873469840735197,15540.0,12408.0,16505.0,10198.0,0.5474483370780945,0.33961182832717896,0.6213329434394836,0.2226204127073288,0.0,0.0,0.0,0.0,13722.0,14409.0,14781.0,12599.0,1.646402359008789,-0.04882761944705992,0.0858715316962406,-0.042852144925484184,0.00529908062890172,0.019253594800829887,0.0
457,5,-0.00034770119236782193,-5.818478894070722e-05,0.00047647333121858537,0.0031841944437474012,-0.01320927869528532,0.0016186271095648408,0.01817723549902439,0.02656809613108635,-0.0014482713304460049,-0.05721573531627655,-0.022910740226507187,0.25416240096092224,0.0,0.0,0.0,0.0061841486021876335,-0.0013092684093862772,-0.0,0.0,0.0,0.0,-0.013469522818922997,-0.006165485363453627,-0.00873469840735197,15540.0,12408.0,16505.0,10198.0,0.5474483370780945,0.33961182832717896,0.6213329434394836,0.2226204127073288,0.0,0.0,0.0,0.0,13722.0,14409.0,14781.0,12599.0,1.6796870231628418,-0.04560627179808527,0.08721633421231646,-0.040297500905406715,0.00529908062890172,0.019253594800829887,0.0
462,5,-0.0003497638099361211,-1.093470837076893e-05,0.0005004400154575706,0.0010261626448482275,-0.010953720659017563,-0.002228551311418414,0.017680587247014046,0.026443814858794212,-0.002865420188754797,-0.030544234439730644,0.033089883625507355,-0.21187105774879456,0.0,0.0,0.0,0.0061841486021876335,-0.0013092684093862772,-0.0,0.0,0.0,0.0,-0.004568243864923716,-0.008352707140147686,0.002639689249917865,11922.0,18031.0,10732.0,15908.0,0.3117913007736206,0.7478471994400024,0.24864356219768524,0.5750941634178162,0.0,0.0,0.0,0.0,16193.0,14382.0,15388.0,11441.0,1.6796870231628418,-0.047484914371538275,0.08671222156451021,-0.04185106772956802,-0.0019161755917593837,0.04101843386888504,0.0
467,5,-0.0003517699660733342,4.184622230241075e-05,0.0005058818496763706,0.0001697252446319908,-0.010715199634432793,-0.0015444426098838449,0.017680587247014046,0.026443814858794212,-0.002865420188754797,-0.030544234439730644,0.033089883625507355,-0.21187105774879456,0.0,0.0,0.0,0.01274833269417286,0.0004581210087053478,-0.0,0.0,0.0,0.0,-0.004568243864923716,-0.008352707140147686,0.002639689249917865,11922.0,18031.0,10732.0,15908.0,0.3117913007736206,0.7478471994400024,0.24864356219768524,0.5750941634178162,0.0,0.0,0.0,0.0,16193.0,14382.0,15388.0,11441.0,1.7359552383422852,-0.047685459545639484,0.08626573265187108,-0.04227728919750764,-0.0019161755917593837,0.04101843386888504,0.0
472,5,-0.0003769912582356483,7.145573908928782e-05,0.0005978973349556327,-0.002958663972094655,-0.007839222438633442,-0.011659636162221432,0.017428496852517128,0.0263974592089653,-0.001421444583684206,-0.06039658933877945,-0.0016959324711933732,-0.14784124493598938,0.0,0.0,0.0,0.01274833269417286,0.0004581210087053478,-0.0,0.0,0.0,0.0,-0.0021011882927268744,-0.008390067145228386,0.0023796886671334505,13061.0,14646.0,13622.0,12918.0,0.37886354327201843,0.48306891322135925,0.41433778405189514,0.37013211846351624,0.0,0.0,0.0,0.0,8598.0,17479.0,9522.0,16242.0,1.7359552383422852,-0.05380879568962298,0.08432817701705214,-0.042372494555173355,0.013177994638681412,0.029792463406920433,0.0
477,5,-0.0003499536251183599,0.00015868166519794613,0.0005339787458069623,0.002061049221083522,-0.01360280066728592,0.0030063758604228497,0.017428496852517128,0.0263974592089653,-0.001421444583684206,-0.06039658933877945,-0.0016959324711933732,-0.14784124493598938,0.0,0.0,0.0,0.009381028823554516,-0.003191966563463211,-0.0,0.0,0.0,0.0,-0.0021011882927268744,-0.008390067145228386,0.0023796886671334505,13061.0,14646.0,13622.0,12918.0,0.37886354327201843,0.48306891322135925,0.41433778405189514,0.37013211846351624,0.0,0.0,0.0,0.0,8598.0,17479.0,9522.0,16242.0,1.7134007215499878,-0.0515809187991261,0.08422484575778316,-0.04145076301540212,0.013177994638681412,0.029792463406920433,0.0
