timestamp,dt,pos_x,pos_y,pos_z,vel_x,vel_y,vel_z,roll,pitch,yaw,agv_x,agv_y,agv_z,x_ref,y_ref,z_ref,roll_ref,pitch_ref,yaw_ref,x_vel_ref,y_vel_ref,z_vel_ref,x_torque,y_torque,z_torque,w0,w1,w2,w3,u0,u1,u2,u3,m0req,m1req,m2req,m3req,thrust0,thrust1,thrust2,thrust3,thrust_ref,roll_vicon,pitch_vicon,yaw_vicon,acc_x,acc_y,acc_z
5,5,0.0,0.0,0.0,-0.0015156626468524337,-0.0011338876793161035,0.0023611688520759344,0.011207355186343193,0.023458469659090042,0.003343042219057679,-0.0029833128210157156,-0.004167943727225065,0.000455547240562737,0.0,0.0,0.0,0.001394534483551979,-0.0014338995097205043,-0.0,0.0,0.0,0.0,-0.0032988658640533686,-0.007190091535449028,0.00027580681489780545,1495.0,1495.0,1495.0,1495.0,0.0,0.0,0.0,0.0,0.0,0.0,0.0,0.0,1495.0,1495.0,1495.0,1495.0,1.6449918746948242,0.003687542873866888,-0.00821454228366208,-0.04738590121979232,0.005683735013008118,0.00425207894295454,0.0
44,39,0.0,0.0,0.0,0.0006623029476031661,0.0009539786260575056,0.0008029112941585481,0.011207355186343193,0.023458469659090042,0.003343042219057679,-0.0029833128210157156,-0.004167943727225065,0.000455547240562737,0.0,0.0,0.0,0.001394534483551979,-0.0014338995097205043,-0.0,0.0,0.0,0.0,-0.0032988658640533686,-0.007190091535449028,0.00027580681489780545,1495.0,1495.0,1495.0,1495.0,0.0,0.0,0.0,0.0,0.0,0.0,0.0,0.0,1495.0,1495.0,1495.0,1495.0,1.6449918746948242,-0.008110572461426959,-0.01222127382323491,-0.04879762363223462,0.005683735013008118,0.00425207894295454,0.0
49,5,0.0,0.0,0.0,0.0014055250212550163,-0.0001789992966223508,0.004857630003243685,0.011205065064132214,0.02343086525797844,0.0033321185037493706,0.0045155249536037445,-0.0010885021183639765,0.0015058356802910566,0.0,0.0,0.0,-0.0011785918613895774,0.0006294167833402753,-0.0,0.0,0.0,0.0,-0.0033925515599548817,-0.006936428137123585,0.00029983551939949393,1495.0,1495.0,1495.0,1495.0,0.0,0.0,0.0,0.0,0.0,0.0,0.0,0.0,1495.0,1495.0,1495.0,1495.0,1.6375632286071777,-0.00694125620313823,-0.012012016394506409,-0.048974437771922834,-0.0024836361408233643,-0.003577419789507985,0.0
54,5,0.0,0.0,0.0,0.000442173273768276,0.0001848670217441395,0.001216984586790204,0.011205065064132214,0.02343086525797844,0.0033321185037493706,0.0045155249536037445,-0.0010885021183639765,0.0015058356802910566,0.0,0.0,0.0,-0.0011785918613895774,0.0006294167833402753,-0.0,0.0,0.0,0.0,-0.0033925515599548817,-0.006936428137123585,0.00029983551939949393,1495.0,1495.0,1495.0,1495.0,0.0,0.0,0.0,0.0,0.0,0.0,0.0,0.0,1495.0,1495.0,1495.0,1495.0,1.6375632286071777,-0.0050186190052583304,-0.012065449737027096,-0.04846820600194769,-0.0024836361408233643,-0.003577419789507985,0.0
59,5,0.0,0.0,0.0,0.0035570997279137373,-0.0006007043411955237,0.006264945492148399,0.011205065064132214,0.02343086525797844,0.0033321185037493706,0.0045155249536037445,-0.0010885021183639765,0.0015058356802910566,0.0,0.0,0.0,-0.00022936551249586046,0.0004220052214805037,-0.0,0.0,0.0,0.0,-0.0033925515599548817,-0.006936428137123585,0.00029983551939949393,1495.0,1495.0,1495.0,1495.0,0.0,0.0,0.0,0.0,0.0,0.0,0.0,0.0,1495.0,1495.0,1495.0,1495.0,1.6306248903274536,-0.0034248714009540914,-0.011179184341174304,-0.04890530468602478,-0.0016581497620791197,-0.0006932513206265867,0.0
64,5,4.619482206180692e-05,-2.587222809324885e-07,-4.951269875164144e-05,0.006966218817979097,-0.00020923506235703826,0.008447501808404922,0.011196671053767204,0.02345106191933155,0.0033453661017119884,-0.001350127044133842,-0.0042618149891495705,-0.005613619461655617,0.0,0.0,0.0,-0.00022936551249586046,0.0004220052214805037,-0.0,0.0,0.0,0.0,-0.002972261980175972,-0.007517145946621895,0.00023001219960860908,1495.0,1495.0,1495.0,1495.0,0.0,0.0,0.0,0.0,0.0,0.0,0.0,0.0,1495.0,1495.0,1495.0,1495.0,1.6306248903274536,-0.002961392991118141,-0.01067449608575167,-0.0483324416134195,-0.0016581497620791197,-0.0006932513206265867,0.0
69,5,7.672382344026119e-05,1.9024773791898042e-05,-8.220817107940093e-05,0.006449967622756958,-0.0023977134842425585,0.007302457001060247,0.011196671053767204,0.02345106191933155,0.0033453661017119884,-0.001350127044133842,-0.0042618149891495705,-0.005613619461655617,0.0,0.0,0.0,0.0002490122860763222,0.006451163440942764,-0.0,0.0,0.0,0.0,-0.002972261980175972,-0.007517145946621895,0.00023001219960860908,1495.0,1495.0,1495.0,1495.0,0.0,0.0,0.0,0.0,0.0,0.0,0.0,0.0,1495.0,1495.0,1495.0,1495.0,1.6968661546707153,-0.0005105446782059296,-0.00961731997963709,-0.048104681048985014,-0.02637755312025547,0.000783207593485713,0.0
75,5,0.00010383097833255306,6.8521203502314165e-06,-0.0001583020348334685,0.0058328453451395035,0.000501633039675653,0.012052246369421482,0.011196671053767204,0.02345106191933155,0.0033453661017119884,-0.001350127044133842,-0.0042618149891495705,-0.005613619461655617,0.0,0.0,0.0,0.0002490122860763222,0.006451163440942764,-0.0,0.0,0.0,0.0,-0.002972261980175972,-0.007517145946621895,0.00023001219960860908,1495.0,1495.0,1495.0,1495.0,0.0,0.0,0.0,0.0,0.0,0.0,0.0,0.0,1495.0,1495.0,1495.0,1495.0,1.6968661546707153,-8.771651397551377e-05,-0.010164056266096257,-0.04755156333337151,-0.02637755312025547,0.000783207593485713,0.0
80,5,0.0001491738366894424,1.263769377146673e-06,-0.00018283417739439756,0.007774282246828079,0.0008712552953511477,0.007764756213873625,0.011193693615496159,0.023457761853933334,0.00334329716861248,0.001944049377925694,-0.0077833994291722775,-0.006489255465567112,0.0,0.0,0.0,-0.0005896910442970693,0.005523006431758404,-0.0,0.0,0.0,0.0,-0.002972261980175972,-0.007517145946621895,0.00023001219960860908,1495.0,1495.0,1495.0,1495.0,0.0,0.0,0.0,0.0,0.0,0.0,0.0,0.0,1495.0,1495.0,1495.0,1495.0,1.6865137815475464,-0.00012167304813357059,-0.009861590135686953,-0.046845530933139166,-0.022444766014814377,-0.0018434141529724002,0.0
85,5,0.00012716188211925328,1.098388293030439e-05,-0.00018141997861675918,0.00046827708138152957,-0.0008179115247912705,0.0029361979104578495,0.011193693615496159,0.023457761853933334,0.00334329716861248,0.001944049377925694,-0.0077833994291722775,-0.006489255465567112,0.0,0.0,0.0,-0.0005896910442970693,0.005523006431758404,-0.0,0.0,0.0,0.0,-0.002972261980175972,-0.007517145946621895,0.00023001219960860908,1495.0,1495.0,1495.0,1495.0,0.0,0.0,0.0,0.0,0.0,0.0,0.0,0.0,1495.0,1495.0,1495.0,1495.0,1.6865137815475464,0.0026618597595006806,-0.009315446131606793,-0.04781049789651283,-0.022444766014814377,-0.0018434141529724002,0.0
90,5,0.00016879219037946314,-1.464261094952235e-05,-0.0002672557020559907,0.005182947497814894,0.0027480146382004023,0.011474765837192535,0.01120421290397644,0.0235180351883173,0.0033555268310010433,0.0012415795354172587,-0.0027696220204234123,0.0027183161582797766,0.0,0.0,0.0,0.0010310561629012227,0.0006229041609913111,-0.0,0.0,0.0,0.0,-0.0029693678952753544,-0.007558504585176706,0.00044438132317736745,1495.0,1495.0,1495.0,1495.0,0.0,0.0,0.0,0.0,0.0,0.0,0.0,0.0,1495.0,1495.0,1495.0,1495.0,1.6365382671356201,0.002147689355341604,-0.008715068529716846,-0.04831079497238663,-0.0024563996121287346,0.0031276410445570946,0.0
95,5,0.00013637877418659627,5.857346422999399e-06,-0.00021215264860074967,-0.0018164305947721004,-0.0013607890577986836,-0.002022458240389824,0.01119272317737341,0.02354944311082363,0.003362712450325489,-0.0025813307147473097,0.0021556599531322718,0.0004913322045467794,0.0,0.0,0.0,0.0016818493604660034,-0.001526724430732429,-0.0,0.0,0.0,0.0,-0.003654336091130972,-0.006913593038916588,0.00035926050622947514,13443.0,14125.0,13919.0,12643.0,0.4028733968734741,0.44745850563049316,0.4337419271469116,0.35348939895629883,0.0,0.0,0.0,0.0,13430.0,14144.0,13892.0,12666.0,1.64727783203125,0.0029289433016652495,-0.009380103561837367,-0.04745366954773168,0.0060600838623940945,0.005135256331413984,0.0
105,10,0.00017301164916716516,7.399918331429944e-07,-0.00022435703431256115,0.003669372759759426,6.976693111937493e-05,0.0006555417785421014,0.011188851669430733,0.023523004725575447,0.003367823315784335,-0.00028126969118602574,0.0021380255930125713,0.0011661841999739408,0.0,0.0,0.0,0.0016818493604660034,-0.001526724430732429,-0.0,0.0,0.0,0.0,-0.0033138724975287914,-0.00509148882701993,0.0003415851970203221,13400.0,14084.0,13909.0,12629.0,0.40014326572418213,0.44468557834625244,0.4331033229827881,0.35269272327423096,0.0,0.0,0.0,0.0,13421.0,14070.0,13935.0,12594.0,1.64727783203125,0.002411034733784597,-0.00979930614749237,-0.04659621641278855,-0.014713765121996403,-0.0002574714308138937,0.0
110,5,0.0001748726499499753,1.4927778693163418e-06,-0.00027184246573597193,-0.0008036476792767644,-0.0005902259727008641,0.0006219215574674308,0.011188851669430733,0.023523004725575447,0.003367823315784335,-0.00028126969118602574,0.0021380255930125713,0.0011661841999739408,0.0,0.0,0.0,-8.33992671687156e-05,0.003666187170892954,-0.0,0.0,0.0,0.0,-0.0033138724975287914,-0.00509148882701993,0.0003415851970203221,13400.0,14084.0,13909.0,12629.0,0.40014326572418213,0.44468557834625244,0.4331033229827881,0.35269272327423096,0.0,0.0,0.0,0.0,13421.0,14070.0,13935.0,12594.0,1.6655522584915161,0.003889245636262595,-0.008721326669898121,-0.047050579114264884,-0.014713765121996403,-0.0002574714308138937,0.0
115,5,0.00022528614499606192,-4.676881872001104e-06,-0.00033039430854842067,0.005728160031139851,0.0005042687989771366,0.007274989504367113,0.011188851669430733,0.023523004725575447,0.003367823315784335,-0.00028126969118602574,0.0021380255930125713,0.0011661841999739408,0.0,0.0,0.0,-8.33992671687156e-05,0.003666187170892954,-0.0,0.0,0.0,0.0,-0.0033138724975287914,-0.00509148882701993,0.0003415851970203221,13400.0,14084.0,13909.0,12629.0,0.40014326572418213,0.44468557834625244,0.4331033229827881,0.35269272327423096,0.0,0.0,0.0,0.0,13421.0,14070.0,13935.0,12594.0,1.6655522584915161,0.003609618730498767,-0.008476156583401076,-0.04735425864477706,-0.014713765121996403,-0.0002574714308138937,0.0
120,5,0.00018102287140209228,2.6251040253555402e-05,-0.00027162578771822155,-0.003020327305421233,-0.003509643254801631,-0.004142224323004484,0.01120123453438282,0.023524969816207886,0.003381932619959116,-0.0003820452548097819,-0.0006369680631905794,-0.0003802730643656105,0.0,0.0,0.0,-0.000612847157754004,0.005588842555880547,-0.0,0.0,0.0,0.0,-0.0035902513191103935,-0.005495287943631411,0.00031304493313655257,13762.0,14214.0,14035.0,13055.0,0.42343515157699585,0.45345592498779297,0.44143712520599365,0.37853795289993286,0.0,0.0,0.0,0.0,13773.0,14199.0,14067.0,13025.0,1.6872715950012207,0.004502355828357739,-0.008433815128227646,-0.04676006627985448,-0.0227225162088871,-0.0019166625570505857,0.0
125,5,0.00017198719433508813,1.807613625715021e-05,-0.00026896136114373803,-0.0022924121003597975,-0.0004228687030263245,-0.001976622734218836,0.01120123453438282,0.023524969816207886,0.003381932619959116,-0.0003820452548097819,-0.0006369680631905794,-0.0003802730643656105,0.0,0.0,0.0,-0.000612847157754004,0.005588842555880547,-0.0,0.0,0.0,0.0,-0.0035902513191103935,-0.005495287943631411,0.00031304493313655257,13762.0,14214.0,14035.0,13055.0,0.42343515157699585,0.45345592498779297,0.44143712520599365,0.37853795289993286,0.0,0.0,0.0,0.0,13773.0,14199.0,14067.0,13025.0,1.6872715950012207,0.002895919611900748,-0.009469557887351073,-0.04703815965019023,-0.0227225162088871,-0.0019166625570505857,0.0
130,5,0.00018541619647294283,2.4687735276529565e-05,-0.0002738923649303615,0.0006945152999833226,-0.000962539401371032,-0.00019892877025995404,0.011194639839231968,0.02352266013622284,0.003392191603779793,0.0018452854128554463,0.0023813575971871614,-0.0016161202220246196,0.0,0.0,0.0,0.0005520575796253979,-0.0019269167678430676,-0.0,0.0,0.0,0.0,-0.0035248217172920704,-0.00528930826112628,0.00036773059400729835,13716.0,14219.0,14001.0,12967.0,0.4204387366771698,0.4538070857524872,0.4391624629497528,0.3731054961681366,0.0,0.0,0.0,0.0,13722.0,14204.0,13996.0,12983.0,1.6469725370407104,0.003386944168173441,-0.00903550049329805,-0.046419156106566474,0.007647172547876835,0.0016853079432621598,0.0
137,7,0.00018500268924981356,5.337433776730904e-06,-0.0003154898004140705,0.00022818510478828102,0.0019370204536244273,0.004912121221423149,0.011194639839231968,0.02352266013622284,0.003392191603779793,0.0018452854128554463,0.0023813575971871614,-0.0016161202220246196,0.0,0.0,0.0,0.0005520575796253979,-0.0019269167678430676,-0.0,0.0,0.0,0.0,-0.0035248217172920704,-0.00528930826112628,0.00036773059400729835,13716.0,14219.0,14001.0,12967.0,0.4204387366771698,0.4538070857524872,0.4391624629497528,0.3731054961681366,0.0,0.0,0.0,0.0,13722.0,14204.0,13996.0,12983.0,1.6469725370407104,0.0037931226414892783,-0.008966670524192678,-0.04764310916636978,0.007647172547876835,0.0016853079432621598,0.0
142,5,0.00018019016715697944,2.267712443426717e-05,-0.0002575301914475858,-0.0004862295463681221,-0.0013059548800811172,-0.004990302957594395,0.011226668022572994,0.023528579622507095,0.0034075884614139795,0.0015320834936574101,-0.0020381545182317495,0.004501304589211941,0.0,0.0,0.0,-0.002371142152696848,0.00047331544919870794,-0.0,0.0,0.0,0.0,-0.0030785826966166496,-0.006901922635734081,0.0003858019190374762,13407.0,14133.0,14080.0,12656.0,0.4005352258682251,0.4480067491531372,0.44442909955978394,0.35430675745010376,0.0,0.0,0.0,0.0,13399.0,14091.0,13943.0,12684.0,1.6460094451904297,0.001443797879843757,-0.010149261448819268,-0.04561716464779995,-0.001877299975603819,-0.007234320510178804,0.0
147,5,0.00019468279788270593,1.6703867231626646e-06,-0.000333259638864547,0.001544624101370573,0.0019984266255050898,0.007091411855071783,0.011232509277760983,0.023527327924966812,0.0034125575330108404,0.002790528815239668,0.0008418413926847279,-0.0004162836994510144,0.0,0.0,0.0,-0.002442460972815752,0.0017239683074876666,-0.0,0.0,0.0,0.0,-0.003394629340618849,-0.006144453305751085,0.0003399881243240088,13407.0,14133.0,14080.0,12656.0,0.4005352258682251,0.4480067491531372,0.44442909955978394,0.35430675745010376,0.0,0.0,0.0,0.0,13607.0,14149.0,13976.0,12844.0,1.6532642841339111,0.0017687187859382985,-0.009383287726453197,-0.046672331216011394,-0.006867868360131979,-0.007484756875783205,0.0
154,7,0.00019080389756709337,1.589857492945157e-05,-0.0002746291575022042,0.0001523816172266379,-0.0009080119198188186,-0.004199095070362091,0.011232509277760983,0.023527327924966812,0.0034125575330108404,0.002790528815239668,0.0008418413926847279,-0.0004162836994510144,0.0,0.0,0.0,-0.002442460972815752,0.0017239683074876666,-0.0,0.0,0.0,0.0,-0.003394629340618849,-0.006144453305751085,0.0003399881243240088,13407.0,14133.0,14080.0,12656.0,0.4005352258682251,0.4480067491531372,0.44442909955978394,0.35430675745010376,0.0,0.0,0.0,0.0,13607.0,14149.0,13976.0,12844.0,1.6532642841339111,0.0031408755905538437,-0.00885090726732097,-0.0469527184892497,-0.006867868360131979,-0.007484756875783205,0.0
159,5,-7.518753409385681e-05,1.2412237083481159e-05,8.96622659638524e-05,-0.03185801953077316,5.5155789596028626e-05,-0.04539460688829422,0.011241267435252666,0.02356269583106041,0.0034160397481173277,-0.0009175930172204971,-0.00787768792361021,0.0005704965442419052,0.0,0.0,0.0,-0.002442460972815752,0.0017239683074876666,-0.0,0.0,0.0,0.0,-0.003542806953191757,-0.005375422537326813,0.0005364464595913887,13713.0,14223.0,14021.0,12957.0,0.42023521661758423,0.4540379047393799,0.4405021071434021,0.3724963665008545,0.0,0.0,0.0,0.0,13758.0,14180.0,14056.0,12919.0,1.6532642841339111,-0.010231117514667142,-0.01297214955002359,-0.04825758243395949,-0.006867868360131979,-0.007484756875783205,0.0
164,5,-0.0001008304170682095,2.503315408830531e-05,0.00014695896243210882,-0.015820354223251343,-0.0014924478018656373,-0.02503344789147377,0.011241267435252666,0.02356269583106041,0.0034160397481173277,-0.0009175930172204971,-0.00787768792361021,0.0005704965442419052,0.0,0.0,0.0,-3.8495756598422304e-05,-0.02565769851207733,-0.0,0.0,0.0,0.0,-0.003542806953191757,-0.005375422537326813,0.0005364464595913887,13713.0,14223.0,14021.0,12957.0,0.42023521661758423,0.4540379047393799,0.4405021071434021,0.3724963665008545,0.0,0.0,0.0,0.0,13758.0,14180.0,14056.0,12919.0,1.9391547441482544,-0.008947709092001162,-0.012850920133828792,-0.04851537207657368,0.11987659335136414,-0.00013836742436978966,0.0
169,5,-6.931990355951712e-05,-2.4264139938168228e-05,0.00010792115062940866,-0.002546879230067134,0.005318696144968271,-0.005328841041773558,0.011241267435252666,0.02356269583106041,0.0034160397481173277,-0.0009175930172204971,-0.00787768792361021,0.0005704965442419052,0.0,0.0,0.0,-3.8495756598422304e-05,-0.02565769851207733,-0.0,0.0,0.0,0.0,-0.003542806953191757,-0.005375422537326813,0.0005364464595913887,13713.0,14223.0,14021.0,12957.0,0.42023521661758423,0.4540379047393799,0.4405021071434021,0.3724963665008545,0.0,0.0,0.0,0.0,13758.0,14180.0,14056.0,12919.0,1.9391547441482544,-0.007009159578214743,-0.012652325755617812,-0.048875684237971416,0.11987659335136414,-0.00013836742436978966,0.0
174,5,-4.332861863076687e-05,1.5657189578632824e-05,1.555194830871187e-05,0.002100202254951,-0.002663081046193838,0.008952767588198185,0.011227182112634182,0.02356398105621338,0.003467816859483719,-0.0016265981830656528,0.001954847015440464,0.002859623869881034,0.0,0.0,0.0,-0.00642417510971427,-0.0024434328079223633,-0.0,0.0,0.0,0.0,-0.003173024160787463,-0.00769659411162138,0.0003983637725468725,13783.0,14154.0,14059.0,12917.0,0.42477452754974365,0.449390172958374,0.4430357813835144,0.3700711131095886,0.0,0.0,0.0,0.0,13345.0,14228.0,14005.0,12693.0,1.6862021684646606,-0.00571195951251673,-0.011406879878923063,-0.04912060147557008,0.009927789680659771,-0.020078448578715324,0.0
179,5,0.0002951068745460361,-7.149460725486279e-05,-0.0005696642911061645,0.04145234078168869,0.00939298328012228,0.07380706071853638,0.011227182112634182,0.02356398105621338,0.003467816859483719,-0.0016265981830656528,0.001954847015440464,0.002859623869881034,0.0,0.0,0.0,-0.00642417510971427,-0.0024434328079223633,-0.0,0.0,0.0,0.0,-0.003173024160787463,-0.00769659411162138,0.0003983637725468725,13783.0,14154.0,14059.0,12917.0,0.42477452754974365,0.449390172958374,0.4430357813835144,0.3700711131095886,0.0,0.0,0.0,0.0,13345.0,14228.0,14005.0,12693.0,1.6862021684646606,-0.003041538671142844,-0.00818349131964954,-0.04891433544774656,0.009927789680659771,-0.020078448578715324,0.0
184,5,0.0003065319615416229,-7.70721017033793e-05,-0.000599170511122793,0.017951946705579758,0.004426492843776941,0.03306356444954872,0.011193673126399517,0.02356809936463833,0.0034566265530884266,-0.002829069271683693,0.0017299230676144361,-0.0004961087252013385,0.0,0.0,0.0,-0.00941450148820877,0.03194358944892883,-0.0,0.0,0.0,0.0,-0.0041226577013731,-0.006968331057578325,0.00041039910865947604,13394.0,14179.0,14046.0,12651.0,0.39970892667770386,0.45111382007598877,0.44215714931488037,0.35399264097213745,0.0,0.0,0.0,0.0,13522.0,14171.0,13936.0,12629.0,2.0410969257354736,-0.0031676500327087664,-0.00792481645165209,-0.048647797302336114,-0.15707466006278992,-0.03561704233288765,0.0
190,5,0.0003167161485180259,-7.305516919586807e-05,-0.0006357523961924016,0.008402880281209946,0.0012885651085525751,0.01761525683104992,0.011193673126399517,0.02356809936463833,0.0034566265530884266,-0.002829069271683693,0.0017299230676144361,-0.0004961087252013385,0.0,0.0,0.0,-0.00941450148820877,0.03194358944892883,-0.0,0.0,0.0,0.0,-0.0041226577013731,-0.006968331057578325,0.00041039910865947604,13394.0,14179.0,14046.0,12651.0,0.39970892667770386,0.45111382007598877,0.44215714931488037,0.35399264097213745,0.0,0.0,0.0,0.0,13522.0,14171.0,13936.0,12629.0,2.0410969257354736,-0.003923046722564059,-0.007525995530943221,-0.04893570146236307,-0.15707466006278992,-0.03561704233288765,0.0
195,5,0.00026157504180446267,-7.667511090403423e-05,-0.0005835855845361948,-0.003255781251937151,0.000949819223023951,0.0007860799669288099,0.011212748475372791,0.02355530858039856,0.0034806423354893923,0.0010280506685376167,-0.0007304861792363226,0.00035547176958061755,0.0,0.0,0.0,-0.001645373529754579,0.008042247034609318,-0.0,0.0,0.0,0.0,-0.0040194327011704445,-0.006762181408703327,-0.0004695560783147812,13243.0,14467.0,13670.0,12998.0,0.39018508791923523,0.4706788957118988,0.41740861535072327,0.37499168515205383,0.0,0.0,0.0,0.0,13473.0,14282.0,13862.0,12758.0,1.7162758111953735,-0.002265279839420562,-0.007849482826018786,-0.0493713029810336,-0.03325914964079857,-0.005234314128756523,0.0
200,5,0.0003342128184158355,-8.016520587261766e-05,-0.0006294470513239503,0.007414220832288265,0.0007987393764778972,0.005817811004817486,0.011212748475372791,0.02355530858039856,0.0034806423354893923,0.0010280506685376167,-0.0007304861792363226,0.00035547176958061755,0.0,0.0,0.0,-0.001645373529754579,0.008042247034609318,-0.0,0.0,0.0,0.0,-0.0040194327011704445,-0.006762181408703327,-0.0004695560783147812,13243.0,14467.0,13670.0,12998.0,0.39018508791923523,0.4706788957118988,0.41740861535072327,0.37499168515205383,0.0,0.0,0.0,0.0,13473.0,14282.0,13862.0,12758.0,1.7162758111953735,-0.002542381990328053,-0.007527178931404264,-0.04848733064955104,-0.03325914964079857,-0.005234314128756523,0.0
205,5,0.0003260903467889875,-7.79274632805027e-05,-0.0006369662005454302,0.0019909916445612907,5.096633321954869e-05,0.0032294257543981075,0.01126830093562603,0.023616155609488487,0.003726227441802621,0.0009400220005773008,-0.00034842590685002506,0.050026874989271164,0.0,0.0,0.0,-0.0010867967503145337,0.007212055381387472,-0.0,0.0,0.0,0.0,-0.005437145940959454,-0.007938765920698643,0.002578500658273697,14394.0,13770.0,14759.0,11810.0,0.46570366621017456,0.4239218235015869,0.4910091757774353,0.30556750297546387,0.0,0.0,0.0,0.0,13655.0,14090.0,14038.0,12585.0,1.706099033355713,-0.0006338963358453162,-0.006944949558095781,-0.04885517301763851,-0.029649076983332634,-0.003436853177845478,0.0
210,5,0.00033556754351593554,-9.423235314898193e-05,-0.0006306126597337425,0.001933661988005042,0.001976973144337535,0.000529345590621233,0.01126830093562603,0.023616155609488487,0.003726227441802621,0.0009400220005773008,-0.00034842590685002506,0.050026874989271164,0.0,0.0,0.0,-0.0010867967503145337,0.007212055381387472,-0.0,0.0,0.0,0.0,-0.005437145940959454,-0.007938765920698643,0.002578500658273697,14394.0,13770.0,14759.0,11810.0,0.46570366621017456,0.4239218235015869,0.4910091757774353,0.30556750297546387,0.0,0.0,0.0,0.0,13655.0,14090.0,14038.0,12585.0,1.706099033355713,-0.0008426715598219748,-0.0068698673738507065,-0.049123332593024316,-0.029649076983332634,-0.003436853177845478,0.0
215,5,0.00029593732324428856,-0.0001121109162340872,-0.0006804956938140094,-0.003982163965702057,0.002936216536909342,0.00619769562035799,0.01126830093562603,0.023616155609488487,0.003726227441802621,0.0009400220005773008,-0.00034842590685002506,0.050026874989271164,0.0,0.0,0.0,-0.0025806298945099115,0.002278550062328577,-0.0,0.0,0.0,0.0,-0.005049756728112698,-0.007619794458150864,-0.0018023925367742777,13297.0,14786.0,13708.0,13075.0,0.3936312198638916,0.49292272329330444,0.41991543769836426,0.37973278760910034,0.0,0.0,0.0,0.0,13040.0,15033.0,13449.0,13318.0,1.6584416627883911,-0.001798365790476755,-0.005061207544855477,-0.049569747644064764,-0.009105606004595757,-0.007932929322123528,0.0
220,5,0.00040720883407630026,-7.413388811983168e-05,-0.0007087461417540908,0.011759717017412186,-0.003382755909115076,0.005869132932275534,0.01126830093562603,0.023616155609488487,0.003726227441802621,0.0009400220005773008,-0.00034842590685002506,0.050026874989271164,0.0,0.0,0.0,-0.0025806298945099115,0.002278550062328577,-0.0,0.0,0.0,0.0,-0.005049756728112698,-0.007619794458150864,-0.0018023925367742777,13297.0,14786.0,13708.0,13075.0,0.3936312198638916,0.49292272329330444,0.41991543769836426,0.37973278760910034,0.0,0.0,0.0,0.0,13040.0,15033.0,13449.0,13318.0,1.6584416627883911,3.074214384574757e-05,-0.006610883705815792,-0.04782473837451222,-0.009105606004595757,-0.007932929322123528,0.0
225,5,0.000403586367610842,-7.944345998112112e-05,-0.0007407715893350542,0.004269189201295376,-0.0007159545202739537,0.006190710235387087,0.011184114962816238,0.02352803759276867,0.003209295915439725,-0.017213495448231697,0.006213266868144274,0.02137587033212185,0.0,0.0,0.0,0.0037758215330541134,0.010965977795422077,-0.0,0.0,0.0,0.0,-0.0062212212942540646,0.0029628851916640997,7.752663805149496e-05,15121.0,15669.0,13937.0,15336.0,0.5167497992515564,0.5570034384727478,0.43494704365730286,0.5323966145515442,0.0,0.0,0.0,0.0,16922.0,13695.0,15952.0,13220.0,1.7540851831436157,0.0026286985228867513,-0.0067777100179720225,-0.04812808132285295,-0.04634876549243927,0.01227633748203516,0.0
230,5,0.0003795859811361879,-0.0001925122196553275,-0.0005778364720754325,-0.0011723696952685714,0.01328186970204115,-0.017075935378670692,0.011184114962816238,0.02352803759276867,0.003209295915439725,-0.017213495448231697,0.006213266868144274,0.02137587033212185,0.0,0.0,0.0,0.0037758215330541134,0.010965977795422077,-0.0,0.0,0.0,0.0,-0.0062212212942540646,0.0029628851916640997,7.752663805149496e-05,15121.0,15669.0,13937.0,15336.0,0.5167497992515564,0.5570034384727478,0.43494704365730286,0.5323966145515442,0.0,0.0,0.0,0.0,16922.0,13695.0,15952.0,13220.0,1.7540851831436157,-0.00987642981133287,-0.0130037781212826,-0.0494493555435905,-0.04634876549243927,0.01227633748203516,0.0
235,5,0.00036275165621191263,-0.00019318246631883085,-0.0005238153971731663,-0.0024890678469091654,0.005393178202211857,-0.013312899507582188,0.011236464604735374,0.023499729111790657,0.003838922595605254,0.0018112403340637684,-0.04201246052980423,0.049003008753061295,0.0,0.0,0.0,-0.015576204285025597,-0.0005411120364442468,-0.0,0.0,0.0,0.0,-0.004100712947547436,-0.005425002425909042,0.0032886136323213577,15121.0,15669.0,13937.0,15336.0,0.5167497992515564,0.5570034384727478,0.43494704365730286,0.5323966145515442,0.0,0.0,0.0,0.0,14984.0,15797.0,13756.0,15500.0,1.761993646621704,-0.007987207317468221,-0.013392242164930174,-0.04972103305885279,0.002297157421708107,-0.05086776241660118,0.0
240,5,0.00043557604658417404,-5.778827107860707e-05,-0.0007235032389871776,0.007743301335722208,-0.014090032316744328,0.01863737963140011,0.011297374032437801,0.02371061220765114,0.0036711881402879953,-0.006849472876638174,-0.024671850726008415,0.06981514394283295,0.0,0.0,0.0,0.015838878229260445,0.00729571096599102,-0.0,0.0,0.0,0.0,-0.003749297698959708,-0.005391979590058327,0.0013986326521262527,14401.0,13689.0,14657.0,12369.0,0.46618157625198364,0.41869884729385376,0.4838756322860718,0.3373429775238037,0.0,0.0,0.0,0.0,13101.0,15043.0,13394.0,13772.0,1.788979172706604,0.0018192117647170421,-0.006977549823861068,-0.04733263253470167,-0.031446076929569244,0.05251764878630638,0.0
245,5,0.00044168136082589626,-6.26913461019285e-05,-0.0007442380883730948,0.0038299590814858675,-0.00504764448851347,0.009943133220076561,0.011297374032437801,0.02371061220765114,0.0036711881402879953,-0.006849472876638174,-0.024671850726008415,0.06981514394283295,0.0,0.0,0.0,0.015838878229260445,0.00729571096599102,-0.0,0.0,0.0,0.0,-0.003749297698959708,-0.005391979590058327,0.0013986326521262527,14401.0,13689.0,14657.0,12369.0,0.46618157625198364,0.41869884729385376,0.4838756322860718,0.3373429775238037,0.0,0.0,0.0,0.0,13101.0,15043.0,13394.0,13772.0,1.788979172706604,0.0032445492289909232,-0.006052284494732505,-0.04738390448702747,-0.031446076929569244,0.05251764878630638,0.0
251,5,0.00042294763261452317,-7.599926175316796e-05,-0.0006675263284705579,-0.0007160633685998619,-0.0004221080453135073,-0.005228155292570591,0.011297374032437801,0.02371061220765114,0.0036711881402879953,-0.006849472876638174,-0.024671850726008415,0.06981514394283295,0.0,0.0,0.0,0.015838878229260445,0.00729571096599102,-0.0,0.0,0.0,0.0,-0.003749297698959708,-0.005391979590058327,0.0013986326521262527,14401.0,13689.0,14657.0,12369.0,0.46618157625198364,0.41869884729385376,0.4838756322860718,0.3373429775238037,0.0,0.0,0.0,0.0,13101.0,15043.0,13394.0,13772.0,1.788979172706604,0.003932696989247601,-0.005879910353162663,-0.04815423936624109,-0.031446076929569244,0.05251764878630638,0.0
256,5,0.000387194799259305,-7.106336124707013e-05,-0.0006066494970582426,-0.004163624718785286,0.0005051378975622356,-0.006963509134948254,0.011197633109986782,0.02405240386724472,0.003672841703519225,-0.005599833093583584,-0.008580519817769527,-0.014058727771043777,0.0,0.0,0.0,0.000384995510103181,-8.776574395596981e-05,-0.0,0.0,0.0,0.0,-0.0020231904927641153,-0.004405617713928223,-0.00041850810521282256,13750.0,14491.0,14061.0,13646.0,0.4226626455783844,0.4723682105541229,0.44316354393959045,0.41589078307151794,0.0,0.0,0.0,0.0,13981.0,14120.0,14357.0,12718.0,1.6290371417999268,0.0059264363914925755,-0.00699212787744099,-0.04772311159581956,0.00034451481769792736,0.001162505941465497,0.0
261,5,0.000387194799259305,-7.106336124707013e-05,-0.0006066494970582426,-0.004163624718785286,0.0005051378975622356,-0.006963509134948254,0.011101359501481056,0.024482615292072296,0.003870962420478463,-0.014426962472498417,-0.05058259144425392,-0.02041296474635601,0.0,0.0,0.0,-0.0007423122879117727,-0.003361556213349104,-0.0,0.0,0.0,0.0,-0.007690008729696274,-0.009206319227814674,0.0009506260394118726,14074.0,14932.0,14313.0,12661.0,0.444035142660141,0.5032368898391724,0.46012744307518005,0.3545942008495331,0.0,0.0,0.0,0.0,14139.0,14146.0,14473.0,13171.0,1.6627110242843628,0.0059264363914925755,-0.00699212787744099,-0.04772311159581956,0.013468155637383461,-0.00228776759468019,0.0
266,5,0.0003734231577254832,-9.002326987683773e-05,-0.00046381159336306155,-0.0033180478494614363,0.0024772442411631346,-0.019925948232412338,0.011101359501481056,0.024482615292072296,0.003870962420478463,-0.014426962472498417,-0.05058259144425392,-0.02041296474635601,0.0,0.0,0.0,-0.0007423122879117727,-0.003361556213349104,-0.0,0.0,0.0,0.0,-0.007690008729696274,-0.009206319227814674,0.0009506260394118726,14074.0,14932.0,14313.0,12661.0,0.444035142660141,0.5032368898391724,0.46012744307518005,0.3545942008495331,0.0,0.0,0.0,0.0,14139.0,14146.0,14473.0,13171.0,1.6627110242843628,0.006243573932808514,-0.005429734895637239,-0.04847541775393817,0.013468155637383461,-0.00228776759468019,0.0
271,5,0.00029596322565339506,-0.00014708870730828494,-0.0002899080573115498,-0.010622412897646427,0.007838750258088112,-0.028838805854320526,0.011101359501481056,0.024482615292072296,0.003870962420478463,-0.014426962472498417,-0.05058259144425392,-0.02041296474635601,0.0,0.0,0.0,-0.0007423122879117727,-0.003361556213349104,-0.0,0.0,0.0,0.0,-0.007690008729696274,-0.009206319227814674,0.0009506260394118726,14074.0,14932.0,14313.0,12661.0,0.444035142660141,0.5032368898391724,0.46012744307518005,0.3545942008495331,0.0,0.0,0.0,0.0,14139.0,14146.0,14473.0,13171.0,1.6627110242843628,0.004460936469070921,-0.007363571744403976,-0.04839056221982919,0.013468155637383461,-0.00228776759468019,0.0
276,5,0.0003343643038533628,-0.00015551384421996772,-0.0003231539449188858,0.00035916530760005116,0.0041465177200734615,-0.007546015549451113,0.011164517141878605,0.024811169132590294,0.003604347351938486,-0.0017782587092369795,-0.030541524291038513,0.06043895706534386,0.0,0.0,0.0,-0.009280562400817871,-0.009025517851114273,-0.0,0.0,0.0,0.0,0.0014739787438884377,-0.006281626410782337,0.0016329450299963355,14323.0,13738.0,15276.0,13052.0,0.4608043134212494,0.4218340218067169,0.5280013084411621,0.3783394992351532,0.0,0.0,0.0,0.0,13489.0,15548.0,13575.0,13349.0,1.756074070930481,0.005331143144735174,-0.007621976702569437,-0.047510720850957054,0.038189347833395004,-0.030207468196749687,0.0
281,5,0.0003160281339660287,-0.00018138573796022683,-0.00024712496087886393,-0.0020566745661199093,0.004763233941048384,-0.012141882441937923,0.011164517141878605,0.024811169132590294,0.003604347351938486,-0.0017782587092369795,-0.030541524291038513,0.06043895706534386,0.0,0.0,0.0,-0.009280562400817871,-0.009025517851114273,-0.0,0.0,0.0,0.0,0.0014739787438884377,-0.006281626410782337,0.0016329450299963355,14323.0,13738.0,15276.0,13052.0,0.4608043134212494,0.4218340218067169,0.5280013084411621,0.3783394992351532,0.0,0.0,0.0,0.0,13489.0,15548.0,13575.0,13349.0,1.756074070930481,0.0059790909563598536,-0.0069259453276337216,-0.04779650526944326,0.038189347833395004,-0.030207468196749687,0.0
286,5,0.00025601047673262656,-0.0002468292077537626,-0.00020365187083370984,-0.008024788461625576,0.009758508764207363,-0.010073525831103325,0.01130211353302002,0.02475917525589466,0.003525506006553769,0.05013731122016907,0.049366388469934464,-0.007742960471659899,0.0,0.0,0.0,-0.006060687825083733,-0.0014721086481586099,-0.0,0.0,0.0,0.0,-0.003941065166145563,-0.006464147008955479,-0.0007761733140796423,13174.0,14360.0,13544.0,12923.0,0.3859268128871918,0.46332839131355286,0.4093404710292816,0.3704414665699005,0.0,0.0,0.0,0.0,13678.0,14406.0,14627.0,13752.0,1.6791822910308838,0.0066200141818883885,-0.005830275944950816,-0.049052032307592135,0.005956367123872042,-0.018863551318645477,0.0
291,5,0.00017147882317658514,-0.0003492321411613375,-0.0002476933295838535,-0.009582693688571453,0.012518465518951416,0.0003759362152777612,0.01130211353302002,0.02475917525589466,0.003525506006553769,0.05013731122016907,0.049366388469934464,-0.007742960471659899,0.0,0.0,0.0,-0.006060687825083733,-0.0014721086481586099,-0.0,0.0,0.0,0.0,-0.003941065166145563,-0.006464147008955479,-0.0007761733140796423,13174.0,14360.0,13544.0,12923.0,0.3859268128871918,0.46332839131355286,0.4093404710292816,0.3704414665699005,0.0,0.0,0.0,0.0,13678.0,14406.0,14627.0,13752.0,1.6791822910308838,0.00457044926521817,-0.007681535190407139,-0.04730678659797735,0.005956367123872042,-0.018863551318645477,0.0
297,5,0.00017147882317658514,-0.0003492321411613375,-0.0002476933295838535,-0.009582693688571453,0.012518465518951416,0.0003759362152777612,0.011868600733578205,0.024408359080553055,0.003739564213901758,0.1577896624803543,0.04885802045464516,-0.009857097640633583,0.0,0.0,0.0,-0.014762843027710915,-0.008127270266413689,-0.0,0.0,0.0,0.0,-0.005970562342554331,-0.007268230896443129,0.0005243253544904292,13615.0,14494.0,13776.0,12617.0,0.4138822853565216,0.4725430905818939,0.4243170917034149,0.35196855664253235,0.0,0.0,0.0,0.0,13894.0,13781.0,14119.0,12159.0,1.7860468626022339,0.00457044926521817,-0.007681535190407139,-0.04730678659797735,0.03497336059808731,-0.04887004569172859,0.0
302,5,0.00018805295985657722,-0.00035989086609333754,-0.0003461875894572586,-0.0018441812135279179,0.006286434829235077,0.01196968648582697,0.011868600733578205,0.024408359080553055,0.003739564213901758,0.1577896624803543,0.04885802045464516,-0.009857097640633583,0.0,0.0,0.0,-0.014762843027710915,-0.008127270266413689,-0.0,0.0,0.0,0.0,-0.005970562342554331,-0.007268230896443129,0.0005243253544904292,13615.0,14494.0,13776.0,12617.0,0.4138822853565216,0.4725430905818939,0.4243170917034149,0.35196855664253235,0.0,0.0,0.0,0.0,13894.0,13781.0,14119.0,12159.0,1.7860468626022339,0.007383093400677869,-0.007509995015193256,-0.046729401322067536,0.03497336059808731,-0.04887004569172859,0.0
307,5,9.08022266230546e-05,-0.00044119605445303023,-0.0003953108680434525,-0.005917034111917019,0.006014013662934303,0.01270549651235342,0.011868600733578205,0.024408359080553055,0.003739564213901758,0.1577896624803543,0.04885802045464516,-0.009857097640633583,0.0,0.0,0.0,-0.014762843027710915,-0.008127270266413689,-0.0,0.0,0.0,0.0,-0.007287041284143925,-0.008321765810251236,0.0012979485327377915,14166.0,14083.0,14335.0,11821.0,0.4502331018447876,0.44463014602661133,0.46167224645614624,0.3061755299568176,0.0,0.0,0.0,0.0,13445.0,14679.0,13600.0,12775.0,1.7860468626022339,0.008731938104438322,-0.005885724005456486,-0.047433209507893405,0.021670538932085037,-0.024985697120428085,0.0
312,5,1.104409329855116e-05,-0.0005101424176245928,-0.00042015875806100667,-0.011937789618968964,0.01067916490137577,0.008063945919275284,0.011868600733578205,0.024408359080553055,0.003739564213901758,0.1577896624803543,0.04885802045464516,-0.009857097640633583,0.0,0.0,0.0,-0.007861385121941566,-0.005244948901236057,-0.0,0.0,0.0,0.0,-0.007287041284143925,-0.008321765810251236,0.0012979485327377915,14166.0,14083.0,14335.0,11821.0,0.4502331018447876,0.44463014602661133,0.46167224645614624,0.3061755299568176,0.0,0.0,0.0,0.0,13445.0,14679.0,13600.0,12775.0,1.7147150039672852,0.0067856374294896745,-0.0069795753001396016,-0.047173907823893496,0.021670538932085037,-0.024985697120428085,0.0
317,5,-3.246416099500493e-06,-0.0005162263987585902,-0.000470522150862962,-0.006489976774901152,0.005001746118068695,0.009269186295568943,0.013781768269836903,0.02398715168237686,0.0037159461062401533,0.1878136545419693,0.005380883347243071,0.05069494992494583,0.0,0.0,0.0,-0.006803042255342007,-0.005895006004720926,-0.0,0.0,0.0,0.0,-0.008545574732124805,-0.006746624130755663,-0.0005122310831211507,13634.0,14825.0,13481.0,12804.0,0.4151175320148468,0.49562761187553406,0.4052710235118866,0.36316612362861633,0.0,0.0,0.0,0.0,13855.0,14369.0,14024.0,12217.0,1.7132940292358398,0.006253942395889192,-0.005850686515217158,-0.04660318362105394,0.024336352944374084,-0.02160416729748249,0.0
322,5,-2.7692660296452232e-05,-0.0005009581800550222,-0.0004769779625348747,-0.005529540125280619,0.0001685115130385384,0.004482373129576445,0.013781768269836903,0.02398715168237686,0.0037159461062401533,0.1878136545419693,0.005380883347243071,0.05069494992494583,0.0,0.0,0.0,-0.006803042255342007,-0.005895006004720926,-0.0,0.0,0.0,0.0,-0.008545574732124805,-0.006746624130755663,-0.0005122310831211507,13634.0,14825.0,13481.0,12804.0,0.4151175320148468,0.49562761187553406,0.4052710235118866,0.36316612362861633,0.0,0.0,0.0,0.0,13855.0,14369.0,14024.0,12217.0,1.7132940292358398,0.00679612665332102,-0.0050081458097827386,-0.046648278401480524,0.024336352944374084,-0.02160416729748249,0.0
327,5,-0.00016186450375244021,-0.0005466751754283905,-0.0002755089954007417,-0.01831243745982647,0.005553442053496838,-0.022383326664566994,0.015890877693891525,0.02313494309782982,0.003933500498533249,-0.01953691802918911,0.08325494825839996,0.008505677804350853,0.0,0.0,0.0,-0.007064106408506632,-0.015850502997636795,-0.0,0.0,0.0,0.0,-0.006975474301725626,-0.0057379016652703285,0.0012341775000095367,14107.0,14167.0,14016.0,12456.0,0.44627252221107483,0.4502932131290436,0.44017353653907776,0.3424430191516876,0.0,0.0,0.0,0.0,14071.0,14340.0,13955.0,12368.0,1.8209202289581299,0.0029133278721849357,-0.005735094060307358,-0.04728247179781186,0.06954354792833328,-0.023842409253120422,0.0
332,5,-0.0001270839711651206,-0.0004960682126693428,-0.0004184335411991924,-0.0031513103749603033,-0.003851458430290222,0.008197614923119545,0.015890877693891525,0.02313494309782982,0.003933500498533249,-0.01953691802918911,0.08325494825839996,0.008505677804350853,0.0,0.0,0.0,-0.007064106408506632,-0.015850502997636795,-0.0,0.0,0.0,0.0,-0.006975474301725626,-0.0057379016652703285,0.0012341775000095367,14107.0,14167.0,14016.0,12456.0,0.44627252221107483,0.4502932131290436,0.44017353653907776,0.3424430191516876,0.0,0.0,0.0,0.0,14071.0,14340.0,13955.0,12368.0,1.8209202289581299,0.0031065975219683175,-0.004260670075925017,-0.04649355799022589,0.06954354792833328,-0.023842409253120422,0.0
337,5,-0.00018407807510811836,-0.0005729444674216211,-0.00040732434717938304,-0.008099816739559174,0.007684571668505669,0.0019459434552118182,0.015500342473387718,0.02229660004377365,0.0037946240045130253,-0.1462564915418625,0.09938228875398636,0.013322705402970314,0.0,0.0,0.0,-0.00988315511494875,-0.007457251660525799,-0.0,0.0,0.0,0.0,-0.007181622553616762,-0.00658761989325285,0.0003364768926985562,14357.0,14721.0,14402.0,12889.0,0.46316832304000854,0.48831871151924133,0.4662413001060486,0.3683185577392578,0.0,0.0,0.0,0.0,13695.0,14481.0,13552.0,13057.0,1.745805025100708,-0.0023656560798917896,-0.005476768381477403,-0.047607332725379224,0.03136903792619705,-0.03198063373565674,0.0
342,5,-0.0002472283085808158,-0.0005151001969352365,-0.00037009778316132724,-0.010817953385412693,-0.0038674829993396997,-0.0036888127215206623,0.015500342473387718,0.02229660004377365,0.0037946240045130253,-0.1462564915418625,0.09938228875398636,0.013322705402970314,0.0,0.0,0.0,-0.00988315511494875,-0.007457251660525799,-0.0,0.0,0.0,0.0,-0.007181622553616762,-0.00658761989325285,0.0003364768926985562,14357.0,14721.0,14402.0,12889.0,0.46316832304000854,0.48831871151924133,0.4662413001060486,0.3683185577392578,0.0,0.0,0.0,0.0,13695.0,14481.0,13552.0,13057.0,1.745805025100708,0.0029466473238282317,-0.0031035065172427454,-0.04781196445035747,0.03136903792619705,-0.03198063373565674,0.0
347,5,-0.00030748348217457533,-0.0004951313603669405,-0.00026174072991125286,-0.011557803489267826,-0.003943256568163633,-0.014478371478617191,0.013167435303330421,0.02134431153535843,0.004076146986335516,-0.2525712549686432,0.05929841846227646,-0.022731255739927292,0.0,0.0,0.0,0.0037137081380933523,-0.010672296397387981,-0.0,0.0,0.0,0.0,-0.002518403809517622,-0.006349631585180759,0.0002531633945181966,13547.0,14445.0,14104.0,13240.0,0.40948206186294556,0.46916013956069946,0.44603002071380615,0.390042781829834,0.0,0.0,0.0,0.0,13485.0,14440.0,14178.0,13229.0,1.7505366802215576,0.002728847757902661,-0.0033544911581477473,-0.0475443706331319,0.045016296207904816,0.012049962766468525,0.0
353,5,-0.0003699704830069095,-0.0005934177315793931,-9.84871803666465e-05,-0.012121561914682388,0.010217058472335339,-0.025381773710250854,0.013167435303330421,0.02134431153535843,0.004076146986335516,-0.2525712549686432,0.05929841846227646,-0.022731255739927292,0.0,0.0,0.0,0.0037137081380933523,-0.010672296397387981,-0.0,0.0,0.0,0.0,-0.002518403809517622,-0.006349631585180759,0.0002531633945181966,13547.0,14445.0,14104.0,13240.0,0.40948206186294556,0.46916013956069946,0.44603002071380615,0.390042781829834,0.0,0.0,0.0,0.0,13485.0,14440.0,14178.0,13229.0,1.7505366802215576,-0.008019413367143468,-0.007680789655101062,-0.04871848673330972,0.045016296207904816,0.012049962766468525,0.0
358,5,-0.0003847166080959141,-0.0004746051854453981,-0.0002014759520534426,-0.00661815982311964,-0.010170679539442062,0.0022059432230889797,0.011124960146844387,0.021044712513685226,0.00405114283785224,-0.24588662385940552,0.03778989985585213,0.025321152061223984,0.0,0.0,0.0,0.010979012586176395,-0.006401596590876579,-0.0,0.0,0.0,0.0,-0.0017220934387296438,-0.00719859404489398,0.0010838608723133802,13832.0,14034.0,14622.0,12792.0,0.42803192138671875,0.4413890242576599,0.48139363527297974,0.36247944831848145,0.0,0.0,0.0,0.0,13592.0,14209.0,14444.0,13057.0,1.7451951503753662,-0.0012371506955473094,-0.0017879852499245788,-0.04779595902575489,0.02691875956952572,0.03551403060555458,0.0
363,5,-0.00043404160533100367,-0.0004892917932011187,-0.00024126026255544275,-0.008566264063119888,-0.0023058748338371515,0.005656494293361902,0.011124960146844387,0.021044712513685226,0.00405114283785224,-0.24588662385940552,0.03778989985585213,0.025321152061223984,0.0,0.0,0.0,0.010979012586176395,-0.006401596590876579,-0.0,0.0,0.0,0.0,-0.0017220934387296438,-0.00719859404489398,0.0010838608723133802,13832.0,14034.0,14622.0,12792.0,0.42803192138671875,0.4413890242576599,0.48139363527297974,0.36247944831848145,0.0,0.0,0.0,0.0,13592.0,14209.0,14444.0,13057.0,1.7451951503753662,-0.002740590659002341,-0.0010535516286509243,-0.04780350276050748,0.02691875956952572,0.03551403060555458,0.0
368,5,-0.00045427263830788434,-0.0005343856755644083,-0.00024121516617015004,-0.0058542280457913876,0.004488913808017969,0.0022571866866201162,0.011124960146844387,0.021044712513685226,0.00405114283785224,-0.24588662385940552,0.03778989985585213,0.025321152061223984,0.0,0.0,0.0,0.010979012586176395,-0.006401596590876579,-0.0,0.0,0.0,0.0,-0.0017220934387296438,-0.00719859404489398,0.0010838608723133802,13832.0,14034.0,14622.0,12792.0,0.42803192138671875,0.4413890242576599,0.48139363527297974,0.36247944831848145,0.0,0.0,0.0,0.0,13592.0,14209.0,14444.0,13057.0,1.7451951503753662,-0.010428727592559153,-0.0036209167605663188,-0.048114617633507925,0.02691875956952572,0.03551403060555458,0.0
373,5,-0.0005203960463404655,-0.00045133716776035726,-0.00025817396817728877,-0.010276500135660172,-0.008170255459845066,0.0029379308689385653,0.008277246728539467,0.020429950207471848,0.003970323596149683,-0.22317862510681152,0.06587456166744232,-0.03214230015873909,0.0,0.0,0.0,-0.006242431700229645,-0.005929755512624979,-0.0,0.0,0.0,0.0,-0.000608989386819303,-0.008565811440348625,0.00023995101219043136,13281.0,14505.0,14020.0,13508.0,0.3925701379776001,0.47328686714172363,0.4404573440551758,0.40697968006134033,0.0,0.0,0.0,0.0,13698.0,14841.0,14856.0,13509.0,1.7103731632232666,-0.0059249857252087965,-1.3770172539151564e-05,-0.04799609336820368,0.0244381632655859,-0.019790105521678925,0.0
378,5,-0.0005685948417522013,-0.00045715432497672737,-0.0002472710039000958,-0.009894455783069134,-0.0025700442492961884,-0.00013318390119820833,0.008277246728539467,0.020429950207471848,0.003970323596149683,-0.22317862510681152,0.06587456166744232,-0.03214230015873909,0.0,0.0,0.0,-0.006242431700229645,-0.005929755512624979,-0.0,0.0,0.0,0.0,-0.000608989386819303,-0.008565811440348625,0.00023995101219043136,13281.0,14505.0,14020.0,13508.0,0.3925701379776001,0.47328686714172363,0.4404573440551758,0.40697968006134033,0.0,0.0,0.0,0.0,13698.0,14841.0,14856.0,13509.0,1.7103731632232666,-0.006813813865393675,9.86949802810773e-05,-0.04757098474664174,0.0244381632655859,-0.019790105521678925,0.0
383,5,-0.0005879740347154438,-0.0004378064186312258,-0.00027116082492284477,-0.006283285096287727,-0.0033497654367238283,0.002813504310324788,0.006457934156060219,0.01993745192885399,0.003896266920492053,-0.22060763835906982,0.11090751737356186,-0.011486522853374481,0.0,0.0,0.0,0.002208647783845663,-0.009618720039725304,-0.0,0.0,0.0,0.0,-0.0009133854182437062,-0.005039383191615343,-0.0006460390868596733,13436.0,14551.0,14003.0,13826.0,0.40241166949272156,0.4765048921108246,0.4393073618412018,0.4275811016559601,0.0,0.0,0.0,0.0,13457.0,14554.0,14057.0,13732.0,1.7353148460388184,-0.009416118854381527,0.0005081124547900259,-0.04806777247025645,0.040219780057668686,0.007104158867150545,0.0
388,5,-0.000621108163613826,-0.0005045956932008266,-0.00028040382312610745,-0.006489412859082222,0.006674806121736765,0.0022345620673149824,0.006457934156060219,0.01993745192885399,0.003896266920492053,-0.22060763835906982,0.11090751737356186,-0.011486522853374481,0.0,0.0,0.0,0.002208647783845663,-0.009618720039725304,-0.0,0.0,0.0,0.0,-0.0009133854182437062,-0.005039383191615343,-0.0006460390868596733,13436.0,14551.0,14003.0,13826.0,0.40241166949272156,0.4765048921108246,0.4393073618412018,0.4275811016559601,0.0,0.0,0.0,0.0,13457.0,14554.0,14057.0,13732.0,1.7353148460388184,-0.01566029460945894,-0.0016356164454178958,-0.04892849962724483,0.040219780057668686,0.007104158867150545,0.0
393,5,-0.0007762127788737416,-0.0004146848223172128,-0.00012744666310027242,-0.02120831608772278,-0.008119381964206696,-0.017461035400629044,0.003826882690191269,0.018494384363293648,0.003504576161503792,-0.2122364640235901,0.1455950289964676,-0.035922400653362274,0.0,0.0,0.0,-0.008671761490404606,-0.00665039150044322,-0.0,0.0,0.0,0.0,0.0037503400817513466,-0.005023408215492964,7.127830031095073e-05,13321.0,14132.0,14520.0,13910.0,0.39512479305267334,0.4478950500488281,0.4743660092353821,0.4331508278846741,0.0,0.0,0.0,0.0,13352.0,14137.0,14525.0,13871.0,1.7312352657318115,-0.012609241498697178,0.0002751944864915555,-0.048554951193412285,0.027741866186261177,-0.027826722711324692,0.0
398,5,-0.0007581746322102845,-0.0004058815538883209,-0.00024363533884752542,-0.0063187479972839355,-0.0043041459284722805,0.0069582280702888966,0.003826882690191269,0.018494384363293648,0.003504576161503792,-0.2122364640235901,0.1455950289964676,-0.035922400653362274,0.0,0.0,0.0,-0.008671761490404606,-0.00665039150044322,-0.0,0.0,0.0,0.0,0.0037503400817513466,-0.005023408215492964,7.127830031095073e-05,13321.0,14132.0,14520.0,13910.0,0.39512479305267334,0.4478950500488281,0.4743660092353821,0.4331508278846741,0.0,0.0,0.0,0.0,13352.0,14137.0,14525.0,13871.0,1.7312352657318115,-0.012519478076384045,0.0001192288255050288,-0.04802257389848582,0.027741866186261177,-0.027826722711324692,0.0
403,5,-0.0007751767989248037,-0.0004336184647399932,-0.00030675705056637526,-0.004567761905491352,0.0016067720716819167,0.01035789493471384,0.0002692857524380088,0.015783431008458138,0.002806574571877718,-0.12034611403942108,0.10273946076631546,-0.04713665321469307,0.0,0.0,0.0,0.0043822117149829865,-0.006762984208762646,-0.0,0.0,0.0,0.0,0.005245194770395756,-0.004029591102153063,-0.001026574638672173,12948.0,14244.0,14237.0,14353.0,0.3719175159931183,0.4554457366466522,0.45498088002204895,0.46285101771354675,0.0,0.0,0.0,0.0,12965.0,14166.0,14288.0,14363.0,1.7095162868499756,-0.007886388294723162,0.001454478703468336,-0.048580595209136074,0.027858391404151917,0.013885853812098503,0.0
408,5,-0.0008330719429068267,-0.00042288046097382903,-0.00030083730234764516,-0.008774522691965103,-0.0006458542193286121,0.003432790283113718,0.0002692857524380088,0.015783431008458138,0.002806574571877718,-0.12034611403942108,0.10273946076631546,-0.04713665321469307,0.0,0.0,0.0,0.0043822117149829865,-0.006762984208762646,-0.0,0.0,0.0,0.0,0.005245194770395756,-0.004029591102153063,-0.001026574638672173,12948.0,14244.0,14237.0,14353.0,0.3719175159931183,0.4554457366466522,0.45498088002204895,0.46285101771354675,0.0,0.0,0.0,0.0,12965.0,14166.0,14288.0,14363.0,1.7095162868499756,-0.007814325125642499,0.0019762430251462444,-0.049346878751556425,0.027858391404151917,0.013885853812098503,0.0
414,5,-0.0009510000818409026,-0.0004811624239664525,-0.0002931245253421366,-0.01766118034720421,0.006735496688634157,0.0004475816385820508,-0.00011492615158203989,0.015262453816831112,0.0025076561141759157,0.034560319036245346,0.031109947711229324,-0.059919532388448715,0.0,0.0,0.0,2.2589261789107695e-05,-0.009010274894535542,-0.0,0.0,0.0,0.0,-0.0021082949824631214,-0.005545558873564005,-0.000946615356951952,13175.0,14739.0,13670.0,13670.0,0.3859478831291199,0.4895854592323303,0.417432963848114,0.4174068570137024,0.0,0.0,0.0,0.0,12788.0,15034.0,13720.0,14042.0,1.7264074087142944,-0.007079862217831072,0.0023611648674095767,-0.050784936225272415,0.03748239949345589,7.228594768093899e-05,0.0
419,5,-0.0009923985926434398,-0.0005758577026426792,-0.00015094727859832346,-0.012032298371195793,0.014057627879083157,-0.016882235184311867,-0.00011492615158203989,0.015262453816831112,0.0025076561141759157,0.034560319036245346,0.031109947711229324,-0.059919532388448715,0.0,0.0,0.0,2.2589261789107695e-05,-0.009010274894535542,-0.0,0.0,0.0,0.0,-0.0021082949824631214,-0.005545558873564005,-0.000946615356951952,13175.0,14739.0,13670.0,13670.0,0.3859478831291199,0.4895854592323303,0.417432963848114,0.4174068570137024,0.0,0.0,0.0,0.0,12788.0,15034.0,13720.0,14042.0,1.7264074087142944,-0.012103366213123563,-0.002902430150566126,-0.052509102366695364,0.03748239949345589,7.228594768093899e-05,0.0
424,5,-0.001040297676809132,-0.0004798910522367805,-0.0002996765833813697,-0.010560812428593636,-0.005892944987863302,0.011094621382653713,0.0010916851460933685,0.014985750429332256,0.0016674896469339728,0.16941781342029572,0.0023404425010085106,-0.06396768242120743,0.0,0.0,0.0,-0.01652124710381031,-0.011497890576720238,-0.0,0.0,0.0,0.0,-0.006868806667625904,-0.006869032513350248,-0.002308834344148636,13012.0,15573.0,13031.0,13839.0,0.3758729100227356,0.5498431921005249,0.3770347237586975,0.4284844398498535,0.0,0.0,0.0,0.0,12879.0,15228.0,13611.0,13854.0,1.8258601427078247,-0.0019057894249592333,0.0020410533919715743,-0.051778961784099325,0.050578825175762177,-0.055909160524606705,0.0
429,5,-0.0010828148806467652,-0.0004949698341079056,-0.00036196253495290875,-0.009326380677521229,-0.0005477219820022583,0.011912163347005844,0.0010916851460933685,0.014985750429332256,0.0016674896469339728,0.16941781342029572,0.0023404425010085106,-0.06396768242120743,0.0,0.0,0.0,-0.01652124710381031,-0.011497890576720238,-0.0,0.0,0.0,0.0,-0.006868806667625904,-0.006869032513350248,-0.002308834344148636,13012.0,15573.0,13031.0,13839.0,0.3758729100227356,0.5498431921005249,0.3770347237586975,0.4284844398498535,0.0,0.0,0.0,0.0,12879.0,15228.0,13611.0,13854.0,1.8258601427078247,-0.0014714470140166672,0.0018306584817032766,-0.052412081904344425,0.050578825175762177,-0.055909160524606705,0.0
434,5,-0.0011583217419683933,-0.0005044713616371155,-0.00035819882759824395,-0.012791379354894161,0.0009210907737724483,0.0043132188729941845,0.0052479528822004795,0.014838634058833122,0.00014924400602467358,0.21487879753112793,0.009317674674093723,-0.07036187499761581,0.0,0.0,0.0,-0.00021633536380250007,-0.00978777464479208,-0.0,0.0,0.0,0.0,-0.0037129283882677555,-0.0066092349588871,-0.0016144070541486144,12914.0,15149.0,13347.0,13772.0,0.36986488103866577,0.5187965035438538,0.39679133892059326,0.4240635633468628,0.0,0.0,0.0,0.0,13181.0,15453.0,13150.0,13702.0,1.7355679273605347,0.0005392155830085812,0.002160594431207925,-0.0525571385603537,0.04093271493911743,-0.0006959494203329086,0.0
439,5,-0.0011979603441432118,-0.0005092720966786146,-0.0004058139165863395,-0.009873188100755215,0.0009445305331610143,0.007439098320901394,0.0052479528822004795,0.014838634058833122,0.00014924400602467358,0.21487879753112793,0.009317674674093723,-0.07036187499761581,0.0,0.0,0.0,-0.00021633536380250007,-0.00978777464479208,-0.0,0.0,0.0,0.0,-0.0037129283882677555,-0.0066092349588871,-0.0016144070541486144,12914.0,15149.0,13347.0,13772.0,0.36986488103866577,0.5187965035438538,0.39679133892059326,0.4240635633468628,0.0,0.0,0.0,0.0,13181.0,15453.0,13150.0,13702.0,1.7355679273605347,-0.0017629369980617534,0.0008189909276241986,-0.05158176570015285,0.04093271493911743,-0.0006959494203329086,0.0
444,5,-0.0012798939133062959,-0.0005639478331431746,-0.00040645201806910336,-0.013781304471194744,0.00693889707326889,0.0030522134620696306,0.006841093301773071,0.014685613103210926,-0.0005089903715997934,0.16823148727416992,-0.0013455419102683663,-0.0912667065858841,0.0,0.0,0.0,-0.0019713900983333588,-0.010380811057984829,-0.0,0.0,0.0,0.0,-0.005117487162351608,-0.0070714764297008514,-0.0022637988440692425,12745.0,15528.0,13132.0,13968.0,0.35963165760040283,0.5465189218521118,0.3833027482032776,0.4369540810585022,0.0,0.0,0.0,0.0,12763.0,15276.0,13197.0,13914.0,1.7438873052597046,-0.0050426557785571745,-0.00034702107680109785,-0.0532419541843553,0.04362073540687561,-0.0063723414205014706,0.0
449,5,-0.0014613866806030273,-0.0006057163118384778,-0.00025790854124352336,-0.027291642501950264,0.007787775713950396,-0.016604332253336906,0.006841093301773071,0.014685613103210926,-0.0005089903715997934,0.16823148727416992,-0.0013455419102683663,-0.0912667065858841,0.0,0.0,0.0,-0.0019713900983333588,-0.010380811057984829,-0.0,0.0,0.0,0.0,-0.005117487162351608,-0.0070714764297008514,-0.0022637988440692425,12745.0,15528.0,13132.0,13968.0,0.35963165760040283,0.5465189218521118,0.3833027482032776,0.4369540810585022,0.0,0.0,0.0,0.0,12763.0,15276.0,13197.0,13914.0,1.7438873052597046,-0.004924143070727565,-0.0016855810387227793,-0.054268171405466255,0.04362073540687561,-0.0063723414205014706,0.0
454,5,-0.0014260539319366217,-0.0005795407923869789,-0.00043554650619626045,-0.00667673209682107,-2.5950061171897687e-05,0.014674820937216282,0.008915520273149014,0.014845752157270908,-0.0015072233509272337,0.17203259468078613,-0.04244561865925789,-0.09396492689847946,0.0,0.0,0.0,-0.0019713900983333588,-0.010380811057984829,-0.0,0.0,0.0,0.0,-0.010393484495580196,-0.008764663711190224,-0.0021609102841466665,13435.0,16258.0,13282.0,13845.0,0.40231412649154663,0.6020145416259766,0.3926733434200287,0.4288582503795624,0.0,0.0,0.0,0.0,13296.0,16385.0,13157.0,13945.0,1.7438873052597046,0.002358175105169684,0.0012587392132659553,-0.05442393032369596,0.04362073540687561,-0.0063723414205014706,0.0
459,5,-0.0015250107971951365,-0.0005984755116514862,-0.00041200980194844306,-0.014545523561537266,0.0022617874201387167,0.003045522840693593,0.008915520273149014,0.014845752157270908,-0.0015072233509272337,0.17203259468078613,-0.04244561865925789,-0.09396492689847946,0.0,0.0,0.0,-0.0009821928106248379,-0.007961574010550976,-0.0,0.0,0.0,0.0,-0.010393484495580196,-0.008764663711190224,-0.0021609102841466665,13435.0,16258.0,13282.0,13845.0,0.40231412649154663,0.6020145416259766,0.3926733434200287,0.4288582503795624,0.0,0.0,0.0,0.0,13296.0,16385.0,13157.0,13945.0,1.714606523513794,0.0029019251100105676,3.0112649376652412e-05,-0.05522259726006744,0.032893531024456024,-0.0031215453054755926,0.0
465,5,-0.0015238828491419554,-0.0006592530990019441,-0.0006101728067733347,-0.005682857241481543,0.008198024705052376,0.0249977745115757,0.010202848352491856,0.015275116078555584,-0.002313493052497506,0.1311858892440796,-0.07117477804422379,-0.09099604189395905,0.0,0.0,0.0,-0.0009821928106248379,-0.007961574010550976,-0.0,0.0,0.0,0.0,-0.0051200310699641705,-0.00973410252481699,-0.003264747792854905,12628.0,15743.0,13239.0,13869.0,0.3525930941104889,0.562588095664978,0.3899565637111664,0.430430144071579,0.0,0.0,0.0,0.0,12518.0,15772.0,13226.0,13946.0,1.714606523513794,0.0003159558033698092,0.0008722451697796977,-0.05642065007926618,0.032893531024456024,-0.0031215453054755926,0.0
470,5,-0.0016088343691080809,-0.0006963020423427224,-0.0005742291687056422,-0.012467325665056705,0.007725078612565994,0.00568587239831686,0.010202848352491856,0.015275116078555584,-0.002313493052497506,0.1311858892440796,-0.07117477804422379,-0.09099604189395905,0.0,0.0,0.0,-0.01062094047665596,-0.007055829279124737,-0.0,0.0,0.0,0.0,-0.0051200310699641705,-0.00973410252481699,-0.003264747792854905,12628.0,15743.0,13239.0,13869.0,0.3525930941104889,0.562588095664978,0.3899565637111664,0.430430144071579,0.0,0.0,0.0,0.0,12518.0,15772.0,13226.0,13946.0,1.7475484609603882,-0.0030926628292940804,0.0001870746320841386,-0.056795098490419894,0.029709894210100174,-0.03440217673778534,0.0
475,5,-0.0016018407186493278,-0.0007629229221493006,-0.0006023184396326542,-0.004147681407630444,0.0110845398157835,0.005645059049129486,0.011433973908424377,0.016376996412873268,-0.004283812828361988,-0.0183122456073761,-0.0007873488939367235,-0.0894724577665329,0.0,0.0,0.0,-0.01062094047665596,-0.007055829279124737,-0.0,0.0,0.0,0.0,-0.003637772286310792,-0.008047503419220448,-0.0025007727090269327,12510.0,15461.0,13183.0,14027.0,0.34564054012298584,0.5415812730789185,0.38649410009384155,0.4408906102180481,0.0,0.0,0.0,0.0,12467.0,15784.0,13249.0,14082.0,1.7475484609603882,-0.00753721864447386,-0.002747968244411092,-0.05877299000450884,0.029709894210100174,-0.03440217673778534,0.0
480,5,-0.0017562595894560218,-0.0007125769043341279,-0.0004036759492009878,-0.02018933743238449,-0.001607704907655716,-0.0215790756046772,0.011433973908424377,0.016376996412873268,-0.004283812828361988,-0.0183122456073761,-0.0007873488939367235,-0.0894724577665329,0.0,0.0,0.0,-0.014003944583237171,-0.005736283492296934,-0.0,0.0,0.0,0.0,-0.003637772286310792,-0.008047503419220448,-0.0025007727090269327,12510.0,15461.0,13183.0,14027.0,0.34564054012298584,0.5415812730789185,0.38649410009384155,0.4408906102180481,0.0,0.0,0.0,0.0,12467.0,15784.0,13249.0,14082.0,1.7645225524902344,-0.0033588258782776214,-0.0003189099938218511,-0.0574365921301246,0.024387359619140625,-0.045799460262060165,0.0
485,5,-0.0017098975367844105,-0.0007066063117235899,-0.0005982796428725123,-0.0025122896768152714,-0.0013595579657703638,0.014720815233886242,0.011433973908424377,0.016376996412873268,-0.004283812828361988,-0.0183122456073761,-0.0007873488939367235,-0.0894724577665329,0.0,0.0,0.0,-0.014003944583237171,-0.005736283492296934,-0.0,0.0,0.0,0.0,-0.003637772286310792,-0.008047503419220448,-0.0025007727090269327,12510.0,15461.0,13183.0,14027.0,0.34564054012298584,0.5415812730789185,0.38649410009384155,0.4408906102180481,0.0,0.0,0.0,0.0,12467.0,15784.0,13249.0,14082.0,1.7645225524902344,-0.0008054072681244174,0.001960468971046745,-0.05745664329320038,0.024387359619140625,-0.045799460262060165,0.0
