timestamp,dt,pos_x,pos_y,pos_z,vel_x,vel_y,vel_z,roll,pitch,yaw,agv_x,agv_y,agv_z,x_ref,y_ref,z_ref,roll_ref,pitch_ref,yaw_ref,x_vel_ref,y_vel_ref,z_vel_ref,x_torque,y_torque,z_torque,w0,w1,w2,w3,u0,u1,u2,u3,m0req,m1req,m2req,m3req,thrust0,thrust1,thrust2,thrust3,thrust_ref,roll_vicon,pitch_vicon,yaw_vicon,acc_x,acc_y,acc_z
5,5,0.0,0.0,0.0,-0.0003803988511208445,9.664479148341343e-05,0.0007364780176430941,-0.006152797490358353,-0.07907896488904953,0.008007154799997807,-0.00298773730173707,-0.004337965976446867,-0.00039607108919881284,0.0,0.0,0.0,-0.00011997271940344945,-0.0003632452280726284,-0.0,0.0,0.0,0.0,0.0012439633719623089,0.023664124310016632,0.0007872098358348012,1495.0,1495.0,1495.0,1495.0,0.0,0.0,0.0,0.0,0.0,0.0,0.0,0.0,1495.0,1495.0,1495.0,1495.0,1.6297413110733032,0.05208800799810562,-0.0706670299378974,0.05896525005527124,0.0014264957280829549,-0.0003624179807957262,0.0
36,31,0.0,0.0,0.0,0.0009619544725865126,0.0005848145228810608,0.001636489643715322,-0.006152797490358353,-0.07907896488904953,0.008007154799997807,-0.00298773730173707,-0.004337965976446867,-0.00039607108919881284,0.0,0.0,0.0,-0.00011997271940344945,-0.0003632452280726284,-0.0,0.0,0.0,0.0,0.0012439633719623089,0.023664124310016632,0.0007872098358348012,1495.0,1495.0,1495.0,1495.0,0.0,0.0,0.0,0.0,0.0,0.0,0.0,0.0,1495.0,1495.0,1495.0,1495.0,1.6297413110733032,0.0522882458721871,-0.0706762737338567,0.05870209151661858,0.0014264957280829549,-0.0003624179807957262,0.0
41,5,0.0,0.0,0.0,-0.0009627523832023144,-0.00023506871366407722,0.001615325454622507,-0.006155108101665974,-0.07906051725149155,0.008003778755664825,0.0009267693385481834,-0.0020188316702842712,0.0027618822641670704,0.0,0.0,0.0,0.00029072273173369467,-0.0009159155888482928,-0.0,0.0,0.0,0.0,0.001202506828121841,0.02357495203614235,0.0008113118237815797,1495.0,1495.0,1495.0,1495.0,0.0,0.0,0.0,0.0,0.0,0.0,0.0,0.0,1495.0,1495.0,1495.0,1495.0,1.6358314752578735,0.05224486343569206,-0.07059482974903178,0.059028940897178334,0.003610321320593357,0.0008815077017061412,0.0
46,5,0.0,0.0,0.0,0.0003636408946476877,0.0015545095084235072,0.0016632353654131293,-0.006155108101665974,-0.07906051725149155,0.008003778755664825,0.0009267693385481834,-0.0020188316702842712,0.0027618822641670704,0.0,0.0,0.0,0.00029072273173369467,-0.0009159155888482928,-0.0,0.0,0.0,0.0,0.001202506828121841,0.02357495203614235,0.0008113118237815797,1495.0,1495.0,1495.0,1495.0,0.0,0.0,0.0,0.0,0.0,0.0,0.0,0.0,1495.0,1495.0,1495.0,1495.0,1.6358314752578735,0.052136726047915805,-0.07054737989624645,0.058788332388978924,0.003610321320593357,0.0008815077017061412,0.0
51,5,0.0,0.0,0.0,-6.686356937279925e-05,-0.001127448515035212,-0.0032427548430860043,-0.006155108101665974,-0.07906051725149155,0.008003778755664825,0.0009267693385481834,-0.0020188316702842712,0.0027618822641670704,0.0,0.0,0.0,0.00029072273173369467,-0.0009159155888482928,-0.0,0.0,0.0,0.0,0.001202506828121841,0.02357495203614235,0.0008113118237815797,1495.0,1495.0,1495.0,1495.0,0.0,0.0,0.0,0.0,0.0,0.0,0.0,0.0,1495.0,1495.0,1495.0,1495.0,1.6358314752578735,0.051760528677233235,-0.07107793867752135,0.059070672994362194,0.003610321320593357,0.0008815077017061412,0.0
64,13,-7.57397128836601e-06,-2.83120289168437e-06,1.7862339518615045e-05,-0.0010308698983862996,0.0002605629269964993,-0.0021542366594076157,-0.006143681704998016,-0.0790957361459732,0.008037195540964603,0.0037037853617221117,0.003252144204452634,0.001073541003279388,0.0,0.0,0.0,0.001393181155435741,-6.355610094033182e-05,-0.0,0.0,0.0,0.0,0.0011505263391882181,0.023711854591965675,0.0008855511550791562,1495.0,1495.0,1495.0,1495.0,0.0,0.0,0.0,0.0,0.0,0.0,0.0,0.0,1495.0,1495.0,1495.0,1495.0,1.6372390985488892,0.05182160416972108,-0.07089112107732749,0.0589589041851826,0.003907445352524519,-0.0009926925413310528,0.0
70,5,-4.700317276729038e-06,-6.403856332326541e-06,-4.6792192733846605e-06,-6.750943430233747e-05,0.0005329435807652771,0.0018432923825457692,-0.006140334531664848,-0.07906220108270645,0.008018945343792439,-0.00227172183804214,-0.004854031838476658,-0.0014509926550090313,0.0,0.0,0.0,-0.000672603608109057,-7.09903470124118e-05,-0.0,0.0,0.0,0.0,0.0012090734671801329,0.023458153009414673,0.0007835720898583531,15275.0,11270.0,12157.0,14891.0,0.5279715657234192,0.27632632851600647,0.3250955641269684,0.500347912311554,0.0,0.0,0.0,0.0,15276.0,11271.0,12136.0,14907.0,1.6313188076019287,0.05207408488166052,-0.07130490635134108,0.0590515135226507,0.0002790550934150815,-0.002033791970461607,0.0
75,6,-6.634036708419444e-06,-1.7352381291857455e-06,-2.261474037368316e-06,-0.00025905013899318874,-0.0003470567462500185,0.0004471875145100057,-0.006140334531664848,-0.07906220108270645,0.008018945343792439,-0.00227172183804214,-0.004854031838476658,-0.0014509926550090313,0.0,0.0,0.0,-0.000672603608109057,-7.09903470124118e-05,-0.0,0.0,0.0,0.0,0.0012090734671801329,0.023458153009414673,0.0007835720898583531,15275.0,11270.0,12157.0,14891.0,0.5279715657234192,0.27632632851600647,0.3250955641269684,0.500347912311554,0.0,0.0,0.0,0.0,15276.0,11271.0,12136.0,14907.0,1.6313188076019287,0.052103724598265885,-0.07078714037069558,0.059129314184573976,0.0002790550934150815,-0.002033791970461607,0.0
80,5,1.3524433484235487e-07,-1.1693216947605833e-05,-1.5463432646356523e-05,0.0007086936966516078,0.0010561347007751465,0.0017631100490689278,-0.0061315554194152355,-0.07903913408517838,0.008015486411750317,-0.004040504340082407,-0.005702456459403038,0.002931529190391302,0.0,0.0,0.0,-0.000672603608109057,-7.09903470124118e-05,-0.0,0.0,0.0,0.0,0.0015161270275712013,0.023738021031022072,0.0008915430516935885,15340.0,11205.0,12245.0,14907.0,0.5326735377311707,0.2729150652885437,0.3301824927330017,0.5014680624008179,0.0,0.0,0.0,0.0,15302.0,11226.0,12180.0,14878.0,1.6313188076019287,0.05204860070177146,-0.0705221407355182,0.0587416496154798,0.0002790550934150815,-0.002033791970461607,0.0
85,5,1.7480848555351258e-06,-1.144661018770421e-05,-1.0012960956373718e-05,0.00047701832954771817,0.00039286116953007877,5.1187409553676844e-05,-0.006159917917102575,-0.07901650667190552,0.008051413111388683,0.0013556752819567919,0.005354759749025106,-0.0027780679520219564,0.0,0.0,0.0,-0.0005077982787042856,0.00045726620010100305,-0.0,0.0,0.0,0.0,0.001175407785922289,0.0235280878841877,0.0007818567682988942,15300.0,11312.0,12166.0,14925.0,0.5297790169715881,0.2785169780254364,0.3256177604198456,0.502772331237793,0.0,0.0,0.0,0.0,15323.0,11233.0,12222.0,14923.0,1.6321665048599243,0.052490349573752954,-0.07065729134888235,0.05902295065496687,-0.0017983963480219245,-0.001536258147098124,0.0
91,5,9.78682055574609e-06,-4.938067377224797e-06,-1.0630426913849078e-05,0.0011554555967450142,-0.0006238807109184563,9.457084524910897e-05,-0.006159917917102575,-0.07901650667190552,0.008051413111388683,0.0013556752819567919,0.005354759749025106,-0.0027780679520219564,0.0,0.0,0.0,-0.0005077982787042856,0.00045726620010100305,-0.0,0.0,0.0,0.0,0.001175407785922289,0.0235280878841877,0.0007818567682988942,15300.0,11312.0,12166.0,14925.0,0.5297790169715881,0.2785169780254364,0.3256177604198456,0.502772331237793,0.0,0.0,0.0,0.0,15323.0,11233.0,12222.0,14923.0,1.6321665048599243,0.05212029576467343,-0.07091217456828854,0.05902129252546008,-0.0017983963480219245,-0.001536258147098124,0.0
96,5,1.0169846973440144e-05,-6.7975561250932515e-06,-3.135837459922186e-06,0.0005081454291939735,-2.6413637897348963e-05,-0.0008615223341621459,-0.006159917917102575,-0.07901650667190552,0.008051413111388683,0.0013556752819567919,0.005354759749025106,-0.0027780679520219564,0.0,0.0,0.0,-0.0005077982787042856,0.00045726620010100305,-0.0,0.0,0.0,0.0,0.001175407785922289,0.0235280878841877,0.0007818567682988942,15300.0,11312.0,12166.0,14925.0,0.5297790169715881,0.2785169780254364,0.3256177604198456,0.502772331237793,0.0,0.0,0.0,0.0,15323.0,11233.0,12222.0,14923.0,1.6321665048599243,0.052664740297572114,-0.07028916780939887,0.05869775097570838,-0.0017983963480219245,-0.001536258147098124,0.0
101,5,2.2655431166640483e-06,-3.1836049174671643e-07,1.071183987733093e-06,-0.000745258352253586,-0.0007880689227022231,-0.0008494515204802155,-0.006159917917102575,-0.07901650667190552,0.008051413111388683,0.0013556752819567919,0.005354759749025106,-0.0027780679520219564,0.0,0.0,0.0,2.0364599549793638e-05,0.0004990661982446909,-0.0,0.0,0.0,0.0,0.001175407785922289,0.0235280878841877,0.0007818567682988942,15300.0,11312.0,12166.0,14925.0,0.5297790169715881,0.2785169780254364,0.3256177604198456,0.502772331237793,0.0,0.0,0.0,0.0,15323.0,11233.0,12222.0,14923.0,1.631073236465454,0.052370898700751324,-0.07056278369382676,0.05901031273469506,-0.00196147826500237,6.156840390758589e-05,0.0
106,5,-6.690293616884446e-07,4.760536739922827e-06,-3.6071087379241362e-06,-0.0006502520409412682,-0.0009246952831745148,0.000221614507609047,-0.006147383246570826,-0.07904759049415588,0.00802698452025652,-0.00016468577086925507,-0.003376436186954379,-0.002516042673960328,0.0,0.0,0.0,2.0364599549793638e-05,0.0004990661982446909,-0.0,0.0,0.0,0.0,0.0010924870148301125,0.023779451847076416,0.0007379406015388668,15293.0,11282.0,12119.0,14917.0,0.5292641520500183,0.2769351005554199,0.32293254137039185,0.5021870136260986,0.0,0.0,0.0,0.0,15303.0,11265.0,12144.0,14900.0,1.631073236465454,0.05217933718182458,-0.07100535010850939,0.05905451162179786,-0.00196147826500237,6.156840390758589e-05,0.0
111,5,-1.7210970781889046e-06,4.4502271521196235e-06,-1.9057051758863963e-05,-0.0003863489255309105,-0.0003326409205328673,0.0019426388898864388,-0.006147383246570826,-0.07904759049415588,0.00802698452025652,-0.00016468577086925507,-0.003376436186954379,-0.002516042673960328,0.0,0.0,0.0,0.0011511897901073098,-0.0006189923151396215,-0.0,0.0,0.0,0.0,0.0010924870148301125,0.023779451847076416,0.0007379406015388668,15293.0,11282.0,12119.0,14917.0,0.5292641520500183,0.2769351005554199,0.32293254137039185,0.5021870136260986,0.0,0.0,0.0,0.0,15303.0,11265.0,12144.0,14900.0,1.6373127698898315,0.05204676904226498,-0.0707639752477432,0.05889973080138726,0.0024421284906566143,0.0034937106538563967,0.0
116,5,-9.010757821670268e-06,5.253582457953598e-07,-1.1076912414864637e-05,-0.0010292988736182451,0.0003379278932698071,-0.0001805610954761505,-0.006153799127787352,-0.07903239876031876,0.008025729097425938,0.0033357946667820215,-0.0019322815351188183,0.003083309391513467,0.0,0.0,0.0,-0.0004167360602878034,-0.0009911617962643504,-0.0,0.0,0.0,0.0,0.0011852417374029756,0.024030286818742752,0.0008789772400632501,15345.0,11218.0,12160.0,14890.0,0.5330575108528137,0.2735757529735565,0.32528480887413025,0.500248372554779,0.0,0.0,0.0,0.0,15362.0,11193.0,12178.0,14877.0,1.6368955373764038,0.05231052059015548,-0.07086210614588132,0.058929026727529275,0.003909464925527573,-0.001264417776837945,0.0
121,5,-9.501640306552872e-06,-2.439998525005649e-06,-1.1313595678075217e-05,-0.0004706254112534225,0.0004910139832645655,-4.38224378740415e-05,-0.006153799127787352,-0.07903239876031876,0.008025729097425938,0.0033357946667820215,-0.0019322815351188183,0.003083309391513467,0.0,0.0,0.0,-0.0004167360602878034,-0.0009911617962643504,-0.0,0.0,0.0,0.0,0.0011852417374029756,0.024030286818742752,0.0008789772400632501,15345.0,11218.0,12160.0,14890.0,0.5330575108528137,0.2735757529735565,0.32528480887413025,0.500248372554779,0.0,0.0,0.0,0.0,15362.0,11193.0,12178.0,14877.0,1.6368955373764038,0.0521205766053194,-0.07058757326203777,0.0587839803690631,0.003909464925527573,-0.001264417776837945,0.0
126,5,-7.292079772014404e-06,-4.000145963800605e-06,-1.0757445124909282e-05,7.689704943913966e-05,0.00038362329360097647,-8.426700514974073e-05,-0.006119011901319027,-0.07904385775327682,0.008055368438363075,0.0032949692104011774,0.000582755368668586,0.0030460895504802465,0.0,0.0,0.0,-0.0004167360602878034,-0.0009911617962643504,-0.0,0.0,0.0,0.0,0.0014324389630928636,0.023561295121908188,0.000837266503367573,15305.0,11264.0,12218.0,14922.0,0.5301461219787598,0.2759859263896942,0.32862886786460876,0.5025518536567688,0.0,0.0,0.0,0.0,15330.0,11207.0,12151.0,14906.0,1.6368955373764038,0.05201936177462154,-0.07007980516654404,0.058680351535583715,0.003909464925527573,-0.001264417776837945,0.0
131,5,3.124675231447327e-06,-6.753908792234142e-07,-1.409060314472299e-05,0.0012807694729417562,-0.00024552131071686745,0.00036627217195928097,-0.006119011901319027,-0.07904385775327682,0.008055368438363075,0.0032949692104011774,0.000582755368668586,0.0030460895504802465,0.0,0.0,0.0,-0.00048352699377574027,6.320022657746449e-05,-0.0,0.0,0.0,0.0,0.0014324389630928636,0.023561295121908188,0.000837266503367573,15305.0,11264.0,12218.0,14922.0,0.5301461219787598,0.2759859263896942,0.32862886786460876,0.5025518536567688,0.0,0.0,0.0,0.0,15330.0,11207.0,12151.0,14906.0,1.6297680139541626,0.05243305876002668,-0.07028916155653438,0.05874430334634456,-0.00024819685495458543,-0.0014606798067688942,0.0
136,5,-2.2818219349574065e-06,-5.093128038424766e-06,1.7754022337612696e-05,-0.0001364718918921426,0.0004319199360907078,-0.0036748461425304413,-0.006108536850661039,-0.0790296271443367,0.008056779392063618,-0.0015365674626082182,-0.006126954220235348,-0.0011273265117779374,0.0,0.0,0.0,-0.00048352699377574027,6.320022657746449e-05,-0.0,0.0,0.0,0.0,0.001126007060520351,0.02345963381230831,0.0009308135486207902,15332.0,11273.0,12224.0,14878.0,0.532063364982605,0.2764866054058075,0.3289441764354706,0.4994014501571655,0.0,0.0,0.0,0.0,15304.0,11255.0,12236.0,14916.0,1.6297680139541626,0.05205940833043756,-0.07058952333092247,0.05879233355268665,-0.00024819685495458543,-0.0014606798067688942,0.0
142,5,1.311438040829671e-06,2.167585989809595e-06,1.382192931487225e-05,0.0003766024310607463,-0.0006985177169553936,-0.0009980873437598348,-0.006108536850661039,-0.0790296271443367,0.008056779392063618,-0.0015365674626082182,-0.006126954220235348,-0.0011273265117779374,0.0,0.0,0.0,-0.0005452513578347862,-0.00013347386266104877,-0.0,0.0,0.0,0.0,0.001126007060520351,0.02345963381230831,0.0009308135486207902,15332.0,11273.0,12224.0,14878.0,0.532063364982605,0.2764866054058075,0.3289441764354706,0.4994014501571655,0.0,0.0,0.0,0.0,15304.0,11255.0,12236.0,14916.0,1.630440354347229,0.052054919710708816,-0.07087791133514215,0.059013462701630874,0.0005243882769718766,-0.0016478215111419559,0.0
147,5,8.181668817996979e-06,2.0785203105333494e-06,-2.1019415726186708e-05,0.0005789995775558054,-0.0002957581600639969,0.002972327871248126,-0.006113134324550629,-0.07897506654262543,0.008083363063633442,-0.0022428666707128286,-0.006104724016040564,-0.0016755363903939724,0.0,0.0,0.0,-0.0005452513578347862,-0.00013347386266104877,-0.0,0.0,0.0,0.0,0.001175669371150434,0.02356555126607418,0.0009188404073938727,15346.0,11184.0,12172.0,14871.0,0.5331156849861145,0.27180203795433044,0.325971394777298,0.49887895584106445,0.0,0.0,0.0,0.0,15272.0,11344.0,12161.0,14938.0,1.630440354347229,0.052188073628934364,-0.07084224311006818,0.058949161921951355,0.0005243882769718766,-0.0016478215111419559,0.0
152,5,5.803895874123555e-06,4.961846116202651e-06,-7.566087788291043e-06,-5.3732939704786986e-05,-0.00046430237125605345,-0.00042546814074739814,-0.00614406680688262,-0.07896270602941513,0.00808593351393938,-0.0003519351885188371,0.0012080889428034425,0.0014003473334014416,0.0,0.0,0.0,0.0003702743852045387,0.0005633896216750145,-0.0,0.0,0.0,0.0,0.001105506089515984,0.02391202002763748,0.0008043307461775839,15330.0,11223.0,12136.0,14897.0,0.5319334268569946,0.2738373279571533,0.32390284538269043,0.5007668137550354,0.0,0.0,0.0,0.0,15306.0,11245.0,12115.0,14912.0,1.6324869394302368,0.05235536415551197,-0.07097224014594168,0.058882467231879565,-0.0022162075620144606,0.0011204227339476347,0.0
159,7,-3.4646766380319605e-06,-8.89772672962863e-06,-2.028709241130855e-05,-0.001133721903897822,0.0014774277806282043,0.0013563332613557577,-0.00614406680688262,-0.07896270602941513,0.00808593351393938,-0.0003519351885188371,0.0012080889428034425,0.0014003473334014416,0.0,0.0,0.0,0.0003702743852045387,0.0005633896216750145,-0.0,0.0,0.0,0.0,0.001105506089515984,0.02391202002763748,0.0008043307461775839,15330.0,11223.0,12136.0,14897.0,0.5319334268569946,0.2738373279571533,0.32390284538269043,0.5007668137550354,0.0,0.0,0.0,0.0,15306.0,11245.0,12115.0,14912.0,1.6324869394302368,0.05204949328525443,-0.07027681563357484,0.058341961635540916,-0.0022162075620144606,0.0011204227339476347,0.0
164,5,-7.778128747304436e-06,7.758356332487892e-06,4.204774086247198e-06,-0.0009711030288599432,-0.0014077587984502316,-0.0023964906577020884,-0.00614406680688262,-0.07896270602941513,0.00808593351393938,-0.0003519351885188371,0.0012080889428034425,0.0014003473334014416,0.0,0.0,0.0,-0.0018333311891183257,-0.0010774971451610327,-0.0,0.0,0.0,0.0,0.001105506089515984,0.02391202002763748,0.0008043307461775839,15330.0,11223.0,12136.0,14897.0,0.5319334268569946,0.2738373279571533,0.32390284538269043,0.5007668137550354,0.0,0.0,0.0,0.0,15306.0,11245.0,12115.0,14912.0,1.6448190212249756,0.05203925977377275,-0.07063166782169902,0.05905768474639154,0.004270564764738083,-0.0055894250981509686,0.0
169,5,3.8050293369451538e-06,7.579399152746191e-06,6.97380346537102e-06,0.0010015377774834633,-0.0005416286876425147,-0.00129087979439646,-0.006181742530316114,-0.07890650629997253,0.007867597974836826,0.001552754663862288,-0.0035801820922642946,0.010063252411782742,0.0,0.0,0.0,-0.0018333311891183257,-0.0010774971451610327,-0.0,0.0,0.0,0.0,0.0013734314125031233,0.023855676874518394,5.800390681542922e-06,15183.0,11405.0,11986.0,15060.0,0.5212607383728027,0.28346046805381775,0.3153810203075409,0.5123847723007202,0.0,0.0,0.0,0.0,15274.0,11298.0,12091.0,14935.0,1.6448190212249756,0.052023096625216696,-0.07078446849446396,0.05922840700723433,0.004270564764738083,-0.0055894250981509686,0.0
174,5,-6.5956678554357495e-06,-2.057079109363258e-05,1.6235560906352475e-05,-0.0008474685018882155,0.0031613712199032307,-0.0016277629183605313,-0.006181742530316114,-0.07890650629997253,0.007867597974836826,0.001552754663862288,-0.0035801820922642946,0.010063252411782742,0.0,0.0,0.0,0.0006829063058830798,0.0009571751579642296,-0.0,0.0,0.0,0.0,0.0013734314125031233,0.023855676874518394,5.800390681542922e-06,15183.0,11405.0,11986.0,15060.0,0.5212607383728027,0.28346046805381775,0.3153810203075409,0.5123847723007202,0.0,0.0,0.0,0.0,15274.0,11298.0,12091.0,14935.0,1.6374355554580688,0.052030033747818796,-0.07062399048760462,0.05784006206887775,-0.0037766555324196815,0.002072687493637204,0.0
179,5,-7.276196811289992e-06,-1.0753459719126113e-05,3.618433765950613e-05,-0.00042065090383403003,8.6468797235284e-05,-0.0030449582263827324,-0.006161737255752087,-0.07883656769990921,0.008190125226974487,-0.008973144926130772,0.0030887036118656397,-0.09441327303647995,0.0,0.0,0.0,0.0006829063058830798,0.0009571751579642296,-0.0,0.0,0.0,0.0,0.0014013207983225584,0.023979995399713516,0.0006962546613067389,14499.0,12259.0,11080.0,15739.0,0.47289592027664185,0.3309589922428131,0.26635608077049255,0.5622758865356445,0.0,0.0,0.0,0.0,15963.0,10267.0,12967.0,14225.0,1.6374355554580688,0.052118550971135984,-0.07071951878430663,0.0586160861737021,-0.0037766555324196815,0.002072687493637204,0.0
184,5,2.4035805836319923e-05,2.206572753493674e-05,1.834261820476968e-05,0.0035891798324882984,-0.0039037149399518967,0.0009230229770764709,-0.006161737255752087,-0.07883656769990921,0.008190125226974487,-0.008973144926130772,0.0030887036118656397,-0.09441327303647995,0.0,0.0,0.0,-0.00012692667951341718,-0.0004117583157494664,-0.0,0.0,0.0,0.0,0.0014013207983225584,0.023979995399713516,0.0006962546613067389,14499.0,12259.0,11080.0,15739.0,0.47289592027664185,0.3309589922428131,0.26635608077049255,0.5622758865356445,0.0,0.0,0.0,0.0,15963.0,10267.0,12967.0,14225.0,1.6302586793899536,0.05178336835486095,-0.07094352669502536,0.06009350942062213,0.0016175241908058524,-0.00038354648859240115,0.0
189,5,3.4397939998598304e-06,-1.4983798791945446e-05,8.051045369938947e-06,-0.001035849447362125,0.0028844571206718683,0.0016041978960856795,-0.00634940667077899,-0.07879278063774109,0.0073198177851736546,-0.011948268860578537,-0.025253118947148323,0.32090434432029724,0.0,0.0,0.0,-0.00012692667951341718,-0.0004117583157494664,-0.0,0.0,0.0,0.0,0.00117510708514601,0.022947577759623528,0.004770475905388594,17323.0,7850.0,14728.0,12469.0,0.687660813331604,0.12511888146400452,0.4888549745082855,0.34318429231643677,0.0,0.0,0.0,0.0,12788.0,14176.0,8670.0,17178.0,1.6302586793899536,0.05199954692953507,-0.07053175289531528,0.05815132506369856,0.0016175241908058524,-0.00038354648859240115,0.0
194,5,-8.525932571501471e-06,-1.857381357694976e-05,1.70246548805153e-05,-0.001850227010436356,0.001584584591910243,-0.00043515386641956866,-0.00634940667077899,-0.07879278063774109,0.0073198177851736546,-0.011948268860578537,-0.025253118947148323,0.32090434432029724,0.0,0.0,0.0,-0.0035485730040818453,-0.0009681116789579391,-0.0,0.0,0.0,0.0,0.00117510708514601,0.022947577759623528,0.004770475905388594,17323.0,7850.0,14728.0,12469.0,0.687660813331604,0.12511888146400452,0.4888549745082855,0.34318429231643677,0.0,0.0,0.0,0.0,12788.0,14176.0,8670.0,17178.0,1.6570624113082886,0.051830277976722135,-0.07101907480989643,0.057580219121008844,0.0038655688986182213,-0.010899322107434273,-0.0
199,5,-2.44752459366282e-06,1.7792666767491028e-05,1.712516495899763e-05,-1.068179335561581e-05,-0.003730143653228879,-0.00018612279382068664,-0.006320079322904348,-0.07884332537651062,0.007212231867015362,0.004980090539902449,0.024515530094504356,-0.4083094894886017,0.0,0.0,0.0,-0.0035485730040818453,-0.0009681116789579391,-0.0,0.0,0.0,0.0,0.0012839940609410405,0.024630703032016754,-0.008301036432385445,11301.0,15294.0,5903.0,18227.0,0.2779299020767212,0.5293270349502563,0.06527894735336304,0.7648996710777283,0.0,0.0,0.0,0.0,13251.0,13624.0,9378.0,16735.0,1.6570624113082886,0.05149643802807802,-0.07112996933661271,0.05943730218340798,0.0038655688986182213,-0.010899322107434273,-0.0
204,5,-1.249208480658126e-06,1.1038468073820695e-05,-1.8790058220474748e-06,0.00013952520384918898,-0.0006815536762587726,0.002206051256507635,-0.006320079322904348,-0.07884332537651062,0.007212231867015362,0.004980090539902449,0.024515530094504356,-0.4083094894886017,0.0,0.0,0.0,0.004567275755107403,-1.3363774087338243e-05,-0.0,0.0,0.0,0.0,0.0012839940609410405,0.024630703032016754,-0.008301036432385445,11301.0,15294.0,5903.0,18227.0,0.2779299020767212,0.5293270349502563,0.06527894735336304,0.7648996710777283,0.0,0.0,0.0,0.0,13251.0,13624.0,9378.0,16735.0,1.6638622283935547,0.05195157619991679,-0.07123785944585748,0.05913083983634352,5.357891132007353e-05,0.014085764065384865,0.0
209,5,-1.2537425391201396e-05,-1.2629566299438011e-05,-8.210477062675636e-06,-0.0012987758964300156,0.002567542716860771,0.0016421971376985312,-0.006189059931784868,-0.07873239368200302,0.008168268948793411,0.01789494790136814,-0.001890272367745638,0.1842838078737259,0.0,0.0,0.0,0.004567275755107403,-1.3363774087338243e-05,-0.0,0.0,0.0,0.0,0.001117034931667149,0.023481253534555435,0.00886416994035244,17453.0,7336.0,14785.0,12266.0,0.6985687017440796,0.10747048258781433,0.492821604013443,0.3313979208469391,0.0,0.0,0.0,0.0,15187.0,11449.0,11941.0,15027.0,1.6638622283935547,0.05247422723322779,-0.07100221037830168,0.058385851005562595,5.357891132007353e-05,0.014085764065384865,0.0
214,5,-2.063024658127688e-05,7.613157322339248e-07,-9.865881111181807e-06,-0.0014906488358974457,-0.0005798888159915805,0.0008555272361263633,-0.006189059931784868,-0.07873239368200302,0.008168268948793411,0.01789494790136814,-0.001890272367745638,0.1842838078737259,0.0,0.0,0.0,-0.003160930937156081,-0.0012384374858811498,-0.0,0.0,0.0,0.0,0.001117034931667149,0.023481253534555435,0.00886416994035244,17453.0,7336.0,14785.0,12266.0,0.6985687017440796,0.10747048258781433,0.492821604013443,0.3313979208469391,0.0,0.0,0.0,0.0,15187.0,11449.0,11941.0,15027.0,1.6552234888076782,0.052294357091742336,-0.0711314148845335,0.058856733131996956,0.00493946997448802,-0.009697926230728626,0.0
219,5,-1.7303553249803372e-05,-1.1922730664082337e-05,7.109611942723859e-06,-0.00019705636077560484,0.0012901300797238946,-0.0016948481788858771,-0.005869231186807156,-0.07879892736673355,0.00764882005751133,0.02381434291601181,0.00066028704168275,-0.020706264302134514,0.0,0.0,0.0,-0.003160930937156081,-0.0012384374858811498,-0.0,0.0,0.0,0.0,8.118194091366604e-05,0.023808900266885757,-0.0012623583897948265,15268.0,11702.0,11965.0,15108.0,0.5274450778961182,0.29956984519958496,0.31421035528182983,0.5158370733261108,0.0,0.0,0.0,0.0,16109.0,10418.0,13206.0,14097.0,1.6552234888076782,0.051992399852176,-0.07097915471654975,0.05859127721834314,0.00493946997448802,-0.009697926230728626,0.0
224,5,-1.944428549904842e-05,-2.5321543944301084e-05,3.464619294391014e-05,-0.00033571035601198673,0.0021239095367491245,-0.003982329275459051,-0.005869231186807156,-0.07879892736673355,0.00764882005751133,0.02381434291601181,0.00066028704168275,-0.020706264302134514,0.0,0.0,0.0,-0.001613912987522781,-0.000211215578019619,-0.0,0.0,0.0,0.0,8.118194091366604e-05,0.023808900266885757,-0.0012623583897948265,15268.0,11702.0,11965.0,15108.0,0.5274450778961182,0.29956984519958496,0.31421035528182983,0.5158370733261108,0.0,0.0,0.0,0.0,16109.0,10418.0,13206.0,14097.0,1.6392415761947632,0.05234407503087148,-0.0715032100953623,0.058292328327492544,0.0008342961664311588,-0.004903783556073904,0.0
229,5,-1.1038353477488272e-05,-3.335222208988853e-05,6.996350566623732e-05,0.0008744276710785925,0.00181324512232095,-0.005831008777022362,-0.005869231186807156,-0.07879892736673355,0.00764882005751133,0.02381434291601181,0.00066028704168275,-0.020706264302134514,0.0,0.0,0.0,-0.001613912987522781,-0.000211215578019619,-0.0,0.0,0.0,0.0,8.118194091366604e-05,0.023808900266885757,-0.0012623583897948265,15268.0,11702.0,11965.0,15108.0,0.5274450778961182,0.29956984519958496,0.31421035528182983,0.5158370733261108,0.0,0.0,0.0,0.0,16109.0,10418.0,13206.0,14097.0,1.6392415761947632,0.05278343500542176,-0.07181444498851328,0.05837535752531914,0.0008342961664311588,-0.004903783556073904,0.0
234,5,-2.5006840587593615e-05,-5.585191320278682e-05,0.00011133203952340409,-0.0013264474691823125,0.003425261238589883,-0.007296627853065729,-0.005907506216317415,-0.07851424068212509,0.007966605015099049,0.007565860170871019,-0.06332114338874817,-0.08980707079172134,0.0,0.0,0.0,-0.0022881042677909136,0.0008111008210107684,-0.0,0.0,0.0,0.0,0.002140291966497898,0.02316114865243435,-0.0003780759871006012,14668.0,12228.0,11604.0,15652.0,0.48461729288101196,0.32920774817466736,0.2942352592945099,0.5558018684387207,0.0,0.0,0.0,0.0,14628.0,12326.0,11694.0,15549.0,1.6465917825698853,0.053271823283812664,-0.07294294487151542,0.05829341577962611,-0.0032181888818740845,-0.006983443628996611,0.0
240,5,-4.603916750056669e-05,-5.448747833725065e-05,0.00020576821407303214,-0.0030544584151357412,0.0012063720496371388,-0.014250990934669971,-0.005907506216317415,-0.07851424068212509,0.007966605015099049,0.007565860170871019,-0.06332114338874817,-0.08980707079172134,0.0,0.0,0.0,-0.0022881042677909136,0.0008111008210107684,-0.0,0.0,0.0,0.0,0.002140291966497898,0.02316114865243435,-0.0003780759871006012,14668.0,12228.0,11604.0,15652.0,0.48461729288101196,0.32920774817466736,0.2942352592945099,0.5558018684387207,0.0,0.0,0.0,0.0,14628.0,12326.0,11694.0,15549.0,1.6465917825698853,0.0541885855030135,-0.07397748491827262,0.05831980321045551,-0.0032181888818740845,-0.006983443628996611,0.0
245,5,-7.814923446858302e-05,-6.894650141475722e-05,0.0002932818024419248,-0.005074991378933191,0.002217632019892335,-0.01620202697813511,-0.0053289178758859634,-0.07745341211557388,0.00786956399679184,0.06505856662988663,-0.09919445216655731,0.030449392274022102,0.0,0.0,0.0,-0.0015678153140470386,-0.0029269210062921047,-0.0,0.0,0.0,0.0,-0.0008712816634215415,0.017894763499498367,0.0011765991803258657,15590.0,11338.0,12669.0,14445.0,0.5511046648025513,0.2798897624015808,0.3550720810890198,0.46915698051452637,0.0,0.0,0.0,0.0,14645.0,12556.0,11666.0,15252.0,1.6600208282470703,0.0549854767802439,-0.07599771673631399,0.058637918312266266,0.011707799509167671,-0.004824104253202677,0.0
250,5,-0.00014962098794057965,-8.329295087605715e-05,0.00041969475569203496,-0.010606606490910053,0.002608626615256071,-0.021650366485118866,-0.0053289178758859634,-0.07745341211557388,0.00786956399679184,0.06505856662988663,-0.09919445216655731,0.030449392274022102,0.0,0.0,0.0,-0.0015678153140470386,-0.0029269210062921047,-0.0,0.0,0.0,0.0,-0.0008712816634215415,0.017894763499498367,0.0011765991803258657,15590.0,11338.0,12669.0,14445.0,0.5511046648025513,0.2798897624015808,0.3550720810890198,0.46915698051452637,0.0,0.0,0.0,0.0,14645.0,12556.0,11666.0,15252.0,1.6600208282470703,0.05581979223648497,-0.07902512943233753,0.058409403003129697,0.011707799509167671,-0.004824104253202677,0.0
255,5,-0.00022811800590716302,-8.6692460172344e-05,0.0005601962911896408,-0.013662286102771759,0.0014513912610709667,-0.02552032843232155,-0.004571839235723019,-0.07594965398311615,0.007456139661371708,0.11845042556524277,-0.34200313687324524,0.07891103625297546,0.0,0.0,0.0,-0.00317898066714406,-0.009694128297269344,-0.0,0.0,0.0,0.0,-0.0008712816634215415,0.017894763499498367,0.0011765991803258657,15473.0,11433.0,13062.0,13905.0,0.5424655079841614,0.2850024700164795,0.378940224647522,0.43283337354660034,0.0,0.0,0.0,0.0,15715.0,11159.0,13674.0,13250.0,1.7380374670028687,0.056539193313094434,-0.08351151447343111,0.05889790296707962,0.04059857875108719,-0.010241280309855938,0.0
260,5,-0.00030903841252438724,-8.866479038260877e-05,0.0006978221936151385,-0.015175363048911095,0.0008172368980012834,-0.026723241433501244,-0.004571839235723019,-0.07594965398311615,0.007456139661371708,0.11845042556524277,-0.34200313687324524,0.07891103625297546,0.0,0.0,0.0,-0.00317898066714406,-0.009694128297269344,-0.0,0.0,0.0,0.0,-0.0008712816634215415,0.017894763499498367,0.0011765991803258657,15473.0,11433.0,13062.0,13905.0,0.5424655079841614,0.2850024700164795,0.378940224647522,0.43283337354660034,0.0,0.0,0.0,0.0,15715.0,11159.0,13674.0,13250.0,1.7380374670028687,0.05818098834162075,-0.08830561551606549,0.05981781355419657,0.04059857875108719,-0.010241280309855938,0.0
265,5,-0.00042864616261795163,-0.00010676636156858876,0.0008653407567180693,-0.020423075184226036,0.002499082824215293,-0.030791522935032845,-0.002930885413661599,-0.07022937387228012,0.0075454190373420715,0.14729522168636322,-0.6481947302818298,-0.07157322764396667,0.0,0.0,0.0,-0.0010755794355645776,-0.013646840117871761,-0.0,0.0,0.0,0.0,-0.002588497241958976,-0.0017812550067901611,0.003389941994100809,13908.0,13467.0,12406.0,14452.0,0.43303465843200684,0.40438997745513916,0.339522123336792,0.46964502334594727,0.0,0.0,0.0,0.0,14453.0,12975.0,13240.0,13605.0,1.7823631763458252,0.05888069850640257,-0.09474281852766736,0.059632709556380024,0.05860929191112518,-0.003553424496203661,0.0
270,5,-0.0005701638874597847,-0.0001320453593507409,0.0010676693636924028,-0.02515135519206524,0.004033112432807684,-0.036596037447452545,-0.002930885413661599,-0.07022937387228012,0.0075454190373420715,0.14729522168636322,-0.6481947302818298,-0.07157322764396667,0.0,0.0,0.0,-0.0010755794355645776,-0.013646840117871761,-0.0,0.0,0.0,0.0,-0.002588497241958976,-0.0017812550067901611,0.003389941994100809,13908.0,13467.0,12406.0,14452.0,0.43303465843200684,0.40438997745513916,0.339522123336792,0.46964502334594727,0.0,0.0,0.0,0.0,14453.0,12975.0,13240.0,13605.0,1.7823631763458252,0.059753755552998486,-0.10130001403903394,0.059619752132354674,0.05860929191112518,-0.003553424496203661,0.0
275,5,-0.000716946495231241,-0.00015410104242619127,0.001264430582523346,-0.02767445705831051,0.004259928595274687,-0.03824976459145546,-0.0014590705977752805,-0.06330077350139618,0.008077153004705906,0.19044414162635803,-1.1153651475906372,0.04653789848089218,0.0,0.0,0.0,-0.00453528156504035,-0.021449962630867958,-0.0,0.0,0.0,0.0,-0.002649177797138691,-0.013645040802657604,-1.374620660499204e-05,14657.0,12896.0,14689.0,12090.0,0.4838816523551941,0.36876463890075684,0.48607122898101807,0.3213033080101013,0.0,0.0,0.0,0.0,13474.0,14118.0,14017.0,12884.0,1.8857076168060303,0.06128207825913265,-0.10868984109569046,0.060375610046609234,0.09745744615793228,-0.01585201360285282,0.0
280,5,-0.000861623790115118,-0.00020084838615730405,0.001416391460224986,-0.028431054204702377,0.007313651032745838,-0.03353521227836609,-0.0014590705977752805,-0.06330077350139618,0.008077153004705906,0.19044414162635803,-1.1153651475906372,0.04653789848089218,0.0,0.0,0.0,-0.00453528156504035,-0.021449962630867958,-0.0,0.0,0.0,0.0,-0.002649177797138691,-0.013645040802657604,-1.374620660499204e-05,14657.0,12896.0,14689.0,12090.0,0.4838816523551941,0.36876463890075684,0.48607122898101807,0.3213033080101013,0.0,0.0,0.0,0.0,13474.0,14118.0,14017.0,12884.0,1.8857076168060303,0.06351245498055501,-0.11543873223893689,0.060024447456310415,0.09745744615793228,-0.01585201360285282,0.0
285,5,-0.0010248897597193718,-0.0002377566124778241,0.001585502875968814,-0.030964335426688194,0.0073544480837881565,-0.033707454800605774,0.0006421253783628345,-0.04847511649131775,0.007775068748742342,0.16261470317840576,-1.4023922681808472,-0.00215303641743958,0.0,0.0,0.0,-0.007989315316081047,-0.02398844063282013,-0.0,0.0,0.0,0.0,-0.002585538662970066,-0.0247181486338377,0.0017751614795997739,12942.0,15444.0,15948.0,11570.0,0.37156814336776733,0.5403242111206055,0.5781238079071045,0.2923469543457031,0.0,0.0,0.0,0.0,14024.0,14225.0,15903.0,11121.0,1.926815152168274,0.06517757079089803,-0.12332830156838266,0.06106119921302993,0.11136236786842346,-0.028533153235912323,0.0
290,5,-0.001167553011327982,-0.00026287382934242487,0.00173136405646801,-0.029505325481295586,0.005955845583230257,-0.030986331403255463,0.0006421253783628345,-0.04847511649131775,0.007775068748742342,0.16261470317840576,-1.4023922681808472,-0.00215303641743958,0.0,0.0,0.0,-0.007989315316081047,-0.02398844063282013,-0.0,0.0,0.0,0.0,-0.002585538662970066,-0.0247181486338377,0.0017751614795997739,12942.0,15444.0,15948.0,11570.0,0.37156814336776733,0.5403242111206055,0.5781238079071045,0.2923469543457031,0.0,0.0,0.0,0.0,14024.0,14225.0,15903.0,11121.0,1.926815152168274,0.06676287799000667,-0.13085986683405917,0.061539766155596164,0.11136236786842346,-0.028533153235912323,0.0
295,5,-0.0013329725479707122,-0.00026428725686855614,0.001904656644910574,-0.031652480363845825,0.0025519493501633406,-0.03318963944911957,0.0018759735394269228,-0.03631741553544998,0.00846503023058176,0.13839179277420044,-1.6187561750411987,0.011514694429934025,0.0,0.0,0.0,-0.006620410829782486,-0.02507205121219158,-0.0,0.0,0.0,0.0,-0.0029520131647586823,-0.03162374347448349,0.002113578375428915,13569.0,15690.0,17313.0,10338.0,0.4109324514865875,0.558593213558197,0.6868939995765686,0.22928789258003235,0.0,0.0,0.0,0.0,11913.0,16207.0,15461.0,12268.0,1.9381481409072876,0.06722012434521571,-0.13915038387737094,0.06313501216679608,0.11707758158445358,-0.02378344163298607,0.0
300,5,-0.0014717448502779007,-0.0002634019765537232,0.0020424758549779654,-0.029313666746020317,0.0009145475341938436,-0.029814161360263824,0.0018759735394269228,-0.03631741553544998,0.00846503023058176,0.13839179277420044,-1.6187561750411987,0.011514694429934025,0.0,0.0,0.0,-0.006620410829782486,-0.02507205121219158,-0.0,0.0,0.0,0.0,-0.0029520131647586823,-0.03162374347448349,0.002113578375428915,13569.0,15690.0,17313.0,10338.0,0.4109324514865875,0.558593213558197,0.6868939995765686,0.22928789258003235,0.0,0.0,0.0,0.0,11913.0,16207.0,15461.0,12268.0,1.9381481409072876,0.06748029029539097,-0.14683344488768296,0.06430436002548291,0.11707758158445358,-0.02378344163298607,0.0
305,5,-0.0015993687557056546,-0.00027273912564851344,0.0021514235995709896,-0.027040330693125725,0.0014862745301797986,-0.024999400600790977,0.0038070965092629194,-0.004611924756318331,0.009306821972131729,0.01778223179280758,-1.3476121425628662,-0.026953568682074547,0.0,0.0,0.0,-0.0013614188646897674,-0.02532094530761242,-0.0,0.0,0.0,0.0,-0.002824780996888876,-0.03316202759742737,0.001309297513216734,12634.0,16636.0,16546.0,12021.0,0.35300207138061523,0.6317939162254333,0.6246364712715149,0.31738269329071045,0.0,0.0,0.0,0.0,14381.0,14959.0,17882.0,9272.0,1.9347881078720093,0.06858806353857344,-0.15275230981654753,0.06456177361685782,0.11803706735372543,-0.004882401321083307,0.0
311,5,-0.001693214988335967,-0.000260754837654531,0.002233710838481784,-0.022077681496739388,-0.0008436022908426821,-0.019874224439263344,0.0038070965092629194,-0.004611924756318331,0.009306821972131729,0.01778223179280758,-1.3476121425628662,-0.026953568682074547,0.0,0.0,0.0,-0.0013614188646897674,-0.02532094530761242,-0.0,0.0,0.0,0.0,-0.002824780996888876,-0.03316202759742737,0.001309297513216734,12634.0,16636.0,16546.0,12021.0,0.35300207138061523,0.6317939162254333,0.6246364712715149,0.31738269329071045,0.0,0.0,0.0,0.0,14381.0,14959.0,17882.0,9272.0,1.9347881078720093,0.06846898164543957,-0.1582378041466777,0.06581495596825818,0.11803706735372543,-0.004882401321083307,0.0
316,5,-0.0017645987682044506,-0.00025402469327673316,0.0023082036059349775,-0.017397133633494377,-0.001145058311522007,-0.016888804733753204,0.0038070965092629194,-0.004611924756318331,0.009306821972131729,0.01778223179280758,-1.3476121425628662,-0.026953568682074547,0.0,0.0,0.0,0.0004977707285434008,-0.020459001883864403,-0.0,0.0,0.0,0.0,-0.0019506012322381139,-0.027526162564754486,0.005268510896712542,14818.0,14674.0,17807.0,10101.0,0.4951435923576355,0.4850795269012451,0.7285659313201904,0.21802614629268646,0.0,0.0,0.0,0.0,12644.0,16595.0,16502.0,12132.0,1.8688602447509766,0.06788815333129575,-0.16140206324472253,0.06654472499963607,0.09212613105773926,0.0017243074253201485,0.0
321,5,-0.0018195559969171882,-0.0002602662716526538,0.0023609460331499577,-0.013553722761571407,0.00029096624348312616,-0.013084634207189083,0.0038070965092629194,-0.004611924756318331,0.009306821972131729,0.01778223179280758,-1.3476121425628662,-0.026953568682074547,0.0,0.0,0.0,0.0004977707285434008,-0.020459001883864403,-0.0,0.0,0.0,0.0,-0.0019506012322381139,-0.027526162564754486,0.005268510896712542,14818.0,14674.0,17807.0,10101.0,0.4951435923576355,0.4850795269012451,0.7285659313201904,0.21802614629268646,0.0,0.0,0.0,0.0,12644.0,16595.0,16502.0,12132.0,1.8688602447509766,0.06678587491404224,-0.16378951398136093,0.06634250172435766,0.09212613105773926,0.0017243074253201485,0.0
326,5,-0.001856335555203259,-0.00025850918609648943,0.002441183663904667,-0.00983502808958292,-9.446559124626219e-05,-0.0148623650893569,0.00249016797170043,0.01383266132324934,0.010386819019913673,-0.13547806441783905,-0.3604079484939575,-0.08484692126512527,0.0,0.0,0.0,-0.0007629013853147626,-0.01412597019225359,-0.0,0.0,0.0,0.0,0.0008945039007812738,-0.020614268258213997,-8.509533654432744e-05,12923.0,16091.0,15656.0,13697.0,0.3704182207584381,0.5890998244285583,0.556081235408783,0.41918888688087463,0.0,0.0,0.0,0.0,15052.0,14225.0,18031.0,10165.0,1.7881107330322266,0.06576578536562533,-0.16536855755452415,0.0663132521938826,0.06086253374814987,-0.0025285484734922647,0.0
331,5,-0.0018322356045246124,-0.0002446102153044194,0.002478349953889847,-0.0010420253966003656,-0.001705661998130381,-0.010404903441667557,0.00249016797170043,0.01383266132324934,0.010386819019913673,-0.13547806441783905,-0.3604079484939575,-0.08484692126512527,0.0,0.0,0.0,-0.0007629013853147626,-0.01412597019225359,-0.0,0.0,0.0,0.0,0.0008945039007812738,-0.020614268258213997,-8.509533654432744e-05,12923.0,16091.0,15656.0,13697.0,0.3704182207584381,0.5890998244285583,0.556081235408783,0.41918888688087463,0.0,0.0,0.0,0.0,15052.0,14225.0,18031.0,10165.0,1.7881107330322266,0.06418567239476367,-0.16544925098727048,0.06726246648175298,0.06086253374814987,-0.0025285484734922647,0.0
336,5,-0.0017868323484435678,-0.00021803384879603982,0.0024805704597383738,0.00503157963976264,-0.00387142994441092,-0.004428406711667776,0.0005314199952408671,0.01467136386781931,0.01127471961081028,-0.18615970015525818,0.173526331782341,0.18613766133785248,0.0,0.0,0.0,0.0016333704115822911,-0.003492244053632021,-0.0,0.0,0.0,0.0,0.0017192296218127012,-0.010906201787292957,0.005054375156760216,15695.0,12698.0,16912.0,11694.0,0.5589588284492493,0.3567916750907898,0.6539793610572815,0.29913032054901123,0.0,0.0,0.0,0.0,13327.0,15719.0,15663.0,13739.0,1.66604745388031,0.062863719421733,-0.1641101555115149,0.06772012197332611,0.014019818045198917,0.005044059827923775,0.0
341,5,-0.001724987756460905,-0.0002367967099417001,0.0024665326345711946,0.009433995932340622,0.0007029719999991357,-8.682673069415614e-05,0.0005314199952408671,0.01467136386781931,0.01127471961081028,-0.18615970015525818,0.173526331782341,0.18613766133785248,0.0,0.0,0.0,0.0016333704115822911,-0.003492244053632021,-0.0,0.0,0.0,0.0,0.0017192296218127012,-0.010906201787292957,0.005054375156760216,15695.0,12698.0,16912.0,11694.0,0.5589588284492493,0.3567916750907898,0.6539793610572815,0.29913032054901123,0.0,0.0,0.0,0.0,13327.0,15719.0,15663.0,13739.0,1.66604745388031,0.061701189594482404,-0.16169130523569877,0.06701466525009561,0.014019818045198917,0.005044059827923775,0.0
346,5,-0.001555267139337957,-0.00020729380776174366,0.002402231562882662,0.016727956011891365,-0.002685010898858309,0.004638280253857374,-0.0008718260796740651,0.01119383703917265,0.011279660277068615,-0.1492992639541626,0.6165184378623962,-0.09059290587902069,0.0,0.0,0.0,-0.001255118171684444,0.006324314512312412,-0.0,0.0,0.0,0.0,0.002294322242960334,0.0015149067621678114,-0.0008982346625998616,13988.0,14568.0,13950.0,15125.0,0.4383246898651123,0.4776844382286072,0.43577325344085693,0.5170778632164001,0.0,0.0,0.0,0.0,15699.0,12629.0,16502.0,12341.0,1.6962236166000366,0.0592514519591551,-0.15403121867196462,0.06728819064052116,-0.02584908716380596,-0.003946172539144754,0.0
351,5,-0.001555267139337957,-0.00020729380776174366,0.002402231562882662,0.016727956011891365,-0.002685010898858309,0.004638280253857374,-0.0008718260796740651,0.01119383703917265,0.011279660277068615,-0.1492992639541626,0.6165184378623962,-0.09059290587902069,0.0,0.0,0.0,-0.001255118171684444,0.006324314512312412,-0.0,0.0,0.0,0.0,0.002294322242960334,0.0015149067621678114,-0.0008982346625998616,13988.0,14568.0,13950.0,15125.0,0.4383246898651123,0.4776844382286072,0.43577325344085693,0.5170778632164001,0.0,0.0,0.0,0.0,15699.0,12629.0,16502.0,12341.0,1.6962236166000366,0.0592514519591551,-0.15403121867196462,0.06728819064052116,-0.02584908716380596,-0.003946172539144754,0.0
356,5,-0.0013706235913559794,-0.00023129321925807744,0.0022475705482065678,0.017691945657134056,0.0020754120778292418,0.013961304910480976,-0.0008718260796740651,0.01119383703917265,0.011279660277068615,-0.1492992639541626,0.6165184378623962,-0.09059290587902069,0.0,0.0,0.0,0.0027154695708304644,0.012675581499934196,-0.0,0.0,0.0,0.0,0.002294322242960334,0.0015149067621678114,-0.0008982346625998616,13988.0,14568.0,13950.0,15125.0,0.4383246898651123,0.4776844382286072,0.43577325344085693,0.5170778632164001,0.0,0.0,0.0,0.0,15699.0,12629.0,16502.0,12341.0,1.7722587585449219,0.0576609514680733,-0.14612337887294655,0.0662812157223772,-0.054129458963871,0.008920303545892239,-0.0
361,5,-0.0012888230849057436,-0.00022794499818701297,0.0021685936953872442,0.016892848536372185,0.00042837776709347963,0.015061751939356327,-0.002922002226114273,0.0027453736402094364,0.012059133499860764,-0.16723088920116425,0.7918544411659241,0.16169767081737518,0.0,0.0,0.0,0.0027154695708304644,0.012675581499934196,-0.0,0.0,0.0,0.0,0.002991232555359602,0.009309865534305573,0.004944664891809225,16337.0,10977.0,15493.0,12997.0,0.6081479787826538,0.2610641419887543,0.5439516305923462,0.3749469220638275,0.0,0.0,0.0,0.0,14323.0,13618.0,13736.0,14766.0,1.7722587585449219,0.057183863433856695,-0.14243838859462765,0.06590132566546592,-0.054129458963871,0.008920303545892239,-0.0
366,5,-0.0012105032801628113,-0.00023245046031661332,0.002086800057440996,0.016155516728758812,0.0007120071677491069,0.015839941799640656,-0.002922002226114273,0.0027453736402094364,0.012059133499860764,-0.16723088920116425,0.7918544411659241,0.16169767081737518,0.0,0.0,0.0,0.0027154695708304644,0.012675581499934196,-0.0,0.0,0.0,0.0,0.002991232555359602,0.009309865534305573,0.004944664891809225,16337.0,10977.0,15493.0,12997.0,0.6081479787826538,0.2610641419887543,0.5439516305923462,0.3749469220638275,0.0,0.0,0.0,0.0,14323.0,13618.0,13736.0,14766.0,1.7759860754013062,0.05696128361220671,-0.13859381300826226,0.06647982655528836,-0.056208737194538116,-0.0028692828491330147,-0.0
372,5,-0.0011661248281598091,-0.00022910597908776253,0.0020193259697407484,0.011787617579102516,-0.00011653492401819676,0.014432869851589203,-0.0042131817899644375,-0.003691054880619049,0.011909988708794117,-0.13459371030330658,0.8211556673049927,-0.09952938556671143,0.0,0.0,0.0,-0.000871616299264133,0.013134846463799477,-0.0,0.0,0.0,0.0,0.0029677816201001406,0.016569038853049278,-0.0007987631252035499,14177.0,12718.0,12095.0,15379.0,0.4509504437446594,0.3580213785171509,0.32155776023864746,0.5355178713798523,0.0,0.0,0.0,0.0,15959.0,10235.0,14654.0,13064.0,1.7759860754013062,0.05635254177763952,-0.13592427118379674,0.06682426986015035,-0.056208737194538116,-0.0028692828491330147,-0.0
377,5,-0.001149856369011104,-0.0002400034572929144,0.001962432637810707,0.006667254958301783,0.0012610842240974307,0.012600339017808437,-0.0042131817899644375,-0.003691054880619049,0.011909988708794117,-0.13459371030330658,0.8211556673049927,-0.09952938556671143,0.0,0.0,0.0,-0.000871616299264133,0.013134846463799477,-0.0,0.0,0.0,0.0,0.0029677816201001406,0.016569038853049278,-0.0007987631252035499,14177.0,12718.0,12095.0,15379.0,0.4509504437446594,0.3580213785171509,0.32155776023864746,0.5355178713798523,0.0,0.0,0.0,0.0,15959.0,10235.0,14654.0,13064.0,1.7759860754013062,0.05553904724023135,-0.1349385236282703,0.06616610730433636,-0.018623054027557373,-0.006059093866497278,-0.0
382,5,-0.001157628372311592,-0.0002412433532299474,0.0019388720393180847,0.0017342731589451432,0.0006532202824018896,0.00786740891635418,-0.005764434579759836,-0.012171054258942604,0.012745285406708717,-0.10351064801216125,0.5905956029891968,0.1887248456478119,0.0,0.0,0.0,-0.001947340788319707,0.004604088608175516,-0.0,0.0,0.0,0.0,0.0035781129263341427,0.01990383490920067,0.005443065892904997,17036.0,9555.0,15107.0,13387.0,0.6640241146087646,0.19317446649074554,0.5157575607299805,0.39930260181427,0.0,0.0,0.0,0.0,16816.0,9962.0,15033.0,13462.0,1.6786404848098755,0.05545645894039681,-0.13434415830229654,0.06591524273568954,-0.018623054027557373,-0.006059093866497278,-0.0
387,5,-0.0011733236024156213,-0.00023539812536910176,0.0019457933958619833,-0.001189728849567473,-0.0004401390615385026,0.0023163973819464445,-0.005764434579759836,-0.012171054258942604,0.012745285406708717,-0.10351064801216125,0.5905956029891968,0.1887248456478119,0.0,0.0,0.0,-0.001947340788319707,0.004604088608175516,-0.0,0.0,0.0,0.0,0.0035781129263341427,0.01990383490920067,0.005443065892904997,17036.0,9555.0,15107.0,13387.0,0.6640241146087646,0.19317446649074554,0.5157575607299805,0.39930260181427,0.0,0.0,0.0,0.0,16816.0,9962.0,15033.0,13462.0,1.6786404848098755,0.05508879878086439,-0.13567510019783205,0.06718259556161132,0.010973813012242317,0.00034499907633289695,-0.0
392,5,-0.0012305808486416936,-0.00024324395053554326,0.001993785845115781,-0.007346758618950844,0.0007654426735825837,-0.004832538776099682,-0.006405942607671022,-0.015743372961878777,0.012665435671806335,-0.06310530751943588,0.20377245545387268,-0.11197394877672195,0.0,0.0,0.0,0.00011033902410417795,-0.002699764911085367,-0.0,0.0,0.0,0.0,0.002832359168678522,0.01506724301725626,-0.0012983182677999139,14266.0,13501.0,12599.0,15680.0,0.45696330070495605,0.40653127431869507,0.3508814573287964,0.5578827261924744,0.0,0.0,0.0,0.0,14485.0,13239.0,13357.0,15067.0,1.6868647336959839,0.05517330949495343,-0.1375659949248012,0.06737314290212253,0.010973813012242317,0.00034499907633289695,-0.0
397,5,-0.001292651635594666,-0.0002581569133326411,0.0020815078169107437,-0.010387200862169266,0.0020957316737622023,-0.012459641322493553,-0.006405942607671022,-0.015743372961878777,0.012665435671806335,-0.06310530751943588,0.20377245545387268,-0.11197394877672195,0.0,0.0,0.0,0.00011033902410417795,-0.002699764911085367,-0.0,0.0,0.0,0.0,0.002832359168678522,0.01506724301725626,-0.0012983182677999139,14266.0,13501.0,12599.0,15680.0,0.45696330070495605,0.40653127431869507,0.3508814573287964,0.5578827261924744,0.0,0.0,0.0,0.0,14485.0,13239.0,13357.0,15067.0,1.6868647336959839,0.05441886938430165,-0.14112233930771328,0.06679763463064968,0.010973813012242317,0.00034499907633289695,-0.0
402,5,-0.001361047849059105,-0.0002555487444624305,0.0021618492901325226,-0.012362421490252018,0.0005253133131191134,-0.01462484709918499,-0.007327464409172535,-0.015223313122987747,0.013711133971810341,-0.07584140449762344,-0.25175896286964417,0.1849517822265625,0.0,0.0,0.0,-0.002861347980797291,-0.010927760042250156,-0.0,0.0,0.0,0.0,0.0018540776800364256,0.003518339479342103,0.006402703933417797,16031.0,10550.0,15915.0,11321.0,0.5844284296035767,0.2396126091480255,0.575607419013977,0.27899208664894104,0.0,0.0,0.0,0.0,14924.0,12043.0,15311.0,12186.0,1.7517223358154297,0.054806190960177165,-0.1450453238318896,0.06721304668078507,0.04612516239285469,-0.00929059274494648,0.0
407,5,-0.0014490846078842878,-0.0002387541753705591,0.002270725555717945,-0.015509376302361488,-0.0018052217783406377,-0.0189150832593441,-0.007327464409172535,-0.015223313122987747,0.013711133971810341,-0.07584140449762344,-0.25175896286964417,0.1849517822265625,0.0,0.0,0.0,-0.002861347980797291,-0.010927760042250156,-0.0,0.0,0.0,0.0,0.0018540776800364256,0.003518339479342103,0.006402703933417797,16031.0,10550.0,15915.0,11321.0,0.5844284296035767,0.2396126091480255,0.575607419013977,0.27899208664894104,0.0,0.0,0.0,0.0,14924.0,12043.0,15311.0,12186.0,1.7517223358154297,0.05415987842344421,-0.14952779607594188,0.06889552586499598,0.04612516239285469,-0.00929059274494648,0.0
412,5,-0.001551839872263372,-0.0002459059760440141,0.0023575173690915108,-0.01853439211845398,0.0001361274771625176,-0.017981046810746193,-0.007679292932152748,-0.011275941506028175,0.012826590798795223,-0.04132279008626938,-0.671160876750946,-0.16037237644195557,0.0,0.0,0.0,0.0016294069355353713,-0.015242145396769047,-0.0,0.0,0.0,0.0,0.0025350202340632677,-0.009024695493280888,-0.003517880104482174,11448.0,15405.0,13319.0,14438.0,0.28578877449035645,0.5374201536178589,0.39496397972106934,0.4686918258666992,0.0,0.0,0.0,0.0,12511.0,14539.0,14593.0,13178.0,1.8024753332138062,0.05399907356916431,-0.15337606834505543,0.0688017446444774,0.06619877368211746,0.005443861708045006,0.0
417,5,-0.0016572567401453853,-0.00025429530069231987,0.0024533355608582497,-0.020063767209649086,0.001061169197782874,-0.018690604716539383,-0.007679292932152748,-0.011275941506028175,0.012826590798795223,-0.04132279008626938,-0.671160876750946,-0.16037237644195557,0.0,0.0,0.0,0.0016294069355353713,-0.015242145396769047,-0.0,0.0,0.0,0.0,0.0025350202340632677,-0.009024695493280888,-0.003517880104482174,11448.0,15405.0,13319.0,14438.0,0.28578877449035645,0.5374201536178589,0.39496397972106934,0.4686918258666992,0.0,0.0,0.0,0.0,12511.0,14539.0,14593.0,13178.0,1.8024753332138062,0.05428106514419906,-0.15725881176269796,0.0691267179297644,0.06619877368211746,0.005443861708045006,0.0
422,5,-0.0017589878989383578,-0.00025930078118108213,0.002510780468583107,-0.02023325115442276,0.0010251239873468876,-0.01436962466686964,-0.008089462295174599,-0.0022974959574639797,0.013531078584492207,0.004529207479208708,-0.8042304515838623,0.108705535531044,0.0,0.0,0.0,-0.0015726835699751973,-0.018945494666695595,-0.0,0.0,0.0,0.0,0.0011248853988945484,-0.017232215031981468,0.004867852665483952,14474.0,13348.0,16688.0,10716.0,0.47116416692733765,0.3967963457107544,0.6359092593193054,0.24785257875919342,0.0,0.0,0.0,0.0,13695.0,14168.0,16104.0,11567.0,1.849514126777649,0.05440863353196817,-0.16123212074895754,0.07008247303787198,0.08442848175764084,-0.005391470622271299,0.0
427,5,-0.001843322068452835,-0.0002519204863347113,0.0025756971444934607,-0.01821340247988701,-0.0004755824920721352,-0.013537845574319363,-0.008089462295174599,-0.0022974959574639797,0.013531078584492207,0.004529207479208708,-0.8042304515838623,0.108705535531044,0.0,0.0,0.0,-0.0015726835699751973,-0.018945494666695595,-0.0,0.0,0.0,0.0,0.0011248853988945484,-0.017232215031981468,0.004867852665483952,14474.0,13348.0,16688.0,10716.0,0.47116416692733765,0.3967963457107544,0.6359092593193054,0.24785257875919342,0.0,0.0,0.0,0.0,13695.0,14168.0,16104.0,11567.0,1.849514126777649,0.05499301648347272,-0.1643623731629341,0.06980107244538776,0.08442848175764084,-0.005391470622271299,0.0
432,5,-0.0018930310616269708,-0.00027323147514835,0.002596367849037051,-0.013250438496470451,0.0023670848459005356,-0.007895642891526222,-0.007816559635102749,0.004041461739689112,0.013500170782208443,0.043477389961481094,-0.7994894981384277,0.01479434221982956,0.0,0.0,0.0,0.00011283040657872334,-0.01776992902159691,-0.0,0.0,0.0,0.0,0.0013236218364909291,-0.021995848044753075,0.0030889653135091066,13023.0,15069.0,16014.0,12237.0,0.37657400965690613,0.5130606293678284,0.583171010017395,0.3296697437763214,0.0,0.0,0.0,0.0,13763.0,14388.0,16676.0,11317.0,1.8338439464569092,0.05502594796836282,-0.16688818887453358,0.06987830678652761,0.07851942628622055,0.0003835280076600611,0.0
437,5,-0.0019309634808450937,-0.00026346914819441736,0.002605839166790247,-0.009852061979472637,-0.00022464488574769348,-0.004294812213629484,-0.007816559635102749,0.004041461739689112,0.013500170782208443,0.043477389961481094,-0.7994894981384277,0.01479434221982956,0.0,0.0,0.0,0.00011283040657872334,-0.01776992902159691,-0.0,0.0,0.0,0.0,0.0013236218364909291,-0.021995848044753075,0.0030889653135091066,13023.0,15069.0,16014.0,12237.0,0.37657400965690613,0.5130606293678284,0.583171010017395,0.3296697437763214,0.0,0.0,0.0,0.0,13763.0,14388.0,16676.0,11317.0,1.8338439464569092,0.055601890288023495,-0.16853748415669434,0.06999419390880258,0.07851942628622055,0.0003835280076600611,0.0
442,5,-0.0019621592946350574,-0.00024859289987944067,0.0026218239217996597,-0.00768433790653944,-0.0018750082235783339,-0.003636082634329796,-0.007796023041009903,0.012828799895942211,0.014220449142158031,-0.010747048072516918,-0.6154462695121765,-0.006441909354180098,0.0,0.0,0.0,-0.00019136878836434335,-0.011279476806521416,-0.0,0.0,0.0,0.0,0.0013236218364909291,-0.021995848044753075,0.0030889653135091066,13639.0,14853.0,16479.0,12017.0,0.41544589400291443,0.4976544976234436,0.6193007826805115,0.31711289286613464,0.0,0.0,0.0,0.0,12774.0,15593.0,15726.0,13005.0,1.7533164024353027,0.054861730913954965,-0.17024312999777003,0.07036248120748581,0.047653187066316605,-0.0006219277856871486,0.0
447,5,-0.001986829563975334,-0.00024726049741730094,0.002624114276841283,-0.006034146528691053,-0.0009098927839659154,-0.0017292730044573545,-0.007796023041009903,0.012828799895942211,0.014220449142158031,-0.010747048072516918,-0.6154462695121765,-0.006441909354180098,0.0,0.0,0.0,-0.00019136878836434335,-0.011279476806521416,-0.0,0.0,0.0,0.0,0.0013236218364909291,-0.021995848044753075,0.0030889653135091066,13639.0,14853.0,16479.0,12017.0,0.41544589400291443,0.4976544976234436,0.6193007826805115,0.31711289286613464,0.0,0.0,0.0,0.0,12774.0,15593.0,15726.0,13005.0,1.7533164024353027,0.05504191591224329,-0.17039857352364435,0.07025756943429974,0.047653187066316605,-0.0006219277856871486,0.0
453,5,-0.0019943611696362495,-0.00023873485042713583,0.0026268812362104654,-0.003317461581900716,-0.0013870339607819915,-0.0010237406240776181,-0.007776252925395966,0.016831781715154648,0.014001778326928616,-0.04636117443442345,-0.35523608326911926,0.0855269655585289,0.0,0.0,0.0,0.0006393921794369817,-0.008128899149596691,-0.0,0.0,0.0,0.0,0.0025779635179787874,-0.00896739587187767,0.00028783309971913695,13140.0,14480.0,14581.0,13701.0,0.38375627994537354,0.47155869007110596,0.47856593132019043,0.4194355010986328,0.0,0.0,0.0,0.0,14591.0,13645.0,16853.0,11518.0,1.7179447412490845,0.05346622565181163,-0.16961499115531792,0.07025739424707059,0.033650223165750504,0.00203603389672935,0.0
458,5,-0.0019788010977208614,-0.00022079487098380923,0.0026214963290840387,0.0005402095848694444,-0.0027076106052845716,0.00023668863286729902,-0.007776252925395966,0.016831781715154648,0.014001778326928616,-0.04636117443442345,-0.35523608326911926,0.0855269655585289,0.0,0.0,0.0,0.0006393921794369817,-0.008128899149596691,-0.0,0.0,0.0,0.0,0.0025779635179787874,-0.00896739587187767,0.00028783309971913695,13140.0,14480.0,14581.0,13701.0,0.38375627994537354,0.47155869007110596,0.47856593132019043,0.4194355010986328,0.0,0.0,0.0,0.0,14591.0,13645.0,16853.0,11518.0,1.7179447412490845,0.05266019051075349,-0.16889254780887633,0.07073277183284526,0.033650223165750504,0.00203603389672935,0.0
463,5,-0.0019364129984751344,-0.00020242901518940926,0.00262732757255435,0.005302666686475277,-0.0032869474962353706,-0.0006050930824130774,-0.008584897965192795,0.018362371250987053,0.014275968074798584,-0.07001733779907227,0.06284493952989578,-0.07713441550731659,0.0,0.0,0.0,0.0028001167811453342,-0.002162847202271223,-0.0,0.0,0.0,0.0,0.0033884048461914062,-0.0012064810143783689,0.00405975803732872,13140.0,14480.0,14581.0,13701.0,0.38375627994537354,0.47155869007110596,0.47856593132019043,0.4194355010986328,0.0,0.0,0.0,0.0,13252.0,14346.0,14457.0,13865.0,1.7190613746643066,0.05197197666986044,-0.16674700083146954,0.07073238833000169,0.008959155529737473,0.008922263979911804,-0.0
468,5,-0.0018790013855323195,-0.00020322806085459888,0.0025938586331903934,0.009010461159050465,-0.001218892983160913,0.0037742345593869686,-0.008584897965192795,0.018362371250987053,0.014275968074798584,-0.07001733779907227,0.06284493952989578,-0.07713441550731659,0.0,0.0,0.0,0.0028001167811453342,-0.002162847202271223,-0.0,0.0,0.0,0.0,0.0033884048461914062,-0.0012064810143783689,0.00405975803732872,13140.0,14480.0,14581.0,13701.0,0.38375627994537354,0.47155869007110596,0.47856593132019043,0.4194355010986328,0.0,0.0,0.0,0.0,13252.0,14346.0,14457.0,13865.0,1.7190613746643066,0.05150424993166133,-0.16391359905375583,0.07035909458669583,0.008959155529737473,0.008922263979911804,-0.0
473,5,-0.0018186463275924325,-0.00017511584155727178,0.002559301210567355,0.010846797376871109,-0.003861025208607316,0.005656582303345203,-0.009245447814464569,0.016627730801701546,0.014536872506141663,-0.10993767529726028,0.35302796959877014,0.124287910759449,0.0,0.0,0.0,0.0010781596647575498,0.005636099725961685,-0.0,0.0,0.0,0.0,0.003889826126396656,0.00324674672447145,-0.0006716814823448658,15170.0,11868.0,15658.0,12288.0,0.5203468799591064,0.308752179145813,0.5561804175376892,0.33266526460647583,0.0,0.0,0.0,0.0,15236.0,11745.0,15539.0,12474.0,1.7190788984298706,0.05077774068846258,-0.16156791280624605,0.070233774101732,-0.023346610367298126,0.003435479011386633,-0.0
478,5,-0.001778098288923502,-0.00015403670840896666,0.0025195423513650894,0.009204472415149212,-0.0040739052928984165,0.007033701054751873,-0.009245447814464569,0.016627730801701546,0.014536872506141663,-0.10993767529726028,0.35302796959877014,0.124287910759449,0.0,0.0,0.0,0.0010781596647575498,0.005636099725961685,-0.0,0.0,0.0,0.0,0.003889826126396656,0.00324674672447145,-0.0006716814823448658,15170.0,11868.0,15658.0,12288.0,0.5203468799591064,0.308752179145813,0.5561804175376892,0.33266526460647583,0.0,0.0,0.0,0.0,15236.0,11745.0,15539.0,12474.0,1.7190788984298706,0.05013947383558864,-0.1597487547806699,0.0708540012731936,-0.023346610367298126,0.003435479011386633,-0.0
