timestamp,dt,pos_x,pos_y,pos_z,vel_x,vel_y,vel_z,roll,pitch,yaw,agv_x,agv_y,agv_z,x_ref,y_ref,z_ref,roll_ref,pitch_ref,yaw_ref,x_vel_ref,y_vel_ref,z_vel_ref,x_torque,y_torque,z_torque,w0,w1,w2,w3,u0,u1,u2,u3,m0req,m1req,m2req,m3req,thrust0,thrust1,thrust2,thrust3,thrust_ref,roll_vicon,pitch_vicon,yaw_vicon,acc_x,acc_y,acc_z
5,5,0.0,0.0,0.0,0.00017592422955203801,0.0013757473789155483,0.0006731190951541066,0.0,0.0,0.0,0.0,0.0,0.0,0.0,0.0,0.0,-0.001697289990261197,0.00016695518570486456,-0.0,0.0,0.0,0.0,0.0,0.0,0.0,0.0,0.0,0.0,0.0,0.0,0.0,0.0,0.0,0.0,0.0,0.0,0.0,0.0,0.0,0.0,0.0,1.6398561000823975,0.051936907711726064,-0.03571677833458094,0.08552957906383478,-0.0006597158499062061,-0.005159052554517984,0.0
43,38,0.0,0.0,0.0,0.0013123053358867764,4.137269934290089e-05,-0.002244619419798255,0.0,0.0,0.0,0.0,0.0,0.0,0.0,0.0,0.0,-0.001697289990261197,0.00016695518570486456,-0.0,0.0,0.0,0.0,0.0,0.0,0.0,0.0,0.0,0.0,0.0,0.0,0.0,0.0,0.0,0.0,0.0,0.0,0.0,0.0,0.0,0.0,0.0,1.6398561000823975,0.05157755871236116,-0.036198232682913764,0.08566522308360286,-0.0006597158499062061,-0.005159052554517984,0.0
48,5,0.0,0.0,0.0,0.0012873491505160928,0.001276868162676692,0.0008785632671788335,0.0,0.0,0.0,0.0,0.0,0.0,0.0,0.0,0.0,-5.1065806474070996e-05,0.001245971187017858,-0.0,0.0,0.0,0.0,0.0,0.0,0.0,0.0,0.0,0.0,0.0,0.0,0.0,0.0,0.0,0.0,0.0,0.0,0.0,0.0,0.0,0.0,0.0,1.6391034126281738,0.051967506553730516,-0.035754187113728436,0.08578406170319246,-0.0049211448058485985,-0.00015514761616941541,0.0
53,5,0.0,0.0,0.0,-0.0016257243696600199,-0.00011088559404015541,-0.0007029956905171275,0.0,0.0,0.0,0.0,0.0,0.0,0.0,0.0,0.0,-5.1065806474070996e-05,0.001245971187017858,-0.0,0.0,0.0,0.0,0.0,0.0,0.0,0.0,0.0,0.0,0.0,0.0,0.0,0.0,0.0,0.0,0.0,0.0,0.0,0.0,0.0,0.0,0.0,1.6391034126281738,0.05205078147682755,-0.035625402166288,0.0855978886596377,-0.0049211448058485985,-0.00015514761616941541,0.0
66,12,0.0,0.0,0.0,5.422130016086157e-06,-0.0011836123885586858,0.0017914100317284465,0.0,0.0,0.0,0.0,0.0,0.0,0.0,0.0,0.0,0.00013659679098054767,-0.001540526282042265,-0.0,0.0,0.0,0.0,0.0,0.0,0.0,0.0,0.0,0.0,0.0,0.0,0.0,0.0,0.0,0.0,0.0,0.0,0.0,0.0,0.0,0.0,0.0,1.6423183679580688,0.051928825562159865,-0.03628284848848034,0.08617875356219903,0.0060964664444327354,0.0004158209776505828,0.0
74,8,2.8298045435803942e-06,-1.6841997421579435e-05,-1.0203287274634931e-05,-5.822985258419067e-05,0.0017854011384770274,0.00129664596170187,0.0,0.0,0.0,0.0,0.0,0.0,0.0,0.0,0.0,0.0014620906440541148,5.152186076884391e-06,-0.0,0.0,0.0,0.0,0.0,0.0,0.0,0.0,0.0,0.0,0.0,0.0,0.0,0.0,0.0,0.0,0.0,0.0,0.0,0.0,0.0,0.0,0.0,1.6377899646759033,0.052209677151354626,-0.035918782981275564,0.08562817212167027,-2.0332987332949415e-05,0.004438546486198902,0.0
79,5,-2.1199027742113685e-06,-6.394577667379053e-06,1.391663226968376e-05,-0.0006172568537294865,-0.0005395298358052969,-0.0023757319431751966,0.0,0.0,0.0,0.0,0.0,0.0,0.0,0.0,0.0,-0.0022273368667811155,-5.118552871863358e-05,-0.0,0.0,0.0,0.0,0.0,0.0,0.0,0.0,0.0,0.0,0.0,0.0,0.0,0.0,0.0,0.0,0.0,0.0,0.0,0.0,0.0,0.0,0.0,1.6441614627838135,0.051760283185323254,-0.03591286978770747,0.08582819926165978,0.00020278811280149966,-0.006787944119423628,0.0
84,5,1.4911845937604085e-05,-1.7644533727434464e-05,2.4095868411677657e-06,0.0017969071632251143,0.0011341827921569347,0.0004305526672396809,0.0,0.0,0.0,0.0,0.0,0.0,0.0,0.0,0.0,-0.0022273368667811155,-5.118552871863358e-05,-0.0,0.0,0.0,0.0,0.0,0.0,0.0,0.0,0.0,0.0,0.0,0.0,0.0,0.0,0.0,0.0,0.0,0.0,0.0,0.0,0.0,0.0,0.0,1.6441614627838135,0.052123651920955534,-0.03578551964042878,0.0857193420621421,0.00020278811280149966,-0.006787944119423628,0.0
89,5,1.2805348887923174e-05,-2.526498428778723e-05,2.019939165620599e-05,0.00046598317567259073,0.0013681272976100445,-0.0019625555723905563,0.0,0.0,0.0,0.0,0.0,0.0,0.0,0.0,0.0,-0.0014244421618059278,0.0017178782727569342,-0.0,0.0,0.0,0.0,0.0,0.0,0.0,0.0,0.0,0.0,0.0,0.0,0.0,0.0,0.0,0.0,0.0,0.0,0.0,0.0,0.0,0.0,0.0,1.6476737260818481,0.051867567906707795,-0.03589927460075452,0.08571264049483682,-0.006820478942245245,-0.004350351169705391,0.0
97,7,1.0498405572434422e-05,-1.5425142919411883e-05,3.3044740121113136e-05,-9.043992031365633e-05,-0.0006335300859063864,-0.0023264638148248196,0.0,0.0,0.0,0.0,0.0,0.0,0.0,0.0,0.0,-0.0014244421618059278,0.0017178782727569342,-0.0,0.0,0.0,0.0,0.0,0.0,0.0,0.0,0.0,0.0,0.0,0.0,0.0,0.0,0.0,0.0,0.0,0.0,0.0,0.0,0.0,0.0,0.0,1.6476737260818481,0.051765013877213,-0.0358835691480415,0.08606679378216182,-0.006820478942245245,-0.004350351169705391,0.0
102,5,2.226253491244279e-05,-1.8188735339208506e-05,1.6446641893708147e-05,0.001375519554130733,7.821896724635735e-05,0.001061186078004539,0.0,0.0,0.0,0.0,0.0,0.0,0.0,0.0,0.0,0.0007572535541839898,-7.153353362809867e-05,-0.0,0.0,0.0,0.0,0.0,0.0,0.0,0.0,0.0,0.0,0.0,0.0,0.0,0.0,0.0,0.0,0.0,0.0,0.0,0.0,0.0,0.0,0.0,1.6320111751556396,0.05180586432394645,-0.03615524866804644,0.08597481876462344,0.0002813096216414124,0.002290724776685238,0.0
107,5,1.2553840861073695e-05,-1.1950512998737395e-05,2.371956543356646e-05,-0.0006148354732431471,-0.0007172990590333939,-0.0004482763179112226,0.0,0.0,0.0,0.0,0.0,0.0,0.0,0.0,0.0,0.0008657612488605082,-0.0005676245200447738,-0.0,0.0,0.0,0.0,0.0,0.0,0.0,0.0,0.0,0.0,0.0,0.0,0.0,0.0,0.0,0.0,0.0,0.0,0.0,0.0,0.0,0.0,0.0,1.6351032257080078,0.05203301115345989,-0.03556058931337849,0.0855701853385607,0.0022364440374076366,0.002623927081003785,0.0
112,5,9.96007292997092e-06,-6.14958707956248e-06,1.5891360817477107e-05,-0.0005571863148361444,-0.0009830306516960263,0.0007600739481858909,0.0,0.0,0.0,0.0,0.0,0.0,0.0,0.0,0.0,0.0008657612488605082,-0.0005676245200447738,-0.0,0.0,0.0,0.0,0.0,0.0,0.0,0.0,0.0,0.0,0.0,0.0,0.0,0.0,0.0,0.0,0.0,0.0,0.0,0.0,0.0,0.0,0.0,1.6351032257080078,0.05218701764938653,-0.035997098719496405,0.0858147615219924,0.0022364440374076366,0.002623927081003785,0.0
117,5,1.4197691598383244e-05,-3.6444052966544405e-06,8.547187462681904e-06,0.0002856397768482566,-0.0006938340957276523,0.0011853304458782077,0.0,0.0,0.0,0.0,0.0,0.0,0.0,0.0,0.0,0.0008657612488605082,-0.0005676245200447738,-0.0,0.0,0.0,0.0,0.0,0.0,0.0,0.0,0.0,0.0,0.0,0.0,0.0,0.0,0.0,0.0,0.0,0.0,0.0,0.0,0.0,0.0,0.0,1.6351032257080078,0.05226706117751939,-0.03608478174319253,0.08582999836247457,0.0022364440374076366,0.002623927081003785,0.0
124,6,1.1378424460417591e-05,-3.266409294155892e-06,8.618217179900967e-06,-0.0002240562462247908,-0.0003228931745979935,0.0004656085802707821,0.0,0.0,0.0,0.0,0.0,0.0,0.0,0.0,0.0,0.0008526763413101435,0.00029203397571109235,-0.0,0.0,0.0,0.0,0.0,0.0,0.0,0.0,0.0,0.0,0.0,0.0,0.0,0.0,0.0,0.0,0.0,0.0,0.0,0.0,0.0,0.0,0.0,1.6334166526794434,0.05207672322245528,-0.03597173992096303,0.08579813326959126,-0.0011494288919493556,0.002581604290753603,-0.0
129,5,2.050837565548136e-06,-1.917253939609509e-05,5.2590689847420435e-06,-0.000284039240796119,0.0005360788782127202,-6.682745879516006e-05,0.0,0.0,0.0,0.0,0.0,0.0,0.0,0.0,0.0,0.0008526763413101435,0.00029203397571109235,-0.0,0.0,0.0,0.0,0.0,0.0,0.0,0.0,0.0,0.0,0.0,0.0,0.0,0.0,0.0,0.0,0.0,0.0,0.0,0.0,0.0,0.0,0.0,1.6334166526794434,0.05216778526265989,-0.03596161034096123,0.08585357975805136,-0.0011494288919493556,0.002581604290753603,-0.0
134,5,2.139857315341942e-05,-2.6636174879968166e-05,-7.687630386499222e-06,0.002208112506195903,0.0011100678239017725,0.0015268728602677584,0.0,0.0,0.0,0.0,0.0,0.0,0.0,0.0,0.0,-0.0006994426366873085,-0.00026790969423018396,-0.0,0.0,0.0,0.0,0.0,0.0,0.0,0.0,0.0,0.0,0.0,0.0,0.0,0.0,0.0,0.0,0.0,0.0,0.0,0.0,0.0,0.0,0.0,1.6321629285812378,0.052175527106205453,-0.0357807827153376,0.08576465919087076,0.0010536678601056337,-0.002116041025146842,0.0
139,5,2.139857315341942e-05,-2.6636174879968166e-05,-7.687630386499222e-06,0.002208112506195903,0.0011100678239017725,0.0015268728602677584,0.0,0.0,0.0,0.0,0.0,0.0,0.0,0.0,0.0,-0.0014079954707995057,0.002110634697601199,-0.0,0.0,0.0,0.0,0.0,0.0,0.0,0.0,0.0,0.0,0.0,0.0,0.0,0.0,0.0,0.0,0.0,0.0,0.0,0.0,0.0,0.0,0.0,1.6513220071792603,0.052175527106205453,-0.0357807827153376,0.08576465919087076,-0.008398388512432575,-0.004309643059968948,0.0
144,5,1.8448774426360615e-05,-1.697125844657421e-05,2.4191100237658247e-05,0.0007496500620618463,-4.839883331442252e-05,-0.0015692677116021514,0.0,0.0,0.0,0.0,0.0,0.0,0.0,0.0,0.0,-0.0014079954707995057,0.002110634697601199,-0.0,0.0,0.0,0.0,0.0,0.0,0.0,0.0,0.0,0.0,0.0,0.0,0.0,0.0,0.0,0.0,0.0,0.0,0.0,0.0,0.0,0.0,0.0,1.6513220071792603,0.05230562198152827,-0.0356200853914155,0.08562204068460437,-0.008398388512432575,-0.004309643059968948,0.0
149,5,1.979730586754158e-05,-1.920227805385366e-05,1.6007443264243193e-05,0.000461683637695387,0.0002483627467881888,0.00035433165612630546,0.0,0.0,0.0,0.0,0.0,0.0,0.0,0.0,0.0,-0.0014079954707995057,0.002110634697601199,-0.0,0.0,0.0,0.0,0.0,0.0,0.0,0.0,0.0,0.0,0.0,0.0,0.0,0.0,0.0,0.0,0.0,0.0,0.0,0.0,0.0,0.0,0.0,1.6513220071792603,0.05178930589071084,-0.0359061277370977,0.08580550659284408,-0.008398388512432575,-0.004309643059968948,0.0
154,5,2.544691233197227e-05,-1.7946173102245666e-05,2.446833241265267e-05,0.0008626263006590307,-5.138754931977019e-05,-0.0008735739393159747,0.0,0.0,0.0,0.0,0.0,0.0,0.0,0.0,0.0,-0.00034305837471038103,0.0004681789723690599,-0.0,0.0,0.0,0.0,0.0,0.0,0.0,0.0,0.0,0.0,0.0,0.0,0.0,0.0,0.0,0.0,0.0,0.0,0.0,0.0,0.0,0.0,0.0,1.631481409072876,0.05184013789810888,-0.03592103669118498,0.08577648131483966,-0.001840542652644217,-0.0010374296689406037,-0.0
159,5,2.0432042219908908e-05,-1.1907385669474024e-05,1.4467103028437123e-05,-0.00025673393975012004,-0.0007452094578184187,0.0008507179445587099,0.0,0.0,0.0,0.0,0.0,0.0,0.0,0.0,0.0,-0.00034305837471038103,0.0004681789723690599,-0.0,0.0,0.0,0.0,0.0,0.0,0.0,0.0,0.0,0.0,0.0,0.0,0.0,0.0,0.0,0.0,0.0,0.0,0.0,0.0,0.0,0.0,0.0,1.631481409072876,0.05214951564837906,-0.036073004702228524,0.08579550572559817,-0.001840542652644217,-0.0010374296689406037,-0.0
164,5,1.1742331480490975e-05,-1.900447387015447e-05,1.1519341569510289e-05,-0.0011454587802290916,0.0005535669042728841,0.0006940184975974262,0.0,0.0,0.0,0.0,0.0,0.0,0.0,0.0,0.0,0.0009011619258671999,-0.00021593701967503875,-0.0,0.0,0.0,0.0,0.0,0.0,0.0,0.0,0.0,0.0,0.0,0.0,0.0,0.0,0.0,0.0,0.0,0.0,0.0,0.0,0.0,0.0,0.0,1.6335033178329468,0.05205859322777579,-0.035314611009355706,0.08563190018635931,0.0008499607210978866,0.0027285462711006403,-0.0
169,5,-1.4351827530845185e-06,-1.1503363566589542e-05,9.203786248690449e-06,-0.0020394851453602314,-0.0006787065067328513,0.000555474020075053,0.0,0.0,0.0,0.0,0.0,0.0,0.0,0.0,0.0,0.0009011619258671999,-0.00021593701967503875,-0.0,0.0,0.0,0.0,0.0,0.0,0.0,0.0,0.0,0.0,0.0,0.0,0.0,0.0,0.0,0.0,0.0,0.0,0.0,0.0,0.0,0.0,0.0,1.6335033178329468,0.051966733167255294,-0.03605524327711045,0.08590832693422569,0.0008499607210978866,0.0027285462711006403,-0.0
174,5,-5.830429927300429e-06,-4.090832135261735e-06,2.033806777035352e-05,-0.0013432237319648266,-0.00116098637226969,-0.0011139241978526115,0.0,0.0,0.0,0.0,0.0,0.0,0.0,0.0,0.0,0.0008125256863422692,-0.0019283416913822293,-0.0,0.0,0.0,0.0,0.0,0.0,0.0,0.0,0.0,0.0,0.0,0.0,0.0,0.0,0.0,0.0,0.0,0.0,0.0,0.0,0.0,0.0,0.0,1.647559404373169,0.05191837732176435,-0.03589210600415563,0.08576275311196044,0.007655552588403225,0.0024813420604914427,-0.0
179,5,5.136735126143321e-06,-4.4239282033231575e-06,2.3320104446611367e-05,0.0007787703070789576,-0.0004244230512995273,-0.0008034140337258577,0.0,0.0,0.0,0.0,0.0,0.0,0.0,0.0,0.0,0.0008125256863422692,-0.0019283416913822293,-0.0,0.0,0.0,0.0,0.0,0.0,0.0,0.0,0.0,0.0,0.0,0.0,0.0,0.0,0.0,0.0,0.0,0.0,0.0,0.0,0.0,0.0,0.0,1.647559404373169,0.05197607125683383,-0.03587028441303143,0.0855598021711558,0.007655552588403225,0.0024813420604914427,-0.0
185,5,-2.0981854049750837e-06,-6.75099636282539e-06,3.244087201892398e-05,-0.0005566822947002947,0.00010947895498247817,-0.0014158579288050532,0.0,0.0,0.0,0.0,0.0,0.0,0.0,0.0,0.0,0.000517023669090122,0.0007486279355362058,-0.0,0.0,0.0,0.0,0.0,0.0,0.0,0.0,0.0,0.0,0.0,0.0,0.0,0.0,0.0,0.0,0.0,0.0,0.0,0.0,0.0,0.0,0.0,1.6348092555999756,0.052304075248179885,-0.03601305614756859,0.08597213386138781,-0.002949069021269679,0.0015667006373405457,0.0
190,5,9.486328053753823e-06,-1.052903553500073e-05,4.088972127647139e-05,0.0011674687266349792,0.0004971562884747982,-0.001580204931087792,0.0,0.0,0.0,0.0,0.0,0.0,0.0,0.0,0.0,0.000517023669090122,0.0007486279355362058,-0.0,0.0,0.0,0.0,0.0,0.0,0.0,0.0,0.0,0.0,0.0,0.0,0.0,0.0,0.0,0.0,0.0,0.0,0.0,0.0,0.0,0.0,0.0,1.6348092555999756,0.05210508257746488,-0.03599510431916396,0.08582718142214914,-0.002949069021269679,0.0015667006373405457,0.0
195,5,2.1328316506696865e-05,-1.6670051991241053e-05,2.2617645299760625e-05,0.0018880260176956654,0.0009357845992781222,0.0015605671796947718,0.0,0.0,0.0,0.0,0.0,0.0,0.0,0.0,0.0,-0.0006329870084300637,0.0011219565058127046,-0.0,0.0,0.0,0.0,0.0,0.0,0.0,0.0,0.0,0.0,0.0,0.0,0.0,0.0,0.0,0.0,0.0,0.0,0.0,0.0,0.0,0.0,0.0,1.6388497352600098,0.05230283922487627,-0.03550995553146807,0.08561673171490844,-0.00443064421415329,-0.0019228368764743209,0.0
200,5,1.617703128431458e-05,-1.3420204595604446e-05,2.3042837710818276e-05,0.00013705612218473107,-1.5667901607230306e-05,0.0005732038989663124,0.0,0.0,0.0,0.0,0.0,0.0,0.0,0.0,0.0,-0.0006329870084300637,0.0011219565058127046,-0.0,0.0,0.0,0.0,0.0,0.0,0.0,0.0,0.0,0.0,0.0,0.0,0.0,0.0,0.0,0.0,0.0,0.0,0.0,0.0,0.0,0.0,0.0,1.6388497352600098,0.05193922949699864,-0.03560952567122748,0.08578991041713473,-0.00443064421415329,-0.0019228368764743209,0.0
205,5,9.68888616625918e-06,-2.580295222287532e-05,1.8826182213160791e-06,-0.0007237548124976456,0.001479662605561316,0.002768507692962885,0.0,0.0,0.0,0.0,0.0,0.0,0.0,0.0,0.0,-5.19951936439611e-06,0.00015378497482743114,-0.0,0.0,0.0,0.0,0.0,0.0,0.0,0.0,0.0,0.0,0.0,0.0,0.0,0.0,0.0,0.0,0.0,0.0,0.0,0.0,0.0,0.0,0.0,1.6284600496292114,0.05205868055545458,-0.035708900111497105,0.085642022483096,-0.0006034522666595876,-1.5694549801992252e-05,-0.0
210,5,8.793817869445775e-06,-1.930331018229481e-05,-6.841424351478054e-07,-0.0003969101526308805,-0.00018809206085279584,0.0014154143864288926,0.0,0.0,0.0,0.0,0.0,0.0,0.0,0.0,0.0,-5.19951936439611e-06,0.00015378497482743114,-0.0,0.0,0.0,0.0,0.0,0.0,0.0,0.0,0.0,0.0,0.0,0.0,0.0,0.0,0.0,0.0,0.0,0.0,0.0,0.0,0.0,0.0,0.0,1.6284600496292114,0.052120622764037644,-0.03575718599079224,0.08580202972172206,-0.0006034522666595876,-1.5694549801992252e-05,-0.0
215,5,6.222289812285453e-06,-1.1172896847710945e-05,2.057174015135388e-06,-0.0004673474468290806,-0.0010508864652365446,0.00023720778699498624,0.0,0.0,0.0,0.0,0.0,0.0,0.0,0.0,0.0,0.0001980857050511986,-0.00036650296533480287,-0.0,0.0,0.0,0.0,0.0,0.0,0.0,0.0,0.0,0.0,0.0,0.0,0.0,0.0,0.0,0.0,0.0,0.0,0.0,0.0,0.0,0.0,0.0,1.6299779415130615,0.0519267351891129,-0.03602346293987078,0.08585948159803992,0.0014394981553778052,0.0005984713789075613,0.0
220,5,1.804510475267307e-06,-2.9080756576149724e-06,3.867173290927894e-06,-0.0007170724566094577,-0.0014121331041678786,-0.00012231679284013808,0.0,0.0,0.0,0.0,0.0,0.0,0.0,0.0,0.0,0.0001980857050511986,-0.00036650296533480287,-0.0,0.0,0.0,0.0,0.0,0.0,0.0,0.0,0.0,0.0,0.0,0.0,0.0,0.0,0.0,0.0,0.0,0.0,0.0,0.0,0.0,0.0,0.0,1.6299779415130615,0.05189940385627204,-0.03594135084182138,0.08587408811840233,0.0014394981553778052,0.0005984713789075613,0.0
225,5,-2.4159323857020354e-06,-1.4224273400031962e-05,1.7942287740879692e-05,-0.000793282117228955,0.0007930904976092279,-0.0017379404744133353,0.0,0.0,0.0,0.0,0.0,0.0,0.0,0.0,0.0,0.0017346242675557733,-0.0006770589388906956,-0.0,0.0,0.0,0.0,0.0,0.0,0.0,0.0,0.0,0.0,0.0,0.0,0.0,0.0,0.0,0.0,0.0,0.0,0.0,0.0,0.0,0.0,0.0,1.6418018341064453,0.05172771919471933,-0.03625257562100776,0.08602083907666153,0.002678541699424386,0.005278788972645998,0.0
230,5,1.0280913556925952e-05,-2.3678230718360282e-05,1.1911165529454593e-05,0.0012063086032867432,0.0014517109375447035,2.855847378668841e-05,0.0,0.0,0.0,0.0,0.0,0.0,0.0,0.0,0.0,0.0017346242675557733,-0.0006770589388906956,-0.0,0.0,0.0,0.0,0.0,0.0,0.0,0.0,0.0,0.0,0.0,0.0,0.0,0.0,0.0,0.0,0.0,0.0,0.0,0.0,0.0,0.0,0.0,1.6418018341064453,0.052180910536074286,-0.0358028102722539,0.08573828900871684,0.002678541699424386,0.005278788972645998,0.0
235,5,1.2437460100045428e-05,-1.4091117009229492e-05,3.267202555434778e-05,0.0007413090788759291,-0.0005697691813111305,-0.0024798796512186527,0.0,0.0,0.0,0.0,0.0,0.0,0.0,0.0,0.0,-0.001828036387450993,0.0011554255615919828,-0.0,0.0,0.0,0.0,0.0,0.0,0.0,0.0,0.0,0.0,0.0,0.0,0.0,0.0,0.0,0.0,0.0,0.0,0.0,0.0,0.0,0.0,0.0,1.6453096866607666,0.051686217313669174,-0.03595982540431318,0.08583648132248582,-0.004580793436616659,-0.005574944894760847,-0.0
240,5,1.4528679457725957e-05,-9.435425454284996e-06,3.660737638710998e-05,0.0005474698846228421,-0.0007865905645303428,-0.0014641940360888839,-0.006218336522579193,-0.10958688706159592,-0.01468102540820837,-0.0024531963281333447,0.0013445280492305756,0.002463181968778372,0.0,0.0,0.0,-0.001828036387450993,0.0011554255615919828,-0.0,0.0,0.0,0.0,nan,nan,nan,1495.0,1495.0,1495.0,1495.0,0.0,0.0,0.0,0.0,0.0,0.0,0.0,0.0,1495.0,1495.0,1495.0,1495.0,1.6453096866607666,0.05204569964194241,-0.03599717143191551,0.08580556107112489,-0.004580793436616659,-0.005574944894760847,-0.0
245,5,2.0413839592947625e-05,-1.9188522855984047e-05,1.5936524505377747e-05,0.0009252071031369269,0.0008557353285141289,0.0018948245560750365,-0.006218336522579193,-0.10958688706159592,-0.01468102540820837,-0.0024531963281333447,0.0013445280492305756,0.002463181968778372,0.0,0.0,0.0,0.0009047188214026392,0.0005125413299538195,-0.0,0.0,0.0,0.0,nan,nan,nan,1495.0,1495.0,1495.0,1495.0,0.0,0.0,0.0,0.0,0.0,0.0,0.0,0.0,1495.0,1495.0,1495.0,1495.0,1.7275261878967285,0.05217797889061299,-0.03550586908960103,0.08553228275210083,-0.0021335617639124393,0.0028969880659133196,0.0
251,5,1.003770921670366e-05,-1.651953971304465e-05,2.2476877347799018e-05,-0.0008750527049414814,2.2016296497895382e-05,-2.6912552129942924e-05,-0.006218388210982084,-0.10959836840629578,-0.014680273830890656,0.0029926125425845385,-0.0049855830147862434,0.0015757248038426042,0.0,0.0,0.0,0.0009047188214026392,0.0005125413299538195,-0.0,0.0,0.0,0.0,nan,nan,nan,1495.0,1495.0,1495.0,1495.0,0.0,0.0,0.0,0.0,0.0,0.0,0.0,0.0,1495.0,1495.0,1495.0,1495.0,1.7275261878967285,0.05174561611793446,-0.035806427664993076,0.08565598090447167,-0.0021335617639124393,0.0028969880659133196,0.0
256,5,8.674522177898325e-06,-1.4203795217326842e-05,2.1281915906001814e-05,-0.0005136035615578294,-0.0002690829278435558,0.00013263043365441263,-0.006218388210982084,-0.10959836840629578,-0.014680273830890656,0.0029926125425845385,-0.0049855830147862434,0.0015757248038426042,0.0,0.0,0.0,-5.443627742351964e-05,-0.0007748775533400476,-0.0,0.0,0.0,0.0,nan,nan,nan,1495.0,1495.0,1495.0,1495.0,0.0,0.0,0.0,0.0,0.0,0.0,0.0,0.0,1495.0,1495.0,1495.0,1495.0,1.7275100946426392,0.051889389703530235,-0.035770888150736875,0.08572617730976852,0.00322556309401989,-0.0001743080938467756,0.0
261,5,9.020635843626224e-06,-1.7211221347679384e-05,5.380070788874036e-08,-0.00016390770906582475,0.0002532578946556896,0.002600426087155938,-0.006216235458850861,-0.1095508486032486,-0.014681089669466019,-0.0002457548107486218,-0.002889407565817237,-0.002431042492389679,0.0,0.0,0.0,-5.443627742351964e-05,-0.0007748775533400476,-0.0,0.0,0.0,0.0,nan,nan,nan,1495.0,1495.0,1495.0,1495.0,0.0,0.0,0.0,0.0,0.0,0.0,0.0,0.0,1495.0,1495.0,1495.0,1495.0,1.7275100946426392,0.05213108436227473,-0.0357690028534761,0.08574413573542955,0.00322556309401989,-0.0001743080938467756,0.0
266,5,1.45257772601326e-05,-1.7538612155476585e-05,-1.378907745674951e-05,0.0005950538325123489,0.00014059014210943133,0.0027013157960027456,-0.006216235458850861,-0.1095508486032486,-0.014681089669466019,-0.0002457548107486218,-0.002889407565817237,-0.002431042492389679,0.0,0.0,0.0,-0.0003264521365053952,-0.00013556817430071533,-0.0,0.0,0.0,0.0,nan,nan,nan,1495.0,1495.0,1495.0,1495.0,0.0,0.0,0.0,0.0,0.0,0.0,0.0,0.0,1495.0,1495.0,1495.0,1495.0,1.7275266647338867,0.05212544648124307,-0.03593156148808333,0.08581236527046261,0.000564331654459238,-0.001045328564941883,-0.0
271,5,1.4937700143491384e-05,-3.6618828744394705e-05,-1.8822687707142904e-05,0.0002874522760976106,0.0023458623327314854,0.0016845595091581345,-0.00621873140335083,-0.10953060537576675,-0.014698261395096779,-0.002816072665154934,-0.00012025493197143078,0.0015779930399730802,0.0,0.0,0.0,-0.0003264521365053952,-0.00013556817430071533,-0.0,0.0,0.0,0.0,0.0008989135385490954,nan,nan,0.0,0.0,0.0,0.0,nan,nan,nan,nan,0.0,0.0,0.0,0.0,0.0,0.0,0.0,0.0,1.7278923988342285,0.05232095736652161,-0.03585374270155786,0.08580531277066593,-0.0011608643690124154,-0.00899946503341198,0.0
276,5,9.581479389453307e-06,-3.767683665500954e-05,-1.9867537048412487e-05,-0.0005277656018733978,0.001065305550582707,0.0007992057362571359,-0.00621873140335083,-0.10953060537576675,-0.014698261395096779,-0.002816072665154934,-0.00012025493197143078,0.0015779930399730802,0.0,0.0,0.0,-0.0028099105693399906,0.0002788140263874084,-0.0,0.0,0.0,0.0,0.0008989135385490954,nan,nan,0.0,0.0,0.0,0.0,nan,nan,nan,nan,0.0,0.0,0.0,0.0,0.0,0.0,0.0,0.0,1.7278923988342285,0.05212177855163086,-0.03572155431071054,0.08564674719146508,-0.0011608643690124154,-0.00899946503341198,0.0
281,5,1.2290413906157482e-05,-2.241923903056886e-05,1.0469745575392153e-05,0.0001139659943873994,-0.001404789392836392,-0.0033207915257662535,-0.006226900964975357,-0.10949703305959702,-0.014708359725773335,0.0011084162397310138,-0.007852720096707344,0.0001025972596835345,0.0,0.0,0.0,0.0016057643806561828,0.00011905939754797146,-0.0,0.0,0.0,0.0,0.0014273717533797026,nan,nan,0.0,0.0,0.0,0.0,nan,nan,nan,nan,0.0,0.0,0.0,0.0,0.0,0.0,0.0,0.0,1.728098750114441,0.05199446876843169,-0.0359256257831904,0.08593825513801345,-0.0004957737983204424,0.005143498070538044,0.0
286,5,2.1271856894600205e-05,-9.206922186422162e-06,1.637616333027836e-05,0.0011233595432713628,-0.0021473937667906284,-0.002037086756899953,-0.006226900964975357,-0.10949703305959702,-0.014708359725773335,0.0011084162397310138,-0.007852720096707344,0.0001025972596835345,0.0,0.0,0.0,0.0016057643806561828,0.00011905939754797146,-0.0,0.0,0.0,0.0,0.0014273717533797026,nan,nan,0.0,0.0,0.0,0.0,nan,nan,nan,nan,0.0,0.0,0.0,0.0,0.0,0.0,0.0,0.0,1.728098750114441,0.052502245435719394,-0.03560837667492537,0.08566726539844735,-0.0004957737983204424,0.005143498070538044,0.0
291,5,-1.444007693862659e-06,-1.2835166671720799e-05,3.369014666532166e-05,-0.0022765600588172674,-0.00042356812627986073,-0.0028925123624503613,-0.0062173702754080296,-0.1094663068652153,-0.01470539253205061,-0.00035025706165470183,-0.003273214679211378,0.001098484150134027,0.0,0.0,0.0,0.0016057643806561828,0.00011905939754797146,-0.0,0.0,0.0,0.0,0.001242560101673007,0.032594989985227585,nan,0.0,0.0,0.0,0.0,nan,nan,nan,nan,0.0,0.0,0.0,0.0,0.0,0.0,0.0,0.0,1.728098750114441,0.05220281276483468,-0.03558343445715141,0.08560976028920673,-0.0004957737983204424,0.005143498070538044,0.0
296,5,2.1433766960399225e-05,-1.3567003406933509e-05,1.1912276022485457e-05,0.0018347089644521475,-8.160689321812242e-05,0.001456339261494577,-0.0062173702754080296,-0.1094663068652153,-0.01470539253205061,-0.00035025706165470183,-0.003273214679211378,0.001098484150134027,0.0,0.0,0.0,0.00047348372754640877,-0.0020519590470939875,-0.0,0.0,0.0,0.0,0.001242560101673007,0.032594989985227585,nan,0.0,0.0,0.0,0.0,nan,nan,nan,nan,0.0,0.0,0.0,0.0,0.0,0.0,0.0,0.0,1.7280383110046387,0.052046946797530816,-0.035629027357433576,0.08562915485405823,0.008544242940843105,0.0015165857039391994,0.0
301,5,-0.0005494930082932115,-0.00019475385488476604,-0.000372040958609432,-0.06777732819318771,0.021709779277443886,0.04665692150592804,-0.006213661283254623,-0.10947751998901367,-0.014716646634042263,-0.0012815939262509346,0.002208583988249302,-0.003046579658985138,0.0,0.0,0.0,0.00047348372754640877,-0.0020519590470939875,-0.0,0.0,0.0,0.0,0.0012397748650982976,0.03270713984966278,nan,0.0,0.0,0.0,0.0,nan,nan,nan,nan,0.0,0.0,0.0,0.0,0.0,0.0,0.0,0.0,1.7280383110046387,0.06346835643145042,-0.06240421726345481,0.08031245435682548,0.008544242940843105,0.0015165857039391994,0.0
306,5,-0.0005550485802814364,-0.00019417720614001155,-0.0003650417202152312,-0.027777599170804024,0.00861471425741911,0.017822863534092903,-0.006213661283254623,-0.10947751998901367,-0.014716646634042263,-0.0012815939262509346,0.002208583988249302,-0.003046579658985138,0.0,0.0,0.0,-0.019378844648599625,-0.04649979621171951,-0.0,0.0,0.0,0.0,0.0012397748650982976,0.03270713984966278,nan,0.0,0.0,0.0,0.0,nan,nan,nan,nan,0.0,0.0,0.0,0.0,0.0,0.0,0.0,0.0,2.296605348587036,0.06334510537061312,-0.06291464976736207,0.0807811038584702,0.2571883201599121,-0.08248469978570938,0.0
311,5,-0.0005586676998063922,-0.00019646315195132047,-0.00036073560477234423,-0.011545335873961449,0.0037201985251158476,0.006612410768866539,-0.006241599563509226,-0.10950049012899399,-0.014719761908054352,-0.004090387839823961,0.0058373985812067986,-0.003133106743916869,0.0,0.0,0.0,-0.019378844648599625,-0.04649979621171951,-0.0,0.0,0.0,0.0,0.001279517775401473,0.032985445111989975,-0.0015165748773142695,15415.0,11973.0,10741.0,16559.0,0.5381872653961182,0.3146396279335022,0.24908186495304108,0.6256179213523865,0.0,0.0,0.0,0.0,0.0,0.0,0.0,0.0,2.296605348587036,0.06308806153000528,-0.06256897713673526,0.08081141766196648,0.2571883201599121,-0.08248469978570938,0.0
317,5,-0.000562028493732214,-0.0001967852731468156,-0.0003907685459125787,-0.005021427758038044,0.0015267343260347843,0.006248917430639267,-0.006241599563509226,-0.10950049012899399,-0.014719761908054352,-0.004090387839823961,0.0058373985812067986,-0.003133106743916869,0.0,0.0,0.0,-0.0021257565822452307,-0.005264388397336006,-0.0,0.0,0.0,0.0,0.001279517775401473,0.032985445111989975,-0.0015165748773142695,15415.0,11973.0,10741.0,16559.0,0.5381872653961182,0.3146396279335022,0.24908186495304108,0.6256179213523865,0.0,0.0,0.0,0.0,0.0,0.0,0.0,0.0,1.7283625602722168,0.06335252145009995,-0.06274365920986784,0.08018150073715445,0.02192460186779499,-0.006810144521296024,0.0
322,5,-0.0005640580202452838,-0.00018372225167695433,-0.0003845551691483706,-0.0022521133068948984,-0.0009568685200065374,0.0017539606196805835,-0.006241599563509226,-0.10950049012899399,-0.014719761908054352,-0.004090387839823961,0.0058373985812067986,-0.003133106743916869,0.0,0.0,0.0,-0.0021257565822452307,-0.005264388397336006,-0.0,0.0,0.0,0.0,0.001279517775401473,0.032985445111989975,-0.0015165748773142695,15415.0,11973.0,10741.0,16559.0,0.5381872653961182,0.3146396279335022,0.24908186495304108,0.6256179213523865,0.0,0.0,0.0,0.0,0.0,0.0,0.0,0.0,1.7283625602722168,0.06335495344349,-0.06263999840033449,0.08062067514567373,0.02192460186779499,-0.006810144521296024,0.0
327,5,-0.0005497545935213566,-0.00018485037435311824,-0.00038618771941401064,0.000815566279925406,-0.00024737222702242434,0.000897489779163152,-0.006208957172930241,-0.10953076183795929,-0.014712989330291748,0.006959387566894293,-0.0027902249712496996,0.00037774830707348883,0.0,0.0,0.0,-0.0021257565822452307,-0.005264388397336006,-0.0,0.0,0.0,0.0,0.000631886359769851,0.03299858421087265,-0.0014669107040390372,15476.0,11997.0,10720.0,16503.0,0.5426645874977112,0.3160037398338318,0.24802111089229584,0.6212030053138733,0.0,0.0,0.0,0.0,15494.0,11965.0,10723.0,16507.0,1.7283625602722168,0.06300262840537454,-0.06228615123795268,0.08072833068526358,0.02192460186779499,-0.006810144521296024,0.0
332,5,-0.000543651869520545,-0.0001936916814884171,-0.000372067850548774,0.0010585513664409518,0.0009620063356123865,-0.0013353873509913683,-0.006208957172930241,-0.10953076183795929,-0.014712989330291748,0.006959387566894293,-0.0027902249712496996,0.00037774830707348883,0.0,0.0,0.0,-2.8798174753319472e-05,7.13389226802974e-06,-0.0,0.0,0.0,0.0,0.000631886359769851,0.03299858421087265,-0.0014669107040390372,15476.0,11997.0,10720.0,16503.0,0.5426645874977112,0.3160037398338318,0.24802111089229584,0.6212030053138733,0.0,0.0,0.0,0.0,15494.0,11965.0,10723.0,16507.0,1.7281932830810547,0.06295247258872463,-0.061511510887411074,0.08097879753813271,-2.970781861222349e-05,-9.224988025380298e-05,0.0
337,5,-0.000507798686157912,-0.0001955135667230934,-0.00034712773049250245,0.004725799895823002,0.0006034302059561014,-0.003526968415826559,-0.006196541711688042,-0.10955192893743515,-0.014723437838256359,0.001465537236072123,-0.0020316492300480604,-0.0029757851734757423,0.0,0.0,0.0,-0.0010431809350848198,0.0035828445106744766,-0.0,0.0,0.0,0.0,0.001570987980812788,0.032993316650390625,-0.001586322789080441,15386.0,11971.0,10750.0,16588.0,0.5360389351844788,0.31455695629119873,0.24956490099430084,0.6279380321502686,0.0,0.0,0.0,0.0,15436.0,11915.0,10793.0,16554.0,1.7284235954284668,0.06208846709126472,-0.059922638887299394,0.08131109550619783,-0.014922063797712326,-0.0033420908730477095,0.0
342,5,-0.0004566748102661222,-0.00018050617654807866,-0.0002729523694142699,0.008025186136364937,-0.0015595153672620654,-0.010311830788850784,-0.006196541711688042,-0.10955192893743515,-0.014723437838256359,0.001465537236072123,-0.0020316492300480604,-0.0029757851734757423,0.0,0.0,0.0,-0.0010431809350848198,0.0035828445106744766,-0.0,0.0,0.0,0.0,0.001570987980812788,0.032993316650390625,-0.001586322789080441,15386.0,11971.0,10750.0,16588.0,0.5360389351844788,0.31455695629119873,0.24956490099430084,0.6279380321502686,0.0,0.0,0.0,0.0,15436.0,11915.0,10793.0,16554.0,1.7284235954284668,0.06122857230374267,-0.05753189331362391,0.0821279711601642,-0.014922063797712326,-0.0033420908730477095,0.0
347,5,-0.00039727281546220183,-0.0001685367024037987,-0.0002196617133449763,0.0103383157402277,-0.0020601421128958464,-0.010519612580537796,-0.006211698520928621,-0.1095619946718216,-0.014698164537549019,-0.005753330420702696,0.0016719202976673841,-0.002055924851447344,0.0,0.0,0.0,0.0021212459541857243,0.00878441333770752,-0.0,0.0,0.0,0.0,0.0013836986618116498,0.03242844343185425,-0.0013650511391460896,15406.0,11968.0,10854.0,16505.0,0.5375251770019531,0.3143509030342102,0.2547875642776489,0.6213746666908264,0.0,0.0,0.0,0.0,16634.0,15425.0,13937.0,17365.0,1.7279540300369263,0.05984331975214095,-0.054243349711024576,0.08327335233721304,-0.036575499922037125,0.006794088054448366,0.0
352,5,-0.0003198041522409767,-0.00015831817290745676,-0.00018030359933618456,0.013431564904749393,-0.0020502805709838867,-0.008930818177759647,-0.006211698520928621,-0.1095619946718216,-0.014698164537549019,-0.005753330420702696,0.0016719202976673841,-0.002055924851447344,0.0,0.0,0.0,0.0021212459541857243,0.00878441333770752,-0.0,0.0,0.0,0.0,0.0013836986618116498,0.03242844343185425,-0.0013650511391460896,15406.0,11968.0,10854.0,16505.0,0.5375251770019531,0.3143509030342102,0.2547875642776489,0.6213746666908264,0.0,0.0,0.0,0.0,16634.0,15425.0,13937.0,17365.0,1.7279540300369263,0.0585276623065306,-0.050556508972554835,0.08366357996186899,-0.036575499922037125,0.006794088054448366,0.0
357,5,-0.0002531466307118535,-0.00012387438619043678,-0.00012695706391241401,0.013371529057621956,-0.004953367169946432,-0.009973911568522453,-0.0062444377690553665,-0.10959522426128387,-0.014730117283761501,-0.001355077140033245,0.00409306026995182,-0.0011669290252029896,0.0,0.0,0.0,0.00546946469694376,0.011463895440101624,-0.0,0.0,0.0,0.0,-0.002593415789306164,0.01912245713174343,-0.0015180972404778004,16675.0,15382.0,13991.0,17320.0,0.634907603263855,0.5357829332351685,0.4385063648223877,0.687408447265625,0.0,0.0,0.0,0.0,15345.0,12136.0,10818.0,16468.0,1.764549970626831,0.05687387024987289,-0.04715612139706471,0.0844031959540728,-0.04874185845255852,0.017888890579342842,0.0
362,5,-0.00018862646538764238,-0.00010136627679457888,-0.00011113359505543485,0.013091031461954117,-0.004682320635765791,-0.005888380575925112,-0.0062444377690553665,-0.10959522426128387,-0.014730117283761501,-0.001355077140033245,0.00409306026995182,-0.0011669290252029896,0.0,0.0,0.0,0.00546946469694376,0.011463895440101624,-0.0,0.0,0.0,0.0,-0.002593415789306164,0.01912245713174343,-0.0015180972404778004,16675.0,15382.0,13991.0,17320.0,0.634907603263855,0.5357829332351685,0.4385063648223877,0.687408447265625,0.0,0.0,0.0,0.0,15345.0,12136.0,10818.0,16468.0,1.764549970626831,0.05565199456058447,-0.044365300946562436,0.08463816018100054,-0.04874185845255852,0.017888890579342842,0.0
367,5,-0.0001422853529220447,-7.314283720916137e-05,-8.065467409323901e-05,0.010797345079481602,-0.005259741097688675,-0.006012822967022657,-0.006238927133381367,-0.10961440950632095,-0.014741464518010616,0.004559632856398821,-0.004272453021258116,0.0011391363805159926,0.0,0.0,0.0,0.005975336767733097,0.009446400217711926,-0.0,0.0,0.0,0.0,0.0012946935603395104,0.033063728362321854,-0.00156685512047261,15376.0,12106.0,10889.0,16415.0,0.5353370308876038,0.32217422127723694,0.25658169388771057,0.6142695546150208,0.0,0.0,0.0,0.0,15360.0,12109.0,10858.0,16448.0,1.7440687417984009,0.054668682911645325,-0.04199283952999649,0.08504928644819044,-0.039697907865047455,0.01931656152009964,0.0
373,5,-0.00011036425712518394,-6.366753223119304e-05,-6.327342271106318e-05,0.008149470202624798,-0.0032409322448074818,-0.004490879364311695,-0.006238927133381367,-0.10961440950632095,-0.014741464518010616,0.004559632856398821,-0.004272453021258116,0.0011391363805159926,0.0,0.0,0.0,0.005975336767733097,0.009446400217711926,-0.0,0.0,0.0,0.0,0.0012946935603395104,0.033063728362321854,-0.00156685512047261,15376.0,12106.0,10889.0,16415.0,0.5353370308876038,0.32217422127723694,0.25658169388771057,0.6142695546150208,0.0,0.0,0.0,0.0,15360.0,12109.0,10858.0,16448.0,1.7440687417984009,0.05384843615706152,-0.04009861530077662,0.08545984943124121,-0.039697907865047455,0.01931656152009964,0.0
378,5,-8.354184683412313e-05,-5.2686573326354846e-05,-4.1978288209065795e-05,0.006478477269411087,-0.00261408812366426,-0.004351767711341381,-0.0062807295471429825,-0.10962541401386261,-0.014755978249013424,0.0019030403345823288,-0.0017637547571212053,0.0008239983581006527,0.0,0.0,0.0,0.0029664740432053804,0.005718174856156111,-0.0,0.0,0.0,0.0,0.0010537088382989168,0.03429815173149109,-0.0014455410419031978,15427.0,11964.0,10746.0,16559.0,0.539071798324585,0.31415408849716187,0.249322772026062,0.6256446838378906,0.0,0.0,0.0,0.0,15440.0,11947.0,10762.0,16548.0,1.729127287864685,0.05332807634051232,-0.03879298061028824,0.08551911160483264,-0.02382495068013668,0.009507687762379646,0.0
383,5,-6.558091990882531e-05,-4.28913117502816e-05,-1.5797611922607757e-05,0.004746702499687672,-0.0022210669703781605,-0.004882388282567263,-0.0062807295471429825,-0.10962541401386261,-0.014755978249013424,0.0019030403345823288,-0.0017637547571212053,0.0008239983581006527,0.0,0.0,0.0,0.0029664740432053804,0.005718174856156111,-0.0,0.0,0.0,0.0,0.0010537088382989168,0.03429815173149109,-0.0014455410419031978,15427.0,11964.0,10746.0,16559.0,0.539071798324585,0.31415408849716187,0.249322772026062,0.6256446838378906,0.0,0.0,0.0,0.0,15440.0,11947.0,10762.0,16548.0,1.729127287864685,0.052908950512092184,-0.03811167436709871,0.08561544955488407,-0.02382495068013668,0.009507687762379646,0.0
388,5,-3.072187610086985e-05,-4.091885421075858e-05,-2.653796036611311e-05,0.006081765983253717,-0.0011251212563365698,-0.0006641135551035404,-0.0062737297266721725,-0.10965193063020706,-0.01473784539848566,0.001444145105779171,0.0046977573074400425,0.0011597019620239735,0.0,0.0,0.0,0.0012447640765458345,0.0054320176132023335,-0.0,0.0,0.0,0.0,0.00169424619525671,0.03574168682098389,-0.0014997083926573396,15545.0,11844.0,10655.0,16594.0,0.547776460647583,0.30745208263397217,0.24480092525482178,0.6283940672874451,0.0,0.0,0.0,0.0,15506.0,11896.0,10617.0,16617.0,1.7287393808364868,0.052909720462108546,-0.036605137158750654,0.08546545147369543,-0.022627685219049454,0.00398864084854722,0.0
393,5,-1.7629381545702927e-05,-1.862469616753515e-05,1.8435006495565176e-05,0.004003805574029684,-0.003125347662717104,-0.005662401206791401,-0.0062737297266721725,-0.10965193063020706,-0.01473784539848566,0.001444145105779171,0.0046977573074400425,0.0011597019620239735,0.0,0.0,0.0,0.0012447640765458345,0.0054320176132023335,-0.0,0.0,0.0,0.0,0.00169424619525671,0.03574168682098389,-0.0014997083926573396,15545.0,11844.0,10655.0,16594.0,0.547776460647583,0.30745208263397217,0.24480092525482178,0.6283940672874451,0.0,0.0,0.0,0.0,15506.0,11896.0,10617.0,16617.0,1.7287393808364868,0.05269186464545406,-0.0366825252951155,0.08579553336825438,-0.022627685219049454,0.00398864084854722,0.0
398,5,-4.700919362221612e-06,-2.2113123122835532e-05,2.4137840227922425e-05,0.003152937861159444,-0.0008315278682857752,-0.0029493006877601147,-0.0062737297266721725,-0.10965193063020706,-0.01473784539848566,0.001444145105779171,0.0046977573074400425,0.0011597019620239735,0.0,0.0,0.0,0.0012447640765458345,0.0054320176132023335,-0.0,0.0,0.0,0.0,0.00169424619525671,0.03574168682098389,-0.0014997083926573396,15545.0,11844.0,10655.0,16594.0,0.547776460647583,0.30745208263397217,0.24480092525482178,0.6283940672874451,0.0,0.0,0.0,0.0,15506.0,11896.0,10617.0,16617.0,1.7287393808364868,0.052342857957639086,-0.03626538644204721,0.08565134828710673,-0.022627685219049454,0.00398864084854722,0.0
403,5,2.975048300868366e-05,-1.967431489902083e-05,3.165995076415129e-05,0.005395343527197838,-0.0006252680905163288,-0.002082373248413205,-0.006271586753427982,-0.10963410884141922,-0.014737135730683804,-0.0013348148204386234,0.00388460629619658,-0.00041301047895103693,0.0,0.0,0.0,0.0009334394708275795,0.002829778240993619,-0.0,0.0,0.0,0.0,0.002320260973647237,0.03647448122501373,-0.0016098158666864038,15572.0,11700.0,10537.0,16735.0,0.549787163734436,0.2994728684425354,0.23899082839488983,0.639703094959259,0.0,0.0,0.0,0.0,15602.0,11664.0,10572.0,16711.0,1.7287203073501587,0.05216252198839915,-0.035670421091463095,0.08578989152211729,-0.011787678115069866,0.002991019980981946,0.0
408,5,2.8439471861929633e-05,-6.376447345246561e-06,5.601418160949834e-05,0.0020008161664009094,-0.001845851307734847,-0.0037554572336375713,-0.006271586753427982,-0.10963410884141922,-0.014737135730683804,-0.0013348148204386234,0.00388460629619658,-0.00041301047895103693,0.0,0.0,0.0,0.0009334394708275795,0.002829778240993619,-0.0,0.0,0.0,0.0,0.002320260973647237,0.03647448122501373,-0.0016098158666864038,15572.0,11700.0,10537.0,16735.0,0.549787163734436,0.2994728684425354,0.23899082839488983,0.639703094959259,0.0,0.0,0.0,0.0,15602.0,11664.0,10572.0,16711.0,1.7287203073501587,0.05181295222454745,-0.036006298926158226,0.08583305900392434,-0.011787678115069866,0.002991019980981946,0.0
413,5,2.4877355826902203e-05,-9.773848432814702e-06,2.3626344045624137e-05,0.0003728723677340895,-0.000330652401316911,0.0023843576200306416,-0.006258094217628241,-0.1096121221780777,-0.014748526737093925,0.00540186557918787,-0.007287963759154081,-0.0018683001399040222,0.0,0.0,0.0,0.002147530671209097,0.0018363983836025,-0.0,0.0,0.0,0.0,0.0024834871292114258,0.03591267392039299,-0.0014974981313571334,15679.0,11794.0,10682.0,16937.0,0.557776153087616,0.30465030670166016,0.2461339682340622,0.6559894680976868,0.0,0.0,0.0,0.0,15706.0,11754.0,10718.0,16917.0,1.7287046909332275,0.05213111225458139,-0.03543382009881834,0.08614554894359265,-0.007649593520909548,0.0068812621757388115,0.0
418,5,7.756591912766453e-06,-1.759475162543822e-05,1.3348758329811972e-05,-0.0019053426804021,0.0008062474662438035,0.0021870534401386976,-0.006258094217628241,-0.1096121221780777,-0.014748526737093925,0.00540186557918787,-0.007287963759154081,-0.0018683001399040222,0.0,0.0,0.0,0.002147530671209097,0.0018363983836025,-0.0,0.0,0.0,0.0,0.0024834871292114258,0.03591267392039299,-0.0014974981313571334,15679.0,11794.0,10682.0,16937.0,0.557776153087616,0.30465030670166016,0.2461339682340622,0.6559894680976868,0.0,0.0,0.0,0.0,15706.0,11754.0,10718.0,16917.0,1.7287046909332275,0.052004430751922855,-0.03573593243679894,0.08578104499776816,-0.007649593520909548,0.0068812621757388115,0.0
423,5,7.906935024948325e-06,-1.9427081497269683e-05,-8.825940312817693e-06,-0.0007440958870574832,0.0005423784023150802,0.003535785246640444,-0.006252868101000786,-0.10957399010658264,-0.014743564650416374,-0.0007993303006514907,-0.0020026445854455233,-0.0011343228397890925,0.0,0.0,0.0,-0.0009754002094268799,-0.0017071616603061557,-0.0,0.0,0.0,0.0,0.0018301495583727956,0.03495762497186661,-0.0015322478720918298,15526.0,11756.0,10642.0,16690.0,0.5463782548904419,0.3025798797607422,0.24413400888442993,0.636035144329071,0.0,0.0,0.0,0.0,15548.0,11750.0,10599.0,16885.0,1.7289390563964844,0.05191332651174045,-0.035851498483134334,0.08529530808951591,0.0071122306399047375,-0.003125870367512107,0.0
429,5,-4.707426342065446e-06,-4.047269612783566e-06,-5.49115929970867e-06,-0.0018113617552444339,-0.0016286260215565562,0.00101414043456316,-0.006252868101000786,-0.10957399010658264,-0.014743564650416374,-0.0007993303006514907,-0.0020026445854455233,-0.0011343228397890925,0.0,0.0,0.0,-0.0009754002094268799,-0.0017071616603061557,-0.0,0.0,0.0,0.0,0.0018301495583727956,0.03495762497186661,-0.0015322478720918298,15526.0,11756.0,10642.0,16690.0,0.5463782548904419,0.3025798797607422,0.24413400888442993,0.636035144329071,0.0,0.0,0.0,0.0,15548.0,11750.0,10599.0,16885.0,1.7289390563964844,0.05228834396191738,-0.03543312653457949,0.08596307096655746,0.0071122306399047375,-0.003125870367512107,0.0
434,5,-1.3410794963419903e-05,-4.725338385469513e-06,7.766733688185923e-06,-0.0017689488595351577,-0.0005700821056962013,-0.0011852909810841084,-0.006259580608457327,-0.10958975553512573,-0.014770496636629105,0.004556840751320124,0.002005060901865363,-0.0002669352397788316,0.0,0.0,0.0,0.0018971366807818413,-0.0016391247045248747,-0.0,0.0,0.0,0.0,0.0019159698858857155,0.03494800254702568,-0.0017828255658969283,15543.0,11770.0,10640.0,16660.0,0.5476594567298889,0.3033181130886078,0.24405573308467865,0.6337060928344727,0.0,0.0,0.0,0.0,15419.0,11895.0,10489.0,16785.0,1.728837490081787,0.05197980007508467,-0.03618037147821562,0.08603016195179601,0.0068283709697425365,0.006079402286559343,0.0
439,5,-1.7875511275633471e-06,-1.566726314194966e-05,1.0254486369376536e-05,0.0006872096564620733,0.0010849981335923076,-0.000772646744735539,-0.006259580608457327,-0.10958975553512573,-0.014770496636629105,0.004556840751320124,0.002005060901865363,-0.0002669352397788316,0.0,0.0,0.0,0.0018971366807818413,-0.0016391247045248747,-0.0,0.0,0.0,0.0,0.0019159698858857155,0.03494800254702568,-0.0017828255658969283,15543.0,11770.0,10640.0,16660.0,0.5476594567298889,0.3033181130886078,0.24405573308467865,0.6337060928344727,0.0,0.0,0.0,0.0,15419.0,11895.0,10489.0,16785.0,1.728837490081787,0.05171329560037976,-0.036329799024453616,0.08535543230279681,0.0068283709697425365,0.006079402286559343,0.0
444,5,2.2725931557943113e-05,-1.5251293007167988e-05,2.9559894755948335e-05,0.001975280698388815,0.0006184040103107691,-0.0011779015185311437,-0.006274666171520948,-0.10958301275968552,-0.014875915832817554,-0.0007028585532680154,-0.0010561463423073292,0.02166719362139702,0.0,0.0,0.0,-0.0012979520251974463,0.0006136769661679864,-0.0,0.0,0.0,0.0,0.0016334578394889832,0.033860281109809875,-0.0028506105300039053,14662.0,12853.0,9487.0,17329.0,0.4841811954975128,0.3661748170852661,0.19015318155288696,0.688195526599884,0.0,0.0,0.0,0.0,16193.0,10856.0,11585.0,16021.0,1.7293964624404907,0.051729776670107946,-0.03619623061860827,0.08581434310508115,-0.002557324944064021,-0.004160653334110975,0.0
449,5,1.2159764992247801e-05,-2.5269802790717222e-05,7.692681538173929e-05,-0.0004778277361765504,0.0014495826326310635,-0.0061551909893751144,-0.006274666171520948,-0.10958301275968552,-0.014875915832817554,-0.0007028585532680154,-0.0010561463423073292,0.02166719362139702,0.0,0.0,0.0,-0.0012979520251974463,0.0006136769661679864,-0.0,0.0,0.0,0.0,0.0016334578394889832,0.033860281109809875,-0.0028506105300039053,14662.0,12853.0,9487.0,17329.0,0.4841811954975128,0.3661748170852661,0.19015318155288696,0.688195526599884,0.0,0.0,0.0,0.0,16193.0,10856.0,11585.0,16021.0,1.7293964624404907,0.051886807326920734,-0.03675836244589355,0.08546725086986956,-0.002557324944064021,-0.004160653334110975,0.0
454,5,1.1026165338989813e-05,-2.9068381991237402e-05,7.524107058998197e-05,-0.00032716302666813135,0.0010356626007705927,-0.0022597869392484426,-0.006207217928022146,-0.10958097875118256,-0.01481266226619482,0.006329129915684462,0.005106754135340452,-0.11850257217884064,0.0,0.0,0.0,-0.0017387490952387452,-0.0004157707735430449,-0.0,0.0,0.0,0.0,0.0017742413328960538,0.03366038203239441,0.0021711515728384256,16761.0,9995.0,12670.0,15152.0,0.6417787075042725,0.21307626366615295,0.35509607195854187,0.5189879536628723,0.0,0.0,0.0,0.0,14539.0,12994.0,9294.0,17429.0,1.731598973274231,0.05212410928978294,-0.03696397104668433,0.0856905343708762,0.0017348123947158456,-0.005580747500061989,0.0
459,5,-1.5378739703919564e-07,-3.6702640500152484e-05,7.851039117667824e-05,-0.0014724595239385962,0.0013303760206326842,-0.0012962335022166371,-0.006207217928022146,-0.10958097875118256,-0.01481266226619482,0.006329129915684462,0.005106754135340452,-0.11850257217884064,0.0,0.0,0.0,-0.0017387490952387452,-0.0004157707735430449,-0.0,0.0,0.0,0.0,0.0017742413328960538,0.03366038203239441,0.0021711515728384256,16761.0,9995.0,12670.0,15152.0,0.6417787075042725,0.21307626366615295,0.35509607195854187,0.5189879536628723,0.0,0.0,0.0,0.0,14539.0,12994.0,9294.0,17429.0,1.731598973274231,0.05260802713801007,-0.03716354737632088,0.08579921638525974,0.0017348123947158456,-0.005580747500061989,0.0
464,5,-2.7244508601143025e-05,-3.988284879596904e-05,0.000132481349282898,-0.003839870449155569,0.0009137752349488437,-0.006995007861405611,-0.006162877660244703,-0.10953088104724884,-0.015164579264819622,0.019845787435770035,-0.026026779785752296,-0.0782248005270958,0.0,0.0,0.0,-0.0016203391132876277,-0.001326926052570343,-0.0,0.0,0.0,0.0,0.0010037082247436047,0.03271450102329254,-0.0049517108127474785,14409.0,13240.0,9230.0,17389.0,0.4666838049888611,0.39000922441482544,0.17906276881694794,0.6931832432746887,0.0,0.0,0.0,0.0,15495.0,11922.0,10864.0,16460.0,1.7302792072296143,0.05285052156599492,-0.03855424257250327,0.08542920811248059,0.005532406736165285,-0.005196732003241777,0.0
469,5,-2.7244508601143025e-05,-3.988284879596904e-05,0.000132481349282898,-0.003839870449155569,0.0009137752349488437,-0.006995007861405611,-0.006162877660244703,-0.10953088104724884,-0.015164579264819622,0.019845787435770035,-0.026026779785752296,-0.0782248005270958,0.0,0.0,0.0,-0.0016203391132876277,-0.001326926052570343,-0.0,0.0,0.0,0.0,0.0010037082247436047,0.03271450102329254,-0.0049517108127474785,14409.0,13240.0,9230.0,17389.0,0.4666838049888611,0.39000922441482544,0.17906276881694794,0.6931832432746887,0.0,0.0,0.0,0.0,15495.0,11922.0,10864.0,16460.0,1.7302792072296143,0.05285052156599492,-0.03855424257250327,0.08542920811248059,0.005532406736165285,-0.005196732003241777,0.0
474,5,-0.00013499701162800193,-6.39938298263587e-05,0.00028881142497994006,-0.010304588824510574,0.002354212338104844,-0.015758654102683067,-0.005885174963623285,-0.10921401530504227,-0.014655416831374168,0.011910751461982727,-0.05974617972970009,-0.03178644925355911,0.0,0.0,0.0,-0.0011339089833199978,-0.0034772211220115423,-0.0,0.0,0.0,0.0,0.0007596313953399658,0.03169817104935646,-0.00021136442956048995,15521.0,11929.0,10935.0,16390.0,0.546038806438446,0.3121708929538727,0.2588936388492584,0.6122931838035583,0.0,0.0,0.0,0.0,15774.0,11609.0,11342.0,16095.0,1.7376296520233154,0.05442298252127543,-0.04391818701952346,0.08586403595197203,0.014559292234480381,-0.00365210953168571,0.0
479,5,-0.0002139957359759137,-0.00010690828639781103,0.0004099563811905682,-0.013601682148873806,0.0060914200730621815,-0.020840857177972794,-0.005885174963623285,-0.10921401530504227,-0.014655416831374168,0.011910751461982727,-0.05974617972970009,-0.03178644925355911,0.0,0.0,0.0,-0.0011339089833199978,-0.0034772211220115423,-0.0,0.0,0.0,0.0,0.0007596313953399658,0.03169817104935646,-0.00021136442956048995,15521.0,11929.0,10935.0,16390.0,0.546038806438446,0.3121708929538727,0.2588936388492584,0.6122931838035583,0.0,0.0,0.0,0.0,15774.0,11609.0,11342.0,16095.0,1.7376296520233154,0.0560313123437977,-0.04829711064735907,0.08538762578360096,0.014559292234480381,-0.00365210953168571,0.0
484,5,-0.0003318844537716359,-0.00014858285430818796,0.0006091981194913387,-0.019587317481637,0.007437515072524548,-0.03224535286426544,-0.005754062440246344,-0.10838557779788971,-0.015102976933121681,0.011041020043194294,-0.07843337953090668,0.07149258255958557,0.0,0.0,0.0,-0.007109913509339094,-0.012180045247077942,-0.0,0.0,0.0,0.0,0.0006930666859261692,0.031813062727451324,-0.0008977565448731184,15862.0,11471.0,11510.0,15995.0,0.5715869069099426,0.28699731826782227,0.28910982608795166,0.5817024111747742,0.0,0.0,0.0,0.0,14287.0,13392.0,9145.0,17421.0,1.7784481048583984,0.057937729853396874,-0.054805954060637714,0.08535948939936035,0.05219396576285362,-0.023437291383743286,0.0
490,5,-0.0004841715272050351,-0.00018654868472367525,0.0008557108812965453,-0.026109376922249794,0.007530906703323126,-0.04247967153787613,-0.005754062440246344,-0.10838557779788971,-0.015102976933121681,0.011041020043194294,-0.07843337953090668,0.07149258255958557,0.0,0.0,0.0,-0.007109913509339094,-0.012180045247077942,-0.0,0.0,0.0,0.0,0.0006930666859261692,0.031813062727451324,-0.0008977565448731184,15862.0,11471.0,11510.0,15995.0,0.5715869069099426,0.28699731826782227,0.28910982608795166,0.5817024111747742,0.0,0.0,0.0,0.0,14287.0,13392.0,9145.0,17421.0,1.7784481048583984,0.06045527935044181,-0.06300951023775919,0.0857752519431104,0.05219396576285362,-0.023437291383743286,0.0
495,5,-0.0006819111877121031,-0.0002276971936225891,0.0011713361600413918,-0.034172508865594864,0.007950183004140854,-0.05486689507961273,-0.005404022987931967,-0.10707847028970718,-0.015365136787295341,0.09259368479251862,-0.25160205364227295,-0.022216975688934326,0.0,0.0,0.0,-0.008307954296469688,-0.02196059748530388,-0.0,0.0,0.0,0.0,-0.00042265947558917105,0.028184305876493454,-0.0029898162465542555,14884.0,12917.0,10599.0,16484.0,0.49982863664627075,0.3700355291366577,0.2420104295015335,0.6197243332862854,0.0,0.0,0.0,0.0,15295.0,12259.0,11009.0,16342.0,1.9010307788848877,0.06328672052785782,-0.0732875964437156,0.08572078182415546,0.10058548301458359,-0.029274042695760727,0.0
500,5,-0.0009283230174332857,-0.0002687622618395835,0.0015292665921151638,-0.04323842376470566,0.008107881993055344,-0.06489841639995575,-0.005404022987931967,-0.10707847028970718,-0.015365136787295341,0.09259368479251862,-0.25160205364227295,-0.022216975688934326,0.0,0.0,0.0,-0.008307954296469688,-0.02196059748530388,-0.0,0.0,0.0,0.0,-0.00042265947558917105,0.028184305876493454,-0.0029898162465542555,14884.0,12917.0,10599.0,16484.0,0.49982863664627075,0.3700355291366577,0.2420104295015335,0.6197243332862854,0.0,0.0,0.0,0.0,15295.0,12259.0,11009.0,16342.0,1.9010307788848877,0.06610503222831089,-0.08591596643326785,0.08629934284895548,0.16726548969745636,-0.03189081326127052,0.0
505,5,-0.0011938492534682155,-0.00034085498191416264,0.0018406757153570652,-0.04915851727128029,0.011894281022250652,-0.06332845985889435,-0.0041429693810641766,-0.10178434103727341,-0.015521671622991562,0.15857282280921936,-0.7408172488212585,-0.006758998613804579,0.0,0.0,0.0,-0.008338053710758686,-0.03364728018641472,-0.0,0.0,0.0,0.0,-0.0012116825673729181,0.01938994601368904,-0.0013782751047983766,14625.0,13330.0,11922.0,15455.0,0.48164573311805725,0.39571502804756165,0.31177976727485657,0.5411386489868164,0.0,0.0,0.0,0.0,13823.0,14316.0,11928.0,15409.0,2.063485860824585,0.0706167754532158,-0.09798489689429567,0.0865682603865549,0.16726548969745636,-0.03189081326127052,0.0
510,5,-0.0014511117478832603,-0.00040357562829740345,0.0021139271557331085,-0.05053490772843361,0.012284187600016594,-0.05812156945466995,-0.0041429693810641766,-0.10178434103727341,-0.015521671622991562,0.15857282280921936,-0.7408172488212585,-0.006758998613804579,0.0,0.0,0.0,-0.008338053710758686,-0.03364728018641472,-0.0,0.0,0.0,0.0,-0.0012116825673729181,0.01938994601368904,-0.0013782751047983766,14625.0,13330.0,11922.0,15455.0,0.48164573311805725,0.39571502804756165,0.31177976727485657,0.5411386489868164,0.0,0.0,0.0,0.0,13823.0,14316.0,11928.0,15409.0,2.063485860824585,0.0753624018087144,-0.11091343733298784,0.08784426125570191,0.16726548969745636,-0.03189081326127052,0.0
515,5,-0.001745999907143414,-0.0004923951928503811,0.002377317985519767,-0.055600542575120926,0.015572021715342999,-0.054855525493621826,-0.0041429693810641766,-0.10178434103727341,-0.015521671622991562,0.15857282280921936,-0.7408172488212585,-0.006758998613804579,0.0,0.0,0.0,-0.012161016464233398,-0.038267359137535095,-0.0,0.0,0.0,0.0,-0.0012116825673729181,0.01938994601368904,-0.0013782751047983766,14625.0,13330.0,11922.0,15455.0,0.48164573311805725,0.39571502804756165,0.31177976727485657,0.5411386489868164,0.0,0.0,0.0,0.0,13823.0,14316.0,11928.0,15409.0,2.142603635787964,0.07848477666378838,-0.1242172139922992,0.08800250774670293,0.19750772416591644,-0.04829484596848488,0.0
520,5,-0.0020487247966229916,-0.0005162222660146654,0.0026876600459218025,-0.058567196130752563,0.009088056161999702,-0.059183262288570404,-0.0023642652668058872,-0.09371767938137054,-0.015919474884867668,0.29115357995033264,-1.4386122226715088,-0.0479377806186676,0.0,0.0,0.0,-0.012161016464233398,-0.038267359137535095,-0.0,0.0,0.0,0.0,-0.0030036645475775003,0.001968767261132598,-0.003352786647155881,12939.0,15230.0,12424.0,14901.0,0.37137654423713684,0.5246855020523071,0.3405540883541107,0.5010135173797607,0.0,0.0,0.0,0.0,12917.0,15761.0,13645.0,13841.0,2.142603635787964,0.0817066279841209,-0.13833863211557904,0.08919137748114353,0.19750772416591644,-0.04829484596848488,0.0
525,5,-0.0023229795042425394,-0.0005399922374635935,0.0029614875093102455,-0.056337445974349976,0.006487621925771236,-0.05653257668018341,-0.0023642652668058872,-0.09371767938137054,-0.015919474884867668,0.29115357995033264,-1.4386122226715088,-0.0479377806186676,0.0,0.0,0.0,-0.008999682031571865,-0.043301768600940704,-0.0,0.0,0.0,0.0,-0.0030036645475775003,0.001968767261132598,-0.003352786647155881,12939.0,15230.0,12424.0,14901.0,0.37137654423713684,0.5246855020523071,0.3405540883541107,0.5010135173797607,0.0,0.0,0.0,0.0,12917.0,15761.0,13645.0,13841.0,2.213923931121826,0.08454011953409853,-0.1513198549426267,0.0908082949925512,0.2309228479862213,-0.036930717527866364,0.0
530,5,-0.0025546164251863956,-0.0005900702672079206,0.0031509418040513992,-0.05033142864704132,0.008604411035776138,-0.04534755274653435,0.0018374033970758319,-0.07282591611146927,-0.016048697754740715,0.4420144557952881,-2.1566696166992188,-0.045398544520139694,0.0,0.0,0.0,-0.008999682031571865,-0.043301768600940704,-0.0,0.0,0.0,0.0,-0.009846050292253494,-0.042161453515291214,-0.002042297273874283,12144.0,16573.0,14435.0,12732.0,0.3243383467197418,0.6267581582069397,0.46848705410957336,0.35886457562446594,0.0,0.0,0.0,0.0,10970.0,18166.0,14860.0,13122.0,2.213923931121826,0.08690206661276996,-0.16174849844796182,0.09145507095208763,0.2309228479862213,-0.036930717527866364,0.0
535,5,-0.0027664974331855774,-0.0006259056972339749,0.0033172161784023046,-0.04555829241871834,0.007742015644907951,-0.038091957569122314,0.0018374033970758319,-0.07282591611146927,-0.016048697754740715,0.4420144557952881,-2.1566696166992188,-0.045398544520139694,0.0,0.0,0.0,-0.008920004591345787,-0.039186324924230576,-0.0,0.0,0.0,0.0,-0.009846050292253494,-0.042161453515291214,-0.002042297273874283,12144.0,16573.0,14435.0,12732.0,0.3243383467197418,0.6267581582069397,0.46848705410957336,0.35886457562446594,0.0,0.0,0.0,0.0,10970.0,18166.0,14860.0,13122.0,2.1486928462982178,0.08879982793167338,-0.1709248742215762,0.09133705380145271,0.20283006131649017,-0.03552527725696564,0.0
540,5,-0.0029246581252664328,-0.000622592750005424,0.0034684264101088047,-0.037202589213848114,0.0026992512866854668,-0.03338199481368065,0.005857005715370178,-0.05360475182533264,-0.01658850722014904,0.5598891973495483,-2.7115237712860107,0.012391546741127968,0.0,0.0,0.0,-0.008920004591345787,-0.039186324924230576,-0.0,0.0,0.0,0.0,-0.009853918105363846,-0.05610625445842743,-0.0031771715730428696,11362.0,18123.0,16060.0,11290.0,0.281179815530777,0.7557941675186157,0.5867092609405518,0.27734753489494324,0.0,0.0,0.0,0.0,11626.0,18921.0,17118.0,11157.0,2.1486928462982178,0.08893728655263805,-0.1782147681344374,0.0920701180676715,0.20283006131649017,-0.03552527725696564,0.0
545,5,-0.003026911523193121,-0.000576537277083844,0.0035881823860108852,-0.0271514430642128,-0.004446951672434807,-0.02772352658212185,0.012312373146414757,-0.020682092756032944,-0.017111273482441902,0.4937611520290375,-2.8098397254943848,-0.06579996645450592,0.0,0.0,0.0,-0.003605593927204609,-0.03183557093143463,-0.0,0.0,0.0,0.0,-0.010444935411214828,-0.06326835602521896,-0.0003566228842828423,11529.0,19370.0,18260.0,10063.0,0.2901665270328522,0.8683730363845825,0.7677916288375854,0.2162725031375885,0.0,0.0,0.0,0.0,10091.0,19707.0,17385.0,10817.0,2.029268264770508,0.08862688174052721,-0.18403293093999704,0.09272019750417204,0.15564237534999847,-0.013561980798840523,0.0
551,5,-0.0030819603707641363,-0.0005515298689715564,0.0036500273272395134,-0.017466427758336067,-0.004779673647135496,-0.018510790541768074,0.012312373146414757,-0.020682092756032944,-0.017111273482441902,0.4937611520290375,-2.8098397254943848,-0.06579996645450592,0.0,0.0,0.0,-0.003605593927204609,-0.03183557093143463,-0.0,0.0,0.0,0.0,-0.010444935411214828,-0.06326835602521896,-0.0003566228842828423,11529.0,19370.0,18260.0,10063.0,0.2901665270328522,0.8683730363845825,0.7677916288375854,0.2162725031375885,0.0,0.0,0.0,0.0,10091.0,19707.0,17385.0,10817.0,2.029268264770508,0.0873080883915699,-0.18680297687416345,0.09233420157570905,0.15564237534999847,-0.013561980798840523,0.0
556,5,-0.003084184369072318,-0.0004949058056809008,0.0036881333217024803,-0.007253462448716164,-0.008706753142178059,-0.011977048590779305,0.012312373146414757,-0.020682092756032944,-0.017111273482441902,0.4937611520290375,-2.8098397254943848,-0.06579996645450592,0.0,0.0,0.0,-0.003605593927204609,-0.03183557093143463,-0.0,0.0,0.0,0.0,-0.010444935411214828,-0.06326835602521896,-0.0003566228842828423,11529.0,19370.0,18260.0,10063.0,0.2901665270328522,0.8683730363845825,0.7677916288375854,0.2162725031375885,0.0,0.0,0.0,0.0,10091.0,19707.0,17385.0,10817.0,2.029268264770508,0.08482693206165094,-0.18689053952491835,0.09252491356192599,0.15564237534999847,-0.013561980798840523,0.0
561,5,-0.0030408601742237806,-0.0004107601707801223,0.0037067702505737543,0.002297506667673588,-0.013580180704593658,-0.007027242798358202,0.015696225687861443,0.001152777811512351,-0.017362525686621666,0.3023768365383148,-2.5102880001068115,0.05138671025633812,0.0,0.0,0.0,0.009075402282178402,-0.010321364738047123,-0.0,0.0,0.0,0.0,-0.006272090598940849,-0.0577373243868351,-0.0030715817119926214,10673.0,19854.0,17732.0,12275.0,0.2456992268562317,0.9141635298728943,0.7221581339836121,0.33190304040908813,0.0,0.0,0.0,0.0,11126.0,19502.0,17966.0,10777.0,1.7781504392623901,0.08074822340549255,-0.1844593212302933,0.09248975548596362,0.04422134533524513,0.029911082237958908,0.0
566,5,-0.002966128056868911,-0.00034276864607818425,0.00364976585842669,0.009886875748634338,-0.01359105296432972,0.004029638133943081,0.018149154260754585,0.02781846560537815,-0.017845237627625465,0.045359056442976,-1.8056167364120483,-0.021981483325362206,0.0,0.0,0.0,0.014843248762190342,0.004816100001335144,-0.0,0.0,0.0,0.0,-0.0031414355617016554,-0.0439278744161129,-0.0001093632890842855,12477.0,18121.0,17478.0,12562.0,0.3436943292617798,0.755666971206665,0.7006245851516724,0.3487069606781006,0.0,0.0,0.0,0.0,11530.0,19236.0,17923.0,12231.0,1.78337824344635,0.07828438319408419,-0.18062924819219153,0.09215361737241112,-0.02069385163486004,0.049062762409448624,-0.0
