timestamp,dt,pos_x,pos_y,pos_z,vel_x,vel_y,vel_z,roll,pitch,yaw,agv_x,agv_y,agv_z,x_ref,y_ref,z_ref,roll_ref,pitch_ref,yaw_ref,x_vel_ref,y_vel_ref,z_vel_ref,x_torque,y_torque,z_torque,w0,w1,w2,w3,u0,u1,u2,u3,m0req,m1req,m2req,m3req,thrust0,thrust1,thrust2,thrust3,thrust_ref,roll_vicon,pitch_vicon,yaw_vicon,acc_x,acc_y,acc_z,roll_received,pitch_received,yaw_received
5,5,0.0,0.0,0.0,0.000830816978123039,-0.0003961018519476056,0.0010614973725751042,0.01730640046298504,-0.21712565422058105,-0.007628867868334055,0.0,0.0,0.0,0.0,0.0,0.0,0.0004900966887362301,0.0007907458930276334,-0.0,0.0,0.0,0.0,-0.0034684038255363703,0.06518591195344925,-0.0007360727177001536,1495.0,1495.0,1495.0,1495.0,0.0,0.0,0.0,0.0,0.0,0.0,0.0,0.0,0.0,0.0,0.0,0.0,1.6351133584976196,0.019313593700239568,0.07078093783400422,-0.06688043587289914,-0.003115563653409481,0.0014853819739073515,0.0,-0.0,-0.0,0.0
32,27,0.0,0.0,0.0,0.00211608549579978,-0.0005632895044982433,0.001694433973170817,0.01730640046298504,-0.21712565422058105,-0.007628867868334055,0.0,0.0,0.0,0.0,0.0,0.0,0.0004900966887362301,0.0007907458930276334,-0.0,0.0,0.0,0.0,-0.0034684038255363703,0.06518591195344925,-0.0007360727177001536,1495.0,1495.0,1495.0,1495.0,0.0,0.0,0.0,0.0,0.0,0.0,0.0,0.0,0.0,0.0,0.0,0.0,1.6351133584976196,0.020685789120926164,0.07093010368954134,-0.0668714663448349,-0.003115563653409481,0.0014853819739073515,0.0,-0.0,-0.0,0.0
37,5,0.0,0.0,0.0,0.00211608549579978,-0.0005632895044982433,0.001694433973170817,0.01730640046298504,-0.21712565422058105,-0.007628867868334055,0.0,0.0,0.0,0.0,0.0,0.0,0.0006915068370290101,0.0019982741214334965,-0.0,0.0,0.0,0.0,-0.0034684038255363703,0.06518591195344925,-0.0007360727177001536,1495.0,1495.0,1495.0,1495.0,0.0,0.0,0.0,0.0,0.0,0.0,0.0,0.0,0.0,0.0,0.0,0.0,1.6480027437210083,0.020685789120926164,0.07093010368954134,-0.0668714663448349,-0.00793532095849514,0.0021123355254530907,0.0,-0.0,-0.0,0.0
43,5,0.0,0.0,0.0,-0.00037445922498591244,1.696593244560063e-05,-0.003447683062404394,0.017313163727521896,-0.2171516865491867,-0.007626434788107872,0.0,0.0,0.0,0.0,0.0,0.0,-2.106345709762536e-05,-0.0003576128510758281,-0.0,0.0,0.0,0.0,-0.003391931066289544,0.06537728011608124,-0.0007377050933428109,1495.0,1495.0,1495.0,1495.0,0.0,0.0,0.0,0.0,0.0,0.0,0.0,0.0,0.0,0.0,0.0,0.0,1.6295616626739502,0.020139898525002378,0.07053147046296175,-0.06704749172920375,0.0014042221009731293,-6.362224667100236e-05,0.0,0.0004900966887362301,0.0007907458930276334,0.0
57,15,0.0,0.0,0.0,-0.00037445922498591244,1.696593244560063e-05,-0.003447683062404394,0.017313163727521896,-0.2171516865491867,-0.007626434788107872,0.0,0.0,0.0,0.0,0.0,0.0,-2.106345709762536e-05,-0.0003576128510758281,-0.0,0.0,0.0,0.0,-0.003391931066289544,0.06537728011608124,-0.0007377050933428109,1495.0,1495.0,1495.0,1495.0,0.0,0.0,0.0,0.0,0.0,0.0,0.0,0.0,0.0,0.0,0.0,0.0,1.6295616626739502,0.02003699480279785,0.07072050082911313,-0.06714438695972695,0.0014042221009731293,-6.362224667100236e-05,0.0,0.0004900966887362301,0.0007907458930276334,0.0
62,5,1.2160655387560837e-05,-1.2877840163127985e-05,-2.199742266384419e-05,0.0013094949536025524,0.0015521271852776408,0.0012606176314875484,0.017313430085778236,-0.21713951230049133,-0.007643080782145262,0.0,0.0,0.0,0.0,0.0,0.0,-2.106345709762536e-05,-0.0003576128510758281,-0.0,0.0,0.0,0.0,-0.0033885359298437834,0.06537103652954102,-0.0007017396856099367,1495.0,1495.0,1495.0,1495.0,0.0,0.0,0.0,0.0,0.0,0.0,0.0,0.0,0.0,0.0,0.0,0.0,1.6295616626739502,0.020875203325961485,0.07114454431495049,-0.06727051405068117,0.0014042221009731293,-6.362224667100236e-05,0.0,0.0004900966887362301,0.0007907458930276334,0.0
67,5,1.2160655387560837e-05,-1.2877840163127985e-05,-2.199742266384419e-05,0.0013094949536025524,0.0015521271852776408,0.0012606176314875484,0.017313430085778236,-0.21713951230049133,-0.007643080782145262,0.0,0.0,0.0,0.0,0.0,0.0,-2.106345709762536e-05,-0.0003576128510758281,-0.0,0.0,0.0,0.0,-0.0033885359298437834,0.06537103652954102,-0.0007017396856099367,1495.0,1495.0,1495.0,1495.0,0.0,0.0,0.0,0.0,0.0,0.0,0.0,0.0,0.0,0.0,0.0,0.0,1.6295616626739502,0.020875203325961485,0.07114454431495049,-0.06727051405068117,0.0014042221009731293,-6.362224667100236e-05,0.0,0.0004900966887362301,0.0007907458930276334,0.0
73,5,7.552141596534057e-06,-7.213150638563093e-06,-3.599677074817009e-05,0.0013094949536025524,0.0015521271852776408,0.0012606176314875484,0.01733548752963543,-0.21712279319763184,-0.007656740956008434,0.0,0.0,0.0,0.0,0.0,0.0,-0.0019302089931443334,0.0012544711353257298,-0.0,0.0,0.0,0.0,-0.003337641479447484,0.06572695821523666,-0.0007910641143098474,17540.0,8438.0,6428.0,17656.0,0.7058229446411133,0.14693698287010193,0.0795394703745842,0.7157033681869507,0.0,0.0,0.0,0.0,0.0,0.0,0.0,0.0,1.6466542482376099,0.02036362852165094,0.07080368109270219,-0.06697720012482816,-0.00497753219678998,-0.005891350097954273,0.0,0.0006915068370290101,0.0019982741214334965,0.0
78,5,7.552141596534057e-06,-7.213150638563093e-06,-3.599677074817009e-05,0.0013094949536025524,0.0015521271852776408,0.0012606176314875484,0.017337210476398468,-0.2171078473329544,-0.007656367961317301,0.0,0.0,0.0,0.0,0.0,0.0,-0.0019302089931443334,0.0012544711353257298,-0.0,0.0,0.0,0.0,-0.0034799999557435513,0.06503262370824814,-0.0007495125173591077,17462.0,8400.0,6374.0,17551.0,0.6992849707603455,0.14549073576927185,0.07800836116075516,0.7067776322364807,0.0,0.0,0.0,0.0,0.0,0.0,0.0,0.0,1.6466542482376099,0.02036362852165094,0.07080368109270219,-0.06697720012482816,-0.00497753219678998,-0.005891350097954273,0.0,-2.106345709762536e-05,-0.0003576128510758281,0.0
83,5,7.647021448065061e-06,-1.082133167074062e-05,-2.2322532458929345e-05,0.0005351835861802101,0.0010538325877860188,-0.001136661390773952,0.017337210476398468,-0.2171078473329544,-0.007656367961317301,0.0,0.0,0.0,0.0,0.0,0.0,-0.0019201361574232578,0.0012481719022616744,-0.0,0.0,0.0,0.0,-0.0034799999557435513,0.06503262370824814,-0.0007495125173591077,17462.0,8400.0,6374.0,17551.0,0.6992849707603455,0.14549073576927185,0.07800836116075516,0.7067776322364807,0.0,0.0,0.0,0.0,0.0,0.0,0.0,0.0,1.6465457677841187,0.020051373887563555,0.07029861936596238,-0.06714096988877834,-0.004952211864292622,-0.005860219709575176,0.0,-2.106345709762536e-05,-0.0003576128510758281,0.0
88,5,7.647021448065061e-06,-1.082133167074062e-05,-2.2322532458929345e-05,0.0005351835861802101,0.0010538325877860188,-0.001136661390773952,0.017337210476398468,-0.2171078473329544,-0.007656367961317301,0.0,0.0,0.0,0.0,0.0,0.0,-0.0013212733902037144,0.0005191640229895711,-0.0,0.0,0.0,0.0,-0.003473387798294425,0.06519605219364166,-0.000772711297031492,17461.0,8401.0,6331.0,17566.0,0.699216365814209,0.14553220570087433,0.0768054872751236,0.7080075740814209,0.0,0.0,0.0,0.0,0.0,0.0,0.0,0.0,1.6379685401916504,0.020051373887563555,0.07029861936596238,-0.06714096988877834,-0.0020490929018706083,-0.004011497832834721,0.0,-2.106345709762536e-05,-0.0003576128510758281,0.0
97,9,1.3121088159095962e-05,-2.38713550970715e-06,-2.2697606254951097e-05,0.0008709614048711956,-0.00059057044563815,-0.00040965559310279787,0.017337210476398468,-0.2171078473329544,-0.007656367961317301,0.0,0.0,0.0,0.0,0.0,0.0,-0.0013212733902037144,0.0005191640229895711,-0.0,0.0,0.0,0.0,-0.003473387798294425,0.06519605219364166,-0.000772711297031492,17461.0,8401.0,6331.0,17566.0,0.699216365814209,0.14553220570087433,0.0768054872751236,0.7080075740814209,0.0,0.0,0.0,0.0,0.0,0.0,0.0,0.0,1.6379685401916504,0.02004975746218215,0.07039911269654572,-0.06701733644540869,-0.0020490929018706083,-0.004011497832834721,0.0,-2.106345709762536e-05,-0.0003576128510758281,0.0
102,5,7.465185717592249e-06,-1.3082106306683272e-05,-2.1736688722739927e-05,0.0008709614048711956,-0.00059057044563815,-0.00040965559310279787,0.017337210476398468,-0.2171078473329544,-0.007656367961317301,0.0,0.0,0.0,0.0,0.0,0.0,0.0007063487428240478,0.0008387257694266737,-0.0,0.0,0.0,0.0,-0.003473387798294425,0.06519605219364166,-0.000772711297031492,17461.0,8401.0,6331.0,17566.0,0.699216365814209,0.14553220570087433,0.0768054872751236,0.7080075740814209,0.0,0.0,0.0,0.0,0.0,0.0,0.0,0.0,1.6364396810531616,0.02063520616507643,0.07107111563660554,-0.067150486288385,-0.0033072857186198235,0.0021425336599349976,0.0,-2.106345709762536e-05,-0.0003576128510758281,0.0
107,5,7.465185717592249e-06,-1.3082106306683272e-05,-2.1736688722739927e-05,0.0008709614048711956,-0.00059057044563815,-0.00040965559310279787,0.017325442284345627,-0.21709725260734558,-0.007670363876968622,0.0,0.0,0.0,0.0,0.0,0.0,0.0007063487428240478,0.0008387257694266737,-0.0,0.0,0.0,0.0,-0.0037578835617750883,0.0655551329255104,-0.0008113906951621175,17583.0,8450.0,6421.0,17594.0,0.7094871401786804,0.1473986953496933,0.0793316662311554,0.7104367613792419,0.0,0.0,0.0,0.0,0.0,0.0,0.0,0.0,1.6364396810531616,0.02063520616507643,0.07107111563660554,-0.067150486288385,-0.0033072857186198235,0.0021425336599349976,0.0,-0.0013212733902037144,0.0005191640229895711,0.0
112,5,8.732184141990729e-06,6.188696261233417e-06,-1.6461286577396095e-05,0.0005004243575967848,-0.002548724412918091,-0.000796910491771996,0.017325442284345627,-0.21709725260734558,-0.007670363876968622,0.0,0.0,0.0,0.0,0.0,0.0,0.0007063487428240478,0.0008387257694266737,-0.0,0.0,0.0,0.0,-0.0037578835617750883,0.0655551329255104,-0.0008113906951621175,17583.0,8450.0,6421.0,17594.0,0.7094871401786804,0.1473986953496933,0.0793316662311554,0.7104367613792419,0.0,0.0,0.0,0.0,0.0,0.0,0.0,0.0,1.6364396810531616,0.020115912126108502,0.07074430090256142,-0.06696288229799231,-0.0033072857186198235,0.0021425336599349976,0.0,-0.0013212733902037144,0.0005191640229895711,0.0
119,7,9.012966984300874e-06,-3.5660634694067994e-06,-4.639379039872438e-05,0.0005004243575967848,-0.002548724412918091,-0.000796910491771996,0.017304887995123863,-0.21712544560432434,-0.007681992370635271,0.0,0.0,0.0,0.0,0.0,0.0,0.003131904872134328,0.0004834516148548573,-0.0,0.0,0.0,0.0,-0.0033121109008789062,0.06573844701051712,-0.0007409268873743713,17514.0,8339.0,6358.0,17613.0,0.7036728858947754,0.14315246045589447,0.07755345106124878,0.7120609283447266,0.0,0.0,0.0,0.0,0.0,0.0,0.0,0.0,1.6522518396377563,0.019579659224151703,0.07059062952999567,-0.06685553964976759,-0.00192477076780051,0.009591622278094292,0.0,0.0007063487428240478,0.0008387257694266737,0.0
124,5,9.012966984300874e-06,-3.5660634694067994e-06,-4.639379039872438e-05,0.0005004243575967848,-0.002548724412918091,-0.000796910491771996,0.01730036735534668,-0.21713770925998688,-0.007679099217057228,0.0,0.0,0.0,0.0,0.0,0.0,0.0031146486289799213,0.0004838888125959784,-0.0,0.0,0.0,0.0,-0.0033520329743623734,0.06580981612205505,-0.0007554812473244965,17541.0,8381.0,6591.0,17675.0,0.7059778571128845,0.14475378394126892,0.08423743396997452,0.7172827124595642,0.0,0.0,0.0,0.0,0.0,0.0,0.0,0.0,1.6521105766296387,0.019579659224151703,0.07059062952999567,-0.06685553964976759,-0.0019263466820120811,0.009537958540022373,0.0,0.0007063487428240478,0.0008387257694266737,0.0
130,6,1.2281130693736486e-05,2.752609134404338e-06,-4.059488856000826e-05,0.0005004243575967848,-0.002548724412918091,-0.000796910491771996,0.01730036735534668,-0.21713770925998688,-0.007679099217057228,0.0,0.0,0.0,0.0,0.0,0.0,0.0031146486289799213,0.0004838888125959784,-0.0,0.0,0.0,0.0,-0.0033520329743623734,0.06580981612205505,-0.0007554812473244965,17541.0,8381.0,6591.0,17675.0,0.7059778571128845,0.14475378394126892,0.08423743396997452,0.7172827124595642,0.0,0.0,0.0,0.0,0.0,0.0,0.0,0.0,1.6521105766296387,0.020599122308683222,0.07094885400831293,-0.06705601303647224,-0.0019263466820120811,0.009537958540022373,0.0,0.0007063487428240478,0.0008387257694266737,0.0
135,5,1.2281130693736486e-05,2.752609134404338e-06,-4.059488856000826e-05,0.0005004243575967848,-0.002548724412918091,-0.000796910491771996,0.01730036735534668,-0.21713770925998688,-0.007679099217057228,0.0,0.0,0.0,0.0,0.0,0.0,0.0031146486289799213,0.0004838888125959784,-0.0,0.0,0.0,0.0,-0.0033520329743623734,0.06580981612205505,-0.0007554812473244965,17541.0,8381.0,6591.0,17675.0,0.7059778571128845,0.14475378394126892,0.08423743396997452,0.7172827124595642,0.0,0.0,0.0,0.0,0.0,0.0,0.0,0.0,1.6521105766296387,0.020599122308683222,0.07094885400831293,-0.06705601303647224,-0.0019263466820120811,0.009537958540022373,0.0,0.0007063487428240478,0.0008387257694266737,0.0
140,5,1.3632279660669155e-05,-9.611998393666e-06,-3.5731940442929044e-05,0.00036230761907063425,0.00046426308108493686,-0.000902318162843585,0.01729506254196167,-0.21711422502994537,-0.007691218983381987,0.0,0.0,0.0,0.0,0.0,0.0,0.0031258079688996077,0.0004883847432211041,-0.0,0.0,0.0,0.0,-0.0028685559518635273,0.06563769280910492,-0.0008474378846585751,17516.0,8437.0,6521.0,17697.0,0.7038695216178894,0.14691190421581268,0.08220477402210236,0.719124436378479,0.0,0.0,0.0,0.0,0.0,0.0,0.0,0.0,1.6522122621536255,0.02034561974454878,0.07093229264568231,-0.06704149595053482,-0.0019443645142018795,0.00957272108644247,0.0,0.003131904872134328,0.0004834516148548573,0.0
145,5,1.3632279660669155e-05,-9.611998393666e-06,-3.5731940442929044e-05,0.00036230761907063425,0.00046426308108493686,-0.000902318162843585,0.01729506254196167,-0.21711422502994537,-0.007691218983381987,0.0,0.0,0.0,0.0,0.0,0.0,0.0031258079688996077,0.0004883847432211041,-0.0,0.0,0.0,0.0,-0.0028685559518635273,0.06563769280910492,-0.0008474378846585751,17516.0,8437.0,6521.0,17697.0,0.7038695216178894,0.14691190421581268,0.08220477402210236,0.719124436378479,0.0,0.0,0.0,0.0,0.0,0.0,0.0,0.0,1.6522122621536255,0.02034561974454878,0.07093229264568231,-0.06704149595053482,-0.0019443645142018795,0.00957272108644247,0.0,0.003131904872134328,0.0004834516148548573,0.0
150,5,1.3147358913556673e-05,4.523678398982156e-06,-2.3501430405303836e-05,8.673255069879815e-05,-0.0015105759957805276,-0.0018285884289070964,0.01729455031454563,-0.21712861955165863,-0.007684842683374882,0.0,0.0,0.0,0.0,0.0,0.0,-0.0005930675542913377,0.00036463121068663895,-0.0,0.0,0.0,0.0,-0.0029073094483464956,0.06571701169013977,-0.0007102582603693008,17545.0,8385.0,6574.0,17674.0,0.7062434554100037,0.14490747451782227,0.08374901860952377,0.7172106504440308,0.0,0.0,0.0,0.0,0.0,0.0,0.0,0.0,1.6319804191589355,0.019635790821420324,0.07035692305353108,-0.0669524648370595,-0.001433905796147883,-0.0017940213438123465,0.0,0.0031146486289799213,0.0004838888125959784,0.0
155,5,1.3147358913556673e-05,4.523678398982156e-06,-2.3501430405303836e-05,8.673255069879815e-05,-0.0015105759957805276,-0.0018285884289070964,0.01729455031454563,-0.21712861955165863,-0.007684842683374882,0.0,0.0,0.0,0.0,0.0,0.0,-0.0005930675542913377,0.00036463121068663895,-0.0,0.0,0.0,0.0,-0.0029073094483464956,0.06571701169013977,-0.0007102582603693008,17545.0,8385.0,6574.0,17674.0,0.7062434554100037,0.14490747451782227,0.08374901860952377,0.7172106504440308,0.0,0.0,0.0,0.0,0.0,0.0,0.0,0.0,1.6319804191589355,0.019635790821420324,0.07035692305353108,-0.0669524648370595,-0.001433905796147883,-0.0017940213438123465,0.0,0.0031146486289799213,0.0004838888125959784,0.0
160,5,1.1905156497959979e-05,-4.618584625859512e-06,-3.685250703711063e-05,-0.00011437128705438226,0.0004928411217406392,0.0008706935914233327,0.017289308831095695,-0.21706753969192505,-0.007700515910983086,0.0,0.0,0.0,0.0,0.0,0.0,0.0018702149391174316,0.00010060815111501142,-0.0,0.0,0.0,0.0,-0.002864171052351594,0.06554260849952698,-0.0008205597405321896,17515.0,8438.0,6549.0,17689.0,0.7037258744239807,0.14693039655685425,0.08301857113838196,0.7184357047080994,0.0,0.0,0.0,0.0,0.0,0.0,0.0,0.0,1.641216516494751,0.01955712722808743,0.07045822606423684,-0.06694345577222029,-0.0003978782333433628,0.005689387209713459,0.0,0.0031146486289799213,0.0004838888125959784,0.0
165,5,1.1905156497959979e-05,-4.618584625859512e-06,-3.685250703711063e-05,-0.00011437128705438226,0.0004928411217406392,0.0008706935914233327,0.017289308831095695,-0.21706753969192505,-0.007700515910983086,0.0,0.0,0.0,0.0,0.0,0.0,0.0018702149391174316,0.00010060815111501142,-0.0,0.0,0.0,0.0,-0.002864171052351594,0.06554260849952698,-0.0008205597405321896,17515.0,8438.0,6549.0,17689.0,0.7037258744239807,0.14693039655685425,0.08301857113838196,0.7184357047080994,0.0,0.0,0.0,0.0,0.0,0.0,0.0,0.0,1.641216516494751,0.01955712722808743,0.07045822606423684,-0.06694345577222029,-0.0003978782333433628,0.005689387209713459,0.0,0.0031146486289799213,0.0004838888125959784,0.0
171,5,4.830472789763007e-06,1.5573372365906835e-05,1.3075207789370324e-05,-0.0008947105379775167,-0.002225898439064622,-0.005643048323690891,0.017372531816363335,-0.2170572429895401,-0.007723987568169832,0.0,0.0,0.0,0.0,0.0,0.0,-0.0006198161863721907,-9.23808547668159e-05,-0.0,0.0,0.0,0.0,-0.0031163545791059732,0.06573637574911118,-0.000950541056226939,17536.0,8447.0,6495.0,17682.0,0.705550491809845,0.14729192852973938,0.08146464824676514,0.7179052233695984,0.0,0.0,0.0,0.0,0.0,0.0,0.0,0.0,1.6309272050857544,0.02036880828343417,0.07244723762500624,-0.06767416444947034,0.00036305160028859973,-0.0018737255595624447,0.0,0.0031258079688996077,0.0004883847432211041,0.0
176,5,4.830472789763007e-06,1.5573372365906835e-05,1.3075207789370324e-05,-0.0008947105379775167,-0.002225898439064622,-0.005643048323690891,0.017372531816363335,-0.2170572429895401,-0.007723987568169832,0.0,0.0,0.0,0.0,0.0,0.0,-0.0006198161863721907,-9.23808547668159e-05,-0.0,0.0,0.0,0.0,-0.0031163545791059732,0.06573637574911118,-0.000950541056226939,17536.0,8447.0,6495.0,17682.0,0.705550491809845,0.14729192852973938,0.08146464824676514,0.7179052233695984,0.0,0.0,0.0,0.0,0.0,0.0,0.0,0.0,1.6309272050857544,0.02036880828343417,0.07244723762500624,-0.06767416444947034,0.00036305160028859973,-0.0018737255595624447,0.0,0.0031258079688996077,0.0004883847432211041,0.0
181,5,1.8141505279345438e-05,2.720656993915327e-06,-3.2292777177644894e-05,0.001239439588971436,0.0006519665475934744,0.0031869388185441494,0.01733074150979519,-0.21698912978172302,-0.0076893228106200695,0.0,0.0,0.0,0.0,0.0,0.0,0.002756706206128001,-0.0008369413553737104,-0.0,0.0,0.0,0.0,-0.003402682486921549,0.06553258746862411,-0.0011789132840931416,17345.0,8661.0,5839.0,17744.0,0.689513087272644,0.1556844264268875,0.06363119184970856,0.723151683807373,0.0,0.0,0.0,0.0,0.0,0.0,0.0,0.0,1.6503136157989502,0.0202909121328109,0.07140546186765569,-0.06714577287361741,0.0033282176591455936,0.008432658389210701,0.0,-0.0005930675542913377,0.00036463121068663895,0.0
186,5,1.8141505279345438e-05,2.720656993915327e-06,-3.2292777177644894e-05,0.001239439588971436,0.0006519665475934744,0.0031869388185441494,0.01733074150979519,-0.21698912978172302,-0.0076893228106200695,0.0,0.0,0.0,0.0,0.0,0.0,0.002756706206128001,-0.0008369413553737104,-0.0,0.0,0.0,0.0,-0.003402682486921549,0.06553258746862411,-0.0011789132840931416,17345.0,8661.0,5839.0,17744.0,0.689513087272644,0.1556844264268875,0.06363119184970856,0.723151683807373,0.0,0.0,0.0,0.0,0.0,0.0,0.0,0.0,1.6503136157989502,0.0202909121328109,0.07140546186765569,-0.06714577287361741,0.0033282176591455936,0.008432658389210701,0.0,-0.0005930675542913377,0.00036463121068663895,0.0
191,5,2.5048506358871236e-05,1.6986856280709617e-05,-3.8673621020279825e-05,0.001239439588971436,0.0006519665475934744,0.0031869388185441494,0.01739496737718582,-0.2171497493982315,-0.007710416801273823,0.0,0.0,0.0,0.0,0.0,0.0,-0.0007992817554622889,0.001201349077746272,-0.0,0.0,0.0,0.0,-0.0034809340722858906,0.0660613402724266,-0.0003551944682840258,17774.0,7871.0,6925.0,17414.0,0.7256993651390076,0.12587393820285797,0.09433023631572723,0.6953129768371582,0.0,0.0,0.0,0.0,0.0,0.0,0.0,0.0,1.6402149200439453,0.020438726487398664,0.07101287877822499,-0.06718473986994569,-0.004748119506984949,-0.002430015942081809,0.0,0.0018702149391174316,0.00010060815111501142,0.0
196,5,2.5048506358871236e-05,1.6986856280709617e-05,-3.8673621020279825e-05,0.001239439588971436,0.0006519665475934744,0.0031869388185441494,0.01739496737718582,-0.2171497493982315,-0.007710416801273823,0.0,0.0,0.0,0.0,0.0,0.0,-0.0007992817554622889,0.001201349077746272,-0.0,0.0,0.0,0.0,-0.0034809340722858906,0.0660613402724266,-0.0003551944682840258,17774.0,7871.0,6925.0,17414.0,0.7256993651390076,0.12587393820285797,0.09433023631572723,0.6953129768371582,0.0,0.0,0.0,0.0,0.0,0.0,0.0,0.0,1.6402149200439453,0.020438726487398664,0.07101287877822499,-0.06718473986994569,-0.004748119506984949,-0.002430015942081809,0.0,0.0018702149391174316,0.00010060815111501142,0.0
201,5,1.632212479307782e-05,7.530639777542092e-06,-5.101672650198452e-05,0.001239439588971436,0.0006519665475934744,0.0031869388185441494,0.01736489310860634,-0.21719799935817719,-0.007714399136602879,0.0,0.0,0.0,0.0,0.0,0.0,-0.000773455249145627,0.0012109852395951748,-0.0,0.0,0.0,0.0,-0.0025515311863273382,0.06578170508146286,-0.002619390608742833,16781.0,9796.0,3807.0,18409.0,0.6433653235435486,0.20393675565719604,0.022073552012443542,0.7809379696846008,0.0,0.0,0.0,0.0,0.0,0.0,0.0,0.0,1.640211820602417,0.020414275790923128,0.07064412680682948,-0.06671397953945994,-0.004786195699125528,-0.0023514924105256796,0.0,0.002756706206128001,-0.0008369413553737104,0.0
206,5,1.632212479307782e-05,7.530639777542092e-06,-5.101672650198452e-05,0.001239439588971436,0.0006519665475934744,0.0031869388185441494,0.01736489310860634,-0.21719799935817719,-0.007714399136602879,0.0,0.0,0.0,0.0,0.0,0.0,-0.000773455249145627,0.0012109852395951748,-0.0,0.0,0.0,0.0,-0.0025515311863273382,0.06578170508146286,-0.002619390608742833,16781.0,9796.0,3807.0,18409.0,0.6433653235435486,0.20393675565719604,0.022073552012443542,0.7809379696846008,0.0,0.0,0.0,0.0,0.0,0.0,0.0,0.0,1.640211820602417,0.020414275790923128,0.07064412680682948,-0.06671397953945994,-0.004786195699125528,-0.0023514924105256796,0.0,0.002756706206128001,-0.0008369413553737104,0.0
211,5,-1.3391348147706594e-05,-1.3244795809441712e-05,-3.0505032555083744e-05,-0.0030698408372700214,0.002753838896751404,-0.0011866276618093252,0.017624715343117714,-0.21708765625953674,-0.007279887329787016,0.0,0.0,0.0,0.0,0.0,0.0,-0.0007905791862867773,0.0011988951591774821,-0.0,0.0,0.0,0.0,-0.004346129484474659,0.06552144140005112,0.0032354388386011124,18602.0,5668.0,8959.0,16425.0,0.7981206178665161,0.05933721363544464,0.1677071452140808,0.6150499582290649,0.0,0.0,0.0,0.0,0.0,0.0,0.0,0.0,1.6401585340499878,0.020383783592814175,0.06946811748739212,-0.06682098965667949,-0.004738257732242346,-0.002403475344181061,0.0,-0.0007992817554622889,0.001201349077746272,0.0
216,5,-1.3391348147706594e-05,-1.3244795809441712e-05,-3.0505032555083744e-05,-0.0030698408372700214,0.002753838896751404,-0.0011866276618093252,0.017624715343117714,-0.21708765625953674,-0.007279887329787016,0.0,0.0,0.0,0.0,0.0,0.0,-0.0007905791862867773,0.0011988951591774821,-0.0,0.0,0.0,0.0,-0.004346129484474659,0.06552144140005112,0.0032354388386011124,18602.0,5668.0,8959.0,16425.0,0.7981206178665161,0.05933721363544464,0.1677071452140808,0.6150499582290649,0.0,0.0,0.0,0.0,0.0,0.0,0.0,0.0,1.6401585340499878,0.020383783592814175,0.06946811748739212,-0.06682098965667949,-0.004738257732242346,-0.002403475344181061,0.0,-0.0007992817554622889,0.001201349077746272,0.0
221,5,0.0001827905944082886,2.6580930352793075e-05,0.00010743970779003575,0.02231389656662941,-0.0036775514017790556,-0.017028018832206726,0.01718851923942566,-0.21666483581066132,-0.007545433472841978,0.0,0.0,0.0,0.0,0.0,0.0,-0.003364040981978178,-0.00288264243863523,-0.0,0.0,0.0,0.0,-0.0020531178452074528,0.06487870216369629,-0.0016362057067453861,17333.0,8515.0,6474.0,17718.0,0.6885007619857788,0.14991311728954315,0.08085688948631287,0.7209410071372986,0.0,0.0,0.0,0.0,0.0,0.0,0.0,0.0,1.6678500175476074,0.034079509176219866,0.07098984846298548,-0.07212779223906042,0.011585014872252941,-0.010399808175861835,0.0,-0.000773455249145627,0.0012109852395951748,0.0
227,5,0.0001827905944082886,2.6580930352793075e-05,0.00010743970779003575,0.02231389656662941,-0.0036775514017790556,-0.017028018832206726,0.01718851923942566,-0.21666483581066132,-0.007545433472841978,0.0,0.0,0.0,0.0,0.0,0.0,-0.003364040981978178,-0.00288264243863523,-0.0,0.0,0.0,0.0,-0.0020531178452074528,0.06487870216369629,-0.0016362057067453861,17333.0,8515.0,6474.0,17718.0,0.6885007619857788,0.14991311728954315,0.08085688948631287,0.7209410071372986,0.0,0.0,0.0,0.0,0.0,0.0,0.0,0.0,1.6678500175476074,0.034079509176219866,0.07098984846298548,-0.07212779223906042,0.011585014872252941,-0.010399808175861835,0.0,-0.000773455249145627,0.0012109852395951748,0.0
232,5,9.99800831777975e-05,6.11843352089636e-05,0.00011325627565383911,0.02231389656662941,-0.0036775514017790556,-0.017028018832206726,0.01751922257244587,-0.21598024666309357,-0.007494752760976553,0.0,0.0,0.0,0.0,0.0,0.0,0.004058522637933493,0.01897059939801693,-0.0,0.0,0.0,0.0,-0.004352426156401634,0.06488735228776932,-0.001615636982023716,17164.0,9273.0,5368.0,17855.0,0.6745550632476807,0.18090301752090454,0.05215417966246605,0.7325995564460754,0.0,0.0,0.0,0.0,0.0,0.0,0.0,0.0,1.8526619672775269,0.024566718620066905,0.06878930134063846,-0.06808717605659491,-0.08468364179134369,0.013937040232121944,0.0,-0.000773455249145627,0.0012109852395951748,0.0
237,5,9.99800831777975e-05,6.11843352089636e-05,0.00011325627565383911,0.02231389656662941,-0.0036775514017790556,-0.017028018832206726,0.01751922257244587,-0.21598024666309357,-0.007494752760976553,0.0,0.0,0.0,0.0,0.0,0.0,0.004058522637933493,0.01897059939801693,-0.0,0.0,0.0,0.0,-0.004352426156401634,0.06488735228776932,-0.001615636982023716,17164.0,9273.0,5368.0,17855.0,0.6745550632476807,0.18090301752090454,0.05215417966246605,0.7325995564460754,0.0,0.0,0.0,0.0,0.0,0.0,0.0,0.0,1.8526619672775269,0.024566718620066905,0.06878930134063846,-0.06808717605659491,-0.08468364179134369,0.013937040232121944,0.0,-0.000773455249145627,0.0012109852395951748,0.0
242,5,0.00010880402260227129,-5.345252702682046e-06,8.075400546658784e-05,0.02231389656662941,-0.0036775514017790556,-0.017028018832206726,0.017471643164753914,-0.2144242525100708,-0.007511144038289785,0.0,0.0,0.0,0.0,0.0,0.0,0.004116392228752375,0.01887957938015461,-0.0,0.0,0.0,0.0,-0.0037740119732916355,0.05933879315853119,-4.3045412212450174e-07,17463.0,8586.0,8147.0,16889.0,0.6994126439094543,0.15272484719753265,0.13594044744968414,0.6520806550979614,0.0,0.0,0.0,0.0,0.0,0.0,0.0,0.0,1.851588487625122,0.02046722462411822,0.06170616000719833,-0.0682351578535888,-0.0842285305261612,0.014127572998404503,0.0,-0.0007905791862867773,0.0011988951591774821,0.0
247,5,0.00010880402260227129,-5.345252702682046e-06,8.075400546658784e-05,0.02231389656662941,-0.0036775514017790556,-0.017028018832206726,0.017471643164753914,-0.2144242525100708,-0.007511144038289785,0.0,0.0,0.0,0.0,0.0,0.0,0.004116392228752375,0.01887957938015461,-0.0,0.0,0.0,0.0,-0.0037740119732916355,0.05933879315853119,-4.3045412212450174e-07,17463.0,8586.0,8147.0,16889.0,0.6994126439094543,0.15272484719753265,0.13594044744968414,0.6520806550979614,0.0,0.0,0.0,0.0,0.0,0.0,0.0,0.0,1.851588487625122,0.02046722462411822,0.06170616000719833,-0.0682351578535888,-0.0842285305261612,0.014127572998404503,0.0,-0.0007905791862867773,0.0011988951591774821,0.0
252,5,4.977936623618007e-05,3.122043199255131e-05,0.00039203272899612784,0.001842599711380899,-0.00585890281945467,-0.04416465386748314,0.01732313074171543,-0.20681865513324738,-0.007367326878011227,0.0,0.0,0.0,0.0,0.0,0.0,0.004009833559393883,0.01889084093272686,-0.0,0.0,0.0,0.0,-0.004027872812002897,0.046348605304956436,-0.0005546680768020451,16510.0,10630.0,9577.0,16340.0,0.6217421889305115,0.24357591569423676,0.19412846863269806,0.6084034442901611,0.0,0.0,0.0,0.0,0.0,0.0,0.0,0.0,1.8515586853027344,0.023019230652567172,0.04876058550402152,-0.06976912118597915,-0.08427744358778,0.013761641457676888,0.0,-0.003364040981978178,-0.00288264243863523,0.0
257,5,4.977936623618007e-05,3.122043199255131e-05,0.00039203272899612784,0.001842599711380899,-0.00585890281945467,-0.04416465386748314,0.01732313074171543,-0.20681865513324738,-0.007367326878011227,0.0,0.0,0.0,0.0,0.0,0.0,0.004009833559393883,0.01889084093272686,-0.0,0.0,0.0,0.0,-0.004027872812002897,0.046348605304956436,-0.0005546680768020451,16510.0,10630.0,9577.0,16340.0,0.6217421889305115,0.24357591569423676,0.19412846863269806,0.6084034442901611,0.0,0.0,0.0,0.0,0.0,0.0,0.0,0.0,1.8515586853027344,0.023019230652567172,0.04876058550402152,-0.06976912118597915,-0.08427744358778,0.013761641457676888,0.0,-0.003364040981978178,-0.00288264243863523,0.0
262,5,-3.6593512049876153e-05,3.56986238330137e-05,0.0010003907373175025,0.001842599711380899,-0.00585890281945467,-0.04416465386748314,0.017115114256739616,-0.19582122564315796,-0.007003048434853554,0.0,0.0,0.0,0.0,0.0,0.0,0.007074819877743721,0.0017660611774772406,-0.0,0.0,0.0,0.0,-0.0025354858953505754,0.0077866301871836185,0.0011823367094621062,16525.0,12262.0,12068.0,15940.0,0.6229395866394043,0.3311169445514679,0.32005003094673157,0.5774819254875183,0.0,0.0,0.0,0.0,0.0,0.0,0.0,0.0,1.6885647773742676,0.02734562348701772,0.028749608155339834,-0.06825889439694156,-0.007185620721429586,0.022142929956316948,0.0,0.004009833559393883,0.01889084093272686,0.0
267,5,-3.6593512049876153e-05,3.56986238330137e-05,0.0010003907373175025,0.001842599711380899,-0.00585890281945467,-0.04416465386748314,0.017115114256739616,-0.19582122564315796,-0.007003048434853554,0.0,0.0,0.0,0.0,0.0,0.0,0.007074819877743721,0.0017660611774772406,-0.0,0.0,0.0,0.0,-0.0025354858953505754,0.0077866301871836185,0.0011823367094621062,16525.0,12262.0,12068.0,15940.0,0.6229395866394043,0.3311169445514679,0.32005003094673157,0.5774819254875183,0.0,0.0,0.0,0.0,0.0,0.0,0.0,0.0,1.6885647773742676,0.02734562348701772,0.028749608155339834,-0.06825889439694156,-0.007185620721429586,0.022142929956316948,0.0,0.004009833559393883,0.01889084093272686,0.0
272,5,-0.00016320076247211546,2.8190112061565742e-05,0.0016029055695980787,-0.014455829747021198,-0.001442539505660534,-0.08996764570474625,0.0169934444129467,-0.16828076541423798,-0.006946846842765808,0.0,0.0,0.0,0.0,0.0,0.0,0.00708406139165163,0.0016495832242071629,-0.0,0.0,0.0,0.0,-0.004047423601150513,-0.024524979293346405,0.0009867787593975663,12504.0,15359.0,15526.0,11011.0,0.3452599048614502,0.5340842008590698,0.5464081764221191,0.2628124952316284,0.0,0.0,0.0,0.0,0.0,0.0,0.0,0.0,1.6882473230361938,0.02469908541828758,-0.004013077570258893,-0.06726780364187987,-0.006710441783070564,0.022167684510350227,0.0,0.007074819877743721,0.0017660611774772406,0.0
277,5,-0.00016320076247211546,2.8190112061565742e-05,0.0016029055695980787,-0.014455829747021198,-0.001442539505660534,-0.08996764570474625,0.0169934444129467,-0.16828076541423798,-0.006946846842765808,0.0,0.0,0.0,0.0,0.0,0.0,0.00708406139165163,0.0016495832242071629,-0.0,0.0,0.0,0.0,-0.004047423601150513,-0.024524979293346405,0.0009867787593975663,12504.0,15359.0,15526.0,11011.0,0.3452599048614502,0.5340842008590698,0.5464081764221191,0.2628124952316284,0.0,0.0,0.0,0.0,0.0,0.0,0.0,0.0,1.6882473230361938,0.02469908541828758,-0.004013077570258893,-0.06726780364187987,-0.006710441783070564,0.022167684510350227,0.0,0.007074819877743721,0.0017660611774772406,0.0
282,5,-0.00029196919058449566,-5.9148555010324344e-05,0.0020826098043471575,-0.014455829747021198,-0.001442539505660534,-0.08996764570474625,0.017734939232468605,-0.14284174144268036,-0.0068130348809063435,0.0,0.0,0.0,0.0,0.0,0.0,0.0016927850665524602,-0.012894111685454845,-0.0,0.0,0.0,0.0,-0.0032462875824421644,-0.04670513793826103,0.0019206437282264233,10688.0,16573.0,17377.0,7785.0,0.24643626809120178,0.6267847418785095,0.6922193169593811,0.12280702590942383,0.0,0.0,0.0,0.0,0.0,0.0,0.0,0.0,1.7736376523971558,0.016190469527400064,-0.04573253763840534,-0.06491965647371592,0.055105578154325485,0.005565124563872814,0.0,0.00708406139165163,0.0016495832242071629,0.0
287,5,-0.00029196919058449566,-5.9148555010324344e-05,0.0020826098043471575,-0.014455829747021198,-0.001442539505660534,-0.08996764570474625,0.017734939232468605,-0.14284174144268036,-0.0068130348809063435,0.0,0.0,0.0,0.0,0.0,0.0,0.0016927850665524602,-0.012894111685454845,-0.0,0.0,0.0,0.0,-0.0032462875824421644,-0.04670513793826103,0.0019206437282264233,10688.0,16573.0,17377.0,7785.0,0.24643626809120178,0.6267847418785095,0.6922193169593811,0.12280702590942383,0.0,0.0,0.0,0.0,0.0,0.0,0.0,0.0,1.7736376523971558,0.016190469527400064,-0.04573253763840534,-0.06491965647371592,0.055105578154325485,0.005565124563872814,0.0,0.00708406139165163,0.0016495832242071629,0.0
293,5,-0.0008029405144043267,-4.670239286497235e-05,0.0028181253001093864,-0.06709889322519302,-0.0020705554634332657,-0.12424889951944351,0.018317854031920433,-0.09632281959056854,-0.006516789551824331,0.0,0.0,0.0,0.0,0.0,0.0,0.0016927850665524602,-0.012894111685454845,-0.0,0.0,0.0,0.0,-0.003493828698992729,-0.06858053803443909,0.0018731203163042665,9683.0,17680.0,18492.0,6037.0,0.198879212141037,0.7176973819732666,0.7882788777351379,0.06878214329481125,0.0,0.0,0.0,0.0,0.0,0.0,0.0,0.0,1.7736376523971558,0.012393764281330408,-0.09868733454519735,-0.06665898120552473,0.055105578154325485,0.005565124563872814,0.0,0.0016927850665524602,-0.012894111685454845,0.0
298,5,-0.0008029405144043267,-4.670239286497235e-05,0.0028181253001093864,-0.06709889322519302,-0.0020705554634332657,-0.12424889951944351,0.018317854031920433,-0.09632281959056854,-0.006516789551824331,0.0,0.0,0.0,0.0,0.0,0.0,0.0017884030239656568,-0.04693061113357544,-0.0,0.0,0.0,0.0,-0.003493828698992729,-0.06858053803443909,0.0018731203163042665,9683.0,17680.0,18492.0,6037.0,0.198879212141037,0.7176973819732666,0.7882788777351379,0.06878214329481125,0.0,0.0,0.0,0.0,0.0,0.0,0.0,0.0,2.2649426460266113,0.012393764281330408,-0.09868733454519735,-0.06665898120552473,0.25603845715522766,0.007508112117648125,0.0,0.0016927850665524602,-0.012894111685454845,0.0
303,5,-0.0011240135645493865,-9.539270649838727e-06,0.003478261409327388,-0.06709889322519302,-0.0020705554634332657,-0.12424889951944351,0.018317854031920433,-0.09632281959056854,-0.006516789551824331,0.0,0.0,0.0,0.0,0.0,0.0,0.0017884030239656568,-0.04693061113357544,-0.0,0.0,0.0,0.0,-0.003493828698992729,-0.06858053803443909,0.0018731203163042665,9683.0,17680.0,18492.0,6037.0,0.198879212141037,0.7176973819732666,0.7882788777351379,0.06878214329481125,0.0,0.0,0.0,0.0,0.0,0.0,0.0,0.0,2.2649426460266113,0.0038446545777831406,-0.1410713064273698,-0.06534448292487903,0.25603845715522766,0.007508112117648125,0.0,0.0016927850665524602,-0.012894111685454845,0.0
308,5,-0.0011240135645493865,-9.539270649838727e-06,0.003478261409327388,-0.06709889322519302,-0.0020705554634332657,-0.12424889951944351,0.01805168204009533,-0.06256946921348572,-0.006400261074304581,0.0,0.0,0.0,0.0,0.0,0.0,0.0018338205991312861,-0.04717130586504936,-0.0,0.0,0.0,0.0,-0.004441405646502972,-0.06967776268720627,0.0012762992409989238,8789.0,18185.0,18489.0,5835.0,0.16081419587135315,0.7612640857696533,0.7880429029464722,0.06351641565561295,0.0,0.0,0.0,0.0,0.0,0.0,0.0,0.0,2.268970489501953,0.0038446545777831406,-0.1410713064273698,-0.06534448292487903,0.25780826807022095,0.007712475955486298,0.0,0.0016927850665524602,-0.012894111685454845,0.0
313,5,-0.0013805005000904202,-1.4969883750381996e-06,0.004121941048651934,-0.05761798471212387,-0.0017932960763573647,-0.12694111466407776,0.01805168204009533,-0.06256946921348572,-0.006400261074304581,0.0,0.0,0.0,0.0,0.0,0.0,0.0018338205991312861,-0.04717130586504936,-0.0,0.0,0.0,0.0,-0.004441405646502972,-0.06967776268720627,0.0012762992409989238,8789.0,18185.0,18489.0,5835.0,0.16081419587135315,0.7612640857696533,0.7880429029464722,0.06351641565561295,0.0,0.0,0.0,0.0,0.0,0.0,0.0,0.0,2.268970489501953,-0.00021258503455610377,-0.16667959372897065,-0.06806500666568159,0.25780826807022095,0.007712475955486298,0.0,0.0016927850665524602,-0.012894111685454845,0.0
318,5,-0.0013805005000904202,-1.4969883750381996e-06,0.004121941048651934,-0.05761798471212387,-0.0017932960763573647,-0.12694111466407776,0.018382970243692398,0.010519837029278278,-0.005857347510755062,0.0,0.0,0.0,0.0,0.0,0.0,0.0016543320380151272,-0.042388103902339935,-0.0,0.0,0.0,0.0,-0.004434291739016771,-0.07317300885915756,0.0016551088774576783,11838.0,19305.0,19875.0,9235.0,0.3071238100528717,0.8623645901679993,0.916178286075592,0.17927590012550354,0.0,0.0,0.0,0.0,0.0,0.0,0.0,0.0,2.190499782562256,-0.00021258503455610377,-0.16667959372897065,-0.06806500666568159,0.2236703783273697,0.0067169805988669395,0.0,0.0017884030239656568,-0.04693061113357544,0.0
323,5,-0.0016178287332877517,5.53782083443366e-05,0.004517185967415571,-0.05761798471212387,-0.0017932960763573647,-0.12694111466407776,0.018382970243692398,0.010519837029278278,-0.005857347510755062,0.0,0.0,0.0,0.0,0.0,0.0,0.0016543320380151272,-0.042388103902339935,-0.0,0.0,0.0,0.0,-0.004434291739016771,-0.07317300885915756,0.0016551088774576783,11838.0,19305.0,19875.0,9235.0,0.3071238100528717,0.8623645901679993,0.916178286075592,0.17927590012550354,0.0,0.0,0.0,0.0,0.0,0.0,0.0,0.0,2.190499782562256,-0.004502822564481467,-0.18856129050279444,-0.06696737623109986,0.2236703783273697,0.0067169805988669395,0.0,0.0017884030239656568,-0.04693061113357544,0.0
328,5,-0.0016178287332877517,5.53782083443366e-05,0.004517185967415571,-0.05761798471212387,-0.0017932960763573647,-0.12694111466407776,0.018595607951283455,0.03510701283812523,-0.005144443362951279,0.0,0.0,0.0,0.0,0.0,0.0,0.001728998962789774,-0.042576976120471954,-0.0,0.0,0.0,0.0,-0.004383421968668699,-0.05249062925577164,0.0019167577847838402,13168.0,17996.0,18840.0,10570.0,0.38551488518714905,0.744759738445282,0.819619357585907,0.24060575664043427,0.0,0.0,0.0,0.0,0.0,0.0,0.0,0.0,2.193570852279663,-0.004502822564481467,-0.18856129050279444,-0.06696737623109986,0.22498135268688202,0.007029987871646881,0.0,0.0016543320380151272,-0.042388103902339935,0.0
333,5,-0.0016903828363865614,7.102667041181121e-06,0.004665221553295851,-0.05761798471212387,-0.0017932960763573647,-0.12694111466407776,0.018595607951283455,0.03510701283812523,-0.005144443362951279,0.0,0.0,0.0,0.0,0.0,0.0,0.001728998962789774,-0.042576976120471954,-0.0,0.0,0.0,0.0,-0.004383421968668699,-0.05249062925577164,0.0019167577847838402,13168.0,17996.0,18840.0,10570.0,0.38551488518714905,0.744759738445282,0.819619357585907,0.24060575664043427,0.0,0.0,0.0,0.0,0.0,0.0,0.0,0.0,2.193570852279663,-0.002158346112029227,-0.1955509562127342,-0.06685783096253825,0.22498135268688202,0.007029987871646881,0.0,0.0016543320380151272,-0.042388103902339935,0.0
338,5,-0.0016903774812817574,2.1931038645561785e-05,0.004640541039407253,-0.023046551272273064,-0.002496723085641861,-0.04781479761004448,0.018056998029351234,0.04110492765903473,-0.0045018065720796585,0.0,0.0,0.0,0.0,0.0,0.0,0.0016630032332614064,-0.0426357202231884,-0.0,0.0,0.0,0.0,-0.003410451812669635,-0.029542215168476105,0.0016593841137364507,14558.0,16875.0,17345.0,13016.0,0.47699832916259766,0.6509518623352051,0.6895216703414917,0.3760989308357239,0.0,0.0,0.0,0.0,0.0,0.0,0.0,0.0,2.194493055343628,0.0006256545623642747,-0.19118370936052673,-0.06451763685254291,0.22538632154464722,0.0067644971422851086,0.0,0.001728998962789774,-0.042576976120471954,0.0
344,5,-0.0016903774812817574,2.1931038645561785e-05,0.004640541039407253,-0.023046551272273064,-0.002496723085641861,-0.04781479761004448,0.018056998029351234,0.04110492765903473,-0.0045018065720796585,0.0,0.0,0.0,0.0,0.0,0.0,0.0016630032332614064,-0.0426357202231884,-0.0,0.0,0.0,0.0,-0.003410451812669635,-0.029542215168476105,0.0016593841137364507,14558.0,16875.0,17345.0,13016.0,0.47699832916259766,0.6509518623352051,0.6895216703414917,0.3760989308357239,0.0,0.0,0.0,0.0,0.0,0.0,0.0,0.0,2.194493055343628,0.0006256545623642747,-0.19118370936052673,-0.06451763685254291,0.22538632154464722,0.0067644971422851086,0.0,0.001728998962789774,-0.042576976120471954,0.0
349,5,-0.0015699187060818076,-2.6923367840936407e-05,0.004455310292541981,0.005236424971371889,0.0048638395965099335,0.003101769834756851,0.017972785979509354,0.03521726280450821,-0.0036353361792862415,0.0,0.0,0.0,0.0,0.0,0.0,0.002722653094679117,-0.021145939826965332,-0.0,0.0,0.0,0.0,-0.002976177027449012,-0.005923684220761061,0.0008994778618216515,15788.0,15674.0,15816.0,14917.0,0.5659512281417847,0.5573848485946655,0.5680925846099854,0.5021421909332275,0.0,0.0,0.0,0.0,0.0,0.0,0.0,0.0,1.879276990890503,0.002442112480612158,-0.17381533249606554,-0.06697979566084512,0.09574932605028152,0.00948398094624281,0.0,0.001728998962789774,-0.042576976120471954,0.0
354,5,-0.0015699187060818076,-2.6923367840936407e-05,0.004455310292541981,0.005236424971371889,0.0048638395965099335,0.003101769834756851,0.017972785979509354,0.03521726280450821,-0.0036353361792862415,0.0,0.0,0.0,0.0,0.0,0.0,0.002722653094679117,-0.021145939826965332,-0.0,0.0,0.0,0.0,-0.002976177027449012,-0.005923684220761061,0.0008994778618216515,15788.0,15674.0,15816.0,14917.0,0.5659512281417847,0.5573848485946655,0.5680925846099854,0.5021421909332275,0.0,0.0,0.0,0.0,0.0,0.0,0.0,0.0,1.879276990890503,0.002442112480612158,-0.17381533249606554,-0.06697979566084512,0.09574932605028152,0.00948398094624281,0.0,0.001728998962789774,-0.042576976120471954,0.0
359,5,-0.001459311111830175,-0.00014005084813106805,0.003950770013034344,0.015367487445473671,0.015520833432674408,0.06178555637598038,0.018002143129706383,0.024836281314492226,-0.0032126721926033497,0.0,0.0,0.0,0.0,0.0,0.0,-0.005892220884561539,0.0027039062697440386,-0.0,0.0,0.0,0.0,-0.0032728551886975765,0.010223348625004292,0.0002297538158018142,15829.0,13371.0,13102.0,15310.0,0.5690896511077881,0.3982935845851898,0.381424218416214,0.530469536781311,0.0,0.0,0.0,0.0,0.0,0.0,0.0,0.0,1.6835501194000244,-0.0014076543492192127,-0.1631279015187399,-0.06183504970729659,-0.010968861170113087,-0.018386922776699066,-0.0,0.0016630032332614064,-0.0426357202231884,0.0
364,5,-0.001459311111830175,-0.00014005084813106805,0.003950770013034344,0.015367487445473671,0.015520833432674408,0.06178555637598038,0.018002143129706383,0.024836281314492226,-0.0032126721926033497,0.0,0.0,0.0,0.0,0.0,0.0,-0.005892220884561539,0.0027039062697440386,-0.0,0.0,0.0,0.0,-0.0032728551886975765,0.010223348625004292,0.0002297538158018142,15829.0,13371.0,13102.0,15310.0,0.5690896511077881,0.3982935845851898,0.381424218416214,0.530469536781311,0.0,0.0,0.0,0.0,0.0,0.0,0.0,0.0,1.6835501194000244,-0.0014076543492192127,-0.1631279015187399,-0.06183504970729659,-0.010968861170113087,-0.018386922776699066,-0.0,0.0016630032332614064,-0.0426357202231884,0.0
369,5,-0.001714126905426383,-0.0002534797531552613,0.0035523257683962584,0.015367487445473671,0.015520833432674408,0.06178555637598038,0.017557458952069283,0.004815273452550173,-0.002544667338952422,0.0,0.0,0.0,0.0,0.0,0.0,-0.017386313527822495,0.011241030879318714,-0.0,0.0,0.0,0.0,-0.0017266289796680212,0.025965876877307892,0.0005493131466209888,16560.0,12246.0,12665.0,15821.0,0.6257103085517883,0.3302304446697235,0.3548447787761688,0.568491518497467,0.0,0.0,0.0,0.0,0.0,0.0,0.0,0.0,1.8301193714141846,-0.0063032621286223545,-0.1633874869074098,-0.05504597659864213,-0.04956357926130295,-0.058973342180252075,-0.0,0.002722653094679117,-0.021145939826965332,0.0
374,5,-0.001714126905426383,-0.0002534797531552613,0.0035523257683962584,0.015367487445473671,0.015520833432674408,0.06178555637598038,0.017557458952069283,0.004815273452550173,-0.002544667338952422,0.0,0.0,0.0,0.0,0.0,0.0,-0.017386313527822495,0.011241030879318714,-0.0,0.0,0.0,0.0,-0.0017266289796680212,0.025965876877307892,0.0005493131466209888,16560.0,12246.0,12665.0,15821.0,0.6257103085517883,0.3302304446697235,0.3548447787761688,0.568491518497467,0.0,0.0,0.0,0.0,0.0,0.0,0.0,0.0,1.8301193714141846,-0.0063032621286223545,-0.1633874869074098,-0.05504597659864213,-0.04956357926130295,-0.058973342180252075,-0.0,0.002722653094679117,-0.021145939826965332,0.0
379,5,-0.0016284084413200617,-0.0002032818301813677,0.0033828383311629295,0.01643321104347706,0.0001845833903644234,0.04505271837115288,0.017635270953178406,-0.008791168220341206,-0.0018374667270109057,0.0,0.0,0.0,0.0,0.0,0.0,-0.017580769956111908,0.0109281986951828,-0.0,0.0,0.0,0.0,-0.005250518675893545,0.0366363488137722,0.0014708178350701928,16840.0,10533.0,11289.0,15157.0,0.6481570601463318,0.23875238001346588,0.2772952914237976,0.5193454027175903,0.0,0.0,0.0,0.0,0.0,0.0,0.0,0.0,1.8290539979934692,-0.004783042366941597,-0.15007572110962172,-0.05396937991940962,-0.048156093806028366,-0.05959808826446533,-0.0,-0.005892220884561539,0.0027039062697440386,0.0
384,5,-0.0016284084413200617,-0.0002032818301813677,0.0033828383311629295,0.01643321104347706,0.0001845833903644234,0.04505271837115288,0.017635270953178406,-0.008791168220341206,-0.0018374667270109057,0.0,0.0,0.0,0.0,0.0,0.0,-0.017580769956111908,0.0109281986951828,-0.0,0.0,0.0,0.0,-0.005250518675893545,0.0366363488137722,0.0014708178350701928,16840.0,10533.0,11289.0,15157.0,0.6481570601463318,0.23875238001346588,0.2772952914237976,0.5193454027175903,0.0,0.0,0.0,0.0,0.0,0.0,0.0,0.0,1.8290539979934692,-0.004783042366941597,-0.15007572110962172,-0.05396937991940962,-0.048156093806028366,-0.05959808826446533,-0.0,-0.005892220884561539,0.0027039062697440386,0.0
389,5,-0.001620762050151825,-0.0002744530502241105,0.003195134922862053,0.007490845862776041,0.008614378981292248,0.04054548591375351,0.01770733669400215,-0.024466952309012413,-0.00024131065583787858,0.0,0.0,0.0,0.0,0.0,0.0,-0.0005533407675102353,0.012362143956124783,-0.0,0.0,0.0,0.0,-0.006492235232144594,0.03232765942811966,0.0027325202245265245,17457.0,11208.0,12568.0,15015.0,0.6988619565963745,0.27303919196128845,0.3490242660045624,0.5091938972473145,0.0,0.0,0.0,0.0,0.0,0.0,0.0,0.0,1.7664539813995361,-0.003359919310075043,-0.14487605843927642,-0.05172212955366764,-0.05261830985546112,-0.0018117717700079083,-0.0,-0.017386313527822495,0.011241030879318714,0.0
394,5,-0.001620762050151825,-0.0002744530502241105,0.003195134922862053,0.007490845862776041,0.008614378981292248,0.04054548591375351,0.01770733669400215,-0.024466952309012413,-0.00024131065583787858,0.0,0.0,0.0,0.0,0.0,0.0,-0.0005533407675102353,0.012362143956124783,-0.0,0.0,0.0,0.0,-0.006492235232144594,0.03232765942811966,0.0027325202245265245,17457.0,11208.0,12568.0,15015.0,0.6988619565963745,0.27303919196128845,0.3490242660045624,0.5091938972473145,0.0,0.0,0.0,0.0,0.0,0.0,0.0,0.0,1.7664539813995361,-0.003359919310075043,-0.14487605843927642,-0.05172212955366764,-0.05261830985546112,-0.0018117717700079083,-0.0,-0.017386313527822495,0.011241030879318714,0.0
399,5,-0.0016923275543376803,-0.00027122010942548513,0.003191188210621476,-0.005591521505266428,0.003057799767702818,0.01669180393218994,0.01770733669400215,-0.024466952309012413,-0.00024131065583787858,0.0,0.0,0.0,0.0,0.0,0.0,-0.010545428842306137,0.004586880560964346,-0.0,0.0,0.0,0.0,-0.006492235232144594,0.03232765942811966,0.0027325202245265245,17457.0,11208.0,12568.0,15015.0,0.6988619565963745,0.27303919196128845,0.3490242660045624,0.5091938972473145,0.0,0.0,0.0,0.0,0.0,0.0,0.0,0.0,1.7300668954849243,-0.003585519738769239,-0.14884060062830565,-0.05087650654033633,-0.019120821729302406,-0.033815909177064896,-0.0,-0.017386313527822495,0.011241030879318714,0.0
405,5,-0.0016923275543376803,-0.00027122010942548513,0.003191188210621476,-0.005591521505266428,0.003057799767702818,0.01669180393218994,0.017863336950540543,-0.029424719512462616,0.000347658438840881,0.0,0.0,0.0,0.0,0.0,0.0,-0.010545428842306137,0.004586880560964346,-0.0,0.0,0.0,0.0,-0.007793242111802101,0.019406314939260483,0.0013754632091149688,16374.0,12925.0,13149.0,14356.0,0.6110708117485046,0.3705461323261261,0.3843555152416229,0.46308156847953796,0.0,0.0,0.0,0.0,0.0,0.0,0.0,0.0,1.7300668954849243,-0.003585519738769239,-0.14884060062830565,-0.05087650654033633,-0.019120821729302406,-0.033815909177064896,-0.0,-0.017580769956111908,0.0109281986951828,0.0
410,5,-0.0017613762756809592,-0.0002586280170362443,0.003452808829024434,-0.005591521505266428,0.003057799767702818,0.01669180393218994,0.017863336950540543,-0.029424719512462616,0.000347658438840881,0.0,0.0,0.0,0.0,0.0,0.0,-0.010545428842306137,0.004586880560964346,-0.0,0.0,0.0,0.0,-0.007793242111802101,0.019406314939260483,0.0013754632091149688,16374.0,12925.0,13149.0,14356.0,0.6110708117485046,0.3705461323261261,0.3843555152416229,0.46308156847953796,0.0,0.0,0.0,0.0,0.0,0.0,0.0,0.0,1.7300668954849243,-0.002840402003075706,-0.15240950354825442,-0.05181245221929309,-0.019120821729302406,-0.033815909177064896,-0.0,-0.017580769956111908,0.0109281986951828,0.0
415,5,-0.0017613762756809592,-0.0002586280170362443,0.003452808829024434,-0.005591521505266428,0.003057799767702818,0.01669180393218994,0.018013164401054382,-0.02685873955488205,0.0011991410283371806,0.0,0.0,0.0,0.0,0.0,0.0,-0.004054944962263107,-0.007431794423609972,-0.0,0.0,0.0,0.0,-0.005214691162109375,-0.012126206420361996,0.0026933138724416494,14879.0,13602.0,14293.0,13321.0,0.49946773052215576,0.4130399227142334,0.45879608392715454,0.39515024423599243,0.0,0.0,0.0,0.0,0.0,0.0,0.0,0.0,1.7153362035751343,-0.002840402003075706,-0.15240950354825442,-0.05181245221929309,0.030717598274350166,-0.012892602942883968,-0.0,-0.010545428842306137,0.004586880560964346,0.0
420,5,-0.001925237593241036,-0.000282031629467383,0.00373225100338459,-0.005591521505266428,0.003057799767702818,0.01669180393218994,0.018013164401054382,-0.02685873955488205,0.0011991410283371806,0.0,0.0,0.0,0.0,0.0,0.0,-0.004054944962263107,-0.007431794423609972,-0.0,0.0,0.0,0.0,-0.005214691162109375,-0.012126206420361996,0.0026933138724416494,14879.0,13602.0,14293.0,13321.0,0.49946773052215576,0.4130399227142334,0.45879608392715454,0.39515024423599243,0.0,0.0,0.0,0.0,0.0,0.0,0.0,0.0,1.7153362035751343,-0.004107560597876741,-0.16465789473276718,-0.053872413354175204,0.030717598274350166,-0.012892602942883968,-0.0,-0.010545428842306137,0.004586880560964346,0.0
425,5,-0.001925237593241036,-0.000282031629467383,0.00373225100338459,-0.005591521505266428,0.003057799767702818,0.01669180393218994,0.017708618193864822,-0.01993497647345066,0.001722892513498664,0.0,0.0,0.0,0.0,0.0,0.0,-0.004090107046067715,-0.0076409499160945415,-0.0,0.0,0.0,0.0,-0.005345937330275774,-0.021840233355760574,0.0037300041876733303,14348.0,14120.0,15363.0,11453.0,0.4625151455402374,0.4470883905887604,0.5343904495239258,0.2860729396343231,0.0,0.0,0.0,0.0,0.0,0.0,0.0,0.0,1.7176988124847412,-0.004107560597876741,-0.16465789473276718,-0.053872413354175204,0.031625572592020035,-0.013022310100495815,-0.0,-0.004054944962263107,-0.007431794423609972,0.0
430,5,-0.0020712383557111025,-0.0003582744102459401,0.003875290509313345,-0.005591521505266428,0.003057799767702818,0.01669180393218994,0.017708618193864822,-0.01993497647345066,0.001722892513498664,0.0,0.0,0.0,0.0,0.0,0.0,-0.004090107046067715,-0.0076409499160945415,-0.0,0.0,0.0,0.0,-0.005345937330275774,-0.021840233355760574,0.0037300041876733303,14348.0,14120.0,15363.0,11453.0,0.4625151455402374,0.4470883905887604,0.5343904495239258,0.2860729396343231,0.0,0.0,0.0,0.0,0.0,0.0,0.0,0.0,1.7176988124847412,-0.007546485678233215,-0.1737148552570364,-0.05127354803745683,0.031625572592020035,-0.013022310100495815,-0.0,-0.004054944962263107,-0.007431794423609972,0.0
435,5,-0.0020712383557111025,-0.0003582744102459401,0.003875290509313345,-0.005591521505266428,0.003057799767702818,0.01669180393218994,0.017626304179430008,-0.0062660533003509045,0.0029659674037247896,0.0,0.0,0.0,0.0,0.0,0.0,-0.004216273780912161,-0.007825704291462898,-0.0,0.0,0.0,0.0,-0.005029372870922089,-0.026210637763142586,0.003641750430688262,13726.0,14621.0,16380.0,9791.0,0.4210544228553772,0.48137611150741577,0.611556351184845,0.20371192693710327,0.0,0.0,0.0,0.0,0.0,0.0,0.0,0.0,1.7201167345046997,-0.007546485678233215,-0.1737148552570364,-0.05127354803745683,0.0324358269572258,-0.013442899100482464,-0.0,-0.004090107046067715,-0.0076409499160945415,0.0
440,5,-0.0022171137388795614,-0.00035846218816004694,0.004036423750221729,-0.005591521505266428,0.003057799767702818,0.01669180393218994,0.017626304179430008,-0.0062660533003509045,0.0029659674037247896,0.0,0.0,0.0,0.0,0.0,0.0,-0.004216273780912161,-0.007825704291462898,-0.0,0.0,0.0,0.0,-0.005029372870922089,-0.026210637763142586,0.003641750430688262,13726.0,14621.0,16380.0,9791.0,0.4210544228553772,0.48137611150741577,0.611556351184845,0.20371192693710327,0.0,0.0,0.0,0.0,0.0,0.0,0.0,0.0,1.7201167345046997,-0.0067808549487879885,-0.1831380194507278,-0.05167109292638161,0.0324358269572258,-0.013442899100482464,-0.0,-0.004090107046067715,-0.0076409499160945415,0.0
445,5,-0.0022171137388795614,-0.00035846218816004694,0.004036423750221729,-0.005591521505266428,0.003057799767702818,0.01669180393218994,0.017776209861040115,0.0034537215251475573,0.0038171615451574326,0.0,0.0,0.0,0.0,0.0,0.0,-0.004212107975035906,-0.008011864498257637,-0.0,0.0,0.0,0.0,-0.003970898222178221,-0.024911632761359215,0.0022007690276950598,13145.0,15010.0,16003.0,10657.0,0.3840930461883545,0.508834958076477,0.5822934508323669,0.24489526450634003,0.0,0.0,0.0,0.0,0.0,0.0,0.0,0.0,1.7221108675003052,-0.0067808549487879885,-0.1831380194507278,-0.05167109292638161,0.03324590250849724,-0.01344518642872572,-0.0,-0.004216273780912161,-0.007825704291462898,0.0
450,5,-0.0024160256143659353,-0.0003987612435594201,0.004118149168789387,-0.026106033474206924,0.00605900539085269,-0.003130363067612052,0.017776209861040115,0.0034537215251475573,0.0038171615451574326,0.0,0.0,0.0,0.0,0.0,0.0,-0.004212107975035906,-0.008011864498257637,-0.0,0.0,0.0,0.0,-0.003970898222178221,-0.024911632761359215,0.0022007690276950598,13145.0,15010.0,16003.0,10657.0,0.3840930461883545,0.508834958076477,0.5822934508323669,0.24489526450634003,0.0,0.0,0.0,0.0,0.0,0.0,0.0,0.0,1.7221108675003052,-0.015415256144506156,-0.19135262847448448,-0.05304771409544063,0.03324590250849724,-0.01344518642872572,-0.0,-0.004216273780912161,-0.007825704291462898,0.0
455,5,-0.0024160256143659353,-0.0003987612435594201,0.004118149168789387,-0.026106033474206924,0.00605900539085269,-0.003130363067612052,0.01755809783935547,0.016291003674268723,0.004671401344239712,0.0,0.0,0.0,0.0,0.0,0.0,-0.006986839696764946,-0.023999150842428207,-0.0,0.0,0.0,0.0,-0.0035488922148942947,-0.021015023812651634,0.0019892961718142033,13408.0,14755.0,15635.0,11270.0,0.40062910318374634,0.49070993065834045,0.5544731616973877,0.2762985825538635,0.0,0.0,0.0,0.0,0.0,0.0,0.0,0.0,1.9244784116744995,-0.015415256144506156,-0.19135262847448448,-0.05304771409544063,0.11127779632806778,-0.024922749027609825,0.0,-0.004212107975035906,-0.008011864498257637,0.0
460,5,-0.00248578074388206,-0.0003997617168352008,0.00418914295732975,-0.026106033474206924,0.00605900539085269,-0.003130363067612052,0.01755809783935547,0.016291003674268723,0.004671401344239712,0.0,0.0,0.0,0.0,0.0,0.0,-0.006986839696764946,-0.023999150842428207,-0.0,0.0,0.0,0.0,-0.0035488922148942947,-0.021015023812651634,0.0019892961718142033,13408.0,14755.0,15635.0,11270.0,0.40062910318374634,0.49070993065834045,0.5544731616973877,0.2762985825538635,0.0,0.0,0.0,0.0,0.0,0.0,0.0,0.0,1.9244784116744995,-0.008005011272274787,-0.19244942296302395,-0.052032916599728155,0.11127779632806778,-0.024922749027609825,0.0,-0.004212107975035906,-0.008011864498257637,0.0
465,5,-0.00248578074388206,-0.0003997617168352008,0.00418914295732975,-0.026106033474206924,0.00605900539085269,-0.003130363067612052,0.0166973564773798,0.027052560821175575,0.005663388874381781,0.0,0.0,0.0,0.0,0.0,0.0,-0.006985257845371962,-0.02407166361808777,-0.0,0.0,0.0,0.0,-0.0046386029571294785,-0.014104342088103294,0.0019079366466030478,13995.0,14344.0,15181.0,11709.0,0.4387887716293335,0.4622536599636078,0.5210937261581421,0.2999747395515442,0.0,0.0,0.0,0.0,0.0,0.0,0.0,0.0,1.9254472255706787,-0.008005011272274787,-0.19244942296302395,-0.052032916599728155,0.11167014390230179,-0.024929650127887726,0.0,-0.004212107975035906,-0.008011864498257637,0.0
470,5,-0.0025023717898875475,-0.00042249864782206714,0.004263775888830423,-0.026106033474206924,0.00605900539085269,-0.003130363067612052,0.0166973564773798,0.027052560821175575,0.005663388874381781,0.0,0.0,0.0,0.0,0.0,0.0,-0.006985257845371962,-0.02407166361808777,-0.0,0.0,0.0,0.0,-0.0046386029571294785,-0.014104342088103294,0.0019079366466030478,13995.0,14344.0,15181.0,11709.0,0.4387887716293335,0.4622536599636078,0.5210937261581421,0.2999747395515442,0.0,0.0,0.0,0.0,0.0,0.0,0.0,0.0,1.9254472255706787,-0.00221139604476612,-0.18910198084271196,-0.05376355557137076,0.11167014390230179,-0.024929650127887726,0.0,-0.004212107975035906,-0.008011864498257637,0.0
475,5,-0.0025023717898875475,-0.00042249864782206714,0.004263775888830423,-0.026106033474206924,0.00605900539085269,-0.003130363067612052,0.01653824746608734,0.027024706825613976,0.006251370534300804,0.0,0.0,0.0,0.0,0.0,0.0,-0.007019561715424061,-0.024089280515909195,-0.0,0.0,0.0,0.0,-0.004912380129098892,-0.0116679472848773,0.0024756675120443106,15008.0,14843.0,15795.0,12624.0,0.5086709856987,0.4969504475593567,0.5664794445037842,0.3523775041103363,0.0,0.0,0.0,0.0,0.0,0.0,0.0,0.0,1.9257628917694092,-0.00221139604476612,-0.18910198084271196,-0.05376355557137076,0.1117701530456543,-0.025056181475520134,0.0,-0.006986839696764946,-0.023999150842428207,0.0
480,5,-0.0027095803525298834,-0.00043170276330783963,0.004219843074679375,-0.03530743718147278,0.0035280962474644184,0.004019760526716709,0.01653824746608734,0.027024706825613976,0.006251370534300804,0.0,0.0,0.0,0.0,0.0,0.0,-0.007019561715424061,-0.024089280515909195,-0.0,0.0,0.0,0.0,-0.004912380129098892,-0.0116679472848773,0.0024756675120443106,15008.0,14843.0,15795.0,12624.0,0.5086709856987,0.4969504475593567,0.5664794445037842,0.3523775041103363,0.0,0.0,0.0,0.0,0.0,0.0,0.0,0.0,1.9257628917694092,-0.011652400770501817,-0.1887288289765203,-0.05101928004217236,0.1117701530456543,-0.025056181475520134,0.0,-0.006986839696764946,-0.023999150842428207,0.0
486,5,-0.0027095803525298834,-0.00043170276330783963,0.004219843074679375,-0.03530743718147278,0.0035280962474644184,0.004019760526716709,0.016405360773205757,0.023836923763155937,0.007037405855953693,0.0,0.0,0.0,0.0,0.0,0.0,-0.004192519001662731,-0.030448170378804207,-0.0,0.0,0.0,0.0,-0.00421704538166523,-0.007356350775808096,0.0020926378201693296,15151.0,14608.0,15492.0,13115.0,0.5189265012741089,0.480465829372406,0.5438398718833923,0.3822149932384491,0.0,0.0,0.0,0.0,0.0,0.0,0.0,0.0,2.00968337059021,-0.011652400770501817,-0.1887288289765203,-0.05101928004217236,0.14742454886436462,-0.015617405995726585,-0.0,-0.006985257845371962,-0.02407166361808777,0.0
491,5,-0.002758376533165574,-0.00041621646960265934,0.004221715033054352,-0.01997852325439453,-0.0004471166175790131,0.0013832831755280495,0.016405360773205757,0.023836923763155937,0.007037405855953693,0.0,0.0,0.0,0.0,0.0,0.0,-0.004192519001662731,-0.030448170378804207,-0.0,0.0,0.0,0.0,-0.00421704538166523,-0.007356350775808096,0.0020926378201693296,15151.0,14608.0,15492.0,13115.0,0.5189265012741089,0.480465829372406,0.5438398718833923,0.3822149932384491,0.0,0.0,0.0,0.0,0.0,0.0,0.0,0.0,2.00968337059021,-0.0035903358158420333,-0.18432598521691781,-0.048312043066924826,0.14742454886436462,-0.015617405995726585,-0.0,-0.006985257845371962,-0.02407166361808777,0.0
496,5,-0.002758376533165574,-0.00041621646960265934,0.004221715033054352,-0.01997852325439453,-0.0004471166175790131,0.0013832831755280495,0.01642139069736004,0.020773349329829216,0.007367871701717377,0.0,0.0,0.0,0.0,0.0,0.0,-0.00018137492588721216,-0.020088324323296547,-0.0,0.0,0.0,0.0,-0.005013786256313324,-0.004145835526287556,0.0016303749289363623,15247.0,14610.0,15164.0,13389.0,0.525871992111206,0.4805639684200287,0.5199103355407715,0.39941665530204773,0.0,0.0,0.0,0.0,0.0,0.0,0.0,0.0,1.8639417886734009,-0.0035903358158420333,-0.18432598521691781,-0.048312043066924826,0.0902191549539566,-0.0006266400450840592,-0.0,-0.007019561715424061,-0.024089280515909195,0.0
