timestamp,dt,pos_x,pos_y,pos_z,vel_x,vel_y,vel_z,roll,pitch,yaw,agv_x,agv_y,agv_z,x_ref,y_ref,z_ref,roll_ref,pitch_ref,yaw_ref,x_vel_ref,y_vel_ref,z_vel_ref,x_torque,y_torque,z_torque,w0,w1,w2,w3,u0,u1,u2,u3,m0req,m1req,m2req,m3req,thrust0,thrust1,thrust2,thrust3,thrust_ref,roll_vicon,pitch_vicon,yaw_vicon,acc_x,acc_y,acc_z,roll_received,pitch_received,yaw_received
5,5,0.0,0.0,0.0,0.0024385321885347366,-0.001312295556999743,-0.003511535469442606,0.007891444489359856,-0.22068583965301514,-0.00281860982067883,0.0,0.0,0.0,0.0,0.0,0.0,0.001605285215191543,0.002294596517458558,-0.0,0.0,0.0,0.0,-0.0016000439645722508,0.06619353592395782,-0.00032592075876891613,1495.0,1495.0,1495.0,1495.0,0.0,0.0,0.0,0.0,0.0,0.0,0.0,0.0,0.0,0.0,0.0,0.0,1.6538742780685425,0.03165771574600281,0.3156145608953352,0.08688888344036014,-0.00914449617266655,0.0049211084842681885,0.0,0.0,0.0,0.0
26,21,0.0,0.0,0.0,0.0008607021300122142,-0.0030440185219049454,-0.0024746214039623737,0.007891444489359856,-0.22068583965301514,-0.00281860982067883,0.0,0.0,0.0,0.0,0.0,0.0,0.001605285215191543,0.002294596517458558,-0.0,0.0,0.0,0.0,-0.0016000439645722508,0.06619353592395782,-0.00032592075876891613,1495.0,1495.0,1495.0,1495.0,0.0,0.0,0.0,0.0,0.0,0.0,0.0,0.0,0.0,0.0,0.0,0.0,1.6538742780685425,0.030402055176327325,0.31678378986291206,0.0877143542487387,-0.00914449617266655,0.0049211084842681885,0.0,0.0,0.0,0.0
46,20,0.0,0.0,0.0,-0.0009736280189827085,-0.00022336294932756573,0.0011356481118127704,0.00787658616900444,-0.22075125575065613,-0.002822296693921089,0.0,0.0,0.0,0.0,0.0,0.0,0.003714686492457986,0.0008079520775936544,-0.0,0.0,0.0,0.0,-0.0015995108988136053,0.06631096452474594,-0.0003643376985564828,1495.0,1495.0,1495.0,1495.0,0.0,0.0,0.0,0.0,0.0,0.0,0.0,0.0,0.0,0.0,0.0,0.0,1.6578669548034668,0.029145426076674728,0.31672963639163193,0.08812930369657015,-0.0032276329584419727,0.011415069922804832,0.0,-0.0,-0.0,0.0
51,5,0.0,0.0,0.0,-0.0009736280189827085,-0.00022336294932756573,0.0011356481118127704,0.00787658616900444,-0.22075125575065613,-0.002822296693921089,0.0,0.0,0.0,0.0,0.0,0.0,0.0002762319927569479,-0.0009262167732231319,-0.0,0.0,0.0,0.0,-0.0012310121674090624,0.06680617481470108,-0.0002293581492267549,1495.0,1495.0,1495.0,1495.0,0.0,0.0,0.0,0.0,0.0,0.0,0.0,0.0,0.0,0.0,0.0,0.0,1.6359117031097412,0.029145426076674728,0.31672963639163193,0.08812930369657015,0.003651105100288987,0.0008376110345125198,0.0,0.001605285215191543,0.002294596517458558,0.0
57,6,0.0,0.0,0.0,0.0014780493220314384,-0.0008544449810869992,-0.0035578415263444185,0.00787658616900444,-0.22075125575065613,-0.002822296693921089,0.0,0.0,0.0,0.0,0.0,0.0,0.0002762319927569479,-0.0009262167732231319,-0.0,0.0,0.0,0.0,-0.0012310121674090624,0.06680617481470108,-0.0002293581492267549,1495.0,1495.0,1495.0,1495.0,0.0,0.0,0.0,0.0,0.0,0.0,0.0,0.0,0.0,0.0,0.0,0.0,1.6359117031097412,0.027361057515230682,0.3170166338720697,0.08846323413777264,0.003651105100288987,0.0008376110345125198,0.0,0.001605285215191543,0.002294596517458558,0.0
62,5,0.0,0.0,0.0,0.0014780493220314384,-0.0008544449810869992,-0.0035578415263444185,0.007881499826908112,-0.22073329985141754,-0.0028495737351477146,0.0,0.0,0.0,0.0,0.0,0.0,0.0002762319927569479,-0.0009262167732231319,-0.0,0.0,0.0,0.0,-0.001267544343136251,0.06695672869682312,-0.00023221240553539246,17650.0,7781.0,6973.0,17709.0,0.7151826024055481,0.12266997247934341,0.09581861644983292,0.7202030420303345,0.0,0.0,0.0,0.0,0.0,0.0,0.0,0.0,1.6359117031097412,0.027361057515230682,0.3170166338720697,0.08846323413777264,0.003651105100288987,0.0008376110345125198,0.0,0.001605285215191543,0.002294596517458558,0.0
67,5,-1.0073056728288066e-05,-2.268415119033307e-05,-2.6807600079337135e-05,0.0014780493220314384,-0.0008544449810869992,-0.0035578415263444185,0.007881499826908112,-0.22073329985141754,-0.0028495737351477146,0.0,0.0,0.0,0.0,0.0,0.0,0.0010520608630031347,0.001399917877279222,-0.0,0.0,0.0,0.0,-0.001267544343136251,0.06695672869682312,-0.00023221240553539246,17650.0,7781.0,6973.0,17709.0,0.7151826024055481,0.12266997247934341,0.09581861644983292,0.7202030420303345,0.0,0.0,0.0,0.0,0.0,0.0,0.0,0.0,1.6431078910827637,0.028869681726446408,0.316713231593099,0.08795180567754415,-0.0055426848120987415,0.003204168751835823,0.0,0.001605285215191543,0.002294596517458558,0.0
72,5,-6.947174551896751e-05,-5.3690935601480305e-05,-0.00010149546142201871,0.0014780493220314384,-0.0008544449810869992,-0.0035578415263444185,0.007882395759224892,-0.2206992357969284,-0.002867766423150897,0.0,0.0,0.0,0.0,0.0,0.0,0.0010520608630031347,0.001399917877279222,-0.0,0.0,0.0,0.0,-0.0014854400651529431,0.06613285839557648,-0.00023758746101520956,17589.0,7883.0,7044.0,17748.0,0.7099950909614563,0.1263217180967331,0.0980277732014656,0.7235223650932312,0.0,0.0,0.0,0.0,0.0,0.0,0.0,0.0,1.6431078910827637,0.03419081438680772,0.31552306063451496,0.08593124691646277,-0.0055426848120987415,0.003204168751835823,0.0,0.0002762319927569479,-0.0009262167732231319,0.0
77,5,-6.947174551896751e-05,-5.3690935601480305e-05,-0.00010149546142201871,0.0014780493220314384,-0.0008544449810869992,-0.0035578415263444185,0.007882395759224892,-0.2206992357969284,-0.002867766423150897,0.0,0.0,0.0,0.0,0.0,0.0,0.0009557934827171266,0.0013043790822848678,-0.0,0.0,0.0,0.0,-0.0014854400651529431,0.06613285839557648,-0.00023758746101520956,17589.0,7883.0,7044.0,17748.0,0.7099950909614563,0.1263217180967331,0.0980277732014656,0.7235223650932312,0.0,0.0,0.0,0.0,0.0,0.0,0.0,0.0,1.6418123245239258,0.03419081438680772,0.31552306063451496,0.08593124691646277,-0.0051603470928967,0.0029086805880069733,0.0,0.0002762319927569479,-0.0009262167732231319,0.0
82,5,-3.130718687316403e-05,-2.227821278211195e-05,-4.998532676836476e-05,0.0051709674298763275,-0.004111304879188538,-0.007604352664202452,0.007866819389164448,-0.2206854224205017,-0.0028550580609589815,0.0,0.0,0.0,0.0,0.0,0.0,0.0009557934827171266,0.0013043790822848678,-0.0,0.0,0.0,0.0,-0.0013616029173135757,0.0667891576886177,-0.00036859107785858214,17592.0,7723.0,6966.0,17583.0,0.7102287411689758,0.12064206600189209,0.09558221697807312,0.7094587087631226,0.0,0.0,0.0,0.0,0.0,0.0,0.0,0.0,1.6418123245239258,0.03162922941368071,0.3161759871444814,0.08721550975878352,-0.0051603470928967,0.0029086805880069733,0.0,0.0010520608630031347,0.001399917877279222,0.0
87,5,-3.130718687316403e-05,-2.227821278211195e-05,-4.998532676836476e-05,0.0051709674298763275,-0.004111304879188538,-0.007604352664202452,0.007844462059438229,-0.22069917619228363,-0.002873240737244487,0.0,0.0,0.0,0.0,0.0,0.0,0.0048767817206680775,0.004713860806077719,-0.0,0.0,0.0,0.0,-0.0013616029173135757,0.0667891576886177,-0.00036859107785858214,17601.0,7765.0,6856.0,17681.0,0.7109909057617188,0.12213331460952759,0.09219838678836823,0.7177852988243103,0.0,0.0,0.0,0.0,0.0,0.0,0.0,0.0,1.691987156867981,0.03162922941368071,0.3161759871444814,0.08721550975878352,-0.019218476489186287,0.015294519253075123,0.0,0.0010520608630031347,0.001399917877279222,0.0
98,11,-4.852084748563357e-05,-3.2751580874901265e-05,-8.18054104456678e-05,0.0051709674298763275,-0.004111304879188538,-0.007604352664202452,0.007844462059438229,-0.22069917619228363,-0.002873240737244487,0.0,0.0,0.0,0.0,0.0,0.0,0.0048767817206680775,0.004713860806077719,-0.0,0.0,0.0,0.0,-0.0013616029173135757,0.0667891576886177,-0.00036859107785858214,17601.0,7765.0,6856.0,17681.0,0.7109909057617188,0.12213331460952759,0.09219838678836823,0.7177852988243103,0.0,0.0,0.0,0.0,0.0,0.0,0.0,0.0,1.691987156867981,0.03158791442264997,0.3163422122311813,0.08707774036739646,-0.019218476489186287,0.015294519253075123,0.0,0.0010520608630031347,0.001399917877279222,0.0
103,5,-5.8077257563127205e-05,-2.3716725991107523e-05,-6.447879422921687e-05,0.0051709674298763275,-0.004111304879188538,-0.007604352664202452,0.007857773452997208,-0.22071115672588348,-0.0028528033290058374,0.0,0.0,0.0,0.0,0.0,0.0,0.0048767817206680775,0.004713860806077719,-0.0,0.0,0.0,0.0,-0.0005981727736070752,0.06789588928222656,-0.0003294514608569443,17647.0,7661.0,6930.0,17636.0,0.7149181962013245,0.11847738921642303,0.09446972608566284,0.713947057723999,0.0,0.0,0.0,0.0,0.0,0.0,0.0,0.0,1.691987156867981,0.030720193744026274,0.31629979715395157,0.08741048381599448,-0.019218476489186287,0.015294519253075123,0.0,0.0048768059350550175,0.004713886883109808,0.0
108,5,-5.8077257563127205e-05,-2.3716725991107523e-05,-6.447879422921687e-05,0.0051709674298763275,-0.004111304879188538,-0.007604352664202452,0.007857773452997208,-0.22071115672588348,-0.0028528033290058374,0.0,0.0,0.0,0.0,0.0,0.0,0.004875159356743097,0.004678586032241583,-0.0,0.0,0.0,0.0,-0.0005981727736070752,0.06789588928222656,-0.0003294514608569443,17647.0,7661.0,6930.0,17636.0,0.7149181962013245,0.11847738921642303,0.09446972608566284,0.713947057723999,0.0,0.0,0.0,0.0,0.0,0.0,0.0,0.0,1.691665530204773,0.030720193744026274,0.31629979715395157,0.08741048381599448,-0.01907103694975376,0.015286524780094624,0.0,0.0048768059350550175,0.004713886883109808,0.0
113,5,-3.8218793633859605e-05,-9.101710020331666e-06,-6.643665983574465e-05,0.004451402463018894,-0.0033983238972723484,-0.0028067976236343384,0.007855602540075779,-0.22069977223873138,-0.0028524158988147974,0.0,0.0,0.0,0.0,0.0,0.0,0.004875159356743097,0.004678586032241583,-0.0,0.0,0.0,0.0,-0.0005835675401613116,0.06813442707061768,-0.00024998848675750196,17806.0,7781.0,7225.0,17906.0,0.7284090518951416,0.12269327044487,0.10383431613445282,0.737050473690033,0.0,0.0,0.0,0.0,0.0,0.0,0.0,0.0,1.691665530204773,0.030272063460115073,0.31600719585144926,0.08740818818760758,-0.01907103694975376,0.015286524780094624,0.0,0.0048767817206680775,0.004713860806077719,0.0
118,5,-3.8218793633859605e-05,-9.101710020331666e-06,-6.643665983574465e-05,0.004451402463018894,-0.0033983238972723484,-0.0028067976236343384,0.007855602540075779,-0.22069977223873138,-0.0028524158988147974,0.0,0.0,0.0,0.0,0.0,0.0,0.004071555566042662,0.004066793713718653,-0.0,0.0,0.0,0.0,-0.0005835675401613116,0.06813442707061768,-0.00024998848675750196,17806.0,7781.0,7225.0,17906.0,0.7284090518951416,0.12269327044487,0.10383431613445282,0.737050473690033,0.0,0.0,0.0,0.0,0.0,0.0,0.0,0.0,1.6819157600402832,0.030272063460115073,0.31600719585144926,0.08740818818760758,-0.016481757164001465,0.012693196535110474,0.0,0.0048767817206680775,0.004713860806077719,0.0
123,5,-2.7719424906536005e-05,-3.836683390545659e-05,-8.173860987881199e-05,0.004451402463018894,-0.0033983238972723484,-0.0028067976236343384,0.007855602540075779,-0.22069977223873138,-0.0028524158988147974,0.0,0.0,0.0,0.0,0.0,0.0,0.004071555566042662,0.004066793713718653,-0.0,0.0,0.0,0.0,-0.0005835675401613116,0.06813442707061768,-0.00024998848675750196,17806.0,7781.0,7225.0,17906.0,0.7284090518951416,0.12269327044487,0.10383431613445282,0.737050473690033,0.0,0.0,0.0,0.0,0.0,0.0,0.0,0.0,1.6819157600402832,0.031184450266519267,0.316198220612007,0.08717919947362412,-0.016481757164001465,0.012693196535110474,0.0,0.0048767817206680775,0.004713860806077719,0.0
128,5,-2.7719424906536005e-05,-3.836683390545659e-05,-8.173860987881199e-05,0.004451402463018894,-0.0033983238972723484,-0.0028067976236343384,0.007853904739022255,-0.22073055803775787,-0.002871717093512416,0.0,0.0,0.0,0.0,0.0,0.0,0.004020215477794409,0.004081356339156628,-0.0,0.0,0.0,0.0,-0.000602874206379056,0.06806731969118118,-0.0003451953234616667,17770.0,7864.0,7147.0,17933.0,0.7253763675689697,0.12562094628810883,0.10133442282676697,0.7393338084220886,0.0,0.0,0.0,0.0,0.0,0.0,0.0,0.0,1.6817762851715088,0.031184450266519267,0.316198220612007,0.08717919947362412,-0.016539406031370163,0.012532103806734085,0.0,0.004875159356743097,0.004678586032241583,0.0
133,5,-1.9822202375507914e-05,-1.8913842723122798e-05,-4.1265135223511606e-05,0.002728227758780122,-0.0036936881951987743,-0.005979535635560751,0.007853904739022255,-0.22073055803775787,-0.002871717093512416,0.0,0.0,0.0,0.0,0.0,0.0,0.004020215477794409,0.004081356339156628,-0.0,0.0,0.0,0.0,-0.000602874206379056,0.06806731969118118,-0.0003451953234616667,17770.0,7864.0,7147.0,17933.0,0.7253763675689697,0.12562094628810883,0.10133442282676697,0.7393338084220886,0.0,0.0,0.0,0.0,0.0,0.0,0.0,0.0,1.6817762851715088,0.030220201657243678,0.31635740913294297,0.08740334561344616,-0.016539406031370163,0.012532103806734085,0.0,0.004875159356743097,0.004678586032241583,0.0
139,5,-1.9822202375507914e-05,-1.8913842723122798e-05,-4.1265135223511606e-05,0.002728227758780122,-0.0036936881951987743,-0.005979535635560751,0.007838982157409191,-0.22072449326515198,-0.0028519907500594854,0.0,0.0,0.0,0.0,0.0,0.0,0.004435903392732143,0.0025122438091784716,-0.0,0.0,0.0,0.0,-0.0007243874133564532,0.06788083165884018,-0.0002189247461501509,17782.0,7728.0,7193.0,17846.0,0.726428210735321,0.12082302570343018,0.10279498994350433,0.7318695783615112,0.0,0.0,0.0,0.0,0.0,0.0,0.0,0.0,1.671893835067749,0.030220201657243678,0.31635740913294297,0.08740334561344616,-0.010120865888893604,0.013746645301580429,0.0,0.004071555566042662,0.004066793713718653,0.0
144,5,-4.150945460423827e-05,-1.662843715166673e-05,-6.884684262331575e-05,-0.0015111790271475911,-0.0017517239321023226,0.000917990633752197,0.007838982157409191,-0.22072449326515198,-0.0028519907500594854,0.0,0.0,0.0,0.0,0.0,0.0,0.004435903392732143,0.0025122438091784716,-0.0,0.0,0.0,0.0,-0.0007243874133564532,0.06788083165884018,-0.0002189247461501509,17782.0,7728.0,7193.0,17846.0,0.726428210735321,0.12082302570343018,0.10279498994350433,0.7318695783615112,0.0,0.0,0.0,0.0,0.0,0.0,0.0,0.0,1.671893835067749,0.030472728774522565,0.3169942596400723,0.08726969184123635,-0.010120865888893604,0.013746645301580429,0.0,0.004071555566042662,0.004066793713718653,0.0
149,5,-4.150945460423827e-05,-1.662843715166673e-05,-6.884684262331575e-05,-0.0015111790271475911,-0.0017517239321023226,0.000917990633752197,0.007845626212656498,-0.22073997557163239,-0.0028553989250212908,0.0,0.0,0.0,0.0,0.0,0.0,0.0021183809731155634,-0.0014834861503913999,-0.0,0.0,0.0,0.0,-0.0007951713050715625,0.06794188916683197,-0.0003081715549342334,17771.0,7764.0,7146.0,17859.0,0.7254837155342102,0.12206733971834183,0.10128221660852432,0.732943058013916,0.0,0.0,0.0,0.0,0.0,0.0,0.0,0.0,1.64948308467865,0.030472728774522565,0.3169942596400723,0.08726969184123635,0.005896334536373615,0.006476791109889746,0.0,0.004020215477794409,0.004081356339156628,0.0
154,5,-5.32892636329052e-06,-7.289176573976874e-05,-6.100585596868768e-05,-0.0015111790271475911,-0.0017517239321023226,0.000917990633752197,0.007845626212656498,-0.22073997557163239,-0.0028553989250212908,0.0,0.0,0.0,0.0,0.0,0.0,0.0021183809731155634,-0.0014834861503913999,-0.0,0.0,0.0,0.0,-0.0007951713050715625,0.06794188916683197,-0.0003081715549342334,17771.0,7764.0,7146.0,17859.0,0.7254837155342102,0.12206733971834183,0.10128221660852432,0.732943058013916,0.0,0.0,0.0,0.0,0.0,0.0,0.0,0.0,1.64948308467865,0.028050399973390608,0.3168173438702469,0.08875442843177822,0.005896334536373615,0.006476791109889746,0.0,0.004020215477794409,0.004081356339156628,0.0
159,5,-5.32892636329052e-06,-7.289176573976874e-05,-6.100585596868768e-05,-0.0015111790271475911,-0.0017517239321023226,0.000917990633752197,0.007898276671767235,-0.22072763741016388,-0.002834693994373083,0.0,0.0,0.0,0.0,0.0,0.0,0.0021183809731155634,-0.0014834861503913999,-0.0,0.0,0.0,0.0,-0.0008086416637524962,0.06792178750038147,0.0001499088975833729,17951.0,7124.0,7753.0,17574.0,0.7408692836761475,0.10057742893695831,0.12168671190738678,0.7087604403495789,0.0,0.0,0.0,0.0,0.0,0.0,0.0,0.0,1.64948308467865,0.028050399973390608,0.3168173438702469,0.08875442843177822,0.005697360262274742,0.0061670877039432526,0.0,0.004020215477794409,0.004081356339156628,0.0
164,5,7.761413144180551e-05,-5.647774014505558e-05,1.1396818081266247e-05,0.009348695166409016,-0.0026703723706305027,-0.008321124128997326,0.007898276671767235,-0.22072763741016388,-0.002834693994373083,0.0,0.0,0.0,0.0,0.0,0.0,0.0020182852167636156,-0.0014342776266857982,-0.0,0.0,0.0,0.0,-0.0008086416637524962,0.06792178750038147,0.0001499088975833729,17951.0,7124.0,7753.0,17574.0,0.7408692836761475,0.10057742893695831,0.12168671190738678,0.7087604403495789,0.0,0.0,0.0,0.0,0.0,0.0,0.0,0.0,1.6485023498535156,0.02839443910027914,0.3221177031074072,0.08782616341650924,0.005697360262274742,0.0061670877039432526,0.0,0.004020215477794409,0.004081356339156628,0.0
169,5,7.761413144180551e-05,-5.647774014505558e-05,1.1396818081266247e-05,0.009348695166409016,-0.0026703723706305027,-0.008321124128997326,0.007668710313737392,-0.22082355618476868,-0.0029533053748309612,0.0,0.0,0.0,0.0,0.0,0.0,0.0020182852167636156,-0.0014342776266857982,-0.0,0.0,0.0,0.0,-0.0004558337095659226,0.06766652315855026,-0.0008821580559015274,17371.0,8278.0,6421.0,17913.0,0.6916955709457397,0.1408548653125763,0.07934888452291489,0.7375837564468384,0.0,0.0,0.0,0.0,0.0,0.0,0.0,0.0,1.6485023498535156,0.02839443910027914,0.3221177031074072,0.08782616341650924,-0.035483624786138535,0.009702098555862904,0.0,0.004435903392732143,0.0025122438091784716,0.0
174,5,-3.805888263741508e-05,-0.00012245717516634613,-0.00012289620644878596,0.009348695166409016,-0.0026703723706305027,-0.008321124128997326,0.007668710313737392,-0.22082355618476868,-0.0029533053748309612,0.0,0.0,0.0,0.0,0.0,0.0,0.0030351446475833654,0.008538948372006416,-0.0,0.0,0.0,0.0,-0.0004558337095659226,0.06766652315855026,-0.0008821580559015274,17371.0,8278.0,6421.0,17913.0,0.6916955709457397,0.1408548653125763,0.07934888452291489,0.7375837564468384,0.0,0.0,0.0,0.0,0.0,0.0,0.0,0.0,1.7245625257492065,0.031153844732988302,0.3164082426240325,0.08745943937993973,-0.035483624786138535,0.009702098555862904,0.0,0.004435903392732143,0.0025122438091784716,0.0
179,5,-3.805888263741508e-05,-0.00012245717516634613,-0.00012289620644878596,0.009348695166409016,-0.0026703723706305027,-0.008321124128997326,0.007691357284784317,-0.22097958624362946,-0.002846564631909132,0.0,0.0,0.0,0.0,0.0,0.0,0.0029246804770082235,0.008394979871809483,-0.0,0.0,0.0,0.0,-0.0012073367834091187,0.06679925322532654,0.0006550617981702089,17816.0,7299.0,7438.0,17507.0,0.7292985916137695,0.10626278817653656,0.11086718738079071,0.7030545473098755,0.0,0.0,0.0,0.0,0.0,0.0,0.0,0.0,1.7226793766021729,0.031153844732988302,0.3164082426240325,0.08745943937993973,-0.03484729304909706,0.009338783100247383,0.0,0.0021183809731155634,-0.0014834861503913999,0.0
184,5,3.25067994708661e-05,-7.048134284559637e-05,-3.363188079674728e-05,0.009348695166409016,-0.0026703723706305027,-0.008321124128997326,0.007691357284784317,-0.22097958624362946,-0.002846564631909132,0.0,0.0,0.0,0.0,0.0,0.0,0.0029246804770082235,0.008394979871809483,-0.0,0.0,0.0,0.0,-0.0012073367834091187,0.06679925322532654,0.0006550617981702089,17816.0,7299.0,7438.0,17507.0,0.7292985916137695,0.10626278817653656,0.11086718738079071,0.7030545473098755,0.0,0.0,0.0,0.0,0.0,0.0,0.0,0.0,1.7226793766021729,0.03342617844869388,0.32031677859638413,0.08572870435446715,-0.03484729304909706,0.009338783100247383,0.0,0.0021183809731155634,-0.0014834861503913999,0.0
189,5,3.25067994708661e-05,-7.048134284559637e-05,-3.363188079674728e-05,0.009348695166409016,-0.0026703723706305027,-0.008321124128997326,0.007773697841912508,-0.22101859748363495,-0.0027569271624088287,0.0,0.0,0.0,0.0,0.0,0.0,0.0030120438896119595,0.008482634089887142,-0.0,0.0,0.0,0.0,-0.0009934015106409788,0.06650792062282562,0.0005538269178941846,17966.0,6767.0,7976.0,17316.0,0.7422265410423279,0.08948040008544922,0.12965501844882965,0.6871403455734253,0.0,0.0,0.0,0.0,0.0,0.0,0.0,0.0,1.7238727807998657,0.03342617844869388,0.32031677859638413,0.08572870435446715,-0.03523551672697067,0.009624403901398182,0.0,0.0020182852167636156,-0.0014342776266857982,0.0
194,5,-0.00031086133094504476,-0.00018936043488793075,-0.00048155279364436865,-0.037464696913957596,0.013197342865169048,0.0504220612347126,0.007773697841912508,-0.22101859748363495,-0.0027569271624088287,0.0,0.0,0.0,0.0,0.0,0.0,0.0030120438896119595,0.008482634089887142,-0.0,0.0,0.0,0.0,-0.0009934015106409788,0.06650792062282562,0.0005538269178941846,17966.0,6767.0,7976.0,17316.0,0.7422265410423279,0.08948040008544922,0.12965501844882965,0.6871403455734253,0.0,0.0,0.0,0.0,0.0,0.0,0.0,0.0,1.7238727807998657,0.06043913022846041,0.3056201799201236,0.07457742754952254,-0.03523551672697067,0.009624403901398182,0.0,0.0020182852167636156,-0.0014342776266857982,0.0
199,5,-0.00031086133094504476,-0.00018936043488793075,-0.00048155279364436865,-0.037464696913957596,0.013197342865169048,0.0504220612347126,0.007777493912726641,-0.2210100144147873,-0.0028969445265829563,0.0,0.0,0.0,0.0,0.0,0.0,0.0030120438896119595,0.008482634089887142,-0.0,0.0,0.0,0.0,-0.0012714690528810024,0.06936758011579514,-0.0010909733828157187,17873.0,8243.0,6882.0,18146.0,0.7342185974121094,0.13953015208244324,0.09300359338521957,0.7578102350234985,0.0,0.0,0.0,0.0,0.0,0.0,0.0,0.0,1.7238727807998657,0.06043913022846041,0.3056201799201236,0.07457742754952254,0.14220431447029114,-0.050534024834632874,0.0,0.0030351446475833654,0.008538948372006416,0.0
205,5,-0.0002145463804481551,-0.00020275008864700794,-0.00035395845770835876,-0.0034280838444828987,0.006885695271193981,0.004857501480728388,0.007777493912726641,-0.2210100144147873,-0.0028969445265829563,0.0,0.0,0.0,0.0,0.0,0.0,-0.013522052206099033,-0.029275601729750633,-0.0,0.0,0.0,0.0,-0.0012714690528810024,0.06936758011579514,-0.0010909733828157187,17873.0,8243.0,6882.0,18146.0,0.7342185974121094,0.13953015208244324,0.09300359338521957,0.7578102350234985,0.0,0.0,0.0,0.0,0.0,0.0,0.0,0.0,2.0163075923919678,0.051609649234622086,0.30718018651500845,0.07875724541278352,0.14220431447029114,-0.050534024834632874,0.0,0.0030351446475833654,0.008538948372006416,0.0
210,5,-0.0002145463804481551,-0.00020275008864700794,-0.00035395845770835876,-0.0034280838444828987,0.006885695271193981,0.004857501480728388,0.00785295944660902,-0.2206057757139206,-0.0029248110949993134,0.0,0.0,0.0,0.0,0.0,0.0,-0.013522052206099033,-0.029275601729750633,-0.0,0.0,0.0,0.0,-0.0009472364909015596,0.0688454806804657,-0.0011804356472566724,17578.0,8794.0,6254.0,18375.0,0.709089994430542,0.16098324954509735,0.07466556131839752,0.777940571308136,0.0,0.0,0.0,0.0,0.0,0.0,0.0,0.0,2.0163075923919678,0.051609649234622086,0.30718018651500845,0.07875724541278352,0.14220431447029114,-0.050534024834632874,0.0,0.0029246804770082235,0.008394979871809483,0.0
215,5,-0.0002463030396029353,-0.00016729928029235452,-0.00037112022982910275,-0.0051820348016917706,-0.0014998195692896843,0.004002415109425783,0.00785295944660902,-0.2206057757139206,-0.0029248110949993134,0.0,0.0,0.0,0.0,0.0,0.0,-0.008511840365827084,-0.00341193494386971,-0.0,0.0,0.0,0.0,-0.0009472364909015596,0.0688454806804657,-0.0011804356472566724,17578.0,8794.0,6254.0,18375.0,0.709089994430542,0.16098324954509735,0.07466556131839752,0.777940571308136,0.0,0.0,0.0,0.0,0.0,0.0,0.0,0.0,1.7075375318527222,0.060649875354823815,0.30755996474437175,0.07377891645589811,0.01403803564608097,-0.026939701288938522,0.0,0.0029246804770082235,0.008394979871809483,0.0
220,5,-0.0002463030396029353,-0.00016729928029235452,-0.00037112022982910275,-0.0051820348016917706,-0.0014998195692896843,0.004002415109425783,0.008278999477624893,-0.22019308805465698,-0.002599746687337756,0.0,0.0,0.0,0.0,0.0,0.0,-0.008511840365827084,-0.00341193494386971,-0.0,0.0,0.0,0.0,-0.0019329979550093412,0.06805548071861267,0.001512295799329877,18424.0,7035.0,8469.0,17419.0,0.7822414636611938,0.09774984419345856,0.1481417864561081,0.6957396268844604,0.0,0.0,0.0,0.0,0.0,0.0,0.0,0.0,1.7075375318527222,0.060649875354823815,0.30755996474437175,0.07377891645589811,0.01403803564608097,-0.026939701288938522,0.0,0.0030120438896119595,0.008482634089887142,0.0
225,5,-0.00012514191621448845,-0.0001980342494789511,-3.618589835241437e-05,-0.0051820348016917706,-0.0014998195692896843,0.004002415109425783,0.008278999477624893,-0.22019308805465698,-0.002599746687337756,0.0,0.0,0.0,0.0,0.0,0.0,0.0015064904000610113,-0.005125845316797495,-0.0,0.0,0.0,0.0,-0.0019329979550093412,0.06805548071861267,0.001512295799329877,18424.0,7035.0,8469.0,17419.0,0.7822414636611938,0.09774984419345856,0.1481417864561081,0.6957396268844604,0.0,0.0,0.0,0.0,0.0,0.0,0.0,0.0,1.6832854747772217,0.05523284497487378,0.30755788432886016,0.07729236500638328,0.02079087495803833,0.004700373858213425,0.0,0.0030120438896119595,0.008482634089887142,0.0
230,5,-0.00012514191621448845,-0.0001980342494789511,-3.618589835241437e-05,-0.0051820348016917706,-0.0014998195692896843,0.004002415109425783,0.009424500167369843,-0.21685245633125305,-0.0026801323983818293,0.0,0.0,0.0,0.0,0.0,0.0,0.0015064904000610113,-0.005125845316797495,-0.0,0.0,0.0,0.0,-0.006034696474671364,0.05051632970571518,-0.0005710332188755274,18181.0,11724.0,10917.0,17430.0,0.7608816027641296,0.3007677495479584,0.2580046057701111,0.6966536045074463,0.0,0.0,0.0,0.0,0.0,0.0,0.0,0.0,1.6832854747772217,0.05523284497487378,0.30755788432886016,0.07729236500638328,0.02079087495803833,0.004700373858213425,0.0,-0.013522052206099033,-0.029275601729750633,0.0
235,5,-0.0001478701742598787,-0.0001890000276034698,0.00030619133030995727,-0.004800206050276756,-0.001684034476056695,-0.03948429971933365,0.009424500167369843,-0.21685245633125305,-0.0026801323983818293,0.0,0.0,0.0,0.0,0.0,0.0,0.0014536805683746934,-0.004967095330357552,-0.0,0.0,0.0,0.0,-0.006034696474671364,0.05051632970571518,-0.0005710332188755274,18181.0,11724.0,10917.0,17430.0,0.7608816027641296,0.3007677495479584,0.2580046057701111,0.6966536045074463,0.0,0.0,0.0,0.0,0.0,0.0,0.0,0.0,1.6814429759979248,0.05200839508349784,0.29412977066094353,0.08002442416380429,0.020124927163124084,0.0045306384563446045,0.0,-0.013522052206099033,-0.029275601729750633,0.0
240,5,-0.0001478701742598787,-0.0001890000276034698,0.00030619133030995727,-0.004800206050276756,-0.001684034476056695,-0.03948429971933365,0.009424500167369843,-0.21685245633125305,-0.0026801323983818293,0.0,0.0,0.0,0.0,0.0,0.0,0.0014536805683746934,-0.004967095330357552,-0.0,0.0,0.0,0.0,-0.006034696474671364,0.05051632970571518,-0.0005710332188755274,18181.0,11724.0,10917.0,17430.0,0.7608816027641296,0.3007677495479584,0.2580046057701111,0.6966536045074463,0.0,0.0,0.0,0.0,0.0,0.0,0.0,0.0,1.6814429759979248,0.05200839508349784,0.29412977066094353,0.08002442416380429,0.020124927163124084,0.0045306384563446045,0.0,-0.013522052206099033,-0.029275601729750633,0.0
245,5,-0.0001702213630778715,-0.00022638704103883356,0.0008419437799602747,-0.004800206050276756,-0.001684034476056695,-0.03948429971933365,0.011010756716132164,-0.21045200526714325,-0.0023674415424466133,0.0,0.0,0.0,0.0,0.0,0.0,0.0016939956694841385,-0.004652736708521843,-0.0,0.0,0.0,0.0,-0.005900506861507893,0.025162434205412865,0.004054042045027018,16995.0,10810.0,9968.0,16005.0,0.6606870293617249,0.252571702003479,0.21183478832244873,0.5824440121650696,0.0,0.0,0.0,0.0,0.0,0.0,0.0,0.0,1.6785293817520142,0.05251961932272809,0.27755424275645335,0.08070086567651832,0.01881859265267849,0.00527047086507082,0.0,0.0015064904000610113,-0.005125845316797495,0.0
250,5,-0.0001702213630778715,-0.00022638704103883356,0.0008419437799602747,-0.004800206050276756,-0.001684034476056695,-0.03948429971933365,0.011010756716132164,-0.21045200526714325,-0.0023674415424466133,0.0,0.0,0.0,0.0,0.0,0.0,0.0016939956694841385,-0.004652736708521843,-0.0,0.0,0.0,0.0,-0.005900506861507893,0.025162434205412865,0.004054042045027018,16995.0,10810.0,9968.0,16005.0,0.6606870293617249,0.252571702003479,0.21183478832244873,0.5824440121650696,0.0,0.0,0.0,0.0,0.0,0.0,0.0,0.0,1.6785293817520142,0.05251961932272809,0.27755424275645335,0.08070086567651832,0.01881859265267849,0.00527047086507082,0.0,0.0015064904000610113,-0.005125845316797495,0.0
255,5,-0.0002348878188058734,-0.00025695422664284706,0.0014995922101661563,-0.009680056944489479,0.0029944481793791056,-0.09471152722835541,0.013824732042849064,-0.19215403497219086,-0.0011752155842259526,0.0,0.0,0.0,0.0,0.0,0.0,0.0016274810768663883,-0.004682793281972408,-0.0,0.0,0.0,0.0,-0.006515047512948513,0.0019648743327707052,0.0007132557802833617,16801.0,10684.0,13068.0,13597.0,0.645002007484436,0.2462233006954193,0.379343718290329,0.41271647810935974,0.0,0.0,0.0,0.0,0.0,0.0,0.0,0.0,1.6787029504776,0.0512670509613544,0.25489849126793557,0.08171503263907864,0.01894211955368519,0.005064050201326609,0.0,0.0014536805683746934,-0.004967095330357552,0.0
260,5,-0.0002348878188058734,-0.00025695422664284706,0.0014995922101661563,-0.009680056944489479,0.0029944481793791056,-0.09471152722835541,0.013824732042849064,-0.19215403497219086,-0.0011752155842259526,0.0,0.0,0.0,0.0,0.0,0.0,0.0016274810768663883,-0.004682793281972408,-0.0,0.0,0.0,0.0,-0.006515047512948513,0.0019648743327707052,0.0007132557802833617,16801.0,10684.0,13068.0,13597.0,0.645002007484436,0.2462233006954193,0.379343718290329,0.41271647810935974,0.0,0.0,0.0,0.0,0.0,0.0,0.0,0.0,1.6787029504776,0.0512670509613544,0.25489849126793557,0.08171503263907864,0.01894211955368519,0.005064050201326609,0.0,0.0014536805683746934,-0.004967095330357552,0.0
265,5,-0.00023524083371739835,-0.00020430531003512442,0.002402540063485503,-0.009680056944489479,0.0029944481793791056,-0.09471152722835541,0.015863362699747086,-0.17387448251247406,-0.0008947948226705194,0.0,0.0,0.0,0.0,0.0,0.0,-0.003939659334719181,-0.009007868357002735,-0.0,0.0,0.0,0.0,-0.006866385694593191,-0.01913057453930378,0.0026100543327629566,14244.0,14002.0,13354.0,13231.0,0.4554993212223053,0.4392501413822174,0.397227019071579,0.3894664943218231,0.0,0.0,0.0,0.0,0.0,0.0,0.0,0.0,1.7322102785110474,0.04903598548618926,0.22919192808783762,0.08529696532246145,0.03759804740548134,-0.012649279087781906,0.0,0.0016939956694841385,-0.004652736708521843,0.0
270,5,-0.00023524083371739835,-0.00020430531003512442,0.002402540063485503,-0.009680056944489479,0.0029944481793791056,-0.09471152722835541,0.015863362699747086,-0.17387448251247406,-0.0008947948226705194,0.0,0.0,0.0,0.0,0.0,0.0,-0.003939659334719181,-0.009007868357002735,-0.0,0.0,0.0,0.0,-0.006866385694593191,-0.01913057453930378,0.0026100543327629566,14244.0,14002.0,13354.0,13231.0,0.4554993212223053,0.4392501413822174,0.397227019071579,0.3894664943218231,0.0,0.0,0.0,0.0,0.0,0.0,0.0,0.0,1.7322102785110474,0.04903598548618926,0.22919192808783762,0.08529696532246145,0.03759804740548134,-0.012649279087781906,0.0,0.0016939956694841385,-0.004652736708521843,0.0
275,5,-0.00037884109769947827,-0.0002745480742305517,0.003175337566062808,-0.009680056944489479,0.0029944481793791056,-0.09471152722835541,0.018474770709872246,-0.13754518330097198,-0.0005059898248873651,0.0,0.0,0.0,0.0,0.0,0.0,-0.0038502158131450415,-0.009009748697280884,-0.0,0.0,0.0,0.0,-0.004587243311107159,-0.040020450949668884,0.0037795535754412413,14011.0,14289.0,15766.0,10055.0,0.439811110496521,0.45852503180503845,0.5643049478530884,0.21588826179504395,0.0,0.0,0.0,0.0,0.0,0.0,0.0,0.0,1.7319754362106323,0.0440978228496813,0.1961096529256204,0.08826992450707817,0.0376008115708828,-0.012360424734652042,0.0,0.0016274810768663883,-0.004682793281972408,0.0
280,5,-0.00037884109769947827,-0.0002745480742305517,0.003175337566062808,-0.009680056944489479,0.0029944481793791056,-0.09471152722835541,0.018474770709872246,-0.13754518330097198,-0.0005059898248873651,0.0,0.0,0.0,0.0,0.0,0.0,-0.0038502158131450415,-0.009009748697280884,-0.0,0.0,0.0,0.0,-0.004587243311107159,-0.040020450949668884,0.0037795535754412413,14011.0,14289.0,15766.0,10055.0,0.439811110496521,0.45852503180503845,0.5643049478530884,0.21588826179504395,0.0,0.0,0.0,0.0,0.0,0.0,0.0,0.0,1.7319754362106323,0.0440978228496813,0.1961096529256204,0.08826992450707817,0.0376008115708828,-0.012360424734652042,0.0,0.0016274810768663883,-0.004682793281972408,0.0
286,5,-0.0005912236520089209,-0.00030496003455482423,0.004062162712216377,-0.02935793250799179,0.004847212228924036,-0.1443036049604416,0.018922021612524986,-0.10913164913654327,0.00038776861038058996,0.0,0.0,0.0,0.0,0.0,0.0,-0.003965564072132111,-0.009187060408294201,-0.0,0.0,0.0,0.0,-0.002692315261811018,-0.052626680582761765,0.0004910352872684598,12017.0,15674.0,16874.0,8599.0,0.3171524107456207,0.5574281215667725,0.6508824825286865,0.15323993563652039,0.0,0.0,0.0,0.0,0.0,0.0,0.0,0.0,1.7342876195907593,0.04176409092708339,0.16026250829088182,0.09195942273477492,0.03839194029569626,-0.012747720815241337,0.0,-0.003939659334719181,-0.009007868357002735,0.0
291,5,-0.0005912236520089209,-0.00030496003455482423,0.004062162712216377,-0.02935793250799179,0.004847212228924036,-0.1443036049604416,0.018922021612524986,-0.10913164913654327,0.00038776861038058996,0.0,0.0,0.0,0.0,0.0,0.0,-0.003965564072132111,-0.009187060408294201,-0.0,0.0,0.0,0.0,-0.002692315261811018,-0.052626680582761765,0.0004910352872684598,12017.0,15674.0,16874.0,8599.0,0.3171524107456207,0.5574281215667725,0.6508824825286865,0.15323993563652039,0.0,0.0,0.0,0.0,0.0,0.0,0.0,0.0,1.7342876195907593,0.04176409092708339,0.16026250829088182,0.09195942273477492,0.03839194029569626,-0.012747720815241337,0.0,-0.003939659334719181,-0.009007868357002735,0.0
296,5,-0.0006544736097566783,-0.00038348892121575773,0.004618956707417965,-0.02935793250799179,0.004847212228924036,-0.1443036049604416,0.017363552004098892,-0.06444249302148819,-0.00018894336244557053,0.0,0.0,0.0,0.0,0.0,0.0,-0.005561016034334898,-0.024413445964455605,-0.0,0.0,0.0,0.0,-0.003430427983403206,-0.05619684234261513,0.003551031230017543,10593.0,16809.0,17412.0,8511.0,0.24171486496925354,0.6456372737884521,0.6950777769088745,0.14978036284446716,0.0,0.0,0.0,0.0,0.0,0.0,0.0,0.0,1.9271090030670166,0.0346513830450501,0.13067701519535926,0.09246721848280368,0.1133541464805603,-0.01986391842365265,0.0,-0.0038502158131450415,-0.009009748697280884,0.0
301,5,-0.0006544736097566783,-0.00038348892121575773,0.004618956707417965,-0.02935793250799179,0.004847212228924036,-0.1443036049604416,0.017363552004098892,-0.06444249302148819,-0.00018894336244557053,0.0,0.0,0.0,0.0,0.0,0.0,-0.005561016034334898,-0.024413445964455605,-0.0,0.0,0.0,0.0,-0.003430427983403206,-0.05619684234261513,0.003551031230017543,10593.0,16809.0,17412.0,8511.0,0.24171486496925354,0.6456372737884521,0.6950777769088745,0.14978036284446716,0.0,0.0,0.0,0.0,0.0,0.0,0.0,0.0,1.9271090030670166,0.0346513830450501,0.13067701519535926,0.09246721848280368,0.1133541464805603,-0.01986391842365265,0.0,-0.0038502158131450415,-0.009009748697280884,0.0
306,5,-0.0007843156345188618,-0.0004660571867134422,0.005233886186033487,-0.027324216440320015,0.011847077868878841,-0.13151298463344574,0.016125857830047607,-0.037066373974084854,0.000724994984921068,0.0,0.0,0.0,0.0,0.0,0.0,-0.005679188761860132,-0.024475442245602608,-0.0,0.0,0.0,0.0,-0.002446593949571252,-0.04886273667216301,-0.0012132399715483189,10961.0,16706.0,17815.0,7266.0,0.2602177858352661,0.6373612284660339,0.7292253375053406,0.1051710695028305,0.0,0.0,0.0,0.0,0.0,0.0,0.0,0.0,1.9281679391860962,0.029353448156027275,0.1078352719189656,0.09544426439218297,0.11370431631803513,-0.02029716968536377,0.0,-0.003965564072132111,-0.009187060408294201,0.0
311,5,-0.0007843156345188618,-0.0004660571867134422,0.005233886186033487,-0.027324216440320015,0.011847077868878841,-0.13151298463344574,0.016125857830047607,-0.037066373974084854,0.000724994984921068,0.0,0.0,0.0,0.0,0.0,0.0,-0.005679188761860132,-0.024475442245602608,-0.0,0.0,0.0,0.0,-0.002446593949571252,-0.04886273667216301,-0.0012132399715483189,10961.0,16706.0,17815.0,7266.0,0.2602177858352661,0.6373612284660339,0.7292253375053406,0.1051710695028305,0.0,0.0,0.0,0.0,0.0,0.0,0.0,0.0,1.9281679391860962,0.029353448156027275,0.1078352719189656,0.09544426439218297,0.11370431631803513,-0.02029716968536377,0.0,-0.003965564072132111,-0.009187060408294201,0.0
316,5,-0.00085423793643713,-0.0006126799853518605,0.005549198482185602,-0.01932036317884922,0.022333569824695587,-0.09044265747070312,0.014873477630317211,-0.004012970719486475,-0.00013797219435218722,0.0,0.0,0.0,0.0,0.0,0.0,-0.013131347484886646,-0.02295347861945629,-0.0,0.0,0.0,0.0,-0.004614497534930706,-0.037282392382621765,0.00393828796222806,13389.0,16263.0,17228.0,10669.0,0.3994263708591461,0.6023892760276794,0.6798065900802612,0.2454867959022522,0.0,0.0,0.0,0.0,0.0,0.0,0.0,0.0,1.9311903715133667,0.02844699223418749,0.09465207314374063,0.09538605705409835,0.10679475218057632,-0.04700242355465889,0.0,-0.005561016034334898,-0.024413445964455605,0.0
321,5,-0.00085423793643713,-0.0006126799853518605,0.005549198482185602,-0.01932036317884922,0.022333569824695587,-0.09044265747070312,0.014873477630317211,-0.004012970719486475,-0.00013797219435218722,0.0,0.0,0.0,0.0,0.0,0.0,-0.013131347484886646,-0.02295347861945629,-0.0,0.0,0.0,0.0,-0.004614497534930706,-0.037282392382621765,0.00393828796222806,13389.0,16263.0,17228.0,10669.0,0.3994263708591461,0.6023892760276794,0.6798065900802612,0.2454867959022522,0.0,0.0,0.0,0.0,0.0,0.0,0.0,0.0,1.9311903715133667,0.02844699223418749,0.09465207314374063,0.09538605705409835,0.10679475218057632,-0.04700242355465889,0.0,-0.005561016034334898,-0.024413445964455605,0.0
326,5,-0.0007696760585531592,-0.000736416142899543,0.00576271815225482,-0.01932036317884922,0.022333569824695587,-0.09044265747070312,0.015142355114221573,0.017758846282958984,0.00020348848192952573,0.0,0.0,0.0,0.0,0.0,0.0,-0.024353638291358948,-0.01659332402050495,-0.0,0.0,0.0,0.0,-0.004060402978211641,-0.01986546628177166,-0.0025922362692654133,13423.0,16241.0,15270.0,13372.0,0.40160447359085083,0.6007013320922852,0.5275378227233887,0.3983244299888611,0.0,0.0,0.0,0.0,0.0,0.0,0.0,0.0,1.9306339025497437,0.026563624151844753,0.09376340820499621,0.09663935561217721,0.07716786861419678,-0.08713533729314804,0.0,-0.005679188761860132,-0.024475442245602608,0.0
331,5,-0.0007696760585531592,-0.000736416142899543,0.00576271815225482,-0.01932036317884922,0.022333569824695587,-0.09044265747070312,0.015142355114221573,0.017758846282958984,0.00020348848192952573,0.0,0.0,0.0,0.0,0.0,0.0,-0.024353638291358948,-0.01659332402050495,-0.0,0.0,0.0,0.0,-0.004060402978211641,-0.01986546628177166,-0.0025922362692654133,13423.0,16241.0,15270.0,13372.0,0.40160447359085083,0.6007013320922852,0.5275378227233887,0.3983244299888611,0.0,0.0,0.0,0.0,0.0,0.0,0.0,0.0,1.9306339025497437,0.026563624151844753,0.09376340820499621,0.09663935561217721,0.07716786861419678,-0.08713533729314804,0.0,-0.005679188761860132,-0.024475442245602608,0.0
336,5,-0.0007151049794629216,-0.0008746781968511641,0.00576432142406702,-0.01932036317884922,0.022333569824695587,-0.09044265747070312,0.015337266027927399,0.014906797558069229,0.001234536524862051,0.0,0.0,0.0,0.0,0.0,0.0,-0.0245379488915205,-0.01648946851491928,-0.0,0.0,0.0,0.0,-0.006349554285407066,0.001110413228161633,0.0009710044250823557,14853.0,15188.0,13735.0,14748.0,0.4976505935192108,0.5216346383094788,0.4216478168964386,0.4902573525905609,0.0,0.0,0.0,0.0,0.0,0.0,0.0,0.0,1.9311598539352417,0.024105656105771416,0.09834282380848182,0.09728663295737147,0.07670547068119049,-0.08781846612691879,0.0,-0.013131347484886646,-0.02295347861945629,0.0
342,5,-0.0007151049794629216,-0.0008746781968511641,0.00576432142406702,-0.01932036317884922,0.022333569824695587,-0.09044265747070312,0.015337266027927399,0.014906797558069229,0.001234536524862051,0.0,0.0,0.0,0.0,0.0,0.0,-0.0245379488915205,-0.01648946851491928,-0.0,0.0,0.0,0.0,-0.006349554285407066,0.001110413228161633,0.0009710044250823557,14853.0,15188.0,13735.0,14748.0,0.4976505935192108,0.5216346383094788,0.4216478168964386,0.4902573525905609,0.0,0.0,0.0,0.0,0.0,0.0,0.0,0.0,1.9311598539352417,0.024105656105771416,0.09834282380848182,0.09728663295737147,0.07670547068119049,-0.08781846612691879,0.0,-0.013131347484886646,-0.02295347861945629,0.0
347,5,-0.0005946081946603954,-0.000985453836619854,0.005690074060112238,0.006731467787176371,0.022226501256227493,-0.027267392724752426,0.015448384918272495,0.0036053010262548923,0.00042595883132889867,0.0,0.0,0.0,0.0,0.0,0.0,-0.024739012122154236,-0.0164173673838377,-0.0,0.0,0.0,0.0,-0.007673921994864941,0.014747561886906624,-0.0008513059001415968,16303.0,13846.0,13306.0,14915.0,0.6054971814155579,0.42892181873321533,0.3941727578639984,0.5020420551300049,0.0,0.0,0.0,0.0,0.0,0.0,0.0,0.0,1.9321235418319702,0.02093910080382166,0.10901238048295762,0.09733835059192301,0.07640783488750458,-0.08858196437358856,0.0,-0.024353638291358948,-0.01659332402050495,0.0
352,5,-0.00039521866710856557,-0.0010717518161982298,0.005392112303525209,0.026619328185915947,0.01924636773765087,0.02484845742583275,0.015448384918272495,0.0036053010262548923,0.00042595883132889867,0.0,0.0,0.0,0.0,0.0,0.0,-0.024739012122154236,-0.0164173673838377,-0.0,0.0,0.0,0.0,-0.007673921994864941,0.014747561886906624,-0.0008513059001415968,16303.0,13846.0,13306.0,14915.0,0.6054971814155579,0.42892181873321533,0.3941727578639984,0.5020420551300049,0.0,0.0,0.0,0.0,0.0,0.0,0.0,0.0,1.9321235418319702,0.020132961765602298,0.12267843230991,0.098393285591766,0.07640783488750458,-0.08858196437358856,0.0,-0.024353638291358948,-0.01659332402050495,0.0
357,5,-0.00039521866710856557,-0.0010717518161982298,0.005392112303525209,0.026619328185915947,0.01924636773765087,0.02484845742583275,0.014628608711063862,-0.006622761953622103,0.0007264862069860101,0.0,0.0,0.0,0.0,0.0,0.0,-0.021584121510386467,0.020759113132953644,-0.0,0.0,0.0,0.0,-0.006003463175147772,0.02424227073788643,-0.0013875002041459084,15808.0,14190.0,11602.0,16459.0,0.56747967004776,0.4518473446369171,0.2941303253173828,0.6177024841308594,0.0,0.0,0.0,0.0,0.0,0.0,0.0,0.0,1.9522178173065186,0.020132961765602298,0.12267843230991,0.098393285591766,-0.09762400388717651,-0.07809261232614517,-0.0,-0.0245379488915205,-0.01648946851491928,0.0
362,5,-0.00020663799659814686,-0.0011631357483565807,0.005180432461202145,0.03327741101384163,0.018664611503481865,0.03534097969532013,0.014628608711063862,-0.006622761953622103,0.0007264862069860101,0.0,0.0,0.0,0.0,0.0,0.0,-0.021584121510386467,0.020759113132953644,-0.0,0.0,0.0,0.0,-0.006003463175147772,0.02424227073788643,-0.0013875002041459084,15808.0,14190.0,11602.0,16459.0,0.56747967004776,0.4518473446369171,0.2941303253173828,0.6177024841308594,0.0,0.0,0.0,0.0,0.0,0.0,0.0,0.0,1.9522178173065186,0.021523803320550546,0.1309347889669861,0.09768866993415379,-0.09762400388717651,-0.07809261232614517,-0.0,-0.0245379488915205,-0.01648946851491928,0.0
367,5,-0.00020663799659814686,-0.0011631357483565807,0.005180432461202145,0.03327741101384163,0.018664611503481865,0.03534097969532013,0.013372665271162987,-0.020851334556937218,6.761005352018401e-05,0.0,0.0,0.0,0.0,0.0,0.0,-0.020588716492056847,0.02562675066292286,-0.0,0.0,0.0,0.0,-0.006264891009777784,0.023807236924767494,-0.0006119927857071161,16447.0,13437.0,12633.0,15708.0,0.6167835593223572,0.4024595022201538,0.3528984785079956,0.5599820613861084,0.0,0.0,0.0,0.0,0.0,0.0,0.0,0.0,2.0026819705963135,0.021523803320550546,0.1309347889669861,0.09768866993415379,-0.12362828105688095,-0.0764177143573761,-0.0,-0.024739012122154236,-0.0164173673838377,0.0
372,5,-8.826690464047715e-05,-0.001237581018358469,0.00506762508302927,0.03327741101384163,0.018664611503481865,0.03534097969532013,0.013372665271162987,-0.020851334556937218,6.761005352018401e-05,0.0,0.0,0.0,0.0,0.0,0.0,-0.020588716492056847,0.02562675066292286,-0.0,0.0,0.0,0.0,-0.006264891009777784,0.023807236924767494,-0.0006119927857071161,16447.0,13437.0,12633.0,15708.0,0.6167835593223572,0.4024595022201538,0.3528984785079956,0.5599820613861084,0.0,0.0,0.0,0.0,0.0,0.0,0.0,0.0,2.0026819705963135,0.019017642880114316,0.137432562267781,0.09716684202269164,-0.12362828105688095,-0.0764177143573761,-0.0,-0.024739012122154236,-0.0164173673838377,0.0
377,5,-8.826690464047715e-05,-0.001237581018358469,0.00506762508302927,0.03327741101384163,0.018664611503481865,0.03534097969532013,0.01222115010023117,-0.02770996280014515,0.0003470406518317759,0.0,0.0,0.0,0.0,0.0,0.0,-0.02068057470023632,0.02573726326227188,-0.0,0.0,0.0,0.0,-0.005612147971987724,0.018928630277514458,-4.246095704729669e-05,16611.0,13280.0,12060.0,16365.0,0.6297786831855774,0.3925169110298157,0.3195512890815735,0.610370934009552,0.0,0.0,0.0,0.0,0.0,0.0,0.0,0.0,2.004584312438965,0.019017642880114316,0.137432562267781,0.09716684202269164,-0.12427901476621628,-0.07683148980140686,-0.0,-0.024739012122154236,-0.0164173673838377,0.0
382,5,-0.0001309960352955386,-0.0011638789437711239,0.005191885866224766,0.00818346906453371,-0.0013784043258056045,-0.000774901534896344,0.01222115010023117,-0.02770996280014515,0.0003470406518317759,0.0,0.0,0.0,0.0,0.0,0.0,-0.02068057470023632,0.02573726326227188,-0.0,0.0,0.0,0.0,-0.005612147971987724,0.018928630277514458,-4.246095704729669e-05,16611.0,13280.0,12060.0,16365.0,0.6297786831855774,0.3925169110298157,0.3195512890815735,0.610370934009552,0.0,0.0,0.0,0.0,0.0,0.0,0.0,0.0,2.004584312438965,0.022485250415408477,0.1445300848942392,0.09523081012925204,-0.12427901476621628,-0.07683148980140686,-0.0,-0.024739012122154236,-0.0164173673838377,0.0
388,5,-0.0001309960352955386,-0.0011638789437711239,0.005191885866224766,0.00818346906453371,-0.0013784043258056045,-0.000774901534896344,0.011328618973493576,-0.031603582203388214,0.000522712420206517,0.0,0.0,0.0,0.0,0.0,0.0,-0.0004011724959127605,0.007281756494194269,-0.0,0.0,0.0,0.0,-0.005704945418983698,0.020059136673808098,0.000998118193820119,16608.0,13335.0,13536.0,15137.0,0.6294940710067749,0.3959873914718628,0.40879687666893005,0.5179394483566284,0.0,0.0,0.0,0.0,0.0,0.0,0.0,0.0,1.7064200639724731,0.022485250415408477,0.1445300848942392,0.09523081012925204,-0.029941264539957047,-0.0012688948772847652,0.0,-0.021584121510386467,0.020759113132953644,0.0
393,5,-0.0001053789455909282,-0.0013648715103045106,0.005260641220957041,0.00818346906453371,-0.0013784043258056045,-0.000774901534896344,0.011328618973493576,-0.031603582203388214,0.000522712420206517,0.0,0.0,0.0,0.0,0.0,0.0,-0.0004011724959127605,0.007281756494194269,-0.0,0.0,0.0,0.0,-0.005704945418983698,0.020059136673808098,0.000998118193820119,16608.0,13335.0,13536.0,15137.0,0.6294940710067749,0.3959873914718628,0.40879687666893005,0.5179394483566284,0.0,0.0,0.0,0.0,0.0,0.0,0.0,0.0,1.7064200639724731,0.01945111861268841,0.13355199481538774,0.09736152769545271,-0.029941264539957047,-0.0012688948772847652,0.0,-0.021584121510386467,0.020759113132953644,0.0
398,5,-0.0001053789455909282,-0.0013648715103045106,0.005260641220957041,0.00818346906453371,-0.0013784043258056045,-0.000774901534896344,0.011328618973493576,-0.031603582203388214,0.000522712420206517,0.0,0.0,0.0,0.0,0.0,0.0,-0.0007519397768191993,0.007313562091439962,-0.0,0.0,0.0,0.0,-0.005704945418983698,0.020059136673808098,0.000998118193820119,16608.0,13335.0,13536.0,15137.0,0.6294940710067749,0.3959873914718628,0.40879687666893005,0.5179394483566284,0.0,0.0,0.0,0.0,0.0,0.0,0.0,0.0,1.706973671913147,0.01945111861268841,0.13355199481538774,0.09736152769545271,-0.030081789940595627,-0.0023791310377418995,0.0,-0.021584121510386467,0.020759113132953644,0.0
403,5,-0.0002456500369589776,-0.0014378490159288049,0.005545520223677158,-0.013559143990278244,0.008205941878259182,-0.034495480358600616,0.0109565369784832,-0.029196467250585556,0.000620046048425138,0.0,0.0,0.0,0.0,0.0,0.0,-0.0007519397768191993,0.007313562091439962,-0.0,0.0,0.0,0.0,-0.0058082048781216145,0.008073924109339714,4.351748066255823e-05,15685.0,14781.0,14092.0,14980.0,0.5582330226898193,0.4925193190574646,0.4452458322048187,0.5066837668418884,0.0,0.0,0.0,0.0,0.0,0.0,0.0,0.0,1.706973671913147,0.014373793996776353,0.12666184136281275,0.09693589545563344,-0.030081789940595627,-0.0023791310377418995,0.0,-0.020588716492056847,0.02562675066292286,0.0
408,5,-0.0002456500369589776,-0.0014378490159288049,0.005545520223677158,-0.013559143990278244,0.008205941878259182,-0.034495480358600616,0.0109565369784832,-0.029196467250585556,0.000620046048425138,0.0,0.0,0.0,0.0,0.0,0.0,-0.0007519397768191993,0.007313562091439962,-0.0,0.0,0.0,0.0,-0.0058082048781216145,0.008073924109339714,4.351748066255823e-05,15685.0,14781.0,14092.0,14980.0,0.5582330226898193,0.4925193190574646,0.4452458322048187,0.5066837668418884,0.0,0.0,0.0,0.0,0.0,0.0,0.0,0.0,1.706973671913147,0.014373793996776353,0.12666184136281275,0.09693589545563344,0.05222535878419876,-0.03872683644294739,0.0,-0.020588716492056847,0.02562675066292286,0.0
413,5,-0.00034546948154456913,-0.001514323172159493,0.005741981323808432,-0.013559143990278244,0.008205941878259182,-0.034495480358600616,0.010576891712844372,-0.018761951476335526,0.001138100167736411,0.0,0.0,0.0,0.0,0.0,0.0,-0.011615093797445297,-0.01204955019056797,-0.0,0.0,0.0,0.0,-0.006354558747261763,-0.004460930358618498,0.0018260387005284429,15596.0,14979.0,15485.0,13447.0,0.5515506267547607,0.50658118724823,0.5433557033538818,0.4030967950820923,0.0,0.0,0.0,0.0,0.0,0.0,0.0,0.0,1.798864722251892,0.018760467966211107,0.11142123299297468,0.09796405672306106,0.05222535878419876,-0.03872683644294739,0.0,-0.02068057470023632,0.02573726326227188,0.0
418,5,-0.00034546948154456913,-0.001514323172159493,0.005741981323808432,-0.013559143990278244,0.008205941878259182,-0.034495480358600616,0.010576891712844372,-0.018761951476335526,0.001138100167736411,0.0,0.0,0.0,0.0,0.0,0.0,-0.011615093797445297,-0.01204955019056797,-0.0,0.0,0.0,0.0,-0.006354558747261763,-0.004460930358618498,0.0018260387005284429,15596.0,14979.0,15485.0,13447.0,0.5515506267547607,0.50658118724823,0.5433557033538818,0.4030967950820923,0.0,0.0,0.0,0.0,0.0,0.0,0.0,0.0,1.798864722251892,0.018760467966211107,0.11142123299297468,0.09796405672306106,0.05222535878419876,-0.03872683644294739,0.0,-0.02068057470023632,0.02573726326227188,0.0
423,5,-0.00044971739407628775,-0.0016473428113386035,0.00595809705555439,-0.013559143990278244,0.008205941878259182,-0.034495480358600616,0.010722718201577663,-0.008580292575061321,0.0013286308385431767,0.0,0.0,0.0,0.0,0.0,0.0,-0.011731017380952835,-0.01216425746679306,-0.0,0.0,0.0,0.0,-0.00303687178529799,-0.021269800141453743,0.001116235158406198,12942.0,15010.0,15443.0,11458.0,0.3715967833995819,0.5087871551513672,0.5402795672416687,0.2863101661205292,0.0,0.0,0.0,0.0,0.0,0.0,0.0,0.0,1.8006781339645386,0.015594695675101274,0.10109597416062115,0.09839686866471237,0.05277557671070099,-0.03915274515748024,0.0,-0.0007519397768191993,0.007313562091439962,0.0
428,5,-0.00044971739407628775,-0.0016473428113386035,0.00595809705555439,-0.013559143990278244,0.008205941878259182,-0.034495480358600616,0.010722718201577663,-0.008580292575061321,0.0013286308385431767,0.0,0.0,0.0,0.0,0.0,0.0,-0.011731017380952835,-0.01216425746679306,-0.0,0.0,0.0,0.0,-0.00303687178529799,-0.021269800141453743,0.001116235158406198,12942.0,15010.0,15443.0,11458.0,0.3715967833995819,0.5087871551513672,0.5402795672416687,0.2863101661205292,0.0,0.0,0.0,0.0,0.0,0.0,0.0,0.0,1.8006781339645386,0.015594695675101274,0.10109597416062115,0.09839686866471237,0.05277557671070099,-0.03915274515748024,0.0,-0.0007519397768191993,0.007313562091439962,0.0
433,5,-0.0006365644512698054,-0.0016983200330287218,0.006438405252993107,-0.013559143990278244,0.008205941878259182,-0.034495480358600616,0.010663649998605251,0.008188732899725437,0.0020097678061574697,0.0,0.0,0.0,0.0,0.0,0.0,-0.01193639449775219,-0.012280787341296673,-0.0,0.0,0.0,0.0,-0.004766769707202911,-0.03194357454776764,0.0020804412197321653,12968.0,15803.0,16505.0,10501.0,0.37317273020744324,0.5670978426933289,0.621374785900116,0.23721930384635925,0.0,0.0,0.0,0.0,0.0,0.0,0.0,0.0,1.8030275106430054,0.01771128440458164,0.08620572668119876,0.09788707024345333,0.05335051566362381,-0.039890117943286896,0.0,-0.011615093797445297,-0.01204955019056797,0.0
438,5,-0.0006365644512698054,-0.0016983200330287218,0.006438405252993107,-0.013559143990278244,0.008205941878259182,-0.034495480358600616,0.010663649998605251,0.008188732899725437,0.0020097678061574697,0.0,0.0,0.0,0.0,0.0,0.0,-0.01193639449775219,-0.012280787341296673,-0.0,0.0,0.0,0.0,-0.004766769707202911,-0.03194357454776764,0.0020804412197321653,12968.0,15803.0,16505.0,10501.0,0.37317273020744324,0.5670978426933289,0.621374785900116,0.23721930384635925,0.0,0.0,0.0,0.0,0.0,0.0,0.0,0.0,1.8030275106430054,0.01771128440458164,0.08620572668119876,0.09788707024345333,0.05335051566362381,-0.039890117943286896,0.0,-0.011615093797445297,-0.01204955019056797,0.0
443,5,-0.0006722327088937163,-0.001900568138808012,0.006568766199052334,-0.009703847579658031,0.02755214460194111,-0.029441501945257187,0.01063385047018528,0.018597424030303955,0.0021965790074318647,0.0,0.0,0.0,0.0,0.0,0.0,-0.012004791758954525,-0.012499881908297539,-0.0,0.0,0.0,0.0,-0.004674278665333986,-0.03254655376076698,0.0013891799608245492,12725.0,15980.0,16332.0,10801.0,0.3584490418434143,0.5805711150169373,0.6077316999435425,0.2521129250526428,0.0,0.0,0.0,0.0,0.0,0.0,0.0,0.0,1.8056235313415527,0.016761239111598675,0.07762465616375386,0.10100122565297785,0.054380401968955994,-0.04017644003033638,0.0,-0.011615093797445297,-0.01204955019056797,0.0
449,5,-0.0006722327088937163,-0.001900568138808012,0.006568766199052334,-0.009703847579658031,0.02755214460194111,-0.029441501945257187,0.01063385047018528,0.018597424030303955,0.0021965790074318647,0.0,0.0,0.0,0.0,0.0,0.0,-0.012004791758954525,-0.012499881908297539,-0.0,0.0,0.0,0.0,-0.004674278665333986,-0.03254655376076698,0.0013891799608245492,12725.0,15980.0,16332.0,10801.0,0.3584490418434143,0.5805711150169373,0.6077316999435425,0.2521129250526428,0.0,0.0,0.0,0.0,0.0,0.0,0.0,0.0,1.8056235313415527,0.016761239111598675,0.07762465616375386,0.10100122565297785,0.054380401968955994,-0.04017644003033638,0.0,-0.011615093797445297,-0.01204955019056797,0.0
454,5,-0.0007460598717443645,-0.0019261551788076758,0.006600598338991404,-0.009703847579658031,0.02755214460194111,-0.029441501945257187,0.01088253315538168,0.02889292687177658,0.0024383291602134705,0.0,0.0,0.0,0.0,0.0,0.0,-0.03164204955101013,-0.008579879067838192,-0.0,0.0,0.0,0.0,-0.0052779498510062695,-0.025223689153790474,0.0007448680116795003,12986.0,15878.0,15539.0,11823.0,0.3742649555206299,0.5728196501731873,0.5473214983940125,0.3062719702720642,0.0,0.0,0.0,0.0,0.0,0.0,0.0,0.0,1.9416348934173584,0.019230962056060043,0.0807009444671417,0.1010846494922279,0.040121566504240036,-0.11384371668100357,0.0,-0.011731017380952835,-0.01216425746679306,0.0
459,5,-0.0007460598717443645,-0.0019261551788076758,0.006600598338991404,-0.009703847579658031,0.02755214460194111,-0.029441501945257187,0.01088253315538168,0.02889292687177658,0.0024383291602134705,0.0,0.0,0.0,0.0,0.0,0.0,-0.03164204955101013,-0.008579879067838192,-0.0,0.0,0.0,0.0,-0.0052779498510062695,-0.025223689153790474,0.0007448680116795003,12986.0,15878.0,15539.0,11823.0,0.3742649555206299,0.5728196501731873,0.5473214983940125,0.3062719702720642,0.0,0.0,0.0,0.0,0.0,0.0,0.0,0.0,1.9416348934173584,0.019230962056060043,0.0807009444671417,0.1010846494922279,0.040121566504240036,-0.11384371668100357,0.0,-0.011731017380952835,-0.01216425746679306,0.0
464,5,-0.0007434959406964481,-0.0020835332106798887,0.006530489306896925,-0.009703847579658031,0.02755214460194111,-0.029441501945257187,0.010901364497840405,0.031676311045885086,0.002522245980799198,0.0,0.0,0.0,0.0,0.0,0.0,-0.03167177364230156,-0.00866419356316328,-0.0,0.0,0.0,0.0,-0.004518102388828993,-0.01665368676185608,0.0007345511112362146,13701.0,15163.0,15218.0,12414.0,0.4194377362728119,0.519834041595459,0.5237745642662048,0.3399811089038849,0.0,0.0,0.0,0.0,0.0,0.0,0.0,0.0,1.9423266649246216,0.012477249844368078,0.0815629259611067,0.10168158184885301,0.04053022712469101,-0.11399118602275848,0.0,-0.01193639449775219,-0.012280787341296673,0.0
469,5,-0.0007434959406964481,-0.0020835332106798887,0.006530489306896925,-0.009703847579658031,0.02755214460194111,-0.029441501945257187,0.010901364497840405,0.031676311045885086,0.002522245980799198,0.0,0.0,0.0,0.0,0.0,0.0,-0.03167177364230156,-0.00866419356316328,-0.0,0.0,0.0,0.0,-0.004518102388828993,-0.01665368676185608,0.0007345511112362146,13701.0,15163.0,15218.0,12414.0,0.4194377362728119,0.519834041595459,0.5237745642662048,0.3399811089038849,0.0,0.0,0.0,0.0,0.0,0.0,0.0,0.0,1.9423266649246216,0.012477249844368078,0.0815629259611067,0.10168158184885301,0.04053022712469101,-0.11399118602275848,0.0,-0.01193639449775219,-0.012280787341296673,0.0
474,5,-0.0007916353642940521,-0.0021169923711568117,0.006384408567100763,-0.009658265858888626,0.0150359608232975,0.005753115750849247,0.010934833437204361,0.029893431812524796,0.0025542848743498325,0.0,0.0,0.0,0.0,0.0,0.0,-0.03188062086701393,-0.008652618154883385,-0.0,0.0,0.0,0.0,-0.008664440363645554,0.005170383490622044,0.0013509053969755769,14295.0,14720.0,14408.0,13268.0,0.45892325043678284,0.48829367756843567,0.4666307866573334,0.39177581667900085,0.0,0.0,0.0,0.0,0.0,0.0,0.0,0.0,1.9443860054016113,0.019872417886973595,0.08330539655090592,0.09944606268703829,0.04051872715353966,-0.1148640587925911,0.0,-0.03164204955101013,-0.008579879067838192,0.0
479,5,-0.0007916353642940521,-0.0021169923711568117,0.006384408567100763,-0.009658265858888626,0.0150359608232975,0.005753115750849247,0.010934833437204361,0.029893431812524796,0.0025542848743498325,0.0,0.0,0.0,0.0,0.0,0.0,-0.03188062086701393,-0.008652618154883385,-0.0,0.0,0.0,0.0,-0.008664440363645554,0.005170383490622044,0.0013509053969755769,14295.0,14720.0,14408.0,13268.0,0.45892325043678284,0.48829367756843567,0.4666307866573334,0.39177581667900085,0.0,0.0,0.0,0.0,0.0,0.0,0.0,0.0,1.9443860054016113,0.019872417886973595,0.08330539655090592,0.09944606268703829,0.04051872715353966,-0.1148640587925911,0.0,-0.03164204955101013,-0.008579879067838192,0.0
484,5,-0.0008761648205108941,-0.002094399416819215,0.006309674121439457,-0.009658265858888626,0.0150359608232975,0.005753115750849247,0.011134710162878036,0.024845534935593605,0.002972735557705164,0.0,0.0,0.0,0.0,0.0,0.0,-0.02001878432929516,-0.009182299487292767,-0.0,0.0,0.0,0.0,-0.008478640578687191,0.00963110476732254,-0.0004315069818403572,15884.0,14527.0,14099.0,14131.0,0.5732390880584717,0.4748328924179077,0.4456881284713745,0.4478747844696045,0.0,0.0,0.0,0.0,0.0,0.0,0.0,0.0,1.836030125617981,0.013601986749839085,0.09528757630642852,0.0963794391453005,0.04061533510684967,-0.06811980158090591,-0.0,-0.03167177364230156,-0.00866419356316328,0.0
489,5,-0.0008761648205108941,-0.002094399416819215,0.006309674121439457,-0.009658265858888626,0.0150359608232975,0.005753115750849247,0.011134710162878036,0.024845534935593605,0.002972735557705164,0.0,0.0,0.0,0.0,0.0,0.0,-0.02001878432929516,-0.009182299487292767,-0.0,0.0,0.0,0.0,-0.008478640578687191,0.00963110476732254,-0.0004315069818403572,15884.0,14527.0,14099.0,14131.0,0.5732390880584717,0.4748328924179077,0.4456881284713745,0.4478747844696045,0.0,0.0,0.0,0.0,0.0,0.0,0.0,0.0,1.836030125617981,0.013601986749839085,0.09528757630642852,0.0963794391453005,0.04061533510684967,-0.06811980158090591,-0.0,-0.03167177364230156,-0.00866419356316328,0.0
494,5,-0.0008465841528959572,-0.0021545724011957645,0.006151003297418356,-0.0003136279992759228,0.013235161080956459,0.021341722458600998,0.011230874806642532,0.015095205046236515,0.0028683142736554146,0.0,0.0,0.0,0.0,0.0,0.0,-0.019980471581220627,-0.009286263957619667,-0.0,0.0,0.0,0.0,-0.008411113172769547,0.011435449123382568,-0.0002852271718438715,15712.0,14614.0,13404.0,14899.0,0.5602378249168396,0.4808309078216553,0.4003409147262573,0.5009169578552246,0.0,0.0,0.0,0.0,0.0,0.0,0.0,0.0,1.8363924026489258,0.011372693501349304,0.10423395207385044,0.09613493042655392,0.04108331352472305,-0.06800287216901779,-0.0,-0.03188062086701393,-0.008652618154883385,0.0
