timestamp,dt,pos_x,pos_y,pos_z,vel_x,vel_y,vel_z,roll,pitch,yaw,agv_x,agv_y,agv_z,x_ref,y_ref,z_ref,roll_ref,pitch_ref,yaw_ref,x_vel_ref,y_vel_ref,z_vel_ref,x_torque,y_torque,z_torque,w0,w1,w2,w3,u0,u1,u2,u3,m0req,m1req,m2req,m3req,thrust0,thrust1,thrust2,thrust3,thrust_ref,roll_vicon,pitch_vicon,yaw_vicon,acc_x,acc_y,acc_z
5,5,0.0,0.0,0.0,0.0021899717394262552,0.00017168679914902896,-0.0013058866607025266,-0.016549304127693176,-0.08721061795949936,0.003290668362751603,0.0010500968201085925,0.003019658150151372,0.0020678224973380566,0.0,0.0,0.0,-0.00021075760014355183,0.0020679584704339504,-0.0,0.0,0.0,0.0,0.001640062895603478,0.008770761080086231,0.0003220561193302274,1495.0,1495.0,1495.0,1495.0,0.0,0.0,0.0,0.0,0.0,0.0,0.0,0.0,1495.0,1495.0,1495.0,1495.0,1.6480727195739746,-0.013491393430663013,0.11241022994805772,-0.014300332413348974,-0.008212394081056118,-0.000643825507722795,0.0
30,25,0.0,0.0,0.0,-0.0019234322244301438,0.00045718852197751403,0.00041302386671304703,-0.016549304127693176,-0.08721061795949936,0.003290668362751603,0.0010500968201085925,0.003019658150151372,0.0020678224973380566,0.0,0.0,0.0,-0.00021075760014355183,0.0020679584704339504,-0.0,0.0,0.0,0.0,0.001640062895603478,0.008770761080086231,0.0003220561193302274,1495.0,1495.0,1495.0,1495.0,0.0,0.0,0.0,0.0,0.0,0.0,0.0,0.0,1495.0,1495.0,1495.0,1495.0,1.6480727195739746,-0.014300306119504324,0.1121084133994298,-0.01419260318409286,-0.008212394081056118,-0.000643825507722795,0.0
35,5,0.0,0.0,0.0,-0.0025200608652085066,0.0021360672544687986,0.0001217265089508146,-0.016549304127693176,-0.08721061795949936,0.003290668362751603,0.0010500968201085925,0.003019658150151372,0.0020678224973380566,0.0,0.0,0.0,-0.0005619906587526202,-0.001818727352656424,-0.0,0.0,0.0,0.0,0.001640062895603478,0.008770761080086231,0.0003220561193302274,1495.0,1495.0,1495.0,1495.0,0.0,0.0,0.0,0.0,0.0,0.0,0.0,0.0,1495.0,1495.0,1495.0,1495.0,1.6458450555801392,-0.012769125391919644,0.11251714416491268,-0.01445850602500971,0.007212870754301548,-0.0017144569428637624,0.0
40,5,0.0,0.0,0.0,-0.001425041351467371,-0.0008996400283649564,-0.0003638913622125983,-0.01653355360031128,-0.08723802864551544,0.003288858337327838,0.0014703477500006557,0.0032102237455546856,0.0024012180510908365,0.0,0.0,0.0,-0.0005619906587526202,-0.001818727352656424,-0.0,0.0,0.0,0.0,0.0016134711913764477,0.00890516210347414,0.00028614827897399664,1495.0,1495.0,1495.0,1495.0,0.0,0.0,0.0,0.0,0.0,0.0,0.0,0.0,1495.0,1495.0,1495.0,1495.0,1.6458450555801392,-0.013560699179420621,0.11249341926666802,-0.014354490294335984,0.007212870754301548,-0.0017144569428637624,0.0
45,5,0.0,0.0,0.0,-0.001425041351467371,-0.0008996400283649564,-0.0003638913622125983,-0.01650703139603138,-0.08722169697284698,0.0033146722707897425,0.0019291725475341082,-0.0030751831363886595,0.0004249766643624753,0.0,0.0,0.0,0.001107859192416072,-0.0013498954940587282,-0.0,0.0,0.0,0.0,0.0016221008263528347,0.00894236657768488,0.00024113889958243817,1495.0,1495.0,1495.0,1495.0,0.0,0.0,0.0,0.0,0.0,0.0,0.0,0.0,1495.0,1495.0,1495.0,1495.0,1.6428847312927246,-0.013560699179420621,0.11249341926666802,-0.014354490294335984,0.005343905184417963,0.003373650135472417,0.0
50,5,0.0,0.0,0.0,-0.001425041351467371,-0.0008996400283649564,-0.0003638913622125983,-0.01650703139603138,-0.08722169697284698,0.0033146722707897425,0.0019291725475341082,-0.0030751831363886595,0.0004249766643624753,0.0,0.0,0.0,0.001107859192416072,-0.0013498954940587282,-0.0,0.0,0.0,0.0,0.0016221008263528347,0.00894236657768488,0.00024113889958243817,1495.0,1495.0,1495.0,1495.0,0.0,0.0,0.0,0.0,0.0,0.0,0.0,0.0,1495.0,1495.0,1495.0,1495.0,1.6428847312927246,-0.013560699179420621,0.11249341926666802,-0.014354490294335984,0.005343905184417963,0.003373650135472417,0.0
55,5,-1.1622589681792306e-06,-1.6365804356155422e-07,2.9207731131464243e-05,-0.0012514747213572264,0.001787168555893004,-0.005675395019352436,-0.01651044934988022,-0.08726207911968231,0.0032986633013933897,0.0036152901593595743,-0.0016062762588262558,-0.0024103831965476274,0.0,0.0,0.0,0.001107859192416072,-0.0013498954940587282,-0.0,0.0,0.0,0.0,0.001603349344804883,0.00856345146894455,0.00037523420178331435,1495.0,1495.0,1495.0,1495.0,0.0,0.0,0.0,0.0,0.0,0.0,0.0,0.0,14203.0,12695.0,13223.0,14127.0,1.6428847312927246,-0.013954776621795716,0.11275111500426156,-0.014306615363779966,0.005343905184417963,0.003373650135472417,0.0
60,5,2.012181175814476e-05,1.452417200198397e-05,-8.081085070443805e-06,0.0020534987561404705,-0.001047672238200903,0.0022044999059289694,-0.01651044934988022,-0.08726207911968231,0.0032986633013933897,0.0036152901593595743,-0.0016062762588262558,-0.0024103831965476274,0.0,0.0,0.0,0.0013110917061567307,0.001965227071195841,-0.0,0.0,0.0,0.0,0.001603349344804883,0.00856345146894455,0.00037523420178331435,1495.0,1495.0,1495.0,1495.0,0.0,0.0,0.0,0.0,0.0,0.0,0.0,0.0,14203.0,12695.0,13223.0,14127.0,1.6495393514633179,-0.016468527588613564,0.11194433982599289,-0.013942668078982038,-0.007811360526829958,0.004008704796433449,0.0
65,5,1.6138596038217656e-05,-1.860379086338071e-07,2.034328099398408e-05,0.0003434134123381227,0.001346156350336969,-0.002529124030843377,-0.01651044934988022,-0.08726207911968231,0.0032986633013933897,0.0036152901593595743,-0.0016062762588262558,-0.0024103831965476274,0.0,0.0,0.0,0.0013110917061567307,0.001965227071195841,-0.0,0.0,0.0,0.0,0.001603349344804883,0.00856345146894455,0.00037523420178331435,1495.0,1495.0,1495.0,1495.0,0.0,0.0,0.0,0.0,0.0,0.0,0.0,0.0,14203.0,12695.0,13223.0,14127.0,1.6495393514633179,-0.013399791838223946,0.11194731757214103,-0.014491752832228956,-0.007811360526829958,0.004008704796433449,0.0
70,5,1.3491905519913416e-05,-2.5857352738967165e-06,1.5623659237462562e-06,-0.0001802373881218955,0.0008264261996373534,0.0012420602142810822,-0.016512306407094002,-0.08726207166910172,0.00331832654774189,-0.002154387766495347,-0.0016521801007911563,-0.0022379644215106964,0.0,0.0,0.0,0.0013110917061567307,0.001965227071195841,-0.0,0.0,0.0,0.0,0.0017776080640032887,0.008654703386127949,0.0003342551935929805,14181.0,12666.0,13205.0,14147.0,0.45119935274124146,0.35491251945495605,0.38782864809036255,0.44894421100616455,0.0,0.0,0.0,0.0,14135.0,12717.0,13166.0,14184.0,1.6495393514633179,-0.014026427666302832,0.11190212472217949,-0.014120647979492319,-0.007811360526829958,0.004008704796433449,0.0
75,5,4.499796432355652e-06,-7.703208211751189e-06,9.651135769672692e-06,-0.0011511481134220958,0.0009446672047488391,-0.00047382834600284696,-0.016512306407094002,-0.08726207166910172,0.00331832654774189,-0.002154387766495347,-0.0016521801007911563,-0.0022379644215106964,0.0,0.0,0.0,-0.0010276938555762172,-0.00015275191981345415,-0.0,0.0,0.0,0.0,0.0017776080640032887,0.008654703386127949,0.0003342551935929805,14181.0,12666.0,13205.0,14147.0,0.45119935274124146,0.35491251945495605,0.38782864809036255,0.44894421100616455,0.0,0.0,0.0,0.0,14135.0,12717.0,13166.0,14184.0,1.634352445602417,-0.014531028765757594,0.1120404786472938,-0.014078760185518197,0.0006015670951455832,-0.003113277954980731,0.0
80,5,9.681451956566889e-06,2.0318509996286593e-05,-2.054134165518917e-05,0.00016133938333950937,-0.002984739374369383,0.003433565841987729,-0.0165130402892828,-0.08725733309984207,0.003354795044288039,-0.0031131866853684187,-0.0010259883711114526,-0.0021797330118715763,0.0,0.0,0.0,-0.0010276938555762172,-0.00015275191981345415,-0.0,0.0,0.0,0.0,0.001774393953382969,0.008607924915850163,0.00037141700158827007,14162.0,12687.0,13190.0,14161.0,0.4499182105064392,0.35616201162338257,0.38691794872283936,0.4498865604400635,0.0,0.0,0.0,0.0,14218.0,12627.0,13250.0,14103.0,1.634352445602417,-0.01619329100923313,0.11305048123588084,-0.013928008792146512,0.0006015670951455832,-0.003113277954980731,0.0
86,5,5.166751293472771e-07,-7.987134267750662e-06,1.8493790776119567e-05,-0.0010352374520152807,0.002202781615778804,-0.003310789354145527,-0.0165130402892828,-0.08725733309984207,0.003354795044288039,-0.0031131866853684187,-0.0010259883711114526,-0.0021797330118715763,0.0,0.0,0.0,-0.0027143151964992285,-0.0009753310005180538,-0.0,0.0,0.0,0.0,0.001774393953382969,0.008607924915850163,0.00037141700158827007,14162.0,12687.0,13190.0,14161.0,0.4499182105064392,0.35616201162338257,0.38691794872283936,0.4498865604400635,0.0,0.0,0.0,0.0,14218.0,12627.0,13250.0,14103.0,1.6505837440490723,-0.014050693971454628,0.11264999671070158,-0.01424268302752449,0.003879179246723652,-0.008304346352815628,0.0
91,5,2.833634971466381e-05,1.0960185136354994e-05,-3.250139343435876e-05,0.002924265805631876,-0.001392565667629242,0.004795106127858162,-0.01654963195323944,-0.0872725397348404,0.003343324176967144,0.0010243842843919992,0.005185084883123636,0.00034556188620626926,0.0,0.0,0.0,-0.0027143151964992285,-0.0009753310005180538,-0.0,0.0,0.0,0.0,0.0017947666347026825,0.009021534584462643,0.0003496446006465703,14228.0,12667.0,13203.0,14200.0,0.4544115960597992,0.3549303114414215,0.3877124488353729,0.45248499512672424,0.0,0.0,0.0,0.0,14210.0,12685.0,13183.0,14220.0,1.6505837440490723,-0.01574856519410284,0.11284991548443936,-0.01416127575455551,0.003879179246723652,-0.008304346352815628,0.0
96,5,3.0220995540730655e-05,2.4935423425631598e-05,-2.7551832317840308e-05,0.0013958640629425645,-0.0022340549621731043,0.0013240950647741556,-0.01653945818543434,-0.08729866147041321,0.003358349669724703,-0.001676760264672339,0.0029951552860438824,0.002802629489451647,0.0,0.0,0.0,0.0027789792511612177,0.0013559047365561128,-0.0,0.0,0.0,0.0,0.001565055688843131,0.008811352774500847,0.0005059043760411441,14216.0,12584.0,13192.0,14070.0,0.45360833406448364,0.3499995470046997,0.3870030641555786,0.44374150037765503,0.0,0.0,0.0,0.0,14150.0,12659.0,13115.0,14141.0,1.6530628204345703,-0.015828622413917793,0.11208211707005332,-0.01394721585653349,-0.005400930996984243,0.008514951914548874,0.0
103,7,2.973957634822e-06,-2.6772320325108012e-06,3.102001210208982e-05,-0.0014020539820194244,0.0009971651015803218,-0.0027741296216845512,-0.01653945818543434,-0.08729866147041321,0.003358349669724703,-0.001676760264672339,0.0029951552860438824,0.002802629489451647,0.0,0.0,0.0,0.0027789792511612177,0.0013559047365561128,-0.0,0.0,0.0,0.0,0.001565055688843131,0.008811352774500847,0.0005059043760411441,14216.0,12584.0,13192.0,14070.0,0.45360833406448364,0.3499995470046997,0.3870030641555786,0.44374150037765503,0.0,0.0,0.0,0.0,14150.0,12659.0,13115.0,14141.0,1.6530628204345703,-0.0139588191456088,0.11162370654542525,-0.013777748351137141,-0.005400930996984243,0.008514951914548874,0.0
108,5,1.902230542327743e-05,2.191020939790178e-05,-1.1425626325944904e-05,0.0013649801257997751,-0.00255162687972188,0.003983824513852596,-0.016537688672542572,-0.08731968700885773,0.0033611543476581573,0.001982632325962186,-0.004282390233129263,0.00043544077198021114,0.0,0.0,0.0,-0.0012325033312663436,-0.0013236517552286386,-0.0,0.0,0.0,0.0,0.0013960035284981132,0.008715450763702393,0.00038934973417781293,14243.0,12715.0,13213.0,14148.0,0.4554192125797272,0.35785022377967834,0.38834312558174133,0.4489711821079254,0.0,0.0,0.0,0.0,14215.0,12750.0,13179.0,14178.0,1.6432288885116577,-0.01655279024471247,0.11161197406622612,-0.013759639409778915,0.005241109989583492,-0.0037540022749453783,0.0
113,5,7.39948245609412e-06,-9.179124390357174e-06,9.986252734961454e-06,-0.0008487466839142144,0.0027100692968815565,-0.0009758956148289144,-0.016537688672542572,-0.08731968700885773,0.0033611543476581573,0.001982632325962186,-0.004282390233129263,0.00043544077198021114,0.0,0.0,0.0,-0.0012325033312663436,-0.0013236517552286386,-0.0,0.0,0.0,0.0,0.0013960035284981132,0.008715450763702393,0.00038934973417781293,14243.0,12715.0,13213.0,14148.0,0.4554192125797272,0.35785022377967834,0.38834312558174133,0.4489711821079254,0.0,0.0,0.0,0.0,14215.0,12750.0,13179.0,14178.0,1.6432288885116577,-0.014247911999386789,0.11216477831183423,-0.014198003217541947,0.005241109989583492,-0.0037540022749453783,0.0
119,5,1.4486007060554584e-08,-1.317952182944282e-06,3.465183908701874e-05,-0.0012256982736289501,0.00014068704331293702,-0.003350228536874056,-0.016519274562597275,-0.08732014149427414,0.003357388311997056,0.002075656084343791,-0.00582056725397706,0.0055299196392297745,0.0,0.0,0.0,-0.00332994875498116,-0.0007879855111241341,-0.0,0.0,0.0,0.0,0.0019417478470131755,0.008970282040536404,0.0004558936634566635,14278.0,12618.0,13290.0,14164.0,0.4578058123588562,0.35199421644210815,0.393179714679718,0.45008307695388794,0.0,0.0,0.0,0.0,14223.0,12680.0,13234.0,14217.0,1.6546896696090698,-0.013415169971528999,0.11363789355205742,-0.014574190701877193,0.003141841385513544,-0.010213185101747513,0.0
124,5,6.532773568324046e-06,-7.944864591991063e-06,3.5871704312739894e-05,0.0002919152029789984,0.0008515042718499899,-0.00148647534660995,-0.016519274562597275,-0.08732014149427414,0.003357388311997056,0.002075656084343791,-0.00582056725397706,0.0055299196392297745,0.0,0.0,0.0,-0.00332994875498116,-0.0007879855111241341,-0.0,0.0,0.0,0.0,0.0019417478470131755,0.008970282040536404,0.0004558936634566635,14278.0,12618.0,13290.0,14164.0,0.4578058123588562,0.35199421644210815,0.393179714679718,0.45008307695388794,0.0,0.0,0.0,0.0,14223.0,12680.0,13234.0,14217.0,1.6546896696090698,-0.01411158681721642,0.11179478834513343,-0.013809941200118515,0.003141841385513544,-0.010213185101747513,0.0
129,5,2.2418830667447764e-06,-1.1875050404341891e-05,2.4402295821346343e-05,-0.00039814074989408255,0.0008122241124510765,0.0007817388977855444,-0.01651681773364544,-0.08729120343923569,0.0033551931846886873,-0.0005130701465532184,0.0018877200782299042,0.0006331998156383634,0.0,0.0,0.0,-0.001068013603799045,0.0002870382450055331,-0.0,0.0,0.0,0.0,0.001364158233627677,0.008797984570264816,0.0002945243613794446,14195.0,12685.0,13178.0,14146.0,0.45217493176460266,0.35604849457740784,0.3861584961414337,0.4488469660282135,0.0,0.0,0.0,0.0,14204.0,12673.0,13186.0,14142.0,1.6350517272949219,-0.013696490870868926,0.11212480260909723,-0.0142689026124758,-0.001130896620452404,-0.003236806020140648,0.0
134,5,5.593759397015674e-06,-1.3838413906341884e-05,4.880812412011437e-06,0.00024296883202623576,0.0005604931502602994,0.002655273536220193,-0.01651681773364544,-0.08729120343923569,0.0033551931846886873,-0.0005130701465532184,0.0018877200782299042,0.0006331998156383634,0.0,0.0,0.0,-0.001068013603799045,0.0002870382450055331,-0.0,0.0,0.0,0.0,0.001364158233627677,0.008797984570264816,0.0002945243613794446,14195.0,12685.0,13178.0,14146.0,0.45217493176460266,0.35604849457740784,0.3861584961414337,0.4488469660282135,0.0,0.0,0.0,0.0,14204.0,12673.0,13186.0,14142.0,1.6350517272949219,-0.012863627676874498,0.11249169514495191,-0.014410977346716933,-0.001130896620452404,-0.003236806020140648,0.0
139,5,2.2483163775177673e-05,5.959562713542255e-06,-1.0939131243503653e-05,0.002123916056007147,-0.002151559805497527,0.0029605026356875896,-0.01651681773364544,-0.08729120343923569,0.0033551931846886873,-0.0005130701465532184,0.0018877200782299042,0.0006331998156383634,0.0,0.0,0.0,-0.000719904201105237,0.0002395644987700507,-0.0,0.0,0.0,0.0,0.001364158233627677,0.008797984570264816,0.0002945243613794446,14195.0,12685.0,13178.0,14146.0,0.45217493176460266,0.35604849457740784,0.3861584961414337,0.4488469660282135,0.0,0.0,0.0,0.0,14204.0,12673.0,13186.0,14142.0,1.632187843322754,-0.013825548938385291,0.11191158652754804,-0.014340124669763246,-0.0009422027505934238,-0.0021779772359877825,-0.0
144,5,5.825950665894197e-06,3.000296601385344e-06,-7.738270141999237e-06,-0.0011492990888655186,-0.0005055119981989264,0.0008000977686606348,-0.016541726887226105,-0.08730754256248474,0.0033461637794971466,-0.0018328396836295724,0.0009682265226729214,-0.002725030994042754,0.0,0.0,0.0,-0.000719904201105237,0.0002395644987700507,-0.0,0.0,0.0,0.0,0.0015734111657366157,0.008906548842787743,0.0003239795914851129,14236.0,12762.0,13185.0,14200.0,0.4549250602722168,0.3606683015823364,0.3866187334060669,0.4524775743484497,0.0,0.0,0.0,0.0,14234.0,12765.0,13182.0,14203.0,1.632187843322754,-0.01406146433939586,0.11230803432530176,-0.014332274030542408,-0.0009422027505934238,-0.0021779772359877825,-0.0
149,5,-1.8656301108421758e-05,-1.1556689969438594e-05,1.1870546586578712e-05,-0.0033975897822529078,0.0015446336474269629,-0.002033018972724676,-0.016541726887226105,-0.08730754256248474,0.0033461637794971466,-0.0018328396836295724,0.0009682265226729214,-0.002725030994042754,0.0,0.0,0.0,0.0006296244100667536,-0.0010834361892193556,-0.0,0.0,0.0,0.0,0.0015734111657366157,0.008906548842787743,0.0003239795914851129,14236.0,12762.0,13185.0,14200.0,0.4549250602722168,0.3606683015823364,0.3866187334060669,0.4524775743484497,0.0,0.0,0.0,0.0,14234.0,12765.0,13182.0,14203.0,1.6384583711624146,-0.013769664298828189,0.11189200936360379,-0.014167267205352434,0.00427750451490283,0.0019121654331684113,0.0
154,5,-6.186497557791881e-06,-6.697659955534618e-06,1.4220634511730168e-05,0.00013734046660829335,3.4769807825796306e-05,-0.0010952181182801723,-0.01654060371220112,-0.0873059555888176,0.0033354107290506363,0.001343047828413546,-0.00244269915856421,0.0009704682743176818,0.0,0.0,0.0,0.0006296244100667536,-0.0010834361892193556,-0.0,0.0,0.0,0.0,0.0016106066759675741,0.00891214981675148,0.00046370160998776555,14173.0,12640.0,13131.0,14130.0,0.45067113637924194,0.35331571102142334,0.3832467198371887,0.44781816005706787,0.0,0.0,0.0,0.0,14215.0,12591.0,13178.0,14088.0,1.6384583711624146,-0.013370803172253589,0.11258375525244535,-0.014547639199793998,0.00427750451490283,0.0019121654331684113,0.0
159,5,1.4120680134510621e-05,1.6153217075043358e-05,-3.7381937545433175e-07,0.0024917975533753633,-0.002728197490796447,0.0013132472522556782,-0.01654060371220112,-0.0873059555888176,0.0033354107290506363,0.001343047828413546,-0.00244269915856421,0.0009704682743176818,0.0,0.0,0.0,-5.5410175264114514e-05,0.0001226564054377377,-0.0,0.0,0.0,0.0,0.0016106066759675741,0.00891214981675148,0.00046370160998776555,14173.0,12640.0,13131.0,14130.0,0.45067113637924194,0.35331571102142334,0.3832467198371887,0.44781816005706787,0.0,0.0,0.0,0.0,14215.0,12591.0,13178.0,14088.0,1.6284600496292114,-0.016012840203872513,0.11192791201729377,-0.013868988815827484,-0.0004813037230633199,-0.00016725348541513085,0.0
164,5,2.225265598099213e-05,6.345070687530097e-06,2.7165860956301913e-05,0.0019725561141967773,8.569872443331406e-05,-0.002779462607577443,-0.016546742990612984,-0.08728337287902832,0.0033694077283143997,0.0017673182301223278,-0.00010563130490481853,0.003229138208553195,0.0,0.0,0.0,-5.5410175264114514e-05,0.0001226564054377377,-0.0,0.0,0.0,0.0,0.0015588324749842286,0.008750797249376774,0.00021836141240783036,14076.0,12770.0,13055.0,14231.0,0.44419336318969727,0.36115384101867676,0.3785427212715149,0.45456844568252563,0.0,0.0,0.0,0.0,14159.0,12628.0,13112.0,14130.0,1.6284600496292114,-0.013680511658140809,0.11184070195974863,-0.01396581509349727,-0.0004813037230633199,-0.00016725348541513085,0.0
169,5,4.057491969433613e-05,-9.90067928796634e-06,3.5113793273922056e-05,0.0029876939952373505,0.0019837694708257914,-0.00206553703173995,-0.016546742990612984,-0.08728337287902832,0.0033694077283143997,0.0017673182301223278,-0.00010563130490481853,0.003229138208553195,0.0,0.0,0.0,-9.388944454258308e-05,0.0018957862630486488,-0.0,0.0,0.0,0.0,0.0015588324749842286,0.008750797249376774,0.00021836141240783036,14076.0,12770.0,13055.0,14231.0,0.44419336318969727,0.36115384101867676,0.3785427212715149,0.45456844568252563,0.0,0.0,0.0,0.0,14159.0,12628.0,13112.0,14130.0,1.646146535873413,-0.013828795716195863,0.11138295578132966,-0.014194861852427972,-0.007519855629652739,-0.00028647968429140747,0.0
174,5,4.812835686607286e-05,1.0377145372331142e-05,1.0451002708578017e-05,0.0021014902740716934,-0.0016398311126977205,0.0021333200857043266,-0.01637759618461132,-0.0872662141919136,0.003333218162879348,0.007575358264148235,-0.007485395297408104,-0.014297346584498882,0.0,0.0,0.0,-9.388944454258308e-05,0.0018957862630486488,-0.0,0.0,0.0,0.0,0.0015168016543611884,0.008929489180445671,-0.00023249558580573648,13861.0,12947.0,12797.0,14368.0,0.4298803508281708,0.371882826089859,0.36275866627693176,0.4639382064342499,0.0,0.0,0.0,0.0,14139.0,12675.0,13151.0,14165.0,1.646146535873413,-0.01593019219323291,0.11104475466266686,-0.013738857121042138,-0.007519855629652739,-0.00028647968429140747,0.0
179,5,4.020212873001583e-05,1.3498024600266945e-06,-4.904972684016684e-06,-0.00011055116192437708,0.00042734865564852953,0.0026960449758917093,-0.01637759618461132,-0.0872662141919136,0.003333218162879348,0.007575358264148235,-0.007485395297408104,-0.014297346584498882,0.0,0.0,0.0,0.0020250508096069098,0.0020444882102310658,-0.0,0.0,0.0,0.0,0.0015168016543611884,0.008929489180445671,-0.00023249558580573648,13861.0,12947.0,12797.0,14368.0,0.4298803508281708,0.371882826089859,0.36275866627693176,0.4639382064342499,0.0,0.0,0.0,0.0,14139.0,12675.0,13151.0,14165.0,1.6534868478775024,-0.013501912772007374,0.11180792135083453,-0.014280610179342642,-0.008145843632519245,0.00620647007599473,-0.0
184,5,1.1390107829356566e-05,5.891097316634841e-06,2.123288322763983e-05,-0.0035016632173210382,-0.0003740159154403955,-0.0020581248681992292,-0.016331832855939865,-0.08720720559358597,0.0033507156185805798,0.027747604995965958,0.004899471066892147,-0.025147177278995514,0.0,0.0,0.0,0.0020250508096069098,0.0020444882102310658,-0.0,0.0,0.0,0.0,0.0017383095109835267,0.009102902375161648,0.00022461489425040781,13861.0,12947.0,12797.0,14368.0,0.4298803508281708,0.371882826089859,0.36275866627693176,0.4639382064342499,0.0,0.0,0.0,0.0,14273.0,12478.0,13242.0,13970.0,1.6534868478775024,-0.014097511279553408,0.11167233273641061,-0.014118804693913032,-0.008145843632519245,0.00620647007599473,-0.0
190,5,1.109941877075471e-05,2.8295637093833648e-05,-3.934666528948583e-05,-0.0014355479506775737,-0.0028381510637700558,0.006446296349167824,-0.016331832855939865,-0.08720720559358597,0.0033507156185805798,0.027747604995965958,0.004899471066892147,-0.025147177278995514,0.0,0.0,0.0,0.0020250508096069098,0.0020444882102310658,-0.0,0.0,0.0,0.0,0.0017383095109835267,0.009102902375161648,0.00022461489425040781,13861.0,12947.0,12797.0,14368.0,0.4298803508281708,0.371882826089859,0.36275866627693176,0.4639382064342499,0.0,0.0,0.0,0.0,14273.0,12478.0,13242.0,13970.0,1.6534868478775024,-0.01702812337104366,0.11132231282718176,-0.01332971861506421,0.005321670323610306,0.010798820294439793,0.0
195,5,1.5637733667972498e-05,1.7301816114922985e-05,-5.470576070365496e-05,-2.9621403882629238e-05,0.00018399790860712528,0.004421609919518232,-0.01632693223655224,-0.08739189058542252,0.0033877354580909014,-0.02287129871547222,0.018433494493365288,-0.02353867143392563,0.0,0.0,0.0,0.0035131387412548065,-0.0013317563571035862,-0.0,0.0,0.0,0.0,0.0015857715625315905,0.009046033956110477,0.0011753988219425082,14073.0,12814.0,13019.0,14342.0,0.4439902603626251,0.3637833297252655,0.3762719929218292,0.46210095286369324,0.0,0.0,0.0,0.0,13990.0,12911.0,12940.0,14407.0,1.658341884613037,-0.016165689392909643,0.11186264163250197,-0.014394207340139466,0.005321670323610306,0.010798820294439793,0.0
200,5,-8.102533683995716e-06,4.577289018925512e-06,-1.0177860531257465e-05,-0.002860680688172579,0.0016005424549803138,-0.0035747040528804064,-0.01632693223655224,-0.08739189058542252,0.0033877354580909014,-0.02287129871547222,0.018433494493365288,-0.02353867143392563,0.0,0.0,0.0,0.0035131387412548065,-0.0013317563571035862,-0.0,0.0,0.0,0.0,0.0015857715625315905,0.009046033956110477,0.0011753988219425082,14073.0,12814.0,13019.0,14342.0,0.4439902603626251,0.3637833297252655,0.3762719929218292,0.46210095286369324,0.0,0.0,0.0,0.0,13990.0,12911.0,12940.0,14407.0,1.658341884613037,-0.014290354032985585,0.11173545079369494,-0.014188414833206077,0.005321670323610306,0.010798820294439793,0.0
205,5,9.36018750508083e-06,-3.7719998999818927e-06,-1.3245661989458313e-07,0.0009512542746961117,0.0016421317122876644,-0.002635330194607377,-0.01571052335202694,-0.08757073432207108,0.0032849025446921587,0.050482723861932755,0.019905149936676025,0.05455757677555084,0.0,0.0,0.0,-0.0019434960559010506,-0.0026943690609186888,-0.0,0.0,0.0,0.0,0.001240514568053186,0.009109359234571457,0.0012905069161206484,14748.0,12177.0,13750.0,13698.0,0.4902246296405792,0.32626399397850037,0.42260733246803284,0.4192459285259247,0.0,0.0,0.0,0.0,13576.0,13408.0,12471.0,14861.0,1.6590933799743652,-0.013410665830367924,0.11139840372895068,-0.014172314600301076,0.010771556757390499,-0.005976715125143528,0.0
210,5,1.0549590115260798e-05,1.470869938202668e-05,-6.9250731939973775e-06,0.0005232300027273595,-0.001560831326059997,-0.00023901808890514076,-0.01571052335202694,-0.08757073432207108,0.0032849025446921587,0.050482723861932755,0.019905149936676025,0.05455757677555084,0.0,0.0,0.0,-0.0019434960559010506,-0.0026943690609186888,-0.0,0.0,0.0,0.0,0.001240514568053186,0.009109359234571457,0.0012905069161206484,14748.0,12177.0,13750.0,13698.0,0.4902246296405792,0.32626399397850037,0.42260733246803284,0.4192459285259247,0.0,0.0,0.0,0.0,13576.0,13408.0,12471.0,14861.0,1.6590933799743652,-0.01678624705570604,0.11113195254749489,-0.014079024409301668,0.010771556757390499,-0.005976715125143528,0.0
215,5,8.101440471364185e-06,-1.3783223039354198e-05,6.639037019340321e-05,-8.448590961052105e-05,0.0027946981135755777,-0.008893460035324097,-0.01573694683611393,-0.08763381838798523,0.0030011951457709074,0.019955435767769814,-0.036018408834934235,-0.033490896224975586,0.0,0.0,0.0,0.001948875142261386,0.000510489393491298,-0.0,0.0,0.0,0.0,0.0019235007930547,0.008432536385953426,-0.001421415712684393,13671.0,13327.0,12712.0,14712.0,0.4174739420413971,0.3955197036266327,0.35763368010520935,0.487714558839798,0.0,0.0,0.0,0.0,14456.0,12472.0,13473.0,14017.0,1.6427478790283203,-0.014494611870796809,0.11130740231241525,-0.014322948949304101,-0.0020207318011671305,0.0059342109598219395,0.0
220,5,4.030572199553717e-06,-3.0752664315514266e-05,0.0001054165477398783,-0.0005222985637374222,0.0031542121432721615,-0.008240525610744953,-0.01573694683611393,-0.08763381838798523,0.0030011951457709074,0.019955435767769814,-0.036018408834934235,-0.033490896224975586,0.0,0.0,0.0,0.001948875142261386,0.000510489393491298,-0.0,0.0,0.0,0.0,0.0019235007930547,0.008432536385953426,-0.001421415712684393,13671.0,13327.0,12712.0,14712.0,0.4174739420413971,0.3955197036266327,0.35763368010520935,0.487714558839798,0.0,0.0,0.0,0.0,14456.0,12472.0,13473.0,14017.0,1.6427478790283203,-0.014555518604770749,0.1114023770438399,-0.015036455203292207,-0.0020207318011671305,0.0059342109598219395,0.0
225,5,2.5047535018529743e-05,-4.656285909732105e-06,7.672936044400558e-05,0.0023131160996854305,-0.0018698804778978229,0.00014625198673456907,-0.015635600313544273,-0.08733092993497849,0.002848002826794982,0.009917551651597023,-0.03093455545604229,-0.029860150068998337,0.0,0.0,0.0,-0.003902330994606018,-0.00048435802455060184,-0.0,0.0,0.0,0.0,0.0014643099857494235,0.008319074288010597,-0.0006582611822523177,13784.0,13092.0,12789.0,14526.0,0.42487001419067383,0.3808037042617798,0.3622915744781494,0.4747825860977173,0.0,0.0,0.0,0.0,14344.0,12705.0,13365.0,14039.0,1.6586494445800781,-0.014838190295370491,0.11075050529935494,-0.014161074871724744,0.0019358409335836768,-0.011997347697615623,0.0
230,5,-8.831288141664118e-05,-3.535229916451499e-05,0.0002963164006359875,-0.012678002938628197,0.0029355695005506277,-0.026291944086551666,-0.015635600313544273,-0.08733092993497849,0.002848002826794982,0.009917551651597023,-0.03093455545604229,-0.029860150068998337,0.0,0.0,0.0,-0.003902330994606018,-0.00048435802455060184,-0.0,0.0,0.0,0.0,0.0014643099857494235,0.008319074288010597,-0.0006582611822523177,13784.0,13092.0,12789.0,14526.0,0.42487001419067383,0.3808037042617798,0.3622915744781494,0.4747825860977173,0.0,0.0,0.0,0.0,14344.0,12705.0,13365.0,14039.0,1.6586494445800781,-0.012417949250797958,0.1113967186949574,-0.015606746705331374,0.0019358409335836768,-0.011997347697615623,0.0
235,5,-1.5804147551534697e-05,-5.563339436776005e-05,0.00017408485291525722,0.0036298467312008142,0.003607959020882845,0.004151008557528257,-0.014536959119141102,-0.08677686750888824,0.0027983514592051506,0.16656948626041412,-0.18447348475456238,-0.061690375208854675,0.0,0.0,0.0,-0.0034385763574391603,-0.011339936405420303,-0.0,0.0,0.0,0.0,0.0004550974117591977,0.007559882942587137,-0.0007725824834778905,13613.0,13446.0,12627.0,14506.0,0.4137547016143799,0.4030330777168274,0.35256826877593994,0.4733918309211731,0.0,0.0,0.0,0.0,14165.0,12744.0,13170.0,14125.0,1.7576936483383179,-0.013858907620751156,0.10907633046767969,-0.014687739892787917,0.04802792891860008,-0.01120285876095295,0.0
240,5,-0.00021943877800367773,-0.00013011677947361022,0.0006021058652549982,-0.02298421785235405,0.010381190106272697,-0.04970211535692215,-0.014536959119141102,-0.08677686750888824,0.0027983514592051506,0.16656948626041412,-0.18447348475456238,-0.061690375208854675,0.0,0.0,0.0,-0.0034385763574391603,-0.011339936405420303,-0.0,0.0,0.0,0.0,0.0004550974117591977,0.007559882942587137,-0.0007725824834778905,13613.0,13446.0,12627.0,14506.0,0.4137547016143799,0.4030330777168274,0.35256826877593994,0.4733918309211731,0.0,0.0,0.0,0.0,14165.0,12744.0,13170.0,14125.0,1.7576936483383179,-0.016152680915860716,0.10504385365712332,-0.015550512343638913,0.04802792891860008,-0.01120285876095295,0.0
245,5,-0.00010432559065520763,-9.371876512886956e-05,0.0003524037601891905,0.004619896411895752,-0.00021528640354517847,0.010083403438329697,-0.012015189975500107,-0.08373710513114929,0.0026674261316657066,0.2939906418323517,-0.3742593824863434,-0.002634734148159623,0.0,0.0,0.0,-0.01138539519160986,-0.019308580085635185,-0.0,0.0,0.0,0.0,-0.0007769484655000269,0.005232125986367464,0.0009323058766312897,14279.0,13075.0,13478.0,13647.0,0.4578486680984497,0.3797749876976013,0.4051036834716797,0.4159221053123474,0.0,0.0,0.0,0.0,14005.0,14164.0,13399.0,14430.0,1.8786909580230713,-0.010952465871539361,0.10477240944293219,-0.015244520440064512,0.08739819377660751,-0.03964559733867645,0.0
250,5,-0.00015054146933835,-0.0001234333321917802,0.0004936596378684044,-0.0036979473661631346,0.0034796332474797964,-0.012917345389723778,-0.012015189975500107,-0.08373710513114929,0.0026674261316657066,0.2939906418323517,-0.3742593824863434,-0.002634734148159623,0.0,0.0,0.0,-0.01138539519160986,-0.019308580085635185,-0.0,0.0,0.0,0.0,-0.0007769484655000269,0.005232125986367464,0.0009323058766312897,14279.0,13075.0,13478.0,13647.0,0.4578486680984497,0.3797749876976013,0.4051036834716797,0.4159221053123474,0.0,0.0,0.0,0.0,14005.0,14164.0,13399.0,14430.0,1.8786909580230713,-0.008566902770365883,0.10200837246987327,-0.015840615623021286,0.08739819377660751,-0.03964559733867645,0.0
255,5,-0.00013760120782535523,-0.0002485193544998765,0.0006041195010766387,7.365306373685598e-05,0.016402175650000572,-0.018422123044729233,-0.009229610674083233,-0.07981041818857193,0.0023762763012200594,0.4219534993171692,-0.6629393696784973,0.025038350373506546,0.0,0.0,0.0,-0.004408492241054773,-0.0036302427761256695,-0.0,0.0,0.0,0.0,-0.0018685986287891865,0.0009619140182621777,-0.00012906022311653942,14309.0,13957.0,13961.0,13787.0,0.45989206433296204,0.43623313307762146,0.43653520941734314,0.42503324151039124,0.0,0.0,0.0,0.0,14005.0,14164.0,13399.0,14430.0,1.6800601482391357,-0.012260752633131712,0.09403797319758964,-0.016457777024726308,0.01469627395272255,-0.013728431425988674,0.0
260,5,-0.00031442998442798853,-0.00022493585129268467,0.0008436488569714129,-0.021189993247389793,0.0037308521568775177,-0.03611236810684204,-0.009229610674083233,-0.07981041818857193,0.0023762763012200594,0.4219534993171692,-0.6629393696784973,0.025038350373506546,0.0,0.0,0.0,-0.004408492241054773,-0.0036302427761256695,-0.0,0.0,0.0,0.0,-0.0018685986287891865,0.0009619140182621777,-0.00012906022311653942,14309.0,13957.0,13961.0,13787.0,0.45989206433296204,0.43623313307762146,0.43653520941734314,0.42503324151039124,0.0,0.0,0.0,0.0,14005.0,14164.0,13399.0,14430.0,1.6800601482391357,-0.004550983670355088,0.09438080580015325,-0.015984692442051147,0.01469627395272255,-0.013728431425988674,0.0
265,5,-0.00042068478069268167,-0.0002989551576320082,0.0010403644992038608,-0.02122657187283039,0.010374655947089195,-0.0380508229136467,-0.009229610674083233,-0.07981041818857193,0.0023762763012200594,0.4219534993171692,-0.6629393696784973,0.025038350373506546,0.0,0.0,0.0,-0.004454783629626036,-0.01827029511332512,-0.0,0.0,0.0,0.0,-0.0018685986287891865,0.0009619140182621777,-0.00012906022311653942,14309.0,13957.0,13961.0,13787.0,0.45989206433296204,0.43623313307762146,0.43653520941734314,0.42503324151039124,0.0,0.0,0.0,0.0,14005.0,14164.0,13399.0,14430.0,1.844397783279419,-0.0026916951586129913,0.0889787522172937,-0.01613872726958041,0.08119393140077591,-0.015229552984237671,0.0
270,5,-0.0006925167399458587,-0.0003950312384404242,0.0015568913659080863,-0.04111046344041824,0.015678994357585907,-0.07720354944467545,-0.0033570800442248583,-0.07099789381027222,0.0025415357667952776,0.5713643431663513,-0.8497248291969299,-0.028148867189884186,0.0,0.0,0.0,-0.004454783629626036,-0.01827029511332512,-0.0,0.0,0.0,0.0,-0.003969117999076843,-0.0026340291369706392,-0.0003675662446767092,14341.0,15086.0,14206.0,14155.0,0.46205589175224304,0.5142519474029541,0.4529002606868744,0.44948282837867737,0.0,0.0,0.0,0.0,13834.0,14098.0,13602.0,13291.0,1.844397783279419,-0.0002745307744269051,0.08418693685461374,-0.017174390646260373,0.08119393140077591,-0.015229552984237671,0.0
276,5,-0.0006325973081402481,-0.0004626881855074316,0.0014718660386279225,-0.009253854863345623,0.014390429481863976,-0.020678382366895676,-0.0033570800442248583,-0.07099789381027222,0.0025415357667952776,0.5713643431663513,-0.8497248291969299,-0.028148867189884186,0.0,0.0,0.0,-0.015959473326802254,-0.03181525319814682,-0.0,0.0,0.0,0.0,-0.003969117999076843,-0.0026340291369706392,-0.0003675662446767092,14341.0,15086.0,14206.0,14155.0,0.46205589175224304,0.5142519474029541,0.4529002606868744,0.44948282837867737,0.0,0.0,0.0,0.0,13834.0,14098.0,13602.0,13291.0,2.061279058456421,0.002752861047590825,0.07857107118254802,-0.016779056159827388,0.15797759592533112,-0.06097199395298958,0.0
281,5,-0.0007648312603123486,-0.0005528995534405112,0.001691055833362043,-0.01956961303949356,0.016581537202000618,-0.03457413241267204,0.0014041659887880087,-0.06367500126361847,0.002682135906070471,0.6560738682746887,-0.9809634685516357,0.0599367655813694,0.0,0.0,0.0,-0.015959473326802254,-0.03181525319814682,-0.0,0.0,0.0,0.0,-0.004706646781414747,-0.003387696575373411,0.0016800229204818606,14500.0,13536.0,14346.0,12344.0,0.4729631245136261,0.40878358483314514,0.46242478489875793,0.33588865399360657,0.0,0.0,0.0,0.0,14627.0,14676.0,14725.0,13221.0,2.061279058456421,0.005354707416082876,0.07238389593798217,-0.01714646974813144,0.15797759592533112,-0.06097199395298958,0.0
286,5,-0.001021948759444058,-0.0006491789827123284,0.0021395094227045774,-0.03868194296956062,0.018186144530773163,-0.06764407455921173,0.0014041659887880087,-0.06367500126361847,0.002682135906070471,0.6560738682746887,-0.9809634685516357,0.0599367655813694,0.0,0.0,0.0,-0.01859595626592636,-0.017020046710968018,-0.0,0.0,0.0,0.0,-0.004706646781414747,-0.003387696575373411,0.0016800229204818606,14500.0,13536.0,14346.0,12344.0,0.4729631245136261,0.40878358483314514,0.46242478489875793,0.33588865399360657,0.0,0.0,0.0,0.0,14627.0,14676.0,14725.0,13221.0,1.8925358057022095,0.004790306059278913,0.06458984702224002,-0.017888833036063,0.07759981602430344,-0.06522674113512039,0.0
291,5,-0.0009678092319518328,-0.0006796560483053327,0.001954764360561967,-0.008976041339337826,0.010931707918643951,-0.004888229072093964,0.00927512813359499,-0.05150030925869942,0.002677451353520155,0.6506428122520447,-1.0481313467025757,-0.022331738844513893,0.0,0.0,0.0,-0.01859595626592636,-0.017020046710968018,-0.0,0.0,0.0,0.0,-0.0053502945229411125,-0.0065630655735731125,-0.0003220444486942142,14077.0,15249.0,14311.0,13620.0,0.4442157745361328,0.5260107517242432,0.46000009775161743,0.41417109966278076,0.0,0.0,0.0,0.0,14184.0,15127.0,14422.0,13528.0,1.8925358057022095,0.010311953920762873,0.06213048862941643,-0.01732286379467435,0.07759981602430344,-0.06522674113512039,0.0
296,5,-0.00108171789906919,-0.0007523823878727853,0.0020595139358192682,-0.017259448766708374,0.013099845498800278,-0.014525246806442738,0.00927512813359499,-0.05150030925869942,0.002677451353520155,0.6506428122520447,-1.0481313467025757,-0.022331738844513893,0.0,0.0,0.0,-0.01352981198579073,-0.009071392938494682,-0.0,0.0,0.0,0.0,-0.0053502945229411125,-0.0065630655735731125,-0.0003220444486942142,14077.0,15249.0,14311.0,13620.0,0.4442157745361328,0.5260107517242432,0.46000009775161743,0.41417109966278076,0.0,0.0,0.0,0.0,14184.0,15127.0,14422.0,13528.0,1.7840790748596191,0.012226395901751893,0.056609767999258716,-0.017347073480844355,0.03899368643760681,-0.04473942145705223,0.0
301,5,-0.0011411792365834117,-0.0009093368425965309,0.0020980085246264935,-0.014039152301847935,0.02407447248697281,-0.010429441928863525,0.014147345907986164,-0.04327225685119629,0.0026068559382110834,0.5568943023681641,-0.9861253499984741,0.01883046142756939,0.0,0.0,0.0,-0.01352981198579073,-0.009071392938494682,-0.0,0.0,0.0,0.0,-0.006352719385176897,-0.0064075361005961895,0.000411806016927585,15237.0,15753.0,15518.0,13815.0,0.5251739025115967,0.5633563995361328,0.5458276271820068,0.42692115902900696,0.0,0.0,0.0,0.0,15280.0,15715.0,15521.0,13809.0,1.7840790748596191,0.00904826180546114,0.04926392468996333,-0.019006819838435877,0.03899368643760681,-0.04473942145705223,0.0
306,5,-0.0013037878088653088,-0.0008617644780315459,0.0022527144756168127,-0.025128677487373352,0.003921105060726404,-0.022736497223377228,0.014147345907986164,-0.04327225685119629,0.0026068559382110834,0.5568943023681641,-0.9861253499984741,0.01883046142756939,0.0,0.0,0.0,-0.026785532012581825,-0.012745939195156097,-0.0,0.0,0.0,0.0,-0.006352719385176897,-0.0064075361005961895,0.000411806016927585,15237.0,15753.0,15518.0,13815.0,0.5251739025115967,0.5633563995361328,0.5458276271820068,0.42692115902900696,0.0,0.0,0.0,0.0,15280.0,15715.0,15521.0,13809.0,1.9197221994400024,0.01751710848894523,0.04878480908242845,-0.017754787218561167,0.058937884867191315,-0.09529121220111847,0.0
311,5,-0.0013618338853120804,-0.0009139347821474075,0.0022777237463742495,-0.017017001286149025,0.007828878238797188,-0.012095705606043339,0.01991889998316765,-0.03229358792304993,0.002546161413192749,0.3604566752910614,-0.8289656639099121,0.0015044655883684754,0.0,0.0,0.0,-0.026785532012581825,-0.012745939195156097,-0.0,0.0,0.0,0.0,-0.0044582500122487545,-0.00442187674343586,0.0016080663772299886,14602.0,15178.0,14689.0,13485.0,0.4800395965576172,0.5209083557128906,0.48608845472335815,0.4054993987083435,0.0,0.0,0.0,0.0,14647.0,15079.0,14700.0,13536.0,1.9197221994400024,0.019064891945473297,0.0455522279945195,-0.017772618693096785,0.058937884867191315,-0.09529121220111847,0.0
316,5,-0.001436654943972826,-0.0009453948587179184,0.002355418400838971,-0.015785329043865204,0.006906761787831783,-0.014161646366119385,0.01991889998316765,-0.03229358792304993,0.002546161413192749,0.3604566752910614,-0.8289656639099121,0.0015044655883684754,0.0,0.0,0.0,-0.010110428556799889,-0.01612657681107521,-0.0,0.0,0.0,0.0,-0.0044582500122487545,-0.00442187674343586,0.0016080663772299886,14602.0,15178.0,14689.0,13485.0,0.4800395965576172,0.5209083557128906,0.48608845472335815,0.4054993987083435,0.0,0.0,0.0,0.0,14647.0,15079.0,14700.0,13536.0,1.835598349571228,0.019721747729790982,0.04251607465785959,-0.017479358972754325,0.07132318615913391,-0.034398723393678665,0.0
321,5,-0.0014453312614932656,-0.0010568095603957772,0.0023425561375916004,-0.007355296518653631,0.016132470220327377,-0.0041211750358343124,0.02178936079144478,-0.02654767595231533,0.0026600549463182688,0.07091731578111649,-0.6044939756393433,0.057350777089595795,0.0,0.0,0.0,-0.010110428556799889,-0.01612657681107521,-0.0,0.0,0.0,0.0,-0.004067689646035433,-0.003053616266697645,0.0011403138050809503,14738.0,14004.0,14762.0,12817.0,0.48955607414245605,0.43934810161590576,0.49122506380081177,0.36394983530044556,0.0,0.0,0.0,0.0,14660.0,14014.0,14695.0,12973.0,1.835598349571228,0.014117867965166621,0.03856433489169769,-0.01909708145009916,0.07132318615913391,-0.034398723393678665,0.0
326,5,-0.0015432118671014905,-0.0009900593431666493,0.002511457772925496,-0.014687782153487206,-0.0015570453833788633,-0.021916674450039864,0.02178936079144478,-0.02654767595231533,0.0026600549463182688,0.07091731578111649,-0.6044939756393433,0.057350777089595795,0.0,0.0,0.0,-0.010110428556799889,-0.01612657681107521,-0.0,0.0,0.0,0.0,-0.004067689646035433,-0.003053616266697645,0.0011403138050809503,14738.0,14004.0,14762.0,12817.0,0.48955607414245605,0.43934810161590576,0.49122506380081177,0.36394983530044556,0.0,0.0,0.0,0.0,14660.0,14014.0,14695.0,12973.0,1.835598349571228,0.019515272161910274,0.03875096582252522,-0.016949579435486233,0.06359159201383591,0.00037634000182151794,0.0
331,5,-0.001539682736620307,-0.0009982704650610685,0.002467955695465207,-0.005451619625091553,0.00036251667188480496,-0.003546410473063588,0.021178623661398888,-0.02042008377611637,0.0030614007264375687,-0.19747431576251984,-0.38721925020217896,0.0231874231249094,0.0,0.0,0.0,0.0001131052995333448,-0.014701937325298786,-0.0,0.0,0.0,0.0,-0.0004059377533849329,-0.00160114502068609,0.0011664234334602952,15012.0,14655.0,14948.0,13750.0,0.5089508891105652,0.4837333559989929,0.5044088959693909,0.42262914776802063,0.0,0.0,0.0,0.0,14870.0,14711.0,14778.0,14028.0,1.7951010465621948,0.018123130283799218,0.03835288522650673,-0.017259284766922293,0.06359159201383591,0.00037634000182151794,0.0
336,5,-0.0015767407603561878,-0.0009966776706278324,0.0024876093957573175,-0.006627610884606838,-4.612451812135987e-05,-0.0037770105991512537,0.021178623661398888,-0.02042008377611637,0.0030614007264375687,-0.19747431576251984,-0.38721925020217896,0.0231874231249094,0.0,0.0,0.0,0.0001131052995333448,-0.014701937325298786,-0.0,0.0,0.0,0.0,-0.0004059377533849329,-0.00160114502068609,0.0011664234334602952,15012.0,14655.0,14948.0,13750.0,0.5089508891105652,0.4837333559989929,0.5044088959693909,0.42262914776802063,0.0,0.0,0.0,0.0,14870.0,14711.0,14778.0,14028.0,1.7951010465621948,0.015403953134984608,0.03722141460865748,-0.016654833660060007,0.03355587646365166,-0.005329502280801535,0.0
341,5,-0.0016926095122471452,-0.0010770346270874143,0.0027617011219263077,-0.008206876926124096,0.007569602224975824,-0.024944406002759933,0.01863173209130764,-0.018373023718595505,0.0031964010559022427,-0.44174662232398987,-0.1983715146780014,0.030582228675484657,0.0,0.0,0.0,-0.0016744962194934487,-0.00811012927442789,-0.0,0.0,0.0,0.0,0.002566269366070628,2.9957154765725136e-05,0.0009458166896365583,14627.0,13984.0,14812.0,13725.0,0.48179125785827637,0.4380655884742737,0.49474990367889404,0.42099159955978394,0.0,0.0,0.0,0.0,14568.0,13956.0,14774.0,13858.0,1.717094898223877,6.61518338952188e-05,0.031012762511503443,-0.018880607698149962,0.03355587646365166,-0.005329502280801535,0.0
346,5,-0.00169572071172297,-0.0009494659025222063,0.0025852518156170845,-0.003656088374555111,-0.012280408293008804,0.011196155101060867,0.01863173209130764,-0.018373023718595505,0.0031964010559022427,-0.44174662232398987,-0.1983715146780014,0.030582228675484657,0.0,0.0,0.0,-0.0016744962194934487,-0.005467945709824562,-0.0,0.0,0.0,0.0,0.002566269366070628,2.9957154765725136e-05,0.0009458166896365583,14627.0,13984.0,14812.0,13725.0,0.48179125785827637,0.4380655884742737,0.49474990367889404,0.42099159955978394,0.0,0.0,0.0,0.0,14568.0,13956.0,14774.0,13858.0,1.751314401626587,0.005856273888060776,0.03916223954000622,-0.01670803012350087,0.02307298220694065,0.04080495610833168,-0.0
351,5,-0.00169572071172297,-0.0009494659025222063,0.0025852518156170845,-0.003656088374555111,-0.012280408293008804,0.011196155101060867,0.012076630257070065,-0.017068317160010338,0.003472503274679184,-0.6675599217414856,-0.029964035376906395,0.0161406472325325,0.0,0.0,0.0,0.012570745311677456,-0.005467945709824562,-0.0,0.0,0.0,0.0,0.003661420661956072,0.0018660799833014607,0.0011445489944890141,14272.0,13623.0,14645.0,14018.0,0.45736008882522583,0.41442638635635376,0.48304837942123413,0.4402661919593811,0.0,0.0,0.0,0.0,14313.0,13564.0,14634.0,14045.0,1.751314401626587,0.005856273888060776,0.03916223954000622,-0.01670803012350087,0.02307298220694065,0.04080495610833168,-0.0
356,5,-0.0017152877990156412,-0.0009195899474434555,0.00251120631583035,-0.0028265260625630617,-0.004054482094943523,0.007980788126587868,0.012076630257070065,-0.017068317160010338,0.003472503274679184,-0.6675599217414856,-0.029964035376906395,0.0161406472325325,0.0,0.0,0.0,0.012569720856845379,-0.005469351541250944,-0.0,0.0,0.0,0.0,0.003661420661956072,0.0018660799833014607,0.0011445489944890141,14272.0,13623.0,14645.0,14018.0,0.45736008882522583,0.41442638635635376,0.48304837942123413,0.4402661919593811,0.0,0.0,0.0,0.0,14313.0,13564.0,14634.0,14045.0,1.7513145208358765,-0.0009662753822998535,0.0404956082804247,-0.016153278117558633,0.0230789165943861,0.04080163314938545,-0.0
361,5,-0.0017200669972226024,-0.000907169422134757,0.002512614708393812,-0.0017041167011484504,-0.003112260950729251,0.0030232896097004414,0.006763050798326731,-0.017354754731059074,0.003689311444759369,-0.7151233553886414,0.08019838482141495,0.03155788406729698,0.0,0.0,0.0,0.012569720856845379,-0.005469351541250944,-0.0,0.0,0.0,0.0,0.005677606910467148,0.002323057735338807,0.0013876017183065414,14279.0,12862.0,14725.0,13985.0,0.457831472158432,0.3667176067829132,0.488629549741745,0.4381357729434967,0.0,0.0,0.0,0.0,14255.0,12891.0,14466.0,13737.0,1.7513145208358765,-0.004532467843248304,0.04118430862134505,-0.015879148895303667,0.0230789165943861,0.04080163314938545,-0.0
366,5,-0.0017626560293138027,-0.0009206172544509172,0.0025668912567198277,-0.005792338401079178,0.0003688353463076055,-0.005303853657096624,0.006763050798326731,-0.017354754731059074,0.003689311444759369,-0.7151233553886414,0.08019838482141495,0.03155788406729698,0.0,0.0,0.0,0.0021454941015690565,-0.003945455886423588,-0.0,0.0,0.0,0.0,0.005677606910467148,0.002323057735338807,0.0013876017183065414,14279.0,12862.0,14725.0,13985.0,0.457831472158432,0.3667176067829132,0.488629549741745,0.4381357729434967,0.0,0.0,0.0,0.0,14255.0,12891.0,14466.0,13737.0,1.6723278760910034,-0.008908813079633425,0.04044736300151527,-0.016401698714692565,0.015898948535323143,0.00665053678676486,-0.0
371,5,-0.0017093595815822482,-0.000985057675279677,0.002489775186404586,0.004078640602529049,0.00788038782775402,0.007132384926080704,-0.0016386446077376604,-0.01836130954325199,0.004148390144109726,-0.6856457591056824,0.07323109358549118,0.035668373107910156,0.0,0.0,0.0,0.0021454941015690565,-0.003945455886423588,-0.0,0.0,0.0,0.0,0.0058564175851643085,0.0018010594649240375,0.0008414472686126828,14087.0,13104.0,14576.0,14113.0,0.44487613439559937,0.38155341148376465,0.47824060916900635,0.4466443657875061,0.0,0.0,0.0,0.0,14178.0,13008.0,14619.0,14065.0,1.6723278760910034,-0.01710544758480302,0.03699452074481945,-0.0170960908882536,0.015898948535323143,0.00665053678676486,-0.0
377,5,-0.0018559929449111223,-0.0009165518567897379,0.0026733619160950184,-0.015964535996317863,-0.005068541504442692,-0.019177468493580818,-0.0016386446077376604,-0.01836130954325199,0.004148390144109726,-0.6856457591056824,0.07323109358549118,0.035668373107910156,0.0,0.0,0.0,0.0021454941015690565,-0.003945455886423588,-0.0,0.0,0.0,0.0,0.0058564175851643085,0.0018010594649240375,0.0008414472686126828,14087.0,13104.0,14576.0,14113.0,0.44487613439559937,0.38155341148376465,0.47824060916900635,0.4466443657875061,0.0,0.0,0.0,0.0,14178.0,13008.0,14619.0,14065.0,1.6723278760910034,-0.013209998921545797,0.03958760464695349,-0.016033110339493957,0.015898948535323143,0.00665053678676486,-0.0
382,5,-0.0017579625127837062,-0.0009241559309884906,0.0024340483359992504,0.005377837922424078,-0.0011149325873702765,0.021046649664640427,-0.0016386446077376604,-0.01836130954325199,0.004148390144109726,-0.6856457591056824,0.07323109358549118,0.035668373107910156,0.0,0.0,0.0,0.004139628726989031,-0.016029980033636093,-0.0,0.0,0.0,0.0,0.0058564175851643085,0.0018010594649240375,0.0008414472686126828,14087.0,13104.0,14576.0,14113.0,0.44487613439559937,0.38155341148376465,0.47824060916900635,0.4466443657875061,0.0,0.0,0.0,0.0,14178.0,13008.0,14619.0,14065.0,1.8156781196594238,-0.012876197293216577,0.039321600755471094,-0.015500635297544021,0.07012961059808731,0.013931777328252792,0.0
387,5,-0.0018108664080500603,-0.0009296830976381898,0.002431840170174837,-0.004197333939373493,0.0002172891836380586,0.008683648891746998,-0.006825123447924852,-0.018766747787594795,0.004325126763433218,-0.557245135307312,0.01856815628707409,0.02020425722002983,0.0,0.0,0.0,0.004139628726989031,-0.016029980033636093,-0.0,0.0,0.0,0.0,0.0037744364235550165,0.0010678160469979048,-0.00012468778004404157,13479.0,13365.0,13857.0,14008.0,0.4051405191421509,0.3978898525238037,0.4296313524246216,0.43966615200042725,0.0,0.0,0.0,0.0,13969.0,13269.0,14453.0,14203.0,1.8156781196594238,-0.014512297645468096,0.03876582324616333,-0.015383191113721686,0.07012961059808731,0.013931777328252792,0.0
392,5,-0.0018491573864594102,-0.0009497962892055511,0.0024012320209294558,-0.0062738582491874695,0.0025004963390529156,0.007146417163312435,-0.006825123447924852,-0.018766747787594795,0.004325126763433218,-0.557245135307312,0.01856815628707409,0.02020425722002983,0.0,0.0,0.0,-0.0018965271301567554,-0.006299786269664764,-0.0,0.0,0.0,0.0,0.0037744364235550165,0.0010678160469979048,-0.00012468778004404157,13479.0,13365.0,13857.0,14008.0,0.4051405191421509,0.3978898525238037,0.4296313524246216,0.43966615200042725,0.0,0.0,0.0,0.0,13969.0,13269.0,14453.0,14203.0,1.697009801864624,-0.014811821807345013,0.03791628037745309,-0.015470847242623728,0.025760743767023087,-0.005965563468635082,-0.0
397,5,-0.0019030802650377154,-0.0009962571784853935,0.0024333535693585873,-0.008980286307632923,0.006575512234121561,-0.0009960178285837173,-0.014186142943799496,-0.017677677795290947,0.004201983567327261,-0.11063966155052185,-0.11086982488632202,-0.009896667674183846,0.0,0.0,0.0,-0.0018965271301567554,-0.006299786269664764,-0.0,0.0,0.0,0.0,0.002514597261324525,0.0004519732028711587,7.477399049093947e-05,14049.0,14053.0,14489.0,14288.0,0.4423655867576599,0.44265204668045044,0.4722192883491516,0.45844119787216187,0.0,0.0,0.0,0.0,13488.0,13426.0,13831.0,13967.0,1.697009801864624,-0.013697026750585685,0.037145604661544464,-0.015634792098449236,0.025760743767023087,-0.005965563468635082,-0.0
402,5,-0.0019390162779018283,-0.0010242302669212222,0.002495166379958391,-0.00790442992001772,0.005986975040286779,-0.007815944962203503,-0.014186142943799496,-0.017677677795290947,0.004201983567327261,-0.11063966155052185,-0.11086982488632202,-0.009896667674183846,0.0,0.0,0.0,-0.00920499674975872,-0.010373467579483986,-0.0,0.0,0.0,0.0,0.002514597261324525,0.0004519732028711587,7.477399049093947e-05,14049.0,14053.0,14489.0,14288.0,0.4423655867576599,0.44265204668045044,0.4722192883491516,0.45844119787216187,0.0,0.0,0.0,0.0,13488.0,13426.0,13831.0,13967.0,1.7687938213348389,-0.014116670274149444,0.03589806790695344,-0.015593720966849555,0.04421065002679825,-0.03017854318022728,0.0
407,5,-0.002016007900238037,-0.0010799211449921131,0.0026153947692364454,-0.012400781735777855,0.009077691473066807,-0.01755378022789955,-0.014181584119796753,-0.01640366204082966,0.004110070411115885,0.11236649751663208,-0.09898704290390015,0.0010079173371195793,0.0,0.0,0.0,-0.00920499674975872,-0.010373467579483986,-0.0,0.0,0.0,0.0,0.001437006751075387,-0.0008728482644073665,0.00022560021898243576,13872.0,13592.0,13938.0,13693.0,0.43064993619918823,0.41242021322250366,0.434986412525177,0.4189532399177551,0.0,0.0,0.0,0.0,14006.0,14157.0,14400.0,14318.0,1.7687938213348389,-0.015314830705735482,0.035796558142677744,-0.016540782544963904,0.04421065002679825,-0.03017854318022728,0.0
412,5,-0.0019799747969955206,-0.001151544856838882,0.002586816204711795,-0.0006363298743963242,0.012225918471813202,-0.0035920697264373302,-0.014181584119796753,-0.01640366204082966,0.004110070411115885,0.11236649751663208,-0.09898704290390015,0.0010079173371195793,0.0,0.0,0.0,-0.011915422044694424,-0.013205954805016518,-0.0,0.0,0.0,0.0,0.001437006751075387,-0.0008728482644073665,0.00022560021898243576,13872.0,13592.0,13938.0,13693.0,0.43064993619918823,0.41242021322250366,0.434986412525177,0.4189532399177551,0.0,0.0,0.0,0.0,14006.0,14157.0,14400.0,14318.0,1.8123375177383423,-0.01794413244033747,0.033603786015486733,-0.017618833640006725,0.05766566842794418,-0.04002564772963524,0.0
417,5,-0.0021142191253602505,-0.001159248873591423,0.002923196880146861,-0.01636386476457119,0.005814848933368921,-0.04180251061916351,-0.012906876392662525,-0.015685850754380226,0.003951886668801308,0.1958094984292984,-0.07252098619937897,-0.026935992762446404,0.0,0.0,0.0,-0.011915422044694424,-0.013205954805016518,-0.0,0.0,0.0,0.0,-0.00011859638470923528,0.0003395086678210646,-0.00035997419035993516,13972.0,14237.0,13865.0,14110.0,0.4372365176677704,0.45497623085975647,0.4301508367061615,0.4464302361011505,0.0,0.0,0.0,0.0,14030.0,14182.0,13900.0,14072.0,1.8123375177383423,-0.015876840553477246,0.03195374509307244,-0.01803248729650484,0.05766566842794418,-0.04002564772963524,0.0
422,5,-0.002084907377138734,-0.0011079628020524979,0.002799026435241103,-0.003028126899152994,-0.0038283816538751125,-0.0018205649685114622,-0.012906876392662525,-0.015685850754380226,0.003951886668801308,0.1958094984292984,-0.07252098619937897,-0.026935992762446404,0.0,0.0,0.0,-0.008307295851409435,-0.016542203724384308,-0.0,0.0,0.0,0.0,-0.00011859638470923528,0.0003395086678210646,-0.00035997419035993516,13972.0,14237.0,13865.0,14110.0,0.4372365176677704,0.45497623085975647,0.4301508367061615,0.4464302361011505,0.0,0.0,0.0,0.0,14030.0,14182.0,13900.0,14072.0,1.8333994150161743,-0.009301422019209483,0.03554956204763212,-0.01649559657554615,0.07307478785514832,-0.028230348601937294,0.0
427,5,-0.00205355416983366,-0.0011279179016128182,0.0026882924139499664,0.0025511274579912424,0.0008632626850157976,0.01255986001342535,-0.010230077430605888,-0.014951080083847046,0.0036241563502699137,0.2594109773635864,-0.053774286061525345,-0.03552495688199997,0.0,0.0,0.0,-0.008307295851409435,-0.016542203724384308,-0.0,0.0,0.0,0.0,-0.0013902727514505386,0.00017872379976324737,-0.0004841364570893347,13955.0,14337.0,13740.0,14146.0,0.4361408054828644,0.46176794171333313,0.42199400067329407,0.4488910734653473,0.0,0.0,0.0,0.0,14030.0,14182.0,13900.0,14072.0,1.8333994150161743,-0.0073875616657905945,0.03515594546302297,-0.016565132394273614,0.07307478785514832,-0.028230348601937294,0.0
432,5,-0.002084452426061034,-0.0011507658055052161,0.0026941311080008745,-0.0026873184833675623,0.0030870414339005947,0.004323307890444994,-0.010230077430605888,-0.014951080083847046,0.0036241563502699137,0.2594109773635864,-0.053774286061525345,-0.03552495688199997,0.0,0.0,0.0,-0.003100467147305608,-0.00045649477397091687,-0.0,0.0,0.0,0.0,-0.0013902727514505386,0.00017872379976324737,-0.0004841364570893347,13955.0,14337.0,13740.0,14146.0,0.4361408054828644,0.46176794171333313,0.42199400067329407,0.4488910734653473,0.0,0.0,0.0,0.0,14030.0,14182.0,13900.0,14072.0,1.6519358158111572,-0.00693829790538425,0.03518570709375725,-0.01680866645273266,0.0018170997500419617,-0.009493527002632618,-0.0
437,5,-0.0021062104497104883,-0.001159456092864275,0.0026353776920586824,-0.0036859060637652874,0.0022776504047214985,0.008779728785157204,-0.008170776069164276,-0.014687268063426018,0.0033697618637233973,0.24061773717403412,-0.03208090364933014,-0.010572591796517372,0.0,0.0,0.0,-0.003100467147305608,-0.00045649477397091687,-0.0,0.0,0.0,0.0,-0.0020275707356631756,6.689179281238467e-05,-0.0001634309155633673,14320.0,14351.0,14065.0,14095.0,0.4606548547744751,0.46276038885116577,0.4434649348258972,0.4454573392868042,0.0,0.0,0.0,0.0,14418.0,14345.0,14249.0,14132.0,1.6519358158111572,-0.00583524062805444,0.03490202775584363,-0.016642100091075987,0.0018170997500419617,-0.009493527002632618,-0.0
442,5,-0.002140903612598777,-0.0011761474888771772,0.002611592411994934,-0.0056375255808234215,0.002914031269028783,0.00636611832305789,-0.008170776069164276,-0.014687268063426018,0.0033697618637233973,0.24061773717403412,-0.03208090364933014,-0.010572591796517372,0.0,0.0,0.0,-0.004737405106425285,-0.006206197664141655,-0.0,0.0,0.0,0.0,-0.0020275707356631756,6.689179281238467e-05,-0.0001634309155633673,14320.0,14351.0,14065.0,14095.0,0.4606548547744751,0.46276038885116577,0.4434649348258972,0.4454573392868042,0.0,0.0,0.0,0.0,14418.0,14345.0,14249.0,14132.0,1.7053780555725098,-0.006081877862980103,0.03412580438313495,-0.01685420563522047,0.02550295740365982,-0.014974999241530895,-0.0
447,5,-0.0021586138755083084,-0.0011831359006464481,0.0025558588095009327,-0.004380242899060249,0.0020042266696691513,0.009234500117599964,-0.005827430170029402,-0.014251059852540493,0.0031722362618893385,0.11882534623146057,-0.03873516246676445,-0.026785166934132576,0.0,0.0,0.0,-0.004737405106425285,-0.006206197664141655,-0.0,0.0,0.0,0.0,-0.0011569609632715583,-0.0003423378220759332,-0.00029161988641135395,14191.0,14520.0,14109.0,14322.0,0.45190247893333435,0.4743570387363434,0.4463665187358856,0.46077337861061096,0.0,0.0,0.0,0.0,13661.0,13596.0,13409.0,13736.0,1.7053780555725098,-0.0055898068109987605,0.034014125434391626,-0.016789072095982384,0.02550295740365982,-0.014974999241530895,-0.0
453,5,-0.0021905554458498955,-0.0011847753776237369,0.0025769721250981092,-0.005585103295743465,0.0009984278585761786,0.0011601917212828994,-0.005827430170029402,-0.014251059852540493,0.0031722362618893385,0.11882534623146057,-0.03873516246676445,-0.026785166934132576,0.0,0.0,0.0,-0.004440775141119957,-0.006888898089528084,-0.0,0.0,0.0,0.0,-0.0011569609632715583,-0.0003423378220759332,-0.00029161988641135395,14191.0,14520.0,14109.0,14322.0,0.45190247893333435,0.4743570387363434,0.4463665187358856,0.46077337861061096,0.0,0.0,0.0,0.0,13661.0,13596.0,13409.0,13736.0,1.7110493183135986,-0.0063929508555388955,0.03306368700908108,-0.017137917299598987,0.02840249426662922,-0.014084040187299252,-0.0
458,5,-0.0022478855680674314,-0.0012163885403424501,0.002632880350574851,-0.009113646112382412,0.0041929432190954685,-0.006244918331503868,-0.005078243091702461,-0.014097223058342934,0.0030769933946430683,0.04694399982690811,-0.03693529963493347,-0.010615699924528599,0.0,0.0,0.0,-0.004440775141119957,-0.006888898089528084,-0.0,0.0,0.0,0.0,-0.00014409131836146116,0.0012263787211850286,0.00012267219426576048,13714.0,13503.0,13533.0,13654.0,0.4202701151371002,0.4066677987575531,0.408573180437088,0.4164247214794159,0.0,0.0,0.0,0.0,13738.0,13477.0,13538.0,13651.0,1.7110493183135986,-0.010230177323342986,0.03303679566793033,-0.01805426691643203,0.02840249426662922,-0.014084040187299252,-0.0
463,5,-0.0022463425993919373,-0.0012459689751267433,0.002702738856896758,-0.003460303181782365,0.005226829554885626,-0.010880970396101475,-0.005078243091702461,-0.014097223058342934,0.0030769933946430683,0.04694399982690811,-0.03693529963493347,-0.010615699924528599,0.0,0.0,0.0,-0.006874240934848785,-0.010974538512527943,-0.0,0.0,0.0,0.0,-0.00014409131836146116,0.0012263787211850286,0.00012267219426576048,13714.0,13503.0,13533.0,13654.0,0.4202701151371002,0.4066677987575531,0.408573180437088,0.4164247214794159,0.0,0.0,0.0,0.0,13738.0,13477.0,13538.0,13651.0,1.764198660850525,-0.01483277772931896,0.02752293747067672,-0.018683238348009307,0.04665161669254303,-0.022478874772787094,0.0
