timestamp,dt,pos_x,pos_y,pos_z,vel_x,vel_y,vel_z,roll,pitch,yaw,agv_x,agv_y,agv_z,x_ref,y_ref,z_ref,roll_ref,pitch_ref,yaw_ref,x_vel_ref,y_vel_ref,z_vel_ref,x_torque,y_torque,z_torque,w0,w1,w2,w3,u0,u1,u2,u3,m0req,m1req,m2req,m3req,thrust0,thrust1,thrust2,thrust3,thrust_ref,roll_vicon,pitch_vicon,yaw_vicon,acc_x,acc_y,acc_z
5,5,0.0,0.0,0.0,0.0010322926100343466,-7.185459980973974e-05,-0.0012758789816871285,-0.011623750440776348,-0.005303541198372841,-0.011576295830309391,-0.000861147593241185,-0.004349119029939175,-0.0020839343778789043,0.0,0.0,0.0,8.74623583513312e-05,0.0009665539837442338,-0.0,0.0,0.0,0.0,0.002324179746210575,0.0015813343925401568,-0.0011889325687661767,1495.0,1495.0,1495.0,1495.0,0.0,0.0,0.0,0.0,0.0,0.0,0.0,0.0,1495.0,1495.0,1495.0,1495.0,1.6620961427688599,0.0293237597117284,-0.14351858450071076,-0.029993561314831878,-0.0038710972294211388,0.00026945475838147104,0.0
32,27,0.0,0.0,0.0,9.410359052708372e-05,-0.0009914934635162354,-0.0005087125464342535,-0.011623750440776348,-0.005303541198372841,-0.011576295830309391,-0.000861147593241185,-0.004349119029939175,-0.0020839343778789043,0.0,0.0,0.0,8.74623583513312e-05,0.0009665539837442338,-0.0,0.0,0.0,0.0,0.002324179746210575,0.0015813343925401568,-0.0011889325687661767,1495.0,1495.0,1495.0,1495.0,0.0,0.0,0.0,0.0,0.0,0.0,0.0,0.0,1495.0,1495.0,1495.0,1495.0,1.6620961427688599,0.029663909466401742,-0.1430845897628916,-0.030185732308532918,-0.0038710972294211388,0.00026945475838147104,0.0
37,5,0.0,0.0,0.0,0.0018377492669969797,0.0015923910541459918,0.002831820398569107,-0.011623731814324856,-0.005296939052641392,-0.011575003154575825,-0.00040747044840827584,-0.0012356425868347287,-0.002534672152251005,0.0,0.0,0.0,0.001206858898513019,8.811089355731383e-05,-0.0,0.0,0.0,0.0,0.002335591008886695,0.0018617151072248816,-0.0011225284542888403,1495.0,1495.0,1495.0,1495.0,0.0,0.0,0.0,0.0,0.0,0.0,0.0,0.0,1495.0,1495.0,1495.0,1495.0,1.662096619606018,0.03006680630410278,-0.14401347466801243,-0.02977859607151331,-0.00035288845538161695,0.0037181004881858826,0.0
42,5,0.0,0.0,0.0,0.0002128531050402671,3.638740599853918e-05,5.691340265912004e-05,-0.011623731814324856,-0.005296939052641392,-0.011575003154575825,-0.00040747044840827584,-0.0012356425868347287,-0.002534672152251005,0.0,0.0,0.0,0.001206858898513019,8.811089355731383e-05,-0.0,0.0,0.0,0.0,0.002335591008886695,0.0018617151072248816,-0.0011225284542888403,1495.0,1495.0,1495.0,1495.0,0.0,0.0,0.0,0.0,0.0,0.0,0.0,0.0,1495.0,1495.0,1495.0,1495.0,1.662096619606018,0.029401030236260724,-0.1438447021013788,-0.02987696991961162,-0.00035288845538161695,0.0037181004881858826,0.0
56,15,0.0,0.0,0.0,0.0002128531050402671,3.638740599853918e-05,5.691340265912004e-05,-0.011621341109275818,-0.005294996779412031,-0.011610505171120167,0.0007033587899059057,0.001957532949745655,0.0012385519221425056,0.0,0.0,0.0,-4.429165710462257e-05,0.00019930007692892104,-0.0,0.0,0.0,0.0,0.002340182662010193,0.0018624493386596441,-0.0012230455176904798,13152.0,13806.0,13201.0,14364.0,0.3845486640930176,0.4263291358947754,0.38758349418640137,0.4636348485946655,0.0,0.0,0.0,0.0,1495.0,1495.0,1495.0,1495.0,1.662079930305481,0.029401030236260724,-0.1438447021013788,-0.02987696991961162,-0.0007981991511769593,-0.00013645277067553252,0.0
62,5,0.0,0.0,0.0,-0.0018449407070875168,-0.00048454050556756556,-0.0021322655957192183,-0.011621341109275818,-0.005294996779412031,-0.011610505171120167,0.0007033587899059057,0.001957532949745655,0.0012385519221425056,0.0,0.0,0.0,0.00058953050756827,-0.0017266946379095316,-0.0,0.0,0.0,0.0,0.0023322233464568853,0.0019011343829333782,-0.0012405866291373968,13152.0,13806.0,13201.0,14364.0,0.3845486640930176,0.4263291358947754,0.38758349418640137,0.4636348485946655,0.0,0.0,0.0,0.0,13232.0,13731.0,13278.0,14292.0,1.6628249883651733,0.028973927449279596,-0.143270480013467,-0.030289661873651414,0.006918527651578188,0.001817026874050498,0.0
68,7,0.0,0.0,0.0,-0.0006645387038588524,-0.0008687204099260271,0.00039620237657800317,-0.011621341109275818,-0.005294996779412031,-0.011610505171120167,0.0007033587899059057,0.001957532949745655,0.0012385519221425056,0.0,0.0,0.0,0.00058953050756827,-0.0017266946379095316,-0.0,0.0,0.0,0.0,0.0023322233464568853,0.0019011343829333782,-0.0012405866291373968,13152.0,13806.0,13201.0,14364.0,0.3845486640930176,0.4263291358947754,0.38758349418640137,0.4636348485946655,0.0,0.0,0.0,0.0,13232.0,13731.0,13278.0,14292.0,1.6628249883651733,0.02966950255908313,-0.14359354999593404,-0.030176613870150665,0.006918527651578188,0.001817026874050498,0.0
73,5,0.0,0.0,0.0,0.0004930917639285326,-0.0007029381231404841,-0.0001081532973330468,-0.011648423969745636,-0.005304062273353338,-0.011606303043663502,-0.006488028913736343,0.0021965207997709513,-0.003968064207583666,0.0,0.0,0.0,0.00105695566162467,-0.0006219475762918591,-0.0,0.0,0.0,0.0,0.002376542892307043,0.0018658454064279795,-0.0012825431767851114,13110.0,13840.0,13165.0,14403.0,0.3819465935230255,0.42852380871772766,0.38532039523124695,0.46630534529685974,0.0,0.0,0.0,0.0,13136.0,13816.0,13193.0,14377.0,1.6628234386444092,0.02971383260683813,-0.1434736329040602,-0.030314055659778613,0.0024920201394706964,0.003257701639086008,0.0
80,7,1.6377388192267972e-06,-1.0901640052907169e-05,-2.5768267732928507e-05,0.000580390973482281,-1.974253791559022e-06,0.0013423222117125988,-0.011648423969745636,-0.005304062273353338,-0.011606303043663502,-0.006488028913736343,0.0021965207997709513,-0.003968064207583666,0.0,0.0,0.0,0.00105695566162467,-0.0006219475762918591,-0.0,0.0,0.0,0.0,0.002376542892307043,0.0018658454064279795,-0.0012825431767851114,13110.0,13840.0,13165.0,14403.0,0.3819465935230255,0.42852380871772766,0.38532039523124695,0.46630534529685974,0.0,0.0,0.0,0.0,13136.0,13816.0,13193.0,14377.0,1.6628234386444092,0.030355272677114083,-0.14344397673001805,-0.029937914438782246,0.0024920201394706964,0.003257701639086008,0.0
85,5,2.0866853844836442e-07,-2.828007382049691e-06,2.7003643481293693e-06,6.066795322112739e-05,-0.0009696256602182984,-0.0028793069068342447,-0.011648423969745636,-0.005304062273353338,-0.011606303043663502,-0.006488028913736343,0.0021965207997709513,-0.003968064207583666,0.0,0.0,0.0,-1.706486364128068e-05,0.0005454717902466655,-0.0,0.0,0.0,0.0,0.002376542892307043,0.0018658454064279795,-0.0012825431767851114,13110.0,13840.0,13165.0,14403.0,0.3819465935230255,0.42852380871772766,0.38532039523124695,0.46630534529685974,0.0,0.0,0.0,0.0,13136.0,13816.0,13193.0,14377.0,1.6627331972122192,0.02910100135674669,-0.1434748178995217,-0.03027840915286713,-0.0021854795049875975,-5.259372483124025e-05,0.0
90,5,8.588416676502675e-06,-3.1563808988721576e-06,-1.9168408471159637e-05,0.0010298369452357292,-0.0003484454355202615,0.0014725299552083015,-0.011678213253617287,-0.005322481971234083,-0.011612613685429096,0.0016265929443761706,0.000761791889090091,0.0030000731348991394,0.0,0.0,0.0,-1.706486364128068e-05,0.0005454717902466655,-0.0,0.0,0.0,0.0,0.0024615128058940172,0.0010755399707704782,-0.0011598673881962895,13122.0,13825.0,13303.0,14291.0,0.3826395571231842,0.4275710880756378,0.39398065209388733,0.458633691072464,0.0,0.0,0.0,0.0,13134.0,13820.0,13218.0,14352.0,1.6627331972122192,0.03004276889879362,-0.1435021859791185,-0.030081296623446156,-0.0021854795049875975,-5.259372483124025e-05,0.0
95,5,5.408928700489923e-06,-1.943645202118205e-06,-1.6202309780055657e-05,3.0396264264709316e-05,-0.00028490644763223827,0.00023308013624045998,-0.011678213253617287,-0.005322481971234083,-0.011612613685429096,0.0016265929443761706,0.000761791889090091,0.0030000731348991394,0.0,0.0,0.0,0.00041828720713965595,0.0009756049257703125,-0.0,0.0,0.0,0.0,0.0024615128058940172,0.0010755399707704782,-0.0011598673881962895,13122.0,13825.0,13303.0,14291.0,0.3826395571231842,0.4275710880756378,0.39398065209388733,0.458633691072464,0.0,0.0,0.0,0.0,13134.0,13820.0,13218.0,14352.0,1.6628679037094116,0.02881836188317255,-0.14368874156379116,-0.029864461116185896,-0.003909160848706961,0.0012892610393464565,0.0
100,5,8.366891051991843e-06,2.411931632195774e-07,-1.6228266758844256e-05,0.0003671139420475811,-0.0003761432017199695,9.634695743443444e-05,-0.011679986491799355,-0.005327871069312096,-0.011656728573143482,0.000297541351756081,0.00037629102007485926,0.002080925041809678,0.0,0.0,0.0,0.00041828720713965595,0.0009756049257703125,-0.0,0.0,0.0,0.0,0.002475699642673135,0.0010934567544609308,-0.0013126793783158064,13078.0,13865.0,13261.0,14331.0,0.379971444606781,0.43015116453170776,0.3913332223892212,0.4613691568374634,0.0,0.0,0.0,0.0,13171.0,13768.0,13316.0,14289.0,1.6628679037094116,0.029618919992674207,-0.14365820622546116,-0.030382576001562474,-0.003909160848706961,0.0012892610393464565,0.0
105,5,1.463979970139917e-05,-1.1867449757119175e-05,-1.828764652600512e-05,0.0008995946263894439,0.0013025798834860325,0.00028566428227350116,-0.011660643853247166,-0.0053315190598368645,-0.011623289436101913,-0.0020038874354213476,-0.0034615148324519396,-0.0018224193481728435,0.0,0.0,0.0,-0.0016057811444625258,0.0008619276341050863,-0.0,0.0,0.0,0.0,0.0023541743867099285,0.0017301508923992515,-0.0011922098929062486,13137.0,13824.0,13211.0,14362.0,0.3835878074169159,0.42745694518089294,0.3881988227367401,0.4634896218776703,0.0,0.0,0.0,0.0,13184.0,13782.0,13244.0,14329.0,1.66309654712677,0.0294240538196481,-0.14380600949267644,-0.02983968667896425,-0.0034541371278464794,-0.00495007773861289,0.0
117,12,1.1114319931948557e-05,-1.827565756684635e-05,-9.48759316088399e-06,5.644855627906509e-05,0.00080886046634987,-0.0004275579412933439,-0.011660643853247166,-0.0053315190598368645,-0.011623289436101913,-0.0020038874354213476,-0.0034615148324519396,-0.0018224193481728435,0.0,0.0,0.0,-0.0016057811444625258,0.0008619276341050863,-0.0,0.0,0.0,0.0,0.0023541743867099285,0.0017301508923992515,-0.0011922098929062486,13137.0,13824.0,13211.0,14362.0,0.3835878074169159,0.42745694518089294,0.3881988227367401,0.4634896218776703,0.0,0.0,0.0,0.0,13184.0,13782.0,13244.0,14329.0,1.66309654712677,0.02960882102781445,-0.1434543003609828,-0.030219659363170327,-0.0034541371278464794,-0.00495007773861289,0.0
122,5,-1.1795785212598275e-05,-2.015763493545819e-05,4.180037194601027e-06,-0.00272663333453238,0.0005493814242072403,-0.0018111388199031353,-0.01168290339410305,-0.005298597272485495,-0.011631909757852554,-0.0034976599272340536,-0.003478563856333494,0.0021533360704779625,0.0,0.0,0.0,-0.0007042636279948056,-0.0025673399213701487,-0.0,0.0,0.0,0.0,0.002456469926983118,0.0018387073650956154,-0.0011308714747428894,13170.0,13779.0,13242.0,14348.0,0.3856452405452728,0.42452898621559143,0.3901391923427582,0.4625544846057892,0.0,0.0,0.0,0.0,13116.0,13834.0,13179.0,14402.0,1.663282871246338,0.029249051502836357,-0.14336744535497215,-0.030240737666673373,0.010289655067026615,-0.0021712500602006912,0.0
130,8,-3.871226908813696e-06,9.179987046081806e-07,-3.4527397474448662e-06,-0.0006240522488951683,-0.0016543505480512977,3.342382569826441e-06,-0.01168290339410305,-0.005298597272485495,-0.011631909757852554,-0.0034976599272340536,-0.003478563856333494,0.0021533360704779625,0.0,0.0,0.0,-0.0007042636279948056,-0.0025673399213701487,-0.0,0.0,0.0,0.0,0.002456469926983118,0.0018387073650956154,-0.0011308714747428894,13170.0,13779.0,13242.0,14348.0,0.3856452405452728,0.42452898621559143,0.3901391923427582,0.4625544846057892,0.0,0.0,0.0,0.0,13116.0,13834.0,13179.0,14402.0,1.663282871246338,0.030020349395315834,-0.14332952820137673,-0.03013031690661964,0.010289655067026615,-0.0021712500602006912,0.0
135,5,-4.502161118580261e-06,-8.032231562538072e-06,-2.4608982130303048e-05,-0.0003253330069128424,0.00041228733607567847,0.0025400861632078886,-0.011682349257171154,-0.005307305138558149,-0.011659801006317139,0.002974417293444276,-0.006409752182662487,0.000982335302978754,0.0,0.0,0.0,-0.0007042636279948056,-0.0025673399213701487,-0.0,0.0,0.0,0.0,0.002030080882832408,0.0018225128296762705,-0.001326924073509872,13158.0,13856.0,13175.0,14361.0,0.38489511609077454,0.42957350611686707,0.3859453499317169,0.4633929431438446,0.0,0.0,0.0,0.0,13175.0,13778.0,13236.0,14349.0,1.663282871246338,0.029710642466065647,-0.14373148009909037,-0.03013224355670092,0.010289655067026615,-0.0021712500602006912,0.0
140,5,-5.1917477321694605e-06,-7.257312063302379e-06,-1.6914831576286815e-05,-0.00021288360585458577,7.192466000560671e-05,9.273640171159059e-05,-0.011682349257171154,-0.005307305138558149,-0.011659801006317139,0.002974417293444276,-0.006409752182662487,0.000982335302978754,0.0,0.0,0.0,-0.0005157057312317193,-0.00031044622301124036,-0.0,0.0,0.0,0.0,0.002030080882832408,0.0018225128296762705,-0.001326924073509872,13158.0,13856.0,13175.0,14361.0,0.38489511609077454,0.42957350611686707,0.3859453499317169,0.4633929431438446,0.0,0.0,0.0,0.0,13175.0,13778.0,13236.0,14349.0,1.6638697385787964,0.029270386624185567,-0.14367035205565648,-0.030096305180297177,0.0012446794426068664,-0.0015904856845736504,0.0
145,5,-1.5021324770714273e-06,1.485559664615721e-06,-9.13533312996151e-06,0.00035760042374022305,-0.001020374707877636,-0.0008964453591033816,-0.011654742062091827,-0.00529725244268775,-0.011633607558906078,0.002213874598965049,0.0011276346631348133,0.002535056322813034,0.0,0.0,0.0,-0.0005157057312317193,-0.00031044622301124036,-0.0,0.0,0.0,0.0,0.002024875022470951,0.001856737770140171,-0.0010992339812219143,13213.0,13798.0,13220.0,14313.0,0.38834699988365173,0.42577502131462097,0.38879022002220154,0.4601843059062958,0.0,0.0,0.0,0.0,13187.0,13825.0,13193.0,14337.0,1.6638697385787964,0.029786684587540944,-0.14384579932034844,-0.030040577966638,0.0012446794426068664,-0.0015904856845736504,0.0
150,5,-1.1741182248670157e-07,-5.52601204617531e-06,-1.0274152373312972e-05,0.00030920663266442716,0.00043323871796019375,-0.00022191987955011427,-0.011654742062091827,-0.00529725244268775,-0.011633607558906078,0.002213874598965049,0.0011276346631348133,0.002535056322813034,0.0,0.0,0.0,0.0012436811812222004,0.00033254027948714793,-0.0,0.0,0.0,0.0,0.002024875022470951,0.001856737770140171,-0.0010992339812219143,13213.0,13798.0,13220.0,14313.0,0.38834699988365173,0.42577502131462097,0.38879022002220154,0.4601843059062958,0.0,0.0,0.0,0.0,13187.0,13825.0,13193.0,14337.0,1.6633143424987793,0.029281435018345944,-0.14379394998156408,-0.0304129496559469,-0.0013328158529475331,0.003834350034594536,0.0
155,5,1.579977288201917e-05,-1.1538216313056182e-05,-2.2103711671661586e-05,0.002033744938671589,0.0008947599562816322,0.0013307792833074927,-0.01165120117366314,-0.005302568897604942,-0.011657074093818665,-0.0003895611735060811,-0.0017763306386768818,-0.004053767770528793,0.0,0.0,0.0,-0.0011086518643423915,0.0019239734392613173,-0.0,0.0,0.0,0.0,0.0022306309547275305,0.0008111657807603478,-0.0013432517880573869,13032.0,13943.0,13223.0,14339.0,0.37712469696998596,0.43531832098960876,0.38893625140190125,0.4619036018848419,0.0,0.0,0.0,0.0,13080.0,13904.0,13263.0,14296.0,1.6638156175613403,0.02988134002317858,-0.14344542391961795,-0.02995528141144541,-0.007713573519140482,-0.003419076092541218,0.0
162,7,1.581737888045609e-05,-1.0820534953381866e-05,9.33765704758116e-07,0.0008156105177477002,0.0002717822208069265,-0.0022321855649352074,-0.01165120117366314,-0.005302568897604942,-0.011657074093818665,-0.0003895611735060811,-0.0017763306386768818,-0.004053767770528793,0.0,0.0,0.0,-0.0011086518643423915,0.0019239734392613173,-0.0,0.0,0.0,0.0,0.0022306309547275305,0.0008111657807603478,-0.0013432517880573869,13032.0,13943.0,13223.0,14339.0,0.37712469696998596,0.43531832098960876,0.38893625140190125,0.4619036018848419,0.0,0.0,0.0,0.0,13080.0,13904.0,13263.0,14296.0,1.6638156175613403,0.02914724936975504,-0.14366809674418757,-0.029815502601359678,-0.007713573519140482,-0.003419076092541218,0.0
167,5,1.963619979505893e-05,-2.570794640632812e-05,-1.7178768757730722e-05,0.0007845027139410377,0.001895202323794365,0.0012806298909708858,-0.011646603234112263,-0.005326589569449425,-0.011816692538559437,0.005029682070016861,0.013623092323541641,-0.034285202622413635,0.0,0.0,0.0,-0.0011086518643423915,0.0019239734392613173,-0.0,0.0,0.0,0.0,0.0022781791631132364,0.0015435995301231742,-0.0018512440146878362,12809.0,14149.0,12887.0,14646.0,0.3635117709636688,0.44904372096061707,0.36820223927497864,0.48311200737953186,0.0,0.0,0.0,0.0,13000.0,13979.0,13073.0,14478.0,1.6638156175613403,0.029907875563172634,-0.14331715808424125,-0.03063380380301707,-0.007713573519140482,-0.003419076092541218,0.0
172,5,4.004001311841421e-06,-3.0565781344193965e-05,2.732484517764533e-06,-0.0015620626509189606,0.001341021154075861,-0.0018770984606817365,-0.011646603234112263,-0.005326589569449425,-0.011816692538559437,0.005029682070016861,0.013623092323541641,-0.034285202622413635,0.0,0.0,0.0,-0.0023456686176359653,0.0007592277252115309,-0.0,0.0,0.0,0.0,0.0022781791631132364,0.0015435995301231742,-0.0018512440146878362,12809.0,14149.0,12887.0,14646.0,0.3635117709636688,0.44904372096061707,0.36820223927497864,0.48311200737953186,0.0,0.0,0.0,0.0,13000.0,13979.0,13073.0,14478.0,1.6672054529190063,0.029656344352401266,-0.14346418596244798,-0.030825976367692205,-0.003050084225833416,-0.007248758338391781,0.0
177,5,-1.2385498848743737e-06,-4.230888862366555e-06,-7.547289897047449e-06,-0.0012539312010630965,-0.0026237787678837776,0.0004827335069421679,-0.011630523949861526,-0.005354320630431175,-0.011429361999034882,0.006457581650465727,-5.9616129874484614e-05,0.05836948752403259,0.0,0.0,0.0,-0.0023456686176359653,0.0007592277252115309,-0.0,0.0,0.0,0.0,0.002589376410469413,0.0016866998048499227,0.0011236491845920682,13925.0,13002.0,14028.0,13600.0,0.4341541528701782,0.3752850294113159,0.44093406200408936,0.4129410982131958,0.0,0.0,0.0,0.0,12896.0,14033.0,12985.0,14589.0,1.6672054529190063,0.029475337978629897,-0.14370181809262542,-0.02994050565860306,-0.003050084225833416,-0.007248758338391781,0.0
182,5,8.675701792526525e-06,1.5384760843062395e-07,-1.122334197134478e-05,0.0006881377194076777,-0.001575679867528379,0.0006342196720652282,-0.011630523949861526,-0.005354320630431175,-0.011429361999034882,0.006457581650465727,-5.9616129874484614e-05,0.05836948752403259,0.0,0.0,0.0,0.0031920154578983784,-0.0011779435444623232,-0.0,0.0,0.0,0.0,0.002589376410469413,0.0016866998048499227,0.0011236491845920682,13925.0,13002.0,14028.0,13600.0,0.4341541528701782,0.3752850294113159,0.44093406200408936,0.4129410982131958,0.0,0.0,0.0,0.0,12896.0,14033.0,12985.0,14589.0,1.658981442451477,0.02931203730599749,-0.14343959828372577,-0.02983655121380805,0.004708858206868172,0.00981552992016077,0.0
187,5,-7.903568075562362e-06,-1.9272945792181417e-05,4.520530183071969e-06,-0.0017142572905868292,0.00170094333589077,-0.001635576831176877,-0.011615081690251827,-0.005408063530921936,-0.012481044046580791,-0.020493634045124054,-0.0035310261882841587,-0.03141920641064644,0.0,0.0,0.0,-0.0020809436682611704,-0.0015974672278389335,-0.0,0.0,0.0,0.0,0.002667767694219947,0.0017777754692360759,-0.005406152456998825,12041.0,14804.0,12022.0,15355.0,0.3184792399406433,0.4941457509994507,0.3174295425415039,0.5337610840797424,0.0,0.0,0.0,0.0,14297.0,12636.0,14315.0,13262.0,1.681280255317688,0.02967083201858619,-0.14360916293774964,-0.03107541138816203,0.006471766624599695,-0.0064849769696593285,0.0
192,5,-1.2206813153170515e-05,-1.5385145161417313e-05,-8.609018550487235e-06,-0.001202092389576137,0.0002138412673957646,0.0009213151643052697,-0.011615081690251827,-0.005408063530921936,-0.012481044046580791,-0.020493634045124054,-0.0035310261882841587,-0.03141920641064644,0.0,0.0,0.0,-0.0020809436682611704,-0.0015974672278389335,-0.0,0.0,0.0,0.0,0.002667767694219947,0.0017777754692360759,-0.005406152456998825,12041.0,14804.0,12022.0,15355.0,0.3184792399406433,0.4941457509994507,0.3174295425415039,0.5337610840797424,0.0,0.0,0.0,0.0,14297.0,12636.0,14315.0,13262.0,1.681280255317688,0.029216723660600134,-0.14430653456996886,-0.03057360482922129,0.006471766624599695,-0.0064849769696593285,0.0
197,5,2.1076730263303034e-06,6.005543013998249e-07,-7.372256277449196e-06,0.0012369013857096434,-0.0018327474826946855,0.00022011456894688308,-0.011689075268805027,-0.005318803247064352,-0.011050611734390259,0.02045360393822193,0.00516849709674716,-0.020109685137867928,0.0,0.0,0.0,-0.0020809436682611704,-0.0015974672278389335,-0.0,0.0,0.0,0.0,0.002074276329949498,0.0021700572688132524,0.0021425492595881224,13824.0,13250.0,13802.0,13755.0,0.42750823497772217,0.3906521201133728,0.4260485768318176,0.42299652099609375,0.0,0.0,0.0,0.0,11236.0,15493.0,11198.0,15924.0,1.681280255317688,0.02910237193167463,-0.14415539701439828,-0.029835450308446344,0.006471766624599695,-0.0064849769696593285,0.0
202,5,1.8887592887040228e-05,4.178710071300884e-07,-9.708612196845934e-06,0.0025083511136472225,-0.000711177010089159,0.00036840850953012705,-0.011689075268805027,-0.005318803247064352,-0.011050611734390259,0.02045360393822193,0.00516849709674716,-0.020109685137867928,0.0,0.0,0.0,0.002246893709525466,0.0011689378879964352,-0.0,0.0,0.0,0.0,0.002074276329949498,0.0021700572688132524,0.0021425492595881224,13824.0,13250.0,13802.0,13755.0,0.42750823497772217,0.3906521201133728,0.4260485768318176,0.42299652099609375,0.0,0.0,0.0,0.0,11236.0,15493.0,11198.0,15924.0,1.6509146690368652,0.02856189171260284,-0.1440101218857045,-0.030183795410962562,-0.004650147631764412,0.006875670049339533,0.0
208,5,8.3507102317526e-06,7.985782758623827e-06,2.8548858608701266e-05,-0.0002610855735838413,-0.0011926202569156885,-0.004443533252924681,-0.011574252508580685,-0.005382105708122253,-0.01254489179700613,-0.012306486256420612,0.013165291398763657,0.07616400718688965,0.0,0.0,0.0,0.002246893709525466,0.0011689378879964352,-0.0,0.0,0.0,0.0,0.0033098976127803326,0.0011711561819538474,-0.0014414790784940124,13083.0,13966.0,13067.0,14469.0,0.3802749514579773,0.43681955337524414,0.3792489171028137,0.4708620309829712,0.0,0.0,0.0,0.0,14870.0,11775.0,15061.0,12484.0,1.6509146690368652,0.028565970940210173,-0.1439432553372878,-0.030331796072382865,-0.004650147631764412,0.006875670049339533,0.0
213,5,2.341380786674563e-05,3.656874469015747e-05,6.38647616142407e-05,0.001703137531876564,-0.003907003439962864,-0.006015321705490351,-0.011574252508580685,-0.005382105708122253,-0.01254489179700613,-0.012306486256420612,0.013165291398763657,0.07616400718688965,0.0,0.0,0.0,0.0014479132369160652,-0.0002300982887391001,-0.0,0.0,0.0,0.0,0.0033098976127803326,0.0011711561819538474,-0.0014414790784940124,13083.0,13966.0,13067.0,14469.0,0.3802749514579773,0.43681955337524414,0.3792489171028137,0.4708620309829712,0.0,0.0,0.0,0.0,14870.0,11775.0,15061.0,12484.0,1.6826262474060059,0.028268881200565216,-0.14329825513013156,-0.029799774462625418,0.0009329373715445399,0.004515839274972677,0.0
218,5,3.934744017897174e-05,2.1403911887318827e-05,6.808547186665237e-05,0.0025932909920811653,0.00025697858654893935,-0.002912613796070218,-0.011857692152261734,-0.0054170237854123116,-0.011473847553133965,-0.024170154705643654,0.0021548804361373186,-0.10472793132066727,0.0,0.0,0.0,0.0014479132369160652,-0.0002300982887391001,-0.0,0.0,0.0,0.0,0.00265079946257174,0.0015099981101229787,0.001497185556218028,14161.0,12860.0,14304.0,13481.0,0.44989871978759766,0.3665800094604492,0.4595109820365906,0.40529054403305054,0.0,0.0,0.0,0.0,11893.0,15046.0,12028.0,15466.0,1.6826262474060059,0.0269509702947203,-0.14284607253847556,-0.030449529172747864,0.0009329373715445399,0.004515839274972677,0.0
223,5,3.6141711461823434e-05,6.298998778220266e-05,0.00015083831385709345,0.0006526290089823306,-0.004887537565082312,-0.011095386929810047,-0.011857692152261734,-0.0054170237854123116,-0.011473847553133965,-0.024170154705643654,0.0021548804361373186,-0.10472793132066727,0.0,0.0,0.0,-0.0002750542771536857,0.0024855167139321566,-0.0,0.0,0.0,0.0,0.00265079946257174,0.0015099981101229787,0.001497185556218028,14161.0,12860.0,14304.0,13481.0,0.44989871978759766,0.3665800094604492,0.4595109820365906,0.40529054403305054,0.0,0.0,0.0,0.0,11893.0,15046.0,12028.0,15466.0,1.6599229574203491,0.026114275445974715,-0.1425071474164506,-0.030452223342061904,-0.009941594675183296,-0.000846281589474529,0.0
228,5,7.347365317400545e-05,0.00010201631812378764,0.00020824340754188597,0.004740884993225336,-0.006638175342231989,-0.011326765641570091,-0.014024228788912296,-0.00652721244841814,-0.012162920087575912,-0.33470019698143005,0.09608444571495056,0.019342657178640366,0.0,0.0,0.0,-0.0002750542771536857,0.0024855167139321566,-0.0,0.0,0.0,0.0,0.004987040534615517,0.003487670561298728,-0.002441852120682597,12862.0,13614.0,13097.0,14735.0,0.36667510867118835,0.41381731629371643,0.38110122084617615,0.4893210232257843,0.0,0.0,0.0,0.0,12843.0,13807.0,12974.0,14680.0,1.6599229574203491,0.02314173891599232,-0.14143055277631777,-0.03016662427843387,-0.009941594675183296,-0.000846281589474529,0.0
233,5,7.298825948964804e-05,0.00015339258243329823,0.00032167494646273553,0.0018381064292043447,-0.008820421062409878,-0.018142489716410637,-0.014024228788912296,-0.00652721244841814,-0.012162920087575912,-0.33470019698143005,0.09608444571495056,0.019342657178640366,0.0,0.0,0.0,0.008031170815229416,0.004413141403347254,-0.0,0.0,0.0,0.0,0.004987040534615517,0.003487670561298728,-0.002441852120682597,12862.0,13614.0,13097.0,14735.0,0.36667510867118835,0.41381731629371643,0.38110122084617615,0.4893210232257843,0.0,0.0,0.0,0.0,12843.0,13807.0,12974.0,14680.0,1.709943413734436,0.0196252114487784,-0.14046993831761823,-0.030713421883985566,-0.018183022737503052,0.025454271584749222,0.0
238,5,8.286774391308427e-05,0.00021031139476690441,0.0004175730573479086,0.0019207802833989263,-0.010358424857258797,-0.018764769658446312,-0.01982157491147518,-0.0079894308000803,-0.012040060944855213,-0.627623438835144,0.16103167831897736,-0.12424103915691376,0.0,0.0,0.0,0.008031170815229416,0.004413141403347254,-0.0,0.0,0.0,0.0,0.0076471115462481976,0.0036802643444389105,-0.0021673468872904778,12037.0,14194.0,12633.0,15700.0,0.3183000087738037,0.45206159353256226,0.35290294885635376,0.5593616962432861,0.0,0.0,0.0,0.0,13699.0,12903.0,14091.0,14147.0,1.709943413734436,0.017117743777651368,-0.13974788692446785,-0.03099878295095025,-0.018183022737503052,0.025454271584749222,0.0
243,5,0.00010733765520853922,0.00029643764719367027,0.0005190139054320753,0.003704702015966177,-0.014478519558906555,-0.019678810611367226,-0.01982157491147518,-0.0079894308000803,-0.012040060944855213,-0.627623438835144,0.16103167831897736,-0.12424103915691376,0.0,0.0,0.0,0.012438638135790825,0.0018321936950087547,-0.0,0.0,0.0,0.0,0.0076471115462481976,0.0036802643444389105,-0.0021673468872904778,12037.0,14194.0,12633.0,15700.0,0.3183000087738037,0.45206159353256226,0.35290294885635376,0.5593616962432861,0.0,0.0,0.0,0.0,13699.0,12903.0,14091.0,14147.0,1.7350658178329468,0.012679995068846164,-0.13938210729715755,-0.030562140938201025,-0.007659588009119034,0.04000156745314598,0.0
248,5,0.0001736087433528155,0.0004958147765137255,0.0007571036112494767,0.006234770640730858,-0.018832027912139893,-0.022848501801490784,-0.02544187195599079,-0.009289680980145931,-0.01256695669144392,-0.7962077260017395,0.14600138366222382,0.04174153506755829,0.0,0.0,0.0,0.012438638135790825,0.0018321936950087547,-0.0,0.0,0.0,0.0,0.010163494385778904,0.005051082000136375,-0.0009499780717305839,13073.0,12792.0,13741.0,14827.0,0.3796634376049042,0.362438827753067,0.4220527112483978,0.4957679808139801,0.0,0.0,0.0,0.0,11408.0,14551.0,11844.0,16134.0,1.7350658178329468,0.0036634264440016315,-0.13752675086317698,-0.030598377853063095,-0.007659588009119034,0.04000156745314598,0.0
253,5,0.0001736087433528155,0.0004958147765137255,0.0007571036112494767,0.006234770640730858,-0.018832027912139893,-0.022848501801490784,-0.02544187195599079,-0.009289680980145931,-0.01256695669144392,-0.7962077260017395,0.14600138366222382,0.04174153506755829,0.0,0.0,0.0,0.02161749266088009,0.0055178371258080006,-0.0,0.0,0.0,0.0,0.010163494385778904,0.005051082000136375,-0.0009499780717305839,13073.0,12792.0,13741.0,14827.0,0.3796634376049042,0.362438827753067,0.4220527112483978,0.4957679808139801,0.0,0.0,0.0,0.0,11408.0,14551.0,11844.0,16134.0,1.8308181762695312,0.0036634264440016315,-0.13752675086317698,-0.030598377853063095,-0.024336734786629677,0.07334958016872406,0.0
258,5,0.00021068842033855617,0.0006782851414754987,0.0009676641784608364,0.004217544104903936,-0.01853705383837223,-0.020562270656228065,-0.035480037331581116,-0.010715004056692123,-0.01275175902992487,-0.8631516695022583,0.07422545552253723,-0.07731987535953522,0.0,0.0,0.0,0.02161749266088009,0.0055178371258080006,-0.0,0.0,0.0,0.0,0.013563225977122784,0.005535888019949198,-0.002991989953443408,11958.0,13676.0,13186.0,16124.0,0.3138003647327423,0.4178355038166046,0.38666364550590515,0.5916439294815063,0.0,0.0,0.0,0.0,11785.0,13913.0,13286.0,16292.0,1.8308181762695312,-0.003854423535339816,-0.1368327756683468,-0.03059073430776209,-0.024336734786629677,0.07334958016872406,0.0
263,5,0.0002112051734002307,0.0007749341893941164,0.0010669814655557275,0.0017490278696641326,-0.019012706354260445,-0.02014297805726528,-0.035480037331581116,-0.010715004056692123,-0.01275175902992487,-0.8631516695022583,0.07422545552253723,-0.07731987535953522,0.0,0.0,0.0,0.021651919931173325,0.0038605250883847475,-0.0,0.0,0.0,0.0,0.013563225977122784,0.005535888019949198,-0.002991989953443408,11958.0,13676.0,13186.0,16124.0,0.3138003647327423,0.4178355038166046,0.38666364550590515,0.5916439294815063,0.0,0.0,0.0,0.0,11785.0,13913.0,13286.0,16292.0,1.8254112005233765,-0.007239740821764021,-0.1370449480949225,-0.03059654046273542,-0.01697681099176407,0.07324939221143723,0.0
268,5,0.0002112051734002307,0.0007749341893941164,0.0010669814655557275,0.0017490278696641326,-0.019012706354260445,-0.02014297805726528,-0.042037781327962875,-0.011063605546951294,-0.013034159317612648,-0.7543370127677917,0.01858452521264553,0.018183615058660507,0.0,0.0,0.0,0.021651919931173325,0.0038605250883847475,-0.0,0.0,0.0,0.0,0.01602196879684925,0.0041109235025942326,-0.001164699555374682,12717.0,12959.0,14276.0,15533.0,0.35793250799179077,0.3725988268852234,0.45762383937835693,0.5469106435775757,0.0,0.0,0.0,0.0,13031.0,13106.0,14735.0,16009.0,1.8254112005233765,-0.007239740821764021,-0.1370449480949225,-0.03059654046273542,-0.01697681099176407,0.07324939221143723,0.0
274,5,0.00020521676924545318,0.000931341724935919,0.0011166241019964218,-0.00045841874089092016,-0.0158447977155447,-0.006030315533280373,-0.042037781327962875,-0.011063605546951294,-0.013034159317612648,-0.7543370127677917,0.01858452521264553,0.018183615058660507,0.0,0.0,0.0,0.022312799468636513,0.0017544097499921918,-0.0,0.0,0.0,0.0,0.01602196879684925,0.0041109235025942326,-0.001164699555374682,12717.0,12959.0,14276.0,15533.0,0.35793250799179077,0.3725988268852234,0.45762383937835693,0.5469106435775757,0.0,0.0,0.0,0.0,13031.0,13106.0,14735.0,16009.0,1.8274147510528564,-0.012432705523538682,-0.13792431621876444,-0.03041967088750532,-0.007723456714302301,0.07556736469268799,0.0
279,5,0.00019326622714288533,0.0010228963801637292,0.0011250065872445703,-0.0016174326883628964,-0.017324481159448624,-0.0034180262591689825,-0.049934279173612595,-0.010816575028002262,-0.013395186513662338,-0.504256010055542,-0.0801735520362854,-0.07021918892860413,0.0,0.0,0.0,0.022312799468636513,0.0017544097499921918,-0.0,0.0,0.0,0.0,0.017664462327957153,0.004430048167705536,-0.0030709076672792435,12170.0,13973.0,13981.0,16645.0,0.32159149646759033,0.4397140145301819,0.4370276927947998,0.6324849128723145,0.0,0.0,0.0,0.0,12282.0,13876.0,14171.0,16383.0,1.8274147510528564,-0.012848205658412958,-0.13916832371121254,-0.030064891233543275,-0.007723456714302301,0.07556736469268799,0.0
284,5,0.0001606460427865386,0.0010937972692772746,0.0011201809393242002,-0.004561395850032568,-0.015437900088727474,-0.0007881339988671243,-0.049934279173612595,-0.010816575028002262,-0.013395186513662338,-0.504256010055542,-0.0801735520362854,-0.07021918892860413,0.0,0.0,0.0,0.021001413464546204,-0.0011438694782555103,-0.0,0.0,0.0,0.0,0.017664462327957153,0.004430048167705536,-0.0030709076672792435,12170.0,13973.0,13981.0,16645.0,0.32159149646759033,0.4397140145301819,0.4370276927947998,0.6324849128723145,0.0,0.0,0.0,0.0,12282.0,13876.0,14171.0,16383.0,1.8139679431915283,-0.013640601542376177,-0.1404482808762573,-0.029828897233488312,0.004998757969588041,0.07060389965772629,0.0
289,5,0.00013984354154672474,0.0011359361233189702,0.0010874551953747869,-0.004320858046412468,-0.01123182475566864,0.0036118426360189915,-0.052975624799728394,-0.009743341244757175,-0.013467959128320217,-0.20752929151058197,-0.20155079662799835,0.02745884470641613,0.0,0.0,0.0,0.021001413464546204,-0.0011438694782555103,-0.0,0.0,0.0,0.0,0.016768403351306915,0.0023049137089401484,-0.0010014149593189359,12913.0,13372.0,14793.0,15760.0,0.36981356143951416,0.39833682775497437,0.4934150278568268,0.5638458132743835,0.0,0.0,0.0,0.0,12812.0,13560.0,14671.0,15796.0,1.8139679431915283,-0.012781276649733922,-0.14136368076895214,-0.029765089629139457,0.004998757969588041,0.07060389965772629,0.0
294,5,9.994624269893393e-05,0.0011812900193035603,0.0010702443541958928,-0.00651601841673255,-0.009935191832482815,0.0035100376699119806,-0.052975624799728394,-0.009743341244757175,-0.013467959128320217,-0.20752929151058197,-0.20155079662799835,0.02745884470641613,0.0,0.0,0.0,0.014818067662417889,-0.003635358065366745,-0.0,0.0,0.0,0.0,0.016768403351306915,0.0023049137089401484,-0.0010014149593189359,12913.0,13372.0,14793.0,15760.0,0.36981356143951416,0.39833682775497437,0.4934150278568268,0.5638458132743835,0.0,0.0,0.0,0.0,12812.0,13560.0,14671.0,15796.0,1.761626124382019,-0.010665025451336043,-0.1425323641267037,-0.029830699794584293,0.015429938212037086,0.04838212952017784,-0.0
299,5,7.326257036766037e-05,0.0012073273537680507,0.0010701874271035194,-0.005808448418974876,-0.007098560221493244,0.0014108390314504504,-0.053439654409885406,-0.007266553584486246,-0.013355315662920475,0.15500222146511078,-0.2629757523536682,-0.018605293706059456,0.0,0.0,0.0,0.014818067662417889,-0.003635358065366745,-0.0,0.0,0.0,0.0,0.014799913391470909,0.0004898383049294353,-0.002100643003359437,12472.0,14054.0,14406.0,15904.0,0.34339413046836853,0.4427277743816376,0.46652650833129883,0.5747662782669067,0.0,0.0,0.0,0.0,12530.0,14100.0,14406.0,15820.0,1.761626124382019,-0.008588413004768905,-0.14449282535746294,-0.0297102484584204,0.015429938212037086,0.04838212952017784,-0.0
304,5,4.8333400627598166e-05,0.0012106035137549043,0.0010622801491990685,-0.005314880050718784,-0.003232564078643918,0.0015132164116948843,-0.053439654409885406,-0.007266553584486246,-0.013355315662920475,0.15500222146511078,-0.2629757523536682,-0.018605293706059456,0.0,0.0,0.0,0.010366879403591156,-0.005121944472193718,-0.0,0.0,0.0,0.0,0.014799913391470909,0.0004898383049294353,-0.002100643003359437,12472.0,14054.0,14406.0,15904.0,0.34339413046836853,0.4427277743816376,0.46652650833129883,0.5747662782669067,0.0,0.0,0.0,0.0,12530.0,14100.0,14406.0,15820.0,1.7319334745407104,-0.005957981554793907,-0.14568754474518542,-0.029604394765548867,0.02137434110045433,0.033279262483119965,-0.0
309,5,7.08856589426432e-07,0.001206705579534173,0.001112705678679049,-0.0078408969566226,-0.0008252678089775145,-0.0054457769729197025,-0.05080432817339897,-0.005214925389736891,-0.013358725234866142,0.4877955913543701,-0.275232195854187,0.015197530388832092,0.0,0.0,0.0,0.010366879403591156,-0.005121944472193718,-0.0,0.0,0.0,0.0,0.011707164347171783,-0.0013541801599785686,-0.0012778518721461296,12885.0,14008.0,14611.0,15243.0,0.36810609698295593,0.4396052062511444,0.4806417226791382,0.525614857673645,0.0,0.0,0.0,0.0,13134.0,13937.0,14690.0,15020.0,1.7319334745407104,-0.0021707707385040242,-0.1474407641209663,-0.029363372035593034,0.02137434110045433,0.033279262483119965,-0.0
314,5,-4.74989356007427e-05,0.0011624462204053998,0.0011503953719511628,-0.008921293541789055,0.0049810162745416164,-0.006701068487018347,-0.05080432817339897,-0.005214925389736891,-0.013358725234866142,0.4877955913543701,-0.275232195854187,0.015197530388832092,0.0,0.0,0.0,0.0030793773476034403,-0.007137750741094351,-0.0,0.0,0.0,0.0,0.011707164347171783,-0.0013541801599785686,-0.0012778518721461296,12885.0,14008.0,14611.0,15243.0,0.36810609698295593,0.4396052062511444,0.4806417226791382,0.525614857673645,0.0,0.0,0.0,0.0,13134.0,13937.0,14690.0,15020.0,1.7090978622436523,0.004049950444440351,-0.1483292891828213,-0.029474843257535053,0.02939506620168686,0.00975522119551897,0.0
319,5,-7.684501179028302e-05,0.0011135574895888567,0.0011732731945812702,-0.0070900460705161095,0.007859050296247005,-0.005425774026662111,-0.04217556491494179,-0.00214980891905725,-0.013073304668068886,0.8995606899261475,-0.26050296425819397,-0.003585216822102666,0.0,0.0,0.0,0.0030793773476034403,-0.007137750741094351,-0.0,0.0,0.0,0.0,0.006782739423215389,-0.0026374715380370617,-0.0012833595974370837,12842.0,14293.0,14110.0,14757.0,0.36549776792526245,0.4588044285774231,0.4464605450630188,0.4908633828163147,0.0,0.0,0.0,0.0,12863.0,14434.0,13987.0,14719.0,1.7090978622436523,0.009149585751356056,-0.1490673516965719,-0.029681690674440066,0.02939506620168686,0.00975522119551897,0.0
324,5,-0.00010417719022370875,0.0010535211768001318,0.0011934718349948525,-0.006115879863500595,0.010347973555326462,-0.004594148602336645,-0.04217556491494179,-0.00214980891905725,-0.013073304668068886,0.8995606899261475,-0.26050296425819397,-0.003585216822102666,0.0,0.0,0.0,-0.007307561580091715,-0.006510029546916485,-0.0,0.0,0.0,0.0,0.006782739423215389,-0.0026374715380370617,-0.0012833595974370837,12842.0,14293.0,14110.0,14757.0,0.36549776792526245,0.4588044285774231,0.4464605450630188,0.4908633828163147,0.0,0.0,0.0,0.0,12863.0,14434.0,13987.0,14719.0,1.721643090248108,0.01568500638401369,-0.1497149600268523,-0.02976939721268485,0.02700619027018547,-0.023319387808442116,0.0
329,5,-0.00012284315016586334,0.0009895040420815349,0.0011721958871930838,-0.004686266649514437,0.011821256950497627,0.0007154534105211496,-0.033286381512880325,-0.0004950235597789288,-0.012963449582457542,1.2263110876083374,-0.1918480396270752,0.02382330782711506,0.0,0.0,0.0,-0.007307561580091715,-0.006510029546916485,-0.0,0.0,0.0,0.0,0.0011727891396731138,-0.003346359357237816,-0.0010389747330918908,13250.0,14408.0,13847.0,14097.0,0.3906756043434143,0.4666634798049927,0.42900997400283813,0.44558441638946533,0.0,0.0,0.0,0.0,13478.0,14345.0,13914.0,13880.0,1.721643090248108,0.021797909798593577,-0.15063727583459535,-0.029917207865856457,0.02700619027018547,-0.023319387808442116,0.0
335,5,-0.00017548994219396263,0.0009220801293849945,0.001178667531348765,-0.008192122913897038,0.012819366529583931,-0.000490417645778507,-0.033286381512880325,-0.0004950235597789288,-0.012963449582457542,1.2263110876083374,-0.1918480396270752,0.02382330782711506,0.0,0.0,0.0,-0.012042184360325336,-0.0043497709557414055,-0.0,0.0,0.0,0.0,0.0011727891396731138,-0.003346359357237816,-0.0010389747330918908,13250.0,14408.0,13847.0,14097.0,0.3906756043434143,0.4666634798049927,0.42900997400283813,0.44558441638946533,0.0,0.0,0.0,0.0,13478.0,14345.0,13914.0,13880.0,1.7408801317214966,0.027430206099887316,-0.15109745472722602,-0.030147436763976625,0.018245438113808632,-0.038856495171785355,-0.0
340,5,-0.00019348769274074584,0.0008457900257781148,0.0011208716314285994,-0.0054365792311728,0.014282562769949436,0.00673934118822217,-0.018308162689208984,0.001164369867183268,-0.012681055814027786,1.2707021236419678,-0.12416981905698776,0.0076055084355175495,0.0,0.0,0.0,-0.012042184360325336,-0.0043497709557414055,-0.0,0.0,0.0,0.0,-0.0028735266532748938,-0.0037420312874019146,-0.0008949396433308721,13338.0,14644.0,13474.0,13789.0,0.39617058634757996,0.4829634130001068,0.4047967493534088,0.42516711354255676,0.0,0.0,0.0,0.0,13492.0,14608.0,13496.0,13655.0,1.7408801317214966,0.03449017681738307,-0.1514998843701683,-0.029738523145379853,0.018245438113808632,-0.038856495171785355,-0.0
345,5,-0.00019933638395741582,0.0008183432510122657,0.001059462781995535,-0.0028764731250703335,0.009006631560623646,0.010064800269901752,-0.018308162689208984,0.001164369867183268,-0.012681055814027786,1.2707021236419678,-0.12416981905698776,0.0076055084355175495,0.0,0.0,0.0,-0.012042184360325336,-0.0043497709557414055,-0.0,0.0,0.0,0.0,-0.0028735266532748938,-0.0037420312874019146,-0.0008949396433308721,13338.0,14644.0,13474.0,13789.0,0.39617058634757996,0.4829634130001068,0.4047967493534088,0.42516711354255676,0.0,0.0,0.0,0.0,13492.0,14608.0,13496.0,13655.0,1.7408801317214966,0.04358430308594152,-0.15101702241521123,-0.0290725987175695,0.018245438113808632,-0.038856495171785355,-0.0
350,5,-0.00021848309552296996,0.0007438516477122903,0.0009798265527933836,-0.003448195056989789,0.012541648931801319,0.013582276180386543,-0.008301377296447754,0.0017571564530953765,-0.012509619817137718,1.2279671430587769,-0.03473089635372162,0.01395708229392767,0.0,0.0,0.0,-0.00922167208045721,-0.0028821411542594433,-0.0,0.0,0.0,0.0,-0.010366402566432953,-0.0014665733324363828,-9.789604519028217e-05,13882.0,14824.0,13255.0,13458.0,0.43129149079322815,0.4955945909023285,0.3909585177898407,0.40379849076271057,0.0,0.0,0.0,0.0,13997.0,14817.0,13254.0,13346.0,1.7106958627700806,0.04936050759626322,-0.15078524903267132,-0.029119893039749378,0.011880122125148773,-0.029240168631076813,-0.0
355,5,-0.00023410993162542582,0.0006736256764270365,0.0008805004181340337,-0.003254498355090618,0.013443775475025177,0.017352038994431496,-0.008301377296447754,0.0017571564530953765,-0.012509619817137718,1.2279671430587769,-0.03473089635372162,0.01395708229392767,0.0,0.0,0.0,-0.00922167208045721,-0.0028821411542594433,-0.0,0.0,0.0,0.0,-0.010366402566432953,-0.0014665733324363828,-9.789604519028217e-05,13882.0,14824.0,13255.0,13458.0,0.43129149079322815,0.4955945909023285,0.3909585177898407,0.40379849076271057,0.0,0.0,0.0,0.0,13997.0,14817.0,13254.0,13346.0,1.7106958627700806,0.05541719142244226,-0.15050172818412696,-0.028815055518257363,0.011880122125148773,-0.029240168631076813,-0.0
360,5,-0.0002364185347687453,0.0006037615239620209,0.0007743536843918264,-0.0015788315795361996,0.013761207461357117,0.019678423181176186,-0.008301377296447754,0.0017571564530953765,-0.012509619817137718,1.2279671430587769,-0.03473089635372162,0.01395708229392767,0.0,0.0,0.0,-0.0143417464569211,-0.0031887178774923086,-0.0,0.0,0.0,0.0,-0.010366402566432953,-0.0014665733324363828,-9.789604519028217e-05,13882.0,14824.0,13255.0,13458.0,0.43129149079322815,0.4955945909023285,0.3909585177898407,0.40379849076271057,0.0,0.0,0.0,0.0,13997.0,14817.0,13254.0,13346.0,1.7558306455612183,0.06115522868438666,-0.15015173565644252,-0.028718844496526067,0.013489791192114353,-0.04667304828763008,-0.0
365,5,-0.00022967864060774446,0.0005429591983556747,0.0006935935816727579,0.00017725408542901278,0.012800765223801136,0.017562584951519966,0.006091175600886345,0.0017148477490991354,-0.012126931920647621,1.2037423849105835,0.052279841154813766,0.03869768977165222,0.0,0.0,0.0,-0.0143417464569211,-0.0031887178774923086,-0.0,0.0,0.0,0.0,-0.01206942182034254,5.4259970056591555e-05,-0.00027558079455047846,14472.0,14726.0,13298.0,13199.0,0.47103556990623474,0.4887063801288605,0.3936528265476227,0.3874853551387787,0.0,0.0,0.0,0.0,14448.0,14843.0,13142.0,13251.0,1.7558306455612183,0.06536948592866113,-0.1494832080438125,-0.02906670508755703,0.013489791192114353,-0.04667304828763008,-0.0
370,5,-0.00022552782320417464,0.00048352908925153315,0.0006347066373564303,0.0005689993849955499,0.012251915410161018,0.014091470278799534,0.006091175600886345,0.0017148477490991354,-0.012126931920647621,1.2037423849105835,0.052279841154813766,0.03869768977165222,0.0,0.0,0.0,-0.013896199874579906,-0.0001419214968336746,-0.0,0.0,0.0,0.0,-0.01206942182034254,5.4259970056591555e-05,-0.00027558079455047846,14472.0,14726.0,13298.0,13199.0,0.47103556990623474,0.4887063801288605,0.3936528265476227,0.3874853551387787,0.0,0.0,0.0,0.0,14448.0,14843.0,13142.0,13251.0,1.7463287115097046,0.06875633741615286,-0.14881485904213843,-0.02879200942739818,0.0005971509963274002,-0.04497852548956871,-0.0
375,5,-0.00021259338245727122,0.00045391262392513454,0.0005850921734236181,0.001779732177965343,0.008454743772745132,0.011590316891670227,0.015384253114461899,0.0010353870457038283,-0.01178405899554491,1.1084550619125366,0.13426530361175537,0.039997655898332596,0.0,0.0,0.0,-0.013896199874579906,-0.0001419214968336746,-0.0,0.0,0.0,0.0,-0.012408246286213398,0.0007733369711786509,-0.0006827152683399618,14603.0,14921.0,12880.0,13484.0,0.4800812602043152,0.5024775862693787,0.3678014278411865,0.4054703712463379,0.0,0.0,0.0,0.0,14438.0,14790.0,12723.0,13248.0,1.7463287115097046,0.07109603018147506,-0.14843903708512324,-0.028502714530174552,0.0005971509963274002,-0.04497852548956871,-0.0
380,5,-0.00023591566423419863,0.0003842678852379322,0.000577629660256207,-0.002086780034005642,0.011739267036318779,0.005531634669750929,0.015384253114461899,0.0010353870457038283,-0.01178405899554491,1.1084550619125366,0.13426530361175537,0.039997655898332596,0.0,0.0,0.0,-0.009226249530911446,0.0013395295245572925,-0.0,0.0,0.0,0.0,-0.012408246286213398,0.0007733369711786509,-0.0006827152683399618,14603.0,14921.0,12880.0,13484.0,0.4800812602043152,0.5024775862693787,0.3678014278411865,0.4054703712463379,0.0,0.0,0.0,0.0,14438.0,14790.0,12723.0,13248.0,1.7056922912597656,0.07252072776387788,-0.14759961095349503,-0.028930686813917656,-0.005505366716533899,-0.02916911244392395,-0.0
385,5,-0.0002466923906467855,0.0004035525198560208,0.0005901150871068239,-0.0021279186476022005,0.0023815499152988195,0.0007143973489291966,0.029263196513056755,-0.0024392877239733934,-0.011201794259250164,0.1874561458826065,0.19075731933116913,0.042698539793491364,0.0,0.0,0.0,-0.009226249530911446,0.0013395295245572925,-0.0,0.0,0.0,0.0,-0.010263467207551003,0.0027281837537884712,-0.000397166411858052,14680.0,14513.0,13002.0,13582.0,0.4854849874973297,0.4738784730434418,0.3752308189868927,0.4117344319820404,0.0,0.0,0.0,0.0,14466.0,14995.0,12724.0,13696.0,1.7056922912597656,0.07177844036271497,-0.14690246316699437,-0.02897577448095289,-0.005505366716533899,-0.02916911244392395,-0.0
390,5,-0.0002629274968057871,0.00043483314220793545,0.0006187102990224957,-0.002799380337819457,-0.002801054622977972,-0.003145663533359766,0.029263196513056755,-0.0024392877239733934,-0.011201794259250164,0.1874561458826065,0.19075731933116913,0.042698539793491364,0.0,0.0,0.0,-0.0021719837095588446,-0.0023386748507618904,-0.0,0.0,0.0,0.0,-0.010263467207551003,0.0027281837537884712,-0.000397166411858052,14680.0,14513.0,13002.0,13582.0,0.4854849874973297,0.4738784730434418,0.3752308189868927,0.4117344319820404,0.0,0.0,0.0,0.0,14466.0,14995.0,12724.0,13696.0,1.656817078590393,0.07087372692875658,-0.14636809619197852,-0.028955942286528445,0.00933673232793808,-0.006670203059911728,-0.0
395,5,-0.00027643528301268816,0.0004739057912956923,0.0006445185863412917,-0.002740686060860753,-0.005809139925986528,-0.004355257842689753,0.028191063553094864,-0.0043496969155967236,-0.011067689396440983,-0.31010642647743225,0.10448498278856277,-0.021478964015841484,0.0,0.0,0.0,-0.0021719837095588446,-0.0023386748507618904,-0.0,0.0,0.0,0.0,-0.006114535499364138,0.0029526662547141314,-0.0014389596180990338,13746.0,14616.0,12524.0,14250.0,0.4223882555961609,0.480998158454895,0.34642285108566284,0.4558830261230469,0.0,0.0,0.0,0.0,14572.0,14503.0,12976.0,13733.0,1.656817078590393,0.06768418031573756,-0.14583575600565388,-0.029339594916046152,0.00933673232793808,-0.006670203059911728,-0.0
401,5,-0.0003080979804508388,0.0005286387167870998,0.0006814266089349985,-0.004895797464996576,-0.008891609497368336,-0.006171069107949734,0.028191063553094864,-0.0043496969155967236,-0.011067689396440983,-0.31010642647743225,0.10448498278856277,-0.021478964015841484,0.0,0.0,0.0,0.007759314030408859,-0.0028823819011449814,-0.0,0.0,0.0,0.0,-0.006114535499364138,0.0029526662547141314,-0.0014389596180990338,13746.0,14616.0,12524.0,14250.0,0.4223882555961609,0.480998158454895,0.34642285108566284,0.4558830261230469,0.0,0.0,0.0,0.0,14572.0,14503.0,12976.0,13733.0,1.6988751888275146,0.06481674226408587,-0.1450590063854567,-0.029166914598303034,0.011799163185060024,0.02443348616361618,0.0
406,5,-0.00033710678690113127,0.0005985048483125865,0.0007415173458866775,-0.005439378321170807,-0.011940577067434788,-0.009679311886429787,0.02399253472685814,-0.005040347576141357,-0.011138048022985458,-0.6992114782333374,0.025306079536676407,0.028826331719756126,0.0,0.0,0.0,0.007759314030408859,-0.0028823819011449814,-0.0,0.0,0.0,0.0,-0.002418330404907465,0.0025035825092345476,-0.000965448678471148,13462.0,13884.0,13167.0,13951.0,0.4040507674217224,0.4314115047454834,0.3854733109474182,0.43588149547576904,0.0,0.0,0.0,0.0,13678.0,14540.0,12627.0,14302.0,1.6988751888275146,0.060643374922996186,-0.1447886040175881,-0.02876074400724628,0.011799163185060024,0.02443348616361618,0.0
411,5,-0.0003662731614895165,0.0006703957915306091,0.0008007343858480453,-0.005675715394318104,-0.013403144665062428,-0.010977775789797306,0.02399253472685814,-0.005040347576141357,-0.011138048022985458,-0.6992114782333374,0.025306079536676407,0.028826331719756126,0.0,0.0,0.0,0.014687038026750088,-0.005225798115134239,-0.0,0.0,0.0,0.0,-0.002418330404907465,0.0025035825092345476,-0.000965448678471148,13462.0,13884.0,13167.0,13951.0,0.4040507674217224,0.4314115047454834,0.3854733109474182,0.43588149547576904,0.0,0.0,0.0,0.0,13678.0,14540.0,12627.0,14302.0,1.7674816846847534,0.056133040628462194,-0.1451142393860096,-0.028878274278209246,0.022254131734371185,0.04811376333236694,0.0
416,5,-0.00039375483174808323,0.0007536598714068532,0.0008422438404522836,-0.005568088032305241,-0.015352943912148476,-0.009372242726385593,0.013783726841211319,-0.004571577534079552,-0.010720078833401203,-0.943222165107727,-0.09611550718545914,0.006619769614189863,0.0,0.0,0.0,0.014687038026750088,-0.005225798115134239,-0.0,0.0,0.0,0.0,0.002160821110010147,-9.82514102361165e-05,-0.00032123763230629265,13192.0,13742.0,13513.0,14018.0,0.38704273104667664,0.4221073091030121,0.4073401391506195,0.44032689929008484,0.0,0.0,0.0,0.0,13738.0,13422.0,13731.0,13586.0,1.7674816846847534,0.051011722590482596,-0.145857223906047,-0.02848279537220581,0.022254131734371185,0.04811376333236694,0.0
421,5,-0.00043534694123081863,0.0008374719182029366,0.0008968044421635568,-0.00721828592941165,-0.01619862951338291,-0.0102961715310812,0.013783726841211319,-0.004571577534079552,-0.010720078833401203,-0.943222165107727,-0.09611550718545914,0.006619769614189863,0.0,0.0,0.0,0.014687038026750088,-0.005225798115134239,-0.0,0.0,0.0,0.0,0.002160821110010147,-9.82514102361165e-05,-0.00032123763230629265,13192.0,13742.0,13513.0,14018.0,0.38704273104667664,0.4221073091030121,0.4073401391506195,0.44032689929008484,0.0,0.0,0.0,0.0,13738.0,13422.0,13731.0,13586.0,1.7674816846847534,0.046575423876362,-0.1463771837908836,-0.027669570984355366,0.022254131734371185,0.04811376333236694,0.0
426,5,-0.00047550423187203705,0.0009290998568758368,0.0009447098127566278,-0.007706189528107643,-0.01747480221092701,-0.009867110289633274,0.005940568167716265,-0.0032256431877613068,-0.010426272638142109,-1.0128017663955688,-0.21758969128131866,0.0651208758354187,0.0,0.0,0.0,0.019426580518484116,-0.006733697839081287,-0.0,0.0,0.0,0.0,0.0068800789304077625,-0.0020733859855681658,0.00041385614895261824,13361.0,13268.0,14562.0,13895.0,0.39765259623527527,0.39179715514183044,0.477243572473526,0.43218186497688293,0.0,0.0,0.0,0.0,12996.0,13866.0,13816.0,14411.0,1.816409945487976,0.041356231323031324,-0.14791087665438707,-0.02753387133011859,0.02946688048541546,0.06539870798587799,0.0
431,5,-0.0005463294219225645,0.0009876244002953172,0.0009719071676954627,-0.011581500992178917,-0.014012861996889114,-0.007210528012365103,0.005940568167716265,-0.0032256431877613068,-0.010426272638142109,-1.0128017663955688,-0.21758969128131866,0.0651208758354187,0.0,0.0,0.0,0.019426580518484116,-0.006733697839081287,-0.0,0.0,0.0,0.0,0.0068800789304077625,-0.0020733859855681658,0.00041385614895261824,13361.0,13268.0,14562.0,13895.0,0.39765259623527527,0.39179715514183044,0.477243572473526,0.43218186497688293,0.0,0.0,0.0,0.0,12996.0,13866.0,13816.0,14411.0,1.816409945487976,0.034150013706698075,-0.14945991964388977,-0.027857696596526545,0.02946688048541546,0.06539870798587799,0.0
436,5,-0.0006002463633194566,0.0010636223014444113,0.0010261801071465015,-0.011102628894150257,-0.014724895358085632,-0.009396965615451336,0.005940568167716265,-0.0032256431877613068,-0.010426272638142109,-1.0128017663955688,-0.21758969128131866,0.0651208758354187,0.0,0.0,0.0,0.017174364998936653,-0.010573328472673893,-0.0,0.0,0.0,0.0,0.0068800789304077625,-0.0020733859855681658,0.00041385614895261824,13361.0,13268.0,14562.0,13895.0,0.39765259623527527,0.39179715514183044,0.477243572473526,0.43218186497688293,0.0,0.0,0.0,0.0,12996.0,13866.0,13816.0,14411.0,1.823108196258545,0.028928823474251165,-0.15136292330268422,-0.0272529904760148,0.046441253274679184,0.05803138017654419,0.0
441,5,-0.0006742767873220146,0.001135625527240336,0.0010774056427180767,-0.013324704952538013,-0.014530339278280735,-0.009905841201543808,-0.006091594230383635,-0.0001590740866959095,-0.009977128356695175,-0.9966893792152405,-0.29746904969215393,0.007040171418339014,0.0,0.0,0.0,0.017174364998936653,-0.010573328472673893,-0.0,0.0,0.0,0.0,0.009887851774692535,-0.0040851798839867115,-0.00047312668175436556,12807.0,13936.0,14697.0,14640.0,0.3633429706096649,0.43483754992485046,0.48664286732673645,0.4826582968235016,0.0,0.0,0.0,0.0,13439.0,13427.0,15078.0,14155.0,1.823108196258545,0.02455905533404062,-0.1532699440286685,-0.026649231659751572,0.046441253274679184,0.05803138017654419,0.0
446,5,-0.0007414690335281193,0.0012290534796193242,0.001132012577727437,-0.013392952270805836,-0.017023500055074692,-0.010515172965824604,-0.006091594230383635,-0.0001590740866959095,-0.009977128356695175,-0.9966893792152405,-0.29746904969215393,0.007040171418339014,0.0,0.0,0.0,0.017819678410887718,-0.01210627518594265,-0.0,0.0,0.0,0.0,0.009887851774692535,-0.0040851798839867115,-0.00047312668175436556,12807.0,13936.0,14697.0,14640.0,0.3633429706096649,0.43483754992485046,0.48664286732673645,0.4826582968235016,0.0,0.0,0.0,0.0,13439.0,13427.0,15078.0,14155.0,1.8406225442886353,0.01900472541941872,-0.15396458914853434,-0.026818462413462325,0.05368433892726898,0.06078989803791046,0.0
451,5,-0.0007913224981166422,0.0013166589196771383,0.0011875841300934553,-0.011339593678712845,-0.017322054132819176,-0.01087465975433588,-0.013912036083638668,0.0022790967486798763,-0.009725895710289478,-0.9743744730949402,-0.30214518308639526,0.033473383635282516,0.0,0.0,0.0,0.017819678410887718,-0.01210627518594265,-0.0,0.0,0.0,0.0,0.012986741028726101,-0.005759295541793108,-0.00012867094483226538,12918.0,13798.0,15376.0,14677.0,0.37008148431777954,0.4257761836051941,0.535308301448822,0.4852439761161804,0.0,0.0,0.0,0.0,12732.0,14162.0,14934.0,14946.0,1.8406225442886353,0.013155651547505387,-0.1556392036720289,-0.0265109887978912,0.05368433892726898,0.06078989803791046,0.0
456,5,-0.0008414798066951334,0.001387200434692204,0.0012371401535347104,-0.010554715059697628,-0.015393796376883984,-0.010296580381691456,-0.013912036083638668,0.0022790967486798763,-0.009725895710289478,-0.9743744730949402,-0.30214518308639526,0.033473383635282516,0.0,0.0,0.0,0.021033842116594315,-0.010499727912247181,-0.0,0.0,0.0,0.0,0.012986741028726101,-0.005759295541793108,-0.00012867094483226538,12918.0,13798.0,15376.0,14677.0,0.37008148431777954,0.4257761836051941,0.535308301448822,0.4852439761161804,0.0,0.0,0.0,0.0,12732.0,14162.0,14934.0,14946.0,1.8536326885223389,0.009577005339521112,-0.15630972408994953,-0.0263485957942734,0.046886689960956573,0.07225912064313889,0.0
462,5,-0.0008826007833704352,0.0014478248776867986,0.0012522399192675948,-0.009156405925750732,-0.013432454317808151,-0.005930612329393625,-0.025362061336636543,0.005382380448281765,-0.00958735216408968,-0.941293478012085,-0.23712697625160217,0.010116512887179852,0.0,0.0,0.0,0.021033842116594315,-0.010499727912247181,-0.0,0.0,0.0,0.0,0.013983598910272121,-0.00686424458399415,-0.0010952427983283997,12457.0,14142.0,15241.0,14979.0,0.3424926698207855,0.4485761821269989,0.5254577994346619,0.5065816044807434,0.0,0.0,0.0,0.0,12500.0,14035.0,15344.0,14938.0,1.8536326885223389,0.005708213474019633,-0.15708046939245934,-0.025613535139106802,0.046886689960956573,0.07225912064313889,0.0
467,5,-0.000909603841137141,0.0014966968446969986,0.001291668158955872,-0.006902926601469517,-0.011237612925469875,-0.0071036252193152905,-0.025362061336636543,0.005382380448281765,-0.00958735216408968,-0.941293478012085,-0.23712697625160217,0.010116512887179852,0.0,0.0,0.0,0.017381953075528145,-0.008976704441010952,-0.0,0.0,0.0,0.0,0.013983598910272121,-0.00686424458399415,-0.0010952427983283997,12457.0,14142.0,15241.0,14979.0,0.3424926698207855,0.4485761821269989,0.5254577994346619,0.5065816044807434,0.0,0.0,0.0,0.0,12500.0,14035.0,15344.0,14938.0,1.8127691745758057,0.0027362096494826385,-0.15698743453652805,-0.025554712313049167,0.039204858243465424,0.05839960277080536,0.0
472,5,-0.0009356319787912071,0.0015275661135092378,0.0013069926062598825,-0.005884548183530569,-0.008199362084269524,-0.0046803890727460384,-0.03220570832490921,0.0068159992806613445,-0.00917007215321064,-0.7711980938911438,-0.12747620046138763,0.05048449710011482,0.0,0.0,0.0,0.017381953075528145,-0.008976704441010952,-0.0,0.0,0.0,0.0,0.01511447038501501,-0.00557047501206398,-0.0005449590971693397,12927.0,13679.0,15798.0,14676.0,0.37068596482276917,0.41803786158561707,0.5667415261268616,0.48515716195106506,0.0,0.0,0.0,0.0,12645.0,13936.0,15548.0,14945.0,1.8127691745758057,0.0006951869638030031,-0.15666832295742902,-0.025347887117906094,0.039204858243465424,0.05839960277080536,0.0
477,5,-0.0009566316148266196,0.0015434324741363525,0.0013418375747278333,-0.0048737782053649426,-0.005183700937777758,-0.006053554825484753,-0.03220570832490921,0.0068159992806613445,-0.00917007215321064,-0.7711980938911438,-0.12747620046138763,0.05048449710011482,0.0,0.0,0.0,0.012066489085555077,-0.006444730795919895,-0.0,0.0,0.0,0.0,0.01511447038501501,-0.00557047501206398,-0.0005449590971693397,12927.0,13679.0,15798.0,14676.0,0.37068596482276917,0.41803786158561707,0.5667415261268616,0.48515716195106506,0.0,0.0,0.0,0.0,12645.0,13936.0,15548.0,14945.0,1.7536017894744873,-0.0003810364350578749,-0.1559325047890139,-0.025247165616533285,0.027230337262153625,0.03921943157911301,0.0
482,5,-0.0009565390646457672,0.0015211270656436682,0.0013291796203702688,-0.001938404282554984,0.0006031583761796355,-0.0009024658356793225,-0.03920246660709381,0.007389398291707039,-0.008835450746119022,-0.4222990572452545,0.052250415086746216,0.036949750036001205,0.0,0.0,0.0,0.012066489085555077,-0.006444730795919895,-0.0,0.0,0.0,0.0,0.01511447038501501,-0.00557047501206398,-0.0005449590971693397,12880.0,13873.0,15491.0,15045.0,0.3678145408630371,0.43067991733551025,0.5437965393066406,0.5113416910171509,0.0,0.0,0.0,0.0,13182.0,13671.0,15565.0,14893.0,1.7536017894744873,-0.0003692651346886,-0.15471768962881366,-0.024869821026400594,0.027230337262153625,0.03921943157911301,0.0
487,5,-0.0009696842171251774,0.0015014129457995296,0.0013147168792784214,-0.0023527811281383038,0.0026069628074765205,0.0013745458563789725,-0.03920246660709381,0.007389398291707039,-0.008835450746119022,-0.4222990572452545,0.052250415086746216,0.036949750036001205,0.0,0.0,0.0,0.0020041228272020817,-0.0031308853067457676,-0.0,0.0,0.0,0.0,0.01511447038501501,-0.00557047501206398,-0.0005449590971693397,12880.0,13873.0,15491.0,15045.0,0.3678145408630371,0.43067991733551025,0.5437965393066406,0.5113416910171509,0.0,0.0,0.0,0.0,13182.0,13671.0,15565.0,14893.0,1.6635972261428833,0.0014028658515701268,-0.15353238204949068,-0.024460586704210148,0.01255063433200121,0.00617988733574748,0.0
