timestamp,dt,pos_x,pos_y,pos_z,vel_x,vel_y,vel_z,roll,pitch,yaw,agv_x,agv_y,agv_z,x_ref,y_ref,z_ref,roll_ref,pitch_ref,yaw_ref,x_vel_ref,y_vel_ref,z_vel_ref,x_torque,y_torque,z_torque,w0,w1,w2,w3,u0,u1,u2,u3,m0req,m1req,m2req,m3req,thrust0,thrust1,thrust2,thrust3,thrust_ref,roll_vicon,pitch_vicon,yaw_vicon,acc_x,acc_y,acc_z,roll_received,pitch_received,yaw_received
5,5,0.0,0.0,0.0,-0.0020869323052465916,-0.001751028117723763,-0.00620785029605031,-0.057022400200366974,0.3014880418777466,0.01129603385925293,0.0,0.0,0.0,0.0,0.0,0.0,0.002138590905815363,-0.001960650784894824,-0.0,0.0,0.0,0.0,0.04573410749435425,-0.09048277139663696,0.0010725036263465881,1495.0,1495.0,1495.0,1495.0,0.0,0.0,0.0,0.0,0.0,0.0,0.0,0.0,0.0,0.0,0.0,0.0,1.656489610671997,-0.06365776892013733,-0.15649076017709568,0.006242363205441243,0.007825995795428753,0.006566355470567942,0.0,-0.0,-0.0,0.0
28,23,0.0,0.0,0.0,-0.00034988392144441605,-0.00134796102065593,-0.006501439027488232,-0.057022400200366974,0.3014880418777466,0.01129603385925293,0.0,0.0,0.0,0.0,0.0,0.0,0.002138590905815363,-0.001960650784894824,-0.0,0.0,0.0,0.0,0.04573410749435425,-0.09048277139663696,0.0010725036263465881,1495.0,1495.0,1495.0,1495.0,0.0,0.0,0.0,0.0,0.0,0.0,0.0,0.0,0.0,0.0,0.0,0.0,1.656489610671997,-0.06318296645362931,-0.15739216527371958,0.006619948799934369,0.007825995795428753,0.006566355470567942,0.0,-0.0,-0.0,0.0
37,9,0.0,0.0,0.0,0.0031578922644257545,-0.000208062949241139,0.001302517019212246,-0.057022400200366974,0.3014880418777466,0.01129603385925293,0.0,0.0,0.0,0.0,0.0,0.0,0.002138590905815363,-0.001960650784894824,-0.0,0.0,0.0,0.0,0.047177936881780624,-0.0911308005452156,0.0010804944904521108,1495.0,1495.0,1495.0,1495.0,0.0,0.0,0.0,0.0,0.0,0.0,0.0,0.0,0.0,0.0,0.0,0.0,1.656489610671997,-0.06426913123963604,-0.16018521852395273,0.006418393092217815,-0.011842096224427223,0.0007802360341884196,0.0,0.0021389713510870934,-0.0019609995651990175,0.0
46,8,0.0,0.0,0.0,0.0023372748401015997,0.0014299089089035988,0.002881714142858982,-0.057022400200366974,0.3014880418777466,0.01129603385925293,0.0,0.0,0.0,0.0,0.0,0.0,0.0002539015549700707,0.002964321058243513,-0.0,0.0,0.0,0.0,0.047177936881780624,-0.0911308005452156,0.0010804944904521108,1495.0,1495.0,1495.0,1495.0,0.0,0.0,0.0,0.0,0.0,0.0,0.0,0.0,0.0,0.0,0.0,0.0,1.6578762531280518,-0.06496172597471318,-0.1620829264736445,0.0064681343875216245,-0.011842096224427223,0.0007802360341884196,0.0,0.0021389713510870934,-0.0019609995651990175,0.0
51,5,0.0,0.0,0.0,-0.002117911819368601,-0.00038513712934218347,-0.010154078714549541,-0.057022400200366974,0.3014880418777466,0.01129603385925293,0.0,0.0,0.0,0.0,0.0,0.0,0.0002539015549700707,0.002964321058243513,-0.0,0.0,0.0,0.0,0.047177936881780624,-0.0911308005452156,0.0010804944904521108,1495.0,1495.0,1495.0,1495.0,0.0,0.0,0.0,0.0,0.0,0.0,0.0,0.0,0.0,0.0,0.0,0.0,1.6578762531280518,-0.06311097370508077,-0.15673517688283772,0.006595543925221549,-0.011842096224427223,0.0007802360341884196,0.0,0.0021389713510870934,-0.0019609995651990175,0.0
56,5,0.0,0.0,0.0,-0.00041538497316651046,0.0007224415894597769,0.00021693826420232654,-0.05702534317970276,0.3015350103378296,0.01129846926778555,0.0,0.0,0.0,0.0,0.0,0.0,0.0004704801831394434,-0.00199017277918756,-0.0,0.0,0.0,0.0,0.047177936881780624,-0.0911308005452156,0.0010804944904521108,1495.0,1495.0,1495.0,1495.0,0.0,0.0,0.0,0.0,0.0,0.0,0.0,0.0,0.0,0.0,0.0,0.0,1.6561390161514282,-0.06380604360536374,-0.1587075634093816,0.006692922853555101,0.007942168973386288,0.0014442641986534,0.0,0.0021389713510870934,-0.0019609995651990175,0.0
61,5,-1.9968927517766133e-05,1.5025118045741692e-05,2.2014404748915695e-05,-0.0025624253321439028,-0.0015140374889597297,-0.002554953331127763,-0.05702534317970276,0.3015350103378296,0.01129846926778555,0.0,0.0,0.0,0.0,0.0,0.0,0.0004704801831394434,-0.00199017277918756,-0.0,0.0,0.0,0.0,0.047177936881780624,-0.0911308005452156,0.0010804944904521108,1495.0,1495.0,1495.0,1495.0,0.0,0.0,0.0,0.0,0.0,0.0,0.0,0.0,0.0,0.0,0.0,0.0,1.6561390161514282,-0.06475358967010911,-0.15714135887785258,0.006039829758079796,0.007942168973386288,0.0014442641986534,0.0,0.0021389713510870934,-0.0019609995651990175,0.0
66,5,-2.5283563445555046e-05,-5.329363193595782e-05,-5.365887773223221e-06,-0.0016627265140414238,0.007592635229229927,0.002263653790578246,-0.057032592594623566,0.3015546500682831,0.01131780631840229,0.0,0.0,0.0,0.0,0.0,0.0,-0.009101781994104385,-0.0015515045961365104,-0.0,0.0,0.0,0.0,0.048739537596702576,-0.09130869805812836,0.0010778753785416484,1495.0,16136.0,21366.0,9234.0,-0.18017125129699707,0.5925513505935669,1.0648795366287231,0.1792299449443817,0.0,0.0,0.0,0.0,0.0,0.0,0.0,0.0,1.7051030397415161,-0.06305599062047713,-0.1573426313109127,0.008672221241797826,0.006374372635036707,-0.028765683993697166,0.0,0.002138590905815363,-0.001960650784894824,0.0
72,6,-1.5075911505846307e-05,2.8719848614855437e-06,-4.100959267816506e-05,0.0003705928393173963,-0.0012318161316215992,0.004755943547934294,-0.057032592594623566,0.3015546500682831,0.01131780631840229,0.0,0.0,0.0,0.0,0.0,0.0,-0.009101781994104385,-0.0015515045961365104,-0.0,0.0,0.0,0.0,0.048739537596702576,-0.09130869805812836,0.0010778753785416484,1495.0,16136.0,21366.0,9234.0,-0.18017125129699707,0.5925513505935669,1.0648795366287231,0.1792299449443817,0.0,0.0,0.0,0.0,0.0,0.0,0.0,0.0,1.7051030397415161,-0.0640987207031876,-0.16001652924591725,0.006773821953155517,0.006374372635036707,-0.028765683993697166,0.0,0.002138590905815363,-0.001960650784894824,0.0
77,5,-5.819942543894285e-06,-8.135222060445813e-07,-5.646546196658164e-05,0.0012589534744620323,-5.046559454058297e-05,0.0037570816930383444,-0.0570637509226799,0.3015662431716919,0.011310403235256672,0.0,0.0,0.0,0.0,0.0,0.0,0.0015094440896064043,0.00032733677653595805,-0.0,0.0,0.0,0.0,0.04810189828276634,-0.08984823524951935,0.0010727926855906844,1495.0,16100.0,21279.0,9431.0,-0.17550808191299438,0.5897732973098755,1.0558665990829468,0.1877443790435791,0.0,0.0,0.0,0.0,0.0,0.0,0.0,0.0,1.656600832939148,-0.06399560398968437,-0.16029642005165612,0.006481865397769197,-0.0013066644314676523,0.004634929820895195,0.0,0.0002539015549700707,0.002964321058243513,0.0
82,5,-1.565534512337763e-05,1.788097324606497e-05,4.657718193357141e-07,-0.0006766669685021043,-0.0022635257337242365,-0.005328915547579527,-0.0570637509226799,0.3015662431716919,0.011310403235256672,0.0,0.0,0.0,0.0,0.0,0.0,0.0015094440896064043,0.00032733677653595805,-0.0,0.0,0.0,0.0,0.04810189828276634,-0.08984823524951935,0.0010727926855906844,1495.0,16100.0,21279.0,9431.0,-0.17550808191299438,0.5897732973098755,1.0558665990829468,0.1877443790435791,0.0,0.0,0.0,0.0,0.0,0.0,0.0,0.0,1.656600832939148,-0.06308493944533974,-0.15775975510140908,0.006532321511224413,-0.0013066644314676523,0.004634929820895195,0.0,0.0002539015549700707,0.002964321058243513,0.0
87,5,-1.0269696758768987e-05,2.167142702091951e-05,-9.08661513676634e-06,0.00037561109638772905,-0.0013602647231891751,-0.0009852796792984009,-0.0570637509226799,0.3015662431716919,0.011310403235256672,0.0,0.0,0.0,0.0,0.0,0.0,0.0027965877670794725,-0.0006573595455847681,-0.0,0.0,0.0,0.0,0.04810189828276634,-0.08984823524951935,0.0010727926855906844,1495.0,16100.0,21279.0,9431.0,-0.17550808191299438,0.5897732973098755,1.0558665990829468,0.1877443790435791,0.0,0.0,0.0,0.0,0.0,0.0,0.0,0.0,1.6564481258392334,-0.06379113145872772,-0.15884921615716271,0.006312447673310172,0.0026238015852868557,0.008586453273892403,0.0,0.0002539015549700707,0.002964321058243513,0.0
93,5,-1.899834842333803e-06,4.006064955319744e-06,-3.8147354644024745e-05,0.0011546277673915029,0.0015757376095280051,0.003093176754191518,-0.05705295503139496,0.30160361528396606,0.01132990512996912,0.0,0.0,0.0,0.0,0.0,0.0,0.0027965877670794725,-0.0006573595455847681,-0.0,0.0,0.0,0.0,0.04194239526987076,-0.09133482724428177,0.0011842823587357998,1495.0,16617.0,21248.0,8812.0,-0.13955006003379822,0.6302600502967834,1.0526732206344604,0.16171981394290924,0.0,0.0,0.0,0.0,0.0,0.0,0.0,0.0,1.6564481258392334,-0.06486155800045176,-0.16050207026991456,0.006433762664278207,0.0026238015852868557,0.008586453273892403,0.0,-0.009101781994104385,-0.0015515045961365104,0.0
98,5,-7.769057447148953e-06,1.2627471733139828e-05,4.06093249694095e-06,-0.00024245562963187695,-0.0004042737418785691,-0.0038277236744761467,-0.05705295503139496,0.30160361528396606,0.01132990512996912,0.0,0.0,0.0,0.0,0.0,0.0,-0.0019169297302141786,0.0010818489827215672,-0.0,0.0,0.0,0.0,0.04194239526987076,-0.09133482724428177,0.0011842823587357998,1495.0,16617.0,21248.0,8812.0,-0.13955006003379822,0.6302600502967834,1.0526732206344604,0.16171981394290924,0.0,0.0,0.0,0.0,0.0,0.0,0.0,0.0,1.6568603515625,-0.06399286962531676,-0.15876893388582133,0.006498002424092968,-0.004319202154874802,-0.005887082777917385,0.0,-0.009101781994104385,-0.0015515045961365104,0.0
103,5,-1.1225062735320535e-05,1.6543073797947727e-05,1.4056486179470085e-05,-0.0005117029068060219,-0.0006315818172879517,-0.0027305560652166605,-0.05703117698431015,0.30160900950431824,0.01131377648562193,0.0,0.0,0.0,0.0,0.0,0.0,-0.0019169297302141786,0.0010818489827215672,-0.0,0.0,0.0,0.0,0.04989774897694588,-0.09074484556913376,0.0010918454499915242,1495.0,16021.0,21413.0,9467.0,-0.18619173765182495,0.583716869354248,1.0697628259658813,0.1893129050731659,0.0,0.0,0.0,0.0,0.0,0.0,0.0,0.0,1.6568603515625,-0.06372439639266417,-0.15714138054083765,0.006489427104144158,-0.004319202154874802,-0.005887082777917385,0.0,0.0015094440896064043,0.00032733677653595805,0.0
108,5,-1.717949635349214e-05,6.554554602189455e-06,-2.9780992917949334e-05,-0.0009192130528390408,0.0009459895663894713,0.004168275278061628,-0.05703117698431015,0.30160900950431824,0.01131377648562193,0.0,0.0,0.0,0.0,0.0,0.0,0.0008009797311387956,-0.0004962588427588344,-0.0,0.0,0.0,0.0,0.04989774897694588,-0.09074484556913376,0.0010918454499915242,1495.0,16021.0,21413.0,9467.0,-0.18619173765182495,0.583716869354248,1.0697628259658813,0.1893129050731659,0.0,0.0,0.0,0.0,0.0,0.0,0.0,0.0,1.6565138101577759,-0.06413848735135484,-0.15907127542731966,0.006458571535558809,0.001980865839868784,0.0024593768175691366,0.0,0.0015094440896064043,0.00032733677653595805,0.0
113,5,9.015685691338149e-07,-1.286122483179497e-06,-8.613416866865009e-05,0.001802042475901544,0.001319277100265026,0.008429691195487976,-0.057034723460674286,0.3015983998775482,0.011330113746225834,0.0,0.0,0.0,0.0,0.0,0.0,0.0008009797311387956,-0.0004962588427588344,-0.0,0.0,0.0,0.0,0.04858166724443436,-0.0906255841255188,0.0010692946380004287,1495.0,15912.0,21517.0,9523.0,-0.1912151575088501,0.5753711462020874,1.0805437564849854,0.19174841046333313,0.0,0.0,0.0,0.0,0.0,0.0,0.0,0.0,1.6565138101577759,-0.06411076511193285,-0.16225950558519386,0.006796041671702704,0.001980865839868784,0.0024593768175691366,0.0,-0.0019169297302141786,0.0010818489827215672,0.0
118,5,7.43564851291012e-06,4.265037659934023e-06,-0.00011064299178542569,0.0015049065696075559,-0.00013842836779076606,0.006312935147434473,-0.057034723460674286,0.3015983998775482,0.011330113746225834,0.0,0.0,0.0,0.0,0.0,0.0,0.0008009797311387956,-0.0004962588427588344,-0.0,0.0,0.0,0.0,0.04858166724443436,-0.0906255841255188,0.0010692946380004287,1495.0,15912.0,21517.0,9523.0,-0.1912151575088501,0.5753711462020874,1.0805437564849854,0.19174841046333313,0.0,0.0,0.0,0.0,0.0,0.0,0.0,0.0,1.6565138101577759,-0.06502066576211979,-0.16384405261763682,0.006693705340586477,0.001980865839868784,0.0024593768175691366,0.0,-0.0019169297302141786,0.0010818489827215672,0.0
123,5,-2.8880900572403334e-05,1.046721990860533e-05,5.431038516690023e-07,-0.003756023244932294,-0.0007996332133188844,-0.010817157104611397,-0.0570216104388237,0.30161017179489136,0.011323804035782814,0.0,0.0,0.0,0.0,0.0,0.0,0.00017665843188297004,0.0014237113064154983,-0.0,0.0,0.0,0.0,0.05111026018857956,-0.09118591248989105,0.001155297039076686,1495.0,16104.0,21338.0,9383.0,-0.18085873126983643,0.5901061296463013,1.0619930028915405,0.18561992049217224,0.0,0.0,0.0,0.0,0.0,0.0,0.0,0.0,1.6568623781204224,-0.06270579787067573,-0.1579485679499845,0.006894566287018488,-0.005684079602360725,0.0005425370181910694,0.0,0.0008009797311387956,-0.0004962588427588344,0.0
128,5,-2.1762757569376845e-06,-7.111575087037636e-06,-6.903279427206144e-05,0.0017021456733345985,0.0017896021017804742,0.004022245295345783,-0.0570216104388237,0.30161017179489136,0.011323804035782814,0.0,0.0,0.0,0.0,0.0,0.0,0.00017665843188297004,0.0014237113064154983,-0.0,0.0,0.0,0.0,0.05111026018857956,-0.09118591248989105,0.001155297039076686,1495.0,16104.0,21338.0,9383.0,-0.18085873126983643,0.5901061296463013,1.0619930028915405,0.18561992049217224,0.0,0.0,0.0,0.0,0.0,0.0,0.0,0.0,1.6568623781204224,-0.06525201176473862,-0.16154361660175856,0.006368203993650199,-0.005684079602360725,0.0005425370181910694,0.0,0.0008009797311387956,-0.0004962588427588344,0.0
133,5,-5.509918537427438e-06,3.318995709378214e-07,1.0577711691439617e-05,0.0002808211138471961,-0.00017737611779011786,-0.007944363169372082,-0.05703622102737427,0.301612913608551,0.011341170407831669,0.0,0.0,0.0,0.0,0.0,0.0,-0.002198136178776622,0.0015958589501678944,-0.0,0.0,0.0,0.0,0.05132937803864479,-0.09068194776773453,0.0011475716019049287,1495.0,15955.0,21499.0,9501.0,-0.19154292345046997,0.5786477327346802,1.078619360923767,0.19078980386257172,0.0,0.0,0.0,0.0,0.0,0.0,0.0,0.0,1.6567325592041016,-0.06468306089066482,-0.15896764990405157,0.006189564927945517,-0.006370853167027235,-0.0067501734010875225,0.0,0.00017665843188297004,0.0014237113064154983,0.0
138,5,1.3093501365801785e-05,3.2819100397318834e-06,-3.1568204576615244e-05,0.0023447389248758554,-0.0004249516932759434,0.0018797648372128606,-0.05703622102737427,0.301612913608551,0.011341170407831669,0.0,0.0,0.0,0.0,0.0,0.0,-0.002198136178776622,0.0015958589501678944,-0.0,0.0,0.0,0.0,0.05132937803864479,-0.09068194776773453,0.0011475716019049287,1495.0,15955.0,21499.0,9501.0,-0.19154292345046997,0.5786477327346802,1.078619360923767,0.19078980386257172,0.0,0.0,0.0,0.0,0.0,0.0,0.0,0.0,1.6567325592041016,-0.0646472212841637,-0.16055561630356507,0.006361299242270266,-0.006370853167027235,-0.0067501734010875225,0.0,0.00017665843188297004,0.0014237113064154983,0.0
143,5,-2.248019200123963e-06,9.998647328757215e-06,3.1751424103276804e-05,-0.0009030869696289301,-0.0009759890963323414,-0.006846449803560972,-0.05705378204584122,0.3016251027584076,0.011348498985171318,0.0,0.0,0.0,0.0,0.0,0.0,0.0005246796645224094,0.002220032038167119,-0.0,0.0,0.0,0.0,0.05030184984207153,-0.09060465544462204,0.001243732520379126,1495.0,15947.0,21456.0,9447.0,-0.1839287132024765,0.5780411958694458,1.0742051601409912,0.1884148120880127,0.0,0.0,0.0,0.0,0.0,0.0,0.0,0.0,1.6571003198623657,-0.06374193906878985,-0.15734688037959565,0.006561081841412182,-0.00886460766196251,0.0016115788603201509,0.0,-0.002198136178776622,0.0015958589501678944,0.0
148,5,3.386727985343896e-05,-9.219996172760148e-06,-0.00013314741954673082,0.003972601145505905,0.0019158415962010622,0.017049280926585197,-0.05705378204584122,0.3016251027584076,0.011348498985171318,0.0,0.0,0.0,0.0,0.0,0.0,0.0005246796645224094,0.002220032038167119,-0.0,0.0,0.0,0.0,0.05030184984207153,-0.09060465544462204,0.001243732520379126,1495.0,15947.0,21456.0,9447.0,-0.1839287132024765,0.5780411958694458,1.0742051601409912,0.1884148120880127,0.0,0.0,0.0,0.0,0.0,0.0,0.0,0.0,1.6571003198623657,-0.06637377435685411,-0.16401146267563468,0.006034727202393144,-0.00886460766196251,0.0016115788603201509,0.0,-0.002198136178776622,0.0015958589501678944,0.0
153,5,0.00015614548465237021,-1.2134960343246348e-05,-0.00034235097700729966,0.016262425109744072,0.001116132247261703,0.03192413970828056,-0.057092223316431046,0.30161622166633606,0.011354894377291203,0.0,0.0,0.0,0.0,0.0,0.0,-0.002336001954972744,0.0037461277097463608,-0.0,0.0,0.0,0.0,0.05308852344751358,-0.09038601070642471,0.0009486840572208166,1495.0,15845.0,21512.0,9845.0,-0.1993585228919983,0.5702906847000122,1.0799609422683716,0.20620734989643097,0.0,0.0,0.0,0.0,0.0,0.0,0.0,0.0,1.6709706783294678,-0.07454132530881803,-0.16671256281140495,0.0023689082299648717,-0.015083464793860912,-0.007235188502818346,0.0,0.0005246796645224094,0.002220032038167119,0.0
158,5,0.00014594160893466324,-1.0765723345684819e-05,-0.00033164568594656885,0.005280505400151014,0.0002821445232257247,0.011485022492706776,-0.057092223316431046,0.30161622166633606,0.011354894377291203,0.0,0.0,0.0,0.0,0.0,0.0,-0.002336001954972744,0.0037461277097463608,-0.0,0.0,0.0,0.0,0.05308852344751358,-0.09038601070642471,0.0009486840572208166,1495.0,15845.0,21512.0,9845.0,-0.1993585228919983,0.5702906847000122,1.0799609422683716,0.20620734989643097,0.0,0.0,0.0,0.0,0.0,0.0,0.0,0.0,1.6709706783294678,-0.07529049693912696,-0.1678479611743253,0.0019823468661214123,-0.015083464793860912,-0.007235188502818346,0.0,0.0005246796645224094,0.002220032038167119,0.0
163,5,0.00010663124703569338,-3.2677428407623665e-06,-0.00017389071581419557,-0.0026050417218357325,-0.000786899880040437,-0.01433658879250288,-0.057133037596940994,0.3016420304775238,0.011320078745484352,0.0,0.0,0.0,0.0,0.0,0.0,-0.0003585084923543036,0.0050855339504778385,-0.0,0.0,0.0,0.0,0.05206115171313286,-0.09000196307897568,-0.00031120621133595705,1495.0,16565.0,21014.0,10874.0,-0.23974880576133728,0.6261216998100281,1.0287890434265137,0.2558087110519409,0.0,0.0,0.0,0.0,0.0,0.0,0.0,0.0,1.6814602613449097,-0.06998478067182212,-0.15822871124927387,0.0023030887830927066,-0.020605025812983513,-0.0011173638049513102,0.0,-0.002336001954972744,0.0037461277097463608,0.0
169,5,0.00013650507025886327,-1.9709268599399365e-05,-0.00027627460076473653,0.002542841713875532,0.0016582231037318707,0.006551429629325867,-0.057133037596940994,0.3016420304775238,0.011320078745484352,0.0,0.0,0.0,0.0,0.0,0.0,-0.0003585084923543036,0.0050855339504778385,-0.0,0.0,0.0,0.0,0.05206115171313286,-0.09000196307897568,-0.00031120621133595705,1495.0,16565.0,21014.0,10874.0,-0.23974880576133728,0.6261216998100281,1.0287890434265137,0.2558087110519409,0.0,0.0,0.0,0.0,0.0,0.0,0.0,0.0,1.6814602613449097,-0.07395723904739086,-0.16435450896470583,0.001718556982670593,-0.020605025812983513,-0.0011173638049513102,0.0,-0.002336001954972744,0.0037461277097463608,0.0
174,5,0.0001367236691294238,-1.2586397133418359e-05,-0.00029141237610019743,0.0010433690622448921,-0.00019145532860420644,0.004437107592821121,-0.0572643056511879,0.30182945728302,0.011531117372214794,0.0,0.0,0.0,0.0,0.0,0.0,-0.002058181678876281,0.0025742643047124147,-0.0,0.0,0.0,0.0,0.05310393124818802,-0.09035780280828476,0.0025784915778785944,1495.0,15533.0,21841.0,9372.0,-0.16510164737701416,0.5468747019767761,1.1145163774490356,0.18517076969146729,0.0,0.0,0.0,0.0,0.0,0.0,0.0,0.0,1.6584426164627075,-0.07421111507798944,-0.16494266268577162,0.0017667407130769958,-0.010287364013493061,-0.006326917093247175,0.0,-0.0003585084923543036,0.0050855339504778385,0.0
179,5,0.00011929818720091134,-1.1679676390485838e-05,-0.00030921518919058144,-0.0016737108817324042,-0.00018538860604166985,0.00391117949038744,-0.0572643056511879,0.30182945728302,0.011531117372214794,0.0,0.0,0.0,0.0,0.0,0.0,-0.002058181678876281,0.0025742643047124147,-0.0,0.0,0.0,0.0,0.05310393124818802,-0.09035780280828476,0.0025784915778785944,1495.0,15533.0,21841.0,9372.0,-0.16510164737701416,0.5468747019767761,1.1145163774490356,0.18517076969146729,0.0,0.0,0.0,0.0,0.0,0.0,0.0,0.0,1.6584426164627075,-0.07473081553076061,-0.16660303355788436,0.0014342485837799085,-0.010287364013493061,-0.006326917093247175,0.0,-0.0003585084923543036,0.0050855339504778385,0.0
184,5,0.00012755478383041918,4.3267402816127287e-07,-0.00038464131648652256,0.00032130751060321927,-0.0015276374761015177,0.010615606792271137,-0.05724472552537918,0.30162912607192993,0.011244544759392738,0.0,0.0,0.0,0.0,0.0,0.0,0.00020485305867623538,-0.0014037713408470154,-0.0,0.0,0.0,0.0,0.05315906181931496,-0.09028580784797668,-0.00012190199049655348,1495.0,16164.0,21260.0,10383.0,-0.22161805629730225,0.5946657657623291,1.0539391040802002,0.2314557582139969,0.0,0.0,0.0,0.0,0.0,0.0,0.0,0.0,1.6611368656158447,-0.0777158613960179,-0.17055698268461614,0.0010589470447605305,0.0056189289316535,0.0006307488074526191,0.0,-0.002058181678876281,0.0025742643047124147,0.0
189,5,0.00013701958232559264,4.694684037076513e-07,-0.00033353635808452964,0.0012642994988709688,-0.0006154703442007303,-0.001886350684799254,-0.05724472552537918,0.30162912607192993,0.011244544759392738,0.0,0.0,0.0,0.0,0.0,0.0,0.00020485305867623538,-0.0014037713408470154,-0.0,0.0,0.0,0.0,0.05315906181931496,-0.09028580784797668,-0.00012190199049655348,1495.0,16164.0,21260.0,10383.0,-0.22161805629730225,0.5946657657623291,1.0539391040802002,0.2314557582139969,0.0,0.0,0.0,0.0,0.0,0.0,0.0,0.0,1.6611368656158447,-0.07677779448934456,-0.16707896210228318,0.0009088212476224874,0.0056189289316535,0.0006307488074526191,0.0,-0.002058181678876281,0.0025742643047124147,0.0
194,5,0.00012520916061475873,7.090817462085397e-07,-0.0001881039934232831,-0.0009115309221670032,-0.0002749417326413095,-0.01820642687380314,-0.057324185967445374,0.30180349946022034,0.011370236054062843,0.0,0.0,0.0,0.0,0.0,0.0,0.0007531222654506564,0.0013782569440081716,-0.0,0.0,0.0,0.0,0.055193670094013214,-0.09276411682367325,0.0003506372158881277,1495.0,16219.0,21460.0,10472.0,-0.2482714056968689,0.5989949107170105,1.0746235847473145,0.2357897013425827,0.0,0.0,0.0,0.0,0.0,0.0,0.0,0.0,1.6550416946411133,-0.07157336122039552,-0.16088176493049233,0.0022281558716518903,-0.0054965573363006115,0.00231037731282413,0.0,0.00020485305867623538,-0.0014037713408470154,0.0
199,5,0.00015115296992007643,-1.752057323756162e-05,-0.0003043823526240885,0.0027486446779221296,0.002077581826597452,0.00667083403095603,-0.057324185967445374,0.30180349946022034,0.011370236054062843,0.0,0.0,0.0,0.0,0.0,0.0,0.0007531222654506564,0.0013782569440081716,-0.0,0.0,0.0,0.0,0.055193670094013214,-0.09276411682367325,0.0003506372158881277,1495.0,16219.0,21460.0,10472.0,-0.2482714056968689,0.5989949107170105,1.0746235847473145,0.2357897013425827,0.0,0.0,0.0,0.0,0.0,0.0,0.0,0.0,1.6550416946411133,-0.07497927768980656,-0.16799954501847408,0.002258023152036521,-0.0054965573363006115,0.00231037731282413,0.0,0.00020485305867623538,-0.0014037713408470154,0.0
204,5,0.00014415405166801065,-7.400846698146779e-06,-0.0003109327226411551,0.0002595872210804373,-0.0003833344380836934,0.003454378340393305,-0.057324185967445374,0.30180349946022034,0.011370236054062843,0.0,0.0,0.0,0.0,0.0,0.0,-0.0025593277532607317,0.0027807937003672123,-0.0,0.0,0.0,0.0,0.055193670094013214,-0.09276411682367325,0.0003506372158881277,1495.0,16219.0,21460.0,10472.0,-0.2482714056968689,0.5989949107170105,1.0746235847473145,0.2357897013425827,0.0,0.0,0.0,0.0,0.0,0.0,0.0,0.0,1.662684679031372,-0.07546144761363757,-0.16781544385441136,0.0018171432945348134,-0.011141113936901093,-0.007887574844062328,0.0,0.00020485305867623538,-0.0014037713408470154,0.0
209,5,0.00014157884288579226,-1.993385694731842e-06,-0.0002818182110786438,-0.0002051910269074142,-0.0008022291003726423,-0.002111992333084345,-0.05723520740866661,0.301969051361084,0.011538099497556686,0.0,0.0,0.0,0.0,0.0,0.0,-0.0025593277532607317,0.0027807937003672123,-0.0,0.0,0.0,0.0,0.054797179996967316,-0.09121029078960419,0.00142783357296139,1495.0,15844.0,21563.0,10054.0,-0.21632927656173706,0.5702407360076904,1.0853090286254883,0.2158212959766388,0.0,0.0,0.0,0.0,0.0,0.0,0.0,0.0,1.662684679031372,-0.07527949665861955,-0.16680858378398142,0.0021171054574606434,-0.011141113936901093,-0.007887574844062328,0.0,0.0007531222654506564,0.0013782569440081716,0.0
214,5,6.2703707953915e-05,1.5352141417679377e-05,0.00012518891890067607,-0.009547091089189053,-0.0024023549631237984,-0.04968564957380295,-0.05723520740866661,0.301969051361084,0.011538099497556686,0.0,0.0,0.0,0.0,0.0,0.0,0.000973307469394058,3.014744606844033e-06,-0.0,0.0,0.0,0.0,0.054797179996967316,-0.09121029078960419,0.00142783357296139,1495.0,15844.0,21563.0,10054.0,-0.21632927656173706,0.5702407360076904,1.0853090286254883,0.2158212959766388,0.0,0.0,0.0,0.0,0.0,0.0,0.0,0.0,1.6612844467163086,-0.06052183610660479,-0.14608163334843216,0.005318771896922904,-1.206830347655341e-05,0.0029971085023134947,0.0,0.0007531222654506564,0.0013782569440081716,0.0
220,5,0.0001312681706622243,1.4234139598556794e-05,-0.00031008388032205403,0.004408897832036018,-0.0008267817902378738,0.032358475029468536,-0.057190414518117905,0.3017842173576355,0.01194362249225378,0.0,0.0,0.0,0.0,0.0,0.0,0.000973307469394058,3.014744606844033e-06,-0.0,0.0,0.0,0.0,0.05528317391872406,-0.09170970320701599,0.0034913986455649137,1495.0,15048.0,22243.0,8340.0,-0.15711434185504913,0.5115251541137695,1.157448410987854,0.1431823968887329,0.0,0.0,0.0,0.0,0.0,0.0,0.0,0.0,1.6612844467163086,-0.07388935219381144,-0.16706262892151644,0.0033601764772240583,-1.206830347655341e-05,0.0029971085023134947,0.0,0.0007531222654506564,0.0013782569440081716,0.0
225,5,7.612046465510502e-05,2.340679020562675e-05,0.0004623654531314969,-0.004854164551943541,-0.0014314306899905205,-0.07975053042173386,-0.057190414518117905,0.3017842173576355,0.01194362249225378,0.0,0.0,0.0,0.0,0.0,0.0,0.0010248739272356033,0.004280707333236933,-0.0,0.0,0.0,0.0,0.05528317391872406,-0.09170970320701599,0.0034913986455649137,1495.0,15048.0,22243.0,8340.0,-0.15711434185504913,0.5115251541137695,1.157448410987854,0.1431823968887329,0.0,0.0,0.0,0.0,0.0,0.0,0.0,0.0,1.673173427581787,-0.049932318435350925,-0.13531226776925223,0.004416237772863756,-0.017258651554584503,0.003178482409566641,0.0,0.0007531222654506564,0.0013782569440081716,0.0
230,5,7.569494482595474e-05,2.5028721211128868e-05,9.748136653797701e-05,-0.0019927287939935923,-0.0007672039791941643,0.011885878629982471,-0.05704149603843689,0.30154654383659363,0.012123147025704384,0.0,0.0,0.0,0.0,0.0,0.0,0.0010248739272356033,0.004280707333236933,-0.0,0.0,0.0,0.0,0.05429697781801224,-0.08911402523517609,0.0019417422590777278,1495.0,15383.0,21665.0,9533.0,-0.1613646149635315,0.5357999801635742,1.0960403680801392,0.1922088861465454,0.0,0.0,0.0,0.0,0.0,0.0,0.0,0.0,1.673173427581787,-0.06006481447784656,-0.1411329555018859,0.005960152206560938,-0.017258651554584503,0.003178482409566641,0.0,-0.0025593277532607317,0.0027807937003672123,0.0
235,5,0.00015733409964013845,1.2270638762856834e-05,0.0004089223803021014,0.008999607525765896,0.0012240882497280836,-0.03261857107281685,-0.05704149603843689,0.30154654383659363,0.012123147025704384,0.0,0.0,0.0,0.0,0.0,0.0,0.0009716997155919671,-0.0017487758304923773,-0.0,0.0,0.0,0.0,0.05429697781801224,-0.08911402523517609,0.0019417422590777278,1495.0,15383.0,21665.0,9533.0,-0.1613646149635315,0.5357999801635742,1.0960403680801392,0.1922088861465454,0.0,0.0,0.0,0.0,0.0,0.0,0.0,0.0,1.6737021207809448,-0.049356960537649285,-0.12474052774190775,0.004424394558799705,0.007052835542708635,0.0030145233031362295,0.0,-0.0025593277532607317,0.0027807937003672123,0.0
240,5,0.00020593380031641573,-3.7817644624738023e-06,-0.00017118827963713557,0.009431807324290276,0.002415923634544015,0.05656585097312927,-0.055435605347156525,0.29748401045799255,0.011993681080639362,0.0,0.0,0.0,0.0,0.0,0.0,0.0009716997155919671,-0.0017487758304923773,-0.0,0.0,0.0,0.0,0.04949532821774483,-0.07783229649066925,0.002358101075515151,1495.0,14834.0,21054.0,10166.0,-0.08895935863256454,0.4962768256664276,1.0328680276870728,0.22109904885292053,0.0,0.0,0.0,0.0,0.0,0.0,0.0,0.0,1.6737021207809448,-0.06165779923351935,-0.13664551607436076,0.006219477929208764,0.007052835542708635,0.0030145233031362295,0.0,0.000973307469394058,3.014744606844033e-06,0.0
245,5,0.00019094799063168466,2.975893767143134e-05,-4.8097695980686694e-05,0.0019744248129427433,-0.003058514790609479,0.007855470292270184,-0.055435605347156525,0.29748401045799255,0.011993681080639362,0.0,0.0,0.0,0.0,0.0,0.0,-0.002837107516825199,0.008773790672421455,-0.0,0.0,0.0,0.0,0.04949532821774483,-0.07783229649066925,0.002358101075515151,1495.0,14834.0,21054.0,10166.0,-0.08895935863256454,0.4962768256664276,1.0328680276870728,0.22109904885292053,0.0,0.0,0.0,0.0,0.0,0.0,0.0,0.0,1.726771593093872,-0.05298697695281009,-0.11440332917205637,0.007652651216455816,-0.03650620952248573,-0.00908067636191845,0.0,0.000973307469394058,3.014744606844033e-06,0.0
250,5,0.0002885486464947462,4.474760498851538e-05,-0.0003306714352220297,0.012501847930252552,-0.003022046061232686,0.037051036953926086,-0.050724562257528305,0.28322818875312805,0.011555111035704613,0.0,0.0,0.0,0.0,0.0,0.0,-0.002837107516825199,0.008773790672421455,-0.0,0.0,0.0,0.0,0.040250830352306366,-0.059545181691646576,0.002360096201300621,5089.0,14204.0,19774.0,11111.0,0.04587623104453087,0.4527776837348938,0.9065389037132263,0.2679806351661682,0.0,0.0,0.0,0.0,0.0,0.0,0.0,0.0,1.726771593093872,-0.052553927510575735,-0.10726614924612754,0.00814409429976489,-0.03650620952248573,-0.00908067636191845,0.0,0.0010248739272356033,0.004280707333236933,0.0
255,5,0.0003721537650562823,3.417147308937274e-05,-0.0004277061962056905,0.015033354982733727,6.031736847944558e-05,0.026464585214853287,-0.050724562257528305,0.28322818875312805,0.011555111035704613,0.0,0.0,0.0,0.0,0.0,0.0,0.0035511907190084457,0.011436405591666698,-0.0,0.0,0.0,0.0,0.040250830352306366,-0.059545181691646576,0.002360096201300621,5089.0,14204.0,19774.0,11111.0,0.04587623104453087,0.4527776837348938,0.9065389037132263,0.2679806351661682,0.0,0.0,0.0,0.0,0.0,0.0,0.0,0.0,1.7590649127960205,-0.04258986861490463,-0.0830031465077728,0.010187157236225973,-0.048474252223968506,0.011578778736293316,0.0,0.0010248739272356033,0.004280707333236933,0.0
260,5,0.0005582408630289137,5.234652780927718e-05,-0.0006298497319221497,0.028343791142106056,-0.002156879287213087,0.03484305366873741,-0.04468226805329323,0.2660391628742218,0.01124186348170042,0.0,0.0,0.0,0.0,0.0,0.0,0.0035511907190084457,0.011436405591666698,-0.0,0.0,0.0,0.0,0.0007855456788092852,-0.0008110051858238876,0.0033310356084257364,10847.0,13363.0,17797.0,11597.0,0.25441235303878784,0.39780062437057495,0.7276285886764526,0.2938605546951294,0.0,0.0,0.0,0.0,0.0,0.0,0.0,0.0,1.7590649127960205,-0.029434606372494485,-0.054840829035899166,0.012583116483456084,-0.048474252223968506,0.011578778736293316,0.0,-0.002837107516825199,0.008773790672421455,0.0
265,5,0.0006622133078053594,-1.3646146726387087e-05,-0.001042708638124168,0.023814210668206215,0.0070563689805567265,0.06348028779029846,-0.04468226805329323,0.2660391628742218,0.01124186348170042,0.0,0.0,0.0,0.0,0.0,0.0,0.00236169109120965,0.023721933364868164,-0.0,0.0,0.0,0.0,0.0007855456788092852,-0.0008110051858238876,0.0033310356084257364,10847.0,13363.0,17797.0,11597.0,0.25441235303878784,0.39780062437057495,0.7276285886764526,0.2938605546951294,0.0,0.0,0.0,0.0,0.0,0.0,0.0,0.0,1.9134868383407593,-0.02181573989743488,-0.03501883278599747,0.013682234812759944,-0.10936680436134338,0.008376380428671837,0.0,-0.002837107516825199,0.008773790672421455,0.0
270,5,0.0007991939201019704,8.691511084180092e-07,-0.0011467052390798926,0.025963356718420982,0.0010807118378579617,0.03787171095609665,-0.031035833060741425,0.22691266238689423,0.010884149931371212,0.0,0.0,0.0,0.0,0.0,0.0,0.00236169109120965,0.023721933364868164,-0.0,0.0,0.0,0.0,-0.02276720106601715,0.034789081662893295,0.0035077217034995556,15272.0,12391.0,15040.0,12576.0,0.5276854038238525,0.33861762285232544,0.5109195709228516,0.34954899549484253,0.0,0.0,0.0,0.0,0.0,0.0,0.0,0.0,1.9134868383407593,-0.006855559713558772,0.007138075720887569,0.01390458457187993,-0.10936680436134338,0.008376380428671837,0.0,0.0035511907190084457,0.011436405591666698,0.0
275,5,0.0009012914379127324,-0.00030148305813781917,-0.0013547625858336687,0.02263704501092434,0.036714550107717514,0.040115565061569214,-0.031035833060741425,0.22691266238689423,0.010884149931371212,0.0,0.0,0.0,0.0,0.0,0.0,-0.0011532122734934092,0.022305136546492577,-0.0,0.0,0.0,0.0,-0.02276720106601715,0.034789081662893295,0.0035077217034995556,15272.0,12391.0,15040.0,12576.0,0.5276854038238525,0.33861762285232544,0.5109195709228516,0.34954899549484253,0.0,0.0,0.0,0.0,0.0,0.0,0.0,0.0,1.8936147689819336,0.022815449468874725,0.04310570746008827,0.022767067570403157,-0.10176821053028107,-0.004047709051519632,0.0,0.0035511907190084457,0.011436405591666698,0.0
281,5,0.0011385803809389472,-9.680395305622369e-05,-0.0015013022348284721,0.037529490888118744,-0.009875672869384289,0.033630989491939545,-0.018637385219335556,0.19241604208946228,0.011000164784491062,0.0,0.0,0.0,0.0,0.0,0.0,-0.0011532122734934092,0.022305136546492577,-0.0,0.0,0.0,0.0,-0.0597635842859745,0.0653141513466835,0.0016346730990335345,18592.0,11631.0,10749.0,13657.0,0.7972331643104553,0.29571035504341125,0.2494983673095703,0.41662293672561646,0.0,0.0,0.0,0.0,0.0,0.0,0.0,0.0,1.8936147689819336,0.02960410521980067,0.08643190121778122,0.013823245993579541,-0.10176821053028107,-0.004047709051519632,0.0,0.00236169109120965,0.023721933364868164,0.0
286,5,0.001343864481896162,-0.0002226108335889876,-0.0019254107028245926,0.039645884186029434,0.01114655751734972,0.06434540450572968,-0.018637385219335556,0.19241604208946228,0.011000164784491062,0.0,0.0,0.0,0.0,0.0,0.0,0.009760372340679169,0.030244238674640656,-0.0,0.0,0.0,0.0,-0.0597635842859745,0.0653141513466835,0.0016346730990335345,18592.0,11631.0,10749.0,13657.0,0.7972331643104553,0.29571035504341125,0.2494983673095703,0.41662293672561646,0.0,0.0,0.0,0.0,0.0,0.0,0.0,0.0,2.0176444053649902,0.04728080181521711,0.11964848359715001,0.014031053776489662,-0.14701183140277863,0.036501191556453705,0.0,0.00236169109120965,0.023721933364868164,0.0
291,5,0.0015768312150612473,-0.00031045242212712765,-0.0022178832441568375,0.04381437227129936,0.014999612234532833,0.0608348585665226,0.007740212604403496,0.13110271096229553,0.011299422942101955,0.0,0.0,0.0,0.0,0.0,0.0,0.009760372340679169,0.030244238674640656,-0.0,0.0,0.0,0.0,-0.11751331388950348,0.09075427800416946,-0.0017236784333363175,23970.0,16438.0,1495.0,13731.0,1.3511550426483154,0.6160486936569214,-0.4949605464935303,0.42137160897254944,0.0,0.0,0.0,0.0,0.0,0.0,0.0,0.0,2.0176444053649902,0.07041530237091914,0.15938203079670712,0.01063805299203473,-0.14701183140277863,0.036501191556453705,0.0,-0.0011532122734934092,0.022305136546492577,0.0
296,5,0.0017891976749524474,-0.0005477945669554174,-0.002567394869402051,0.043009720742702484,0.034480899572372437,0.06627535074949265,0.007740212604403496,0.13110271096229553,0.011299422942101955,0.0,0.0,0.0,0.0,0.0,0.0,-0.014941075816750526,0.03431397303938866,-0.0,0.0,0.0,0.0,-0.11751331388950348,0.09075427800416946,-0.0017236784333363175,23970.0,16438.0,1495.0,13731.0,1.3511550426483154,0.6160486936569214,-0.4949605464935303,0.42137160897254944,0.0,0.0,0.0,0.0,0.0,0.0,0.0,0.0,2.092892646789551,0.09810678544121286,0.19022815562434162,0.009318002438535538,-0.17299602925777435,-0.057957280427217484,0.0,-0.0011532122734934092,0.022305136546492577,0.0
301,5,0.0019018691964447498,-0.0005148049094714224,-0.003613685956224799,0.030724475160241127,0.00983359944075346,0.15206508338451385,0.007740212604403496,0.13110271096229553,0.011299422942101955,0.0,0.0,0.0,0.0,0.0,0.0,-0.014941075816750526,0.03431397303938866,-0.0,0.0,0.0,0.0,-0.11751331388950348,0.09075427800416946,-0.0017236784333363175,23970.0,16438.0,1495.0,13731.0,1.3511550426483154,0.6160486936569214,-0.4949605464935303,0.42137160897254944,0.0,0.0,0.0,0.0,0.0,0.0,0.0,0.0,2.092892646789551,0.102176278806319,0.2003768196950794,0.009384512110213225,-0.17299602925777435,-0.057957280427217484,0.0,-0.0011532122734934092,0.022305136546492577,0.0
306,5,0.0020251963287591934,-0.0005908830789849162,-0.003845650004222989,0.027089031413197517,0.013062823563814163,0.08866172283887863,0.031828854233026505,0.08655901253223419,0.011655106209218502,0.0,0.0,0.0,0.0,0.0,0.0,-0.014941075816750526,0.03431397303938866,-0.0,0.0,0.0,0.0,-0.10238392651081085,0.10654916614294052,-0.0005305641680024564,24295.0,14110.0,1495.0,16018.0,1.389324426651001,0.4464445412158966,-0.40156444907188416,0.5834398865699768,0.0,0.0,0.0,0.0,0.0,0.0,0.0,0.0,2.092892646789551,0.11891716965126355,0.23697736626842306,0.008361739865961148,-0.17299602925777435,-0.057957280427217484,0.0,0.009760372340679169,0.030244238674640656,0.0
311,5,0.0008572409278713167,0.0005616338457912207,-0.009473422542214394,0.027089031413197517,0.013062823563814163,0.08866172283887863,0.031828854233026505,0.08655901253223419,0.011655106209218502,0.0,0.0,0.0,0.0,0.0,0.0,-0.014451919123530388,0.02399727888405323,-0.0,0.0,0.0,0.0,-0.10238392651081085,0.10654916614294052,-0.0005305641680024564,24295.0,14110.0,1495.0,16018.0,1.389324426651001,0.4464445412158966,-0.40156444907188416,0.5834398865699768,0.0,0.0,0.0,0.0,0.0,0.0,0.0,0.0,1.9502317905426025,0.0827986707249574,0.02603015279596628,-0.04029244835247018,-0.11274909973144531,-0.05223875865340233,0.0,0.009760372340679169,0.030244238674640656,0.0
316,5,0.0008342087385244668,0.0006036352715454996,-0.009252533316612244,0.008071746677160263,0.0001849569525802508,0.008957887999713421,0.07010219246149063,-0.023892465978860855,0.014821197837591171,0.0,0.0,0.0,0.0,0.0,0.0,-0.014451919123530388,0.02399727888405323,-0.0,0.0,0.0,0.0,-0.07035785168409348,0.12194263935089111,-0.006230001803487539,22585.0,13566.0,1495.0,20294.0,1.1946662664413452,0.4107516407966614,-0.4693912863731384,0.9568659067153931,0.0,0.0,0.0,0.0,0.0,0.0,0.0,0.0,1.9502317905426025,0.09586902729010856,0.07843327139932388,-0.0425277378190609,-0.034886766225099564,0.0026252048555761576,0.0,-0.014941075816750526,0.03431397303938866,0.0
321,5,0.0008830616716295481,0.0004668627225328237,-0.009725453332066536,0.00909105222672224,0.01648668758571148,0.060333557426929474,0.07010219246149063,-0.023892465978860855,0.014821197837591171,0.0,0.0,0.0,0.0,0.0,0.0,0.0008184260223060846,0.008366401307284832,-0.0,0.0,0.0,0.0,-0.07035785168409348,0.12194263935089111,-0.006230001803487539,22585.0,13566.0,1495.0,20294.0,1.1946662664413452,0.4107516407966614,-0.4693912863731384,0.9568659067153931,0.0,0.0,0.0,0.0,0.0,0.0,0.0,0.0,1.7305147647857666,0.09911618360651744,0.104415885044969,-0.03816543588530863,-0.034886766225099564,0.0026252048555761576,0.0,-0.014941075816750526,0.03431397303938866,0.0
326,5,0.000651238311547786,0.0007402247283607721,-0.010891897603869438,-0.024182386696338654,-0.02620876394212246,0.1641068309545517,0.06314454227685928,-0.08429735898971558,0.01683208718895912,0.0,0.0,0.0,0.0,0.0,0.0,0.02795669250190258,-0.018297530710697174,-0.0,0.0,0.0,0.0,-0.026456115767359734,0.12438349425792694,-0.0009303483529947698,21989.0,5671.0,1495.0,20395.0,1.1302143335342407,0.05940377712249756,-0.20617762207984924,0.9667912721633911,0.0,0.0,0.0,0.0,0.0,0.0,0.0,0.0,1.9756935834884644,0.09291846949343802,0.09865967087606685,-0.04865619932049676,0.0870702937245369,0.1023554876446724,0.0,-0.014451919123530388,0.02399727888405323,0.0
331,5,0.002546514617279172,-0.0006835423409938812,-0.005060967523604631,-0.024182386696338654,-0.02620876394212246,0.1641068309545517,0.06314454227685928,-0.08429735898971558,0.01683208718895912,0.0,0.0,0.0,0.0,0.0,0.0,0.02795669250190258,-0.018297530710697174,-0.0,0.0,0.0,0.0,-0.026456115767359734,0.12438349425792694,-0.0009303483529947698,21989.0,5671.0,1495.0,20395.0,1.1302143335342407,0.05940377712249756,-0.20617762207984924,0.9667912721633911,0.0,0.0,0.0,0.0,0.0,0.0,0.0,0.0,1.9756935834884644,0.1352281679245394,0.4175788594268297,-0.036372435046415144,0.0870702937245369,0.1023554876446724,0.0,-0.014451919123530388,0.02399727888405323,0.0
336,5,0.002523841569200158,-0.0009943811455741525,-0.005446313414722681,-0.012393714860081673,0.026817144826054573,0.1118842214345932,0.054835788905620575,-0.12088029086589813,0.017848165705800056,0.0,0.0,0.0,0.0,0.0,0.0,-0.029433542862534523,-0.007039378397166729,-0.0,0.0,0.0,0.0,0.00029553985223174095,0.12492235004901886,-0.0007008020766079426,20625.0,1495.0,1495.0,20690.0,0.9895964860916138,-0.12487144768238068,-0.13028107583522797,0.9960708022117615,0.0,0.0,0.0,0.0,0.0,0.0,0.0,0.0,1.9127153158187866,0.13238412638644828,0.43355988266224715,-0.01734107814150383,0.03242984041571617,-0.10432478040456772,0.0,0.0008184260223060846,0.008366401307284832,0.0
342,5,0.002381645841524005,-0.0007603993290103972,-0.006541980430483818,-0.02202097699046135,-0.01735096052289009,0.17623373866081238,0.054835788905620575,-0.12088029086589813,0.017848165705800056,0.0,0.0,0.0,0.0,0.0,0.0,-0.029433542862534523,-0.007039378397166729,-0.0,0.0,0.0,0.0,0.00029553985223174095,0.12492235004901886,-0.0007008020766079426,20625.0,1495.0,1495.0,20690.0,0.9895964860916138,-0.12487144768238068,-0.13028107583522797,0.9960708022117615,0.0,0.0,0.0,0.0,0.0,0.0,0.0,0.0,1.9127153158187866,0.11634272554372041,0.41819670026716627,-0.0205323296777208,0.03242984041571617,-0.10432478040456772,0.0,0.0008184260223060846,0.008366401307284832,0.0
347,5,0.002388547407463193,-0.0012077336432412267,-0.006707112304866314,-0.007980207912623882,0.046739738434553146,0.09030931442975998,0.04716458544135094,-0.1640111356973648,0.019860675558447838,0.0,0.0,0.0,0.0,0.0,0.0,-0.029433542862534523,-0.007039378397166729,-0.0,0.0,0.0,0.0,0.006222873460501432,0.10531741380691528,0.0017679017037153244,20725.0,1495.0,6816.0,19977.0,0.9996107220649719,-0.04093395546078682,0.0909624695777893,0.9260542988777161,0.0,0.0,0.0,0.0,0.0,0.0,0.0,0.0,1.9127153158187866,0.11880468006771086,0.4340890931150884,-0.0019256060428927918,0.03242984041571617,-0.10432478040456772,0.0,0.02795669250190258,-0.018297530710697174,0.0
352,5,0.0024799725506454706,-0.0014113672077655792,-0.007761144079267979,9.97461611405015e-05,0.021999819204211235,0.10012926906347275,0.04716458544135094,-0.1640111356973648,0.019860675558447838,0.0,0.0,0.0,0.0,0.0,0.0,-0.04689447581768036,-0.0033206965308636427,-0.0,0.0,0.0,0.0,0.006222873460501432,0.10531741380691528,0.0017679017037153244,20725.0,1495.0,6816.0,19977.0,0.9996107220649719,-0.04093395546078682,0.0909624695777893,0.9260542988777161,0.0,0.0,0.0,0.0,0.0,0.0,0.0,0.0,2.0943233966827393,0.11661231050478757,0.42836216885105344,0.006020907262091891,0.016739647835493088,-0.18192178010940552,0.0,0.02795669250190258,-0.018297530710697174,0.0
357,5,0.0023541520349681377,-0.001572014531120658,-0.00793737918138504,-0.01505858264863491,0.028077607974410057,0.06119997799396515,0.048804473131895065,-0.18278229236602783,0.02104722335934639,0.0,0.0,0.0,0.0,0.0,0.0,-0.04689447581768036,-0.0033206965308636427,-0.0,0.0,0.0,0.0,-0.061847273260354996,0.09157086908817291,0.002227917080745101,22664.0,11746.0,1495.0,15739.0,1.2033592462539673,0.3020252287387848,-0.1549324095249176,0.5622633099555969,0.0,0.0,0.0,0.0,0.0,0.0,0.0,0.0,2.0943233966827393,0.11808896495039874,0.4234562747549877,0.014649083390872371,0.016739647835493088,-0.18192178010940552,0.0,-0.029433542862534523,-0.007039378397166729,0.0
362,5,0.0024605384096503258,-0.0010656436206772923,-0.007973900996148586,0.006742936559021473,-0.04953346773982048,0.028862599283456802,0.048804473131895065,-0.18278229236602783,0.02104722335934639,0.0,0.0,0.0,0.0,0.0,0.0,-0.031619954854249954,-0.009279793128371239,-0.0,0.0,0.0,0.0,-0.061847273260354996,0.09157086908817291,0.002227917080745101,22664.0,11746.0,1495.0,15739.0,1.2033592462539673,0.3020252287387848,-0.1549324095249176,0.5622633099555969,0.0,0.0,0.0,0.0,0.0,0.0,0.0,0.0,1.9447678327560425,0.10956000961715824,0.41860548682664644,0.0013973274025207956,0.04346448928117752,-0.11394783854484558,0.0,-0.029433542862534523,-0.007039378397166729,0.0
367,5,0.0022873692214488983,-0.0014878398505970836,-0.00814831256866455,-0.018083136528730392,0.030850160866975784,0.03247436136007309,0.053909849375486374,-0.19450314342975616,0.02297458052635193,0.0,0.0,0.0,0.0,0.0,0.0,-0.03378644585609436,-0.011575793847441673,-0.0,0.0,0.0,0.0,-0.06519545614719391,0.06784196197986603,0.0065561882220208645,23572.0,13279.0,5352.0,12496.0,1.3052479028701782,0.392496794462204,0.051772117614746094,0.34480664134025574,0.0,0.0,0.0,0.0,0.0,0.0,0.0,0.0,1.9789068698883057,0.10572777675272506,0.40746477387670466,0.018764203144660097,0.055165864527225494,-0.12388715893030167,0.0,-0.029433542862534523,-0.007039378397166729,0.0
372,5,0.0022257377859205008,-0.0014361933572217822,-0.008135792799293995,-0.01462902594357729,0.006142489146441221,0.01148745883256197,0.053909849375486374,-0.19450314342975616,0.02297458052635193,0.0,0.0,0.0,0.0,0.0,0.0,-0.03378644585609436,-0.011575793847441673,-0.0,0.0,0.0,0.0,-0.06519545614719391,0.06784196197986603,0.0065561882220208645,23572.0,13279.0,5352.0,12496.0,1.3052479028701782,0.392496794462204,0.051772117614746094,0.34480664134025574,0.0,0.0,0.0,0.0,0.0,0.0,0.0,0.0,1.9789068698883057,0.10407827324076734,0.39710422530878625,0.018901411517873775,0.055165864527225494,-0.12388715893030167,0.0,-0.029433542862534523,-0.007039378397166729,0.0
377,5,0.002600011182948947,-0.0010649606119841337,-0.0074138822965323925,0.03906121850013733,-0.04209093004465103,-0.08203431218862534,0.05281314626336098,-0.19272226095199585,0.02336476370692253,0.0,0.0,0.0,0.0,0.0,0.0,-0.03378644585609436,-0.011575793847441673,-0.0,0.0,0.0,0.0,-0.05821222811937332,0.04660662263631821,0.003614884102717042,21478.0,14359.0,9170.0,13047.0,1.076473593711853,0.4632706046104431,0.17653629183769226,0.37804290652275085,0.0,0.0,0.0,0.0,0.0,0.0,0.0,0.0,1.9789068698883057,0.11334093581247776,0.41977374982469023,0.007138308251477939,0.055165864527225494,-0.12388715893030167,0.0,-0.04689447581768036,-0.0033206965308636427,0.0
382,5,0.002381905447691679,-0.0013535586185753345,-0.0075944033451378345,-0.010548214428126812,0.017795393243432045,-0.011151188984513283,0.05281314626336098,-0.19272226095199585,0.02336476370692253,0.0,0.0,0.0,0.0,0.0,0.0,0.03753181919455528,0.03057284839451313,-0.0,0.0,0.0,0.0,-0.05821222811937332,0.04660662263631821,0.003614884102717042,21478.0,14359.0,9170.0,13047.0,1.076473593711853,0.4632706046104431,0.17653629183769226,0.37804290652275085,0.0,0.0,0.0,0.0,0.0,0.0,0.0,0.0,2.1853346824645996,0.10432705387432423,0.4013385583502316,0.018365128979959254,-0.16085410118103027,0.15196403861045837,0.0,-0.04689447581768036,-0.0033206965308636427,0.0
387,5,0.0025614851620048285,-0.0014024273259565234,-0.007098217960447073,0.017330273985862732,0.01298239640891552,-0.06400275230407715,0.04779257997870445,-0.18134194612503052,0.024723408743739128,0.0,0.0,0.0,0.0,0.0,0.0,0.03753181919455528,0.03057284839451313,-0.0,0.0,0.0,0.0,-0.039463840425014496,0.030640635639429092,0.005834164563566446,19967.0,13150.0,12046.0,12005.0,0.9251071214675903,0.3843804597854614,0.3188059329986572,0.31647437810897827,0.0,0.0,0.0,0.0,0.0,0.0,0.0,0.0,2.1853346824645996,0.11298410250857929,0.4145295634019442,0.01786325123069441,-0.16085410118103027,0.15196403861045837,0.0,-0.031619954854249954,-0.009279793128371239,0.0
393,5,0.0030052538495510817,-0.001481795683503151,-0.006471598520874977,0.06018437445163727,0.014717161655426025,-0.10079542547464371,0.04779257997870445,-0.18134194612503052,0.024723408743739128,0.0,0.0,0.0,0.0,0.0,0.0,-0.015754761174321175,0.01700471341609955,-0.0,0.0,0.0,0.0,-0.039463840425014496,0.030640635639429092,0.005834164563566446,19967.0,13150.0,12046.0,12005.0,0.9251071214675903,0.3843804597854614,0.3188059329986572,0.31647437810897827,0.0,0.0,0.0,0.0,0.0,0.0,0.0,0.0,1.932235598564148,0.12814016309713833,0.4381092034848064,0.00020365259168159754,-0.07916012406349182,-0.0564219132065773,0.0,-0.031619954854249954,-0.009279793128371239,0.0
398,5,0.002618040656670928,-0.0013845700304955244,-0.006703679915517569,-0.022391850128769875,-0.005780208855867386,-0.01246841810643673,0.04436570033431053,-0.17076098918914795,0.0252608023583889,0.0,0.0,0.0,0.0,0.0,0.0,-0.015754761174321175,0.01700471341609955,-0.0,0.0,0.0,0.0,-0.03968186303973198,0.019104061648249626,0.006345218978822231,19875.0,13742.0,13359.0,10620.0,0.9162315726280212,0.42208510637283325,0.39754244685173035,0.2430477887392044,0.0,0.0,0.0,0.0,0.0,0.0,0.0,0.0,1.932235598564148,0.11290177471659239,0.4050505991958454,0.016863664760991732,-0.07916012406349182,-0.0564219132065773,0.0,-0.03378644585609436,-0.011575793847441673,0.0
403,5,0.002637963742017746,-0.0013623656705021858,-0.0066503738053143024,-0.006565963849425316,-0.004976616241037846,-0.011384081095457077,0.04436570033431053,-0.17076098918914795,0.0252608023583889,0.0,0.0,0.0,0.0,0.0,0.0,0.0038968760054558516,-0.014843616634607315,-0.0,0.0,0.0,0.0,-0.03968186303973198,0.019104061648249626,0.006345218978822231,19875.0,13742.0,13359.0,10620.0,0.9162315726280212,0.42208510637283325,0.39754244685173035,0.2430477887392044,0.0,0.0,0.0,0.0,0.0,0.0,0.0,0.0,1.9425514936447144,0.10852983945918325,0.39429120882175156,0.01860138735394309,0.0694776177406311,0.014031227678060532,0.0,-0.03378644585609436,-0.011575793847441673,0.0
408,5,0.00275878026150167,-0.0013213620986789465,-0.006409100256860256,0.011871593073010445,-0.006911071948707104,-0.03350645676255226,0.040938928723335266,-0.15324409306049347,0.026044875383377075,0.0,0.0,0.0,0.0,0.0,0.0,0.0038968760054558516,-0.014843616634607315,-0.0,0.0,0.0,0.0,0.0075964429415762424,0.026443909853696823,0.0048782117664813995,18135.0,11139.0,15999.0,15933.0,0.7568644881248474,0.2694561779499054,0.5820080637931824,0.577005922794342,0.0,0.0,0.0,0.0,0.0,0.0,0.0,0.0,1.9425514936447144,0.11153437067441897,0.39413421155877293,0.016809511027248432,0.0694776177406311,0.014031227678060532,0.0,0.03753181919455528,0.03057284839451313,0.0
413,5,0.0031811902299523354,-0.0014895603526383638,-0.005950260441750288,0.0554378479719162,0.01741936057806015,-0.06846334785223007,0.040938928723335266,-0.15324409306049347,0.026044875383377075,0.0,0.0,0.0,0.0,0.0,0.0,0.005129348021000624,0.01267440989613533,-0.0,0.0,0.0,0.0,0.0075964429415762424,0.026443909853696823,0.0048782117664813995,18135.0,11139.0,15999.0,15933.0,0.7568644881248474,0.2694561779499054,0.5820080637931824,0.577005922794342,0.0,0.0,0.0,0.0,0.0,0.0,0.0,0.0,1.957922101020813,0.12772642634623885,0.41187188503401223,0.0053126396236565275,-0.05979401618242264,0.018614983186125755,0.0,0.03753181919455528,0.03057284839451313,0.0
418,5,0.002787804463878274,-0.001383553841151297,-0.005294945556670427,-0.025031160563230515,-0.00575304077938199,-0.10602317005395889,0.040938928723335266,-0.15324409306049347,0.026044875383377075,0.0,0.0,0.0,0.0,0.0,0.0,0.005129348021000624,0.01267440989613533,-0.0,0.0,0.0,0.0,0.0075964429415762424,0.026443909853696823,0.0048782117664813995,18135.0,11139.0,15999.0,15933.0,0.7568644881248474,0.2694561779499054,0.5820080637931824,0.577005922794342,0.0,0.0,0.0,0.0,0.0,0.0,0.0,0.0,1.957922101020813,0.11456451569182816,0.41038215283719864,0.0037539610382204104,-0.05979401618242264,0.018614983186125755,0.0,0.03753181919455528,0.03057284839451313,0.0
423,5,0.0027874892111867666,-0.001389007200486958,-0.0058646961115300655,-0.01005031168460846,-0.001646809745579958,0.025960827246308327,0.040386516600847244,-0.141991525888443,0.026472190394997597,0.0,0.0,0.0,0.0,0.0,0.0,0.003820606740191579,-0.016551513224840164,-0.0,0.0,0.0,0.0,-0.028466498479247093,0.0060567110776901245,0.004436588380485773,19565.0,13737.0,12840.0,10925.0,0.886686384677887,0.4217779040336609,0.3653604984283447,0.2584107518196106,0.0,0.0,0.0,0.0,0.0,0.0,0.0,0.0,1.966395378112793,0.11300553339785491,0.3760616873963608,0.015890298366141437,0.07842192053794861,0.013925468549132347,0.0,0.0038968760054558516,-0.014843616634607315,0.0
428,5,0.002674404764547944,-0.0014920018147677183,-0.005554433446377516,-0.017590248957276344,0.01170063205063343,-0.026847220957279205,0.040386516600847244,-0.141991525888443,0.026472190394997597,0.0,0.0,0.0,0.0,0.0,0.0,0.003820606740191579,-0.016551513224840164,-0.0,0.0,0.0,0.0,-0.028466498479247093,0.0060567110776901245,0.004436588380485773,19565.0,13737.0,12840.0,10925.0,0.886686384677887,0.4217779040336609,0.3653604984283447,0.2584107518196106,0.0,0.0,0.0,0.0,0.0,0.0,0.0,0.0,1.966395378112793,0.11645957065099757,0.36771016245550076,0.01955076324677623,0.07842192053794861,0.013925468549132347,0.0,0.0038968760054558516,-0.014843616634607315,0.0
433,5,0.002825939329341054,-0.0013831771211698651,-0.005851584021002054,0.011148061603307724,-0.008378716185688972,0.02491922490298748,0.04147058725357056,-0.1252267211675644,0.026773614808917046,0.0,0.0,0.0,0.0,0.0,0.0,-0.014302345924079418,-0.010792522691190243,-0.0,0.0,0.0,0.0,-0.017837515100836754,0.012887021526694298,0.004636754281818867,18061.0,14358.0,14208.0,11261.0,0.7504290342330933,0.4632211923599243,0.45305266976356506,0.2758485972881317,0.0,0.0,0.0,0.0,0.0,0.0,0.0,0.0,1.9664273262023926,0.10350034026628682,0.35401316848174985,0.017866514635094245,0.05113283917307854,-0.05212749168276787,0.0,0.005129348021000624,0.01267440989613533,0.0
438,5,0.0033318414352834225,-0.001051992760039866,-0.005380506627261639,0.06516747921705246,-0.04309361055493355,-0.046561624854803085,0.04147058725357056,-0.1252267211675644,0.026773614808917046,0.0,0.0,0.0,0.0,0.0,0.0,-0.014302345924079418,-0.010792522691190243,-0.0,0.0,0.0,0.0,-0.017837515100836754,0.012887021526694298,0.004636754281818867,18061.0,14358.0,14208.0,11261.0,0.7504290342330933,0.4632211923599243,0.45305266976356506,0.2758485972881317,0.0,0.0,0.0,0.0,0.0,0.0,0.0,0.0,1.9664273262023926,0.10958312959159129,0.374535090688117,-0.003529931011870078,0.05113283917307854,-0.05212749168276787,0.0,0.005129348021000624,0.01267440989613533,0.0
443,5,0.003278216579928994,-0.0014828635612502694,-0.005305007100105286,0.0196320042014122,0.03446706384420395,-0.02768457680940628,0.04038061201572418,-0.11527029424905777,0.02682766132056713,0.0,0.0,0.0,0.0,0.0,0.0,0.03538958728313446,0.04596225544810295,-0.0,0.0,0.0,0.0,-0.03630619868636131,0.009306883439421654,0.004904153756797314,18822.0,14701.0,13492.0,10871.0,0.817925751209259,0.4869036078453064,0.4059464931488037,0.25565141439437866,0.0,0.0,0.0,0.0,0.0,0.0,0.0,0.0,2.3755102157592773,0.11956330220983352,0.36856256604877285,0.007497707793064063,-0.262836217880249,0.1557672917842865,0.0,-0.014302345924079418,-0.010792522691190243,0.0
448,5,0.0032200722489506006,-0.0014819903299212456,-0.005489728879183531,0.0008754797745496035,0.013682035729289055,0.011092777363955975,0.04038061201572418,-0.11527029424905777,0.02682766132056713,0.0,0.0,0.0,0.0,0.0,0.0,0.03538958728313446,0.04596225544810295,-0.0,0.0,0.0,0.0,-0.03630619868636131,0.009306883439421654,0.004904153756797314,18822.0,14701.0,13492.0,10871.0,0.817925751209259,0.4869036078453064,0.4059464931488037,0.25565141439437866,0.0,0.0,0.0,0.0,0.0,0.0,0.0,0.0,2.3755102157592773,0.11100190853025281,0.3538521203603144,0.011828017991811436,-0.262836217880249,0.1557672917842865,0.0,-0.014302345924079418,-0.010792522691190243,0.0
453,5,0.003413612488657236,-0.0016347032506018877,-0.005058754235506058,0.023575007915496826,0.02379835955798626,-0.047279853373765945,0.04011714830994606,-0.09792660176753998,0.027609113603830338,0.0,0.0,0.0,0.0,0.0,0.0,-0.01627141423523426,0.004445937927812338,-0.0,0.0,0.0,0.0,-0.005874374881386757,0.030604951083660126,0.004905924666672945,19489.0,12643.0,15558.0,16150.0,0.8795874714851379,0.35353991389274597,0.5487319827079773,0.5936508774757385,0.0,0.0,0.0,0.0,0.0,0.0,0.0,0.0,1.973341703414917,0.11044578389049925,0.36928220844012,0.011289794621477018,-0.021137746050953865,-0.05951156094670296,0.0,0.03538958728313446,0.04596225544810295,0.0
458,5,0.0036429925821721554,-0.0017042576801031828,-0.005015010945498943,0.036955609917640686,0.017865873873233795,-0.024161135777831078,0.04011714830994606,-0.09792660176753998,0.027609113603830338,0.0,0.0,0.0,0.0,0.0,0.0,-0.01627141423523426,0.004445937927812338,-0.0,0.0,0.0,0.0,-0.005874374881386757,0.030604951083660126,0.004905924666672945,19489.0,12643.0,15558.0,16150.0,0.8795874714851379,0.35353991389274597,0.5487319827079773,0.5936508774757385,0.0,0.0,0.0,0.0,0.0,0.0,0.0,0.0,1.973341703414917,0.12102150456099796,0.3740529559730421,0.011836900019210221,-0.021137746050953865,-0.05951156094670296,0.0,0.03538958728313446,0.04596225544810295,0.0
464,5,0.003764711320400238,-0.001759938197210431,-0.004709763452410698,0.02938850410282612,0.013828013092279434,-0.04629412665963173,0.04022727534174919,-0.0949397012591362,0.028025954961776733,0.0,0.0,0.0,0.0,0.0,0.0,-0.01984560303390026,0.031721584498882294,-0.0,0.0,0.0,0.0,-0.03927573561668396,0.026169205084443092,0.003879828378558159,19463.0,14163.0,11565.0,12654.0,0.8770930767059326,0.450000524520874,0.2920863926410675,0.35416170954704285,0.0,0.0,0.0,0.0,0.0,0.0,0.0,0.0,2.077970266342163,0.12533586412481884,0.3906962782651567,0.004856442910063433,-0.15877704322338104,-0.07642938941717148,0.0,-0.01627141423523426,0.004445937927812338,0.0
469,5,0.0039277044124901295,-0.0017652931855991483,-0.0050343107432127,0.031314585357904434,0.006173811387270689,0.020428026095032692,0.04022727534174919,-0.0949397012591362,0.028025954961776733,0.0,0.0,0.0,0.0,0.0,0.0,-0.01984560303390026,0.031721584498882294,-0.0,0.0,0.0,0.0,-0.03927573561668396,0.026169205084443092,0.003879828378558159,19463.0,14163.0,11565.0,12654.0,0.8770930767059326,0.450000524520874,0.2920863926410675,0.35416170954704285,0.0,0.0,0.0,0.0,0.0,0.0,0.0,0.0,2.077970266342163,0.12651275637695775,0.3799990649105309,0.010276991706753303,-0.15877704322338104,-0.07642938941717148,0.0,-0.01627141423523426,0.004445937927812338,0.0
474,5,0.00414535216987133,-0.0018111343961209059,-0.004968785215169191,0.03864357993006706,0.007970467209815979,0.00030813124612905085,0.04088253155350685,-0.09609702974557877,0.02826842851936817,0.0,0.0,0.0,0.0,0.0,0.0,-0.008894030936062336,0.02892887033522129,-0.0,0.0,0.0,0.0,-0.04656831920146942,0.0426158607006073,0.0035756826400756836,20712.0,14018.0,9837.0,13917.0,0.9982861280441284,0.44027796387672424,0.2058114856481552,0.4335947334766388,0.0,0.0,0.0,0.0,0.0,0.0,0.0,0.0,1.9972965717315674,0.13318799379855875,0.3895758680196207,0.007597482510625939,-0.13920286297798157,-0.03292602673172951,0.0,-0.01984560303390026,0.031721584498882294,0.0
479,5,0.004269430413842201,-0.0016076569445431232,-0.005356631241738796,0.030346771702170372,-0.02122911438345909,0.0466647706925869,0.04088253155350685,-0.09609702974557877,0.02826842851936817,0.0,0.0,0.0,0.0,0.0,0.0,-0.008894030936062336,0.02892887033522129,-0.0,0.0,0.0,0.0,-0.04656831920146942,0.0426158607006073,0.0035756826400756836,20712.0,14018.0,9837.0,13917.0,0.9982861280441284,0.44027796387672424,0.2058114856481552,0.4335947334766388,0.0,0.0,0.0,0.0,0.0,0.0,0.0,0.0,1.9972965717315674,0.12116300837131515,0.3794791667865678,0.006584547553597892,-0.13920286297798157,-0.03292602673172951,0.0,-0.01984560303390026,0.031721584498882294,0.0
484,5,0.0044321464374661446,-0.0019215317443013191,-0.0051419432274997234,0.03166467323899269,0.029173338785767555,-0.0070966859348118305,0.0407572016119957,-0.10165579617023468,0.028620537370443344,0.0,0.0,0.0,0.0,0.0,0.0,0.01883349008858204,0.028176050633192062,-0.0,0.0,0.0,0.0,-0.03525470942258835,0.04813909903168678,0.003521435661241412,20277.0,12530.0,9943.0,14668.0,0.955157995223999,0.34681934118270874,0.21070162951946259,0.4846176207065582,0.0,0.0,0.0,0.0,0.0,0.0,0.0,0.0,2.0253684520721436,0.13194567451881264,0.39470983716682484,0.009095111691693596,-0.13746799528598785,0.07069631665945053,0.0,-0.008894030936062336,0.02892887033522129,0.0
489,5,0.0044302563183009624,-0.001954462146386504,-0.005501513369381428,0.012439060024917126,0.01562098041176796,0.040309783071279526,0.0407572016119957,-0.10165579617023468,0.028620537370443344,0.0,0.0,0.0,0.0,0.0,0.0,0.01883349008858204,0.028176050633192062,-0.0,0.0,0.0,0.0,-0.03525470942258835,0.04813909903168678,0.003521435661241412,20277.0,12530.0,9943.0,14668.0,0.955157995223999,0.34681934118270874,0.21070162951946259,0.4846176207065582,0.0,0.0,0.0,0.0,0.0,0.0,0.0,0.0,2.0253684520721436,0.12137710164135121,0.3797401538123078,0.014123246107062302,-0.13746799528598785,0.07069631665945053,0.0,-0.008894030936062336,0.02892887033522129,0.0
