timestamp,dt,pos_x,pos_y,pos_z,vel_x,vel_y,vel_z,roll,pitch,yaw,agv_x,agv_y,agv_z,x_ref,y_ref,z_ref,roll_ref,pitch_ref,yaw_ref,x_vel_ref,y_vel_ref,z_vel_ref,x_torque,y_torque,z_torque,w0,w1,w2,w3,u0,u1,u2,u3,m0req,m1req,m2req,m3req,thrust0,thrust1,thrust2,thrust3,thrust_ref,roll_vicon,pitch_vicon,yaw_vicon,acc_x,acc_y,acc_z
5,5,0.0,0.0,0.0,0.0006839048000983894,0.001058007124811411,-0.0035145438741892576,-0.01505268830806017,0.019942332059144974,0.0022772238589823246,0.002163567813113332,-0.0033448110334575176,-0.0007609683088958263,0.0,0.0,0.0,-0.0013063157675787807,0.0006495491834357381,-0.0,0.0,0.0,0.0,0.001482978230342269,-0.0020329707767814398,0.00022406426433008164,1495.0,1495.0,1495.0,1495.0,0.0,0.0,0.0,0.0,0.0,0.0,0.0,0.0,1495.0,1495.0,1495.0,1495.0,1.6385639905929565,-0.004617205742835645,-0.0069913981551839805,0.05978121284673999,-0.002564643044024706,-0.003967526834458113,0.0
33,28,0.0,0.0,0.0,-0.0007136958884075284,-0.002131473971530795,0.0005545399617403746,-0.01505268830806017,0.019942332059144974,0.0022772238589823246,0.002163567813113332,-0.0033448110334575176,-0.0007609683088958263,0.0,0.0,0.0,-0.0013063157675787807,0.0006495491834357381,-0.0,0.0,0.0,0.0,0.001482978230342269,-0.0020329707767814398,0.00022406426433008164,1495.0,1495.0,1495.0,1495.0,0.0,0.0,0.0,0.0,0.0,0.0,0.0,0.0,1495.0,1495.0,1495.0,1495.0,1.6385639905929565,-0.004535388681082492,-0.007123765379531006,0.05959571675091823,0.002676359610632062,0.007993027567863464,0.0
45,12,0.0,0.0,0.0,0.0015379164833575487,-0.0016438121674582362,0.0022594572510570288,-0.015052692033350468,0.019981196150183678,0.0022743509616702795,-0.0016266442835330963,-0.003271662862971425,0.0025447194930166006,0.0,0.0,0.0,0.0020172209478914738,0.0014517477247864008,-0.0,0.0,0.0,0.0,0.0013763089664280415,-0.0019301309948787093,0.00022021529730409384,1495.0,1495.0,1495.0,1495.0,0.0,0.0,0.0,0.0,0.0,0.0,0.0,0.0,1495.0,1495.0,1495.0,1495.0,1.648625373840332,-0.004283969523238878,-0.006762608994252581,0.05939549043500415,-0.005767186637967825,0.006164295598864555,0.0
55,10,0.0,0.0,0.0,0.0013447448145598173,0.0013275869423523545,-0.0021126754581928253,-0.015052692033350468,0.019981196150183678,0.0022743509616702795,-0.0016266442835330963,-0.003271662862971425,0.0025447194930166006,0.0,0.0,0.0,0.0020172209478914738,0.0014517477247864008,-0.0,0.0,0.0,0.0,0.0013763089664280415,-0.0019301309948787093,0.00022021529730409384,1495.0,1495.0,1495.0,1495.0,0.0,0.0,0.0,0.0,0.0,0.0,0.0,0.0,1495.0,1495.0,1495.0,1495.0,1.648625373840332,-0.0044010935565371384,-0.006655958108527268,0.059496086812101744,-0.005767186637967825,0.006164295598864555,0.0
60,5,0.0,0.0,0.0,0.0007888397085480392,0.0006653981399722397,-0.0020692211110144854,-0.015067164786159992,0.019955523312091827,0.0022855184506624937,-0.0014942513080313802,0.00419385451823473,-0.004654316231608391,0.0,0.0,0.0,-0.0016327917110174894,0.0012722272658720613,-0.0,0.0,0.0,0.0,0.0017714230343699455,-0.0020219211000949144,0.000191891856957227,13381.0,13555.0,13902.0,13508.0,0.39892518520355225,0.41004401445388794,0.43262165784835815,0.40700221061706543,0.0,0.0,0.0,0.0,1495.0,1495.0,1495.0,1495.0,1.6449596881866455,-0.0044581809901971725,-0.00678074999242297,0.059630187335971814,-0.005042793229222298,-0.004978450946509838,0.0
66,7,0.0,0.0,0.0,-0.0015165767399594188,0.0013787749921903014,-0.0016518826596438885,-0.015067164786159992,0.019955523312091827,0.0022855184506624937,-0.0014942513080313802,0.00419385451823473,-0.004654316231608391,0.0,0.0,0.0,-0.0016327917110174894,0.0012722272658720613,-0.0,0.0,0.0,0.0,0.0017714230343699455,-0.0020219211000949144,0.000191891856957227,13381.0,13555.0,13902.0,13508.0,0.39892518520355225,0.41004401445388794,0.43262165784835815,0.40700221061706543,0.0,0.0,0.0,0.0,1495.0,1495.0,1495.0,1495.0,1.6449596881866455,-0.00507360846125598,-0.006833975138619886,0.059534388036255284,-0.005042793229222298,-0.004978450946509838,0.0
71,5,-1.430316569894785e-05,-7.3879518822650425e-06,4.068405360158067e-06,-0.0017322226194664836,0.001382670714519918,-0.0012582665076479316,-0.0150445606559515,0.019955750554800034,0.0022680717520415783,0.0019825599156320095,0.0025256830267608166,-0.00243952265009284,0.0,0.0,0.0,-0.0016940763453021646,-0.0014333789004012942,-0.0,0.0,0.0,0.0,0.001704343012534082,-0.0018279468640685081,0.00017913075862452388,13407.0,13540.0,13890.0,13511.0,0.400593638420105,0.40902912616729736,0.4318166971206665,0.4071859121322632,0.0,0.0,0.0,0.0,13409.0,13539.0,13897.0,13503.0,1.6465826034545898,-0.004424847797327717,-0.006665010505250711,0.05949268257463784,0.00568716274574399,-0.005170406308025122,0.0
78,6,-1.430316569894785e-05,-7.3879518822650425e-06,4.068405360158067e-06,-0.0017322226194664836,0.001382670714519918,-0.0012582665076479316,-0.0150445606559515,0.019955750554800034,0.0022680717520415783,0.0019825599156320095,0.0025256830267608166,-0.00243952265009284,0.0,0.0,0.0,-0.0016940763453021646,-0.0014333789004012942,-0.0,0.0,0.0,0.0,0.001704343012534082,-0.0018279468640685081,0.00017913075862452388,13407.0,13540.0,13890.0,13511.0,0.400593638420105,0.40902912616729736,0.4318166971206665,0.4071859121322632,0.0,0.0,0.0,0.0,13409.0,13539.0,13897.0,13503.0,1.6465826034545898,-0.004424847797327717,-0.006665010505250711,0.05949268257463784,0.00568716274574399,-0.005170406308025122,0.0
83,5,-1.2224068996147253e-05,1.1296768207103014e-05,-2.6885045372182503e-05,0.00044403408537618816,-0.0012116646394133568,0.0020963188726454973,-0.015034149400889874,0.02000722847878933,0.00225935154594481,-0.0017146331956610084,-0.0024868410546332598,0.0010477399919182062,0.0,0.0,0.0,-0.0017101848497986794,-0.001655098982155323,-0.0,0.0,0.0,0.0,0.0013461445923894644,-0.0019143355311825871,0.0002848004223778844,13456.0,13510.0,13903.0,13421.0,0.4036867320537567,0.40713009238243103,0.4326944649219513,0.40144839882850647,0.0,0.0,0.0,0.0,13409.0,13539.0,13897.0,13503.0,1.6485083103179932,-0.004709674424449401,-0.007033997935428992,0.05942190528636983,0.00657455250620842,-0.005225674714893103,0.0
88,5,-9.11318238649983e-06,2.500183109077625e-05,-5.763223089161329e-05,0.0005509199691005051,-0.0021292734891176224,0.00452819000929594,-0.015034149400889874,0.02000722847878933,0.00225935154594481,-0.0017146331956610084,-0.0024868410546332598,0.0010477399919182062,0.0,0.0,0.0,-0.0017101848497986794,-0.001655098982155323,-0.0,0.0,0.0,0.0,0.0013461445923894644,-0.0019143355311825871,0.0002848004223778844,13456.0,13510.0,13903.0,13421.0,0.4036867320537567,0.40713009238243103,0.4326944649219513,0.40144839882850647,0.0,0.0,0.0,0.0,13409.0,13539.0,13897.0,13503.0,1.6485083103179932,-0.004629888195360496,-0.007112496438120404,0.05962683179964088,0.00657455250620842,-0.005225674714893103,0.0
93,5,-6.843648407084402e-06,2.005815622396767e-05,-5.277301897876896e-05,0.000492712075356394,-0.00025846835342235863,0.0012281702365726233,-0.015038290992379189,0.020014416426420212,0.0022863319609314203,0.0002918474201578647,0.0022648463491350412,0.005821071565151215,0.0,0.0,0.0,0.002658297074958682,0.0005074753426015377,-0.0,0.0,0.0,0.0,0.0013415501452982426,-0.0021302795503288507,0.0001861927012214437,13485.0,13496.0,13962.0,13371.0,0.4055000841617584,0.4062327444553375,0.4365854561328888,0.3982643187046051,0.0,0.0,0.0,0.0,13476.0,13503.0,13952.0,13382.0,1.6484296321868896,-0.004743720621236171,-0.007089413797641591,0.05960841495114024,-0.002015745500102639,0.008122347295284271,0.0
98,5,2.203753865614999e-06,3.67321954399813e-05,-4.403133425512351e-05,0.0012827730970457196,-0.002104271901771426,-0.000557734165340662,-0.015038290992379189,0.020014416426420212,0.0022863319609314203,0.0002918474201578647,0.0022648463491350412,0.005821071565151215,0.0,0.0,0.0,0.002658297074958682,0.0005074753426015377,-0.0,0.0,0.0,0.0,0.0013415501452982426,-0.0021302795503288507,0.0001861927012214437,13485.0,13496.0,13962.0,13371.0,0.4055000841617584,0.4062327444553375,0.4365854561328888,0.3982643187046051,0.0,0.0,0.0,0.0,13476.0,13503.0,13952.0,13382.0,1.6484296321868896,-0.00504367906081303,-0.007024878484295853,0.059683562921718974,-0.002015745500102639,0.008122347295284271,0.0
103,5,4.065402663400164e-06,2.3429702196153812e-05,-4.2169638618361205e-05,0.0007365071214735508,0.000754590320866555,-0.0004464968806132674,-0.015040519647300243,0.019984552636742592,0.002291780663654208,0.0035042467061430216,0.00663168728351593,0.000602160464040935,0.0,0.0,0.0,0.0026442077942192554,0.0012119871098548174,-0.0,0.0,0.0,0.0,0.0013415501452982426,-0.0021302795503288507,0.0001861927012214437,13426.0,13556.0,13899.0,13436.0,0.40174394845962524,0.4100644588470459,0.43237996101379395,0.40239423513412476,0.0,0.0,0.0,0.0,13440.0,13542.0,13910.0,13423.0,1.6512736082077026,-0.0045637536459855015,-0.00706494454251859,0.059643468646596795,-0.004822445567697287,0.008093236945569515,0.0
108,5,2.030110863415757e-06,1.7488750017946586e-05,-3.569143154891208e-05,5.0367816584184766e-05,0.001014750450849533,-0.00095598358893767,-0.015040519647300243,0.019984552636742592,0.002291780663654208,0.0035042467061430216,0.00663168728351593,0.000602160464040935,0.0,0.0,0.0,0.0026442077942192554,0.0012119871098548174,-0.0,0.0,0.0,0.0,0.0013415501452982426,-0.0021302795503288507,0.0001861927012214437,13426.0,13556.0,13899.0,13436.0,0.40174394845962524,0.4100644588470459,0.43237996101379395,0.40239423513412476,0.0,0.0,0.0,0.0,13440.0,13542.0,13910.0,13423.0,1.6512736082077026,-0.004922321844156388,-0.006996545365851895,0.05984584782386599,-0.004822445567697287,0.008093236945569515,0.0
113,5,1.0359573252571863e-06,1.1350632121320814e-05,-1.8490403817850165e-05,-9.915129339788109e-05,0.0011424742406234145,-0.002446516649797559,-0.015051867812871933,0.019989343360066414,0.002309579635038972,-0.004706214182078838,-0.004498759750276804,0.0015364951686933637,0.0,0.0,0.0,-0.0012231975561007857,5.07332879351452e-05,-0.0,0.0,0.0,0.0,0.001804271130822599,-0.0019421866163611412,0.00023785786470398307,13455.0,13521.0,13947.0,13391.0,0.40361273288726807,0.407850980758667,0.43556076288223267,0.3995581269264221,0.0,0.0,0.0,0.0,13408.0,13522.0,13931.0,13483.0,1.6358262300491333,-0.004505045306563149,-0.006874896429690492,0.059612451099015494,-0.00019997778872493654,-0.003708874573931098,0.0
120,7,-1.0034749493570416e-06,1.009750849334523e-05,-2.6988276658812538e-05,-0.000284392386674881,0.0006073645199649036,4.1137856896966696e-05,-0.015051867812871933,0.019989343360066414,0.002309579635038972,-0.004706214182078838,-0.004498759750276804,0.0015364951686933637,0.0,0.0,0.0,-0.0012231975561007857,5.07332879351452e-05,-0.0,0.0,0.0,0.0,0.001804271130822599,-0.0019421866163611412,0.00023785786470398307,13455.0,13521.0,13947.0,13391.0,0.40361273288726807,0.407850980758667,0.43556076288223267,0.3995581269264221,0.0,0.0,0.0,0.0,13408.0,13522.0,13931.0,13483.0,1.6358262300491333,-0.004662366820904329,-0.006944429358411647,0.05952139472260051,-0.00019997778872493654,-0.003708874573931098,0.0
125,5,-3.092256747549982e-06,5.122398306411924e-06,-3.316130823804997e-05,-0.00036441077827475965,0.0008399590733461082,0.0007572192116640508,-0.015083765611052513,0.019984647631645203,0.0022920628543943167,0.001045590965077281,0.0008772725705057383,-0.0014512627385556698,0.0,0.0,0.0,-0.0007342727039940655,-0.00027253979351371527,-0.0,0.0,0.0,0.0,0.0017872890457510948,-0.0018922293093055487,0.0003418667474761605,13464.0,13494.0,13965.0,13465.0,0.4041770100593567,0.4060956835746765,0.43675655126571655,0.4042443633079529,0.0,0.0,0.0,0.0,13415.0,13543.0,13918.0,13512.0,1.632442593574524,-0.004390783283449679,-0.00685160779414173,0.059492296177453656,0.0010720612481236458,-0.002221793867647648,0.0
130,5,-7.045299753372092e-06,5.941294148215093e-06,-2.0225086700520478e-05,-0.000620129460003227,0.00023771612904965878,-0.001249458990059793,-0.015083765611052513,0.019984647631645203,0.0022920628543943167,0.001045590965077281,0.0008772725705057383,-0.0014512627385556698,0.0,0.0,0.0,-0.0007342727039940655,-0.00027253979351371527,-0.0,0.0,0.0,0.0,0.0017872890457510948,-0.0018922293093055487,0.0003418667474761605,13464.0,13494.0,13965.0,13465.0,0.4041770100593567,0.4060956835746765,0.43675655126571655,0.4042443633079529,0.0,0.0,0.0,0.0,13415.0,13543.0,13918.0,13512.0,1.632442593574524,-0.004371262716256916,-0.006756269605527451,0.05936689800339659,0.0010720612481236458,-0.002221793867647648,0.0
135,5,-1.205440639751032e-05,4.259848083165707e-06,-3.3778971555875614e-05,-0.0008491445914842188,0.0002968599437735975,0.0011266827350482345,-0.015071921981871128,0.01997974142432213,0.002315841382369399,0.0026628857012838125,0.0008814611937850714,0.0012259333161637187,0.0,0.0,0.0,-0.00028368347557261586,-0.0006010123761370778,-0.0,0.0,0.0,0.0,0.0013995786430314183,-0.0020419503562152386,0.00029534974601119757,13426.0,13463.0,13898.0,13360.0,0.40176260471343994,0.40411776304244995,0.4323726296424866,0.39757323265075684,0.0,0.0,0.0,0.0,13427.0,13531.0,13930.0,13500.0,1.6325738430023193,-0.004153040073700878,-0.006656265458931634,0.059532888799652496,0.002364329993724823,-0.000858450832311064,0.0
140,5,-2.606939415272791e-05,1.1352587534929626e-05,-2.7851499908138067e-05,-0.0020214563701301813,-0.0007323847385123372,-0.0002606236084830016,-0.015071921981871128,0.01997974142432213,0.002315841382369399,0.0026628857012838125,0.0008814611937850714,0.0012259333161637187,0.0,0.0,0.0,-0.00028368347557261586,-0.0006010123761370778,-0.0,0.0,0.0,0.0,0.0013995786430314183,-0.0020419503562152386,0.00029534974601119757,13426.0,13463.0,13898.0,13360.0,0.40176260471343994,0.40411776304244995,0.4323726296424866,0.39757323265075684,0.0,0.0,0.0,0.0,13427.0,13531.0,13930.0,13500.0,1.6325738430023193,-0.005098792901105254,-0.007054293583120445,0.05973856902172949,0.002364329993724823,-0.000858450832311064,0.0
145,5,-1.1531249583640601e-05,2.0818202756345272e-05,-4.450505002751015e-05,0.0009359948453493416,-0.0014288276433944702,0.001894176471978426,-0.015042444691061974,0.0200069360435009,0.002325167879462242,0.0020899453666061163,-0.002069557784125209,0.00472896546125412,0.0,0.0,0.0,0.0009196350583806634,-0.0019450432155281305,-0.0,0.0,0.0,0.0,0.0014769985573366284,-0.002064364030957222,0.0002526115858927369,13426.0,13463.0,13898.0,13360.0,0.40176260471343994,0.40411776304244995,0.4323726296424866,0.39757323265075684,0.0,0.0,0.0,0.0,13436.0,13452.0,13910.0,13349.0,1.6480228900909424,-0.004563584220446235,-0.00705935038645724,0.0597343629747768,0.00772402947768569,0.0028092293068766594,0.0
150,5,-5.853139555256348e-06,3.0007326131453738e-05,-3.3733362215571105e-05,0.001055771135725081,-0.0016742260195314884,-0.0005349318962544203,-0.015042444691061974,0.0200069360435009,0.002325167879462242,0.0020899453666061163,-0.002069557784125209,0.00472896546125412,0.0,0.0,0.0,0.0009196350583806634,-0.0019450432155281305,-0.0,0.0,0.0,0.0,0.0014769985573366284,-0.002064364030957222,0.0002526115858927369,13426.0,13463.0,13898.0,13360.0,0.40176260471343994,0.40411776304244995,0.4323726296424866,0.39757323265075684,0.0,0.0,0.0,0.0,13436.0,13452.0,13910.0,13349.0,1.6480228900909424,-0.004410821917392591,-0.006882182302350607,0.059577084680094435,0.00772402947768569,0.0028092293068766594,0.0
156,5,1.3202645732235396e-06,3.127152376691811e-05,-3.804777588811703e-05,0.0012831169879063964,-0.0008213939727284014,0.00030375688220374286,-0.015066198073327541,0.020012035965919495,0.002327115973457694,-0.0015960169257596135,0.0009026548941619694,0.0014019445516169071,0.0,0.0,0.0,0.0021118016447871923,0.000989914988167584,-0.0,0.0,0.0,0.0,0.0015043001621961594,-0.0020779608748853207,0.00020646522170864046,13361.0,13487.0,13854.0,13395.0,0.39767637848854065,0.40567460656166077,0.42945238947868347,0.39977046847343445,0.0,0.0,0.0,0.0,13381.0,13470.0,13867.0,13377.0,1.6462041139602661,-0.004558486470687666,-0.0066903377196014255,0.05960350224299986,-0.003926742356270552,0.0064438399858772755,0.0
161,5,1.5949379303492606e-05,2.724754813243635e-05,-3.332372580189258e-05,0.002268740441650152,0.00015431930660270154,-0.00044538333895616233,-0.015066198073327541,0.020012035965919495,0.002327115973457694,-0.0015960169257596135,0.0009026548941619694,0.0014019445516169071,0.0,0.0,0.0,0.0021118016447871923,0.000989914988167584,-0.0,0.0,0.0,0.0,0.0015043001621961594,-0.0020779608748853207,0.00020646522170864046,13361.0,13487.0,13854.0,13395.0,0.39767637848854065,0.40567460656166077,0.42945238947868347,0.39977046847343445,0.0,0.0,0.0,0.0,13381.0,13470.0,13867.0,13377.0,1.6462041139602661,-0.004107211480536032,-0.006864105625338691,0.05953680859223182,-0.003926742356270552,0.0064438399858772755,0.0
166,5,2.388670873187948e-05,-4.103949777345406e-06,1.4332992577692494e-05,0.0018599757459014654,0.0038239075802266598,-0.005896959453821182,-0.015091439709067345,0.019969342276453972,0.0022599671501666307,-0.008761433884501457,-0.0056058247573673725,-0.009240211918950081,0.0,0.0,0.0,-0.00014011634630151093,0.002163082594051957,-0.0,0.0,0.0,0.0,0.001625310629606247,-0.002229341072961688,-3.482492502371315e-06,13294.0,13654.0,13835.0,13555.0,0.39339688420295715,0.41638270020484924,0.4281998574733734,0.4100434482097626,0.0,0.0,0.0,0.0,13346.0,13502.0,13838.0,13412.0,1.6490687131881714,-0.006319205968586573,-0.008646126718207187,0.05902823570025971,-0.00859534740447998,-0.00042828821460716426,0.0
171,5,-4.0243350667878985e-05,-1.4484182429441717e-05,-5.207816229813034e-06,-0.006951616611331701,0.0027751908637583256,-1.388671989843715e-05,-0.015091439709067345,0.019969342276453972,0.0022599671501666307,-0.008761433884501457,-0.0056058247573673725,-0.009240211918950081,0.0,0.0,0.0,-0.00014011634630151093,0.002163082594051957,-0.0,0.0,0.0,0.0,0.001625310629606247,-0.002229341072961688,-3.482492502371315e-06,13294.0,13654.0,13835.0,13555.0,0.39339688420295715,0.41638270020484924,0.4281998574733734,0.4100434482097626,0.0,0.0,0.0,0.0,13346.0,13502.0,13838.0,13412.0,1.6490687131881714,-0.006173736480158565,-0.006173965989371526,0.05923887604215888,-0.00859534740447998,-0.00042828821460716426,0.0
176,5,-4.367591373011237e-06,9.278342076868284e-06,-4.2889179894700646e-05,0.0015244444366544485,-0.0017414265312254429,0.0045162090100348,-0.015165111981332302,0.01990783028304577,0.002199766458943486,0.008591147139668465,0.007146571762859821,-0.035938430577516556,0.0,0.0,0.0,-0.003323934506624937,-0.006410494446754456,-0.0,0.0,0.0,0.0,0.0017916980432346463,-0.00182046159170568,-0.0005473479977808893,13006.0,13900.0,13513.0,13876.0,0.3755274713039398,0.4324924647808075,0.40729424357414246,0.43088993430137634,0.0,0.0,0.0,0.0,13378.0,13561.0,13931.0,13467.0,1.7019850015640259,-0.004741299017703728,-0.0067415985972707195,0.059557008994880166,0.02629019320011139,-0.01048613153398037,0.0
181,5,-1.9028109818464145e-05,-1.333357340627117e-05,3.1320933402412265e-08,-0.001149484422057867,0.0020168593619018793,-0.0033439763356000185,-0.015165111981332302,0.01990783028304577,0.002199766458943486,0.008591147139668465,0.007146571762859821,-0.035938430577516556,0.0,0.0,0.0,-0.003323934506624937,-0.006410494446754456,-0.0,0.0,0.0,0.0,0.0017916980432346463,-0.00182046159170568,-0.0005473479977808893,13006.0,13900.0,13513.0,13876.0,0.3755274713039398,0.4324924647808075,0.40729424357414246,0.43088993430137634,0.0,0.0,0.0,0.0,13378.0,13561.0,13931.0,13467.0,1.7019850015640259,-0.0056043358350458886,-0.00804500588711051,0.059463974045808436,0.02629019320011139,-0.01048613153398037,0.0
186,5,-1.747752867231611e-05,1.293541572522372e-05,1.6214149582083337e-05,-0.00027372402837499976,-0.002345534972846508,-0.0032795299775898457,-0.015158052556216717,0.01992865651845932,0.0023482355754822493,-0.024465134367346764,0.006756826303899288,-0.11856531351804733,0.0,0.0,0.0,-0.002497307723388076,-0.001110823592171073,-0.0,0.0,0.0,0.0,0.0016484486404806376,-0.0018078259890899062,-0.0007390148821286857,12573.0,14320.0,13079.0,14297.0,0.34937334060668945,0.4606385827064514,0.3800124526023865,0.45904433727264404,0.0,0.0,0.0,0.0,12100.0,14717.0,12627.0,14696.0,1.6496515274047852,-0.005590737331193094,-0.007954560333204802,0.06004426681342774,0.004415580071508884,-0.007636107038706541,0.0
191,5,-1.3383947589318268e-05,6.287323685683077e-06,-2.399166623945348e-05,0.00038174015935510397,-0.0001404429494868964,0.0035128858871757984,-0.015158052556216717,0.01992865651845932,0.0023482355754822493,-0.024465134367346764,0.006756826303899288,-0.11856531351804733,0.0,0.0,0.0,-0.002497307723388076,-0.001110823592171073,-0.0,0.0,0.0,0.0,0.0016484486404806376,-0.0018078259890899062,-0.0007390148821286857,12573.0,14320.0,13079.0,14297.0,0.34937334060668945,0.4606385827064514,0.3800124526023865,0.45904433727264404,0.0,0.0,0.0,0.0,12100.0,14717.0,12627.0,14696.0,1.6496515274047852,-0.004393779244696538,-0.006985788115868443,0.059630456632016875,0.004415580071508884,-0.007636107038706541,0.0
196,5,1.7341938018944347e-06,-4.069301940035075e-05,4.4963489926885813e-05,0.00196687295101583,0.005581463687121868,-0.006869464181363583,-0.015087599866092205,0.01994423009455204,0.003064832417294383,0.03495195135474205,0.004492409992963076,0.15135522186756134,0.0,0.0,0.0,0.0001859472249634564,0.0003456796985119581,-0.0,0.0,0.0,0.0,0.0011762849753722548,-0.002044238382950425,-0.0045777116902172565,15462.0,11714.0,15911.0,11429.0,0.5416862964630127,0.30023273825645447,0.5753185749053955,0.28474733233451843,0.0,0.0,0.0,0.0,14289.0,13142.0,14751.0,12903.0,1.6297340393066406,-0.007587916445823879,-0.0098238955079251,0.05841213599343585,-0.0013575083576142788,0.000561713648494333,0.0
201,5,1.1674653251247946e-05,3.447340350248851e-05,-3.97108233300969e-05,0.0019796043634414673,-0.006787384860217571,0.007413131650537252,-0.015087599866092205,0.01994423009455204,0.003064832417294383,0.03495195135474205,0.004492409992963076,0.15135522186756134,0.0,0.0,0.0,0.0001859472249634564,0.0003456796985119581,-0.0,0.0,0.0,0.0,0.0011762849753722548,-0.002044238382950425,-0.0045777116902172565,15462.0,11714.0,15911.0,11429.0,0.5416862964630127,0.30023273825645447,0.5753185749053955,0.28474733233451843,0.0,0.0,0.0,0.0,14289.0,13142.0,14751.0,12903.0,1.6297340393066406,-0.004516870989206195,-0.007486273141099594,0.05972873944025441,-0.0013575083576142788,0.000561713648494333,0.0
206,5,6.359237431752263e-06,4.05737737310119e-05,-4.222819916321896e-05,0.00015399181575048715,-0.0034469985403120518,0.003267337568104267,-0.014970860444009304,0.01979394443333149,0.0013506222749128938,0.020222008228302002,-0.014285588636994362,0.011506523936986923,0.0,0.0,0.0,0.008148766122758389,0.0018302747048437595,-0.0,0.0,0.0,0.0,0.0019152233144268394,-0.0024432402569800615,0.0006675799377262592,12825.0,13934.0,13425.0,13845.0,0.3644736707210541,0.434718519449234,0.4016910493373871,0.42885079979896545,0.0,0.0,0.0,0.0,14405.0,12549.0,14870.0,12355.0,1.6977561712265015,-0.004593628090439616,-0.006905042746768646,0.05993286499405151,-0.007487362250685692,0.025642890483140945,0.0
211,5,1.4448831279878505e-05,2.8789523639716208e-05,8.561823960917536e-07,0.00289340503513813,-0.009058259427547455,0.012188047170639038,-0.014970860444009304,0.01979394443333149,0.0013506222749128938,0.020222008228302002,-0.014285588636994362,0.011506523936986923,0.0,0.0,0.0,0.008148766122758389,0.0018302747048437595,-0.0,0.0,0.0,0.0,0.0019152233144268394,-0.0024432402569800615,0.0006675799377262592,12825.0,13934.0,13425.0,13845.0,0.3644736707210541,0.434718519449234,0.4016910493373871,0.42885079979896545,0.0,0.0,0.0,0.0,14405.0,12549.0,14870.0,12355.0,1.6977561712265015,-0.005130151156598292,-0.007443905796458881,0.06002816332618782,-0.007487362250685692,0.025642890483140945,0.0
217,5,1.0364511581428815e-05,3.1319148547481745e-05,3.543184357113205e-05,0.0006672436138615012,-0.003926859237253666,0.000726139172911644,-0.015271653421223164,0.02014702558517456,0.0023115184158086777,-0.014381397515535355,-0.0274734478443861,-0.09755264967679977,0.0,0.0,0.0,0.010692009702324867,0.0026340193580836058,-0.0,0.0,0.0,0.0,0.0025131525471806526,-0.002300863852724433,0.002986486069858074,12825.0,13934.0,13425.0,13845.0,0.3644736707210541,0.434718519449234,0.4016910493373871,0.42885079979896545,0.0,0.0,0.0,0.0,12058.0,14628.0,12648.0,14524.0,1.7220735549926758,-0.004898373064250426,-0.007721656031764285,0.059867756723934726,-0.01092942338436842,0.034127507358789444,0.0
222,5,1.0364511581428815e-05,3.1319148547481745e-05,3.543184357113205e-05,0.0006672436138615012,-0.003926859237253666,0.000726139172911644,-0.015271653421223164,0.02014702558517456,0.0023115184158086777,-0.014381397515535355,-0.0274734478443861,-0.09755264967679977,0.0,0.0,0.0,0.010692009702324867,0.0026340193580836058,-0.0,0.0,0.0,0.0,0.0025131525471806526,-0.002300863852724433,0.002986486069858074,12825.0,13934.0,13425.0,13845.0,0.3644736707210541,0.434718519449234,0.4016910493373871,0.42885079979896545,0.0,0.0,0.0,0.0,12058.0,14628.0,12648.0,14524.0,1.7220735549926758,-0.004898373064250426,-0.007721656031764285,0.059867756723934726,-0.01092942338436842,0.034127507358789444,0.0
227,5,-1.0087039299833123e-05,2.9007487682974897e-05,9.118377784034237e-05,-0.0019055615412071347,-0.0010838847374543548,-0.005936037749052048,-0.015273653902113438,0.020429406315088272,0.002512868493795395,-0.04022962972521782,-0.03630087524652481,0.0937894731760025,0.0,0.0,0.0,0.0048228478990495205,0.00063718156889081,-0.0,0.0,0.0,0.0,0.0031113256700336933,-0.0017957439413294196,-0.0022617666982114315,12930.0,14353.0,13628.0,14510.0,0.37082362174987793,0.46287083625793457,0.41474395990371704,0.47363513708114624,0.0,0.0,0.0,0.0,14141.0,13021.0,14789.0,13074.0,1.6666394472122192,-0.005506114041569786,-0.0072072216217700675,0.05955566290609906,-0.0025588904973119497,0.014898780733346939,0.0
232,5,-3.0288192647276446e-05,7.85942484071711e-06,0.00018648989498615265,-0.0031863630283623934,0.0021042136941105127,-0.013811150565743446,-0.015273653902113438,0.020429406315088272,0.002512868493795395,-0.04022962972521782,-0.03630087524652481,0.0937894731760025,0.0,0.0,0.0,0.0048228478990495205,0.00063718156889081,-0.0,0.0,0.0,0.0,0.0031113256700336933,-0.0017957439413294196,-0.0022617666982114315,12930.0,14353.0,13628.0,14510.0,0.37082362174987793,0.46287083625793457,0.41474395990371704,0.47363513708114624,0.0,0.0,0.0,0.0,14141.0,13021.0,14789.0,13074.0,1.6666394472122192,-0.008448102649819302,-0.009840622468102439,0.05967729617709727,-0.0025588904973119497,0.014898780733346939,0.0
237,5,2.2326594262267463e-05,-8.043450361583382e-05,0.00021178144379518926,0.005039229057729244,0.01143695693463087,-0.008559444919228554,-0.015273653902113438,0.020429406315088272,0.002512868493795395,-0.04022962972521782,-0.03630087524652481,0.0937894731760025,0.0,0.0,0.0,-0.002542848000302911,-0.0030202437192201614,-0.0,0.0,0.0,0.0,0.0031113256700336933,-0.0017957439413294196,-0.0022617666982114315,12930.0,14353.0,13628.0,14510.0,0.37082362174987793,0.46287083625793457,0.41474395990371704,0.47363513708114624,0.0,0.0,0.0,0.0,14141.0,13021.0,14789.0,13074.0,1.664797306060791,-0.014415082871685648,-0.012095557241580799,0.05805092360491083,0.012115830555558205,-0.007846743799746037,0.0
242,5,1.3240938642411493e-05,-6.918235158082098e-05,0.0003493207914289087,0.0009254129836335778,0.0032245242036879063,-0.019928500056266785,-0.016170863062143326,0.020522095263004303,0.002102011116221547,-0.08326655626296997,0.0014419547514989972,-0.02567671798169613,0.0,0.0,0.0,-0.002542848000302911,-0.0030202437192201614,-0.0,0.0,0.0,0.0,0.00229657138697803,-0.001175649929791689,-0.0004562654357869178,12792.0,14176.0,13272.0,14329.0,0.36243361234664917,0.4509095549583435,0.39203280210494995,0.4612634778022766,0.0,0.0,0.0,0.0,13858.0,13439.0,14532.0,13625.0,1.664797306060791,-0.015970958959677064,-0.013095239840661153,0.05831289017054349,0.012115830555558205,-0.007846743799746037,0.0
247,5,-2.4871607820387e-05,-1.620783041289542e-05,0.00037628301652148366,-0.004203340504318476,-0.005067132413387299,-0.01120686624199152,-0.016170863062143326,0.020522095263004303,0.002102011116221547,-0.08326655626296997,0.0014419547514989972,-0.02567671798169613,0.0,0.0,0.0,-0.004051327705383301,0.0008852553437463939,-0.0,0.0,0.0,0.0,0.00229657138697803,-0.001175649929791689,-0.0004562654357869178,12792.0,14176.0,13272.0,14329.0,0.36243361234664917,0.4509095549583435,0.39203280210494995,0.4612634778022766,0.0,0.0,0.0,0.0,13858.0,13439.0,14532.0,13625.0,1.6608412265777588,-0.010389795263628302,-0.006527084750099062,0.05919352393760839,-0.0035427864640951157,-0.012471879832446575,0.0
252,5,5.474980207509361e-05,2.2149535652715713e-05,0.00032483559334650636,0.007873233407735825,-0.006629737094044685,0.0016909448895603418,-0.017113594338297844,0.018788237124681473,0.002592755015939474,-0.05747976154088974,0.12091763317584991,0.08607307821512222,0.0,0.0,0.0,-0.004051327705383301,0.0008852553437463939,-0.0,0.0,0.0,0.0,0.0018879842245951295,-0.0012516649439930916,0.002619038335978985,14481.0,12485.0,14875.0,12581.0,0.47167372703552246,0.34412825107574463,0.49917805194854736,0.34981727600097656,0.0,0.0,0.0,0.0,12469.0,14445.0,12957.0,14627.0,1.6608412265777588,-0.007261794708255926,-0.005202952380460697,0.05980466059738229,-0.0035427864640951157,-0.012471879832446575,0.0
257,5,5.256642180029303e-05,4.114817420486361e-05,0.00040642230305820704,0.0028872874099761248,-0.004931731149554253,-0.009114027954638004,-0.017113594338297844,0.018788237124681473,0.002592755015939474,-0.05747976154088974,0.12091763317584991,0.08607307821512222,0.0,0.0,0.0,0.007790462579578161,0.007154116872698069,-0.0,0.0,0.0,0.0,0.0018879842245951295,-0.0012516649439930916,0.002619038335978985,14481.0,12485.0,14875.0,12581.0,0.47167372703552246,0.34412825107574463,0.49917805194854736,0.34981727600097656,0.0,0.0,0.0,0.0,12469.0,14445.0,12957.0,14627.0,1.7302074432373047,-0.008396505638372319,-0.00530624184755577,0.060377661511795716,-0.02982560358941555,0.024984002113342285,-0.0
262,5,8.336590690305457e-05,4.704029925051145e-05,0.00041028225678019226,0.004850853234529495,-0.002679747762158513,-0.00410880520939827,-0.017289958894252777,0.017646733671426773,0.002225981093943119,-0.026725487783551216,0.1410326212644577,-0.0016319166170433164,0.0,0.0,0.0,0.007790462579578161,0.007154116872698069,-0.0,0.0,0.0,0.0,0.0014974824152886868,-0.0003476935962680727,-0.0011717277811840177,13256.0,13805.0,13516.0,13954.0,0.39100444316864014,0.42621779441833496,0.40753811597824097,0.4360808730125427,0.0,0.0,0.0,0.0,14077.0,12954.0,14442.0,13067.0,1.7302074432373047,-0.008237556173407967,-0.004652889785300458,0.060623876326974836,-0.02982560358941555,0.024984002113342285,-0.0
267,5,6.925246998434886e-05,2.3191634682007134e-05,0.0005137160769663751,0.0002467289741616696,0.0017899407539516687,-0.014055578969419003,-0.017289958894252777,0.017646733671426773,0.002225981093943119,-0.026725487783551216,0.1410326212644577,-0.0016319166170433164,0.0,0.0,0.0,0.003303992096334696,0.004597926512360573,-0.0,0.0,0.0,0.0,0.0014974824152886868,-0.0003476935962680727,-0.0011717277811840177,13256.0,13805.0,13516.0,13954.0,0.39100444316864014,0.42621779441833496,0.40753811597824097,0.4360808730125427,0.0,0.0,0.0,0.0,14077.0,12954.0,14442.0,13067.0,1.6832703351974487,-0.008725299918307386,-0.00414492930593682,0.060280654362171046,-0.018649358302354813,0.010308606550097466,0.0
272,5,8.925047586672008e-05,1.834254726418294e-05,0.00047992385225370526,0.0024984527844935656,0.001297866809181869,-0.0015671681612730026,-0.016881078481674194,0.01623609848320484,0.0024538070429116488,0.08034989982843399,0.09234090894460678,-0.035870783030986786,0.0,0.0,0.0,0.003303992096334696,0.004597926512360573,-0.0,0.0,0.0,0.0,0.0010166870197281241,-0.0005386549164541066,0.0006630722782574594,13504.0,13645.0,13718.0,13675.0,0.4067171514034271,0.41578927636146545,0.4205532371997833,0.4177815616130829,0.0,0.0,0.0,0.0,13892.0,13160.0,14144.0,13320.0,1.6832703351974487,-0.007488827185218115,-0.0032825865125630394,0.06044491839754275,-0.018649358302354813,0.010308606550097466,0.0
277,5,7.372807885985821e-05,-4.844313662033528e-05,0.0005434773047454655,-0.0008633073302917182,0.00853342842310667,-0.008253280073404312,-0.016881078481674194,0.01623609848320484,0.0024538070429116488,0.08034989982843399,0.09234090894460678,-0.035870783030986786,0.0,0.0,0.0,-0.0015529969241470098,0.002471981570124626,-0.0,0.0,0.0,0.0,0.0010166870197281241,-0.0005386549164541066,0.0006630722782574594,13504.0,13645.0,13718.0,13675.0,0.4067171514034271,0.41578927636146545,0.4205532371997833,0.4177815616130829,0.0,0.0,0.0,0.0,13892.0,13160.0,14144.0,13320.0,1.655405044555664,-0.011113855924517376,-0.00426806868177629,0.059441421787474504,-0.009860534220933914,-0.004765221383422613,0.0
282,5,6.780534749850631e-05,9.968349331757054e-06,0.0006282915128394961,-0.0010560505324974656,-0.0035960066597908735,-0.01347901951521635,-0.01621389389038086,0.015565600246191025,0.00253224465996027,0.1191062182188034,0.07089141011238098,0.048814043402671814,0.0,0.0,0.0,-0.0015529969241470098,0.002471981570124626,-0.0,0.0,0.0,0.0,0.001745728775858879,-0.0001100421286537312,0.0014194012619554996,14398.0,13149.0,14626.0,13370.0,0.46595337986946106,0.3843633234500885,0.4816960394382477,0.39819470047950745,0.0,0.0,0.0,0.0,13438.0,14089.0,13728.0,14331.0,1.655405044555664,-0.006021986141483171,-0.0028290826345771804,0.06024251313497232,-0.009860534220933914,-0.004765221383422613,0.0
287,5,6.827779725426808e-05,-1.4381110304384492e-05,0.0006466905470006168,-0.00036572563112713397,0.0014835323672741652,-0.007599490229040384,-0.01621389389038086,0.015565600246191025,0.00253224465996027,0.1191062182188034,0.07089141011238098,0.048814043402671814,0.0,0.0,0.0,0.004391121212393045,-0.000894682016223669,-0.0,0.0,0.0,0.0,0.001745728775858879,-0.0001100421286537312,0.0014194012619554996,14398.0,13149.0,14626.0,13370.0,0.46595337986946106,0.3843633234500885,0.4816960394382477,0.39819470047950745,0.0,0.0,0.0,0.0,13438.0,14089.0,13728.0,14331.0,1.6636512279510498,-0.0054841279931282984,-0.002769964864467043,0.06034427535002438,0.0035865644458681345,0.01354078110307455,0.0
292,5,6.26502514933236e-05,-2.6110532417078502e-05,0.0006864714669063687,-0.000821596069727093,0.002000943524762988,-0.007813503034412861,-0.014821527525782585,0.014950646087527275,0.0024697110056877136,0.12723545730113983,0.03556840866804123,-0.022685637697577477,0.0,0.0,0.0,0.004391121212393045,-0.000894682016223669,-0.0,0.0,0.0,0.0,0.0011036070063710213,-0.0008847218123264611,-0.0006176370079629123,13427.0,13865.0,13692.0,13899.0,0.40184181928634644,0.43014955520629883,0.4188917279243469,0.43238723278045654,0.0,0.0,0.0,0.0,14202.0,13356.0,14469.0,13545.0,1.6636512279510498,-0.005517162966290039,-0.003009316995941627,0.06039247731956787,0.0035865644458681345,0.01354078110307455,0.0
298,5,6.453871174016967e-05,-0.00010257975372951478,0.0006185137899592519,-0.00010202326666330919,0.009976684115827084,0.005029520019888878,-0.014821527525782585,0.014950646087527275,0.0024697110056877136,0.12723545730113983,0.03556840866804123,-0.022685637697577477,0.0,0.0,0.0,-0.0025035152211785316,-0.0006889559444971383,-0.0,0.0,0.0,0.0,0.0011036070063710213,-0.0008847218123264611,-0.0006176370079629123,13427.0,13865.0,13692.0,13899.0,0.40184181928634644,0.43014955520629883,0.4188917279243469,0.43238723278045654,0.0,0.0,0.0,0.0,14202.0,13356.0,14469.0,13545.0,1.6477593183517456,-0.009900691677582325,-0.005415616328464324,0.05903306796748901,0.0027354939375072718,-0.007646307349205017,0.0
303,5,1.7404245227226056e-05,1.0987048881361261e-05,0.0006677690544165671,-0.005696945358067751,-0.009637342765927315,-0.0038988240994513035,-0.013644957914948463,0.014837770722806454,0.0026238912250846624,0.17563402652740479,0.028354864567518234,0.01979822665452957,0.0,0.0,0.0,-0.0025035152211785316,-0.0006889559444971383,-0.0,0.0,0.0,0.0,0.0002757189504336566,-0.0012790202163159847,0.0007374588749371469,13822.0,13375.0,14009.0,13237.0,0.42733070254325867,0.3985377848148346,0.4396953284740448,0.389841228723526,0.0,0.0,0.0,0.0,13469.0,13835.0,13731.0,13850.0,1.6477593183517456,-0.003515817683917658,-0.002709904427331203,0.06012737068155549,0.0027354939375072718,-0.007646307349205017,0.0
308,5,4.4274915126152337e-05,2.4296409151247644e-07,0.0005538998520933092,0.0009457021369598806,-0.0025656470097601414,0.01210477203130722,-0.013644957914948463,0.014837770722806454,0.0026238912250846624,0.17563402652740479,0.028354864567518234,0.01979822665452957,0.0,0.0,0.0,0.011235358193516731,-0.005077321082353592,-0.0,0.0,0.0,0.0,0.0002757189504336566,-0.0012790202163159847,0.0007374588749371469,13822.0,13375.0,14009.0,13237.0,0.42733070254325867,0.3985377848148346,0.4396953284740448,0.389841228723526,0.0,0.0,0.0,0.0,13469.0,13835.0,13731.0,13850.0,1.7383843660354614,-0.0032843693400979013,-0.003359198606915893,0.06083738721780289,0.021266845986247063,0.036201342940330505,0.0
313,5,3.0875555239617825e-05,1.681607864156831e-05,0.0005324693047441542,-0.001229642191901803,-0.0030150325037539005,0.007413575891405344,-0.011745859868824482,0.014995243400335312,0.0024931218940764666,0.14075888693332672,-0.047410741448402405,0.005831505171954632,0.0,0.0,0.0,0.011235358193516731,-0.005077321082353592,-0.0,0.0,0.0,0.0,0.0008323477231897414,-0.00208320003002882,-0.0004265361640136689,13413.0,13768.0,13821.0,13580.0,0.40094777941703796,0.4238281548023224,0.4272550046443939,0.41162028908729553,0.0,0.0,0.0,0.0,13675.0,13523.0,13960.0,13422.0,1.7383843660354614,-0.001925377686217539,-0.0034622898961668403,0.060651645533544525,0.021266845986247063,0.036201342940330505,0.0
318,5,5.250196863926249e-06,-2.8610243134608027e-06,0.0005643194890581071,-0.0035668998025357723,0.0011552394134923816,-0.0008565944735892117,-0.011745859868824482,0.014995243400335312,0.0024931218940764666,0.14075888693332672,-0.047410741448402405,0.005831505171954632,0.0,0.0,0.0,0.011235358193516731,-0.005077321082353592,-0.0,0.0,0.0,0.0,0.0008323477231897414,-0.00208320003002882,-0.0004265361640136689,13413.0,13768.0,13821.0,13580.0,0.40094777941703796,0.4238281548023224,0.4272550046443939,0.41162028908729553,0.0,0.0,0.0,0.0,13675.0,13523.0,13960.0,13422.0,1.7383843660354614,-0.003913344756694905,-0.005111296591022418,0.06019053011041601,0.021266845986247063,0.036201342940330505,0.0
323,5,-1.6555937691009603e-05,-5.250125104794279e-05,0.0006459820433519781,-0.004043496213853359,0.006418922916054726,-0.010142144747078419,-0.010480216704308987,0.015468497760593891,0.0024590580724179745,0.1362939327955246,-0.048664264380931854,-0.024234509095549583,0.0,0.0,0.0,-0.0014096207451075315,-0.0033290465362370014,-0.0,0.0,0.0,0.0,-0.00010756959818536416,-0.0022410727106034756,-0.00014593941159546375,13270.0,13902.0,13583.0,13578.0,0.39187923073768616,0.43258169293403625,0.4118008315563202,0.411497563123703,0.0,0.0,0.0,0.0,13338.0,13813.0,13665.0,13520.0,1.6637217998504639,-0.009407078034658812,-0.009495532009207113,0.05868074769234834,0.01334600429981947,-0.00434701656922698,0.0
328,5,-2.6609171982272528e-05,5.287129170028493e-05,0.0005295122973620892,-0.0028237865772098303,-0.010077135637402534,0.009919514879584312,-0.010480216704308987,0.015468497760593891,0.0024590580724179745,0.1362939327955246,-0.048664264380931854,-0.024234509095549583,0.0,0.0,0.0,-0.0014096207451075315,-0.0033290465362370014,-0.0,0.0,0.0,0.0,-0.00010756959818536416,-0.0022410727106034756,-0.00014593941159546375,13270.0,13902.0,13583.0,13578.0,0.39187923073768616,0.43258169293403625,0.4118008315563202,0.411497563123703,0.0,0.0,0.0,0.0,13338.0,13813.0,13665.0,13520.0,1.6637217998504639,-0.0016288555177383327,-0.004540702154623138,0.060334392784536714,0.01334600429981947,-0.00434701656922698,0.0
333,5,-2.2322445147437975e-05,7.36037254682742e-05,0.0005337916081771255,-0.0006151074194349349,-0.006518746260553598,0.0034542870707809925,-0.009424042887985706,0.01610516384243965,0.0023658168502151966,0.04869595915079117,-0.060573872178792953,0.00068265525624156,0.0,0.0,0.0,0.011862510815262794,-0.0025723150465637445,-0.0,0.0,0.0,0.0,0.001799429184757173,-0.002872980898246169,0.00026923822588287294,13676.0,13945.0,14313.0,13786.0,0.4178504943847656,0.4354391098022461,0.4601244330406189,0.4249703288078308,0.0,0.0,0.0,0.0,13338.0,13813.0,13665.0,13520.0,1.7319798469543457,-0.001088029849783428,-0.00407093586978546,0.06044089106166738,0.010734649375081062,0.038081102073192596,-0.0
338,5,-3.298799492768012e-05,9.58749296842143e-05,0.0005767196416854858,-0.0015259087085723877,-0.005280043464154005,-0.0037696510553359985,-0.009424042887985706,0.01610516384243965,0.0023658168502151966,0.04869595915079117,-0.060573872178792953,0.00068265525624156,0.0,0.0,0.0,0.011862510815262794,-0.0025723150465637445,-0.0,0.0,0.0,0.0,0.001799429184757173,-0.002872980898246169,0.00026923822588287294,13676.0,13945.0,14313.0,13786.0,0.4178504943847656,0.4354391098022461,0.4601244330406189,0.4249703288078308,0.0,0.0,0.0,0.0,13338.0,13813.0,13665.0,13520.0,1.7319798469543457,-0.0013204131837134879,-0.004598159298064583,0.060769118470899726,0.010734649375081062,0.038081102073192596,-0.0
343,5,-4.6391804062295705e-05,0.00012571843399200588,0.0006555219879373908,-0.0022188208531588316,-0.005693237762898207,-0.01096414215862751,-0.009367684833705425,0.01640676148235798,0.002257789485156536,-0.0248221755027771,-0.026091422885656357,-0.018921973183751106,0.0,0.0,0.0,0.006517042405903339,-0.0014556481037288904,-0.0,0.0,0.0,0.0,0.0010550518054515123,-0.0023784982040524483,-0.00010294883395545185,13299.0,13844.0,13785.0,13652.0,0.39376211166381836,0.428819477558136,0.4248942732810974,0.4162459373474121,0.0,0.0,0.0,0.0,13800.0,13819.0,14405.0,13693.0,1.682904839515686,-0.0022746340550681234,-0.005394815410533586,0.06087543733603257,0.005902805831283331,0.020328862592577934,0.0
348,5,-9.437903645448387e-05,9.93514186120592e-05,0.000705234007909894,-0.006645996123552322,0.0008867469732649624,-0.010351095348596573,-0.009367684833705425,0.01640676148235798,0.002257789485156536,-0.0248221755027771,-0.026091422885656357,-0.018921973183751106,0.0,0.0,0.0,0.006517042405903339,-0.0014556481037288904,-0.0,0.0,0.0,0.0,0.0010550518054515123,-0.0023784982040524483,-0.00010294883395545185,13299.0,13844.0,13785.0,13652.0,0.39376211166381836,0.428819477558136,0.4248942732810974,0.4162459373474121,0.0,0.0,0.0,0.0,13800.0,13819.0,14405.0,13693.0,1.682904839515686,-0.005751672285390735,-0.00543083250023305,0.059552822100133455,0.005902805831283331,0.020328862592577934,0.0
353,5,-0.0001295969559578225,0.00012148552923463285,0.0009145127842202783,-0.0068845488131046295,-0.0023013947065919638,-0.029253892600536346,-0.009367684833705425,0.01640676148235798,0.002257789485156536,-0.0248221755027771,-0.026091422885656357,-0.018921973183751106,0.0,0.0,0.0,-0.0008840690134093165,-0.006229958962649107,-0.0,0.0,0.0,0.0,0.0010550518054515123,-0.0023784982040524483,-0.00010294883395545185,13299.0,13844.0,13785.0,13652.0,0.39376211166381836,0.428819477558136,0.4248942732810974,0.4162459373474121,0.0,0.0,0.0,0.0,13800.0,13819.0,14405.0,13693.0,1.6947360038757324,-0.008561619369005733,-0.009551898469136368,0.05923100457366746,0.025441115722060204,-0.0027771329041570425,0.0
358,5,-0.00011074777285102755,0.00023338236496783793,0.0007477655890397727,-0.0004919172497466207,-0.01434817723929882,0.0083081079646945,-0.009567494504153728,0.016343289986252785,0.0022885932121425867,-0.034643713384866714,0.0005839050863869488,-0.01385832391679287,0.0,0.0,0.0,-0.0008840690134093165,-0.006229958962649107,-0.0,0.0,0.0,0.0,0.002410891465842724,-0.00194468442350626,0.0006367969326674938,13700.0,13792.0,14296.0,13835.0,0.4193989932537079,0.42541149258613586,0.45897582173347473,0.4281935393810272,0.0,0.0,0.0,0.0,13541.0,13952.0,14123.0,14009.0,1.6947360038757324,-0.0015002859110696686,-0.005009301738663991,0.0612225558772435,0.025441115722060204,-0.0027771329041570425,0.0
363,5,-0.00010737626143964007,0.000264119851635769,0.0007160678505897522,0.00020781443163286895,-0.009427770040929317,0.00712696835398674,-0.009567494504153728,0.016343289986252785,0.0022885932121425867,-0.034643713384866714,0.0005839050863869488,-0.01385832391679287,0.0,0.0,0.0,0.0167640820145607,-0.0005743822548538446,-0.0,0.0,0.0,0.0,0.002410891465842724,-0.00194468442350626,0.0006367969326674938,13700.0,13792.0,14296.0,13835.0,0.4193989932537079,0.42541149258613586,0.45897582173347473,0.4281935393810272,0.0,0.0,0.0,0.0,13541.0,13952.0,14123.0,14009.0,1.7731103897094727,-0.0009748720939281866,-0.004824776523291378,0.06083797600331304,0.002453734865412116,0.055091820657253265,-0.0
368,5,-0.00012489889923017472,0.0003134582657366991,0.0007050392450764775,-0.002019590698182583,-0.009691717103123665,0.004174225032329559,-0.009774249978363514,0.01623455435037613,0.002202002564445138,-0.029153820127248764,-0.0015936668496578932,-0.013817154802381992,0.0,0.0,0.0,0.0167640820145607,-0.0005743822548538446,-0.0,0.0,0.0,0.0,0.0007498420891351998,-0.0023656212724745274,1.9525094103300944e-05,13461.0,13719.0,13979.0,13718.0,0.40402910113334656,0.4206337034702301,0.4376896321773529,0.42055240273475647,0.0,0.0,0.0,0.0,13437.0,13755.0,13940.0,13746.0,1.7731103897094727,-9.0683794050962e-05,-0.004838241786343946,0.061001754762959645,0.002453734865412116,0.055091820657253265,-0.0
374,5,-0.0001460023777326569,0.0003387853503227234,0.0007060488569550216,-0.0033402545377612114,-0.006915935315191746,0.0015485344920307398,-0.009774249978363514,0.01623455435037613,0.002202002564445138,-0.029153820127248764,-0.0015936668496578932,-0.013817154802381992,0.0,0.0,0.0,0.011870592832565308,-0.0019813496619462967,-0.0,0.0,0.0,0.0,0.0007498420891351998,-0.0023656212724745274,1.9525094103300944e-05,13461.0,13719.0,13979.0,13718.0,0.40402910113334656,0.4206337034702301,0.4376896321773529,0.42055240273475647,0.0,0.0,0.0,0.0,13437.0,13755.0,13940.0,13746.0,1.7303693294525146,0.0005920595829288268,-0.0047043695049427525,0.060860155411027746,0.008260778151452541,0.038071610033512115,-0.0
379,5,-0.00017729187675286084,0.0003629386774264276,0.0007214601500891149,-0.005090841092169285,-0.005664776545017958,-0.0012299406807869673,-0.009601759724318981,0.0162771288305521,0.0020552976056933403,0.01939094252884388,-0.019456790760159492,-0.009985126554965973,0.0,0.0,0.0,0.011870592832565308,-0.0019813496619462967,-0.0,0.0,0.0,0.0,0.0021504638716578484,-0.0020917877554893494,-0.00031617365311831236,13563.0,13860.0,14016.0,13620.0,0.4105415642261505,0.42981430888175964,0.4401942789554596,0.41418585181236267,0.0,0.0,0.0,0.0,13494.0,13924.0,13956.0,13684.0,1.7303693294525146,2.6092430259510495e-05,-0.006063463795255425,0.06071245568805414,0.008260778151452541,0.038071610033512115,-0.0
384,5,-0.00023300215252675116,0.0003437088744249195,0.0007341759628616273,-0.008721569553017616,4.166594226262532e-05,-0.00201787450350821,-0.009601759724318981,0.0162771288305521,0.0020552976056933403,0.01939094252884388,-0.019456790760159492,-0.009985126554965973,0.0,0.0,0.0,0.007340356707572937,-0.004874683450907469,-0.0,0.0,0.0,0.0,0.0021504638716578484,-0.0020917877554893494,-0.00031617365311831236,13563.0,13860.0,14016.0,13620.0,0.4105415642261505,0.42981430888175964,0.4401942789554596,0.41418585181236267,0.0,0.0,0.0,0.0,13494.0,13924.0,13956.0,13684.0,1.7084100246429443,-0.001716239147805358,-0.0057889368670147,0.05958906662860607,0.020066749304533005,0.023243993520736694,0.0
389,5,-0.00024586013751104474,0.0003392200160305947,0.0008064571884460747,-0.0050315847620368,0.0005553305963985622,-0.009480901062488556,-0.00901926402002573,0.016397269442677498,0.0019585315603762865,0.07483188062906265,-0.035434138029813766,-0.023616371676325798,0.0,0.0,0.0,0.007340356707572937,-0.004874683450907469,-0.0,0.0,0.0,0.0,0.0015017917612567544,-0.002338437596336007,-4.758477007271722e-05,13667.0,13943.0,14180.0,13811.0,0.4172289967536926,0.43533509969711304,0.45117372274398804,0.42663151025772095,0.0,0.0,0.0,0.0,13609.0,14231.0,14181.0,14220.0,1.7084100246429443,-0.006086848167707866,-0.010726368031364607,0.05932901407543794,0.020066749304533005,0.023243993520736694,0.0
394,5,-0.0003612476575654,0.0004236744134686887,0.0009096793946810067,-0.01585913822054863,-0.009912393987178802,-0.016179021447896957,-0.00901926402002573,0.016397269442677498,0.0019585315603762865,0.07483188062906265,-0.035434138029813766,-0.023616371676325798,0.0,0.0,0.0,-6.763921555830166e-05,-0.004994407761842012,-0.0,0.0,0.0,0.0,0.0015017917612567544,-0.002338437596336007,-4.758477007271722e-05,13667.0,13943.0,14180.0,13811.0,0.4172289967536926,0.43533509969711304,0.45117372274398804,0.42663151025772095,0.0,0.0,0.0,0.0,13609.0,14231.0,14181.0,14220.0,1.6803557872772217,0.00026011894647000355,-0.007144901979426474,0.060663068564892786,0.02022252418100834,-0.00021067276247777045,0.0
399,5,-0.00030279014026746154,0.00047178275417536497,0.000746816978789866,0.0006712484755553305,-0.009737960994243622,0.013071880675852299,-0.007117441389709711,0.017089035362005234,0.001647561090067029,0.07518848031759262,-0.05205506086349487,-0.012747674249112606,0.0,0.0,0.0,-6.763921555830166e-05,-0.004994407761842012,-0.0,0.0,0.0,0.0,0.0009172330028377473,-0.002650081180036068,-0.00037657248321920633,13467.0,14034.0,13976.0,13789.0,0.40437841415405273,0.441367506980896,0.43750154972076416,0.42516255378723145,0.0,0.0,0.0,0.0,13608.0,14009.0,14127.0,13858.0,1.6803557872772217,0.0027748257440359907,-0.006325876678395832,0.061010213485457224,0.02022252418100834,-0.00021067276247777045,0.0
404,5,-0.0003326325095258653,0.0004823958151973784,0.0007569286972284317,-0.0033125870395451784,-0.005168748553842306,0.004015347920358181,-0.007117441389709711,0.017089035362005234,0.001647561090067029,0.07518848031759262,-0.05205506086349487,-0.012747674249112606,0.0,0.0,0.0,0.012194255366921425,0.0002035618672380224,-0.0,0.0,0.0,0.0,0.0009172330028377473,-0.002650081180036068,-0.00037657248321920633,13467.0,14034.0,13976.0,13789.0,0.40437841415405273,0.441367506980896,0.43750154972076416,0.42516255378723145,0.0,0.0,0.0,0.0,13608.0,14009.0,14127.0,13858.0,1.7308269739151,0.0038862609900271526,-0.006199804618825196,0.060936691754485496,-0.0008489257306791842,0.039119917899370193,-0.0
409,5,-0.00036347261629998684,0.0004960013320669532,0.0007606326835229993,-0.005025846417993307,-0.003700160188600421,0.0011616614647209644,-0.006348542869091034,0.017613837495446205,0.0015135041903704405,0.06964826583862305,-0.04496769979596138,-0.014647170901298523,0.0,0.0,0.0,0.012194255366921425,0.0002035618672380224,-0.0,0.0,0.0,0.0,0.0010135781485587358,-0.002715648617595434,-0.0002607596979942173,13400.0,13977.0,13825.0,13634.0,0.4001272916793823,0.43755650520324707,0.4275425672531128,0.4151294231414795,0.0,0.0,0.0,0.0,13488.0,13993.0,14042.0,13743.0,1.7308269739151,0.0029519543893524957,-0.006947988132988406,0.06087937963185062,-0.0008489257306791842,0.039119917899370193,-0.0
414,5,-0.00037178071215748787,0.0005033098277635872,0.0007848687237128615,-0.0030073088128119707,-0.0023570845369249582,-0.002443662378937006,-0.006348542869091034,0.017613837495446205,0.0015135041903704405,0.06964826583862305,-0.04496769979596138,-0.014647170901298523,0.0,0.0,0.0,0.005279721226543188,-0.00509719830006361,-0.0,0.0,0.0,0.0,0.0010135781485587358,-0.002715648617595434,-0.0002607596979942173,13400.0,13977.0,13825.0,13634.0,0.4001272916793823,0.43755650520324707,0.4275425672531128,0.4151294231414795,0.0,0.0,0.0,0.0,13488.0,13993.0,14042.0,13743.0,1.6975979804992676,0.0037771613943636886,-0.007087956100718591,0.06080803180348839,0.020850205793976784,0.016613101586699486,-0.0
419,5,-0.0004080960061401129,0.0004934147582389414,0.0008221878088079393,-0.005560759920626879,0.0002445750869810581,-0.005455753766000271,-0.005874346476048231,0.01787233166396618,0.0013457313179969788,0.08442377299070358,-0.04616672918200493,-0.015048360452055931,0.0,0.0,0.0,0.005279721226543188,-0.00509719830006361,-0.0,0.0,0.0,0.0,0.001491462578997016,-0.002324117813259363,-0.00045864461571909487,13496.0,14116.0,14003.0,13990.0,0.40625375509262085,0.44683605432510376,0.43931156396865845,0.43842560052871704,0.0,0.0,0.0,0.0,13404.0,13969.0,13852.0,13611.0,1.6975979804992676,0.0025292408901020575,-0.008595401529232983,0.060877315268485735,0.020850205793976784,0.016613101586699486,-0.0
425,5,-0.00043091955012641847,0.0004239552072249353,0.0007843996281735599,-0.004963128827512264,0.00843297503888607,0.002352275885641575,-0.005874346476048231,0.01787233166396618,0.0013457313179969788,0.08442377299070358,-0.04616672918200493,-0.015048360452055931,0.0,0.0,0.0,0.0005777135957032442,-0.00567908538505435,-0.0,0.0,0.0,0.0,0.001491462578997016,-0.002324117813259363,-0.00045864461571909487,13496.0,14116.0,14003.0,13990.0,0.40625375509262085,0.44683605432510376,0.43931156396865845,0.43842560052871704,0.0,0.0,0.0,0.0,13404.0,13969.0,13852.0,13611.0,1.6882636547088623,0.00039376422088156803,-0.008980553718158963,0.05972179912113315,0.02310298942029476,0.001807845663279295,0.0
430,5,-0.0005133794038556516,0.0003997186722699553,0.0009636216564103961,-0.01188043225556612,0.006281572859734297,-0.020565727725625038,-0.005874346476048231,0.01787233166396618,0.0013457313179969788,0.08442377299070358,-0.04616672918200493,-0.015048360452055931,0.0,0.0,0.0,0.0005777135957032442,-0.00567908538505435,-0.0,0.0,0.0,0.0,0.001491462578997016,-0.002324117813259363,-0.00045864461571909487,13496.0,14116.0,14003.0,13990.0,0.40625375509262085,0.44683605432510376,0.43931156396865845,0.43842560052871704,0.0,0.0,0.0,0.0,13404.0,13969.0,13852.0,13611.0,1.6882636547088623,-0.0012707450304490359,-0.012371486111202154,0.0597393526238823,0.02310298942029476,0.001807845663279295,0.0
435,5,-0.0005222742911428213,0.00043068124796263874,0.0008411400485783815,-0.005819563753902912,-0.0012028805213049054,0.006471502128988504,-0.005341214593499899,0.01864597760140896,0.0013038875767961144,0.04965642839670181,-0.05997263267636299,-0.0057762386277318,0.0,0.0,0.0,-0.0065256510861217976,-0.011143446899950504,-0.0,0.0,0.0,0.0,0.0017266504000872374,-0.002595268189907074,4.1785624489421025e-06,13607.0,13981.0,14168.0,13852.0,0.41333210468292236,0.4378107786178589,0.45033931732177734,0.4293447732925415,0.0,0.0,0.0,0.0,13611.0,14012.0,14135.0,13850.0,1.7646794319152832,0.003935888888210818,-0.008489536765359358,0.06045693811978036,0.04738261550664902,-0.021344825625419617,0.0
440,5,-0.0005418916698545218,0.00037856760900467634,0.0008238382288254797,-0.004681908059865236,0.005772485863417387,0.004664814565330744,-0.005341214593499899,0.01864597760140896,0.0013038875767961144,0.04965642839670181,-0.05997263267636299,-0.0057762386277318,0.0,0.0,0.0,-0.0065256510861217976,-0.011143446899950504,-0.0,0.0,0.0,0.0,0.0017266504000872374,-0.002595268189907074,4.1785624489421025e-06,13607.0,13981.0,14168.0,13852.0,0.41333210468292236,0.4378107786178589,0.45033931732177734,0.4293447732925415,0.0,0.0,0.0,0.0,13611.0,14012.0,14135.0,13850.0,1.7646794319152832,0.0042425718554000725,-0.008919726340941916,0.060301614254640944,0.04738261550664902,-0.021344825625419617,0.0
445,5,-0.0005720464396290481,0.0003378171822987497,0.0008416087366640568,-0.005491340067237616,0.0071990457363426685,-0.00026653235545381904,-0.005385929718613625,0.019229235127568245,0.0012172121787443757,-0.007835319265723228,-0.05110648646950722,-0.008612995967268944,0.0,0.0,0.0,-0.0065256510861217976,-0.011143446899950504,-0.0,0.0,0.0,0.0,0.0011990019120275974,-0.003193370532244444,-0.00010226845915894955,13432.0,13956.0,14023.0,13689.0,0.40215587615966797,0.43615466356277466,0.44062697887420654,0.4186604619026184,0.0,0.0,0.0,0.0,13508.0,13930.0,14072.0,13589.0,1.7646794319152832,0.0033922943772775847,-0.009420745650176983,0.06049598734131621,0.04738261550664902,-0.021344825625419617,0.0
450,5,-0.0005907164886593819,0.00030294337193481624,0.0008463123231194913,-0.004436936229467392,0.00706447521224618,-0.0006710425950586796,-0.005385929718613625,0.019229235127568245,0.0012172121787443757,-0.007835319265723228,-0.05110648646950722,-0.008612995967268944,0.0,0.0,0.0,-0.007886772975325584,-0.0057344879023730755,-0.0,0.0,0.0,0.0,0.0011990019120275974,-0.003193370532244444,-0.00010226845915894955,13432.0,13956.0,14023.0,13689.0,0.40215587615966797,0.43615466356277466,0.44062697887420654,0.4186604619026184,0.0,0.0,0.0,0.0,13508.0,13930.0,14072.0,13589.0,1.7186992168426514,0.0032397439051846644,-0.009218998902681762,0.060611913223943555,0.023748191073536873,-0.025124624371528625,0.0
455,5,-0.0006546021904796362,0.0002376697666477412,0.0009292099275626242,-0.009441063739359379,0.010658621788024902,-0.010216127149760723,-0.005615497473627329,0.019642984494566917,0.001208581030368805,-0.01786080189049244,-0.012631166726350784,0.0016981797525659204,0.0,0.0,0.0,-0.007886772975325584,-0.0057344879023730755,-0.0,0.0,0.0,0.0,0.0007950998842716217,-0.0029037860222160816,0.0001790560781955719,13558.0,13814.0,14057.0,13529.0,0.41020315885543823,0.4268355965614319,0.44290274381637573,0.40832215547561646,0.0,0.0,0.0,0.0,13867.0,14169.0,14353.0,13726.0,1.7186992168426514,0.0007631664536610575,-0.009538646495326106,0.059460351992741724,0.023748191073536873,-0.025124624371528625,0.0
460,5,-0.0006324282730929554,0.00016155409684870392,0.0010235747322440147,-0.0011155527317896485,0.013397329486906528,-0.01541023701429367,-0.005615497473627329,0.019642984494566917,0.001208581030368805,-0.01786080189049244,-0.012631166726350784,0.0016981797525659204,0.0,0.0,0.0,-0.011764159426093102,-0.009135893546044827,-0.0,0.0,0.0,0.0,0.0007950998842716217,-0.0029037860222160816,0.0001790560781955719,13558.0,13814.0,14057.0,13529.0,0.41020315885543823,0.4268355965614319,0.44290274381637573,0.40832215547561646,0.0,0.0,0.0,0.0,13867.0,14169.0,14353.0,13726.0,1.7724578380584717,-0.0053921003707281525,-0.014608171753497242,0.05863752610058822,0.0390160009264946,-0.03864801302552223,0.0
465,5,-0.000623342115432024,0.00021952713723294437,0.0008823844837024808,0.0006441158475354314,-0.0015978330047801137,0.010778740979731083,-0.00581707339733839,0.019594429060816765,0.0012377691455185413,-0.03338581696152687,0.03238550201058388,0.002607776550576091,0.0,0.0,0.0,-0.011764159426093102,-0.009135893546044827,-0.0,0.0,0.0,0.0,0.00015250823344103992,-0.0030843850690871477,0.0002281707857036963,13897.0,14137.0,14327.0,13757.0,0.43228161334991455,0.44823265075683594,0.4610801339149475,0.4230850338935852,0.0,0.0,0.0,0.0,13867.0,14169.0,14353.0,13726.0,1.7724578380584717,0.0032311594910424844,-0.008370256523425434,0.060417682624984204,0.0390160009264946,-0.03864801302552223,0.0
470,5,-0.0006202023359946907,0.00021193610155023634,0.0008485887083224952,0.0006344220601022243,0.00027179057360626757,0.008366992697119713,-0.00581707339733839,0.019594429060816765,0.0012377691455185413,-0.03338581696152687,0.03238550201058388,0.002607776550576091,0.0,0.0,0.0,0.002365428488701582,-0.0002589695213828236,-0.0,0.0,0.0,0.0,0.00015250823344103992,-0.0030843850690871477,0.0002281707857036963,13897.0,14137.0,14327.0,13757.0,0.43228161334991455,0.44823265075683594,0.4610801339149475,0.4230850338935852,0.0,0.0,0.0,0.0,13867.0,14169.0,14353.0,13726.0,1.6455048322677612,0.0030595340759729792,-0.008125419993500181,0.060277656648900835,0.0010268298210576177,0.007214675657451153,-0.0
475,5,-0.0006190111744217575,0.00019104602688457817,0.0008353344164788723,0.000396707997424528,0.0026155246887356043,0.004937308374792337,-0.006186865270137787,0.019078409299254417,0.0014388946583494544,-0.05712919682264328,0.06754450500011444,0.02337702549993992,0.0,0.0,0.0,0.002365428488701582,-0.0002589695213828236,-0.0,0.0,0.0,0.0,0.00011395415640436113,-0.0022133653983473778,0.0007720713620074093,14002.0,13683.0,14311.0,13417.0,0.43922922015190125,0.4182696044445038,0.4600255787372589,0.4011748135089874,0.0,0.0,0.0,0.0,14135.0,13987.0,14448.0,13659.0,1.6455048322677612,0.0022969145232965304,-0.007869481038014117,0.06033020171190353,0.0010268298210576177,0.007214675657451153,-0.0
