timestamp,dt,pos_x,pos_y,pos_z,vel_x,vel_y,vel_z,roll,pitch,yaw,agv_x,agv_y,agv_z,x_ref,y_ref,z_ref,roll_ref,pitch_ref,yaw_ref,x_vel_ref,y_vel_ref,z_vel_ref,x_torque,y_torque,z_torque,w0,w1,w2,w3,u0,u1,u2,u3,m0req,m1req,m2req,m3req,thrust0,thrust1,thrust2,thrust3,thrust_ref,roll_vicon,pitch_vicon,yaw_vicon,acc_x,acc_y,acc_z,roll_received,pitch_received,yaw_received
5,5,0.0,0.0,0.0,1.2874230606030324e-06,0.0002659299352671951,-0.0012594274012371898,0.02801804058253765,-0.0941493809223175,0.003942351788282394,0.0,0.0,0.0,0.0,0.0,0.0,-0.0002541379362810403,1.230335556101636e-06,-0.0,0.0,0.0,0.0,-0.005703106988221407,0.028282489627599716,0.0003558031457941979,1495.0,1495.0,1495.0,1495.0,0.0,0.0,0.0,0.0,0.0,0.0,0.0,0.0,0.0,0.0,0.0,0.0,1.6284600496292114,-0.016835430901542298,-0.06261467871209798,-0.0834838176784513,-4.8278366193699185e-06,-0.0009972372790798545,0.0,-0.0002541379362810403,1.230335556101636e-06,0.0
33,28,0.0,0.0,0.0,1.2874230606030324e-06,0.0002659299352671951,-0.0012594274012371898,0.02801804058253765,-0.0941493809223175,0.003942351788282394,0.0,0.0,0.0,0.0,0.0,0.0,-0.0002541379362810403,1.230335556101636e-06,-0.0,0.0,0.0,0.0,-0.005703106988221407,0.028282489627599716,0.0003558031457941979,1495.0,1495.0,1495.0,1495.0,0.0,0.0,0.0,0.0,0.0,0.0,0.0,0.0,0.0,0.0,0.0,0.0,1.6284600496292114,-0.014502845255143214,-0.06262687596230332,-0.08389697166425324,-4.8278366193699185e-06,-0.0009972372790798545,0.0,-0.0002541379362810403,1.230335556101636e-06,0.0
38,5,0.0,0.0,0.0,-0.00015063716273289174,-0.002340895589441061,-0.004610358737409115,0.028027502819895744,-0.09416124224662781,0.003960630856454372,0.0,0.0,0.0,0.0,0.0,0.0,-0.0002541379362810403,1.230335556101636e-06,-0.0,0.0,0.0,0.0,-0.005658302456140518,0.028284896165132523,0.0004481601936277002,1495.0,1495.0,1495.0,1495.0,0.0,0.0,0.0,0.0,0.0,0.0,0.0,0.0,0.0,0.0,0.0,0.0,1.6284600496292114,-0.015748914250799904,-0.06241942745864349,-0.08372460477782313,-4.8278366193699185e-06,-0.0009972372790798545,0.0,-0.0002541379362810403,1.230335556101636e-06,0.0
43,5,0.0,0.0,0.0,-0.00015063716273289174,-0.002340895589441061,-0.004610358737409115,0.028027502819895744,-0.09416124224662781,0.003960630856454372,0.0,0.0,0.0,0.0,0.0,0.0,-0.0002541379362810403,1.230335556101636e-06,-0.0,0.0,0.0,0.0,-0.005658302456140518,0.028284896165132523,0.0004481601936277002,1495.0,1495.0,1495.0,1495.0,0.0,0.0,0.0,0.0,0.0,0.0,0.0,0.0,0.0,0.0,0.0,0.0,1.6284600496292114,-0.015748914250799904,-0.06241942745864349,-0.08372460477782313,-4.8278366193699185e-06,-0.0009972372790798545,0.0,-0.0002541379362810403,1.230335556101636e-06,0.0
49,5,1.4046883734408766e-05,2.558195092206006e-06,-1.0633503734425176e-05,0.001625371165573597,-0.001243341714143753,-0.0005681230104528368,0.028032725676894188,-0.0941890999674797,0.003928132820874453,0.0,0.0,0.0,0.0,0.0,0.0,0.0028709841426461935,-0.00014211444067768753,-0.0,0.0,0.0,0.0,-0.005651529412716627,0.028269769623875618,0.00028643105179071426,15819.0,11613.0,11002.0,14930.0,0.5682985186576843,0.294687420129776,0.2623461186885834,0.503127932548523,0.0,0.0,0.0,0.0,0.0,0.0,0.0,0.0,1.6495864391326904,-0.016319319753369525,-0.06298395691128618,-0.08367007152371443,0.00056488934205845,0.008778358809649944,0.0,-0.0002541379362810403,1.230335556101636e-06,0.0
62,13,1.4046883734408766e-05,2.558195092206006e-06,-1.0633503734425176e-05,0.001625371165573597,-0.001243341714143753,-0.0005681230104528368,0.028032725676894188,-0.0941890999674797,0.003928132820874453,0.0,0.0,0.0,0.0,0.0,0.0,0.0015321391401812434,0.0015555412974208593,-0.0,0.0,0.0,0.0,-0.005651529412716627,0.028269769623875618,0.00028643105179071426,15819.0,11613.0,11002.0,14930.0,0.5682985186576843,0.294687420129776,0.2623461186885834,0.503127932548523,0.0,0.0,0.0,0.0,0.0,0.0,0.0,0.0,1.646738886833191,-0.016319319753369525,-0.06298395691128618,-0.08367007152371443,-0.0061724488623440266,0.004676610231399536,0.0,-0.0002541379362810403,1.230335556101636e-06,0.0
69,7,5.542747658182634e-06,-8.072603122855071e-06,9.280194717575796e-06,0.001625371165573597,-0.001243341714143753,-0.0005681230104528368,0.02802859991788864,-0.09419382363557816,0.003919787239283323,0.0,0.0,0.0,0.0,0.0,0.0,0.001513154711574316,0.0015439428389072418,-0.0,0.0,0.0,0.0,-0.005709658842533827,0.028333812952041626,0.0004520854854490608,15863.0,11558.0,11054.0,14887.0,0.5716605186462402,0.29170796275138855,0.2650279104709625,0.5000636577606201,0.0,0.0,0.0,0.0,0.0,0.0,0.0,0.0,1.6465425491333008,-0.01542486323072016,-0.06255905058156845,-0.08377407884361578,-0.006125695537775755,0.004618112929165363,0.0,-0.0002541379362810403,1.230335556101636e-06,0.0
79,10,-7.019093573035207e-07,-1.2686155059782322e-05,-2.2731017452315427e-05,-0.0008194172405637801,0.0013904579682275653,0.0026585685554891825,0.02802859991788864,-0.09419382363557816,0.003919787239283323,0.0,0.0,0.0,0.0,0.0,0.0,0.001513154711574316,0.0015439428389072418,-0.0,0.0,0.0,0.0,-0.005709658842533827,0.028333812952041626,0.0004520854854490608,15863.0,11558.0,11054.0,14887.0,0.5716605186462402,0.29170796275138855,0.2650279104709625,0.5000636577606201,0.0,0.0,0.0,0.0,0.0,0.0,0.0,0.0,1.6465425491333008,-0.01608067371021864,-0.06249959646842459,-0.08389039085387237,-0.006125695537775755,0.004618112929165363,0.0,-0.0002541379362810403,1.230335556101636e-06,0.0
84,5,-7.019093573035207e-07,-1.2686155059782322e-05,-2.2731017452315427e-05,-0.0008194172405637801,0.0013904579682275653,0.0026585685554891825,0.02802859991788864,-0.09419382363557816,0.003919787239283323,0.0,0.0,0.0,0.0,0.0,0.0,-0.0017357965698465705,-0.0007774290279485285,-0.0,0.0,0.0,0.0,-0.005709658842533827,0.028333812952041626,0.0004520854854490608,15863.0,11558.0,11054.0,14887.0,0.5716605186462402,0.29170796275138855,0.2650279104709625,0.5000636577606201,0.0,0.0,0.0,0.0,0.0,0.0,0.0,0.0,1.6423296928405762,-0.01608067371021864,-0.06249959646842459,-0.08389039085387237,0.0030766089912503958,-0.005284055136144161,0.0,-0.0002541379362810403,1.230335556101636e-06,0.0
89,5,5.632891770801507e-06,1.1645362064882647e-05,-2.5568419914634433e-06,-0.0008194172405637801,0.0013904579682275653,0.0026585685554891825,0.02802859991788864,-0.09419382363557816,0.003919787239283323,0.0,0.0,0.0,0.0,0.0,0.0,-0.0017357965698465705,-0.0007774290279485285,-0.0,0.0,0.0,0.0,-0.005709658842533827,0.028333812952041626,0.0004520854854490608,15863.0,11558.0,11054.0,14887.0,0.5716605186462402,0.29170796275138855,0.2650279104709625,0.5000636577606201,0.0,0.0,0.0,0.0,0.0,0.0,0.0,0.0,1.6423296928405762,-0.016612654704436167,-0.06319292421008829,-0.08357174034559522,0.0030766089912503958,-0.005284055136144161,0.0,-0.0002541379362810403,1.230335556101636e-06,0.0
94,5,5.632891770801507e-06,1.1645362064882647e-05,-2.5568419914634433e-06,-0.0008194172405637801,0.0013904579682275653,0.0026585685554891825,0.028018513694405556,-0.09424111247062683,0.003949679899960756,0.0,0.0,0.0,0.0,0.0,0.0,-0.0017357965698465705,-0.0007774290279485285,-0.0,0.0,0.0,0.0,-0.005313786678016186,0.028817903250455856,0.0004102468374185264,15922.0,11584.0,11116.0,15016.0,0.5761415958404541,0.2931276559829712,0.2682172656059265,0.5092523694038391,0.0,0.0,0.0,0.0,0.0,0.0,0.0,0.0,1.6423296928405762,-0.016612654704436167,-0.06319292421008829,-0.08357174034559522,0.0030766089912503958,-0.005284055136144161,0.0,0.0015321391401812434,0.0015555412974208593,0.0
99,5,5.632891770801507e-06,1.1645362064882647e-05,-2.5568419914634433e-06,-0.0008194172405637801,0.0013904579682275653,0.0026585685554891825,0.028018513694405556,-0.09424111247062683,0.003949679899960756,0.0,0.0,0.0,0.0,0.0,0.0,-0.0017357965698465705,-0.0007774290279485285,-0.0,0.0,0.0,0.0,-0.005313786678016186,0.028817903250455856,0.0004102468374185264,15922.0,11584.0,11116.0,15016.0,0.5761415958404541,0.2931276559829712,0.2682172656059265,0.5092523694038391,0.0,0.0,0.0,0.0,0.0,0.0,0.0,0.0,1.6423296928405762,-0.016612654704436167,-0.06319292421008829,-0.08357174034559522,0.0030766089912503958,-0.005284055136144161,0.0,0.0015321391401812434,0.0015555412974208593,0.0
104,5,4.730208274850156e-06,4.914995315630222e-06,-4.885720045422204e-06,-0.0008194172405637801,0.0013904579682275653,0.0026585685554891825,0.02802678942680359,-0.09425510466098785,0.0039723520167171955,0.0,0.0,0.0,0.0,0.0,0.0,-0.0017357965698465705,-0.0007774290279485285,-0.0,0.0,0.0,0.0,-0.005327630788087845,0.028690146282315254,0.00033758749486878514,15881.0,11642.0,11075.0,15043.0,0.5730023980140686,0.2962739169597626,0.26610860228538513,0.5111576914787292,0.0,0.0,0.0,0.0,0.0,0.0,0.0,0.0,1.6423296928405762,-0.016885033624773647,-0.06299768005940964,-0.0836341220290038,0.0030766089912503958,-0.005284055136144161,0.0,0.001513154711574316,0.0015439428389072418,0.0
110,5,2.2616814021603204e-06,4.768791313836118e-06,9.514488738204818e-06,-0.0006239900831133127,0.0005737277097068727,-0.0006645976100116968,0.02802678942680359,-0.09425510466098785,0.0039723520167171955,0.0,0.0,0.0,0.0,0.0,0.0,-0.001704267575405538,-0.0007700005662627518,-0.0,0.0,0.0,0.0,-0.005327630788087845,0.028690146282315254,0.00033758749486878514,15881.0,11642.0,11075.0,15043.0,0.5730023980140686,0.2962739169597626,0.26610860228538513,0.5111576914787292,0.0,0.0,0.0,0.0,0.0,0.0,0.0,0.0,1.6420625448226929,-0.016400081634151912,-0.06283858829257755,-0.08370980406022331,0.0030467158649116755,-0.005187231581658125,0.0,0.001513154711574316,0.0015439428389072418,0.0
115,5,2.2616814021603204e-06,4.768791313836118e-06,9.514488738204818e-06,-0.0006239900831133127,0.0005737277097068727,-0.0006645976100116968,0.02804487757384777,-0.0942356288433075,0.003976135980337858,0.0,0.0,0.0,0.0,0.0,0.0,-0.001704267575405538,-0.0007700005662627518,-0.0,0.0,0.0,0.0,-0.006021803244948387,0.028060682117938995,0.00032754038693383336,15932.0,11634.0,11138.0,14889.0,0.5769217610359192,0.29584580659866333,0.26939862966537476,0.5001634955406189,0.0,0.0,0.0,0.0,0.0,0.0,0.0,0.0,1.6420625448226929,-0.016400081634151912,-0.06283858829257755,-0.08370980406022331,0.0030467158649116755,-0.005187231581658125,0.0,-0.0017357965698465705,-0.0007774290279485285,0.0
120,5,1.1698304660967551e-05,-1.6480172462252085e-06,-2.19500780076487e-05,0.000882798689417541,0.0009995080763474107,0.0035099091473966837,0.02804487757384777,-0.0942356288433075,0.003976135980337858,0.0,0.0,0.0,0.0,0.0,0.0,-0.0007015778101049364,-0.0005910082254558802,-0.0,0.0,0.0,0.0,-0.006021803244948387,0.028060682117938995,0.00032754038693383336,15932.0,11634.0,11138.0,14889.0,0.5769217610359192,0.29584580659866333,0.26939862966537476,0.5001634955406189,0.0,0.0,0.0,0.0,0.0,0.0,0.0,0.0,1.6343005895614624,-0.015034133342025437,-0.06198209185548021,-0.08401255381665862,0.0023274330887943506,-0.0021252804435789585,0.0,-0.0017357965698465705,-0.0007774290279485285,0.0
125,5,1.1698304660967551e-05,-1.6480172462252085e-06,-2.19500780076487e-05,0.000882798689417541,0.0009995080763474107,0.0035099091473966837,0.02804487757384777,-0.0942356288433075,0.003976135980337858,0.0,0.0,0.0,0.0,0.0,0.0,-0.0007015778101049364,-0.0005910082254558802,-0.0,0.0,0.0,0.0,-0.006021803244948387,0.028060682117938995,0.00032754038693383336,15932.0,11634.0,11138.0,14889.0,0.5769217610359192,0.29584580659866333,0.26939862966537476,0.5001634955406189,0.0,0.0,0.0,0.0,0.0,0.0,0.0,0.0,1.6343005895614624,-0.015034133342025437,-0.06198209185548021,-0.08401255381665862,0.0023274330887943506,-0.0021252804435789585,0.0,-0.0017357965698465705,-0.0007774290279485285,0.0
130,5,6.676247267023427e-06,1.6645461073494516e-05,-1.109763343265513e-05,0.000882798689417541,0.0009995080763474107,0.0035099091473966837,0.028043270111083984,-0.0942385345697403,0.003968144301325083,0.0,0.0,0.0,0.0,0.0,0.0,-0.0012364162830635905,0.0008543197764083743,-0.0,0.0,0.0,0.0,-0.006021803244948387,0.028060682117938995,0.00032754038693383336,15869.0,11727.0,11059.0,14943.0,0.5720714926719666,0.3009517192840576,0.2652668356895447,0.5040396451950073,0.0,0.0,0.0,0.0,0.0,0.0,0.0,0.0,1.6394476890563965,-0.015229681852778839,-0.06222730010311401,-0.08388648099156518,-0.003374967258423567,-0.003757254919037223,0.0,-0.0017357965698465705,-0.0007774290279485285,0.0
135,5,6.676247267023427e-06,1.6645461073494516e-05,-1.109763343265513e-05,0.000882798689417541,0.0009995080763474107,0.0035099091473966837,0.028043270111083984,-0.0942385345697403,0.003968144301325083,0.0,0.0,0.0,0.0,0.0,0.0,-0.0012364162830635905,0.0008543197764083743,-0.0,0.0,0.0,0.0,-0.006021803244948387,0.028060682117938995,0.00032754038693383336,15869.0,11727.0,11059.0,14943.0,0.5720714926719666,0.3009517192840576,0.2652668356895447,0.5040396451950073,0.0,0.0,0.0,0.0,0.0,0.0,0.0,0.0,1.6394476890563965,-0.015229681852778839,-0.06222730010311401,-0.08388648099156518,-0.003374967258423567,-0.003757254919037223,0.0,-0.0017357965698465705,-0.0007774290279485285,0.0
140,5,-9.855124517343938e-06,1.630552469578106e-05,2.8243684937478974e-05,-0.0016306452453136444,0.0004405954387038946,-0.003316994523629546,0.028054911643266678,-0.09424913674592972,0.003970592748373747,0.0,0.0,0.0,0.0,0.0,0.0,-0.0012034728424623609,0.0008474641945213079,-0.0,0.0,0.0,0.0,-0.005963146220892668,0.028152326121926308,0.000445724610472098,15904.0,11672.0,11099.0,14915.0,0.574766218662262,0.297911673784256,0.2673685848712921,0.5020161271095276,0.0,0.0,0.0,0.0,0.0,0.0,0.0,0.0,1.639195442199707,-0.016888086676051597,-0.06285179438280666,-0.08374657599387487,-0.0033473693765699863,-0.003656582674011588,0.0,-0.001704267575405538,-0.0007700005662627518,0.0
145,5,-9.855124517343938e-06,1.630552469578106e-05,2.8243684937478974e-05,-0.0016306452453136444,0.0004405954387038946,-0.003316994523629546,0.028054911643266678,-0.09424913674592972,0.003970592748373747,0.0,0.0,0.0,0.0,0.0,0.0,-0.0012034728424623609,0.0008474641945213079,-0.0,0.0,0.0,0.0,-0.005963146220892668,0.028152326121926308,0.000445724610472098,15904.0,11672.0,11099.0,14915.0,0.574766218662262,0.297911673784256,0.2673685848712921,0.5020161271095276,0.0,0.0,0.0,0.0,0.0,0.0,0.0,0.0,1.639195442199707,-0.016888086676051597,-0.06285179438280666,-0.08374657599387487,-0.0033473693765699863,-0.003656582674011588,0.0,-0.001704267575405538,-0.0007700005662627518,0.0
150,5,-4.600030933943344e-06,2.4730232325964607e-05,3.0999970476841554e-05,-2.1646805180353113e-05,-0.0008347267867065966,-0.0016575523186475039,0.028093673288822174,-0.09418410807847977,0.003965455573052168,0.0,0.0,0.0,0.0,0.0,0.0,-0.0005130567587912083,-0.0015582054620608687,-0.0,0.0,0.0,0.0,-0.00582457147538662,0.028073232620954514,0.0003908492799382657,15869.0,11621.0,11090.0,14888.0,0.5721270442008972,0.2951740324497223,0.266888827085495,0.5001106858253479,0.0,0.0,0.0,0.0,0.0,0.0,0.0,0.0,1.6430037021636963,-0.01779648527098224,-0.06334289223201464,-0.08358050899711461,0.006169002503156662,-0.0015624727820977569,0.0,-0.0007015778101049364,-0.0005910082254558802,0.0
155,5,-4.600030933943344e-06,2.4730232325964607e-05,3.0999970476841554e-05,-2.1646805180353113e-05,-0.0008347267867065966,-0.0016575523186475039,0.028093673288822174,-0.09418410807847977,0.003965455573052168,0.0,0.0,0.0,0.0,0.0,0.0,-0.0005130567587912083,-0.0015582054620608687,-0.0,0.0,0.0,0.0,-0.00582457147538662,0.028073232620954514,0.0003908492799382657,15869.0,11621.0,11090.0,14888.0,0.5721270442008972,0.2951740324497223,0.266888827085495,0.5001106858253479,0.0,0.0,0.0,0.0,0.0,0.0,0.0,0.0,1.6430037021636963,-0.01779648527098224,-0.06334289223201464,-0.08358050899711461,0.006169002503156662,-0.0015624727820977569,0.0,-0.0007015778101049364,-0.0005910082254558802,0.0
160,5,1.626434641366359e-05,8.461385732516646e-06,-1.0916144674411044e-05,-2.1646805180353113e-05,-0.0008347267867065966,-0.0016575523186475039,0.02811301499605179,-0.0941811203956604,0.0039769806899130344,0.0,0.0,0.0,0.0,0.0,0.0,0.0010780681623145938,-2.7005818992620334e-05,-0.0,0.0,0.0,0.0,-0.005946362856775522,0.02864985167980194,0.00044296315172687173,15925.0,11615.0,11047.0,14937.0,0.5763329267501831,0.29480788111686707,0.26468560099601746,0.5036212801933289,0.0,0.0,0.0,0.0,0.0,0.0,0.0,0.0,1.6346163749694824,-0.01636894310422887,-0.0626442126860215,-0.08359366954744893,0.00010637139348546043,0.003266408108174801,0.0,-0.0012364162830635905,0.0008543197764083743,0.0
165,5,1.626434641366359e-05,8.461385732516646e-06,-1.0916144674411044e-05,-2.1646805180353113e-05,-0.0008347267867065966,-0.0016575523186475039,0.02811301499605179,-0.0941811203956604,0.0039769806899130344,0.0,0.0,0.0,0.0,0.0,0.0,0.0010780681623145938,-2.7005818992620334e-05,-0.0,0.0,0.0,0.0,-0.005946362856775522,0.02864985167980194,0.00044296315172687173,15925.0,11615.0,11047.0,14937.0,0.5763329267501831,0.29480788111686707,0.26468560099601746,0.5036212801933289,0.0,0.0,0.0,0.0,0.0,0.0,0.0,0.0,1.6346163749694824,-0.01636894310422887,-0.0626442126860215,-0.08359366954744893,0.00010637139348546043,0.003266408108174801,0.0,-0.0012364162830635905,0.0008543197764083743,0.0
171,5,1.7036041754181497e-05,5.623681772704003e-06,1.6400909998992574e-06,8.39447311591357e-05,6.6338147917122114e-06,-0.0021697692573070526,0.02831180766224861,-0.09424584358930588,0.003931788727641106,0.0,0.0,0.0,0.0,0.0,0.0,0.0010487043764442205,2.142991661457927e-06,-0.0,0.0,0.0,0.0,-0.005956281907856464,0.02823425456881523,0.0005640917806886137,16177.0,11264.0,11518.0,14627.0,0.5956746339797974,0.2759944200515747,0.28953802585601807,0.48179662227630615,0.0,0.0,0.0,0.0,0.0,0.0,0.0,0.0,1.6343690156936646,-0.016789163670624902,-0.06319176802065729,-0.08341045502974316,-8.439607881882694e-06,0.0031769589986652136,0.0,-0.0005130567587912083,-0.0015582054620608687,0.0
176,5,1.7036041754181497e-05,5.623681772704003e-06,1.6400909998992574e-06,8.39447311591357e-05,6.6338147917122114e-06,-0.0021697692573070526,0.02831180766224861,-0.09424584358930588,0.003931788727641106,0.0,0.0,0.0,0.0,0.0,0.0,0.0010487043764442205,2.142991661457927e-06,-0.0,0.0,0.0,0.0,-0.005956281907856464,0.02823425456881523,0.0005640917806886137,16177.0,11264.0,11518.0,14627.0,0.5956746339797974,0.2759944200515747,0.28953802585601807,0.48179662227630615,0.0,0.0,0.0,0.0,0.0,0.0,0.0,0.0,1.6343690156936646,-0.016789163670624902,-0.06319176802065729,-0.08341045502974316,-8.439607881882694e-06,0.0031769589986652136,0.0,-0.0005130567587912083,-0.0015582054620608687,0.0
181,5,4.5153656174079515e-06,-4.099056241102517e-06,-3.447583003435284e-05,8.39447311591357e-05,6.6338147917122114e-06,-0.0021697692573070526,0.02822112664580345,-0.09417848289012909,0.004010324366390705,0.0,0.0,0.0,0.0,0.0,0.0,2.0769023194588954e-06,0.00010415693395771086,-0.0,0.0,0.0,0.0,-0.005512911360710859,0.028441064059734344,-0.0006247201235964894,15521.0,12056.0,10533.0,15310.0,0.5460377335548401,0.31934863328933716,0.2387658804655075,0.5304640531539917,0.0,0.0,0.0,0.0,0.0,0.0,0.0,0.0,1.6284600496292114,-0.013879748772945556,-0.06178373245138833,-0.08404022195532428,-0.0004087118140887469,6.269049663387705e-06,0.0,0.0010780681623145938,-2.7005818992620334e-05,0.0
186,5,4.5153656174079515e-06,-4.099056241102517e-06,-3.447583003435284e-05,8.39447311591357e-05,6.6338147917122114e-06,-0.0021697692573070526,0.02822112664580345,-0.09417848289012909,0.004010324366390705,0.0,0.0,0.0,0.0,0.0,0.0,2.0769023194588954e-06,0.00010415693395771086,-0.0,0.0,0.0,0.0,-0.005512911360710859,0.028441064059734344,-0.0006247201235964894,15521.0,12056.0,10533.0,15310.0,0.5460377335548401,0.31934863328933716,0.2387658804655075,0.5304640531539917,0.0,0.0,0.0,0.0,0.0,0.0,0.0,0.0,1.6284600496292114,-0.013879748772945556,-0.06178373245138833,-0.08404022195532428,-0.0004087118140887469,6.269049663387705e-06,0.0,0.0010780681623145938,-2.7005818992620334e-05,0.0
191,5,7.994706720637623e-06,-2.7123146537633147e-06,-2.5935296434909105e-05,8.39447311591357e-05,6.6338147917122114e-06,-0.0021697692573070526,0.028272639960050583,-0.09406039118766785,0.004037362989038229,0.0,0.0,0.0,0.0,0.0,0.0,-1.564384911034722e-05,8.661159517941996e-05,-0.0,0.0,0.0,0.0,-0.0058056749403476715,0.027755172923207283,-0.0025757362600415945,16147.0,11176.0,11589.0,14547.0,0.5933719873428345,0.27135342359542847,0.2933955788612366,0.47624802589416504,0.0,0.0,0.0,0.0,0.0,0.0,0.0,0.0,1.6284600496292114,-0.014578821886543808,-0.062259368260463036,-0.08376787393075484,-0.0003398639091756195,-4.722035737358965e-05,0.0,2.0769023194588954e-06,0.00010415693395771086,0.0
196,5,-1.3162150935386308e-05,5.232384864939377e-05,3.3306216209894046e-05,-0.0025052449200302362,-0.0066016861237585545,-0.007976888678967953,0.028272639960050583,-0.09406039118766785,0.004037362989038229,0.0,0.0,0.0,0.0,0.0,0.0,-1.564384911034722e-05,8.661159517941996e-05,-0.0,0.0,0.0,0.0,-0.0058056749403476715,0.027755172923207283,-0.0025757362600415945,16147.0,11176.0,11589.0,14547.0,0.5933719873428345,0.27135342359542847,0.2933955788612366,0.47624802589416504,0.0,0.0,0.0,0.0,0.0,0.0,0.0,0.0,1.6284600496292114,-0.010328613565845085,-0.06348304563242063,-0.08237529090596185,-0.0003398639091756195,-4.722035737358965e-05,0.0,2.0769023194588954e-06,0.00010415693395771086,0.0
201,5,-1.3162150935386308e-05,5.232384864939377e-05,3.3306216209894046e-05,-0.0025052449200302362,-0.0066016861237585545,-0.007976888678967953,0.028272639960050583,-0.09406039118766785,0.004037362989038229,0.0,0.0,0.0,0.0,0.0,0.0,0.00795784778892994,-0.00231394125148654,-0.0,0.0,0.0,0.0,-0.0058056749403476715,0.027755172923207283,-0.0025757362600415945,16147.0,11176.0,11589.0,14547.0,0.5933719873428345,0.27135342359542847,0.2933955788612366,0.47624802589416504,0.0,0.0,0.0,0.0,0.0,0.0,0.0,0.0,1.6979163885116577,-0.010328613565845085,-0.06348304563242063,-0.08237529090596185,0.009466869756579399,0.025044487789273262,0.0,2.0769023194588954e-06,0.00010415693395771086,0.0
206,5,6.120483158156276e-05,-3.059085429413244e-05,-6.385184860846493e-07,-0.0025052449200302362,-0.0066016861237585545,-0.007976888678967953,0.028358658775687218,-0.09383197873830795,0.0036896991077810526,0.0,0.0,0.0,0.0,0.0,0.0,0.00795784778892994,-0.00231394125148654,-0.0,0.0,0.0,0.0,-0.00556057458743453,0.026333360001444817,0.0015682082157582045,14877.0,12823.0,9660.0,15801.0,0.4993087649345398,0.3643091917037964,0.19784903526306152,0.5669930577278137,0.0,0.0,0.0,0.0,0.0,0.0,0.0,0.0,1.6979163885116577,-0.009965239507727536,-0.06548426356689963,-0.0805268797721059,0.009466869756579399,0.025044487789273262,0.0,-1.564384911034722e-05,8.661159517941996e-05,0.0
211,5,6.120483158156276e-05,-3.059085429413244e-05,-6.385184860846493e-07,-0.0025052449200302362,-0.0066016861237585545,-0.007976888678967953,0.028358658775687218,-0.09383197873830795,0.0036896991077810526,0.0,0.0,0.0,0.0,0.0,0.0,0.007819930091500282,-0.0022159023210406303,-0.0,0.0,0.0,0.0,-0.00556057458743453,0.026333360001444817,0.0015682082157582045,14877.0,12823.0,9660.0,15801.0,0.4993087649345398,0.3643091917037964,0.19784903526306152,0.5669930577278137,0.0,0.0,0.0,0.0,0.0,0.0,0.0,0.0,1.696391224861145,-0.009965239507727536,-0.06548426356689963,-0.0805268797721059,0.009057637304067612,0.02458835020661354,0.0,-1.564384911034722e-05,8.661159517941996e-05,0.0
216,5,8.970608178060502e-05,-8.035336213652045e-05,-5.1915045332862064e-05,-0.0025052449200302362,-0.0066016861237585545,-0.007976888678967953,0.028394049033522606,-0.09302444756031036,0.0037200304213911295,0.0,0.0,0.0,0.0,0.0,0.0,0.007819930091500282,-0.0022159023210406303,-0.0,0.0,0.0,0.0,-0.004619322717189789,0.025441497564315796,0.0005142019363120198,15860.0,12041.0,11726.0,14987.0,0.571398913860321,0.31848907470703125,0.300891637802124,0.5071367621421814,0.0,0.0,0.0,0.0,0.0,0.0,0.0,0.0,1.696391224861145,-0.011745623863043267,-0.06549805679914092,-0.08203063444349074,0.009057637304067612,0.02458835020661354,0.0,0.00795784778892994,-0.00231394125148654,0.0
221,5,8.970608178060502e-05,-8.035336213652045e-05,-5.1915045332862064e-05,-0.0025052449200302362,-0.0066016861237585545,-0.007976888678967953,0.028394049033522606,-0.09302444756031036,0.0037200304213911295,0.0,0.0,0.0,0.0,0.0,0.0,0.0077365911565721035,-0.0021785437129437923,-0.0,0.0,0.0,0.0,-0.004619322717189789,0.025441497564315796,0.0005142019363120198,15860.0,12041.0,11726.0,14987.0,0.571398913860321,0.31848907470703125,0.300891637802124,0.5071367621421814,0.0,0.0,0.0,0.0,0.0,0.0,0.0,0.0,1.6955585479736328,-0.011745623863043267,-0.06549805679914092,-0.08203063444349074,0.008900566026568413,0.02431437559425831,0.0,0.00795784778892994,-0.00231394125148654,0.0
226,5,5.571734072873369e-05,-0.00010126688721356913,6.375437806127593e-06,-0.005080746486783028,-0.00013105080870445818,-0.010185613296926022,0.028491172939538956,-0.09244075417518616,0.003333356464281678,0.0,0.0,0.0,0.0,0.0,0.0,0.0077365911565721035,-0.0021785437129437923,-0.0,0.0,0.0,0.0,-0.005346831399947405,0.024284541606903076,0.0003281162935309112,15860.0,12041.0,11726.0,14987.0,0.571398913860321,0.31848907470703125,0.300891637802124,0.5071367621421814,0.0,0.0,0.0,0.0,0.0,0.0,0.0,0.0,1.6955585479736328,-0.010950789520461034,-0.06671986584097273,-0.08288946980352839,0.008900566026568413,0.02431437559425831,0.0,0.007819930091500282,-0.0022159023210406303,0.0
232,5,5.571734072873369e-05,-0.00010126688721356913,6.375437806127593e-06,-0.005080746486783028,-0.00013105080870445818,-0.010185613296926022,0.028491172939538956,-0.09244075417518616,0.003333356464281678,0.0,0.0,0.0,0.0,0.0,0.0,-2.1203522919677198e-05,-0.004640563856810331,-0.0,0.0,0.0,0.0,-0.005346831399947405,0.024284541606903076,0.0003281162935309112,15860.0,12041.0,11726.0,14987.0,0.571398913860321,0.31848907470703125,0.300891637802124,0.5071367621421814,0.0,0.0,0.0,0.0,0.0,0.0,0.0,0.0,1.676388144493103,-0.010950789520461034,-0.06671986584097273,-0.08288946980352839,0.018745440989732742,-6.588569522136822e-05,0.0,0.007819930091500282,-0.0022159023210406303,0.0
237,5,3.588042454794049e-05,-0.0004484830715227872,-0.00017116472008638084,-0.004412728827446699,0.04161352291703224,0.017230574041604996,0.029353970661759377,-0.09105608612298965,0.0030426981393247843,0.0,0.0,0.0,0.0,0.0,0.0,-2.1203522919677198e-05,-0.004640563856810331,-0.0,0.0,0.0,0.0,-0.007700487971305847,0.022019734606146812,-0.0012314755003899336,15429.0,13011.0,11321.0,14908.0,0.5392093062400818,0.37580302357673645,0.27901771664619446,0.5015284419059753,0.0,0.0,0.0,0.0,0.0,0.0,0.0,0.0,1.676388144493103,0.008908227000895955,-0.06339487104929901,-0.086649980274792,0.018745440989732742,-6.588569522136822e-05,0.0,0.0077365911565721035,-0.0021785437129437923,0.0
242,5,3.588042454794049e-05,-0.0004484830715227872,-0.00017116472008638084,-0.004412728827446699,0.04161352291703224,0.017230574041604996,0.029353970661759377,-0.09105608612298965,0.0030426981393247843,0.0,0.0,0.0,0.0,0.0,0.0,-0.04199308156967163,-0.0033327648416161537,-0.0,0.0,0.0,0.0,-0.007700487971305847,0.022019734606146812,-0.0012314755003899336,15429.0,13011.0,11321.0,14908.0,0.5392093062400818,0.37580302357673645,0.27901771664619446,0.5015284419059753,0.0,0.0,0.0,0.0,0.0,0.0,0.0,0.0,2.0376415252685547,0.008908227000895955,-0.06339487104929901,-0.086649980274792,0.016349351033568382,-0.15851929783821106,0.0,0.0077365911565721035,-0.0021785437129437923,0.0
247,5,-5.311290806275792e-06,-0.00046973954886198044,3.7269248423399404e-05,-0.00670809717848897,0.01919618435204029,-0.018119847401976585,0.03476981818675995,-0.08454223722219467,0.0020026240963488817,0.0,0.0,0.0,0.0,0.0,0.0,-0.04199308156967163,-0.0033327648416161537,-0.0,0.0,0.0,0.0,-0.011766890995204449,0.013978200033307076,-0.0008992767543531954,15008.0,13914.0,11510.0,14091.0,0.5086367726325989,0.4334273636341095,0.28913798928260803,0.44518598914146423,0.0,0.0,0.0,0.0,0.0,0.0,0.0,0.0,2.0376415252685547,0.007989719012316095,-0.07224619173496591,-0.08538765391561748,0.016349351033568382,-0.15851929783821106,0.0,-2.1203522919677198e-05,-0.004640563856810331,0.0
252,5,-5.311290806275792e-06,-0.00046973954886198044,3.7269248423399404e-05,-0.00670809717848897,0.01919618435204029,-0.018119847401976585,0.03476981818675995,-0.08454223722219467,0.0020026240963488817,0.0,0.0,0.0,0.0,0.0,0.0,-0.021933812648057938,-0.0056983716785907745,-0.0,0.0,0.0,0.0,-0.011766890995204449,0.013978200033307076,-0.0008992767543531954,15008.0,13914.0,11510.0,14091.0,0.5086367726325989,0.4334273636341095,0.28913798928260803,0.44518598914146423,0.0,0.0,0.0,0.0,0.0,0.0,0.0,0.0,1.8345147371292114,0.007989719012316095,-0.07224619173496591,-0.08538765391561748,0.025183556601405144,-0.07457283139228821,0.0,-2.1203522919677198e-05,-0.004640563856810331,0.0
257,5,-8.307101234095171e-05,-0.0004597745428327471,0.0003381208807695657,-0.01201440580189228,0.00648267287760973,-0.043350134044885635,0.038501840084791183,-0.07816407084465027,0.0017680703895166516,0.0,0.0,0.0,0.0,0.0,0.0,-0.021933812648057938,-0.0056983716785907745,-0.0,0.0,0.0,0.0,-0.023207759484648705,0.0034258330706506968,0.0012529640225693583,17014.0,15687.0,13961.0,13087.0,0.6622684597969055,0.5584147572517395,0.4364806115627289,0.3804776966571808,0.0,0.0,0.0,0.0,0.0,0.0,0.0,0.0,1.8345147371292114,0.01709916134142848,-0.08535856308943009,-0.08441761705001946,0.025183556601405144,-0.07457283139228821,0.0,-0.04199308156967163,-0.0033327648416161537,0.0
262,5,-8.307101234095171e-05,-0.0004597745428327471,0.0003381208807695657,-0.01201440580189228,0.00648267287760973,-0.043350134044885635,0.038501840084791183,-0.07816407084465027,0.0017680703895166516,0.0,0.0,0.0,0.0,0.0,0.0,-0.008196292445063591,-0.010689319111406803,-0.0,0.0,0.0,0.0,-0.023207759484648705,0.0034258330706506968,0.0012529640225693583,17014.0,15687.0,13961.0,13087.0,0.6622684597969055,0.5584147572517395,0.4364806115627289,0.3804776966571808,0.0,0.0,0.0,0.0,0.0,0.0,0.0,0.0,1.7669713497161865,0.01709916134142848,-0.08535856308943009,-0.08441761705001946,0.045510184019804,-0.02684396505355835,0.0,-0.04199308156967163,-0.0033327648416161537,0.0
267,5,-6.790648330934346e-05,-0.0005623575998470187,0.00037250309833325446,-0.01201440580189228,0.00648267287760973,-0.043350134044885635,0.04537029564380646,-0.06349004060029984,0.0017832561861723661,0.0,0.0,0.0,0.0,0.0,0.0,-0.008196292445063591,-0.010689319111406803,-0.0,0.0,0.0,0.0,-0.020597590133547783,-0.007862911559641361,0.0015809957403689623,15447.0,15648.0,14230.0,11414.0,0.5405415296554565,0.5554832220077515,0.45453840494155884,0.2839515209197998,0.0,0.0,0.0,0.0,0.0,0.0,0.0,0.0,1.7669713497161865,0.009412111966302804,-0.09877661022260092,-0.08591959472626513,0.045510184019804,-0.02684396505355835,0.0,-0.021933812648057938,-0.0056983716785907745,0.0
272,5,-6.790648330934346e-05,-0.0005623575998470187,0.00037250309833325446,-0.01201440580189228,0.00648267287760973,-0.043350134044885635,0.04537029564380646,-0.06349004060029984,0.0017832561861723661,0.0,0.0,0.0,0.0,0.0,0.0,-0.008366446010768414,-0.010666325688362122,-0.0,0.0,0.0,0.0,-0.020597590133547783,-0.007862911559641361,0.0015809957403689623,15447.0,15648.0,14230.0,11414.0,0.5405415296554565,0.5554832220077515,0.45453840494155884,0.2839515209197998,0.0,0.0,0.0,0.0,0.0,0.0,0.0,0.0,1.7675467729568481,0.009412111966302804,-0.09877661022260092,-0.08591959472626513,0.04542701691389084,-0.02741014026105404,0.0,-0.021933812648057938,-0.0056983716785907745,0.0
277,5,-0.00024287081032525748,-0.0005237904842942953,0.0008530868217349052,-0.025801481679081917,-0.002034988021478057,-0.07501010596752167,0.04537029564380646,-0.06349004060029984,0.0017832561861723661,0.0,0.0,0.0,0.0,0.0,0.0,-0.008366446010768414,-0.010666325688362122,-0.0,0.0,0.0,0.0,-0.020597590133547783,-0.007862911559641361,0.0015809957403689623,15447.0,15648.0,14230.0,11414.0,0.5405415296554565,0.5554832220077515,0.45453840494155884,0.2839515209197998,0.0,0.0,0.0,0.0,0.0,0.0,0.0,0.0,1.7675467729568481,0.013699921447201814,-0.11743793172015243,-0.08461807335464776,0.04542701691389084,-0.02741014026105404,0.0,-0.021933812648057938,-0.0056983716785907745,0.0
282,5,-0.00024287081032525748,-0.0005237904842942953,0.0008530868217349052,-0.025801481679081917,-0.002034988021478057,-0.07501010596752167,0.048572003841400146,-0.05134110152721405,0.001995965139940381,0.0,0.0,0.0,0.0,0.0,0.0,-0.008366446010768414,-0.010666325688362122,-0.0,0.0,0.0,0.0,-0.019137011840939522,-0.018303390592336655,0.003148265415802598,15262.0,15637.0,15345.0,10140.0,0.5269687175750732,0.5546457171440125,0.5330215692520142,0.21987861394882202,0.0,0.0,0.0,0.0,0.0,0.0,0.0,0.0,1.7675467729568481,0.013699921447201814,-0.11743793172015243,-0.08461807335464776,0.04542701691389084,-0.02741014026105404,0.0,-0.021933812648057938,-0.0056983716785907745,0.0
287,5,-0.0003581532509997487,-0.0004959835205227137,0.0011717474553734064,-0.024154484272003174,-0.004150830674916506,-0.06824330985546112,0.048572003841400146,-0.05134110152721405,0.001995965139940381,0.0,0.0,0.0,0.0,0.0,0.0,0.0013574865879490972,-0.02160499431192875,-0.0,0.0,0.0,0.0,-0.019137011840939522,-0.018303390592336655,0.003148265415802598,15262.0,15637.0,15345.0,10140.0,0.5269687175750732,0.5546457171440125,0.5330215692520142,0.21987861394882202,0.0,0.0,0.0,0.0,0.0,0.0,0.0,0.0,1.8843449354171753,0.013566281445239775,-0.1306962416221657,-0.08607139912537023,0.09809170663356781,0.0047413744032382965,0.0,-0.021933812648057938,-0.0056983716785907745,0.0
292,5,-0.0003581532509997487,-0.0004959835205227137,0.0011717474553734064,-0.024154484272003174,-0.004150830674916506,-0.06824330985546112,0.05038296431303024,-0.031140662729740143,0.0021249486599117517,0.0,0.0,0.0,0.0,0.0,0.0,0.0013574865879490972,-0.02160499431192875,-0.0,0.0,0.0,0.0,-0.012073406018316746,-0.025559544563293457,0.002635122276842594,13963.0,15539.0,16051.0,9641.0,0.4366421401500702,0.547351598739624,0.5859754085540771,0.19700220227241516,0.0,0.0,0.0,0.0,0.0,0.0,0.0,0.0,1.8843449354171753,0.013566281445239775,-0.1306962416221657,-0.08607139912537023,0.09809170663356781,0.0047413744032382965,0.0,-0.008196292445063591,-0.010689319111406803,0.0
298,5,-0.0004355676646810025,-0.0005401408998295665,0.0013442313065752387,-0.018951525911688805,0.003638556692749262,-0.04799538850784302,0.05038296431303024,-0.031140662729740143,0.0021249486599117517,0.0,0.0,0.0,0.0,0.0,0.0,0.0036963403690606356,-0.02051708474755287,-0.0,0.0,0.0,0.0,-0.012073406018316746,-0.025559544563293457,0.002635122276842594,13963.0,15539.0,16051.0,9641.0,0.4366421401500702,0.547351598739624,0.5859754085540771,0.19700220227241516,0.0,0.0,0.0,0.0,0.0,0.0,0.0,0.0,1.8721728324890137,0.009437510019401489,-0.14197947070159347,-0.08588934407246578,0.09255076944828033,0.012826986610889435,0.0,-0.008196292445063591,-0.010689319111406803,0.0
303,5,-0.0004355676646810025,-0.0005401408998295665,0.0013442313065752387,-0.018951525911688805,0.003638556692749262,-0.04799538850784302,0.048390183597803116,-0.018654346466064453,0.0024233937729150057,0.0,0.0,0.0,0.0,0.0,0.0,0.0036963403690606356,-0.02051708474755287,-0.0,0.0,0.0,0.0,-0.007150454446673393,-0.02718626707792282,0.003166279988363385,13761.0,15148.0,16316.0,10122.0,0.4233243763446808,0.5187080502510071,0.6065049171447754,0.2190093696117401,0.0,0.0,0.0,0.0,0.0,0.0,0.0,0.0,1.8721728324890137,0.009437510019401489,-0.14197947070159347,-0.08588934407246578,0.09255076944828033,0.012826986610889435,0.0,-0.008366446010768414,-0.010666325688362122,0.0
308,5,-0.0005970203201286495,-0.0005045353900641203,0.0016615359345450997,-0.018951525911688805,0.003638556692749262,-0.04799538850784302,0.048390183597803116,-0.018654346466064453,0.0024233937729150057,0.0,0.0,0.0,0.0,0.0,0.0,-0.004913941491395235,-0.016701743006706238,-0.0,0.0,0.0,0.0,-0.007150454446673393,-0.02718626707792282,0.003166279988363385,13761.0,15148.0,16316.0,10122.0,0.4233243763446808,0.5187080502510071,0.6065049171447754,0.2190093696117401,0.0,0.0,0.0,0.0,0.0,0.0,0.0,0.0,1.8255928754806519,0.002728106826904924,-0.1505971447502853,-0.0856575556157513,0.07346697896718979,-0.016627971082925797,0.0,-0.008366446010768414,-0.010666325688362122,0.0
313,5,-0.0005970203201286495,-0.0005045353900641203,0.0016615359345450997,-0.018951525911688805,0.003638556692749262,-0.04799538850784302,0.04214956611394882,-0.0037584358360618353,0.0021058525890111923,0.0,0.0,0.0,0.0,0.0,0.0,-0.004913941491395235,-0.016701743006706238,-0.0,0.0,0.0,0.0,-0.000847895338665694,-0.02574673667550087,-0.00017486735305283219,12637.0,16082.0,16133.0,12593.0,0.35313916206359863,0.588394284248352,0.5922821164131165,0.35052937269210815,0.0,0.0,0.0,0.0,0.0,0.0,0.0,0.0,1.8255928754806519,0.002728106826904924,-0.1505971447502853,-0.0856575556157513,0.07346697896718979,-0.016627971082925797,0.0,0.0013574865879490972,-0.02160499431192875,0.0
318,5,-0.0006695741903968155,-0.0005069312173873186,0.001777547411620617,-0.018951525911688805,0.003638556692749262,-0.04799538850784302,0.04214956611394882,-0.0037584358360618353,0.0021058525890111923,0.0,0.0,0.0,0.0,0.0,0.0,-0.004850910510867834,-0.01688433438539505,-0.0,0.0,0.0,0.0,-0.000847895338665694,-0.02574673667550087,-0.00017486735305283219,12637.0,16082.0,16133.0,12593.0,0.35313916206359863,0.588394284248352,0.5922821164131165,0.35052937269210815,0.0,0.0,0.0,0.0,0.0,0.0,0.0,0.0,1.8277302980422974,-0.006145135146916038,-0.15424797998121517,-0.0863544653746715,0.0743570625782013,-0.01643390767276287,0.0,0.0013574865879490972,-0.02160499431192875,0.0
323,5,-0.0006695741903968155,-0.0005069312173873186,0.001777547411620617,-0.018951525911688805,0.003638556692749262,-0.04799538850784302,0.03608353063464165,0.002314416691660881,0.0022004912607371807,0.0,0.0,0.0,0.0,0.0,0.0,-0.004850910510867834,-0.01688433438539505,-0.0,0.0,0.0,0.0,0.0028179886285215616,-0.006923353299498558,-0.0007160622626543045,13357.0,14949.0,16062.0,13135.0,0.39736858010292053,0.5044591426849365,0.586848795413971,0.3834962546825409,0.0,0.0,0.0,0.0,0.0,0.0,0.0,0.0,1.8277302980422974,-0.006145135146916038,-0.15424797998121517,-0.0863544653746715,0.0743570625782013,-0.01643390767276287,0.0,-0.004913941491395235,-0.016701743006706238,0.0
328,5,-0.0007044794037938118,-0.0004905865644104779,0.0017871165182441473,-0.018951525911688805,0.003638556692749262,-0.04799538850784302,0.03608353063464165,0.002314416691660881,0.0022004912607371807,0.0,0.0,0.0,0.0,0.0,0.0,-0.004852610174566507,-0.016965998336672783,-0.0,0.0,0.0,0.0,0.0028179886285215616,-0.006923353299498558,-0.0007160622626543045,13357.0,14949.0,16062.0,13135.0,0.39736858010292053,0.5044591426849365,0.586848795413971,0.3834962546825409,0.0,0.0,0.0,0.0,0.0,0.0,0.0,0.0,1.8287523984909058,-0.012392915125171574,-0.15310888856921895,-0.08681421043522523,0.07475844770669937,-0.016448859125375748,0.0,-0.004913941491395235,-0.016701743006706238,0.0
333,5,-0.0007044794037938118,-0.0004905865644104779,0.0017871165182441473,-0.018951525911688805,0.003638556692749262,-0.04799538850784302,0.026654217392206192,0.004922317340970039,0.0019524898380041122,0.0,0.0,0.0,0.0,0.0,0.0,-0.004852610174566507,-0.016965998336672783,-0.0,0.0,0.0,0.0,0.0032843726221472025,0.0017716932343319058,6.957897130632773e-05,13376.0,14692.0,14615.0,14308.0,0.39860570430755615,0.48627108335494995,0.48092198371887207,0.4597941040992737,0.0,0.0,0.0,0.0,0.0,0.0,0.0,0.0,1.8287523984909058,-0.012392915125171574,-0.15310888856921895,-0.08681421043522523,0.07475844770669937,-0.016448859125375748,0.0,-0.004850910510867834,-0.01688433438539505,0.0
338,5,-0.0006449841894209385,-0.0004968417342752218,0.0017638722201809287,-0.018951525911688805,0.003638556692749262,-0.04799538850784302,0.026654217392206192,0.004922317340970039,0.0019524898380041122,0.0,0.0,0.0,0.0,0.0,0.0,-0.004825429059565067,-0.01700601540505886,-0.0,0.0,0.0,0.0,0.0032843726221472025,0.0017716932343319058,6.957897130632773e-05,13376.0,14692.0,14615.0,14308.0,0.39860570430755615,0.48627108335494995,0.48092198371887207,0.4597941040992737,0.0,0.0,0.0,0.0,0.0,0.0,0.0,0.0,1.8291946649551392,-0.012532268613535593,-0.14798822525518546,-0.08583791923575133,0.07495289295911789,-0.016360679641366005,0.0,-0.004850910510867834,-0.01688433438539505,0.0
343,5,-0.0006449841894209385,-0.0004968417342752218,0.0017638722201809287,-0.018951525911688805,0.003638556692749262,-0.04799538850784302,0.02123093605041504,0.0030185591895133257,0.0018081697635352612,0.0,0.0,0.0,0.0,0.0,0.0,-0.004825429059565067,-0.01700601540505886,-0.0,0.0,0.0,0.0,0.0019690832123160362,0.008654119446873665,-0.0006304929847829044,14476.0,13774.0,13418.0,15330.0,0.4713330566883087,0.42421016097068787,0.4012807309627533,0.5319284200668335,0.0,0.0,0.0,0.0,0.0,0.0,0.0,0.0,1.8291946649551392,-0.012532268613535593,-0.14798822525518546,-0.08583791923575133,0.07495289295911789,-0.016360679641366005,0.0,-0.004852610174566507,-0.016965998336672783,0.0
349,5,-0.0006324201240204275,-0.0004593809717334807,0.0017088986933231354,-0.006072924472391605,-0.003039867850020528,-0.012601340189576149,0.02123093605041504,0.0030185591895133257,0.0018081697635352612,0.0,0.0,0.0,0.0,0.0,0.0,-0.004825429059565067,-0.01700601540505886,-0.0,0.0,0.0,0.0,0.0019690832123160362,0.008654119446873665,-0.0006304929847829044,14476.0,13774.0,13418.0,15330.0,0.4713330566883087,0.42421016097068787,0.4012807309627533,0.5319284200668335,0.0,0.0,0.0,0.0,0.0,0.0,0.0,0.0,1.8291946649551392,-0.010609782143878178,-0.13752542237606033,-0.08890177003706998,0.07495289295911789,-0.016360679641366005,0.0,-0.004852610174566507,-0.016965998336672783,0.0
354,5,-0.0006324201240204275,-0.0004593809717334807,0.0017088986933231354,-0.006072924472391605,-0.003039867850020528,-0.012601340189576149,0.014399804174900055,-0.003847131971269846,0.0017285466892644763,0.0,0.0,0.0,0.0,0.0,0.0,0.0028089869301766157,-0.006410021800547838,-0.0,0.0,0.0,0.0,0.00044266582699492574,0.011711779981851578,-0.0022197533398866653,14318.0,14179.0,12741.0,15685.0,0.46046262979507446,0.4510984718799591,0.3593723475933075,0.5582611560821533,0.0,0.0,0.0,0.0,0.0,0.0,0.0,0.0,1.7004135847091675,-0.010609782143878178,-0.13752542237606033,-0.08890177003706998,0.026264024898409843,0.008853434585034847,0.0,-0.004825429059565067,-0.01700601540505886,0.0
359,5,-0.0006094178534112871,-0.000485588563606143,0.001485306303948164,0.0003311065083835274,0.001928964164108038,0.02179054729640484,0.014399804174900055,-0.003847131971269846,0.0017285466892644763,0.0,0.0,0.0,0.0,0.0,0.0,0.0028089869301766157,-0.006410021800547838,-0.0,0.0,0.0,0.0,0.00044266582699492574,0.011711779981851578,-0.0022197533398866653,14318.0,14179.0,12741.0,15685.0,0.46046262979507446,0.4510984718799591,0.3593723475933075,0.5582611560821533,0.0,0.0,0.0,0.0,0.0,0.0,0.0,0.0,1.7004135847091675,-0.016980959064572577,-0.1326133731831351,-0.08788981309762522,0.026264024898409843,0.008853434585034847,0.0,-0.004825429059565067,-0.01700601540505886,0.0
364,5,-0.0006094178534112871,-0.000485588563606143,0.001485306303948164,0.0003311065083835274,0.001928964164108038,0.02179054729640484,0.008270412683486938,-0.01603786088526249,0.001376388012431562,0.0,0.0,0.0,0.0,0.0,0.0,-0.003238987410441041,-0.000533305574208498,-0.0,0.0,0.0,0.0,0.001875275862403214,0.011282148770987988,0.0015240758657455444,14936.0,12230.0,13692.0,14143.0,0.5035359859466553,0.32931265234947205,0.4188845455646515,0.44868043065071106,0.0,0.0,0.0,0.0,0.0,0.0,0.0,0.0,1.6532446146011353,-0.016980959064572577,-0.1326133731831351,-0.08788981309762522,0.0021245297975838184,-0.009925526566803455,-0.0,0.0028089869301766157,-0.006410021800547838,0.0
369,5,-0.0006136593292467296,-0.0004542250535450876,0.001393915037624538,0.0003311065083835274,0.001928964164108038,0.02179054729640484,0.008270412683486938,-0.01603786088526249,0.001376388012431562,0.0,0.0,0.0,0.0,0.0,0.0,-0.003238987410441041,-0.000533305574208498,-0.0,0.0,0.0,0.0,0.001875275862403214,0.011282148770987988,0.0015240758657455444,14936.0,12230.0,13692.0,14143.0,0.5035359859466553,0.32931265234947205,0.4188845455646515,0.44868043065071106,0.0,0.0,0.0,0.0,0.0,0.0,0.0,0.0,1.6532446146011353,-0.021513186966474834,-0.1315651276396841,-0.08767239934123877,0.0021245297975838184,-0.009925526566803455,-0.0,0.0028089869301766157,-0.006410021800547838,0.0
374,5,-0.0006136593292467296,-0.0004542250535450876,0.001393915037624538,0.0003311065083835274,0.001928964164108038,0.02179054729640484,0.007114822044968605,-0.017936520278453827,0.0012404980370774865,0.0,0.0,0.0,0.0,0.0,0.0,-0.0031840549781918526,-0.0005398430512286723,-0.0,0.0,0.0,0.0,-0.0009808747563511133,0.008041055873036385,-0.0007850896799936891,13941.0,13423.0,12729.0,14279.0,0.4351757764816284,0.4015505313873291,0.3586611747741699,0.4578571319580078,0.0,0.0,0.0,0.0,0.0,0.0,0.0,0.0,1.6528080701828003,-0.021513186966474834,-0.1315651276396841,-0.08767239934123877,0.0021500056609511375,-0.009754616767168045,-0.0,-0.003238987410441041,-0.000533305574208498,0.0
379,5,-0.0005974819068796933,-0.0005589879001490772,0.001367594231851399,0.0003311065083835274,0.001928964164108038,0.02179054729640484,0.007114822044968605,-0.017936520278453827,0.0012404980370774865,0.0,0.0,0.0,0.0,0.0,0.0,-0.0031840549781918526,-0.0005398430512286723,-0.0,0.0,0.0,0.0,-0.0009808747563511133,0.008041055873036385,-0.0007850896799936891,13941.0,13423.0,12729.0,14279.0,0.4351757764816284,0.4015505313873291,0.3586611747741699,0.4578571319580078,0.0,0.0,0.0,0.0,0.0,0.0,0.0,0.0,1.6528080701828003,-0.025626919572304428,-0.13086426185383274,-0.08845120533885321,0.0021500056609511375,-0.009754616767168045,-0.0,-0.003238987410441041,-0.000533305574208498,0.0
384,5,-0.0005974819068796933,-0.0005589879001490772,0.001367594231851399,0.0003311065083835274,0.001928964164108038,0.02179054729640484,0.007114822044968605,-0.017936520278453827,0.0012404980370774865,0.0,0.0,0.0,0.0,0.0,0.0,-0.0033697562757879496,-0.0005175640690140426,-0.0,0.0,0.0,0.0,-0.0009808747563511133,0.008041055873036385,-0.0007850896799936891,13941.0,13423.0,12729.0,14279.0,0.4351757764816284,0.4015505313873291,0.3586611747741699,0.4578571319580078,0.0,0.0,0.0,0.0,0.0,0.0,0.0,0.0,1.6542881727218628,-0.025626919572304428,-0.13086426185383274,-0.08845120533885321,0.002063120948150754,-0.01033276878297329,-0.0,-0.003238987410441041,-0.000533305574208498,0.0
389,5,-0.0006523974589072168,-0.0004292286466807127,0.0014591305516660213,0.0003311065083835274,0.001928964164108038,0.02179054729640484,0.007099932990968227,-0.016629625111818314,0.0015725898556411266,0.0,0.0,0.0,0.0,0.0,0.0,-0.0033697562757879496,-0.0005175640690140426,-0.0,0.0,0.0,0.0,-0.0027117221616208553,0.0011053032940253615,0.0017626252956688404,14471.0,13084.0,14083.0,12701.0,0.4709409475326538,0.3802945017814636,0.44461703300476074,0.3569555878639221,0.0,0.0,0.0,0.0,0.0,0.0,0.0,0.0,1.6542881727218628,-0.02404702522954259,-0.13631632559043763,-0.08679764281923917,0.002063120948150754,-0.01033276878297329,-0.0,-0.0031840549781918526,-0.0005398430512286723,0.0
394,5,-0.0006523974589072168,-0.0004292286466807127,0.0014591305516660213,0.0003311065083835274,0.001928964164108038,0.02179054729640484,0.007099932990968227,-0.016629625111818314,0.0015725898556411266,0.0,0.0,0.0,0.0,0.0,0.0,-0.0031407249625772238,-0.0005945172160863876,-0.0,0.0,0.0,0.0,-0.0027117221616208553,0.0011053032940253615,0.0017626252956688404,14471.0,13084.0,14083.0,12701.0,0.4709409475326538,0.3802945017814636,0.44461703300476074,0.3569555878639221,0.0,0.0,0.0,0.0,0.0,0.0,0.0,0.0,1.6525888442993164,-0.02404702522954259,-0.13631632559043763,-0.08679764281923917,0.0023674399126321077,-0.00962059572339058,-0.0,-0.0031840549781918526,-0.0005398430512286723,0.0
399,5,-0.0007437755702994764,-0.00038291033706627786,0.001655837520956993,-0.010832935571670532,-0.004786610137671232,-0.014888618141412735,0.00819425843656063,-0.013453382067382336,0.001981689827516675,0.0,0.0,0.0,0.0,0.0,0.0,-0.0031407249625772238,-0.0005945172160863876,-0.0,0.0,0.0,0.0,-0.004691594745963812,-0.005104848649352789,0.0012505921768024564,13950.0,13884.0,14066.0,12476.0,0.4357820749282837,0.4314056634902954,0.44348931312561035,0.34361112117767334,0.0,0.0,0.0,0.0,0.0,0.0,0.0,0.0,1.6525888442993164,-0.016538182238727914,-0.14121904351833772,-0.08601525844362806,0.0023674399126321077,-0.00962059572339058,-0.0,-0.0033697562757879496,-0.0005175640690140426,0.0
404,5,-0.0007437755702994764,-0.00038291033706627786,0.001655837520956993,-0.010832935571670532,-0.004786610137671232,-0.014888618141412735,0.00819425843656063,-0.013453382067382336,0.001981689827516675,0.0,0.0,0.0,0.0,0.0,0.0,0.004868210759013891,-0.010592730715870857,-0.0,0.0,0.0,0.0,-0.004691594745963812,-0.005104848649352789,0.0012505921768024564,13950.0,13884.0,14066.0,12476.0,0.4357820749282837,0.4314056634902954,0.44348931312561035,0.34361112117767334,0.0,0.0,0.0,0.0,0.0,0.0,0.0,0.0,1.752781867980957,-0.016538182238727914,-0.14121904351833772,-0.08601525844362806,0.04473778232932091,0.01581621915102005,0.0,-0.0033697562757879496,-0.0005175640690140426,0.0
410,5,-0.0008023855625651777,-0.0004493346204981208,0.0017675143899396062,-0.010832935571670532,-0.004786610137671232,-0.014888618141412735,0.00981266237795353,-0.006953400559723377,0.00230445247143507,0.0,0.0,0.0,0.0,0.0,0.0,0.004868210759013891,-0.010592730715870857,-0.0,0.0,0.0,0.0,-0.00445885956287384,-0.009016744792461395,0.0012414006050676107,13788.0,14029.0,14511.0,11938.0,0.425127238035202,0.4410357177257538,0.4737182557582855,0.3127076327800751,0.0,0.0,0.0,0.0,0.0,0.0,0.0,0.0,1.752781867980957,-0.01803987865588175,-0.14611159376095545,-0.08680793432441707,0.04473778232932091,0.01581621915102005,0.0,-0.0033697562757879496,-0.0005175640690140426,0.0
415,5,-0.0008023855625651777,-0.0004493346204981208,0.0017675143899396062,-0.010832935571670532,-0.004786610137671232,-0.014888618141412735,0.00981266237795353,-0.006953400559723377,0.00230445247143507,0.0,0.0,0.0,0.0,0.0,0.0,0.004753943998366594,-0.01066672895103693,-0.0,0.0,0.0,0.0,-0.00445885956287384,-0.009016744792461395,0.0012414006050676107,13788.0,14029.0,14511.0,11938.0,0.425127238035202,0.4410357177257538,0.4737182557582855,0.3127076327800751,0.0,0.0,0.0,0.0,0.0,0.0,0.0,0.0,1.7532730102539062,-0.01803987865588175,-0.14611159376095545,-0.08680793432441707,0.045062944293022156,0.015449312515556812,0.0,-0.0033697562757879496,-0.0005175640690140426,0.0
420,5,-0.0008463826379738748,-0.0003764239954762161,0.0019214577041566372,-0.00961282104253769,-0.010663919150829315,-0.02442864328622818,0.011036899872124195,-0.002303370740264654,0.002925989916548133,0.0,0.0,0.0,0.0,0.0,0.0,0.004753943998366594,-0.01066672895103693,-0.0,0.0,0.0,0.0,-0.004747522063553333,-0.010009054094552994,0.0024534084368497133,14161.0,13647.0,14856.0,11508.0,0.44983863830566406,0.4159333109855652,0.49781543016433716,0.28900146484375,0.0,0.0,0.0,0.0,0.0,0.0,0.0,0.0,1.7532730102539062,-0.020673031405667563,-0.15144372047759222,-0.08720357833158424,0.045062944293022156,0.015449312515556812,0.0,-0.0031407249625772238,-0.0005945172160863876,0.0
425,5,-0.0008463826379738748,-0.0003764239954762161,0.0019214577041566372,-0.00961282104253769,-0.010663919150829315,-0.02442864328622818,0.011036899872124195,-0.002303370740264654,0.002925989916548133,0.0,0.0,0.0,0.0,0.0,0.0,0.011520938016474247,-0.009527763351798058,-0.0,0.0,0.0,0.0,-0.004747522063553333,-0.010009054094552994,0.0024534084368497133,14161.0,13647.0,14856.0,11508.0,0.44983863830566406,0.4159333109855652,0.49781543016433716,0.28900146484375,0.0,0.0,0.0,0.0,0.0,0.0,0.0,0.0,1.7743250131607056,-0.020673031405667563,-0.15144372047759222,-0.08720357833158424,0.04073246195912361,0.03788891062140465,0.0,-0.0031407249625772238,-0.0005945172160863876,0.0
430,5,-0.0009210387943312526,-0.0004117136122658849,0.001965485978871584,-0.012803868390619755,-3.0813469493296e-05,-0.015054862014949322,0.011981155723333359,0.002625686815008521,0.0032558985985815525,0.0,0.0,0.0,0.0,0.0,0.0,0.011520938016474247,-0.009527763351798058,-0.0,0.0,0.0,0.0,-0.0020285078790038824,-0.01045211125165224,0.0004205217701382935,13582.0,14645.0,14709.0,12932.0,0.41177859902381897,0.4830497205257416,0.48747190833091736,0.37097278237342834,0.0,0.0,0.0,0.0,0.0,0.0,0.0,0.0,1.7743250131607056,-0.01887524910331122,-0.1551826659205896,-0.08539839071810587,0.04073246195912361,0.03788891062140465,0.0,0.004868210759013891,-0.010592730715870857,0.0
435,5,-0.0009210387943312526,-0.0004117136122658849,0.001965485978871584,-0.012803868390619755,-3.0813469493296e-05,-0.015054862014949322,0.011981155723333359,0.002625686815008521,0.0032558985985815525,0.0,0.0,0.0,0.0,0.0,0.0,-0.0006655347533524036,-0.012468887493014336,-0.0,0.0,0.0,0.0,-0.0020285078790038824,-0.01045211125165224,0.0004205217701382935,13582.0,14645.0,14709.0,12932.0,0.41177859902381897,0.4830497205257416,0.48747190833091736,0.37097278237342834,0.0,0.0,0.0,0.0,0.0,0.0,0.0,0.0,1.7677884101867676,-0.01887524910331122,-0.1551826659205896,-0.08539839071810587,0.05311271920800209,-0.0021807681769132614,0.0,0.004868210759013891,-0.010592730715870857,0.0
440,5,-0.0010168937733396888,-0.00038180555566214025,0.0020320815965533257,-0.016624145209789276,-0.0036012923810631037,-0.014013397507369518,0.01251241099089384,0.004263096023350954,0.0034047437366098166,0.0,0.0,0.0,0.0,0.0,0.0,-0.0006655347533524036,-0.012468887493014336,-0.0,0.0,0.0,0.0,-0.002278292318806052,-0.007025671657174826,0.0009848159970715642,14023.0,14240.0,14623.0,13013.0,0.44066181778907776,0.45519301295280457,0.4814845025539398,0.3759336769580841,0.0,0.0,0.0,0.0,0.0,0.0,0.0,0.0,1.7677884101867676,-0.010223197938577823,-0.15567640091911397,-0.08407437599376627,0.05311271920800209,-0.0021807681769132614,0.0,0.004753943998366594,-0.01066672895103693,0.0
445,5,-0.0010168937733396888,-0.00038180555566214025,0.0020320815965533257,-0.016624145209789276,-0.0036012923810631037,-0.014013397507369518,0.01251241099089384,0.004263096023350954,0.0034047437366098166,0.0,0.0,0.0,0.0,0.0,0.0,0.00339147518388927,-0.015593845397233963,-0.0,0.0,0.0,0.0,-0.002278292318806052,-0.007025671657174826,0.0009848159970715642,14023.0,14240.0,14623.0,13013.0,0.44066181778907776,0.45519301295280457,0.4814845025539398,0.3759336769580841,0.0,0.0,0.0,0.0,0.0,0.0,0.0,0.0,1.8089609146118164,-0.010223197938577823,-0.15567640091911397,-0.08407437599376627,0.06796952337026596,0.01137168612331152,0.0,0.004753943998366594,-0.01066672895103693,0.0
450,5,-0.001053385785780847,-0.0004576202773023397,0.0019027522066608071,-0.016624145209789276,-0.0036012923810631037,-0.014013397507369518,0.013361071236431599,0.0038540579844266176,0.0034883369226008654,0.0,0.0,0.0,0.0,0.0,0.0,0.00339147518388927,-0.015593845397233963,-0.0,0.0,0.0,0.0,-0.001626372104510665,-0.0017318174941465259,0.00034656369825825095,14210.0,14136.0,14169.0,13748.0,0.4531845152378082,0.4482087790966034,0.4503909647464752,0.4225407540798187,0.0,0.0,0.0,0.0,0.0,0.0,0.0,0.0,1.8089609146118164,-0.02438716116116587,-0.15555005163735913,-0.08550828842438664,0.06796952337026596,0.01137168612331152,0.0,0.011520938016474247,-0.009527763351798058,0.0
456,5,-0.001053385785780847,-0.0004576202773023397,0.0019027522066608071,-0.016624145209789276,-0.0036012923810631037,-0.014013397507369518,0.013361071236431599,0.0038540579844266176,0.0034883369226008654,0.0,0.0,0.0,0.0,0.0,0.0,0.003266008570790291,-0.015637727454304695,-0.0,0.0,0.0,0.0,-0.001626372104510665,-0.0017318174941465259,0.00034656369825825095,14210.0,14136.0,14169.0,13748.0,0.4531845152378082,0.4482087790966034,0.4503909647464752,0.4225407540798187,0.0,0.0,0.0,0.0,0.0,0.0,0.0,0.0,1.8093087673187256,-0.02438716116116587,-0.15555005163735913,-0.08550828842438664,0.06817391514778137,0.010953103192150593,0.0,0.011520938016474247,-0.009527763351798058,0.0
461,5,-0.0010315614053979516,-0.00036743353120982647,0.0019075459567829967,-0.016624145209789276,-0.0036012923810631037,-0.014013397507369518,0.013892059214413166,0.0024535679258406162,0.0034759340342134237,0.0,0.0,0.0,0.0,0.0,0.0,0.003266008570790291,-0.015637727454304695,-0.0,0.0,0.0,0.0,-0.0038450078573077917,-7.762366294628009e-05,0.00022163584071677178,14435.0,14125.0,13932.0,13667.0,0.4685082733631134,0.44742271304130554,0.43458494544029236,0.4172724783420563,0.0,0.0,0.0,0.0,0.0,0.0,0.0,0.0,1.8093087673187256,-0.018265138997723245,-0.15047185960605708,-0.08676137846928807,0.06817391514778137,0.010953103192150593,0.0,-0.0006655347533524036,-0.012468887493014336,0.0
466,5,-0.0010295853717252612,-0.0004783416516147554,0.0017470314633101225,-0.006412545219063759,0.011868459172546864,0.013656377792358398,0.013892059214413166,0.0024535679258406162,0.0034759340342134237,0.0,0.0,0.0,0.0,0.0,0.0,0.0034137009643018246,-0.01561180129647255,-0.0,0.0,0.0,0.0,-0.0038450078573077917,-7.762366294628009e-05,0.00022163584071677178,14435.0,14125.0,13932.0,13667.0,0.4685082733631134,0.44742271304130554,0.43458494544029236,0.4172724783420563,0.0,0.0,0.0,0.0,0.0,0.0,0.0,0.0,1.809219241142273,-0.02501925131049478,-0.1477150230005758,-0.08558411537215314,0.06805749237537384,0.011447844095528126,0.0,-0.0006655347533524036,-0.012468887493014336,0.0
471,5,-0.0010295853717252612,-0.0004783416516147554,0.0017470314633101225,-0.006412545219063759,0.011868459172546864,0.013656377792358398,0.014686573296785355,-0.0013244759757071733,0.0038576654624193907,0.0,0.0,0.0,0.0,0.0,0.0,0.0034137009643018246,-0.01561180129647255,-0.0,0.0,0.0,0.0,-0.003437269013375044,0.0026035746559500694,0.0013085505925118923,15144.0,13655.0,14307.0,13623.0,0.5184016227722168,0.4164414703845978,0.4597371518611908,0.4143806993961334,0.0,0.0,0.0,0.0,0.0,0.0,0.0,0.0,1.809219241142273,-0.02501925131049478,-0.1477150230005758,-0.08558411537215314,0.06805749237537384,0.011447844095528126,0.0,0.00339147518388927,-0.015593845397233963,0.0
476,5,-0.0010295853717252612,-0.0004783416516147554,0.0017470314633101225,-0.006412545219063759,0.011868459172546864,0.013656377792358398,0.014686573296785355,-0.0013244759757071733,0.0038576654624193907,0.0,0.0,0.0,0.0,0.0,0.0,-0.01434169989079237,-0.006959018763154745,-0.0,0.0,0.0,0.0,-0.003437269013375044,0.0026035746559500694,0.0013085505925118923,15144.0,13655.0,14307.0,13623.0,0.5184016227722168,0.4164414703845978,0.4597371518611908,0.4143806993961334,0.0,0.0,0.0,0.0,0.0,0.0,0.0,0.0,1.7747344970703125,-0.02501925131049478,-0.1477150230005758,-0.08558411537215314,0.02975672483444214,-0.047175392508506775,-0.0,0.00339147518388927,-0.015593845397233963,0.0
481,5,-0.0010769402142614126,-0.0004202535783406347,0.0017653282266110182,-0.006412545219063759,0.011868459172546864,0.013656377792358398,0.015249690040946007,-0.004487418103963137,0.004351723473519087,0.0,0.0,0.0,0.0,0.0,0.0,-0.01434169989079237,-0.006959018763154745,-0.0,0.0,0.0,0.0,-0.003311560954898596,0.004563857335597277,0.001717320061288774,15236.0,13515.0,14277.0,13696.0,0.525109589099884,0.40742337703704834,0.4576769471168518,0.4190988540649414,0.0,0.0,0.0,0.0,0.0,0.0,0.0,0.0,1.7747344970703125,-0.021347952446022517,-0.1447017230826651,-0.08442691768762459,0.02975672483444214,-0.047175392508506775,-0.0,0.003266008570790291,-0.015637727454304695,0.0
486,5,-0.0010769402142614126,-0.0004202535783406347,0.0017653282266110182,-0.006412545219063759,0.011868459172546864,0.013656377792358398,0.015249690040946007,-0.004487418103963137,0.004351723473519087,0.0,0.0,0.0,0.0,0.0,0.0,-0.014247682876884937,-0.007022119592875242,-0.0,0.0,0.0,0.0,-0.003311560954898596,0.004563857335597277,0.001717320061288774,15236.0,13515.0,14277.0,13696.0,0.525109589099884,0.40742337703704834,0.4576769471168518,0.4190988540649414,0.0,0.0,0.0,0.0,0.0,0.0,0.0,0.0,1.7744015455245972,-0.021347952446022517,-0.1447017230826651,-0.08442691768762459,0.030020946636795998,-0.046857379376888275,-0.0,0.003266008570790291,-0.015637727454304695,0.0
491,5,-0.0011480143293738365,-0.00047221299610100687,0.0016378280706703663,-0.006412545219063759,0.011868459172546864,0.013656377792358398,0.01579931564629078,-0.007944830693304539,0.004973897710442543,0.0,0.0,0.0,0.0,0.0,0.0,-0.014247682876884937,-0.007022119592875242,-0.0,0.0,0.0,0.0,-0.007718180771917105,-0.000983834732323885,0.0007012293208390474,15085.0,13712.0,14463.0,13467.0,0.5141957402229309,0.4201880097389221,0.4704240560531616,0.4044114351272583,0.0,0.0,0.0,0.0,0.0,0.0,0.0,0.0,1.7744015455245972,-0.028852536887405297,-0.14516209816066614,-0.0855620104078877,0.030020946636795998,-0.046857379376888275,-0.0,-0.01434169989079237,-0.006959018763154745,0.0
