timestamp,dt,pos_x,pos_y,pos_z,vel_x,vel_y,vel_z,roll,pitch,yaw,agv_x,agv_y,agv_z,x_ref,y_ref,z_ref,roll_ref,pitch_ref,yaw_ref,x_vel_ref,y_vel_ref,z_vel_ref,x_torque,y_torque,z_torque,w0,w1,w2,w3,u0,u1,u2,u3,m0req,m1req,m2req,m3req,thrust0,thrust1,thrust2,thrust3,thrust_ref,roll_vicon,pitch_vicon,yaw_vicon,acc_x,acc_y,acc_z,roll_received,pitch_received,yaw_received
5,5,0.0,0.0,0.0,-0.03350836783647537,0.001437770202755928,0.00169303675647825,0.01757020689547062,-0.12438340485095978,-4.512337181949988e-05,0.0,0.0,0.0,0.0,0.0,0.0,-0.0014886914286762476,-0.0266917422413826,-0.0,0.0,0.0,0.0,-0.0037682782858610153,0.02793903648853302,0.00019826205971185118,1495.0,1495.0,1495.0,1495.0,0.0,0.0,0.0,0.0,0.0,0.0,0.0,0.0,0.0,0.0,0.0,0.0,1.953924536705017,0.02697386470350339,-0.04977977356054665,-0.05344288904908609,0.1256563812494278,-0.00539163826033473,0.0,-0.0014886914286762476,-0.0266917422413826,0.0
40,34,0.0,0.0,0.0,-0.02290675975382328,-0.0008216403657570481,-0.0018554253038018942,0.01757020689547062,-0.12438340485095978,-4.512337181949988e-05,0.0,0.0,0.0,0.0,0.0,0.0,-0.0014886914286762476,-0.0266917422413826,-0.0,0.0,0.0,0.0,-0.0037682782858610153,0.02793903648853302,0.00019826205971185118,1495.0,1495.0,1495.0,1495.0,0.0,0.0,0.0,0.0,0.0,0.0,0.0,0.0,0.0,0.0,0.0,0.0,1.953924536705017,0.024239740558858698,-0.051702853234324844,-0.05423761225356944,0.1256563812494278,-0.00539163826033473,0.0,-0.0014886914286762476,-0.0266917422413826,0.0
45,5,0.0,0.0,0.0,-0.019082650542259216,-0.001151924836449325,0.0015349537134170532,0.01757020689547062,-0.12438340485095978,-4.512337181949988e-05,0.0,0.0,0.0,0.0,0.0,0.0,0.0008970772032625973,-0.01923956535756588,-0.0,0.0,0.0,0.0,-0.0037682782858610153,0.02793903648853302,0.00019826205971185118,1495.0,1495.0,1495.0,1495.0,0.0,0.0,0.0,0.0,0.0,0.0,0.0,0.0,0.0,0.0,0.0,0.0,1.8529971837997437,0.023816237415517458,-0.052006279240755925,-0.054217038382331766,0.08590035140514374,0.003081151284277439,0.0,-0.0014886914286762476,-0.0266917422413826,0.0
50,5,0.0,0.0,0.0,-0.019082650542259216,-0.001151924836449325,0.0015349537134170532,0.017533086240291595,-0.12379789352416992,-1.3154132830095477e-05,0.0,0.0,0.0,0.0,0.0,0.0,0.0008970772032625973,-0.01923956535756588,-0.0,0.0,0.0,0.0,-0.003778682090342045,0.027595404535531998,0.00023749115644022822,1495.0,1495.0,1495.0,1495.0,0.0,0.0,0.0,0.0,0.0,0.0,0.0,0.0,0.0,0.0,0.0,0.0,1.8529971837997437,0.023816237415517458,-0.052006279240755925,-0.054217038382331766,0.08590035140514374,0.003081151284277439,0.0,-0.0014886914286762476,-0.0266917422413826,0.0
55,5,0.0,0.0,0.0,-0.017458854243159294,-0.0004035321471747011,-0.001647580647841096,0.017533086240291595,-0.12379789352416992,-1.3154132830095477e-05,0.0,0.0,0.0,0.0,0.0,0.0,0.001283191959373653,-0.01635242998600006,-0.0,0.0,0.0,0.0,-0.003778682090342045,0.027595404535531998,0.00023749115644022822,1495.0,1495.0,1495.0,1495.0,0.0,0.0,0.0,0.0,0.0,0.0,0.0,0.0,0.0,0.0,0.0,0.0,1.8161656856536865,0.023646258801756397,-0.05348509163171021,-0.05374920901446721,0.07155993580818176,0.004319718107581139,0.0,-0.0014886914286762476,-0.0266917422413826,0.0
60,5,0.0,0.0,0.0,-0.017458854243159294,-0.0004035321471747011,-0.001647580647841096,0.01750987209379673,-0.12279658764600754,5.9886235248995945e-05,0.0,0.0,0.0,0.0,0.0,0.0,0.0004535427433438599,-0.015094856731593609,-0.0,0.0,0.0,0.0,-0.003784372005611658,0.02721823938190937,7.774162804707885e-05,1495.0,1495.0,1495.0,1495.0,0.0,0.0,0.0,0.0,0.0,0.0,0.0,0.0,0.0,0.0,0.0,0.0,1.8000420331954956,0.023646258801756397,-0.05348509163171021,-0.05374920901446721,0.06547070294618607,0.001513245515525341,0.0,-0.0014886914286762476,-0.0266917422413826,0.0
70,11,-3.3835935028037056e-05,9.674587090557907e-06,-1.4953483514545951e-05,-0.017458854243159294,-0.0004035321471747011,-0.001647580647841096,0.01750987209379673,-0.12279658764600754,5.9886235248995945e-05,0.0,0.0,0.0,0.0,0.0,0.0,0.0004535427433438599,-0.015094856731593609,-0.0,0.0,0.0,0.0,-0.003784372005611658,0.02721823938190937,7.774162804707885e-05,1495.0,1495.0,1495.0,1495.0,0.0,0.0,0.0,0.0,0.0,0.0,0.0,0.0,0.0,0.0,0.0,0.0,1.8000420331954956,0.02424065516526446,-0.05368160777843789,-0.05462665717962802,0.06547070294618607,0.001513245515525341,0.0,-0.0014886914286762476,-0.0266917422413826,0.0
76,6,-9.644264355301857e-05,2.7421789127402008e-05,8.458478077955078e-06,-0.014496346935629845,-0.00229107728227973,-0.0034684676211327314,0.01750987209379673,-0.12279658764600754,5.9886235248995945e-05,0.0,0.0,0.0,0.0,0.0,0.0,0.00046937353909015656,-0.01513369008898735,-0.0,0.0,0.0,0.0,-0.003784372005611658,0.02721823938190937,7.774162804707885e-05,1495.0,1495.0,1495.0,1495.0,0.0,0.0,0.0,0.0,0.0,0.0,0.0,0.0,0.0,0.0,0.0,0.0,1.800530195236206,0.022085681371987107,-0.05455590274912336,-0.05471874676292047,0.06565692275762558,0.0015664896927773952,0.0,-0.0014886914286762476,-0.0266917422413826,0.0
81,5,-9.644264355301857e-05,2.7421789127402008e-05,8.458478077955078e-06,-0.014496346935629845,-0.00229107728227973,-0.0034684676211327314,0.01750987209379673,-0.12279658764600754,5.9886235248995945e-05,0.0,0.0,0.0,0.0,0.0,0.0,0.002658490091562271,-0.012840432114899158,-0.0,0.0,0.0,0.0,-0.0032594087533652782,0.029038215056061745,-0.00010478704643901438,16318.0,12549.0,11972.0,16022.0,0.6067017316818237,0.34789517521858215,0.31461963057518005,0.5837806463241577,0.0,0.0,0.0,0.0,0.0,0.0,0.0,0.0,1.7741588354110718,0.022085681371987107,-0.05455590274912336,-0.05471874676292047,0.05489218980073929,0.008742489852011204,0.0,0.0008970772032625973,-0.01923956535756588,0.0
88,7,-0.00011047990847146139,4.6135595766827464e-05,4.1962164686992764e-05,-0.014496346935629845,-0.00229107728227973,-0.0034684676211327314,0.01750987209379673,-0.12279658764600754,5.9886235248995945e-05,0.0,0.0,0.0,0.0,0.0,0.0,0.002658490091562271,-0.012840432114899158,-0.0,0.0,0.0,0.0,-0.0032594087533652782,0.029038215056061745,-0.00010478704643901438,16318.0,12549.0,11972.0,16022.0,0.6067017316818237,0.34789517521858215,0.31461963057518005,0.5837806463241577,0.0,0.0,0.0,0.0,0.0,0.0,0.0,0.0,1.7741588354110718,0.023704421903778503,-0.05424981293939207,-0.05453399255309596,0.05489218980073929,0.008742489852011204,0.0,0.0008970772032625973,-0.01923956535756588,0.0
93,5,-0.00011264329077675939,3.6590994568541646e-05,4.960992737323977e-05,-0.00605814391747117,0.00022892103879712522,-0.0023051181342452765,0.017449982464313507,-0.12096322327852249,-7.51529005356133e-05,0.0,0.0,0.0,0.0,0.0,0.0,0.002658490091562271,-0.012840432114899158,-0.0,0.0,0.0,0.0,-0.0034140609204769135,0.02989817224442959,-0.0005878483061678708,16267.0,12628.0,11900.0,16066.0,0.6026785373687744,0.3526352643966675,0.3105362057685852,0.5871471762657166,0.0,0.0,0.0,0.0,0.0,0.0,0.0,0.0,1.7741588354110718,0.023604434891301294,-0.05517418702742585,-0.0555665217206293,0.05489218980073929,0.008742489852011204,0.0,0.0004535427433438599,-0.015094856731593609,0.0
98,5,-0.00011264329077675939,3.6590994568541646e-05,4.960992737323977e-05,-0.00605814391747117,0.00022892103879712522,-0.0023051181342452765,0.017449982464313507,-0.12096322327852249,-7.51529005356133e-05,0.0,0.0,0.0,0.0,0.0,0.0,-0.0002098749828292057,-0.005735376849770546,-0.0,0.0,0.0,0.0,-0.0034140609204769135,0.02989817224442959,-0.0005878483061678708,16267.0,12628.0,11900.0,16066.0,0.6026785373687744,0.3526352643966675,0.3105362057685852,0.5871471762657166,0.0,0.0,0.0,0.0,0.0,0.0,0.0,0.0,1.6887296438217163,0.023604434891301294,-0.05517418702742585,-0.0555665217206293,0.023338427767157555,-0.0006569455144926906,0.0,0.0004535427433438599,-0.015094856731593609,0.0
103,5,-0.000139415540616028,7.595222268719226e-05,5.404190596891567e-05,-0.00605814391747117,0.00022892103879712522,-0.0023051181342452765,0.017568783834576607,-0.11917644739151001,-0.0005682994378730655,0.0,0.0,0.0,0.0,0.0,0.0,-0.0002098749828292057,-0.005735376849770546,-0.0,0.0,0.0,0.0,-0.003547007916495204,0.029819509014487267,-0.000690378830768168,16024.0,12532.0,11382.0,16070.0,0.583909809589386,0.346932977437973,0.2822456657886505,0.5874417424201965,0.0,0.0,0.0,0.0,0.0,0.0,0.0,0.0,1.6887296438217163,0.02182335901576451,-0.056868027955381074,-0.055426424911116504,0.023338427767157555,-0.0006569455144926906,0.0,0.00046937353909015656,-0.01513369008898735,0.0
112,8,-0.000139415540616028,7.595222268719226e-05,5.404190596891567e-05,-0.00605814391747117,0.00022892103879712522,-0.0023051181342452765,0.01755787618458271,-0.11858873069286346,-0.0007154449704103172,0.0,0.0,0.0,0.0,0.0,0.0,-0.00014059703971724957,-0.005770377814769745,-0.0,0.0,0.0,0.0,-0.003556848270818591,0.032669004052877426,-0.0004879694024566561,16036.0,12206.0,11392.0,15954.0,0.5848786234855652,0.32793188095092773,0.28276848793029785,0.5785799026489258,0.0,0.0,0.0,0.0,0.0,0.0,0.0,0.0,1.6891114711761475,0.02182335901576451,-0.056868027955381074,-0.055426424911116504,0.023486163467168808,-0.000440192932728678,0.0,-0.0002098749828292057,-0.005735376849770546,0.0
117,5,-0.00017471991304773837,0.00011495736544020474,6.393301737261936e-05,-0.00605814391747117,0.00022892103879712522,-0.0023051181342452765,0.01755787618458271,-0.11858873069286346,-0.0007154449704103172,0.0,0.0,0.0,0.0,0.0,0.0,-0.00014051202742848545,-0.005770493298768997,-0.0,0.0,0.0,0.0,-0.003556848270818591,0.032669004052877426,-0.0004879694024566561,16036.0,12206.0,11392.0,15954.0,0.5848786234855652,0.32793188095092773,0.28276848793029785,0.5785799026489258,0.0,0.0,0.0,0.0,0.0,0.0,0.0,0.0,1.6891127824783325,0.021175663787079406,-0.057537428949581575,-0.05487353507724832,0.023486651480197906,-0.0004399270983412862,0.0,-0.0002098749828292057,-0.005735376849770546,0.0
122,5,-0.00016122170200105757,0.00010612391633912921,5.269832763588056e-05,-0.00605814391747117,0.00022892103879712522,-0.0023051181342452765,0.017485016956925392,-0.11786746233701706,-0.0008845542906783521,0.0,0.0,0.0,0.0,0.0,0.0,-0.00014051202742848545,-0.005770493298768997,-0.0,0.0,0.0,0.0,-0.003546284744516015,0.03282996639609337,-0.0004497164045460522,15904.0,11712.0,10703.0,15797.0,0.5747378468513489,0.30010873079299927,0.24721193313598633,0.5666711330413818,0.0,0.0,0.0,0.0,0.0,0.0,0.0,0.0,1.6891127824783325,0.021882515391724748,-0.05749757864730395,-0.055390786285512215,0.023486651480197906,-0.0004399270983412862,0.0,-0.00014059703971724957,-0.005770377814769745,0.0
127,5,-0.00016122170200105757,0.00010612391633912921,5.269832763588056e-05,-0.00605814391747117,0.00022892103879712522,-0.0023051181342452765,0.017485016956925392,-0.11786746233701706,-0.0008845542906783521,0.0,0.0,0.0,0.0,0.0,0.0,-8.737469761399552e-05,-0.005799015052616596,-0.0,0.0,0.0,0.0,-0.003546284744516015,0.03282996639609337,-0.0004497164045460522,15904.0,11712.0,10703.0,15797.0,0.5747378468513489,0.30010873079299927,0.24721193313598633,0.5666711330413818,0.0,0.0,0.0,0.0,0.0,0.0,0.0,0.0,1.689428687095642,0.021882515391724748,-0.05749757864730395,-0.055390786285512215,0.023607149720191956,-0.0002736113383434713,0.0,-0.00014059703971724957,-0.005770377814769745,0.0
132,5,-0.00016509358829353005,0.00011257864389335737,6.337961531244218e-05,-0.00605814391747117,0.00022892103879712522,-0.0023051181342452765,0.017485016956925392,-0.11786746233701706,-0.0008845542906783521,0.0,0.0,0.0,0.0,0.0,0.0,-8.737469761399552e-05,-0.005799015052616596,-0.0,0.0,0.0,0.0,-0.003546284744516015,0.03282996639609337,-0.0004497164045460522,15916.0,11700.0,10692.0,15806.0,0.5756810903549194,0.2994460463523865,0.24665546417236328,0.5673288702964783,0.0,0.0,0.0,0.0,0.0,0.0,0.0,0.0,1.689428687095642,0.020985038890900694,-0.057987508127923845,-0.055091004507187895,0.023607149720191956,-0.0002736113383434713,0.0,-0.00014059703971724957,-0.005770377814769745,0.0
137,5,-0.00016509358829353005,0.00011257864389335737,6.337961531244218e-05,-0.00605814391747117,0.00022892103879712522,-0.0023051181342452765,0.017485016956925392,-0.11786746233701706,-0.0008845542906783521,0.0,0.0,0.0,0.0,0.0,0.0,-7.590944005642086e-05,-0.0058041904121637344,-0.0,0.0,0.0,0.0,-0.003546284744516015,0.03282996639609337,-0.0004497164045460522,15916.0,11700.0,10692.0,15806.0,0.5756810903549194,0.2994460463523865,0.24665546417236328,0.5673288702964783,0.0,0.0,0.0,0.0,0.0,0.0,0.0,0.0,1.6894861459732056,0.020985038890900694,-0.057987508127923845,-0.055091004507187895,0.023629022762179375,-0.00023771631822455674,0.0,-0.00014059703971724957,-0.005770377814769745,0.0
142,5,-0.00013784710608888417,0.00012119486927986145,4.673329021898098e-05,0.0008463194244541228,-0.0009423787705600262,0.0010755115654319525,0.017340639606118202,-0.11728672683238983,-0.0011034088674932718,0.0,0.0,0.0,0.0,0.0,0.0,-7.590944005642086e-05,-0.0058041904121637344,-0.0,0.0,0.0,0.0,-0.003494252683594823,0.03345867618918419,-0.0002495742810424417,16016.0,11554.0,10734.0,15783.0,0.5832880139350891,0.2914804220199585,0.24871712923049927,0.5656272768974304,0.0,0.0,0.0,0.0,0.0,0.0,0.0,0.0,1.6894861459732056,0.020711847415747737,-0.05737236089579439,-0.05528675549880875,0.023629022762179375,-0.00023771631822455674,0.0,-0.00014051202742848545,-0.005770493298768997,0.0
147,5,-0.00013784710608888417,0.00012119486927986145,4.673329021898098e-05,0.0008463194244541228,-0.0009423787705600262,0.0010755115654319525,0.017340639606118202,-0.11728672683238983,-0.0011034088674932718,0.0,0.0,0.0,0.0,0.0,0.0,-7.590944005642086e-05,-0.0058041904121637344,-0.0,0.0,0.0,0.0,-0.003494252683594823,0.03345867618918419,-0.0002495742810424417,16016.0,11554.0,10734.0,15783.0,0.5832880139350891,0.2914804220199585,0.24871712923049927,0.5656272768974304,0.0,0.0,0.0,0.0,0.0,0.0,0.0,0.0,1.6894861459732056,0.020711847415747737,-0.05737236089579439,-0.05528675549880875,0.023629022762179375,-0.00023771631822455674,0.0,-0.00014051202742848545,-0.005770493298768997,0.0
152,5,-0.00010197902156505734,0.00011146530596306548,8.70546282385476e-05,0.0008463194244541228,-0.0009423787705600262,0.0010755115654319525,0.017340639606118202,-0.11728672683238983,-0.0011034088674932718,0.0,0.0,0.0,0.0,0.0,0.0,0.0013833943521603942,0.0006107889930717647,-0.0,0.0,0.0,0.0,-0.003494252683594823,0.03345867618918419,-0.0002495742810424417,16016.0,11554.0,10734.0,15783.0,0.5832880139350891,0.2914804220199585,0.24871712923049927,0.5656272768974304,0.0,0.0,0.0,0.0,0.0,0.0,0.0,0.0,1.6388925313949585,0.02236631026145863,-0.05703386977056457,-0.055034430592757894,-0.002412087982520461,0.0042024715803563595,-0.0,-0.00014051202742848545,-0.005770493298768997,0.0
157,5,-0.00010197902156505734,0.00011146530596306548,8.70546282385476e-05,0.0008463194244541228,-0.0009423787705600262,0.0010755115654319525,0.017357248812913895,-0.11739037185907364,-0.001172569114714861,0.0,0.0,0.0,0.0,0.0,0.0,0.0013833943521603942,0.0006107889930717647,-0.0,0.0,0.0,0.0,-0.0035119892563670874,0.03472981974482536,-0.00018669466953724623,16170.0,11336.0,10715.0,15798.0,0.5951501727104187,0.2798069417476654,0.2478012591600418,0.5667277574539185,0.0,0.0,0.0,0.0,0.0,0.0,0.0,0.0,1.6388925313949585,0.02236631026145863,-0.05703386977056457,-0.055034430592757894,-0.002412087982520461,0.0042024715803563595,-0.0,-7.590944005642086e-05,-0.0058041904121637344,0.0
162,5,-4.289928619982675e-05,7.714342063991353e-05,7.902692595962435e-05,0.0008463194244541228,-0.0009423787705600262,0.0010755115654319525,0.017357248812913895,-0.11739037185907364,-0.001172569114714861,0.0,0.0,0.0,0.0,0.0,0.0,0.0013657809467986226,0.0006605914095416665,-0.0,0.0,0.0,0.0,-0.0035119892563670874,0.03472981974482536,-0.00018669466953724623,16170.0,11336.0,10715.0,15798.0,0.5951501727104187,0.2798069417476654,0.2478012591600418,0.5667277574539185,0.0,0.0,0.0,0.0,0.0,0.0,0.0,0.0,1.6390440464019775,0.02323363280461128,-0.056673055395427184,-0.05626604075734692,-0.0026090056635439396,0.004149348940700293,-0.0,-7.590944005642086e-05,-0.0058041904121637344,0.0
169,7,-4.289928619982675e-05,7.714342063991353e-05,7.902692595962435e-05,0.0008463194244541228,-0.0009423787705600262,0.0010755115654319525,0.01735122874379158,-0.11834881454706192,-0.0011522510321810842,0.0,0.0,0.0,0.0,0.0,0.0,0.001303675351664424,0.0007427927921526134,-0.0,0.0,0.0,0.0,-0.0031952636782079935,0.03716656565666199,-3.047997552130255e-06,16159.0,10800.0,10332.0,15756.0,0.5942947864532471,0.25203534960746765,0.22900669276714325,0.5635557174682617,0.0,0.0,0.0,0.0,0.0,0.0,0.0,0.0,1.6391187906265259,0.02323363280461128,-0.056673055395427184,-0.05626604075734692,-0.0029337939340621233,0.003960848320275545,-0.0,0.0013833943521603942,0.0006107889930717647,0.0
174,5,-2.9026312404312193e-05,0.00011122767318738624,7.113503670552745e-05,0.0008463194244541228,-0.0009423787705600262,0.0010755115654319525,0.01735122874379158,-0.11834881454706192,-0.0011522510321810842,0.0,0.0,0.0,0.0,0.0,0.0,0.001303675351664424,0.0007427927921526134,-0.0,0.0,0.0,0.0,-0.0031952636782079935,0.03716656565666199,-3.047997552130255e-06,16159.0,10800.0,10332.0,15756.0,0.5942947864532471,0.25203534960746765,0.22900669276714325,0.5635557174682617,0.0,0.0,0.0,0.0,0.0,0.0,0.0,0.0,1.6391187906265259,0.022715833146582532,-0.056651116433741516,-0.055678381106318627,-0.0029337939340621233,0.003960848320275545,-0.0,0.0013833943521603942,0.0006107889930717647,0.0
180,6,-2.9026312404312193e-05,0.00011122767318738624,7.113503670552745e-05,0.0008463194244541228,-0.0009423787705600262,0.0010755115654319525,0.01735122874379158,-0.11834881454706192,-0.0011522510321810842,0.0,0.0,0.0,0.0,0.0,0.0,0.001303675351664424,0.0007427927921526134,-0.0,0.0,0.0,0.0,-0.0034774914383888245,0.037084899842739105,-0.00012894322571810335,15950.0,11180.0,9950.0,15947.0,0.5782584547996521,0.27156779170036316,0.21099615097045898,0.5780701041221619,0.0,0.0,0.0,0.0,0.0,0.0,0.0,0.0,1.6391187906265259,0.022715833146582532,-0.056651116433741516,-0.055678381106318627,-0.003009993815794587,0.0041487012058496475,-0.0,0.0013833943521603942,0.0006107889930717647,0.0
186,5,-1.0445779480505735e-05,7.442624337272719e-05,-3.3430795156164095e-05,0.002568191848695278,0.004039219580590725,0.012978103943169117,0.017377326264977455,-0.1190810278058052,-0.0010460532503202558,0.0,0.0,0.0,0.0,0.0,0.0,0.0013650618493556976,0.0007618379895575345,-0.0,0.0,0.0,0.0,-0.0034774914383888245,0.037084899842739105,-0.00012894322571810335,15950.0,11180.0,9950.0,15947.0,0.5782584547996521,0.27156779170036316,0.21099615097045898,0.5780701041221619,0.0,0.0,0.0,0.0,0.0,0.0,0.0,0.0,1.6396512985229492,0.02208701949258826,-0.05735525991620842,-0.05512921630749114,-0.003009993815794587,0.0041487012058496475,-0.0,0.0013833943521603942,0.0006107889930717647,0.0
191,5,-1.0445779480505735e-05,7.442624337272719e-05,-3.3430795156164095e-05,0.002568191848695278,0.004039219580590725,0.012978103943169117,0.017377326264977455,-0.1190810278058052,-0.0010460532503202558,0.0,0.0,0.0,0.0,0.0,0.0,0.0013650618493556976,0.0007618379895575345,-0.0,0.0,0.0,0.0,-0.0034774914383888245,0.037084899842739105,-0.00012894322571810335,15950.0,11180.0,9950.0,15947.0,0.5782584547996521,0.27156779170036316,0.21099615097045898,0.5780701041221619,0.0,0.0,0.0,0.0,0.0,0.0,0.0,0.0,1.6396512985229492,0.02208701949258826,-0.05735525991620842,-0.05512921630749114,-0.003009993815794587,0.0041487012058496475,-0.0,0.0013833943521603942,0.0006107889930717647,0.0
196,5,5.4688378440914676e-05,0.00010161612590309232,2.2348780476022512e-05,0.008843375369906425,-0.0016470981063321233,-0.001502307248301804,0.017368551343679428,-0.11947669833898544,-0.0007144194096326828,0.0,0.0,0.0,0.0,0.0,0.0,-0.004750847350805998,0.0023733992129564285,-0.0,0.0,0.0,0.0,-0.0031618624925613403,0.037478554993867874,0.0013609384186565876,16355.0,10521.0,10621.0,15552.0,0.6095303297042847,0.23819774389266968,0.24310261011123657,0.548288106918335,0.0,0.0,0.0,0.0,0.0,0.0,0.0,0.0,1.6732350587844849,0.02300393676776792,-0.054580259079379606,-0.055224173525142924,-0.009569171816110611,-0.014734439551830292,0.0,0.001303675351664424,0.0007427927921526134,0.0
201,5,5.4688378440914676e-05,0.00010161612590309232,2.2348780476022512e-05,0.008843375369906425,-0.0016470981063321233,-0.001502307248301804,0.017368551343679428,-0.11947669833898544,-0.0007144194096326828,0.0,0.0,0.0,0.0,0.0,0.0,-0.004750847350805998,0.0023733992129564285,-0.0,0.0,0.0,0.0,-0.0031618624925613403,0.037478554993867874,0.0013609384186565876,16355.0,10521.0,10621.0,15552.0,0.6095303297042847,0.23819774389266968,0.24310261011123657,0.548288106918335,0.0,0.0,0.0,0.0,0.0,0.0,0.0,0.0,1.6732350587844849,0.02300393676776792,-0.054580259079379606,-0.055224173525142924,-0.009569171816110611,-0.014734439551830292,0.0,0.001303675351664424,0.0007427927921526134,0.0
210,9,-7.579266093671322e-05,0.00018525487394072115,8.242896001320332e-05,0.008843375369906425,-0.0016470981063321233,-0.001502307248301804,0.017408045008778572,-0.12010994553565979,-0.00015997039736248553,0.0,0.0,0.0,0.0,0.0,0.0,0.002116891322657466,0.008084908127784729,-0.0,0.0,0.0,0.0,-0.002794447122141719,0.037276871502399445,0.0010967759881168604,16515.0,10229.0,10871.0,15402.0,0.6221764087677002,0.22406886518001556,0.25565630197525024,0.5372172594070435,0.0,0.0,0.0,0.0,0.0,0.0,0.0,0.0,1.7175077199935913,0.022006156468673044,-0.05774680096746791,-0.05010045834614863,-0.03345954045653343,0.006739151198416948,0.0,0.0013650618493556976,0.0007618379895575345,0.0
215,5,-5.897381925024092e-05,0.00019966301624663174,0.0001249388005817309,0.008843375369906425,-0.0016470981063321233,-0.001502307248301804,0.01717936061322689,-0.12038630992174149,0.00015757403161842376,0.0,0.0,0.0,0.0,0.0,0.0,0.0022637236397713423,0.0079188859090209,-0.0,0.0,0.0,0.0,-0.002794447122141719,0.037276871502399445,0.0010967759881168604,16509.0,10185.0,10939.0,15396.0,0.6217106580734253,0.22199390828609467,0.2591254413127899,0.5368212461471558,0.0,0.0,0.0,0.0,0.0,0.0,0.0,0.0,1.71589195728302,0.021387986475634096,-0.05541618069333633,-0.050480124701463014,-0.03274162858724594,0.007199812680482864,0.0,0.0013650618493556976,0.0007618379895575345,0.0
220,5,-5.897381925024092e-05,0.00019966301624663174,0.0001249388005817309,0.008843375369906425,-0.0016470981063321233,-0.001502307248301804,0.01717936061322689,-0.12038630992174149,0.00015757403161842376,0.0,0.0,0.0,0.0,0.0,0.0,0.0022637236397713423,0.0079188859090209,-0.0,0.0,0.0,0.0,-0.002794447122141719,0.037276871502399445,0.0010967759881168604,16509.0,10185.0,10939.0,15396.0,0.6217106580734253,0.22199390828609467,0.2591254413127899,0.5368212461471558,0.0,0.0,0.0,0.0,0.0,0.0,0.0,0.0,1.71589195728302,0.021387986475634096,-0.05541618069333633,-0.050480124701463014,-0.03274162858724594,0.007199812680482864,0.0,0.0013650618493556976,0.0007618379895575345,0.0
231,11,-0.0001222718710778281,0.00027706133550964296,0.00016987997514661402,-0.004058415535837412,-0.009946637786924839,-0.00599386403337121,0.01689327508211136,-0.12071030586957932,0.0008750944398343563,0.0,0.0,0.0,0.0,0.0,0.0,0.0022884781938046217,0.007939888164401054,-0.0,0.0,0.0,0.0,-0.0038356399163603783,0.03752424940466881,0.0017787241376936436,17005.0,10303.0,11545.0,15382.0,0.6614996790885925,0.22761529684066772,0.29102444648742676,0.5357525944709778,0.0,0.0,0.0,0.0,0.0,0.0,0.0,0.0,1.7161775827407837,0.01570205390600848,-0.059411757892608746,-0.051064271588186536,-0.032833926379680634,0.0072797564789652824,0.0,0.0022637236397713423,0.0079188859090209,0.0
236,5,0.00011236163118155673,0.00018842289864551276,7.216251106001437e-05,-0.004058415535837412,-0.009946637786924839,-0.00599386403337121,0.017379403114318848,-0.12030081450939178,0.0011800308711826801,0.0,0.0,0.0,0.0,0.0,0.0,0.012051627971231937,-0.00379532971419394,-0.0,0.0,0.0,0.0,-0.0022903659846633673,0.03381648659706116,0.0007483348017558455,16306.0,11212.0,11308.0,15694.0,0.6056990027427673,0.2732400894165039,0.27831780910491943,0.558920681476593,0.0,0.0,0.0,0.0,0.0,0.0,0.0,0.0,1.7383161783218384,0.018121357771611998,-0.057101916730098075,-0.05470601860087042,0.015896357595920563,0.03882969170808792,0.0,0.0022884781938046217,0.007939888164401054,0.0
241,5,0.00011236163118155673,0.00018842289864551276,7.216251106001437e-05,-0.004058415535837412,-0.009946637786924839,-0.00599386403337121,0.017379403114318848,-0.12030081450939178,0.0011800308711826801,0.0,0.0,0.0,0.0,0.0,0.0,0.012051627971231937,-0.00379532971419394,-0.0,0.0,0.0,0.0,-0.0022903659846633673,0.03381648659706116,0.0007483348017558455,16306.0,11212.0,11308.0,15694.0,0.6056990027427673,0.2732400894165039,0.27831780910491943,0.558920681476593,0.0,0.0,0.0,0.0,0.0,0.0,0.0,0.0,1.7383161783218384,0.018121357771611998,-0.057101916730098075,-0.05470601860087042,0.015896357595920563,0.03882969170808792,0.0,0.0022884781938046217,0.007939888164401054,0.0
246,5,0.00011745161464205012,0.0002314443263458088,0.00026870984584093094,-0.004058415535837412,-0.009946637786924839,-0.00599386403337121,0.017168086022138596,-0.11446135491132736,0.0018506546039134264,0.0,0.0,0.0,0.0,0.0,0.0,0.011917341500520706,-0.003492051735520363,-0.0,0.0,0.0,0.0,-0.002558107953518629,0.02587282471358776,0.0021917573176324368,16066.0,11389.0,13291.0,14535.0,0.5871098041534424,0.28264158964157104,0.39320582151412964,0.4753590524196625,0.0,0.0,0.0,0.0,0.0,0.0,0.0,0.0,1.7358611822128296,0.019603084865236417,-0.05901685260215461,-0.054202747614971895,0.014605480246245861,0.03834283724427223,0.0,0.0022884781938046217,0.007939888164401054,0.0
255,9,-1.384140250593191e-05,0.00040746526792645454,0.0006505337078124285,-0.01737852767109871,-0.02510116994380951,-0.048216406255960464,0.017168086022138596,-0.11446135491132736,0.0018506546039134264,0.0,0.0,0.0,0.0,0.0,0.0,0.011987264268100262,-0.003484135726466775,-0.0,0.0,0.0,0.0,-0.002558107953518629,0.02587282471358776,0.0021917573176324368,16066.0,11389.0,13291.0,14535.0,0.5871098041534424,0.28264158964157104,0.39320582151412964,0.4753590524196625,0.0,0.0,0.0,0.0,0.0,0.0,0.0,0.0,1.7364227771759033,0.020146174608497876,-0.07158519633668176,-0.04835154467105999,0.014577073976397514,0.038580264896154404,0.0,0.0022884781938046217,0.007939888164401054,0.0
260,5,-1.384140250593191e-05,0.00040746526792645454,0.0006505337078124285,-0.01737852767109871,-0.02510116994380951,-0.048216406255960464,0.017168086022138596,-0.11446135491132736,0.0018506546039134264,0.0,0.0,0.0,0.0,0.0,0.0,0.02693774923682213,-0.014031005091965199,-0.0,0.0,0.0,0.0,-0.002558107953518629,0.02587282471358776,0.0021917573176324368,16066.0,11389.0,13291.0,14535.0,0.5871098041534424,0.28264158964157104,0.39320582151412964,0.4753590524196625,0.0,0.0,0.0,0.0,0.0,0.0,0.0,0.0,1.930675745010376,0.020146174608497876,-0.07158519633668176,-0.04835154467105999,0.06524965167045593,0.09637930244207382,0.0,0.0022884781938046217,0.007939888164401054,0.0
265,6,-0.00014453202311415225,0.00037189217982813716,0.0008027753210626543,-0.01737852767109871,-0.02510116994380951,-0.048216406255960464,0.017168086022138596,-0.11446135491132736,0.0018506546039134264,0.0,0.0,0.0,0.0,0.0,0.0,0.02693774923682213,-0.014031005091965199,-0.0,0.0,0.0,0.0,-0.002558107953518629,0.02587282471358776,0.0021917573176324368,16066.0,11389.0,13291.0,14535.0,0.5871098041534424,0.28264158964157104,0.39320582151412964,0.4753590524196625,0.0,0.0,0.0,0.0,0.0,0.0,0.0,0.0,1.930675745010376,0.01908225904555376,-0.09131764326202249,-0.045165131466995266,0.06524965167045593,0.09637930244207382,0.0,0.0022884781938046217,0.007939888164401054,0.0
271,5,-0.00014453202311415225,0.00037189217982813716,0.0008027753210626543,-0.01737852767109871,-0.02510116994380951,-0.048216406255960464,0.0164484940469265,-0.10452992469072342,0.0019401493482291698,0.0,0.0,0.0,0.0,0.0,0.0,0.02693774923682213,-0.014031005091965199,-0.0,0.0,0.0,0.0,-0.000991254230029881,0.0040798489935696125,0.0012084789341315627,14601.0,13349.0,13985.0,13723.0,0.4799816608428955,0.3968818187713623,0.4380872845649719,0.42091041803359985,0.0,0.0,0.0,0.0,0.0,0.0,0.0,0.0,1.930675745010376,0.01908225904555376,-0.09131764326202249,-0.045165131466995266,0.06596896052360535,0.09618495404720306,0.0,0.011917341500520706,-0.003492051735520363,0.0
276,5,-0.00017727786325849593,0.0004573714395519346,0.0011492273770272732,-0.0108809107914567,-0.020297976210713387,-0.060860805213451385,0.0164484940469265,-0.10452992469072342,0.0019401493482291698,0.0,0.0,0.0,0.0,0.0,0.0,0.026874857023358345,-0.014181159436702728,-0.0,0.0,0.0,0.0,-0.000991254230029881,0.0040798489935696125,0.0012084789341315627,14601.0,13349.0,13985.0,13723.0,0.4799816608428955,0.3968818187713623,0.4380872845649719,0.42091041803359985,0.0,0.0,0.0,0.0,0.0,0.0,0.0,0.0,1.931289553642273,0.021058974212839785,-0.09685979636490338,-0.04472999199797371,0.06596896052360535,0.09618495404720306,0.0,0.011917341500520706,-0.003492051735520363,0.0
281,5,-0.00017727786325849593,0.0004573714395519346,0.0011492273770272732,-0.0108809107914567,-0.020297976210713387,-0.060860805213451385,0.01608554646372795,-0.07897675782442093,0.00254669482819736,0.0,0.0,0.0,0.0,0.0,0.0,0.026874857023358345,-0.014181159436702728,-0.0,0.0,0.0,0.0,-0.000283893255982548,-0.0035249050706624985,0.0021096249110996723,14532.0,13346.0,14958.0,12742.0,0.4751766324043274,0.3966715335845947,0.5051084160804749,0.35946619510650635,0.0,0.0,0.0,0.0,0.0,0.0,0.0,0.0,1.931289553642273,0.021058974212839785,-0.09685979636490338,-0.04472999199797371,0.06596896052360535,0.09618495404720306,0.0,0.011987264268100262,-0.003484135726466775,0.0
286,5,-0.00025841870228759944,0.00041699231951497495,0.0013355591800063848,-0.0108809107914567,-0.020297976210713387,-0.060860805213451385,0.01608554646372795,-0.07897675782442093,0.00254669482819736,0.0,0.0,0.0,0.0,0.0,0.0,0.02280067838728428,-0.009319481439888477,-0.0,0.0,0.0,0.0,-0.000283893255982548,-0.0035249050706624985,0.0021096249110996723,14532.0,13346.0,14958.0,12742.0,0.4751766324043274,0.3966715335845947,0.5051084160804749,0.35946619510650635,0.0,0.0,0.0,0.0,0.0,0.0,0.0,0.0,1.8611509799957275,0.015876502838000055,-0.11536889384661132,-0.04490357187590534,0.04178361967206001,0.07864471524953842,0.0,0.011987264268100262,-0.003484135726466775,0.0
291,5,-0.00025841870228759944,0.00041699231951497495,0.0013355591800063848,-0.0108809107914567,-0.020297976210713387,-0.060860805213451385,0.016147783026099205,-0.06774722784757614,0.002905850764364004,0.0,0.0,0.0,0.0,0.0,0.0,0.02280067838728428,-0.009319481439888477,-0.0,0.0,0.0,0.0,0.0019151956075802445,-0.011575581505894661,0.0019901387859135866,14490.0,14547.0,16134.0,13236.0,0.47225233912467957,0.4762010872364044,0.5924171805381775,0.3898051083087921,0.0,0.0,0.0,0.0,0.0,0.0,0.0,0.0,1.8611509799957275,0.015876502838000055,-0.11536889384661132,-0.04490357187590534,0.04178361967206001,0.07864471524953842,0.0,0.02693774923682213,-0.014031005091965199,0.0
296,5,-0.00033282206277363,0.0004301435546949506,0.0014953531790524721,-0.013280767947435379,-0.009697336703538895,-0.04351959750056267,0.016147783026099205,-0.06774722784757614,0.002905850764364004,0.0,0.0,0.0,0.0,0.0,0.0,0.022736193612217903,-0.009419002570211887,-0.0,0.0,0.0,0.0,0.0019151956075802445,-0.011575581505894661,0.0019901387859135866,14490.0,14547.0,16134.0,13236.0,0.47225233912467957,0.4762010872364044,0.5924171805381775,0.3898051083087921,0.0,0.0,0.0,0.0,0.0,0.0,0.0,0.0,1.861191749572754,0.014988374386323841,-0.12424976837118601,-0.04450086668480298,0.042230796068906784,0.07842408865690231,0.0,0.02693774923682213,-0.014031005091965199,0.0
301,5,-0.00033282206277363,0.0004301435546949506,0.0014953531790524721,-0.013280767947435379,-0.009697336703538895,-0.04351959750056267,0.01627444662153721,-0.05304163694381714,0.003728700103238225,0.0,0.0,0.0,0.0,0.0,0.0,0.022736193612217903,-0.009419002570211887,-0.0,0.0,0.0,0.0,0.0014686158392578363,-0.009333542548120022,0.002693937160074711,14932.0,14171.0,16158.0,13131.0,0.5032615661621094,0.4505603313446045,0.5942375659942627,0.3832300007343292,0.0,0.0,0.0,0.0,0.0,0.0,0.0,0.0,1.861191749572754,0.014988374386323841,-0.12424976837118601,-0.04450086668480298,0.042230796068906784,0.07842408865690231,0.0,0.026874857023358345,-0.014181159436702728,0.0
306,5,-0.0003126563096884638,0.0005527112516574562,0.0026657648850232363,-0.0028924166690558195,-0.018587060272693634,-0.1578572392463684,0.01627444662153721,-0.05304163694381714,0.003728700103238225,0.0,0.0,0.0,0.0,0.0,0.0,0.022736193612217903,-0.009419002570211887,-0.0,0.0,0.0,0.0,0.0014686158392578363,-0.009333542548120022,0.002693937160074711,14932.0,14171.0,16158.0,13131.0,0.5032615661621094,0.4505603313446045,0.5942375659942627,0.3832300007343292,0.0,0.0,0.0,0.0,0.0,0.0,0.0,0.0,1.861191749572754,0.06305506184658012,-0.13112450243801987,-0.0363509515491204,0.042230796068906784,0.07842408865690231,0.0,0.026874857023358345,-0.014181159436702728,0.0
311,5,-0.0003126563096884638,0.0005527112516574562,0.0026657648850232363,-0.0028924166690558195,-0.018587060272693634,-0.1578572392463684,0.015972143039107323,-0.0461898110806942,0.004357116762548685,0.0,0.0,0.0,0.0,0.0,0.0,0.021547680720686913,-0.0028646814171224833,-0.0,0.0,0.0,0.0,0.0015583356143906713,-0.003066528355702758,0.0028871442191302776,15204.0,13329.0,15611.0,13241.0,0.5227521657943726,0.39561593532562256,0.552681028842926,0.3901018500328064,0.0,0.0,0.0,0.0,0.0,0.0,0.0,0.0,1.8218978643417358,0.06305506184658012,-0.13112450243801987,-0.0363509515491204,0.012573345564305782,0.07275654375553131,0.0,0.02280067838728428,-0.009319481439888477,0.0
316,5,-0.00045018375385552645,0.0005473934579640627,0.002469560829922557,-0.01766026020050049,-0.006796685513108969,-0.03959841653704643,0.015972143039107323,-0.0461898110806942,0.004357116762548685,0.0,0.0,0.0,0.0,0.0,0.0,0.008438113145530224,-0.015641283243894577,-0.0,0.0,0.0,0.0,0.0015583356143906713,-0.003066528355702758,0.0028871442191302776,15204.0,13329.0,15611.0,13241.0,0.5227521657943726,0.39561593532562256,0.552681028842926,0.3901018500328064,0.0,0.0,0.0,0.0,0.0,0.0,0.0,0.0,1.823196530342102,0.04629261005264867,-0.13880944676123394,-0.03292355677158197,0.06871073693037033,0.028515303507447243,0.0,0.02280067838728428,-0.009319481439888477,0.0
321,5,-0.0004544622206594795,0.0007234221557155252,0.0023868605494499207,-0.007577520329505205,-0.023842118680477142,-0.005915340036153793,0.016078738495707512,-0.04208365082740784,0.005382864270359278,0.0,0.0,0.0,0.0,0.0,0.0,0.008438113145530224,-0.015641283243894577,-0.0,0.0,0.0,0.0,0.0014619495486840606,0.006036998704075813,0.0030120727606117725,15797.0,12604.0,15094.0,13840.0,0.566683828830719,0.35118287801742554,0.5148078203201294,0.4285171926021576,0.0,0.0,0.0,0.0,0.0,0.0,0.0,0.0,1.823196530342102,0.04422554924736773,-0.1385891587466979,-0.032326926050269454,0.06871073693037033,0.028515303507447243,0.0,0.022736193612217903,-0.009419002570211887,0.0
327,5,-0.0004544622206594795,0.0007234221557155252,0.0023868605494499207,-0.007577520329505205,-0.023842118680477142,-0.005915340036153793,0.016078738495707512,-0.04208365082740784,0.005382864270359278,0.0,0.0,0.0,0.0,0.0,0.0,0.026737991720438004,-0.006810694932937622,-0.0,0.0,0.0,0.0,0.0014619495486840606,0.006036998704075813,0.0030120727606117725,15797.0,12604.0,15094.0,13840.0,0.566683828830719,0.35118287801742554,0.5148078203201294,0.4285171926021576,0.0,0.0,0.0,0.0,0.0,0.0,0.0,0.0,1.8850947618484497,0.04422554924736773,-0.1385891587466979,-0.032326926050269454,0.030925583094358444,0.09340637177228928,0.0,0.022736193612217903,-0.009419002570211887,0.0
332,5,-0.0004398304154165089,0.0008281260961666703,0.002366296947002411,-0.0012751917820423841,-0.022101324051618576,0.00010150933667318895,0.016140462830662727,-0.04288357496261597,0.006062321364879608,0.0,0.0,0.0,0.0,0.0,0.0,0.026737991720438004,-0.006810694932937622,-0.0,0.0,0.0,0.0,0.0011370761785656214,0.0163137074559927,0.002598928054794669,16154.0,11833.0,14149.0,14488.0,0.5939196348190308,0.3068176805973053,0.44904831051826477,0.4721122682094574,0.0,0.0,0.0,0.0,0.0,0.0,0.0,0.0,1.8850947618484497,0.051411648268426646,-0.13354438164076465,-0.03086230110827058,0.030925583094358444,0.09340637177228928,0.0,0.021547680720686913,-0.0028646814171224833,0.0
337,5,-0.0004398304154165089,0.0008281260961666703,0.002366296947002411,-0.0012751917820423841,-0.022101324051618576,0.00010150933667318895,0.01621158793568611,-0.04698512330651283,0.0072098709642887115,0.0,0.0,0.0,0.0,0.0,0.0,0.025401460006833076,-0.0016117076156660914,-0.0,0.0,0.0,0.0,-0.0016358994180336595,0.017220724374055862,0.0029960167594254017,16447.0,11869.0,14088.0,14202.0,0.6167565584182739,0.3088105618953705,0.444972962141037,0.45265641808509827,0.0,0.0,0.0,0.0,0.0,0.0,0.0,0.0,1.8578599691390991,0.051411648268426646,-0.13354438164076465,-0.03086230110827058,0.0072129154577851295,0.08745715767145157,-0.0,0.008438113145530224,-0.015641283243894577,0.0
342,5,-0.00038077644421719015,0.0008299123146571219,0.002289869822561741,-0.0012751917820423841,-0.022101324051618576,0.00010150933667318895,0.01621158793568611,-0.04698512330651283,0.0072098709642887115,0.0,0.0,0.0,0.0,0.0,0.0,0.025401460006833076,-0.0016117076156660914,-0.0,0.0,0.0,0.0,-0.0016358994180336595,0.017220724374055862,0.0029960167594254017,16447.0,11869.0,14088.0,14202.0,0.6167565584182739,0.3088105618953705,0.444972962141037,0.45265641808509827,0.0,0.0,0.0,0.0,0.0,0.0,0.0,0.0,1.8578599691390991,0.04361320434071846,-0.1285508999216838,-0.03090652472525842,0.0072129154577851295,0.08745715767145157,-0.0,0.008438113145530224,-0.015641283243894577,0.0
347,5,-0.00038077644421719015,0.0008299123146571219,0.002289869822561741,-0.0012751917820423841,-0.022101324051618576,0.00010150933667318895,0.016113994643092155,-0.0496731735765934,0.007864784449338913,0.0,0.0,0.0,0.0,0.0,0.0,0.025405624881386757,-0.001539458753541112,-0.0,0.0,0.0,0.0,0.002589511452242732,0.0197606198489666,0.0024965149350464344,16361.0,11881.0,14265.0,15008.0,0.6100685596466064,0.30948159098625183,0.45687100291252136,0.5086736679077148,0.0,0.0,0.0,0.0,0.0,0.0,0.0,0.0,1.8578259944915771,0.04361320434071846,-0.1285508999216838,-0.03090652472525842,0.006889451295137405,0.08746989071369171,-0.0,0.026737991720438004,-0.006810694932937622,0.0
352,5,-0.0003678609209600836,0.0008920528343878686,0.002223292365670204,0.0010397861478850245,-0.016297392547130585,0.008029880002140999,0.016113994643092155,-0.0496731735765934,0.007864784449338913,0.0,0.0,0.0,0.0,0.0,0.0,0.025405624881386757,-0.001539458753541112,-0.0,0.0,0.0,0.0,0.002589511452242732,0.0197606198489666,0.0024965149350464344,16361.0,11881.0,14265.0,15008.0,0.6100685596466064,0.30948159098625183,0.45687100291252136,0.5086736679077148,0.0,0.0,0.0,0.0,0.0,0.0,0.0,0.0,1.8578259944915771,0.04518698444595354,-0.12678267147226072,-0.029158937732778063,0.006889451295137405,0.08746989071369171,-0.0,0.026737991720438004,-0.006810694932937622,0.0
357,5,-0.0003678609209600836,0.0008920528343878686,0.002223292365670204,0.0010397861478850245,-0.016297392547130585,0.008029880002140999,0.01643800549209118,-0.052499692887067795,0.008817033842206001,0.0,0.0,0.0,0.0,0.0,0.0,0.01978013664484024,0.00042884561116807163,-0.0,0.0,0.0,0.0,0.0010733518283814192,0.019793234765529633,0.0026207321789115667,16363.0,11857.0,14119.0,14780.0,0.6101843118667603,0.30814212560653687,0.4470207095146179,0.4925128221511841,0.0,0.0,0.0,0.0,0.0,0.0,0.0,0.0,1.8017175197601318,0.04518698444595354,-0.12678267147226072,-0.029158937732778063,-0.0018614637665450573,0.06605003774166107,-0.0,0.025401460006833076,-0.0016117076156660914,0.0
362,5,-0.00029979192186146975,0.000994670088402927,0.0021843351423740387,0.0010397861478850245,-0.016297392547130585,0.008029880002140999,0.01643800549209118,-0.052499692887067795,0.008817033842206001,0.0,0.0,0.0,0.0,0.0,0.0,0.01978013664484024,0.00042884561116807163,-0.0,0.0,0.0,0.0,0.0010733518283814192,0.019793234765529633,0.0026207321789115667,16363.0,11857.0,14119.0,14780.0,0.6101843118667603,0.30814212560653687,0.4470207095146179,0.4925128221511841,0.0,0.0,0.0,0.0,0.0,0.0,0.0,0.0,1.8017175197601318,0.0446348113050686,-0.12994595033613937,-0.028011895926832744,-0.0018614637665450573,0.06605003774166107,-0.0,0.025401460006833076,-0.0016117076156660914,0.0
367,5,-0.00029979192186146975,0.000994670088402927,0.0021843351423740387,0.0010397861478850245,-0.016297392547130585,0.008029880002140999,0.01643800549209118,-0.052499692887067795,0.008817033842206001,0.0,0.0,0.0,0.0,0.0,0.0,0.01978013664484024,0.00042884561116807163,-0.0,0.0,0.0,0.0,0.0010733518283814192,0.019793234765529633,0.0026207321789115667,16363.0,11857.0,14119.0,14780.0,0.6101843118667603,0.30814212560653687,0.4470207095146179,0.4925128221511841,0.0,0.0,0.0,0.0,0.0,0.0,0.0,0.0,1.8017175197601318,0.0446348113050686,-0.12994595033613937,-0.028011895926832744,-0.0018614637665450573,0.06605003774166107,-0.0,0.025401460006833076,-0.0016117076156660914,0.0
372,5,-0.0002755975292529911,0.0009456459665670991,0.0020421280059963465,0.003319242037832737,-0.0006360657862387598,0.020276829600334167,0.016373161226511,-0.05244753137230873,0.009299912489950657,0.0,0.0,0.0,0.0,0.0,0.0,0.019933529198169708,0.0005144241731613874,-0.0,0.0,0.0,0.0,0.001897207461297512,0.014751357026398182,0.0024989054072648287,16007.0,12256.0,14431.0,14547.0,0.5826060175895691,0.330782026052475,0.4682064950466156,0.4762314260005951,0.0,0.0,0.0,0.0,0.0,0.0,0.0,0.0,1.8032276630401611,0.035882337513602605,-0.13301873992204538,-0.02932595462447072,-0.0022347939666360617,0.06661791354417801,-0.0,0.025405624881386757,-0.001539458753541112,0.0
377,5,-0.0002755975292529911,0.0009456459665670991,0.0020421280059963465,0.003319242037832737,-0.0006360657862387598,0.020276829600334167,0.016373161226511,-0.05244753137230873,0.009299912489950657,0.0,0.0,0.0,0.0,0.0,0.0,0.019933529198169708,0.0005144241731613874,-0.0,0.0,0.0,0.0,0.001897207461297512,0.014751357026398182,0.0024989054072648287,16007.0,12256.0,14431.0,14547.0,0.5826060175895691,0.330782026052475,0.4682064950466156,0.4762314260005951,0.0,0.0,0.0,0.0,0.0,0.0,0.0,0.0,1.8032276630401611,0.035882337513602605,-0.13301873992204538,-0.02932595462447072,-0.0022347939666360617,0.06661791354417801,-0.0,0.025405624881386757,-0.001539458753541112,0.0
383,5,-0.0002539989654906094,0.0009931460954248905,0.002040208550170064,0.003919525071978569,-0.005954439751803875,0.00834105908870697,0.01651396043598652,-0.04989536479115486,0.00995770562440157,0.0,0.0,0.0,0.0,0.0,0.0,0.002474386477842927,0.002725814003497362,-0.0,0.0,0.0,0.0,0.0016804401529952884,0.01049082726240158,0.002392697613686323,15699.0,12650.0,14672.0,14307.0,0.5593046545982361,0.35392528772354126,0.48487645387649536,0.4597195088863373,0.0,0.0,0.0,0.0,0.0,0.0,0.0,0.0,1.661773681640625,0.03315259938445476,-0.1355074890951522,-0.02956822865126467,-0.010914858430624008,0.0076216175220906734,-0.0,0.025405624881386757,-0.001539458753541112,0.0
388,5,-0.0002539989654906094,0.0009931460954248905,0.002040208550170064,0.003919525071978569,-0.005954439751803875,0.00834105908870697,0.01651396043598652,-0.04989536479115486,0.00995770562440157,0.0,0.0,0.0,0.0,0.0,0.0,0.002474386477842927,0.002725814003497362,-0.0,0.0,0.0,0.0,0.0016804401529952884,0.01049082726240158,0.002392697613686323,15699.0,12650.0,14672.0,14307.0,0.5593046545982361,0.35392528772354126,0.48487645387649536,0.4597195088863373,0.0,0.0,0.0,0.0,0.0,0.0,0.0,0.0,1.661773681640625,0.03315259938445476,-0.1355074890951522,-0.02956822865126467,-0.010914858430624008,0.0076216175220906734,-0.0,0.025405624881386757,-0.001539458753541112,0.0
393,5,-0.0003020944423042238,0.000915597309358418,0.001983992289751768,0.003919525071978569,-0.005954439751803875,0.00834105908870697,0.016401341184973717,-0.046902623027563095,0.010321423411369324,0.0,0.0,0.0,0.0,0.0,0.0,0.008786909282207489,0.0032263104803860188,-0.0,0.0,0.0,0.0,-0.0036643855273723602,0.005837447475641966,0.002860309323295951,15379.0,12783.0,14615.0,13784.0,0.5355210304260254,0.3618847131729126,0.48095041513442993,0.4248715043067932,0.0,0.0,0.0,0.0,0.0,0.0,0.0,0.0,1.7087656259536743,0.02758038737385192,-0.13894151388554313,-0.029317324915290176,-0.013283822685480118,0.027830246835947037,-0.0,0.002474386477842927,0.002725814003497362,0.0
398,5,-0.0003020944423042238,0.000915597309358418,0.001983992289751768,0.003919525071978569,-0.005954439751803875,0.00834105908870697,0.016401341184973717,-0.046902623027563095,0.010321423411369324,0.0,0.0,0.0,0.0,0.0,0.0,0.008786909282207489,0.0032263104803860188,-0.0,0.0,0.0,0.0,-0.0036643855273723602,0.005837447475641966,0.002860309323295951,15379.0,12783.0,14615.0,13784.0,0.5355210304260254,0.3618847131729126,0.48095041513442993,0.4248715043067932,0.0,0.0,0.0,0.0,0.0,0.0,0.0,0.0,1.7087656259536743,0.02758038737385192,-0.13894151388554313,-0.029317324915290176,-0.013283822685480118,0.027830246835947037,-0.0,0.002474386477842927,0.002725814003497362,0.0
403,5,-0.0002169411745853722,0.0009622087236493826,0.0021560569293797016,0.011786201037466526,-0.007975143380463123,-0.01731133833527565,0.01675853505730629,-0.041694678366184235,0.010941545478999615,0.0,0.0,0.0,0.0,0.0,0.0,0.008659958839416504,0.003164254827424884,-0.0,0.0,0.0,0.0,-0.0036643855273723602,0.005837447475641966,0.002860309323295951,15273.0,12345.0,14029.0,12701.0,0.5278227925300598,0.3359769582748413,0.4410068988800049,0.356967031955719,0.0,0.0,0.0,0.0,0.0,0.0,0.0,0.0,1.7074419260025024,0.027401790640852377,-0.14180402994852903,-0.029910372132570598,-0.013018240220844746,0.027406932786107063,-0.0,0.002474386477842927,0.002725814003497362,0.0
408,5,-0.0002169411745853722,0.0009622087236493826,0.0021560569293797016,0.011786201037466526,-0.007975143380463123,-0.01731133833527565,0.01675853505730629,-0.041694678366184235,0.010941545478999615,0.0,0.0,0.0,0.0,0.0,0.0,0.008659958839416504,0.003164254827424884,-0.0,0.0,0.0,0.0,-0.0036643855273723602,0.005837447475641966,0.002860309323295951,15273.0,12345.0,14029.0,12701.0,0.5278227925300598,0.3359769582748413,0.4410068988800049,0.356967031955719,0.0,0.0,0.0,0.0,0.0,0.0,0.0,0.0,1.7074419260025024,0.027401790640852377,-0.14180402994852903,-0.029910372132570598,-0.013018240220844746,0.027406932786107063,-0.0,0.002474386477842927,0.002725814003497362,0.0
413,5,-0.00032138137612491846,0.0009780614636838436,0.0022086540702730417,-0.007818344049155712,-0.005092388018965721,-0.013236204162240028,0.016816621646285057,-0.03843851760029793,0.011408813297748566,0.0,0.0,0.0,0.0,0.0,0.0,0.01071744691580534,0.010055458173155785,-0.0,0.0,0.0,0.0,-0.0014100776752457023,0.005498866084963083,0.003504867199808359,15212.0,12430.0,14474.0,12971.0,0.5233423113822937,0.3409115970134735,0.47115638852119446,0.37335529923439026,0.0,0.0,0.0,0.0,0.0,0.0,0.0,0.0,1.7742063999176025,0.02604313867908335,-0.14446331906135185,-0.027252565062678334,-0.042985860258340836,0.035244300961494446,0.0,0.008659958839416504,0.003164254827424884,0.0
418,5,-0.00032138137612491846,0.0009780614636838436,0.0022086540702730417,-0.007818344049155712,-0.005092388018965721,-0.013236204162240028,0.016816621646285057,-0.03843851760029793,0.011408813297748566,0.0,0.0,0.0,0.0,0.0,0.0,0.01071744691580534,0.010055458173155785,-0.0,0.0,0.0,0.0,-0.0014100776752457023,0.005498866084963083,0.003504867199808359,15212.0,12430.0,14474.0,12971.0,0.5233423113822937,0.3409115970134735,0.47115638852119446,0.37335529923439026,0.0,0.0,0.0,0.0,0.0,0.0,0.0,0.0,1.7742063999176025,0.02604313867908335,-0.14446331906135185,-0.027252565062678334,-0.042985860258340836,0.035244300961494446,0.0,0.008659958839416504,0.003164254827424884,0.0
424,5,-0.00021627834939863533,0.000982144963927567,0.0022350000217556953,0.009485026821494102,-0.0025269659236073494,-0.008455976843833923,0.016431894153356552,-0.034094084054231644,0.012308275327086449,0.0,0.0,0.0,0.0,0.0,0.0,0.0076389615423977375,-0.007453371305018663,-0.0,0.0,0.0,0.0,-0.0008832546300254762,0.007796457037329674,0.00312044913880527,15516.0,12095.0,14602.0,12755.0,0.545624852180481,0.3215686082839966,0.4800364375114441,0.3602120280265808,0.0,0.0,0.0,0.0,0.0,0.0,0.0,0.0,1.7320739030838013,0.025621645363681958,-0.14471801152017325,-0.029720320290611883,0.031106730923056602,0.02452458254992962,0.0,0.01071744691580534,0.010055458173155785,0.0
429,5,-0.00021627834939863533,0.000982144963927567,0.0022350000217556953,0.009485026821494102,-0.0025269659236073494,-0.008455976843833923,0.016431894153356552,-0.034094084054231644,0.012308275327086449,0.0,0.0,0.0,0.0,0.0,0.0,0.0076389615423977375,-0.007453371305018663,-0.0,0.0,0.0,0.0,-0.0008832546300254762,0.007796457037329674,0.00312044913880527,15516.0,12095.0,14602.0,12755.0,0.545624852180481,0.3215686082839966,0.4800364375114441,0.3602120280265808,0.0,0.0,0.0,0.0,0.0,0.0,0.0,0.0,1.7320739030838013,0.025621645363681958,-0.14471801152017325,-0.029720320290611883,0.031106730923056602,0.02452458254992962,0.0,0.01071744691580534,0.010055458173155785,0.0
434,5,-0.00028961789212189615,0.0009954784763976932,0.002262504305690527,0.009485026821494102,-0.0025269659236073494,-0.008455976843833923,0.016429660841822624,-0.028972215950489044,0.013583056628704071,0.0,0.0,0.0,0.0,0.0,0.0,0.004665807820856571,0.00825955905020237,-0.0,0.0,0.0,0.0,-0.002062484622001648,0.00286878552287817,0.0029230222571641207,15306.0,12659.0,14642.0,12827.0,0.5302218198776245,0.3544381260871887,0.4828125238418579,0.3646014332771301,0.0,0.0,0.0,0.0,0.0,0.0,0.0,0.0,1.7263606786727905,0.0196750650680659,-0.14875648698176488,-0.0295767792440152,-0.03435821831226349,0.014930146746337414,0.0,0.0076389615423977375,-0.007453371305018663,0.0
439,5,-0.00028961789212189615,0.0009954784763976932,0.002262504305690527,0.009485026821494102,-0.0025269659236073494,-0.008455976843833923,0.016429660841822624,-0.028972215950489044,0.013583056628704071,0.0,0.0,0.0,0.0,0.0,0.0,0.004665807820856571,0.00825955905020237,-0.0,0.0,0.0,0.0,-0.002062484622001648,0.00286878552287817,0.0029230222571641207,15306.0,12659.0,14642.0,12827.0,0.5302218198776245,0.3544381260871887,0.4828125238418579,0.3646014332771301,0.0,0.0,0.0,0.0,0.0,0.0,0.0,0.0,1.7263606786727905,0.0196750650680659,-0.14875648698176488,-0.0295767792440152,-0.03435821831226349,0.014930146746337414,0.0,0.0076389615423977375,-0.007453371305018663,0.0
444,5,7.424881187034771e-05,0.000339735415764153,0.002839486813172698,0.009485026821494102,-0.0025269659236073494,-0.008455976843833923,0.016429660841822624,-0.028972215950489044,0.013583056628704071,0.0,0.0,0.0,0.0,0.0,0.0,0.004692263435572386,0.008166609331965446,-0.0,0.0,0.0,0.0,-0.0021607987582683563,0.007850074209272861,0.00301266647875309,15523.0,12298.0,14293.0,13211.0,0.546149492263794,0.3332005739212036,0.45880359411239624,0.38820701837539673,0.0,0.0,0.0,0.0,0.0,0.0,0.0,0.0,1.7254596948623657,-0.021896018484159653,-0.16726199880565554,-0.015237180448665304,-0.03395383805036545,0.015006965026259422,0.0,0.004665807820856571,0.00825955905020237,0.0
449,5,7.424881187034771e-05,0.000339735415764153,0.002839486813172698,0.009485026821494102,-0.0025269659236073494,-0.008455976843833923,0.016429660841822624,-0.028972215950489044,0.013583056628704071,0.0,0.0,0.0,0.0,0.0,0.0,0.004692263435572386,0.008166609331965446,-0.0,0.0,0.0,0.0,-0.0021607987582683563,0.007850074209272861,0.00301266647875309,15523.0,12298.0,14293.0,13211.0,0.546149492263794,0.3332005739212036,0.45880359411239624,0.38820701837539673,0.0,0.0,0.0,0.0,0.0,0.0,0.0,0.0,1.7254596948623657,-0.021896018484159653,-0.16726199880565554,-0.015237180448665304,-0.03395383805036545,0.015006965026259422,0.0,0.004665807820856571,0.00825955905020237,0.0
454,5,6.129826215328649e-05,0.0002302183274878189,0.002406436251476407,0.009485026821494102,-0.0025269659236073494,-0.008455976843833923,0.016478711739182472,-0.02764442376792431,0.014147652313113213,0.0,0.0,0.0,0.0,0.0,0.0,0.0035616797395050526,0.008640067651867867,-0.0,0.0,0.0,0.0,-0.0019998785573989153,0.007507030386477709,0.0023874302860349417,15393.0,12442.0,14165.0,13353.0,0.5365948677062988,0.34160280227661133,0.45013946294784546,0.3971225619316101,0.0,0.0,0.0,0.0,0.0,0.0,0.0,0.0,1.7270417213439941,-0.006988347821114162,-0.1553009739223554,-0.022224175730394827,-0.035955365747213364,0.011401567608118057,0.0,0.004692263435572386,0.008166609331965446,0.0
459,5,6.129826215328649e-05,0.0002302183274878189,0.002406436251476407,0.009485026821494102,-0.0025269659236073494,-0.008455976843833923,0.016478711739182472,-0.02764442376792431,0.014147652313113213,0.0,0.0,0.0,0.0,0.0,0.0,0.003375040367245674,0.00862625241279602,-0.0,0.0,0.0,0.0,-0.0019998785573989153,0.007507030386477709,0.0023874302860349417,15393.0,12442.0,14165.0,13353.0,0.5365948677062988,0.34160280227661133,0.45013946294784546,0.3971225619316101,0.0,0.0,0.0,0.0,0.0,0.0,0.0,0.0,1.72639000415802,-0.006988347821114162,-0.1553009739223554,-0.022224175730394827,-0.035884350538253784,0.010800029151141644,0.0,0.004692263435572386,0.008166609331965446,0.0
464,5,0.00011056644871132448,0.0003002629382535815,0.0025235835928469896,0.009706192649900913,-0.009416140615940094,-0.017440082505345345,0.01598113216459751,-0.025651345029473305,0.014608945697546005,0.0,0.0,0.0,0.0,0.0,0.0,0.003375040367245674,0.00862625241279602,-0.0,0.0,0.0,0.0,-0.0030702606309205294,0.008801715448498726,0.002067773137241602,15372.0,12667.0,13884.0,13487.0,0.5350512862205505,0.3549639582633972,0.43139463663101196,0.4056318402290344,0.0,0.0,0.0,0.0,0.0,0.0,0.0,0.0,1.72639000415802,-0.014796267827491851,-0.1566443998889686,-0.020680411270878368,-0.035884350538253784,0.010800029151141644,0.0,0.0035616797395050526,0.008640067651867867,0.0
469,5,0.00011056644871132448,0.0003002629382535815,0.0025235835928469896,0.009706192649900913,-0.009416140615940094,-0.017440082505345345,0.01598113216459751,-0.025651345029473305,0.014608945697546005,0.0,0.0,0.0,0.0,0.0,0.0,0.003375040367245674,0.00862625241279602,-0.0,0.0,0.0,0.0,-0.0030702606309205294,0.008801715448498726,0.002067773137241602,15372.0,12667.0,13884.0,13487.0,0.5350512862205505,0.3549639582633972,0.43139463663101196,0.4056318402290344,0.0,0.0,0.0,0.0,0.0,0.0,0.0,0.0,1.72639000415802,-0.014796267827491851,-0.1566443998889686,-0.020680411270878368,-0.035884350538253784,0.010800029151141644,0.0,0.0035616797395050526,0.008640067651867867,0.0
474,5,0.00014762557111680508,0.00044291577069088817,0.0026641744188964367,0.009706192649900913,-0.009416140615940094,-0.017440082505345345,0.015883954241871834,-0.02340708114206791,0.015148656442761421,0.0,0.0,0.0,0.0,0.0,0.0,0.011312173679471016,0.00869362149387598,-0.0,0.0,0.0,0.0,-0.0020885015837848186,0.008037349209189415,0.002158890478312969,15268.0,12625.0,14009.0,13506.0,0.5274019241333008,0.35246366262435913,0.4396700859069824,0.4068543314933777,0.0,0.0,0.0,0.0,0.0,0.0,0.0,0.0,1.7656605243682861,0.0012048185903161094,-0.15265275311447807,-0.01941224200266469,-0.03698508441448212,0.0370207317173481,0.0,0.003375040367245674,0.00862625241279602,0.0
480,5,0.00014762557111680508,0.00044291577069088817,0.0026641744188964367,0.009706192649900913,-0.009416140615940094,-0.017440082505345345,0.015883954241871834,-0.02340708114206791,0.015148656442761421,0.0,0.0,0.0,0.0,0.0,0.0,0.011312173679471016,0.00869362149387598,-0.0,0.0,0.0,0.0,-0.0020885015837848186,0.008037349209189415,0.002158890478312969,15268.0,12625.0,14009.0,13506.0,0.5274019241333008,0.35246366262435913,0.4396700859069824,0.4068543314933777,0.0,0.0,0.0,0.0,0.0,0.0,0.0,0.0,1.7656605243682861,0.0012048185903161094,-0.15265275311447807,-0.01941224200266469,-0.03718942776322365,0.03780687227845192,0.0,0.003375040367245674,0.00862625241279602,0.0
485,5,0.00016570948355365545,0.0002642763720359653,0.002571254037320614,0.009706192649900913,-0.009416140615940094,-0.017440082505345345,0.015883954241871834,-0.02340708114206791,0.015148656442761421,0.0,0.0,0.0,0.0,0.0,0.0,0.011540337465703487,0.00873254518955946,-0.0,0.0,0.0,0.0,-0.0020885015837848186,0.008037349209189415,0.002158890478312969,15268.0,12625.0,14009.0,13506.0,0.5274019241333008,0.35246366262435913,0.4396700859069824,0.4068543314933777,0.0,0.0,0.0,0.0,0.0,0.0,0.0,0.0,1.7675071954727173,-0.010137600672794806,-0.15331098046392186,-0.02157213197627958,-0.03718942776322365,0.03780687227845192,0.0,0.003375040367245674,0.00862625241279602,0.0
490,5,0.00016570948355365545,0.0002642763720359653,0.002571254037320614,0.009706192649900913,-0.009416140615940094,-0.017440082505345345,0.01581779681146145,-0.022365283221006393,0.01524975523352623,0.0,0.0,0.0,0.0,0.0,0.0,0.011540337465703487,0.00873254518955946,-0.0,0.0,0.0,0.0,-0.0012285193661227822,0.007379735354334116,0.001956963911652565,15233.0,12892.0,14130.0,13779.0,0.5248844623565674,0.3685007393360138,0.44775667786598206,0.4245186746120453,0.0,0.0,0.0,0.0,0.0,0.0,0.0,0.0,1.7675071954727173,-0.010137600672794806,-0.15331098046392186,-0.02157213197627958,-0.03718942776322365,0.03780687227845192,0.0,0.011312173679471016,0.00869362149387598,0.0
495,5,0.0001896063913591206,0.00032220518914982677,0.002560231601819396,0.006750104948878288,-0.010717914439737797,-0.005653359927237034,0.01581779681146145,-0.022365283221006393,0.01524975523352623,0.0,0.0,0.0,0.0,0.0,0.0,0.011251142248511314,0.008764149621129036,-0.0,0.0,0.0,0.0,-0.0012285193661227822,0.007379735354334116,0.001956963911652565,15233.0,12892.0,14130.0,13779.0,0.5248844623565674,0.3685007393360138,0.44775667786598206,0.4245186746120453,0.0,0.0,0.0,0.0,0.0,0.0,0.0,0.0,1.7658652067184448,-0.016397600632124396,-0.15826316479691044,-0.020856549259671016,-0.037289466708898544,0.036825280636548996,0.0,0.011312173679471016,0.00869362149387598,0.0
500,5,0.0001896063913591206,0.00032220518914982677,0.002560231601819396,0.006750104948878288,-0.010717914439737797,-0.005653359927237034,0.01581779681146145,-0.022365283221006393,0.01524975523352623,0.0,0.0,0.0,0.0,0.0,0.0,0.011251142248511314,0.008764149621129036,-0.0,0.0,0.0,0.0,-0.000625577406026423,0.0063263666816055775,0.001544900587759912,15063.0,13008.0,14141.0,13846.0,0.5126339197158813,0.375593900680542,0.4485388398170471,0.4288938641548157,0.0,0.0,0.0,0.0,0.0,0.0,0.0,0.0,1.7658652067184448,-0.016397600632124396,-0.15826316479691044,-0.020856549259671016,-0.037289466708898544,0.036825280636548996,0.0,0.011312173679471016,0.00869362149387598,0.0
505,5,0.00013044769002590328,0.00045080456766299903,0.002636556513607502,0.006750104948878288,-0.010717914439737797,-0.005653359927237034,0.01581779681146145,-0.022365283221006393,0.01524975523352623,0.0,0.0,0.0,0.0,0.0,0.0,0.012894353829324245,0.006215870846062899,-0.0,0.0,0.0,0.0,-0.000625577406026423,0.0063263666816055775,0.001544900587759912,15063.0,13008.0,14141.0,13846.0,0.5126339197158813,0.375593900680542,0.4485388398170471,0.4288938641548157,0.0,0.0,0.0,0.0,0.0,0.0,0.0,0.0,1.758485198020935,-0.014942775951760063,-0.16354995338303643,-0.017951725225218696,-0.02633623592555523,0.042026668787002563,0.0,0.011312173679471016,0.00869362149387598,0.0
510,5,0.00013044769002590328,0.00045080456766299903,0.002636556513607502,0.006750104948878288,-0.010717914439737797,-0.005653359927237034,0.015705160796642303,-0.019228583201766014,0.015259858220815659,0.0,0.0,0.0,0.0,0.0,0.0,0.012894353829324245,0.006215870846062899,-0.0,0.0,0.0,0.0,-0.0009997767629101872,0.006105019710958004,0.0016375433187931776,15097.0,13025.0,14173.0,13763.0,0.5150554180145264,0.3766806721687317,0.450644850730896,0.42348426580429077,0.0,0.0,0.0,0.0,0.0,0.0,0.0,0.0,1.758485198020935,-0.014942775951760063,-0.16354995338303643,-0.017951725225218696,-0.02633623592555523,0.042026668787002563,0.0,0.011540337465703487,0.00873254518955946,0.0
515,5,0.0002144078753190115,0.00030208216048777103,0.0024533565156161785,0.012775263749063015,0.013559522107243538,0.019722672179341316,0.015705160796642303,-0.019228583201766014,0.015259858220815659,0.0,0.0,0.0,0.0,0.0,0.0,0.013103371486067772,0.006135222502052784,-0.0,0.0,0.0,0.0,-0.0009997767629101872,0.006105019710958004,0.0016375433187931776,15097.0,13025.0,14173.0,13763.0,0.5150554180145264,0.3766806721687317,0.450644850730896,0.42348426580429077,0.0,0.0,0.0,0.0,0.0,0.0,0.0,0.0,1.7596253156661987,-0.017597870267185296,-0.16146207666159929,-0.022372149339302497,-0.02601131983101368,0.042735543102025986,0.0,0.011540337465703487,0.00873254518955946,0.0
