timestamp,dt,pos_x,pos_y,pos_z,vel_x,vel_y,vel_z,roll,pitch,yaw,agv_x,agv_y,agv_z,x_ref,y_ref,z_ref,roll_ref,pitch_ref,yaw_ref,x_vel_ref,y_vel_ref,z_vel_ref,x_torque,y_torque,z_torque,w0,w1,w2,w3,u0,u1,u2,u3,m0req,m1req,m2req,m3req,thrust0,thrust1,thrust2,thrust3,thrust_ref,roll_vicon,pitch_vicon,yaw_vicon,acc_x,acc_y,acc_z,roll_received,pitch_received,yaw_received
5,5,0.0,0.0,0.0,0.0010860816109925508,-0.0005085440934635699,0.004960883408784866,-0.051687199622392654,0.20631560683250427,0.0104806674644351,0.0,0.0,0.0,0.0,0.0,0.0,0.0006279051303863525,0.0010315364925190806,-0.0,0.0,0.0,0.0,0.041768547147512436,-0.061571042984724045,0.0010078453924506903,1495.0,1495.0,1495.0,1495.0,0.0,0.0,0.0,0.0,0.0,0.0,0.0,0.0,0.0,0.0,0.0,0.0,1.6385412216186523,-0.06228544956678128,-0.06918133721223542,0.07834127541919318,-0.004072805866599083,0.0019070403650403023,0.0,0.0006277944194152951,0.001031354651786387,0.0
28,23,0.0,0.0,0.0,0.001966648269444704,-0.0010505232494324446,-0.003432465484365821,-0.051687199622392654,0.20631560683250427,0.0104806674644351,0.0,0.0,0.0,0.0,0.0,0.0,0.0006279051303863525,0.0010315364925190806,-0.0,0.0,0.0,0.0,0.041768547147512436,-0.061571042984724045,0.0010078453924506903,1495.0,1495.0,1495.0,1495.0,0.0,0.0,0.0,0.0,0.0,0.0,0.0,0.0,0.0,0.0,0.0,0.0,1.6385412216186523,-0.05952315492077744,-0.06358402252667673,0.079109272379172,-0.004072805866599083,0.0019070403650403023,0.0,0.0006277944194152951,0.001031354651786387,0.0
33,5,0.0,0.0,0.0,0.0006214055465534329,-0.00023813011648599058,-0.005131029058247805,-0.051687199622392654,0.20631560683250427,0.0104806674644351,0.0,0.0,0.0,0.0,0.0,0.0,0.00029398503829725087,0.0005901232361793518,-0.0,0.0,0.0,0.0,0.041856858879327774,-0.06159917637705803,0.0010917256586253643,1495.0,1495.0,1495.0,1495.0,0.0,0.0,0.0,0.0,0.0,0.0,0.0,0.0,0.0,0.0,0.0,0.0,1.6387466192245483,-0.05910048794542938,-0.06349145122215027,0.07902014409767698,-0.002330270828679204,0.0008929879404604435,0.0,0.0006279051303863525,0.0010315364925190806,0.0
49,15,0.0,0.0,0.0,-0.0034703961573541164,-0.0017762394854798913,-0.007250216789543629,-0.05169657990336418,0.20630763471126556,0.010490616783499718,0.0,0.0,0.0,0.0,0.0,0.0,0.0021579128224402666,-0.003243166720494628,-0.0,0.0,0.0,0.0,0.041856858879327774,-0.06159917637705803,0.0010917256586253643,1495.0,1495.0,1495.0,1495.0,0.0,0.0,0.0,0.0,0.0,0.0,0.0,0.0,0.0,0.0,0.0,0.0,1.6652940511703491,-0.06037409401438721,-0.06289202969472135,0.07769218828133306,0.013013985939323902,0.006660898216068745,0.0,0.0006279051303863525,0.0010315364925190806,0.0
57,8,0.0,0.0,0.0,0.002484399126842618,-0.0036048791371285915,0.006149617955088615,-0.05169657990336418,0.20630763471126556,0.010490616783499718,0.0,0.0,0.0,0.0,0.0,0.0,0.0021579128224402666,-0.003243166720494628,-0.0,0.0,0.0,0.0,0.041856858879327774,-0.06159917637705803,0.0010917256586253643,1495.0,1495.0,1495.0,1495.0,0.0,0.0,0.0,0.0,0.0,0.0,0.0,0.0,0.0,0.0,0.0,0.0,1.6652940511703491,-0.062188167108426125,-0.0650101013381129,0.07740661947832475,0.013013985939323902,0.006660898216068745,0.0,0.0006279051303863525,0.0010315364925190806,0.0
62,5,0.0,0.0,0.0,0.00029895006446167827,0.0036803109105676413,0.006814269348978996,-0.05171436071395874,0.20634430646896362,0.010484711267054081,0.0,0.0,0.0,0.0,0.0,0.0,0.004366802517324686,0.002315009944140911,-0.0,0.0,0.0,0.0,0.041807666420936584,-0.06156349554657936,0.0010243053548038006,1495.0,1495.0,1495.0,1495.0,0.0,0.0,0.0,0.0,0.0,0.0,0.0,0.0,0.0,0.0,0.0,0.0,1.6701382398605347,-0.06137954441766589,-0.06680215388028382,0.07841230149989653,-0.009316496551036835,0.013518297113478184,0.0,0.0006279051303863525,0.0010315364925190806,0.0
69,7,0.0,0.0,0.0,-4.1965591663029045e-05,0.0005068652098998427,-0.006766870617866516,-0.05171436071395874,0.20634430646896362,0.010484711267054081,0.0,0.0,0.0,0.0,0.0,0.0,0.004366802517324686,0.002315009944140911,-0.0,0.0,0.0,0.0,0.041807666420936584,-0.06156349554657936,0.0010243053548038006,1495.0,1495.0,1495.0,1495.0,0.0,0.0,0.0,0.0,0.0,0.0,0.0,0.0,0.0,0.0,0.0,0.0,1.6701382398605347,-0.06149868750696972,-0.06575550253870248,0.07855084115862249,-0.009316496551036835,0.013518297113478184,0.0,0.0006279051303863525,0.0010315364925190806,0.0
74,5,-2.3140793928178027e-05,2.101225072692614e-05,4.9357113311998546e-05,-0.002793681574985385,-0.0023187240585684776,-0.008629602380096912,-0.05172199755907059,0.20634590089321136,0.010476051829755306,0.0,0.0,0.0,0.0,0.0,0.0,-0.0006257913773879409,-3.9855396607890725e-05,-0.0,0.0,0.0,0.0,0.041988223791122437,-0.06165414676070213,0.0010510095162317157,1495.0,14636.0,19679.0,11422.0,-0.025591552257537842,0.4823787212371826,0.8975510597229004,0.28440842032432556,0.0,0.0,0.0,0.0,0.0,0.0,0.0,0.0,1.6386479139328003,-0.06129954472509163,-0.06511184132389754,0.0781599897080047,0.00015737097419332713,-0.0019007445080205798,0.0,0.00029398503829725087,0.0005901232361793518,0.0
79,5,-3.969225872424431e-05,2.14602750929771e-05,0.0001251459470950067,-0.0031036483123898506,-0.0009812526404857635,-0.012546501122415066,-0.05172199755907059,0.20634590089321136,0.010476051829755306,0.0,0.0,0.0,0.0,0.0,0.0,-0.0006257913773879409,-3.9855396607890725e-05,-0.0,0.0,0.0,0.0,0.041988223791122437,-0.06165414676070213,0.0010510095162317157,1495.0,14636.0,19679.0,11422.0,-0.025591552257537842,0.4823787212371826,0.8975510597229004,0.28440842032432556,0.0,0.0,0.0,0.0,0.0,0.0,0.0,0.0,1.6386479139328003,-0.05920970474487018,-0.06259069734955519,0.07841268161617558,0.00015737097419332713,-0.0019007445080205798,0.0,0.00029398503829725087,0.0005901232361793518,0.0
84,5,1.3087245861242991e-05,-2.3726242943666875e-06,-5.16051150043495e-05,0.005092081148177385,0.0024674469605088234,0.016191527247428894,-0.051720891147851944,0.20633052289485931,0.010486437939107418,0.0,0.0,0.0,0.0,0.0,0.0,0.0012346971780061722,-0.0029652740340679884,-0.0,0.0,0.0,0.0,0.043783724308013916,-0.06298758834600449,0.001057246932759881,1495.0,14709.0,19893.0,11577.0,-0.03290422633290291,0.4874877333641052,0.9179577827453613,0.2927526831626892,0.0,0.0,0.0,0.0,0.0,0.0,0.0,0.0,1.659448266029358,-0.06361538401737923,-0.06850061494693035,0.07740779492280012,0.011857127770781517,0.00379780400544405,0.0,0.0021579128224402666,-0.003243166720494628,0.0
89,5,-2.4821989427437074e-05,1.0303189810656477e-05,7.09002124494873e-05,-0.002512275706976652,-0.000534118851646781,-0.008224028162658215,-0.051720891147851944,0.20633052289485931,0.010486437939107418,0.0,0.0,0.0,0.0,0.0,0.0,0.0012346971780061722,-0.0029652740340679884,-0.0,0.0,0.0,0.0,0.043783724308013916,-0.06298758834600449,0.001057246932759881,1495.0,14709.0,19893.0,11577.0,-0.03290422633290291,0.4874877333641052,0.9179577827453613,0.2927526831626892,0.0,0.0,0.0,0.0,0.0,0.0,0.0,0.0,1.659448266029358,-0.06041601382754017,-0.06385571481685602,0.07829837510906965,0.011857127770781517,0.00379780400544405,0.0,0.0021579128224402666,-0.003243166720494628,0.0
94,5,2.0292000044719316e-06,-1.0551358172961045e-05,-4.624233042704873e-05,0.002217232482507825,0.0022888982202857733,0.010767493396997452,-0.051734209060668945,0.20632946491241455,0.010491868481040001,0.0,0.0,0.0,0.0,0.0,0.0,0.0012346971780061722,-0.0029652740340679884,-0.0,0.0,0.0,0.0,0.04282147437334061,-0.06200388818979263,0.0009636046015657485,1495.0,14469.0,19930.0,11890.0,-0.03215896338224411,0.4707980155944824,0.9215224385261536,0.3099766969680786,0.0,0.0,0.0,0.0,0.0,0.0,0.0,0.0,1.659448266029358,-0.061931520957676296,-0.06889908244584302,0.07904494537345284,0.011857127770781517,0.00379780400544405,0.0,-0.0006257913773879409,-3.9855396607890725e-05,0.0
99,5,-7.958677088026889e-06,9.355521797260735e-06,4.283795351511799e-05,-0.0003116522857453674,-0.001473266282118857,-0.00638263626024127,-0.051734209060668945,0.20632946491241455,0.010491868481040001,0.0,0.0,0.0,0.0,0.0,0.0,0.0012346971780061722,-0.0029652740340679884,-0.0,0.0,0.0,0.0,0.04282147437334061,-0.06200388818979263,0.0009636046015657485,1495.0,14469.0,19930.0,11890.0,-0.03215896338224411,0.4707980155944824,0.9215224385261536,0.3099766969680786,0.0,0.0,0.0,0.0,0.0,0.0,0.0,0.0,1.659448266029358,-0.060471659847207794,-0.06485600260467277,0.078486757393818,0.011857127770781517,0.00379780400544405,0.0,-0.0006257913773879409,-3.9855396607890725e-05,0.0
104,5,-1.7350517737213522e-05,-1.624792093934957e-05,4.707514108304167e-06,-0.0012516817077994347,0.0024831066839396954,0.00202259817160666,-0.05171852931380272,0.20631274580955505,0.010490508750081062,0.0,0.0,0.0,0.0,0.0,0.0,0.0012346971780061722,-0.0029652740340679884,-0.0,0.0,0.0,0.0,0.044737622141838074,-0.06303153932094574,0.0010511160362511873,1495.0,14635.0,19713.0,11499.0,-0.03292173147201538,0.4823390245437622,0.9007261991500854,0.28850439190864563,0.0,0.0,0.0,0.0,0.0,0.0,0.0,0.0,1.659448266029358,-0.061055653784567794,-0.06806473363816662,0.07924505504753407,0.011857127770781517,0.00379780400544405,0.0,0.0012346971780061722,-0.0029652740340679884,0.0
109,5,-1.5773162886034697e-05,-6.242242307052948e-06,2.5843399271252565e-05,-0.0003113901475444436,-0.0002074388030450791,-0.0017272670520469546,-0.05172574520111084,0.20632392168045044,0.010503087192773819,0.0,0.0,0.0,0.0,0.0,0.0,-0.0030658128671348095,-0.0012014716630801558,-0.0,0.0,0.0,0.0,0.04537714272737503,-0.06312114000320435,0.0011034613708034158,1495.0,14589.0,19957.0,11660.0,-0.0410776324570179,0.47912174463272095,0.9241048693656921,0.2972992956638336,0.0,0.0,0.0,0.0,0.0,0.0,0.0,0.0,1.654325246810913,-0.06064085165382645,-0.06709290403619858,0.07882320731420686,0.004789433907717466,-0.009400995448231697,-0.0,0.0012346971780061722,-0.0029652740340679884,0.0
115,5,-1.610005165275652e-05,-1.5103481928235851e-05,4.30136060458608e-06,-0.00016378280997741967,0.0009803732391446829,0.0018941378220915794,-0.05172574520111084,0.20632392168045044,0.010503087192773819,0.0,0.0,0.0,0.0,0.0,0.0,-0.0030658128671348095,-0.0012014716630801558,-0.0,0.0,0.0,0.0,0.04537714272737503,-0.06312114000320435,0.0011034613708034158,1495.0,14589.0,19957.0,11660.0,-0.0410776324570179,0.47912174463272095,0.9241048693656921,0.2972992956638336,0.0,0.0,0.0,0.0,0.0,0.0,0.0,0.0,1.654325246810913,-0.061404588639880034,-0.06792981398789712,0.07884043400492545,0.004789433907717466,-0.009400995448231697,-0.0,0.0012346971780061722,-0.0029652740340679884,0.0
120,5,-3.5405140806687996e-05,1.4942360394343268e-05,8.266975783044472e-05,-0.0023821238428354263,-0.0032133518252521753,-0.008646552450954914,-0.05172574520111084,0.20632392168045044,0.010503087192773819,0.0,0.0,0.0,0.0,0.0,0.0,-0.0012373230420053005,-0.00017797527834773064,-0.0,0.0,0.0,0.0,0.04537714272737503,-0.06312114000320435,0.0011034613708034158,1495.0,14589.0,19957.0,11660.0,-0.0410776324570179,0.47912174463272095,0.9241048693656921,0.2972992956638336,0.0,0.0,0.0,0.0,0.0,0.0,0.0,0.0,1.6392266750335693,-0.061254569396992586,-0.06378127390395628,0.07765875582838035,0.0007029918488115072,-0.0037595033645629883,-0.0,0.0012346971780061722,-0.0029652740340679884,0.0
125,5,-2.4001086785574444e-05,1.5618572888342896e-06,6.309724267339334e-05,0.0004156369250267744,0.0003203196683898568,-0.0011099193943664432,-0.051723722368478775,0.2063630372285843,0.010504677891731262,0.0,0.0,0.0,0.0,0.0,0.0,-0.0012373230420053005,-0.00017797527834773064,-0.0,0.0,0.0,0.0,0.04260389506816864,-0.0625310093164444,0.000997929717414081,1495.0,14736.0,19768.0,11504.0,-0.029812786728143692,0.48938122391700745,0.9059706330299377,0.28878623247146606,0.0,0.0,0.0,0.0,0.0,0.0,0.0,0.0,1.6392266750335693,-0.05988066659735028,-0.06571777461358694,0.07919810447164792,0.0007029918488115072,-0.0037595033645629883,-0.0,-0.0030658128671348095,-0.0012014716630801558,0.0
130,5,1.6373966218452551e-06,6.301603571046144e-05,1.4976468264649156e-05,0.0032428728882223368,-0.007246373221278191,0.00533052533864975,-0.051723722368478775,0.2063630372285843,0.010504677891731262,0.0,0.0,0.0,0.0,0.0,0.0,-0.00039251139969564974,0.0003610846179071814,-0.0,0.0,0.0,0.0,0.04260389506816864,-0.0625310093164444,0.000997929717414081,1495.0,14736.0,19768.0,11504.0,-0.029812786728143692,0.48938122391700745,0.9059706330299377,0.28878623247146606,0.0,0.0,0.0,0.0,0.0,0.0,0.0,0.0,1.639259696006775,-0.06517235741982226,-0.06663970209403007,0.07551673330487521,-0.001426292466931045,-0.0011926377192139626,0.0,-0.0030658128671348095,-0.0012014716630801558,0.0
135,5,-1.627253368496895e-05,1.4770452253287658e-05,2.654939999047201e-05,-0.0008520425762981176,0.0028909204993396997,0.0007434582803398371,-0.051690783351659775,0.2063559591770172,0.010473360307514668,0.0,0.0,0.0,0.0,0.0,0.0,-0.00039251139969564974,0.0003610846179071814,-0.0,0.0,0.0,0.0,0.04451492801308632,-0.0621371828019619,0.0011336535681039095,1495.0,14479.0,19844.0,11533.0,-0.03588219732046127,0.4714857339859009,0.9132336974143982,0.29038944840431213,0.0,0.0,0.0,0.0,0.0,0.0,0.0,0.0,1.639259696006775,-0.06222116529047333,-0.06690187505777927,0.0777804812363477,-0.001426292466931045,-0.0011926377192139626,0.0,-0.0012373230420053005,-0.00017797527834773064,0.0
140,5,-2.1228909190540435e-06,5.215677447267808e-06,2.8223970730323344e-05,0.0013571401359513402,0.0023029411677271128,9.643485100241378e-05,-0.051690783351659775,0.2063559591770172,0.010473360307514668,0.0,0.0,0.0,0.0,0.0,0.0,-0.0035049072466790676,-0.000823146547190845,-0.0,0.0,0.0,0.0,0.04451492801308632,-0.0621371828019619,0.0011336535681039095,1495.0,14479.0,19844.0,11533.0,-0.03588219732046127,0.4714857339859009,0.9132336974143982,0.29038944840431213,0.0,0.0,0.0,0.0,0.0,0.0,0.0,0.0,1.656213641166687,-0.061438968389117055,-0.065927835746324,0.07861426438055971,0.0032850555144250393,-0.010759691707789898,-0.0,-0.0012373230420053005,-0.00017797527834773064,0.0
145,5,-1.1481392903078813e-05,-2.6994196105079027e-06,5.8814024669118226e-05,-0.0005801641964353621,0.0018709880532696843,-0.0036322325468063354,-0.05171600356698036,0.2063169777393341,0.01050326693803072,0.0,0.0,0.0,0.0,0.0,0.0,-0.0035049072466790676,-0.000823146547190845,-0.0,0.0,0.0,0.0,0.04570287466049194,-0.06214088946580887,0.001090533216483891,1495.0,14433.0,19874.0,11680.0,-0.04353736713528633,0.4683474004268646,0.9161002039909363,0.2983494699001312,0.0,0.0,0.0,0.0,0.0,0.0,0.0,0.0,1.656213641166687,-0.059853752717066507,-0.06517683553895526,0.07913616138990313,0.0032850555144250393,-0.010759691707789898,-0.0,-0.00039251139969564974,0.0003610846179071814,0.0
151,5,-4.84242154925596e-05,1.0616542567731813e-05,0.00015264085959643126,-0.00466520432382822,-0.0008495202637277544,-0.012712113559246063,-0.05171600356698036,0.2063169777393341,0.01050326693803072,0.0,0.0,0.0,0.0,0.0,0.0,-0.00230487366206944,-0.0005646478966809809,-0.0,0.0,0.0,0.0,0.04570287466049194,-0.06214088946580887,0.001090533216483891,1495.0,14433.0,19874.0,11680.0,-0.04353736713528633,0.4683474004268646,0.9161002039909363,0.2983494699001312,0.0,0.0,0.0,0.0,0.0,0.0,0.0,0.0,1.6457525491714478,-0.05797990151469371,-0.061318272322341875,0.07896049785788334,0.002239200519397855,-0.007031038869172335,0.0,-0.00039251139969564974,0.0003610846179071814,0.0
156,5,-1.145386977441376e-05,1.5493180399062112e-05,1.7348966139252298e-05,0.0025703597348183393,-0.0009250045986846089,0.011150182224810123,-0.05171600356698036,0.2063169777393341,0.01050326693803072,0.0,0.0,0.0,0.0,0.0,0.0,-0.00230487366206944,-0.0005646478966809809,-0.0,0.0,0.0,0.0,0.04570287466049194,-0.06214088946580887,0.001090533216483891,1495.0,14433.0,19874.0,11680.0,-0.04353736713528633,0.4683474004268646,0.9161002039909363,0.2983494699001312,0.0,0.0,0.0,0.0,0.0,0.0,0.0,0.0,1.6457525491714478,-0.06209047387514592,-0.06547419645966239,0.07760587719442913,0.002239200519397855,-0.007031038869172335,0.0,-0.00039251139969564974,0.0003610846179071814,0.0
161,5,-2.840084198396653e-05,4.2390809539938346e-05,4.63442993350327e-05,-0.0010054927552118897,-0.003597717033699155,0.0009806330781430006,-0.05171535164117813,0.2063538283109665,0.010506379418075085,0.0,0.0,0.0,0.0,0.0,0.0,0.0011596677359193563,0.0024033852387219667,-0.0,0.0,0.0,0.0,0.043917495757341385,-0.06261897087097168,0.0010588556760922074,1495.0,14657.0,19844.0,11589.0,-0.034341901540756226,0.4838472604751587,0.9132856726646423,0.2934226393699646,0.0,0.0,0.0,0.0,0.0,0.0,0.0,0.0,1.6534124612808228,-0.06325217653812697,-0.0653144318281534,0.07619228846863156,-0.009575375355780125,0.0035540470853447914,-0.0,-0.0035049072466790676,-0.000823146547190845,0.0
166,5,-7.741390390947345e-07,3.6426754377316684e-05,2.600948755571153e-05,0.002913007279857993,-0.0007234006188809872,0.002832430647686124,-0.05171535164117813,0.2063538283109665,0.010506379418075085,0.0,0.0,0.0,0.0,0.0,0.0,0.0011596677359193563,0.0024033852387219667,-0.0,0.0,0.0,0.0,0.043917495757341385,-0.06261897087097168,0.0010588556760922074,1495.0,14657.0,19844.0,11589.0,-0.034341901540756226,0.4838472604751587,0.9132856726646423,0.2934226393699646,0.0,0.0,0.0,0.0,0.0,0.0,0.0,0.0,1.6534124612808228,-0.06224166205777723,-0.06510601021706805,0.07737811098545258,-0.009575375355780125,0.0035540470853447914,-0.0,-0.0035049072466790676,-0.000823146547190845,0.0
171,5,-7.84892836236395e-05,-1.449988667445723e-05,0.00012087060895282775,-0.008160614408552647,0.005821836646646261,-0.010250362567603588,-0.05171328783035278,0.20634590089321136,0.010520116426050663,0.0,0.0,0.0,0.0,0.0,0.0,0.0009489088552072644,0.0027357840444892645,-0.0,0.0,0.0,0.0,0.04448843374848366,-0.06254524737596512,0.0011763256043195724,1495.0,14482.0,19906.0,11615.0,-0.04005930945277214,0.47175779938697815,0.9192251563072205,0.29482901096343994,0.0,0.0,0.0,0.0,0.0,0.0,0.0,0.0,1.656347393989563,-0.05793681882319226,-0.06383921629302698,0.08058561605382077,-0.010919039137661457,0.0029132943600416183,-0.0,-0.0035049072466790676,-0.000823146547190845,0.0
176,5,-0.0002682950289454311,3.1367071642307565e-05,0.0013571158051490784,-0.026040934026241302,-0.0031753000803291798,-0.1524495631456375,-0.05171328783035278,0.20634590089321136,0.010520116426050663,0.0,0.0,0.0,0.0,0.0,0.0,0.0009489088552072644,0.0027357840444892645,-0.0,0.0,0.0,0.0,0.04448843374848366,-0.06254524737596512,0.0011763256043195724,1495.0,14482.0,19906.0,11615.0,-0.04005930945277214,0.47175779938697815,0.9192251563072205,0.29482901096343994,0.0,0.0,0.0,0.0,0.0,0.0,0.0,0.0,1.656347393989563,-0.023037371231761222,-0.01990190878008926,0.08643924122484023,-0.010919039137661457,0.0029132943600416183,-0.0,-0.0035049072466790676,-0.000823146547190845,0.0
181,5,-0.00032218670821748674,4.1681963921291754e-05,0.0009215977042913437,-0.016883376985788345,-0.0025079073384404182,-0.008717656135559082,-0.05169615522027016,0.20626556873321533,0.010512865148484707,0.0,0.0,0.0,0.0,0.0,0.0,0.0034509121906012297,-0.021785087883472443,-0.0,0.0,0.0,0.0,0.04578372463583946,-0.06189604848623276,0.0011001626262441278,1495.0,14395.0,19901.0,11716.0,-0.03912750631570816,0.4657709002494812,0.9187439680099487,0.300365149974823,0.0,0.0,0.0,0.0,0.0,0.0,0.0,0.0,1.8885704278945923,-0.03607767374166222,-0.037819778814440055,0.08626140892930304,0.0991305410861969,0.012080199085175991,0.0,-0.00230487366206944,-0.0005646478966809809,0.0
186,5,-0.0002889111347030848,-1.0064793059427757e-05,0.0009189627598971128,-0.0027602820191532373,0.005206448026001453,-0.0031708665192127228,-0.05169615522027016,0.20626556873321533,0.010512865148484707,0.0,0.0,0.0,0.0,0.0,0.0,0.0034509121906012297,-0.021785087883472443,-0.0,0.0,0.0,0.0,0.04578372463583946,-0.06189604848623276,0.0011001626262441278,1495.0,14395.0,19901.0,11716.0,-0.03912750631570816,0.4657709002494812,0.9187439680099487,0.300365149974823,0.0,0.0,0.0,0.0,0.0,0.0,0.0,0.0,1.8885704278945923,-0.035467714166524604,-0.036868601049171834,0.08582192883100646,0.0991305410861969,0.012080199085175991,0.0,-0.00230487366206944,-0.0005646478966809809,0.0
191,5,-0.0001917182089528069,7.133497547329171e-06,0.0008157867705449462,0.010559038259088993,1.8784301573759876e-05,0.011112770065665245,-0.05164571478962898,0.20620164275169373,0.010224242694675922,0.0,0.0,0.0,0.0,0.0,0.0,-0.006259135901927948,-0.00293679628521204,-0.0,0.0,0.0,0.0,0.04846656695008278,-0.06173821538686752,-0.0005510029732249677,1495.0,14658.0,19747.0,12432.0,-0.07555349171161652,0.48395657539367676,0.90398770570755,0.34102174639701843,0.0,0.0,0.0,0.0,0.0,0.0,0.0,0.0,1.6876354217529297,-0.03873372856793494,-0.03891832568459058,0.08303034907574258,0.011942499317228794,-0.019579267129302025,0.0,0.0011596677359193563,0.0024033852387219667,0.0
196,5,-0.00034866007626987994,-2.1778281734441407e-05,0.0012754134368151426,-0.014609407633543015,0.003476927289739251,-0.05071009695529938,-0.05164571478962898,0.20620164275169373,0.010224242694675922,0.0,0.0,0.0,0.0,0.0,0.0,-0.006259135901927948,-0.00293679628521204,-0.0,0.0,0.0,0.0,0.04846656695008278,-0.06173821538686752,-0.0005510029732249677,1495.0,14658.0,19747.0,12432.0,-0.07555349171161652,0.48395657539367676,0.90398770570755,0.34102174639701843,0.0,0.0,0.0,0.0,0.0,0.0,0.0,0.0,1.6876354217529297,-0.024897977190747846,-0.025168460807910624,0.08714872902173257,0.011942499317228794,-0.019579267129302025,0.0,0.0011596677359193563,0.0024033852387219667,0.0
201,5,-0.00033198235905729234,-2.1314603145583533e-05,0.001183922286145389,-0.0038424376398324966,0.0013351294910535216,-0.009305091574788094,-0.05194656178355217,0.20625075697898865,0.010569588281214237,0.0,0.0,0.0,0.0,0.0,0.0,-0.006259135901927948,-0.00293679628521204,-0.0,0.0,0.0,0.0,0.05057385936379433,-0.061812736093997955,0.0008646615315228701,1495.0,14409.0,19942.0,12437.0,-0.0743817687034607,0.4666999578475952,0.9226813912391663,0.34134790301322937,0.0,0.0,0.0,0.0,0.0,0.0,0.0,0.0,1.6876354217529297,-0.027410965158957627,-0.02936893713279581,0.08711611878463169,0.011942499317228794,-0.019579267129302025,0.0,0.0009489088552072644,0.0027357840444892645,0.0
206,5,-0.0003406803298275918,-2.1124571503605694e-05,0.0011217397404834628,-0.0025807314086705446,0.0005112478975206614,0.0037398606073111296,-0.05194656178355217,0.20625075697898865,0.010569588281214237,0.0,0.0,0.0,0.0,0.0,0.0,-0.0016534999012947083,-0.004031085874885321,-0.0,0.0,0.0,0.0,0.05057385936379433,-0.061812736093997955,0.0008646615315228701,1495.0,14409.0,19942.0,12437.0,-0.0743817687034607,0.4666999578475952,0.9226813912391663,0.34134790301322937,0.0,0.0,0.0,0.0,0.0,0.0,0.0,0.0,1.6717731952667236,-0.0279725154850674,-0.030954337593860917,0.08848564733441307,0.016238635405898094,-0.005123771261423826,0.0,0.0009489088552072644,0.0027357840444892645,0.0
212,5,-0.00037808780325576663,6.0995689636911266e-06,0.001201854320243001,-0.005521189887076616,-0.0030623977072536945,-0.008117799647152424,-0.052017465233802795,0.20616620779037476,0.010493635199964046,0.0,0.0,0.0,0.0,0.0,0.0,-0.0016534999012947083,-0.004031085874885321,-0.0,0.0,0.0,0.0,0.051508814096450806,-0.06875390559434891,0.001924762618727982,1495.0,14904.0,21385.0,12166.0,-0.0050902292132377625,0.5012344121932983,1.0668096542358398,0.3256165683269501,0.0,0.0,0.0,0.0,0.0,0.0,0.0,0.0,1.6717731952667236,-0.027192933251229196,-0.02707934484316952,0.0875617747036194,0.016238635405898094,-0.005123771261423826,0.0,0.0034509121906012297,-0.021785087883472443,0.0
217,5,-0.00019699351105373353,-2.8368176572257653e-05,0.0008559193811379373,0.019522840157151222,0.0029111704789102077,0.03826507180929184,-0.052017465233802795,0.20616620779037476,0.010493635199964046,0.0,0.0,0.0,0.0,0.0,0.0,0.0036668884567916393,-0.005581006407737732,-0.0,0.0,0.0,0.0,0.051508814096450806,-0.06875390559434891,0.001924762618727982,1495.0,14904.0,21385.0,12166.0,-0.0050902292132377625,0.5012344121932983,1.0668096542358398,0.3256165683269501,0.0,0.0,0.0,0.0,0.0,0.0,0.0,0.0,1.6945849657058716,-0.03650197997638722,-0.03785305522260865,0.08376824768870977,0.02278885990381241,0.011517754755914211,0.0,0.0034509121906012297,-0.021785087883472443,0.0
222,5,-0.0002569758507888764,-2.9990791517775506e-05,0.001251012203283608,0.0006112552364356816,0.001359181827865541,-0.03210511431097984,-0.052163396030664444,0.2061958909034729,0.010490124113857746,0.0,0.0,0.0,0.0,0.0,0.0,0.0036668884567916393,-0.005581006407737732,-0.0,0.0,0.0,0.0,0.04781903326511383,-0.06349887698888779,0.0024810428731143475,1495.0,14606.0,20134.0,11677.0,-0.0321258120238781,0.4803367555141449,0.9412074089050293,0.2982170283794403,0.0,0.0,0.0,0.0,0.0,0.0,0.0,0.0,1.6945849657058716,-0.025075905344330126,-0.02294988284086779,0.0861265397334958,0.02278885990381241,0.011517754755914211,0.0,-0.0016534999012947083,-0.004031085874885321,0.0
227,5,-0.00024858166580088437,-2.949273221020121e-05,0.000956110074184835,0.0012518037110567093,0.00048390578012913465,0.02254621498286724,-0.052163396030664444,0.2061958909034729,0.010490124113857746,0.0,0.0,0.0,0.0,0.0,0.0,-0.001730704098008573,0.00022088926925789565,-0.0,0.0,0.0,0.0,0.04781903326511383,-0.06349887698888779,0.0024810428731143475,1495.0,14606.0,20134.0,11677.0,-0.0321258120238781,0.4803367555141449,0.9412074089050293,0.2982170283794403,0.0,0.0,0.0,0.0,0.0,0.0,0.0,0.0,1.6402153968811035,-0.03374776706968313,-0.03713739579461592,0.0860026043254502,-0.0008730251574888825,-0.005261769983917475,0.0,-0.0016534999012947083,-0.004031085874885321,0.0
232,5,-0.0002444200508762151,-3.516143624437973e-05,0.0014519081450998783,0.0010001168120652437,0.0008738069445826113,-0.0504772812128067,-0.052163396030664444,0.2061958909034729,0.010490124113857746,0.0,0.0,0.0,0.0,0.0,0.0,-0.001730704098008573,0.00022088926925789565,-0.0,0.0,0.0,0.0,0.04781903326511383,-0.06349887698888779,0.0024810428731143475,1495.0,14606.0,20134.0,11677.0,-0.0321258120238781,0.4803367555141449,0.9412074089050293,0.2982170283794403,0.0,0.0,0.0,0.0,0.0,0.0,0.0,0.0,1.6402153968811035,-0.01973625379812302,-0.016533293775498996,0.08685589062968399,-0.0008730251574888825,-0.005261769983917475,0.0,-0.0016534999012947083,-0.004031085874885321,0.0
237,5,-0.0002522621944081038,8.41023756947834e-06,0.0010150631424039602,-0.0005410115700215101,-0.004879078362137079,0.03223048150539398,-0.05185532942414284,0.20614776015281677,0.011038565076887608,0.0,0.0,0.0,0.0,0.0,0.0,-0.0011341932695358992,0.0006032612291164696,-0.0,0.0,0.0,0.0,0.053943224251270294,-0.06365394592285156,0.0021288669668138027,1495.0,13797.0,20744.0,11931.0,-0.04489060863852501,0.42568448185920715,1.001495122909546,0.3122960329055786,0.0,0.0,0.0,0.0,0.0,0.0,0.0,0.0,1.6506539583206177,-0.03308991717594834,-0.03418399334488166,0.08599317686325514,-0.002399457385763526,-0.00347017589956522,0.0,0.0036668884567916393,-0.005581006407737732,0.0
242,5,-0.0002366189582971856,3.558606476872228e-05,0.0008860935922712088,-0.005089918151497841,-0.005067078862339258,0.015815092250704765,-0.05185532942414284,0.20614776015281677,0.011038565076887608,0.0,0.0,0.0,0.0,0.0,0.0,-0.0011341932695358992,0.0006032612291164696,-0.0,0.0,0.0,0.0,0.053943224251270294,-0.06365394592285156,0.0021288669668138027,1495.0,13797.0,20744.0,11931.0,-0.04489060863852501,0.42568448185920715,1.001495122909546,0.3122960329055786,0.0,0.0,0.0,0.0,0.0,0.0,0.0,0.0,1.6506539583206177,-0.037183395524936505,-0.04106934466235767,0.0862461001254191,-0.002399457385763526,-0.00347017589956522,0.0,0.0036668884567916393,-0.005581006407737732,0.0
247,5,-0.0002366189582971856,3.558606476872228e-05,0.0008860935922712088,-0.005089918151497841,-0.005067078862339258,0.015815092250704765,-0.052138395607471466,0.20632807910442352,0.011818093247711658,0.0,0.0,0.0,0.0,0.0,0.0,0.0060880896635353565,-0.004975625779479742,-0.0,0.0,0.0,0.0,0.049782637506723404,-0.06353072822093964,0.0025407345965504646,1495.0,13688.0,20521.0,11106.0,-0.025373995304107666,0.418584406375885,0.9792748093605042,0.2677302360534668,0.0,0.0,0.0,0.0,0.0,0.0,0.0,0.0,1.7012075185775757,-0.037183395524936505,-0.04106934466235767,0.0862461001254191,0.020396096631884575,0.019197382032871246,-0.0,-0.001730704098008573,0.00022088926925789565,0.0
252,5,-0.00032542861299589276,-1.503037492511794e-05,0.0007867327658459544,-0.012693123891949654,0.004047140944749117,0.018249336630105972,-0.052138395607471466,0.20632807910442352,0.011818093247711658,0.0,0.0,0.0,0.0,0.0,0.0,0.0060880896635353565,-0.004975625779479742,-0.0,0.0,0.0,0.0,0.049782637506723404,-0.06353072822093964,0.0025407345965504646,1495.0,13688.0,20521.0,11106.0,-0.025373995304107666,0.418584406375885,0.9792748093605042,0.2677302360534668,0.0,0.0,0.0,0.0,0.0,0.0,0.0,0.0,1.7012075185775757,-0.039414949860669596,-0.04626201805251013,0.08915394858799461,0.020396096631884575,0.019197382032871246,-0.0,-0.001730704098008573,0.00022088926925789565,0.0
257,5,-0.00013668733299709857,3.575990194804035e-05,0.0004709744534920901,0.01757170259952545,-0.0044759768061339855,0.045190732926130295,-0.052138395607471466,0.20632807910442352,0.011818093247711658,0.0,0.0,0.0,0.0,0.0,0.0,-0.004667028784751892,-0.011621938087046146,-0.0,0.0,0.0,0.0,0.0487925261259079,-0.06376451998949051,0.0027608538512140512,1495.0,13875.0,20488.0,11227.0,-0.030193768441677094,0.43081316351890564,0.9760013818740845,0.27403321862220764,0.0,0.0,0.0,0.0,0.0,0.0,0.0,0.0,1.7639687061309814,-0.049257534801055776,-0.0540462693323797,0.08406967940316755,0.04939771071076393,-0.015259385108947754,-0.0,-0.0011341932695358992,0.0006032612291164696,0.0
262,5,-0.0001755796401994303,2.80575859505916e-05,0.0009574363357387483,0.002361604478210211,-0.0008661126485094428,-0.04029913246631622,-0.052138395607471466,0.20632807910442352,0.011818093247711658,0.0,0.0,0.0,0.0,0.0,0.0,-0.004667028784751892,-0.011621938087046146,-0.0,0.0,0.0,0.0,0.0487925261259079,-0.06376451998949051,0.0027608538512140512,1495.0,13875.0,20488.0,11227.0,-0.030193768441677094,0.43081316351890564,0.9760013818740845,0.27403321862220764,0.0,0.0,0.0,0.0,0.0,0.0,0.0,0.0,1.7639687061309814,-0.03563212715793272,-0.03129448992514667,0.08604022439559277,0.04939771071076393,-0.015259385108947754,-0.0,-0.0011341932695358992,0.0006032612291164696,0.0
267,5,-0.00015337660443037748,3.582201316021383e-05,0.000773588428273797,0.0024795695208013058,-0.0006610684213228524,0.0026577927637845278,-0.05185699835419655,0.20682401955127716,0.012436579912900925,0.0,0.0,0.0,0.0,0.0,0.0,0.0010923956288024783,0.0019464241340756416,-0.0,0.0,0.0,0.0,0.053375668823719025,-0.06218395382165909,0.0016600934322923422,1495.0,14225.0,20285.0,12511.0,-0.05459737777709961,0.4541521668434143,0.9559476375579834,0.3457050621509552,0.0,0.0,0.0,0.0,0.0,0.0,0.0,0.0,1.6803382635116577,-0.038813814514129685,-0.0355193570430883,0.08575091646332451,-0.007881077006459236,0.0034023975022137165,0.0,0.0060880896635353565,-0.004975625779479742,0.0
272,5,-0.00015337660443037748,3.582201316021383e-05,0.000773588428273797,0.0024795695208013058,-0.0006610684213228524,0.0026577927637845278,-0.05185699835419655,0.20682401955127716,0.012436579912900925,0.0,0.0,0.0,0.0,0.0,0.0,0.0010923956288024783,0.0019464241340756416,-0.0,0.0,0.0,0.0,0.053375668823719025,-0.06218395382165909,0.0016600934322923422,1495.0,14225.0,20285.0,12511.0,-0.05459737777709961,0.4541521668434143,0.9559476375579834,0.3457050621509552,0.0,0.0,0.0,0.0,0.0,0.0,0.0,0.0,1.6803382635116577,-0.038813814514129685,-0.0355193570430883,0.08575091646332451,-0.007881077006459236,0.0034023975022137165,0.0,0.0060880896635353565,-0.004975625779479742,0.0
277,5,-0.00015286453708540648,2.2014692149241455e-05,0.0011284362990409136,0.001053276821039617,0.001392451231367886,-0.04151863604784012,-0.04959139972925186,0.2038673609495163,0.012893954291939735,0.0,0.0,0.0,0.0,0.0,0.0,0.0008543605217710137,0.002073779469355941,-0.0,0.0,0.0,0.0,0.037509579211473465,-0.05621764808893204,0.0017499274108558893,6705.0,14599.0,19749.0,11570.0,0.08761981129646301,0.47982439398765564,0.9041640758514404,0.2923603951931,0.0,0.0,0.0,0.0,0.0,0.0,0.0,0.0,1.690001130104065,-0.02741850505827732,-0.013567523403746739,0.08660013115965748,-0.00844502542167902,0.002676311181858182,-0.0,-0.004667028784751892,-0.011621938087046146,0.0
282,5,-0.0001520610530860722,5.3079205827089027e-05,0.00041620733099989593,0.0005177286802791059,-0.0031707610469311476,0.0688600242137909,-0.04959139972925186,0.2038673609495163,0.012893954291939735,0.0,0.0,0.0,0.0,0.0,0.0,0.0008543605217710137,0.002073779469355941,-0.0,0.0,0.0,0.0,0.037509579211473465,-0.05621764808893204,0.0017499274108558893,6705.0,14599.0,19749.0,11570.0,0.08761981129646301,0.47982439398765564,0.9041640758514404,0.2923603951931,0.0,0.0,0.0,0.0,0.0,0.0,0.0,0.0,1.690001130104065,-0.04430118544487699,-0.04062497675003246,0.085187515575653,-0.00844502542167902,0.002676311181858182,-0.0,-0.004667028784751892,-0.011621938087046146,0.0
287,5,1.571674511069432e-05,5.355838220566511e-05,0.001163087785243988,0.02034042775630951,-0.0013258057879284024,-0.06208164989948273,-0.043005626648664474,0.19349335134029388,0.013157593086361885,0.0,0.0,0.0,0.0,0.0,0.0,0.0008543605217710137,0.002073779469355941,-0.0,0.0,0.0,0.0,0.027236798778176308,-0.03855963796377182,0.002725218888372183,10253.0,13493.0,18158.0,11529.0,0.22523728013038635,0.40604662895202637,0.7588878273963928,0.29016655683517456,0.0,0.0,0.0,0.0,0.0,0.0,0.0,0.0,1.690001130104065,-0.018230866094273827,0.006131199245700889,0.08289999675558636,-0.07635331153869629,0.005266814026981592,0.0,0.0010923956288024783,0.0019464241340756416,0.0
292,5,1.7870554074761458e-05,6.132914131740108e-05,0.000450700317742303,0.008394627831876278,-0.0014628128847107291,0.060653842985630035,-0.043005626648664474,0.19349335134029388,0.013157593086361885,0.0,0.0,0.0,0.0,0.0,0.0,0.0015537961153313518,0.017328161746263504,-0.0,0.0,0.0,0.0,0.027236798778176308,-0.03855963796377182,0.002725218888372183,10253.0,13493.0,18158.0,11529.0,0.22523728013038635,0.40604662895202637,0.7588878273963928,0.29016655683517456,0.0,0.0,0.0,0.0,0.0,0.0,0.0,0.0,1.8287137746810913,-0.030442080184607746,-0.007846319295389469,0.08588903788079377,-0.07635331153869629,0.005266814026981592,0.0,0.0010923956288024783,0.0019464241340756416,0.0
298,5,0.0001926902768900618,7.689544872846454e-05,-2.9938200896140188e-05,0.015353729017078876,0.001834059483371675,0.06939171999692917,-0.035898514091968536,0.18072006106376648,0.013216938823461533,0.0,0.0,0.0,0.0,0.0,0.0,0.0015537961153313518,0.017328161746263504,-0.0,0.0,0.0,0.0,0.009494011290371418,-0.017125189304351807,0.003283003345131874,13426.0,12902.0,16438.0,11763.0,0.4018014669418335,0.3691440224647522,0.6160929799079895,0.30296266078948975,0.0,0.0,0.0,0.0,0.0,0.0,0.0,0.0,1.8287137746810913,-0.021354462726360303,0.01619008128751442,0.08647034066430705,-0.05862661078572273,-0.006454112473875284,0.0,0.0008543605217710137,0.002073779469355941,0.0
303,5,0.00029755072318948805,4.2065086745424196e-05,0.00033184108906425536,0.018724745139479637,0.0049132672138512135,-0.01565682701766491,-0.035898514091968536,0.18072006106376648,0.013216938823461533,0.0,0.0,0.0,0.0,0.0,0.0,-0.0019528273260220885,0.01364559680223465,-0.0,0.0,0.0,0.0,0.009494011290371418,-0.017125189304351807,0.003283003345131874,13426.0,12902.0,16438.0,11763.0,0.4018014669418335,0.3691440224647522,0.6160929799079895,0.30296266078948975,0.0,0.0,0.0,0.0,0.0,0.0,0.0,0.0,1.7830545902252197,0.004755670342071164,0.059585267194683246,0.08849945041795214,-0.05862661078572273,-0.006454112473875284,0.0,0.0008543605217710137,0.002073779469355941,0.0
308,5,0.0003977876913268119,6.309335003606975e-05,-7.526505942223594e-05,0.019518334418535233,-0.0005580852157436311,0.042590007185935974,-0.02109166979789734,0.15134145319461823,0.013813553377985954,0.0,0.0,0.0,0.0,0.0,0.0,-0.0019528273260220885,0.01364559680223465,-0.0,0.0,0.0,0.0,-0.008934620767831802,0.0056804087944328785,0.004797827918082476,16900.0,12079.0,13812.0,11519.0,0.6529672145843506,0.32067766785621643,0.4267211854457855,0.28963503241539,0.0,0.0,0.0,0.0,0.0,0.0,0.0,0.0,1.7830545902252197,0.010081736119935661,0.07902229630618951,0.09065476602994153,-0.05862661078572273,-0.006454112473875284,0.0,0.0008543605217710137,0.002073779469355941,0.0
313,5,0.0005536751705221832,-4.302557499613613e-05,-0.0007371437386609614,0.026513831689953804,0.012511037290096283,0.09646144509315491,-0.02109166979789734,0.15134145319461823,0.013813553377985954,0.0,0.0,0.0,0.0,0.0,0.0,0.0007212024065665901,0.017132915556430817,-0.0,0.0,0.0,0.0,-0.008934620767831802,0.0056804087944328785,0.004797827918082476,16900.0,12079.0,13812.0,11519.0,0.6529672145843506,0.32067766785621643,0.4267211854457855,0.28963503241539,0.0,0.0,0.0,0.0,0.0,0.0,0.0,0.0,1.8258107900619507,0.008073604630431502,0.08513023379170398,0.08761111276509838,-0.07537330687046051,0.0024407394230365753,0.0,0.0008543605217710137,0.002073779469355941,0.0
318,5,0.0005234875716269016,-0.00016221706755459309,-0.0003721631073858589,0.00698302173987031,0.019307395443320274,-0.005213099531829357,-0.007568901404738426,0.12560513615608215,0.013948848471045494,0.0,0.0,0.0,0.0,0.0,0.0,0.0007212024065665901,0.017132915556430817,-0.0,0.0,0.0,0.0,-0.040175650268793106,0.035574883222579956,0.0018140629399567842,19096.0,13927.0,8421.0,13479.0,0.8430297374725342,0.434261679649353,0.1462731659412384,0.40514910221099854,0.0,0.0,0.0,0.0,0.0,0.0,0.0,0.0,1.8258107900619507,0.03919550605643951,0.13442049825219116,0.0907557110021551,-0.07537330687046051,0.0024407394230365753,0.0,0.0015537961153313518,0.017328161746263504,0.0
323,5,0.0008271965780295432,-0.00019294543017167598,-0.001117800478823483,0.03923828527331352,0.011410360224545002,0.08739124238491058,-0.007568901404738426,0.12560513615608215,0.013948848471045494,0.0,0.0,0.0,0.0,0.0,0.0,-0.021553730592131615,0.006574030965566635,-0.0,0.0,0.0,0.0,-0.040175650268793106,0.035574883222579956,0.0018140629399567842,19096.0,13927.0,8421.0,13479.0,0.8430297374725342,0.434261679649353,0.1462731659412384,0.40514910221099854,0.0,0.0,0.0,0.0,0.0,0.0,0.0,0.0,1.8348561525344849,0.04382911981870097,0.1510419203631403,0.08556840228831387,-0.029059065505862236,-0.07329458743333817,0.0,0.0015537961153313518,0.017328161746263504,0.0
328,5,0.0010053213918581605,-0.0002174842666136101,-0.001140326145105064,0.037070296704769135,0.007508805021643639,0.037659574300050735,0.01963917911052704,0.0799945816397667,0.013710527680814266,0.0,0.0,0.0,0.0,0.0,0.0,-0.021553730592131615,0.006574030965566635,-0.0,0.0,0.0,0.0,-0.07785899192094803,0.05261870473623276,-0.000684972619637847,21399.0,16065.0,1495.0,12603.0,1.0682153701782227,0.5870512127876282,-0.22334490716457367,0.35113295912742615,0.0,0.0,0.0,0.0,0.0,0.0,0.0,0.0,1.8348561525344849,0.07782644532413441,0.19522512767094688,0.0849949904957576,-0.029059065505862236,-0.07329458743333817,0.0,-0.0019528273260220885,0.01364559680223465,0.0
333,5,0.0013175683561712503,-0.0002395400806562975,-0.001455704914405942,0.05229775235056877,0.005650220438838005,0.05290928855538368,0.01963917911052704,0.0799945816397667,0.013710527680814266,0.0,0.0,0.0,0.0,0.0,0.0,-0.007887657731771469,0.029880397021770477,-0.0,0.0,0.0,0.0,-0.07785899192094803,0.05261870473623276,-0.000684972619637847,21399.0,16065.0,1495.0,12603.0,1.0682153701782227,0.5870512127876282,-0.22334490716457367,0.35113295912742615,0.0,0.0,0.0,0.0,0.0,0.0,0.0,0.0,2.007833957672119,0.08896099573798404,0.2258131288820905,0.07934759160917504,-0.1445399522781372,-0.029354603961110115,0.0,-0.0019528273260220885,0.01364559680223465,0.0
338,5,0.0013014697469770908,-0.0003351113700773567,-0.0015785627765581012,0.01898726262152195,0.013728643767535686,0.035906653851270676,0.01963917911052704,0.0799945816397667,0.013710527680814266,0.0,0.0,0.0,0.0,0.0,0.0,-0.007887657731771469,0.029880397021770477,-0.0,0.0,0.0,0.0,-0.07785899192094803,0.05261870473623276,-0.000684972619637847,21399.0,16065.0,1495.0,12603.0,1.0682153701782227,0.5870512127876282,-0.22334490716457367,0.35113295912742615,0.0,0.0,0.0,0.0,0.0,0.0,0.0,0.0,2.007833957672119,0.10036660513304997,0.23692456126777106,0.08394628841649578,-0.1445399522781372,-0.029354603961110115,0.0,-0.0019528273260220885,0.01364559680223465,0.0
343,5,0.0015420418931171298,-0.00027776940260082483,-0.0023413943126797676,0.036463573575019836,-0.0013895814772695303,0.10590245574712753,0.04165732115507126,0.04711925610899925,0.01402344461530447,0.0,0.0,0.0,0.0,0.0,0.0,-0.015339285135269165,0.017340466380119324,-0.0,0.0,0.0,0.0,-0.10899761319160461,0.07196598500013351,-0.0012792411725968122,22794.0,16418.0,1495.0,12571.0,1.2176202535629272,0.6145151853561401,-0.3555718660354614,0.3492472469806671,0.0,0.0,0.0,0.0,0.0,0.0,0.0,0.0,1.8757086992263794,0.08964314345508184,0.251447362042112,0.07949727189423281,-0.07836194336414337,-0.05332712084054947,0.0,0.0007212024065665901,0.017132915556430817,0.0
348,5,0.001644052448682487,-0.00033528657513670623,-0.0022544274106621742,0.02682669088244438,0.0063462285324931145,0.031924936920404434,0.04165732115507126,0.04711925610899925,0.01402344461530447,0.0,0.0,0.0,0.0,0.0,0.0,-0.015339285135269165,0.017340466380119324,-0.0,0.0,0.0,0.0,-0.10899761319160461,0.07196598500013351,-0.0012792411725968122,22794.0,16418.0,1495.0,12571.0,1.2176202535629272,0.6145151853561401,-0.3555718660354614,0.3492472469806671,0.0,0.0,0.0,0.0,0.0,0.0,0.0,0.0,1.8757086992263794,0.10084858044741808,0.28468475233039503,0.08077552771590046,-0.07836194336414337,-0.05332712084054947,0.0,0.0007212024065665901,0.017132915556430817,0.0
353,5,0.0018611944979056716,-0.0004028941330034286,-0.0022157675120979548,0.0367877222597599,0.01065139751881361,0.008130796253681183,0.06353441625833511,-0.0023566135205328465,0.015614437870681286,0.0,0.0,0.0,0.0,0.0,0.0,-0.0072028315626084805,0.023692263290286064,-0.0,0.0,0.0,0.0,-0.09254162013530731,0.07827907800674438,-0.0011158203706145287,22635.0,14717.0,1495.0,14494.0,1.200173020362854,0.4880843162536621,-0.3259606659412384,0.47255951166152954,0.0,0.0,0.0,0.0,0.0,0.0,0.0,0.0,1.9208840131759644,0.10837816473787888,0.32376975438094996,0.07701209825643338,-0.10964976251125336,-0.02564520202577114,0.0,-0.021553730592131615,0.006574030965566635,0.0
358,5,0.0019100653007626534,-0.000241598958382383,-0.0032069613225758076,0.020579585805535316,-0.015094861388206482,0.12219557911157608,0.06353441625833511,-0.0023566135205328465,0.015614437870681286,0.0,0.0,0.0,0.0,0.0,0.0,-0.0072028315626084805,0.023692263290286064,-0.0,0.0,0.0,0.0,-0.09254162013530731,0.07827907800674438,-0.0011158203706145287,22635.0,14717.0,1495.0,14494.0,1.200173020362854,0.4880843162536621,-0.3259606659412384,0.47255951166152954,0.0,0.0,0.0,0.0,0.0,0.0,0.0,0.0,1.9208840131759644,0.08319223390129096,0.32446726693252026,0.07880697132753677,-0.10964976251125336,-0.02564520202577114,0.0,-0.021553730592131615,0.006574030965566635,0.0
363,5,0.0019724066369235516,-0.00023552872880827636,-0.0034412883687764406,0.015712780877947807,-0.006766370497643948,0.07699746638536453,0.06417077779769897,-0.035158053040504456,0.01668870449066162,0.0,0.0,0.0,0.0,0.0,0.0,0.015709873288869858,0.01917457766830921,-0.0,0.0,0.0,0.0,-0.031162355095148087,0.09969200938940048,-0.0004418998723849654,21400.0,8878.0,1495.0,19042.0,1.0683420896530151,0.16441209614276886,-0.06299442797899246,0.8380741477012634,0.0,0.0,0.0,0.0,0.0,0.0,0.0,0.0,1.898308515548706,0.07829359071430275,0.343976245207008,0.07859107904135886,-0.08769287168979645,0.05527332052588463,0.0,-0.007887657731771469,0.029880397021770477,0.0
368,5,0.0021768216975033283,-0.00016328955825883895,-0.0037449293304234743,0.030814925208687782,-0.011375249363481998,0.06723590940237045,0.06417077779769897,-0.035158053040504456,0.01668870449066162,0.0,0.0,0.0,0.0,0.0,0.0,0.015709873288869858,0.01917457766830921,-0.0,0.0,0.0,0.0,-0.031162355095148087,0.09969200938940048,-0.0004418998723849654,21400.0,8878.0,1495.0,19042.0,1.0683420896530151,0.16441209614276886,-0.06299442797899246,0.8380741477012634,0.0,0.0,0.0,0.0,0.0,0.0,0.0,0.0,1.898308515548706,0.07425774184466162,0.36543399221337913,0.07479235133143737,-0.08769287168979645,0.05527332052588463,0.0,-0.007887657731771469,0.029880397021770477,0.0
374,5,0.0021744845435023308,-9.063990000868216e-05,-0.004309194162487984,0.012045523151755333,-0.013268059119582176,0.09460614621639252,0.050796519964933395,-0.08199985325336456,0.01851395145058632,0.0,0.0,0.0,0.0,0.0,0.0,0.01140634622424841,0.026806486770510674,-0.0,0.0,0.0,0.0,-0.0015765276039019227,0.10091619938611984,-0.00033658070606179535,19984.0,1495.0,3186.0,20351.0,0.9267226457595825,-0.0269553754478693,0.013521026819944382,0.9624204039573669,0.0,0.0,0.0,0.0,0.0,0.0,0.0,0.0,1.9750109910964966,0.06369552869825597,0.3678963527685202,0.07754553611330653,-0.1275501698255539,0.04175490513443947,0.0,-0.015339285135269165,0.017340466380119324,0.0
379,5,0.0022760836873203516,-7.662193092983216e-05,-0.005030753090977669,0.017010103911161423,-0.006989379413425922,0.12442955374717712,0.050796519964933395,-0.08199985325336456,0.01851395145058632,0.0,0.0,0.0,0.0,0.0,0.0,0.01140634622424841,0.026806486770510674,-0.0,0.0,0.0,0.0,-0.0015765276039019227,0.10091619938611984,-0.00033658070606179535,19984.0,1495.0,3186.0,20351.0,0.9267226457595825,-0.0269553754478693,0.013521026819944382,0.9624204039573669,0.0,0.0,0.0,0.0,0.0,0.0,0.0,0.0,1.9750109910964966,0.05244633574561991,0.36581185086257634,0.07722780211064076,-0.1275501698255539,0.04175490513443947,0.0,-0.015339285135269165,0.017340466380119324,0.0
384,5,0.002277877414599061,-9.268364374293014e-05,-0.005031610373407602,0.007019295822829008,-0.000868346425704658,0.04987466707825661,0.03987802192568779,-0.10960926115512848,0.019639544188976288,0.0,0.0,0.0,0.0,0.0,0.0,0.007563697639852762,0.017226271331310272,-0.0,0.0,0.0,0.0,0.010386724025011063,0.10315342247486115,0.0016205216525122523,20175.0,1495.0,6567.0,20087.0,0.9452057480812073,-0.044506072998046875,0.08354443311691284,0.9366399645805359,0.0,0.0,0.0,0.0,0.0,0.0,0.0,0.0,1.8391627073287964,0.059390309942925025,0.3698905548216824,0.08002076101045698,-0.07633600383996964,0.02578429877758026,0.0,-0.0072028315626084805,0.023692263290286064,0.0
389,5,0.0024202915374189615,-7.120006193872541e-05,-0.005477005150169134,0.019897405058145523,-0.0029253687243908644,0.07339723408222198,0.03987802192568779,-0.10960926115512848,0.019639544188976288,0.0,0.0,0.0,0.0,0.0,0.0,0.007563697639852762,0.017226271331310272,-0.0,0.0,0.0,0.0,0.010386724025011063,0.10315342247486115,0.0016205216525122523,20175.0,1495.0,6567.0,20087.0,0.9452057480812073,-0.044506072998046875,0.08354443311691284,0.9366399645805359,0.0,0.0,0.0,0.0,0.0,0.0,0.0,0.0,1.8391627073287964,0.05423267672594583,0.36373286386137266,0.07813286927022249,-0.07633600383996964,0.02578429877758026,0.0,-0.0072028315626084805,0.023692263290286064,0.0
394,5,0.002335707889869809,-0.00016568221326451749,-0.005234139505773783,-0.0021910744253546,0.010167712345719337,0.00021503060997929424,0.035413820296525955,-0.1400463730096817,0.021467741578817368,0.0,0.0,0.0,0.0,0.0,0.0,0.0030673430301249027,0.019630225375294685,-0.0,0.0,0.0,0.0,-0.05296779423952103,0.06839943677186966,0.004549709614366293,21252.0,2541.0,8265.0,17450.0,1.0530492067337036,0.006665132939815521,0.1403331756591797,0.6982610821723938,0.0,0.0,0.0,0.0,0.0,0.0,0.0,0.0,1.8597846031188965,0.06675443258415391,0.361103877398166,0.08463349215921766,-0.0879649966955185,0.010573829524219036,0.0,0.007563697639852762,0.017226271331310272,0.0
399,5,0.002396178897470236,-0.00014672038378193974,-0.005041985306888819,0.006380083039402962,0.0017916643992066383,-0.022972501814365387,0.035413820296525955,-0.1400463730096817,0.021467741578817368,0.0,0.0,0.0,0.0,0.0,0.0,0.0030673430301249027,0.019630225375294685,-0.0,0.0,0.0,0.0,-0.05296779423952103,0.06839943677186966,0.004549709614366293,21252.0,2541.0,8265.0,17450.0,1.0530492067337036,0.006665132939815521,0.1403331756591797,0.6982610821723938,0.0,0.0,0.0,0.0,0.0,0.0,0.0,0.0,1.8597846031188965,0.07424279007272046,0.36260197284139895,0.084651200251011,-0.0879649966955185,0.010573829524219036,0.0,0.007563697639852762,0.017226271331310272,0.0
404,5,0.00238802214153111,-0.00031673567718826234,-0.004860074259340763,0.0015732323518022895,0.02111850120127201,-0.0310183297842741,0.041603006422519684,-0.15068523585796356,0.022413194179534912,0.0,0.0,0.0,0.0,0.0,0.0,-0.002176379319280386,0.00825879629701376,-0.0,0.0,0.0,0.0,-0.0690789744257927,0.046686094254255295,0.0061957379803061485,21831.0,13853.0,6967.0,10170.0,1.113495111465454,0.4293869137763977,0.09563988447189331,0.22126276791095734,0.0,0.0,0.0,0.0,0.0,0.0,0.0,0.0,1.866833209991455,0.08191898955977545,0.36336695945452036,0.08617617625533033,-0.037150803953409195,-0.007530920207500458,0.0,0.0030673430301249027,0.019630225375294685,0.0
409,5,0.0025013871490955353,-0.0002722138015087694,-0.004658518359065056,0.014233079738914967,0.0031047756783664227,-0.03659400716423988,0.041603006422519684,-0.15068523585796356,0.022413194179534912,0.0,0.0,0.0,0.0,0.0,0.0,-0.002176379319280386,0.00825879629701376,-0.0,0.0,0.0,0.0,-0.0690789744257927,0.046686094254255295,0.0061957379803061485,21831.0,13853.0,6967.0,10170.0,1.113495111465454,0.4293869137763977,0.09563988447189331,0.22126276791095734,0.0,0.0,0.0,0.0,0.0,0.0,0.0,0.0,1.866833209991455,0.08588578419288334,0.365614326972034,0.08599570862796847,-0.037150803953409195,-0.007530920207500458,0.0,0.0030673430301249027,0.019630225375294685,0.0
414,5,0.002491480903699994,-0.0004707368789240718,-0.004837992135435343,0.004504492040723562,0.025064678862690926,0.006899218074977398,0.0564136877655983,-0.1524227410554886,0.024230577051639557,0.0,0.0,0.0,0.0,0.0,0.0,-0.0037606300320476294,0.014784857630729675,-0.0,0.0,0.0,0.0,-0.053960829973220825,0.028469866141676903,0.00658763013780117,20394.0,13485.0,11316.0,10054.0,0.9666706323623657,0.4055594205856323,0.27874696254730225,0.21585623919963837,0.0,0.0,0.0,0.0,0.0,0.0,0.0,0.0,1.8859697580337524,0.08403282892247796,0.35261135622938194,0.08965629938344102,-0.06718694418668747,-0.013146254234015942,0.0,-0.002176379319280386,0.00825879629701376,0.0
419,5,0.0026715502608567476,-0.0005348215927369893,-0.004365095403045416,0.023410126566886902,0.01771603524684906,-0.053987886756658554,0.0564136877655983,-0.1524227410554886,0.024230577051639557,0.0,0.0,0.0,0.0,0.0,0.0,-0.0037606300320476294,0.014784857630729675,-0.0,0.0,0.0,0.0,-0.053960829973220825,0.028469866141676903,0.00658763013780117,20394.0,13485.0,11316.0,10054.0,0.9666706323623657,0.4055594205856323,0.27874696254730225,0.21585623919963837,0.0,0.0,0.0,0.0,0.0,0.0,0.0,0.0,1.8859697580337524,0.09437509846912619,0.36637593326115436,0.0869085795742263,-0.06718694418668747,-0.013146254234015942,0.0,-0.002176379319280386,0.00825879629701376,0.0
425,5,0.0025691534392535686,-0.00028462588670663536,-0.004356091842055321,-0.002923577092587948,-0.022937066853046417,-0.02267562411725521,0.061864983290433884,-0.1469312459230423,0.024977076798677444,0.0,0.0,0.0,0.0,0.0,0.0,-0.019206728786230087,0.021838948130607605,-0.0,0.0,0.0,0.0,-0.027331078425049782,0.02154817432165146,0.004432793706655502,18495.0,12691.0,13444.0,12381.0,0.78861403465271,0.3563648462295532,0.40292906761169434,0.3380618691444397,0.0,0.0,0.0,0.0,0.0,0.0,0.0,0.0,1.9491723775863647,0.07860532092023013,0.35007835042233637,0.08913116239527719,-0.10254611819982529,-0.06938469409942627,0.0,-0.0037606300320476294,0.014784857630729675,0.0
430,5,0.0025741083081811666,-0.0004715008253697306,-0.004578830674290657,-0.0005748567054979503,0.01325016375631094,0.017658410593867302,0.061864983290433884,-0.1469312459230423,0.024977076798677444,0.0,0.0,0.0,0.0,0.0,0.0,-0.019206728786230087,0.021838948130607605,-0.0,0.0,0.0,0.0,-0.027331078425049782,0.02154817432165146,0.004432793706655502,18495.0,12691.0,13444.0,12381.0,0.78861403465271,0.3563648462295532,0.40292906761169434,0.3380618691444397,0.0,0.0,0.0,0.0,0.0,0.0,0.0,0.0,1.9491723775863647,0.07348005928035604,0.33953752216071936,0.09410624374624074,-0.10254611819982529,-0.06938469409942627,0.0,-0.0037606300320476294,0.014784857630729675,0.0
435,5,0.0028889032546430826,-0.0004795348213519901,-0.0046324399299919605,0.03754546865820885,0.006264145951718092,0.013496489264070988,0.058946602046489716,-0.13385672867298126,0.025362273678183556,0.0,0.0,0.0,0.0,0.0,0.0,-0.014565682969987392,0.0025875221472233534,-0.0,0.0,0.0,0.0,-0.004875119309872389,0.020697200670838356,0.0034191918093711138,17315.0,12063.0,14389.0,14560.0,0.687013566493988,0.31974470615386963,0.4653099775314331,0.47710418701171875,0.0,0.0,0.0,0.0,0.0,0.0,0.0,0.0,1.936939001083374,0.06611383473988436,0.34327828265099586,0.08768165738167416,-0.012075507082045078,-0.052291061729192734,0.0,-0.019206728786230087,0.021838948130607605,0.0
440,5,0.0029445947147905827,-0.0004324623732827604,-0.004435957875102758,0.021701166406273842,-0.003143033944070339,-0.01817924901843071,0.058946602046489716,-0.13385672867298126,0.025362273678183556,0.0,0.0,0.0,0.0,0.0,0.0,-0.014565682969987392,0.0025875221472233534,-0.0,0.0,0.0,0.0,-0.004875119309872389,0.020697200670838356,0.0034191918093711138,17315.0,12063.0,14389.0,14560.0,0.687013566493988,0.31974470615386963,0.4653099775314331,0.47710418701171875,0.0,0.0,0.0,0.0,0.0,0.0,0.0,0.0,1.936939001083374,0.06319892516464036,0.34195521563123404,0.08881951554648558,-0.012075507082045078,-0.052291061729192734,0.0,-0.019206728786230087,0.021838948130607605,0.0
445,5,0.003223100211471319,-0.00020825350657105446,-0.0035488971043378115,0.04210112243890762,-0.02816227823495865,-0.11371900141239166,0.05051375925540924,-0.1247113049030304,0.02547439932823181,0.0,0.0,0.0,0.0,0.0,0.0,0.002606756519526243,0.020841427147388458,-0.0,0.0,0.0,0.0,0.0026346752420067787,0.0139924930408597,0.0028791388031095266,16046.0,12605.0,14882.0,14891.0,0.5856287479400635,0.351249098777771,0.49971243739128113,0.500348687171936,0.0,0.0,0.0,0.0,0.0,0.0,0.0,0.0,1.9447506666183472,0.06783552862516644,0.3709238735819706,0.0743164888002596,-0.09765857458114624,0.009396628476679325,0.0,-0.014565682969987392,0.0025875221472233534,0.0
450,5,0.003010762622579932,-0.00047144899144768715,-0.004301354289054871,-0.008640076033771038,0.020318545401096344,0.04480724036693573,0.05051375925540924,-0.1247113049030304,0.02547439932823181,0.0,0.0,0.0,0.0,0.0,0.0,0.002606756519526243,0.020841427147388458,-0.0,0.0,0.0,0.0,0.0026346752420067787,0.0139924930408597,0.0028791388031095266,16046.0,12605.0,14882.0,14891.0,0.5856287479400635,0.351249098777771,0.49971243739128113,0.500348687171936,0.0,0.0,0.0,0.0,0.0,0.0,0.0,0.0,1.9447506666183472,0.054266806808996954,0.3270859722128013,0.08970446312268054,-0.09765857458114624,0.009396628476679325,0.0,-0.014565682969987392,0.0025875221472233534,0.0
455,5,0.0030884421430528164,-0.0004820702597498894,-0.003989773336797953,0.0058655221946537495,0.009401972405612469,-0.019466793164610863,0.030681606382131577,-0.10355269908905029,0.024594714865088463,0.0,0.0,0.0,0.0,0.0,0.0,-0.021838132292032242,-0.003357167122885585,-0.0,0.0,0.0,0.0,-0.008068150840699673,0.01578735001385212,0.0017257265280932188,16790.0,13794.0,13500.0,14438.0,0.6440950632095337,0.4255135655403137,0.40647536516189575,0.46866676211357117,0.0,0.0,0.0,0.0,0.0,0.0,0.0,0.0,1.9470045566558838,0.05932007493672626,0.3249602340295231,0.08937252530543538,0.015746623277664185,-0.07880037277936935,0.0,0.002606756519526243,0.020841427147388458,0.0
460,5,0.0031220288947224617,-0.0005293244612403214,-0.0036927603650838137,0.006376608274877071,0.009431291371583939,-0.04342827573418617,0.030681606382131577,-0.10355269908905029,0.024594714865088463,0.0,0.0,0.0,0.0,0.0,0.0,-0.021838132292032242,-0.003357167122885585,-0.0,0.0,0.0,0.0,-0.008068150840699673,0.01578735001385212,0.0017257265280932188,16790.0,13794.0,13500.0,14438.0,0.6440950632095337,0.4255135655403137,0.40647536516189575,0.46866676211357117,0.0,0.0,0.0,0.0,0.0,0.0,0.0,0.0,1.9470045566558838,0.06374655460744136,0.32292761082404536,0.08956181726761692,0.015746623277664185,-0.07880037277936935,0.0,0.002606756519526243,0.020841427147388458,0.0
465,5,0.0032115464564412832,-0.0005439618253149092,-0.003460755106061697,0.013292771764099598,0.005529001820832491,-0.045211948454380035,0.030681606382131577,-0.10355269908905029,0.024594714865088463,0.0,0.0,0.0,0.0,0.0,0.0,-0.010708210058510303,0.008860237896442413,-0.0,0.0,0.0,0.0,-0.008068150840699673,0.01578735001385212,0.0017257265280932188,16790.0,13794.0,13500.0,14438.0,0.6440950632095337,0.4255135655403137,0.40647536516189575,0.46866676211357117,0.0,0.0,0.0,0.0,0.0,0.0,0.0,0.0,1.9293580055236816,0.06943926908562001,0.3196862478038559,0.08846444756711848,-0.041188836097717285,-0.03829333558678627,0.0,0.002606756519526243,0.020841427147388458,0.0
471,5,0.0031580275390297174,-0.0006460136501118541,-0.0035320320166647434,-0.0011051701148971915,0.014457822777330875,-0.009531525894999504,0.03329329192638397,-0.09029321372509003,0.023548396304249763,0.0,0.0,0.0,0.0,0.0,0.0,-0.010708210058510303,0.008860237896442413,-0.0,0.0,0.0,0.0,-0.03222033008933067,0.012133210897445679,0.0013721532886847854,18225.0,16982.0,11406.0,10539.0,0.7647435069084167,0.6596580147743225,0.283525675535202,0.2390773594379425,0.0,0.0,0.0,0.0,0.0,0.0,0.0,0.0,1.9293580055236816,0.06596208455537958,0.3003493120538187,0.09123624438508648,-0.041188836097717285,-0.03829333558678627,0.0,0.002606756519526243,0.020841427147388458,0.0
476,5,0.003261629957705736,-0.0007307176128961146,-0.0030741391237825155,0.011990226805210114,0.015947598963975906,-0.05875976011157036,0.03329329192638397,-0.09029321372509003,0.023548396304249763,0.0,0.0,0.0,0.0,0.0,0.0,-0.016335172578692436,0.0029011480510234833,-0.0,0.0,0.0,0.0,-0.03222033008933067,0.012133210897445679,0.0013721532886847854,18225.0,16982.0,11406.0,10539.0,0.7647435069084167,0.6596580147743225,0.283525675535202,0.2390773594379425,0.0,0.0,0.0,0.0,0.0,0.0,0.0,0.0,1.908675193786621,0.07624525284827105,0.3039098620895348,0.0896550884158227,-0.013341211713850498,-0.05778687819838524,0.0,0.002606756519526243,0.020841427147388458,0.0
481,5,0.0035381028428673744,-0.0006986577063798904,-0.002687375759705901,0.0379728265106678,0.0025318502448499203,-0.0699155330657959,0.03758024051785469,-0.08070684224367142,0.022688724100589752,0.0,0.0,0.0,0.0,0.0,0.0,-0.016335172578692436,0.0029011480510234833,-0.0,0.0,0.0,0.0,-0.05695810914039612,-0.002372541232034564,0.0003358206304255873,17522.0,17167.0,11323.0,11170.0,0.7043687105178833,0.6748147010803223,0.2791248559951782,0.27104973793029785,0.0,0.0,0.0,0.0,0.0,0.0,0.0,0.0,1.908675193786621,0.083758483799277,0.3110805607453838,0.08412017163615289,-0.013341211713850498,-0.05778687819838524,0.0,-0.021838132292032242,-0.003357167122885585,0.0
486,5,0.003527962602674961,-0.0005113665829412639,-0.002775768283754587,0.01397230476140976,-0.02146219275891781,-0.01735909841954708,0.03758024051785469,-0.08070684224367142,0.022688724100589752,0.0,0.0,0.0,0.0,0.0,0.0,-0.003524230094626546,0.032884206622838974,-0.0,0.0,0.0,0.0,-0.05695810914039612,-0.002372541232034564,0.0003358206304255873,17522.0,17167.0,11323.0,11170.0,0.7043687105178833,0.6748147010803223,0.2791248559951782,0.27104973793029785,0.0,0.0,0.0,0.0,0.0,0.0,0.0,0.0,2.0446572303771973,0.06882081218036695,0.2935250110973665,0.08395896424868,-0.16198650002479553,-0.013356470502912998,0.0,-0.021838132292032242,-0.003357167122885585,0.0
491,5,0.0037377108819782734,-0.0005974165978841484,-0.002028865274041891,0.030758719891309738,0.0017411274602636695,-0.09657199680805206,0.03864669427275658,-0.06402304023504257,0.021133610978722572,0.0,0.0,0.0,0.0,0.0,0.0,-0.003524230094626546,0.032884206622838974,-0.0,0.0,0.0,0.0,-0.02912042662501335,-0.006818272639065981,0.0004157008952461183,15671.0,16690.0,13479.0,12258.0,0.5572096109390259,0.636096715927124,0.4051440954208374,0.33090758323669434,0.0,0.0,0.0,0.0,0.0,0.0,0.0,0.0,2.0446572303771973,0.08113139452222616,0.3121766185986269,0.07749624915675786,-0.16198650002479553,-0.013356470502912998,0.0,-0.010708210058510303,0.008860237896442413,0.0
496,5,0.0022156101185828447,-3.514742275001481e-05,-0.00569904875010252,0.030758719891309738,0.0017411274602636695,-0.09657199680805206,0.03864669427275658,-0.06402304023504257,0.021133610978722572,0.0,0.0,0.0,0.0,0.0,0.0,-0.002679672557860613,0.02851262502372265,-0.0,0.0,0.0,0.0,-0.02912042662501335,-0.006818272639065981,0.0004157008952461183,15671.0,16690.0,13479.0,12258.0,0.5572096109390259,0.636096715927124,0.4051440954208374,0.33090758323669434,0.0,0.0,0.0,0.0,0.0,0.0,0.0,0.0,1.980397343635559,0.044830001438382776,0.11462271134155612,0.04073689694646626,-0.13604451715946198,-0.009836524724960327,0.0,-0.010708210058510303,0.008860237896442413,0.0
