timestamp,dt,pos_x,pos_y,pos_z,vel_x,vel_y,vel_z,roll,pitch,yaw,agv_x,agv_y,agv_z,x_ref,y_ref,z_ref,roll_ref,pitch_ref,yaw_ref,x_vel_ref,y_vel_ref,z_vel_ref,x_torque,y_torque,z_torque,w0,w1,w2,w3,u0,u1,u2,u3,m0req,m1req,m2req,m3req,thrust0,thrust1,thrust2,thrust3,thrust_ref,roll_vicon,pitch_vicon,yaw_vicon,acc_x,acc_y,acc_z
5,5,0.0,0.0,0.0,0.0003758445382118225,-2.953584771603346e-05,-0.002306567272171378,-0.0034014915581792593,-0.10221438854932785,0.009313161484897137,-0.001997099258005619,-0.0005800630315206945,0.003665529191493988,0.0,0.0,0.0,3.666869815788232e-05,0.000358930992661044,-0.0,0.0,0.0,0.0,0.0010600064415484667,0.03065783903002739,0.000841884349938482,1495.0,1495.0,1495.0,1495.0,0.0,0.0,0.0,0.0,0.0,0.0,0.0,0.0,1495.0,1495.0,1495.0,1495.0,1.629583716392517,-0.010791799822490962,0.12018644367915539,-0.004779787668953435,-0.0014094170182943344,0.00011075942893512547,0.0
33,28,0.0,0.0,0.0,0.0014177156845107675,0.000846987939439714,0.001220489270053804,-0.0034014915581792593,-0.10221438854932785,0.009313161484897137,-0.001997099258005619,-0.0005800630315206945,0.003665529191493988,0.0,0.0,0.0,3.666869815788232e-05,0.000358930992661044,-0.0,0.0,0.0,0.0,0.0010600064415484667,0.03065783903002739,0.000841884349938482,1495.0,1495.0,1495.0,1495.0,0.0,0.0,0.0,0.0,0.0,0.0,0.0,0.0,1495.0,1495.0,1495.0,1495.0,1.629583716392517,-0.010335991366606316,0.12058961063913923,-0.005021494215498502,-0.0014094170182943344,0.00011075942893512547,0.0
38,5,0.0,0.0,0.0,0.0009294399060308933,-0.0006396028329618275,-0.00020863715326413512,-0.0033958135172724724,-0.10222643613815308,0.009319868870079517,0.0009029049542732537,0.004492890555411577,0.0009203475783579051,0.0,0.0,0.0,3.666869815788232e-05,0.000358930992661044,-0.0,0.0,0.0,0.0,0.0010439305333420634,0.030841220170259476,0.0009502377361059189,1495.0,1495.0,1495.0,1495.0,0.0,0.0,0.0,0.0,0.0,0.0,0.0,0.0,1495.0,1495.0,1495.0,1495.0,1.629583716392517,-0.00932750850315654,0.1212589583021644,-0.005476648741962612,-0.0014094170182943344,0.00011075942893512547,0.0
43,5,0.0,0.0,0.0,0.0010347671341151,0.0008292793063446879,-0.00034523315844126046,-0.0033958135172724724,-0.10222643613815308,0.009319868870079517,0.0009029049542732537,0.004492890555411577,0.0009203475783579051,0.0,0.0,0.0,3.666869815788232e-05,0.000358930992661044,-0.0,0.0,0.0,0.0,0.0010439305333420634,0.030841220170259476,0.0009502377361059189,1495.0,1495.0,1495.0,1495.0,0.0,0.0,0.0,0.0,0.0,0.0,0.0,0.0,1495.0,1495.0,1495.0,1495.0,1.629583716392517,-0.010776403249589126,0.12048699562073943,-0.005042897759337872,-0.0014094170182943344,0.00011075942893512547,0.0
48,5,0.0,0.0,0.0,-0.0001970924058696255,0.00043523070053197443,-0.00018177337187808007,-0.0034150208812206984,-0.10225224494934082,0.009323916397988796,0.0008380266954191029,0.0050794510170817375,0.0012755976058542728,0.0,0.0,0.0,-0.0005399981164373457,-0.00018810454639606178,-0.0,0.0,0.0,0.0,0.001044958713464439,0.03084591031074524,0.0009839454432949424,15802.0,10528.0,11638.0,15276.0,0.567000150680542,0.23853562772274017,0.29606345295906067,0.5279844403266907,0.0,0.0,0.0,0.0,1495.0,1495.0,1495.0,1495.0,1.6306097507476807,-0.011223486093501737,0.12006784531799441,-0.004809648580098349,0.0007390965474769473,-0.0016321151051670313,0.0
56,8,-2.2944957891013473e-05,-5.966550133962301e-07,9.083035365620162e-06,-0.0028322318103164434,0.0002456908696331084,-0.0011626735795289278,-0.0034150208812206984,-0.10225224494934082,0.009323916397988796,0.0008380266954191029,0.0050794510170817375,0.0012755976058542728,0.0,0.0,0.0,-0.0005399981164373457,-0.00018810454639606178,-0.0,0.0,0.0,0.0,0.001044958713464439,0.03084591031074524,0.0009839454432949424,15802.0,10528.0,11638.0,15276.0,0.567000150680542,0.23853562772274017,0.29606345295906067,0.5279844403266907,0.0,0.0,0.0,0.0,1495.0,1495.0,1495.0,1495.0,1.6306097507476807,-0.010767352076540481,0.12097715873050029,-0.004905279989799121,0.0007390965474769473,-0.0016321151051670313,0.0
64,8,-2.2944957891013473e-05,-5.966550133962301e-07,9.083035365620162e-06,-0.0028322318103164434,0.0002456908696331084,-0.0011626735795289278,-0.0034150208812206984,-0.10225224494934082,0.009323916397988796,0.0008380266954191029,0.0050794510170817375,0.0012755976058542728,0.0,0.0,0.0,-0.0003014181856997311,-0.0026949732564389706,-0.0,0.0,0.0,0.0,0.001044958713464439,0.03084591031074524,0.0009839454432949424,15802.0,10528.0,11638.0,15276.0,0.567000150680542,0.23853562772274017,0.29606345295906067,0.5279844403266907,0.0,0.0,0.0,0.0,1495.0,1495.0,1495.0,1495.0,1.6549595594406128,-0.010767352076540481,0.12097715873050029,-0.004905279989799121,0.010747146792709827,-0.0009246244444511831,0.0
69,5,-1.619310751266312e-05,-6.525756930386706e-07,1.2881846487289295e-05,0.0008266275399364531,-0.000410736829508096,-0.00022349940263666213,-0.003423039335757494,-0.10227860510349274,0.009340406395494938,0.001950905192643404,0.0013809851370751858,0.0012030923971906304,0.0,0.0,0.0,-0.0003014181856997311,-0.0026949732564389706,-0.0,0.0,0.0,0.0,0.0007337531424127519,0.031130027025938034,0.0008891319157555699,15855.0,10609.0,11609.0,15320.0,0.5710543394088745,0.24250370264053345,0.29449349641799927,0.5311853289604187,0.0,0.0,0.0,0.0,15780.0,10556.0,11605.0,15304.0,1.6549595594406128,-0.010332541327096429,0.12076501120427469,-0.005232581561354266,0.010747146792709827,-0.0009246244444511831,0.0
74,5,-6.545059932250297e-06,-9.497045994066866e-07,1.5419645933434367e-05,0.0014884168049320579,-0.00012863926531281322,-0.0003939357993658632,-0.003423039335757494,-0.10227860510349274,0.009340406395494938,0.001950905192643404,0.0013809851370751858,0.0012030923971906304,0.0,0.0,0.0,-0.0003014181856997311,-0.0026949732564389706,-0.0,0.0,0.0,0.0,0.0007337531424127519,0.031130027025938034,0.0008891319157555699,15855.0,10609.0,11609.0,15320.0,0.5710543394088745,0.24250370264053345,0.29449349641799927,0.5311853289604187,0.0,0.0,0.0,0.0,15780.0,10556.0,11605.0,15304.0,1.6549595594406128,-0.009656055265102952,0.120894705650574,-0.005669145131546709,0.010747146792709827,-0.0009246244444511831,0.0
79,5,1.2904130208823972e-08,2.4154333004844375e-06,3.1134240998653695e-05,0.0013823223998770118,-0.00045527226757258177,-0.0020433259196579456,-0.0034050194080919027,-0.10225315392017365,0.009371349588036537,0.001377567183226347,-0.00047928548883646727,0.005860588047653437,0.0,0.0,0.0,0.00015689026622567326,0.0014025515411049128,-0.0,0.0,0.0,0.0,0.0008368710405193269,0.030628176406025887,0.0010828559752553701,15846.0,10512.0,11689.0,15217.0,0.5703390836715698,0.23773548007011414,0.29885098338127136,0.5236841440200806,0.0,0.0,0.0,0.0,15866.0,10595.0,11644.0,15291.0,1.6408435106277466,-0.010109528331661958,0.12092293899105724,-0.005394732729086201,-0.005545462016016245,0.000477168447105214,0.0
84,5,1.0990047485393006e-05,6.337416380119976e-06,4.0162041841540486e-05,0.0018701861845329404,-0.0006527468794956803,-0.0019006661605089903,-0.0034135591704398394,-0.1022479310631752,0.009370178915560246,-0.0027313230093568563,0.005372657906264067,-0.00034770744969137013,0.0,0.0,0.0,0.0008136976393871009,0.0017833623569458723,-0.0,0.0,0.0,0.0,0.000953277456574142,0.029895015060901642,0.0008847283315844834,15819.0,10773.0,11782.0,15330.0,0.5683392286300659,0.25068485736846924,0.30399882793426514,0.5319365859031677,0.0,0.0,0.0,0.0,15869.0,10699.0,11828.0,15294.0,1.6460691690444946,-0.009388642243283802,0.12135103087811046,-0.005810905555864549,-0.007073578890413046,0.0024826733861118555,0.0
89,5,-2.6038844225695357e-05,-1.2210390195832588e-05,5.008188963984139e-05,-0.0036953925155103207,0.0019646380096673965,-0.0019506481476128101,-0.0034135591704398394,-0.1022479310631752,0.009370178915560246,-0.0027313230093568563,0.005372657906264067,-0.00034770744969137013,0.0,0.0,0.0,0.0008136976393871009,0.0017833623569458723,-0.0,0.0,0.0,0.0,0.000953277456574142,0.029895015060901642,0.0008847283315844834,15819.0,10773.0,11782.0,15330.0,0.5683392286300659,0.25068485736846924,0.30399882793426514,0.5319365859031677,0.0,0.0,0.0,0.0,15869.0,10699.0,11828.0,15294.0,1.6460691690444946,-0.008717514487231936,0.12330189932756086,-0.006330731093896951,-0.007073578890413046,0.0024826733861118555,0.0
94,5,7.483179729206313e-07,-8.211633939936291e-06,2.0362700524856336e-05,0.0017363025108352304,0.00030600448371842504,0.002786043332889676,-0.0034135591704398394,-0.1022479310631752,0.009370178915560246,-0.0027313230093568563,0.005372657906264067,-0.00034770744969137013,0.0,0.0,0.0,0.0008136976393871009,0.0017833623569458723,-0.0,0.0,0.0,0.0,0.000953277456574142,0.029895015060901642,0.0008847283315844834,15819.0,10773.0,11782.0,15330.0,0.5683392286300659,0.25068485736846924,0.30399882793426514,0.5319365859031677,0.0,0.0,0.0,0.0,15869.0,10699.0,11828.0,15294.0,1.6460691690444946,-0.007810089484548873,0.12247478807282904,-0.006350073674736177,-0.007073578890413046,0.0024826733861118555,0.0
99,5,6.214807854121318e-06,6.175685030029854e-07,1.0951796866720542e-05,0.0013504998059943318,-0.0009371025371365249,0.0022437258157879114,-0.003434808924794197,-0.1022651195526123,0.009400081820786,9.395500092068687e-05,-0.0003006948682013899,0.0026640903670340776,0.0,0.0,0.0,-0.00039146756171248853,0.0016449436079710722,-0.0,0.0,0.0,0.0,0.0012378087267279625,0.031452011317014694,0.0010241386480629444,15886.0,10538.0,11692.0,15366.0,0.5734145045280457,0.23900799453258514,0.2990557551383972,0.5345908403396606,0.0,0.0,0.0,0.0,15883.0,10522.0,11678.0,15320.0,1.6437065601348877,-0.008089189696052027,0.12192871580995454,-0.006331332746934808,-0.00651518814265728,-0.0011926927836611867,-0.0
104,5,-2.908688429670292e-06,-1.5492654483750812e-06,9.952596883522347e-06,-0.0005546196480281651,-0.0001148209412349388,0.0010173943592235446,-0.003434808924794197,-0.1022651195526123,0.009400081820786,9.395500092068687e-05,-0.0003006948682013899,0.0026640903670340776,0.0,0.0,0.0,-0.00039146756171248853,0.0016449436079710722,-0.0,0.0,0.0,0.0,0.0012378087267279625,0.031452011317014694,0.0010241386480629444,15886.0,10538.0,11692.0,15366.0,0.5734145045280457,0.23900799453258514,0.2990557551383972,0.5345908403396606,0.0,0.0,0.0,0.0,15883.0,10522.0,11678.0,15320.0,1.6437065601348877,-0.008514578382828488,0.12166957569893201,-0.006433402159099353,-0.00651518814265728,-0.0011926927836611867,-0.0
110,5,-9.67074174695881e-06,-1.1354733032931108e-05,1.7394575479556806e-05,-0.0010332942474633455,0.0011307277018204331,-0.0004860796616412699,-0.0034179550129920244,-0.1022886410355568,0.009429318830370903,0.0006418131524696946,0.004733365029096603,0.0010532301384955645,0.0,0.0,0.0,0.00013955484610050917,-0.0005331102875061333,-0.0,0.0,0.0,0.0,0.00131174735724926,0.03137185424566269,0.0009184640948660672,15891.0,10562.0,11640.0,15352.0,0.5737687349319458,0.24018003046512604,0.296172559261322,0.5335853099822998,0.0,0.0,0.0,0.0,15891.0,10521.0,11707.0,15361.0,1.6315497159957886,-0.008532555598642123,0.12208023560064435,-0.005987345704933596,0.0020958937238901854,0.0004220401751808822,-0.0
115,5,8.45683189254487e-06,-3.941950126318261e-06,1.6131032680277713e-05,0.0017619910649955273,-0.0004372428811620921,-4.280686334823258e-05,-0.0034179550129920244,-0.1022886410355568,0.009429318830370903,0.0006418131524696946,0.004733365029096603,0.0010532301384955645,0.0,0.0,0.0,0.00013955484610050917,-0.0005331102875061333,-0.0,0.0,0.0,0.0,0.00131174735724926,0.03137185424566269,0.0009184640948660672,15891.0,10562.0,11640.0,15352.0,0.5737687349319458,0.24018003046512604,0.296172559261322,0.5335853099822998,0.0,0.0,0.0,0.0,15891.0,10521.0,11707.0,15361.0,1.6315497159957886,-0.00835163744797586,0.12203350901065671,-0.006126445717952586,0.0020958937238901854,0.0004220401751808822,-0.0
120,5,2.0538926115420963e-09,1.0308512173651252e-05,9.527100701234303e-06,-0.0003097768931183964,-0.0018849525367841125,0.0007753492100164294,-0.0033965192269533873,-0.10227179527282715,0.009449752047657967,0.0002786361728794873,-0.0030516565311700106,0.006056595593690872,0.0,0.0,0.0,0.0005308497347868979,0.0016793543472886086,-0.0,0.0,0.0,0.0,0.0009039086289703846,0.031224051490426064,0.001065935823135078,15839.0,10494.0,11730.0,15217.0,0.5698021650314331,0.2368677854537964,0.3011437654495239,0.5237360596656799,0.0,0.0,0.0,0.0,15895.0,10563.0,11636.0,15350.0,1.6443136930465698,-0.010888949420640868,0.12038728806431337,-0.004468717393538001,-0.006653936579823494,0.001617948873899877,0.0
125,5,-1.8515504052629694e-05,-4.5048154788673855e-06,3.105342329945415e-05,-0.002346017863601446,0.001023618271574378,-0.0022730189375579357,-0.00339131779037416,-0.10227320343255997,0.009479363448917866,-0.0004114792973268777,0.005915826186537743,-0.003229730064049363,0.0,0.0,0.0,-0.0012616601306945086,-0.0022356142289936543,-0.0,0.0,0.0,0.0,0.0010793606052175164,0.03070814535021782,0.0010249781189486384,15869.0,10553.0,11643.0,15387.0,0.572083055973053,0.23976771533489227,0.2963533103466034,0.5361095666885376,0.0,0.0,0.0,0.0,15833.0,10499.0,11700.0,15243.0,1.6520304679870605,-0.01066310668485475,0.12098335239592292,-0.005135471030316098,0.008899509906768799,-0.0038633919321000576,0.0
131,6,-3.060262088183663e-06,2.4625483092677314e-06,2.4372562620555982e-05,0.00040615000762045383,-0.0013258858816698194,0.0006814836524426937,-0.00339131779037416,-0.10227320343255997,0.009479363448917866,-0.0004114792973268777,0.005915826186537743,-0.003229730064049363,0.0,0.0,0.0,-0.0012616601306945086,-0.0022356142289936543,-0.0,0.0,0.0,0.0,0.0010793606052175164,0.03070814535021782,0.0010249781189486384,15869.0,10553.0,11643.0,15387.0,0.572083055973053,0.23976771533489227,0.2963533103466034,0.5361095666885376,0.0,0.0,0.0,0.0,15833.0,10499.0,11700.0,15243.0,1.6520304679870605,-0.009887960616354718,0.12075195027953999,-0.005177539251661701,0.008899509906768799,-0.0038633919321000576,0.0
136,5,-2.069346737698652e-05,-1.555881681269966e-06,-8.503269782522693e-06,-0.0019535247702151537,-4.814277417608537e-05,0.004217693582177162,-0.00339131779037416,-0.10227320343255997,0.009479363448917866,-0.0004114792973268777,0.005915826186537743,-0.003229730064049363,0.0,0.0,0.0,-0.0012616601306945086,-0.0022356142289936543,-0.0,0.0,0.0,0.0,0.0010793606052175164,0.03070814535021782,0.0010249781189486384,15869.0,10553.0,11643.0,15387.0,0.572083055973053,0.23976771533489227,0.2963533103466034,0.5361095666885376,0.0,0.0,0.0,0.0,15833.0,10499.0,11700.0,15243.0,1.6520304679870605,-0.01061507887362811,0.12071289352587629,-0.0047030533270069055,0.008899509906768799,-0.0038633919321000576,0.0
141,5,-2.1002901121391915e-05,5.2764480642508715e-06,6.045615464245202e-06,-0.0008185419719666243,-0.0008391366573050618,-5.878886440768838e-05,-0.003393070073798299,-0.10229628533124924,0.009463467635214329,-0.0010841217590495944,0.0019461034098640084,0.0019433689303696156,0.0,0.0,0.0,5.6353812396992e-05,-0.0018758394289761782,-0.0,0.0,0.0,0.0,0.0012063669273629785,0.031423021107912064,0.0009558289311826229,15879.0,10708.0,11773.0,15279.0,0.5728445053100586,0.24744361639022827,0.3034793734550476,0.5282630324363708,0.0,0.0,0.0,0.0,15847.0,10591.0,11597.0,15418.0,1.6459203958511353,-0.010580401740716174,0.12050736122772072,-0.004765772405169143,0.0074397120624780655,0.00017192565428558737,0.0
146,5,-3.8685528124915436e-05,-5.803967724204995e-06,7.213674507511314e-06,-0.0024493320379406214,0.0009939952287822962,-0.0001636825909372419,-0.003393070073798299,-0.10229628533124924,0.009463467635214329,-0.0010841217590495944,0.0019461034098640084,0.0019433689303696156,0.0,0.0,0.0,5.6353812396992e-05,-0.0018758394289761782,-0.0,0.0,0.0,0.0,0.0012063669273629785,0.031423021107912064,0.0009558289311826229,15879.0,10708.0,11773.0,15279.0,0.5728445053100586,0.24744361639022827,0.3034793734550476,0.5282630324363708,0.0,0.0,0.0,0.0,15847.0,10591.0,11597.0,15418.0,1.6459203958511353,-0.01081060503801063,0.12096053192235695,-0.005038836089768796,0.0074397120624780655,0.00017192565428558737,0.0
151,5,-2.1136633222340606e-05,3.688273864099756e-06,-2.7157637305208482e-05,0.001126134768128395,-0.0007414708961732686,0.004059084225445986,-0.00339897396042943,-0.10232467949390411,0.00947181973606348,-0.0008212217944674194,0.0014384075766429305,0.0008642047178000212,0.0,0.0,0.0,-0.0012268818682059646,-0.002359237754717469,-0.0,0.0,0.0,0.0,0.0006327367736957967,0.030368495732545853,0.0010139498626813293,15845.0,10633.0,11759.0,15293.0,0.5702511668205261,0.24368517100811005,0.3027467727661133,0.5292372703552246,0.0,0.0,0.0,0.0,15859.0,10738.0,11745.0,15301.0,1.653165340423584,-0.010389128927851137,0.12105631080124853,-0.004911181327774293,0.009398081339895725,-0.003759476589038968,0.0
156,5,5.365334072848782e-05,4.61142735730391e-05,-0.00016235736256930977,0.009425250813364983,-0.005387708079069853,0.01784759946167469,-0.00339897396042943,-0.10232467949390411,0.00947181973606348,-0.0008212217944674194,0.0014384075766429305,0.0008642047178000212,0.0,0.0,0.0,-0.0012268818682059646,-0.002359237754717469,-0.0,0.0,0.0,0.0,0.0006327367736957967,0.030368495732545853,0.0010139498626813293,15845.0,10633.0,11759.0,15293.0,0.5702511668205261,0.24368517100811005,0.3027467727661133,0.5292372703552246,0.0,0.0,0.0,0.0,15859.0,10738.0,11745.0,15301.0,1.653165340423584,-0.009045462376139539,0.1216959208586813,-0.004034018866014844,0.009398081339895725,-0.003759476589038968,0.0
161,5,8.716496085980907e-05,2.518253677408211e-05,-0.00020227910135872662,0.0077914949506521225,0.00035672489320859313,0.011929649859666824,-0.0033631492406129837,-0.10232696682214737,0.009510217234492302,0.01094965822994709,0.002711691427975893,0.03410521522164345,0.0,0.0,0.0,0.0063577573746442795,0.008520158007740974,-0.0,0.0,0.0,0.0,0.0009186179377138615,0.030388876795768738,0.0012114803539589047,16051.0,10344.0,12004.0,15081.0,0.5859842896461487,0.22960682213306427,0.316413015127182,0.5139162540435791,0.0,0.0,0.0,0.0,15825.0,10662.0,11741.0,15307.0,1.7359930276870728,-0.008774735361077377,0.12138693867017016,-0.005050838022000292,-0.03563965484499931,0.020457621663808823,0.0
167,5,9.766435687197372e-05,2.9377326427493244e-05,-0.0002185008634114638,0.004376525525003672,-0.00036068481858819723,0.006718470249325037,-0.0033631492406129837,-0.10232696682214737,0.009510217234492302,0.01094965822994709,0.002711691427975893,0.03410521522164345,0.0,0.0,0.0,0.0063577573746442795,0.008520158007740974,-0.0,0.0,0.0,0.0,0.0009186179377138615,0.030388876795768738,0.0012114803539589047,16051.0,10344.0,12004.0,15081.0,0.5859842896461487,0.22960682213306427,0.316413015127182,0.5139162540435791,0.0,0.0,0.0,0.0,15825.0,10662.0,11741.0,15307.0,1.7359930276870728,-0.00811376647058263,0.12186712424753914,-0.004554815373956009,-0.03563965484499931,0.020457621663808823,0.0
172,5,8.944038563640788e-05,5.938502727076411e-05,-0.00020306323131080717,0.0007637332892045379,-0.0037451977841556072,0.0008348717237822711,-0.003361054230481386,-0.10239271074533463,0.008975589647889137,0.0034380070865154266,0.014796249568462372,-0.07002251595258713,0.0,0.0,0.0,0.0004887017421424389,0.0042075831443071365,-0.0,0.0,0.0,0.0,0.0006465798942372203,0.030546287074685097,-0.0025335163809359074,15186.0,12098.0,10515.0,16924.0,0.5214387774467468,0.32171890139579773,0.2378816306591034,0.6549537181854248,0.0,0.0,0.0,0.0,16210.0,10220.0,12217.0,14924.0,1.6717429161071777,-0.008428225806111763,0.12149277329257915,-0.0035423502326812767,-0.01694933883845806,0.0015143348136916757,0.0
177,5,8.54813406476751e-05,2.8906484658364207e-05,-0.0001878559560282156,-0.0001695920218480751,0.002159345895051956,-0.0014909232268109918,-0.003361054230481386,-0.10239271074533463,0.008975589647889137,0.0034380070865154266,0.014796249568462372,-0.07002251595258713,0.0,0.0,0.0,0.0004887017421424389,0.0042075831443071365,-0.0,0.0,0.0,0.0,0.0006465798942372203,0.030546287074685097,-0.0025335163809359074,15186.0,12098.0,10515.0,16924.0,0.5214387774467468,0.32171890139579773,0.2378816306591034,0.6549537181854248,0.0,0.0,0.0,0.0,16210.0,10220.0,12217.0,14924.0,1.6717429161071777,-0.008874656956858958,0.12220685830312508,-0.0048725745094843394,-0.01694933883845806,0.0015143348136916757,0.0
182,5,0.0001154631536337547,2.074759868264664e-05,-0.0002077547542285174,0.00352998124435544,0.0018428046023473144,0.001791486400179565,-0.0032790827099233866,-0.10228213667869568,0.010161740705370903,-0.022601651027798653,-0.008412688039243221,-0.06112902611494064,0.0,0.0,0.0,-0.0025998796336352825,-4.164682104601525e-05,-0.0,0.0,0.0,0.0,0.003208387643098831,0.03277681767940521,0.005073630250990391,16355.0,10356.0,12374.0,15690.0,0.6095734238624573,0.23017825186252594,0.33766624331474304,0.5585750341415405,0.0,0.0,0.0,0.0,16772.0,9724.0,12775.0,15320.0,1.6472703218460083,-0.0081176919918886,0.12204441619005806,-0.00525104535650327,0.00016530924767721444,-0.007938268594443798,0.0
187,5,9.78338866843842e-05,4.014598380308598e-05,-0.00019764654280152172,-0.0007035194430500269,-0.0015906842891126871,-0.0004963903338648379,-0.0032790827099233866,-0.10228213667869568,0.010161740705370903,-0.022601651027798653,-0.008412688039243221,-0.06112902611494064,0.0,0.0,0.0,-0.0025998796336352825,-4.164682104601525e-05,-0.0,0.0,0.0,0.0,0.003208387643098831,0.03277681767940521,0.005073630250990391,16355.0,10356.0,12374.0,15690.0,0.6095734238624573,0.23017825186252594,0.33766624331474304,0.5585750341415405,0.0,0.0,0.0,0.0,16772.0,9724.0,12775.0,15320.0,1.6472703218460083,-0.00863593734100894,0.12214707823186473,-0.0040778150314938495,0.00016530924767721444,-0.007938268594443798,0.0
192,5,8.291278209071606e-05,2.088821383949835e-05,-0.00018342725525144488,-0.002071940805763006,0.0016746585024520755,-0.0019048710819333792,-0.0034352943766862154,-0.10241042822599411,0.009016762487590313,0.012440542690455914,-0.009473616257309914,0.14024241268634796,0.0,0.0,0.0,0.0020307821687310934,-0.0005300960037857294,-0.0,0.0,0.0,0.0,0.0011752849677577615,0.032665982842445374,-0.0014693273697048426,16617.0,9640.0,12515.0,14868.0,0.6302096247673035,0.19692716002464294,0.34591200947761536,0.4986940622329712,0.0,0.0,0.0,0.0,14277.0,12854.0,9084.0,17168.0,1.6434624195098877,-0.008776427775384912,0.12205549731790297,-0.005328181379278454,0.0020992555655539036,0.006186302285641432,0.0
197,5,1.9860415250150254e-06,-2.4626064259791747e-05,-0.00016042253992054611,-0.01053998526185751,0.006131576839834452,-0.0035225136671215296,-0.0034352943766862154,-0.10241042822599411,0.009016762487590313,0.012440542690455914,-0.009473616257309914,0.14024241268634796,0.0,0.0,0.0,0.0020307821687310934,-0.0005300960037857294,-0.0,0.0,0.0,0.0,0.0011752849677577615,0.032665982842445374,-0.0014693273697048426,16617.0,9640.0,12515.0,14868.0,0.6302096247673035,0.19692716002464294,0.34591200947761536,0.4986940622329712,0.0,0.0,0.0,0.0,14277.0,12854.0,9084.0,17168.0,1.6434624195098877,-0.010957018059165054,0.12464387742303386,-0.00629322607337519,0.0020992555655539036,0.006186302285641432,0.0
202,5,8.35125392768532e-05,2.581794251454994e-05,-0.00018650446145329624,0.0055671860463917255,-0.0036006502341479063,0.001720823929645121,-0.0035214568488299847,-0.10220470279455185,0.009143516421318054,0.0045795924961566925,-0.019412698224186897,-0.0819087103009224,0.0,0.0,0.0,-0.007136844098567963,-0.009379240684211254,-0.0,0.0,0.0,0.0,0.0005478704115375876,0.030234238132834435,-0.0017868912545964122,14902.0,12072.0,10299.0,16213.0,0.5011305212974548,0.3202294707298279,0.227447509765625,0.5984628200531006,0.0,0.0,0.0,0.0,15681.0,10717.0,11673.0,15436.0,1.7483950853347778,-0.009193978452182313,0.12083617843962816,-0.004616581345751557,0.03951315954327583,-0.023128509521484375,0.0
207,5,9.364615834783763e-05,1.8477030607755296e-05,-0.0002156912232749164,0.003442908637225628,-0.0005593505338765681,0.0041907415725290775,-0.0035214568488299847,-0.10220470279455185,0.009143516421318054,0.0045795924961566925,-0.019412698224186897,-0.0819087103009224,0.0,0.0,0.0,-0.007136844098567963,-0.009379240684211254,-0.0,0.0,0.0,0.0,0.0005478704115375876,0.030234238132834435,-0.0017868912545964122,14902.0,12072.0,10299.0,16213.0,0.5011305212974548,0.3202294707298279,0.227447509765625,0.5984628200531006,0.0,0.0,0.0,0.0,15681.0,10717.0,11673.0,15436.0,1.7483950853347778,-0.0074754574138142975,0.12168152034378928,-0.005149626125518867,0.03951315954327583,-0.023128509521484375,0.0
212,5,-2.893624514399562e-05,-2.929065522039309e-05,7.798444130457938e-05,-0.013332725502550602,0.005508381873369217,-0.03356478363275528,-0.003519376739859581,-0.1019323319196701,0.009098955430090427,0.037086211144924164,-0.02569812908768654,-0.005898248869925737,0.0,0.0,0.0,0.0007137680076994002,0.0033516206312924623,-0.0,0.0,0.0,0.0,0.0019306435715407133,0.029790520668029785,0.001392832724377513,15798.0,10633.0,11801.0,15275.0,0.5667444467544556,0.2437010109424591,0.30506631731987,0.5279505848884583,0.0,0.0,0.0,0.0,15943.0,11922.0,11946.0,15517.0,1.6625629663467407,-0.011909144667356087,0.1186425908457463,-0.0060146527907583075,-0.013427152298390865,0.00219959975220263,0.0
218,5,2.0066640615823417e-07,3.921458846889436e-05,8.807251106190961e-06,-0.0018366607837378979,-0.006017276551574469,-0.005124650429934263,-0.003519376739859581,-0.1019323319196701,0.009098955430090427,0.037086211144924164,-0.02569812908768654,-0.005898248869925737,0.0,0.0,0.0,0.0007137680076994002,0.0033516206312924623,-0.0,0.0,0.0,0.0,0.0019306435715407133,0.029790520668029785,0.001392832724377513,15798.0,10633.0,11801.0,15275.0,0.5667444467544556,0.2437010109424591,0.30506631731987,0.5279505848884583,0.0,0.0,0.0,0.0,15943.0,11922.0,11946.0,15517.0,1.6625629663467407,-0.008388267813960912,0.12064028506497076,-0.004971742504110804,-0.013427152298390865,0.00219959975220263,0.0
223,5,8.765860548010096e-05,2.7156838768860325e-05,-0.00012060331937391311,0.009760288521647453,-0.0009599806508049369,0.013479407876729965,-0.003519376739859581,-0.1019323319196701,0.009098955430090427,0.037086211144924164,-0.02569812908768654,-0.005898248869925737,0.0,0.0,0.0,0.00727270869538188,-0.0016908301040530205,-0.0,0.0,0.0,0.0,0.0019306435715407133,0.029790520668029785,0.001392832724377513,15798.0,10633.0,11801.0,15275.0,0.5667444467544556,0.2437010109424591,0.30506631731987,0.5279505848884583,0.0,0.0,0.0,0.0,15943.0,11922.0,11946.0,15517.0,1.6899555921554565,-0.008325771311691129,0.11987348430233402,-0.005040491364291439,0.006885183043777943,0.022781016305088997,0.0
228,5,7.913443550933152e-05,2.4576631403760985e-05,-3.3124262699857354e-05,0.002881214953958988,-7.436724263243377e-05,-0.005105723161250353,-0.0033984798938035965,-0.10165059566497803,0.008835961110889912,-0.04656263813376427,-0.04488884285092354,0.003031790489330888,0.0,0.0,0.0,0.00727270869538188,-0.0016908301040530205,-0.0,0.0,0.0,0.0,0.0026354840956628323,0.02975510247051716,-0.00028104372904635966,15947.0,11733.0,12190.0,15467.0,0.5780690908432007,0.3012933135032654,0.3269764184951782,0.5420563220977783,0.0,0.0,0.0,0.0,16161.0,11284.0,12663.0,15195.0,1.6899555921554565,-0.008359371399296656,0.11934317278749845,-0.005222407905988834,0.006885183043777943,0.022781016305088997,0.0
233,5,6.0173893871251494e-05,5.269478788250126e-05,5.724838774767704e-05,-0.0011227793293073773,-0.003403925569728017,-0.012887007556855679,-0.0033984798938035965,-0.10165059566497803,0.008835961110889912,-0.04656263813376427,-0.04488884285092354,0.003031790489330888,0.0,0.0,0.0,0.00013508084521163255,0.0028167564887553453,-0.0,0.0,0.0,0.0,0.0026354840956628323,0.02975510247051716,-0.00028104372904635966,15947.0,11733.0,12190.0,15467.0,0.5780690908432007,0.3012933135032654,0.3269764184951782,0.5420563220977783,0.0,0.0,0.0,0.0,16161.0,11284.0,12663.0,15195.0,1.6562066078186035,-0.00883621745627857,0.11809935356163613,-0.005330556841230857,-0.011241263709962368,0.0004146835708525032,0.0
238,5,3.8768102967878804e-05,6.981245678616688e-05,0.00016579966177232563,-0.0030178066808730364,-0.003415690967813134,-0.018180957064032555,-0.0041967155411839485,-0.10075989365577698,0.008705820888280869,-0.03651729226112366,-0.14724773168563843,-0.018511829897761345,0.0,0.0,0.0,0.00013508084521163255,0.0028167564887553453,-0.0,0.0,0.0,0.0,0.0026354840956628323,0.02975510247051716,-0.00028104372904635966,15388.0,11279.0,11611.0,15641.0,0.5362234711647034,0.2768112123012543,0.29462072253227234,0.5549075603485107,0.0,0.0,0.0,0.0,15697.0,10815.0,12293.0,15133.0,1.6562066078186035,-0.008958935132834148,0.11624702635851526,-0.005257068332542033,-0.011241263709962368,0.0004146835708525032,0.0
243,5,-3.46859815181233e-05,-3.915628622053191e-05,0.0004719552234746516,-0.010021612979471684,0.011709973216056824,-0.04401105269789696,-0.0041967155411839485,-0.10075989365577698,0.008705820888280869,-0.03651729226112366,-0.14724773168563843,-0.018511829897761345,0.0,0.0,0.0,0.004256287589669228,-0.0027550063095986843,-0.0,0.0,0.0,0.0,0.0026354840956628323,0.02975510247051716,-0.00028104372904635966,15388.0,11279.0,11611.0,15641.0,0.5362234711647034,0.2768112123012543,0.29462072253227234,0.5549075603485107,0.0,0.0,0.0,0.0,15697.0,10815.0,12293.0,15133.0,1.672357439994812,-0.01666532620487375,0.10895920336550773,-0.006868745995103008,0.011101946234703064,0.013193689286708832,0.0
248,5,-8.394259930355474e-05,9.066359052667394e-05,0.00041554722702130675,-0.009919439442455769,-0.010894395411014557,-0.01083545945584774,-0.004494574852287769,-0.09895522147417068,0.008768309839069843,-0.04184890538454056,-0.3622909188270569,-0.03677643463015556,0.0,0.0,0.0,0.004256287589669228,-0.0027550063095986843,-0.0,0.0,0.0,0.0,0.0021454363595694304,0.01693829335272312,0.0012685781111940742,14925.0,11803.0,12558.0,15353.0,0.5027409195899963,0.3051316738128662,0.3484809398651123,0.5336020588874817,0.0,0.0,0.0,0.0,14772.0,12024.0,12590.0,15305.0,1.672357439994812,-0.010665957048196515,0.11049479005424424,-0.004976659197675006,0.011101946234703064,0.013193689286708832,0.0
253,5,-0.0002569979114923626,5.345600948203355e-05,0.0008180686854757369,-0.024734413251280785,0.00010715125972637907,-0.0526367612183094,-0.004494574852287769,-0.09895522147417068,0.008768309839069843,-0.04184890538454056,-0.3622909188270569,-0.03677643463015556,0.0,0.0,0.0,0.012568961828947067,-0.008804806508123875,-0.0,0.0,0.0,0.0,0.0021454363595694304,0.01693829335272312,0.0012685781111940742,14925.0,11803.0,12558.0,15353.0,0.5027409195899963,0.3051316738128662,0.3484809398651123,0.5336020588874817,0.0,0.0,0.0,0.0,14772.0,12024.0,12590.0,15305.0,1.7751233577728271,-0.014934798933784526,0.10362426194218587,-0.006684741760443606,0.037658270448446274,0.04135382920503616,0.0
258,5,-0.0002817004278767854,0.00012966715439688414,0.0007440811605192721,-0.012858068570494652,-0.009102476760745049,-0.012176197953522205,-0.004879977088421583,-0.09343672543764114,0.008667191490530968,-0.03704104200005531,-0.620498776435852,0.009943855926394463,0.0,0.0,0.0,0.012568961828947067,-0.008804806508123875,-0.0,0.0,0.0,0.0,0.0020026143174618483,0.004826579242944717,0.0001754343102220446,15040.0,11690.0,13328.0,14175.0,0.510962963104248,0.29892659187316895,0.395538330078125,0.4507787227630615,0.0,0.0,0.0,0.0,14494.0,12406.0,12966.0,14473.0,1.7751233577728271,-0.009452014509878906,0.1015296361330833,-0.00537762054851507,0.037658270448446274,0.04135382920503616,0.0
263,5,-0.00037596069159917533,0.00015408327453769743,0.0009290628950111568,-0.016454458236694336,-0.0065709250047802925,-0.02706828899681568,-0.004879977088421583,-0.09343672543764114,0.008667191490530968,-0.03704104200005531,-0.620498776435852,0.009943855926394463,0.0,0.0,0.0,0.010517073795199394,-0.011553635820746422,-0.0,0.0,0.0,0.0,0.0020026143174618483,0.004826579242944717,0.0001754343102220446,15040.0,11690.0,13328.0,14175.0,0.510962963104248,0.29892659187316895,0.395538330078125,0.4507787227630615,0.0,0.0,0.0,0.0,14494.0,12406.0,12966.0,14473.0,1.7877331972122192,-0.010053455602883234,0.09371701957741153,-0.0046900798441512955,0.04976678639650345,0.03484910726547241,0.0
268,5,-0.0005874263006262481,0.00014715980796609074,0.0012897723354399204,-0.031957656145095825,-0.001797554432414472,-0.054112453013658524,-0.004713152069598436,-0.08753406256437302,0.008513438515365124,0.08787938207387924,-0.9519624710083008,-0.03261948749423027,0.0,0.0,0.0,0.010517073795199394,-0.011553635820746422,-0.0,0.0,0.0,0.0,0.0021708218846470118,-0.008370155468583107,0.0008277883171103895,13729.0,13431.0,13508.0,14044.0,0.4212876856327057,0.40208491683006287,0.4069764316082001,0.4420084059238434,0.0,0.0,0.0,0.0,13794.0,13449.0,13942.0,13530.0,1.7877331972122192,-0.008968324608302311,0.08679955858190813,-0.005526445559779486,0.04976678639650345,0.03484910726547241,0.0
273,5,-0.0005923495627939701,0.0001999998785322532,0.0012344561982899904,-0.013373851776123047,-0.007059829775243998,-0.015007040463387966,-0.004713152069598436,-0.08753406256437302,0.008513438515365124,0.08787938207387924,-0.9519624710083008,-0.03261948749423027,0.0,0.0,0.0,0.002091903006657958,-0.026225904002785683,-0.0,0.0,0.0,0.0,0.0021708218846470118,-0.008370155468583107,0.0008277883171103895,13729.0,13431.0,13508.0,14044.0,0.4212876856327057,0.40208491683006287,0.4069764316082001,0.4420084059238434,0.0,0.0,0.0,0.0,13794.0,13449.0,13942.0,13530.0,1.9477531909942627,-0.006027715761048605,0.08075728177314938,-0.005333649244630534,0.12307378649711609,0.007552373688668013,0.0
278,5,-0.0007060891366563737,0.00019400181190576404,0.0014217908028513193,-0.018998287618160248,-0.0021041641011834145,-0.028482960537075996,-0.0029299717862159014,-0.07444348186254501,0.008423791266977787,0.20458169281482697,-1.28274667263031,-0.009250406175851822,0.0,0.0,0.0,0.002091903006657958,-0.026225904002785683,-0.0,0.0,0.0,0.0,-0.0003786741872318089,-0.019968273118138313,0.0004284172609914094,13462.0,14459.0,15104.0,13164.0,0.4040839672088623,0.47017139196395874,0.5155763626098633,0.3852916359901428,0.0,0.0,0.0,0.0,13218.0,14710.0,15243.0,12970.0,1.9477531909942627,-0.005193998541362125,0.07306021256003782,-0.005677646560259895,0.12307378649711609,0.007552373688668013,0.0
283,5,-0.0008860616362653673,0.00010582955292193219,0.0017621347215026617,-0.02919601835310459,0.00973900593817234,-0.0522344671189785,-0.0029299717862159014,-0.07444348186254501,0.008423791266977787,0.20458169281482697,-1.28274667263031,-0.009250406175851822,0.0,0.0,0.0,0.002646746812388301,-0.017071856185793877,-0.0,0.0,0.0,0.0,-0.0003786741872318089,-0.019968273118138313,0.0004284172609914094,13462.0,14459.0,15104.0,13164.0,0.4040839672088623,0.47017139196395874,0.5155763626098633,0.3852916359901428,0.0,0.0,0.0,0.0,13218.0,14710.0,15243.0,12970.0,1.8264623880386353,-0.010314811056024957,0.061025479103348566,-0.007189150818502286,0.07513127475976944,0.008960469625890255,0.0
288,5,-0.0009477064595557749,0.0002007767470786348,0.0016692706849426031,-0.01907578855752945,-0.0074980612844228745,-0.00975010171532631,-0.0010839548194780946,-0.06325934082269669,0.008281799033284187,0.2856610119342804,-1.4494577646255493,-0.01661675237119198,0.0,0.0,0.0,0.002646746812388301,-0.017071856185793877,-0.0,0.0,0.0,0.0,-0.004736242815852165,-0.02722158282995224,0.0011813503224402666,13550.0,16345.0,16515.0,11838.0,0.4097101390361786,0.6087943911552429,0.6221244931221008,0.30712422728538513,0.0,0.0,0.0,0.0,13010.0,15323.0,15788.0,11970.0,1.8264623880386353,-0.0026596427579079415,0.05924261185184167,-0.005561218379639384,0.07513127475976944,0.008960469625890255,0.0
294,5,-0.0011187262134626508,0.00015229411656036973,0.001858860021457076,-0.02815268747508526,0.00281869200989604,-0.02665076032280922,-0.0010839548194780946,-0.06325934082269669,0.008281799033284187,0.2856610119342804,-1.4494577646255493,-0.01661675237119198,0.0,0.0,0.0,0.008554519154131413,-0.01728300005197525,-0.0,0.0,0.0,0.0,-0.004736242815852165,-0.02722158282995224,0.0011813503224402666,13550.0,16345.0,16515.0,11838.0,0.4097101390361786,0.6087943911552429,0.6221244931221008,0.30712422728538513,0.0,0.0,0.0,0.0,13010.0,15323.0,15788.0,11970.0,1.8431816101074219,-0.0036668311005648643,0.05356879273553878,-0.006729941458307485,0.0767541155219078,0.0292255487293005,0.0
299,5,-0.0011360596399754286,0.00020522711565718055,0.0018410838674753904,-0.013341080397367477,-0.005224484018981457,-0.008527166210114956,0.002526341238990426,-0.04610242694616318,0.008314590901136398,0.32330724596977234,-1.3679018020629883,0.000338221580022946,0.0,0.0,0.0,0.008554519154131413,-0.01728300005197525,-0.0,0.0,0.0,0.0,-0.0056184688583016396,-0.022212883457541466,0.0011751046404242516,13550.0,16345.0,16515.0,11838.0,0.4097101390361786,0.6087943911552429,0.6221244931221008,0.30712422728538513,0.0,0.0,0.0,0.0,13529.0,16378.0,16236.0,12204.0,1.8431816101074219,-0.0002699318540502074,0.04873072668044239,-0.0055518842723139075,0.0767541155219078,0.0292255487293005,0.0
304,5,-0.0012302221730351448,0.00021070810907986015,0.001936976215802133,-0.016635937616229057,-0.0027475119568407536,-0.014917949214577675,0.002526341238990426,-0.04610242694616318,0.008314590901136398,0.32330724596977234,-1.3679018020629883,0.000338221580022946,0.0,0.0,0.0,0.006261549890041351,-0.013082352466881275,-0.0,0.0,0.0,0.0,-0.0056184688583016396,-0.022212883457541466,0.0011751046404242516,13550.0,16345.0,16515.0,11838.0,0.4097101390361786,0.6087943911552429,0.6221244931221008,0.30712422728538513,0.0,0.0,0.0,0.0,13529.0,16378.0,16236.0,12204.0,1.7856886386871338,-0.00016620694685851888,0.044032519178094205,-0.006122274006039028,0.05628887563943863,0.0207248292863369,0.0
309,5,-0.001286482671275735,0.00022982257360126823,0.0019723365548998117,-0.013405630365014076,-0.0033927401527762413,-0.010210415348410606,0.00732023362070322,-0.026255443692207336,0.00848531536757946,0.0817103460431099,-0.5620051026344299,-0.00012078396684955806,0.0,0.0,0.0,0.006261549890041351,-0.013082352466881275,-0.0,0.0,0.0,0.0,-0.001761858002282679,-0.013060187920928001,0.0010246897581964731,13969.0,14796.0,15378.0,13031.0,0.4370609521865845,0.4935947060585022,0.5354617834091187,0.37706422805786133,0.0,0.0,0.0,0.0,13938.0,15184.0,15669.0,11946.0,1.7856886386871338,0.0014008786816028403,0.042695652484309586,-0.005719239939265064,0.05628887563943863,0.0207248292863369,0.0
314,5,-0.0012969800736755133,0.0002455442154314369,0.0020444421097636223,-0.006621948909014463,-0.0032436943147331476,-0.012736823409795761,0.00732023362070322,-0.026255443692207336,0.00848531536757946,0.0817103460431099,-0.5620051026344299,-0.00012078396684955806,0.0,0.0,0.0,0.004233144223690033,-0.013350221328437328,-0.0,0.0,0.0,0.0,-0.001761858002282679,-0.013060187920928001,0.0010246897581964731,13969.0,14796.0,15378.0,13031.0,0.4370609521865845,0.4935947060585022,0.5354617834091187,0.37706422805786133,0.0,0.0,0.0,0.0,13938.0,15184.0,15669.0,11946.0,1.7832266092300415,0.0027546251322287394,0.04160613597454278,-0.0059050955017985,0.057362768799066544,0.013991869986057281,0.0
319,5,-0.0013631603214889765,0.0002825453702826053,0.002196625806391239,-0.010590411722660065,-0.005737614817917347,-0.023356778547167778,0.00732023362070322,-0.026255443692207336,0.00848531536757946,0.0817103460431099,-0.5620051026344299,-0.00012078396684955806,0.0,0.0,0.0,0.004233144223690033,-0.013350221328437328,-0.0,0.0,0.0,0.0,0.0008859781082719564,-0.002328688744455576,0.0017239253502339125,14780.0,13268.0,14808.0,13509.0,0.49245718121528625,0.39175644516944885,0.4944370687007904,0.4070379436016083,0.0,0.0,0.0,0.0,14234.0,14485.0,15190.0,13314.0,1.7832266092300415,0.0037588951434686336,0.042323065416859616,-0.0059574095118465,0.057362768799066544,0.013991869986057281,0.0
324,5,-0.0013030471745878458,0.0002886311849579215,0.0021248089615255594,0.002977418014779687,-0.0030253459699451923,-0.0007246833411045372,0.00732023362070322,-0.026255443692207336,0.00848531536757946,0.0817103460431099,-0.5620051026344299,-0.00012078396684955806,0.0,0.0,0.0,0.0070486608892679214,-0.011098183691501617,-0.0,0.0,0.0,0.0,0.0008859781082719564,-0.002328688744455576,0.0017239253502339125,14780.0,13268.0,14808.0,13509.0,0.49245718121528625,0.39175644516944885,0.4944370687007904,0.4070379436016083,0.0,0.0,0.0,0.0,14234.0,14485.0,15190.0,13314.0,1.7662575244903564,0.0037380542126052344,0.043266896572144775,-0.006067476813539886,0.04723219573497772,0.023076113313436508,0.0
329,5,-0.001279229181818664,0.0002523054135963321,0.0021684044040739536,0.004049122333526611,0.0031489564571529627,-0.005521348677575588,0.007482613902539015,-0.02367313764989376,0.008694521151483059,-0.0966031551361084,-0.09089265763759613,0.022558143362402916,0.0,0.0,0.0,0.0070486608892679214,-0.011098183691501617,-0.0,0.0,0.0,0.0,0.0017996900714933872,0.008163215592503548,0.00020251287787687033,14916.0,12960.0,13842.0,14599.0,0.5020709037780762,0.372697651386261,0.4286577105522156,0.47980034351348877,0.0,0.0,0.0,0.0,14578.0,13401.0,14332.0,14098.0,1.7662575244903564,0.00017982543888600276,0.04434008782100427,-0.006824232396165872,0.04723219573497772,0.023076113313436508,0.0
334,5,-0.0012444710591807961,0.00035663400194607675,0.002183525124564767,0.005790622439235449,-0.01125984825193882,-0.0040230234153568745,0.007482613902539015,-0.02367313764989376,0.008694521151483059,-0.0966031551361084,-0.09089265763759613,0.022558143362402916,0.0,0.0,0.0,-0.0033815104980021715,0.0020289893727749586,-0.0,0.0,0.0,0.0,0.0017996900714933872,0.008163215592503548,0.00020251287787687033,14916.0,12960.0,13842.0,14599.0,0.5020709037780762,0.372697651386261,0.4286577105522156,0.47980034351348877,0.0,0.0,0.0,0.0,14578.0,13401.0,14332.0,14098.0,1.6614923477172852,0.0039189846596205296,0.045949605062262935,-0.004971515193821403,-0.008123201318085194,-0.010413965210318565,0.0
339,5,-0.0011793547309935093,0.00035686715273186564,0.0021348046138882637,0.010130220092833042,-0.004531916696578264,0.0042372508905828,0.004392606671899557,-0.027077553793787956,0.0089845210313797,-0.1401388943195343,0.31497082114219666,0.02952668070793152,0.0,0.0,0.0,-0.0033815104980021715,0.0020289893727749586,-0.0,0.0,0.0,0.0,0.0032125129364430904,0.012641113251447678,0.002077265176922083,15391.0,12028.0,14052.0,14449.0,0.5364371538162231,0.31777793169021606,0.4425572156906128,0.46948522329330444,0.0,0.0,0.0,0.0,15184.0,12593.0,14008.0,14482.0,1.6614923477172852,0.003456596017514135,0.04774676224405373,-0.005046994385745058,-0.008123201318085194,-0.010413965210318565,0.0
344,5,-0.001157104503363371,0.0003664976393338293,0.002149347448721528,0.006722103338688612,-0.0029684279579669237,-5.0235921662533656e-05,0.004392606671899557,-0.027077553793787956,0.0089845210313797,-0.1401388943195343,0.31497082114219666,0.02952668070793152,0.0,0.0,0.0,0.005933484993875027,0.007574207615107298,-0.0,0.0,0.0,0.0,0.0032125129364430904,0.012641113251447678,0.002077265176922083,15391.0,12028.0,14052.0,14449.0,0.5364371538162231,0.31777793169021606,0.4425572156906128,0.46948522329330444,0.0,0.0,0.0,0.0,15184.0,12593.0,14008.0,14482.0,1.7244632244110107,0.003057308313024456,0.04886788806790615,-0.004684956176806136,-0.031472500413656235,0.018965648487210274,-0.0
349,5,-0.0011841297382488847,0.0003238985955249518,0.0022209002636373043,-0.0005541808204725385,0.003924514167010784,-0.008606423623859882,0.0029207055922597647,-0.030168751254677773,0.009214986115694046,-0.07765547931194305,0.16763238608837128,0.019062157720327377,0.0,0.0,0.0,0.005933484993875027,0.007574207615107298,-0.0,0.0,0.0,0.0,0.002959693782031536,0.011816282756626606,0.0013502934016287327,15210.0,11932.0,13079.0,14103.0,0.5231772661209106,0.3123352527618408,0.38002461194992065,0.44595521688461304,0.0,0.0,0.0,0.0,15214.0,12244.0,13916.0,14588.0,1.7244632244110107,0.0005504744476988861,0.04875814969194542,-0.005450328178216915,-0.031472500413656235,0.018965648487210274,-0.0
354,5,-0.001122349058277905,0.0002668268862180412,0.002198762958869338,0.007192008197307587,0.008418411947786808,-0.0007861006306484342,0.0029207055922597647,-0.030168751254677773,0.009214986115694046,-0.07765547931194305,0.16763238608837128,0.019062157720327377,0.0,0.0,0.0,0.005933484993875027,0.007574207615107298,-0.0,0.0,0.0,0.0,0.002959693782031536,0.011816282756626606,0.0013502934016287327,15210.0,11932.0,13079.0,14103.0,0.5231772661209106,0.3123352527618408,0.38002461194992065,0.44595521688461304,0.0,0.0,0.0,0.0,15214.0,12244.0,13916.0,14588.0,1.7244632244110107,-0.0038441712647739462,0.045620159725079164,-0.006457213238643256,-0.020763806998729706,-0.030092371627688408,0.0
360,5,-0.001220267964527011,0.00033459323458373547,0.0023067547008395195,-0.008873466402292252,-0.0047645969316363335,-0.013273455202579498,0.0024511758238077164,-0.0307310838252306,0.009459372609853745,-0.013498855754733086,-0.07100282609462738,0.008137490600347519,0.0,0.0,0.0,-0.00941725354641676,0.004998513497412205,-0.0,0.0,0.0,0.0,-0.0012403419241309166,0.010126149281859398,0.001654694089666009,15023.0,12434.0,13720.0,14206.0,0.509759783744812,0.34115320444107056,0.42067497968673706,0.4528752565383911,0.0,0.0,0.0,0.0,15159.0,11974.0,13357.0,13860.0,1.723992109298706,0.002173707867864173,0.04839240415913772,-0.004908750197929707,-0.020763806998729706,-0.030092371627688408,0.0
365,5,-0.001161355758085847,0.00031723774736747146,0.0021494438406080008,0.0035200747661292553,0.0001768204674590379,0.013567933812737465,0.0024511758238077164,-0.0307310838252306,0.009459372609853745,-0.013498855754733086,-0.07100282609462738,0.008137490600347519,0.0,0.0,0.0,0.00035826562088914216,0.0017099814722314477,-0.0,0.0,0.0,0.0,-0.0012403419241309166,0.010126149281859398,0.001654694089666009,15023.0,12434.0,13720.0,14206.0,0.509759783744812,0.34115320444107056,0.42067497968673706,0.4528752565383911,0.0,0.0,0.0,0.0,15159.0,11974.0,13357.0,13860.0,1.6443544626235962,0.0033491242686826883,0.04756699295619051,-0.004365378620681754,-0.006775455549359322,0.001091965939849615,-0.0
370,5,-0.0011903650593012571,0.00031402200693264604,0.0021599940955638885,-0.0020730746909976006,0.0004566179995890707,0.0041611287742853165,0.0024247244000434875,-0.028676040470600128,0.009579367935657501,0.027916697785258293,-0.3169414699077606,0.0053825112991034985,0.0,0.0,0.0,0.00035826562088914216,0.0017099814722314477,-0.0,0.0,0.0,0.0,0.0011329661356285214,0.005153901409357786,0.001592745422385633,14843.0,13370.0,13915.0,13325.0,0.4969283640384674,0.3981923758983612,0.4334845244884491,0.39538684487342834,0.0,0.0,0.0,0.0,14817.0,12685.0,13821.0,14105.0,1.6443544626235962,0.0035818057618203897,0.04601429508584867,-0.004444940394555412,-0.006775455549359322,0.001091965939849615,-0.0
375,5,-0.0012547714868560433,0.00029796958551742136,0.0021816962398588657,-0.008558005094528198,0.002108936430886388,-0.0009398045367561281,0.0024247244000434875,-0.028676040470600128,0.009579367935657501,0.027916697785258293,-0.3169414699077606,0.0053825112991034985,0.0,0.0,0.0,-0.0019495992455631495,-0.009354169480502605,-0.0,0.0,0.0,0.0,0.0011329661356285214,0.005153901409357786,0.001592745422385633,14843.0,13370.0,13915.0,13325.0,0.4969283640384674,0.3981923758983612,0.4334845244884491,0.39538684487342834,0.0,0.0,0.0,0.0,14817.0,12685.0,13821.0,14105.0,1.7318488359451294,0.004100011845669451,0.04444338986551957,-0.004531094048330469,0.03903552144765854,-0.006258401088416576,0.0
380,5,-0.0013674405636265874,0.00024067207414191216,0.0023101018741726875,-0.016943497583270073,0.007719275541603565,-0.015784597024321556,0.002860326087102294,-0.025770070031285286,0.009621315635740757,0.06764660775661469,-0.44237378239631653,0.033474765717983246,0.0,0.0,0.0,-0.0019495992455631495,-0.009354169480502605,-0.0,0.0,0.0,0.0,-0.00468648225069046,-0.00023035626509226859,0.00117866147775203,14228.0,13151.0,14231.0,12600.0,0.45438504219055176,0.3844735026359558,0.45457035303115845,0.3509255647659302,0.0,0.0,0.0,0.0,14681.0,13589.0,13915.0,13285.0,1.7318488359451294,0.001430827274579345,0.04147281857062671,-0.005287136764951327,0.03903552144765854,-0.006258401088416576,0.0
385,5,-0.001438676379621029,0.00013200449757277966,0.0024251877330243587,-0.015325693413615227,0.016127819195389748,-0.02012413553893566,0.002860326087102294,-0.025770070031285286,0.009621315635740757,0.06764660775661469,-0.44237378239631653,0.033474765717983246,0.0,0.0,0.0,-0.01733073592185974,-0.014602288603782654,-0.0,0.0,0.0,0.0,-0.00468648225069046,-0.00023035626509226859,0.00117866147775203,14228.0,13151.0,14231.0,12600.0,0.45438504219055176,0.3844735026359558,0.45457035303115845,0.3509255647659302,0.0,0.0,0.0,0.0,14681.0,13589.0,13915.0,13285.0,1.8599038124084473,-0.00491665577778973,0.033934995462705196,-0.006760463214193474,0.06543086469173431,-0.0597415566444397,0.0
390,5,-0.0014863621909171343,0.00023626573965884745,0.0022925324738025665,-0.011852574534714222,-0.006060220301151276,0.007868985645473003,0.002860326087102294,-0.025770070031285286,0.009621315635740757,0.06764660775661469,-0.44237378239631653,0.033474765717983246,0.0,0.0,0.0,-0.01733073592185974,-0.014602288603782654,-0.0,0.0,0.0,0.0,-0.00468648225069046,-0.00023035626509226859,0.00117866147775203,14228.0,13151.0,14231.0,12600.0,0.45438504219055176,0.3844735026359558,0.45457035303115845,0.3509255647659302,0.0,0.0,0.0,0.0,14681.0,13589.0,13915.0,13285.0,1.8599038124084473,0.0050565364695736945,0.03766970231155903,-0.004737955753921623,0.06543086469173431,-0.0597415566444397,0.0
395,5,-0.0015591464471071959,0.00022196389909368008,0.0023188800550997257,-0.013475144281983376,-0.0007078686612658203,-1.4116605598246679e-05,0.0035340285394340754,-0.02052878402173519,0.010030688717961311,0.03693776577711105,-0.4508674442768097,0.00842956267297268,0.0,0.0,0.0,0.0011758304899558425,-0.01376335509121418,-0.0,0.0,0.0,0.0,-0.0018870917847380042,-0.0035585593432188034,0.00164649891667068,13984.0,13381.0,14295.0,12558.0,0.43800628185272217,0.3989187479019165,0.45894861221313477,0.34848082065582275,0.0,0.0,0.0,0.0,14368.0,12955.0,14539.0,12284.0,1.7838540077209473,0.004998807918761706,0.034565645696240856,-0.004257110320932198,0.05915909260511398,0.0038878759369254112,0.0
400,5,-0.001686400850303471,0.00019852946570608765,0.002378858858719468,-0.010118152014911175,-0.0020272675901651382,-0.0027843003626912832,0.0035340285394340754,-0.02052878402173519,0.010030688717961311,0.03693776577711105,-0.4508674442768097,0.00842956267297268,0.0,0.0,0.0,0.0011758304899558425,-0.01376335509121418,-0.0,0.0,0.0,0.0,-0.0018870917847380042,-0.0035585593432188034,0.00164649891667068,13984.0,13381.0,14295.0,12558.0,0.43800628185272217,0.3989187479019165,0.45894861221313477,0.34848082065582275,0.0,0.0,0.0,0.0,14368.0,12955.0,14539.0,12284.0,1.7838540077209473,0.006232832301656744,0.03169588996048743,-0.004400883957773928,0.05915909260511398,0.0038878759369254112,0.0
405,5,-0.001686400850303471,0.00019852946570608765,0.002378858858719468,-0.010118152014911175,-0.0020272675901651382,-0.0027843003626912832,0.0037236737553030252,-0.017073621973395348,0.010217200964689255,-0.032358814030885696,-0.4214014708995819,0.05241046100854874,0.0,0.0,0.0,0.0011758304899558425,-0.01376335509121418,-0.0,0.0,0.0,0.0,-0.0019041908672079444,-0.008062549866735935,0.0021085264161229134,14417.0,13568.0,15231.0,12226.0,0.467228502035141,0.41083380579948425,0.5247035622596741,0.32908299565315247,0.0,0.0,0.0,0.0,14715.0,14782.0,15178.0,12726.0,1.7838540077209473,0.006232832301656744,0.03169588996048743,-0.004400883957773928,0.05915909260511398,0.0038878759369254112,0.0
410,5,-0.0017370167188346386,0.00018503691535443068,0.0023899541702121496,-0.010121162049472332,0.0008081980049610138,-0.002445164369419217,0.0037236737553030252,-0.017073621973395348,0.010217200964689255,-0.032358814030885696,-0.4214014708995819,0.05241046100854874,0.0,0.0,0.0,0.0026776331942528486,-0.011183296330273151,-0.0,0.0,0.0,0.0,-0.0019041908672079444,-0.008062549866735935,0.0021085264161229134,14417.0,13568.0,15231.0,12226.0,0.467228502035141,0.41083380579948425,0.5247035622596741,0.32908299565315247,0.0,0.0,0.0,0.0,14715.0,14782.0,15178.0,12726.0,1.7544103860855103,0.005973868645857987,0.030544630755465475,-0.004058894028640505,0.047276172786951065,0.00870742741972208,0.0
415,5,-0.0017504178686067462,9.475390106672421e-05,0.002390391891822219,-0.005656604189425707,0.011157241649925709,-0.0010305998148396611,0.003388139186426997,-0.012523060664534569,0.010396352969110012,-0.03924933820962906,-0.2925867736339569,0.024370677769184113,0.0,0.0,0.0,0.0026776331942528486,-0.011183296330273151,-0.0,0.0,0.0,0.0,-0.005886714905500412,-0.008218490518629551,0.0007502667722292244,14701.0,14774.0,15002.0,12960.0,0.4869570732116699,0.4920509457588196,0.5082470178604126,0.37264877557754517,0.0,0.0,0.0,0.0,14715.0,14782.0,15178.0,12726.0,1.7544103860855103,-0.0001405456869582536,0.02670636517956166,-0.005552515214311292,0.047276172786951065,0.00870742741972208,0.0
420,5,-0.0018219453049823642,0.00016978384519461542,0.0024085803888738155,-0.010845940560102463,-0.004540695808827877,-0.002594857243821025,0.003388139186426997,-0.012523060664534569,0.010396352969110012,-0.03924933820962906,-0.2925867736339569,0.024370677769184113,0.0,0.0,0.0,-0.01263529434800148,-0.007272215094417334,-0.0,0.0,0.0,0.0,-0.005886714905500412,-0.008218490518629551,0.0007502667722292244,14701.0,14774.0,15002.0,12960.0,0.4869570732116699,0.4920509457588196,0.5082470178604126,0.37264877557754517,0.0,0.0,0.0,0.0,14715.0,14782.0,15178.0,12726.0,1.7637165784835815,0.00589003674670346,0.02914052725165483,-0.003884647632991007,0.030903590843081474,-0.04130491614341736,0.0
426,5,-0.0019160723313689232,8.190855442080647e-05,0.002599581377580762,-0.01032533310353756,0.00996311940252781,-0.021899985149502754,0.003149847500026226,-0.010789784602820873,0.010683426633477211,-0.061513133347034454,-0.10301631689071655,0.008246468380093575,0.0,0.0,0.0,-0.01263529434800148,-0.007272215094417334,-0.0,0.0,0.0,0.0,4.760511001222767e-05,-0.004562071058899164,0.0020164886955171824,14409.0,13752.0,14892.0,13304.0,0.4666944742202759,0.42274314165115356,0.5003804564476013,0.3940359354019165,0.0,0.0,0.0,0.0,14199.0,13671.0,14466.0,13614.0,1.7637165784835815,-0.0027552047027424387,0.02389076396758609,-0.006004415049557242,0.030903590843081474,-0.04130491614341736,0.0
431,5,-0.0018901587463915348,0.00018005310266744345,0.0024120239540934563,-0.0010204907739534974,-0.007792098447680473,0.013746898621320724,0.003149847500026226,-0.010789784602820873,0.010683426633477211,-0.061513133347034454,-0.10301631689071655,0.008246468380093575,0.0,0.0,0.0,-0.011121457442641258,-0.011437919922173023,-0.0,0.0,0.0,0.0,4.760511001222767e-05,-0.004562071058899164,0.0020164886955171824,14409.0,13752.0,14892.0,13304.0,0.4666944742202759,0.42274314165115356,0.5003804564476013,0.3940359354019165,0.0,0.0,0.0,0.0,14199.0,13671.0,14466.0,13614.0,1.789949655532837,0.005542036213029868,0.031067778350860463,-0.0038455088066808173,0.04932912811636925,-0.03689732030034065,0.0
436,5,-0.0019072153372690082,0.00019810644153039902,0.002411712659522891,-0.0024549977388232946,-0.005283240228891373,0.005536101292818785,0.0022235512733459473,-0.010507464408874512,0.010931417346000671,-0.1232469230890274,0.0702553316950798,0.05326923355460167,0.0,0.0,0.0,-0.011121457442641258,-0.011437919922173023,-0.0,0.0,0.0,0.0,-0.0025920483749359846,0.005089934449642897,0.001054498483426869,14882.0,12760.0,14900.0,13292.0,0.49967220425605774,0.3605004847049713,0.5009604692459106,0.39327725768089294,0.0,0.0,0.0,0.0,14748.0,12916.0,14660.0,13557.0,1.789949655532837,0.0039852626242935785,0.031047276174949883,-0.0032011727874486752,0.04932912811636925,-0.03689732030034065,0.0
441,5,-0.0019005585927516222,8.560247079003602e-05,0.0024064902681857347,-0.0001831917033996433,0.011387181468307972,0.0028411303646862507,0.0022235512733459473,-0.010507464408874512,0.010931417346000671,-0.1232469230890274,0.0702553316950798,0.05326923355460167,0.0,0.0,0.0,0.006625178270041943,-0.0048178634606301785,-0.0,0.0,0.0,0.0,-0.0025920483749359846,0.005089934449642897,0.001054498483426869,14882.0,12760.0,14900.0,13292.0,0.49967220425605774,0.3605004847049713,0.5009604692459106,0.39327725768089294,0.0,0.0,0.0,0.0,14748.0,12916.0,14660.0,13557.0,1.7032747268676758,-0.003092933494074776,0.028457164072268573,-0.005145412884089998,0.01977333426475525,0.02091630920767784,-0.0
446,5,-0.001941657392308116,0.00020098223467357457,0.0023910829331725836,-0.005005129147320986,-0.009290698915719986,0.002985341940075159,0.0014386249240487814,-0.011400694027543068,0.011009026318788528,-0.10683703422546387,0.1359577775001526,0.010633164085447788,0.0,0.0,0.0,0.006625178270041943,-0.0048178634606301785,-0.0,0.0,0.0,0.0,-0.0015079090371727943,0.0032731785904616117,0.0017493129707872868,14999.0,13343.0,13987.0,13724.0,0.5080248117446899,0.3965335488319397,0.43821775913238525,0.42094045877456665,0.0,0.0,0.0,0.0,15088.0,13194.0,14132.0,13620.0,1.7032747268676758,0.0029722112128491105,0.03285193829721593,-0.003469390070373378,0.01977333426475525,0.02091630920767784,-0.0
451,5,-0.001981660956516862,0.00021857593674212694,0.002374706557020545,-0.0068024760112166405,-0.005827524699270725,0.0031592908781021833,0.0014386249240487814,-0.011400694027543068,0.011009026318788528,-0.10683703422546387,0.1359577775001526,0.010633164085447788,0.0,0.0,0.0,0.011084101162850857,-0.007002334110438824,-0.0,0.0,0.0,0.0,-0.0015079090371727943,0.0032731785904616117,0.0017493129707872868,14999.0,13343.0,13987.0,13724.0,0.5080248117446899,0.3965335488319397,0.43821775913238525,0.42094045877456665,0.0,0.0,0.0,0.0,15088.0,13194.0,14132.0,13620.0,1.750396728515625,0.0021580299470855407,0.03261560891063931,-0.003315703697128167,0.029532553628087044,0.03596080094575882,-0.0
456,5,-0.0020403307862579823,0.00018878084665630013,0.0024265192914754152,-0.009761359542608261,0.001244401908479631,-0.004953801166266203,8.15305465948768e-05,-0.012757685035467148,0.01126591581851244,-0.13101482391357422,0.07488886266946793,0.0077883717603981495,0.0,0.0,0.0,0.011084101162850857,-0.007002334110438824,-0.0,0.0,0.0,0.0,-0.0015079090371727943,0.0032731785904616117,0.0017493129707872868,14957.0,13418.0,14421.0,13650.0,0.5049886107444763,0.40129050612449646,0.4675028622150421,0.4161677062511444,0.0,0.0,0.0,0.0,14725.0,13677.0,14194.0,13884.0,1.750396728515625,0.0002769243171878507,0.03127060561694185,-0.003809565056710987,0.029532553628087044,0.03596080094575882,-0.0
461,5,-0.0021006858441978693,0.00013354737893678248,0.002506992081180215,-0.011147171258926392,0.007125777192413807,-0.011638270691037178,8.15305465948768e-05,-0.012757685035467148,0.01126591581851244,-0.13101482391357422,0.07488886266946793,0.0077883717603981495,0.0,0.0,0.0,-0.0011108436156064272,-0.011335463263094425,-0.0,0.0,0.0,0.0,-0.0015079090371727943,0.0032731785904616117,0.0017493129707872868,14957.0,13418.0,14421.0,13650.0,0.5049886107444763,0.40129050612449646,0.4675028622150421,0.4161677062511444,0.0,0.0,0.0,0.0,14725.0,13677.0,14194.0,13884.0,1.7543630599975586,-0.00625284173828524,0.02686774104620525,-0.004873542015814333,0.04791826382279396,-0.003612274769693613,0.0
466,5,-0.002139335498213768,0.0002313452714588493,0.002396621974185109,-0.009096830151975155,-0.008885436691343784,0.008589116856455803,-0.0009303887491114438,-0.013197343796491623,0.011159761808812618,-0.1253422498703003,-0.03015996515750885,0.010127912275493145,0.0,0.0,0.0,-0.0011108436156064272,-0.011335463263094425,-0.0,0.0,0.0,0.0,0.005894979927688837,0.00014500458200927824,0.0008953915676102042,14210.0,12755.0,14402.0,13766.0,0.45314446091651917,0.36024489998817444,0.46622946858406067,0.4236558973789215,0.0,0.0,0.0,0.0,14158.0,12841.0,14438.0,13701.0,1.7543630599975586,0.0010314718454377382,0.031088527678610804,-0.0031609920494239246,0.04791826382279396,-0.003612274769693613,0.0
472,5,-0.0022079593036323786,0.00024071731604635715,0.0024399312678724527,-0.01187356561422348,-0.004678820725530386,-0.0017614574171602726,-0.0009303887491114438,-0.013197343796491623,0.011159761808812618,-0.1253422498703003,-0.03015996515750885,0.010127912275493145,0.0,0.0,0.0,0.010494017042219639,-0.010724405758082867,-0.0,0.0,0.0,0.0,0.005894979927688837,0.00014500458200927824,0.0008953915676102042,14210.0,12755.0,14402.0,13766.0,0.45314446091651917,0.36024489998817444,0.46622946858406067,0.4236558973789215,0.0,0.0,0.0,0.0,14158.0,12841.0,14438.0,13701.0,1.7793439626693726,0.001274924806406744,0.03025710083197254,-0.0032003443417782267,0.04597828909754753,0.034609533846378326,-0.0
