timestamp,dt,pos_x,pos_y,pos_z,vel_x,vel_y,vel_z,roll,pitch,yaw,agv_x,agv_y,agv_z,x_ref,y_ref,z_ref,roll_ref,pitch_ref,yaw_ref,x_vel_ref,y_vel_ref,z_vel_ref,x_torque,y_torque,z_torque,w0,w1,w2,w3,u0,u1,u2,u3,m0req,m1req,m2req,m3req,thrust0,thrust1,thrust2,thrust3,thrust_ref,roll_vicon,pitch_vicon,yaw_vicon,acc_x,acc_y,acc_z
5,5,0.0,0.0,0.0,0.001803992548957467,-0.0015493907267227769,0.004203842952847481,-0.01441807858645916,-0.08385732024908066,0.014142416417598724,-0.0024918722920119762,0.008581925183534622,-0.0018524079350754619,0.0,0.0,0.0,0.0018264241516590118,0.001635808846913278,-0.0,0.0,0.0,0.0,0.004331906326115131,0.02531193569302559,0.001366249518468976,1495.0,1495.0,1495.0,1495.0,0.0,0.0,0.0,0.0,0.0,0.0,0.0,0.0,1495.0,1495.0,1495.0,1495.0,1.7162575721740723,-0.05944186710886704,0.07660598731500612,0.16538553203451462,-0.0067649721167981625,0.005810215137898922,0.0
31,26,0.0,0.0,0.0,-0.0013461271300911903,0.0017985954182222486,-0.0011795166647061706,-0.01441807858645916,-0.08385732024908066,0.014142416417598724,-0.0024918722920119762,0.008581925183534622,-0.0018524079350754619,0.0,0.0,0.0,0.0018264241516590118,0.001635808846913278,-0.0,0.0,0.0,0.0,0.004331906326115131,0.02531193569302559,0.001366249518468976,1495.0,1495.0,1495.0,1495.0,0.0,0.0,0.0,0.0,0.0,0.0,0.0,0.0,1495.0,1495.0,1495.0,1495.0,1.7162575721740723,-0.06023091393600575,0.07610086073102744,0.1654306199580409,-0.0067649721167981625,0.005810215137898922,0.0
36,5,0.0,0.0,0.0,0.0008322161738760769,0.00020546467567328364,0.0005480674444697797,-0.01441807858645916,-0.08385732024908066,0.014142416417598724,-0.0024918722920119762,0.008581925183534622,-0.0018524079350754619,0.0,0.0,0.0,-0.0021201877389103174,-0.0012206301325932145,-0.0,0.0,0.0,0.0,0.004331906326115131,0.02531193569302559,0.001366249518468976,1495.0,1495.0,1495.0,1495.0,0.0,0.0,0.0,0.0,0.0,0.0,0.0,0.0,1495.0,1495.0,1495.0,1495.0,1.7162575721740723,-0.06030850554017612,0.0758815482244657,0.16578769753942735,0.005047976970672607,-0.006744732614606619,0.0
41,5,0.0,0.0,0.0,-0.00014062723494134843,0.00042712147114798427,0.001706382492557168,-0.01441807858645916,-0.08385732024908066,0.014142416417598724,-0.0024918722920119762,0.008581925183534622,-0.0018524079350754619,0.0,0.0,0.0,-0.0021201877389103174,-0.0012206301325932145,-0.0,0.0,0.0,0.0,0.004311135970056057,0.02527221292257309,0.0012706442503258586,1495.0,1495.0,1495.0,1495.0,0.0,0.0,0.0,0.0,0.0,0.0,0.0,0.0,1495.0,1495.0,1495.0,1495.0,1.7162575721740723,-0.05981801490365051,0.07671268022138204,0.16532434215062225,0.005047976970672607,-0.006744732614606619,0.0
53,12,0.0,0.0,0.0,-0.00014062723494134843,0.00042712147114798427,0.001706382492557168,-0.01441807858645916,-0.08385732024908066,0.014142416417598724,-0.0024918722920119762,0.008581925183534622,-0.0018524079350754619,0.0,0.0,0.0,-0.0005034924251958728,-0.0001275168760912493,-0.0,0.0,0.0,0.0,0.004311135970056057,0.02527221292257309,0.0012706442503258586,1495.0,1495.0,1495.0,1495.0,0.0,0.0,0.0,0.0,0.0,0.0,0.0,0.0,1495.0,1495.0,1495.0,1495.0,1.7162526845932007,-0.05981801490365051,0.07671268022138204,0.16532434215062225,0.0005273521528579295,-0.0016017055604606867,0.0
58,5,-7.470909622497857e-06,1.5928934544717777e-06,5.383629468269646e-05,-0.0009262028033845127,0.0013119805371388793,-0.004139052238315344,-0.01441807858645916,-0.08385732024908066,0.014142416417598724,-0.0024918722920119762,0.008581925183534622,-0.0018524079350754619,0.0,0.0,0.0,-0.0005034924251958728,-0.0001275168760912493,-0.0,0.0,0.0,0.0,0.004311135970056057,0.02527221292257309,0.0012706442503258586,1495.0,1495.0,1495.0,1495.0,0.0,0.0,0.0,0.0,0.0,0.0,0.0,0.0,1495.0,1495.0,1495.0,1495.0,1.7162526845932007,-0.0607769884808269,0.07619782776821757,0.1655543984444722,0.0005273521528579295,-0.0016017055604606867,0.0
64,5,-5.568566393776564e-06,1.7811842099035857e-06,4.481811265577562e-05,-0.0001421999477315694,0.0005021973047405481,-0.0005734388250857592,-0.01441727951169014,-0.0838947594165802,0.01414401363581419,0.0021104570478200912,0.002180857351049781,-0.0058546666987240314,0.0,0.0,0.0,-0.0015438107075169683,-0.0008497969247400761,-0.0,0.0,0.0,0.0,0.004311135970056057,0.02527221292257309,0.0012706442503258586,1495.0,1495.0,1495.0,1495.0,0.0,0.0,0.0,0.0,0.0,0.0,0.0,0.0,1495.0,1495.0,1495.0,1495.0,1.7162550687789917,-0.060676437259766874,0.07605563001781337,0.16559361737499095,0.003514376701787114,-0.004911160562187433,0.0
69,6,-6.108495654189028e-06,-7.374207143584499e-06,4.8914822400547564e-05,-0.00012167148088337854,0.0012995259603485465,-0.0007209807517938316,-0.01441727951169014,-0.0838947594165802,0.01414401363581419,0.0021104570478200912,0.002180857351049781,-0.0058546666987240314,0.0,0.0,0.0,-0.0015438107075169683,-0.0008497969247400761,-0.0,0.0,0.0,0.0,0.004311135970056057,0.02527221292257309,0.0012706442503258586,1495.0,1495.0,1495.0,1495.0,0.0,0.0,0.0,0.0,0.0,0.0,0.0,0.0,1495.0,1495.0,1495.0,1495.0,1.7162550687789917,-0.06088840526814684,0.07607226641454312,0.16522834945563278,0.003514376701787114,-0.004911160562187433,0.0
74,5,4.201310730422847e-06,4.057672413182445e-06,3.2119449315359816e-05,0.0011885081185027957,-0.0008520152186974883,0.0017270524986088276,-0.014412903226912022,-0.08388280868530273,0.014138806611299515,0.001682469854131341,0.00015122855256777257,-0.0007875364390201867,0.0,0.0,0.0,-0.0015446111792698503,-0.00011846137931570411,-0.0,0.0,0.0,0.0,0.004361653700470924,0.02528306283056736,0.001461806590668857,1495.0,1495.0,1495.0,1495.0,0.0,0.0,0.0,0.0,0.0,0.0,0.0,0.0,1495.0,1495.0,1495.0,1495.0,1.7162879705429077,-0.06008722302400259,0.07632608869577323,0.1653394392316912,0.0004899122868664563,-0.004913800861686468,0.0
79,5,8.084279215836432e-06,1.7325306544080377e-05,3.844903039862402e-05,0.0009413594962097704,-0.001932922168634832,-6.872858648421243e-05,-0.014412903226912022,-0.08388280868530273,0.014138806611299515,0.001682469854131341,0.00015122855256777257,-0.0007875364390201867,0.0,0.0,0.0,0.0023086012806743383,0.0008643834153190255,-0.0,0.0,0.0,0.0,0.004361653700470924,0.02528306283056736,0.001461806590668857,1495.0,1495.0,1495.0,1495.0,0.0,0.0,0.0,0.0,0.0,0.0,0.0,0.0,1495.0,1495.0,1495.0,1495.0,1.716181993484497,-0.059391977960126054,0.07758239107592031,0.16487754515250586,-0.0035745424684137106,0.0073437876999378204,0.0
85,6,1.5220915884128772e-05,2.5975159587687813e-05,-1.0851850674953312e-05,0.00123294023796916,-0.0018111512763425708,0.00588861433789134,-0.014367252588272095,-0.08388539403676987,0.014166823588311672,0.0028702272102236748,0.004494653549045324,0.0029585608281195164,0.0,0.0,0.0,0.0023086012806743383,0.0008643834153190255,-0.0,0.0,0.0,0.0,0.004269742406904697,0.025248516350984573,0.001458115060813725,1495.0,1495.0,1495.0,1495.0,0.0,0.0,0.0,0.0,0.0,0.0,0.0,0.0,1495.0,1495.0,1495.0,1495.0,1.716181993484497,-0.05938382830178197,0.07696052228082048,0.16510192689360584,-0.0035745424684137106,0.0073437876999378204,0.0
90,5,1.7776740151020931e-06,2.39867003983818e-05,1.90397313417634e-05,-0.0011200129520148039,-0.00048584540490992367,-0.0012315441854298115,-0.014367252588272095,-0.08388539403676987,0.014166823588311672,0.0028702272102236748,0.004494653549045324,0.0029585608281195164,0.0,0.0,0.0,0.0023086012806743383,0.0008643834153190255,-0.0,0.0,0.0,0.0,0.004269742406904697,0.025248516350984573,0.001458115060813725,1495.0,1495.0,1495.0,1495.0,0.0,0.0,0.0,0.0,0.0,0.0,0.0,0.0,1495.0,1495.0,1495.0,1495.0,1.716181993484497,-0.05949395720440275,0.0767245494649914,0.16522576286632343,-0.0035745424684137106,0.0073437876999378204,0.0
95,5,-7.085866400302621e-06,2.3485577912651934e-05,7.180895045166835e-05,-0.0015116300201043487,-0.0001342034520348534,-0.006824924144893885,-0.014367252588272095,-0.08388539403676987,0.014166823588311672,0.0028702272102236748,0.004494653549045324,0.0029585608281195164,0.0,0.0,0.0,0.0006140430923551321,-0.0010129333240911365,-0.0,0.0,0.0,0.0,0.004269742406904697,0.025248516350984573,0.001458115060813725,1495.0,1495.0,1495.0,1495.0,0.0,0.0,0.0,0.0,0.0,0.0,0.0,0.0,1495.0,1495.0,1495.0,1495.0,1.7167651653289795,-0.060619829271560725,0.07695410715250714,0.16506601418926048,0.004190284293144941,0.0019539715722203255,0.0
100,5,-1.368562243442284e-05,1.2873971172666643e-05,9.588518150849268e-05,-0.0013966227415949106,0.0012197113828733563,-0.005619117524474859,-0.014373763464391232,-0.08389647305011749,0.014160079881548882,0.0007366937934421003,0.0006162974750623107,-0.00041005227831192315,0.0,0.0,0.0,0.0006140430923551321,-0.0010129333240911365,-0.0,0.0,0.0,0.0,0.004317636601626873,0.025171848013997078,0.0014142777072265744,1495.0,1495.0,1495.0,1495.0,0.0,0.0,0.0,0.0,0.0,0.0,0.0,0.0,1495.0,1495.0,1495.0,1495.0,1.7167651653289795,-0.060582290886548144,0.07688073239303335,0.165163291640274,0.004190284293144941,0.0019539715722203255,0.0
105,5,-1.3056474017503206e-05,1.663380317040719e-05,8.296524174511433e-05,-0.00048315126332454383,3.67048050975427e-05,-0.0006972536211833358,-0.014373763464391232,-0.08389647305011749,0.014160079881548882,0.0007366937934421003,0.0006162974750623107,-0.00041005227831192315,0.0,0.0,0.0,-0.0014151822542771697,-0.0012843566946685314,-0.0,0.0,0.0,0.0,0.004317636601626873,0.025171848013997078,0.0014142777072265744,1495.0,1495.0,1495.0,1495.0,0.0,0.0,0.0,0.0,0.0,0.0,0.0,0.0,1495.0,1495.0,1495.0,1495.0,1.7166258096694946,-0.060572956811504854,0.07678254942745605,0.1650440331227108,0.005312667228281498,-0.0045029413886368275,0.0
110,5,-9.730846613820177e-06,2.2505464585265145e-05,6.316872168099508e-05,0.00020581479475367814,-0.0006899175932630897,0.0020966811571270227,-0.01438059564679861,-0.08386263996362686,0.01414685882627964,-0.0032793276477605104,-0.0006621457869186997,-0.003692636964842677,0.0,0.0,0.0,-0.0014151822542771697,-0.0012843566946685314,-0.0,0.0,0.0,0.0,0.004307786002755165,0.0254056453704834,0.0014597730478271842,1495.0,1495.0,1495.0,1495.0,0.0,0.0,0.0,0.0,0.0,0.0,0.0,0.0,1495.0,1495.0,1495.0,1495.0,1.7166258096694946,-0.05958546585821503,0.07791534745096852,0.1645659636352214,0.005312667228281498,-0.0045029413886368275,0.0
115,5,-6.332371867756592e-06,2.3643635358894244e-05,1.741409141686745e-05,0.0004901428474113345,-0.00041254740790463984,0.006329227704554796,-0.014378267340362072,-0.08389496058225632,0.014140576124191284,-0.0010836460860446095,0.007333284243941307,0.007083455100655556,0.0,0.0,0.0,0.0008522191783413291,0.0001736533740768209,-0.0,0.0,0.0,0.0,0.004307786002755165,0.0254056453704834,0.0014597730478271842,1495.0,1495.0,1495.0,1495.0,0.0,0.0,0.0,0.0,0.0,0.0,0.0,0.0,1495.0,1495.0,1495.0,1495.0,1.7163461446762085,-0.058813218214129326,0.07717826809561971,0.16497348932146977,-0.0007181908586062491,0.002711219247430563,-0.0
122,6,-2.5909928808687255e-05,5.6391381804132834e-05,7.026773528195918e-05,-0.0021532494574785233,-0.004094748292118311,-0.0038107463624328375,-0.014378267340362072,-0.08389496058225632,0.014140576124191284,-0.0010836460860446095,0.007333284243941307,0.007083455100655556,0.0,0.0,0.0,0.0008522191783413291,0.0001736533740768209,-0.0,0.0,0.0,0.0,0.004307786002755165,0.0254056453704834,0.0014597730478271842,1495.0,1495.0,1495.0,1495.0,0.0,0.0,0.0,0.0,0.0,0.0,0.0,0.0,1495.0,1495.0,1495.0,1495.0,1.7163461446762085,-0.05950056768622112,0.07910412610497955,0.16411222512512758,-0.0007181908586062491,0.002711219247430563,-0.0
127,5,-2.3746568331262097e-05,3.656063927337527e-05,0.00011539467232069,-0.0008376119076274335,7.798992010066286e-05,-0.007743352092802525,-0.014378267340362072,-0.08389496058225632,0.014140576124191284,-0.0010836460860446095,0.007333284243941307,0.007083455100655556,0.0,0.0,0.0,0.004924618173390627,-0.0019870521500706673,-0.0,0.0,0.0,0.0,0.004307786002755165,0.0254056453704834,0.0014597730478271842,1495.0,1495.0,1495.0,1495.0,0.0,0.0,0.0,0.0,0.0,0.0,0.0,0.0,1495.0,1495.0,1495.0,1495.0,1.716238021850586,-0.061391989760257934,0.07821271043686968,0.1644368505294531,0.008217375725507736,0.015665903687477112,0.0
132,5,-3.0130597679089988e-06,8.34389265946811e-06,8.266638178611174e-05,0.0021529763471335173,0.0034172055311501026,0.0008300541085191071,-0.014369647018611431,-0.08389388024806976,0.01418367587029934,7.31246529994678e-07,0.003981137182563543,0.004576830193400383,0.0,0.0,0.0,0.004924618173390627,-0.0019870521500706673,-0.0,0.0,0.0,0.0,0.004310864955186844,0.025208469480276108,0.0014532353961840272,1495.0,1495.0,1495.0,1495.0,0.0,0.0,0.0,0.0,0.0,0.0,0.0,0.0,1495.0,1495.0,1495.0,1495.0,1.716238021850586,-0.06160451554692539,0.07599219283741668,0.16539309092667928,0.008217375725507736,0.015665903687477112,0.0
137,5,-6.545572546201583e-07,1.6180500097107142e-05,8.809433347778395e-05,0.001144210807979107,0.0004264894232619554,-0.00031933304853737354,-0.014369647018611431,-0.08389388024806976,0.01418367587029934,7.31246529994678e-07,0.003981137182563543,0.004576830193400383,0.0,0.0,0.0,-0.004011598415672779,0.0019472208805382252,-0.0,0.0,0.0,0.0,0.004310864955186844,0.025208469480276108,0.0014532353961840272,1495.0,1495.0,1495.0,1495.0,0.0,0.0,0.0,0.0,0.0,0.0,0.0,0.0,1495.0,1495.0,1495.0,1495.0,1.7171342372894287,-0.06138985125560609,0.07698199435579585,0.16520787456675418,-0.00805689301341772,-0.012768154963850975,-0.0
142,5,1.2836329915444367e-05,1.6071122445282526e-05,6.734277121722698e-05,0.0020765908993780613,0.0001837211020756513,0.002362454542890191,-0.014373160898685455,-0.08389150351285934,0.0142118064686656,-0.0059244586154818535,0.0026296856813132763,-0.000690233486238867,0.0,0.0,0.0,-0.004011598415672779,0.0019472208805382252,-0.0,0.0,0.0,0.0,0.004340261220932007,0.025146817788481712,0.00135194999165833,1495.0,1495.0,1495.0,1495.0,0.0,0.0,0.0,0.0,0.0,0.0,0.0,0.0,1495.0,1495.0,1495.0,1495.0,1.7171342372894287,-0.060629654547908536,0.07674967837660676,0.16513183488048006,-0.00805689301341772,-0.012768154963850975,-0.0
147,5,1.3462759852700401e-05,1.6551810404052958e-05,3.311071122880094e-05,0.0009058078867383301,1.5805757357156835e-05,0.005052829161286354,-0.014373160898685455,-0.08389150351285934,0.0142118064686656,-0.0059244586154818535,0.0026296856813132763,-0.000690233486238867,0.0,0.0,0.0,-0.00018845863814931363,0.001898418995551765,-0.0,0.0,0.0,0.0,0.004340261220932007,0.025146817788481712,0.00135194999165833,1495.0,1495.0,1495.0,1495.0,0.0,0.0,0.0,0.0,0.0,0.0,0.0,0.0,1495.0,1495.0,1495.0,1495.0,1.7177096605300903,-0.059614030406304794,0.07709532250700392,0.16496101078414174,-0.007857664488255978,-0.0006000319262966514,-0.0
152,5,-1.935293767019175e-06,1.6716776372049935e-05,5.007908112020232e-05,-0.0014854433247819543,-1.3473666513164062e-05,-1.5072780115588102e-05,-0.014399628154933453,-0.08389270305633545,0.01418357901275158,-0.00222645397298038,0.004463986959308386,-0.004531749524176121,0.0,0.0,0.0,-0.00018845863814931363,0.001898418995551765,-0.0,0.0,0.0,0.0,0.004302013199776411,0.02531038224697113,0.001469156937673688,1495.0,1495.0,1495.0,1495.0,0.0,0.0,0.0,0.0,0.0,0.0,0.0,0.0,1495.0,1495.0,1495.0,1495.0,1.7177096605300903,-0.059850783218825004,0.07751483139975482,0.16478915553570758,-0.007857664488255978,-0.0006000319262966514,-0.0
157,5,-9.329544809588697e-06,2.1650572307407856e-05,6.189094710862264e-05,-0.0014814874157309532,-0.0005974448285996914,-0.0014234526315703988,-0.014399628154933453,-0.08389270305633545,0.01418357901275158,-0.00222645397298038,0.004463986959308386,-0.004531749524176121,0.0,0.0,0.0,4.494733002502471e-05,-0.0013488918775692582,-0.0,0.0,0.0,0.0,0.004302013199776411,0.02531038224697113,0.001469156937673688,1495.0,1495.0,1495.0,1495.0,0.0,0.0,0.0,0.0,0.0,0.0,0.0,0.0,1495.0,1495.0,1495.0,1495.0,1.7171165943145752,-0.059568385951822726,0.07762452746766572,0.16481073818079892,0.0055812145583331585,0.00014305803051684052,0.0
162,5,-1.343153871857794e-05,2.31559642998036e-05,5.254507777863182e-05,-0.0010848342208191752,-0.0004196250229142606,0.0005521229468286037,-0.014377434737980366,-0.0839255303144455,0.014184057712554932,0.001879388582892716,0.01018067542463541,0.0014925282448530197,0.0,0.0,0.0,4.494733002502471e-05,-0.0013488918775692582,-0.0,0.0,0.0,0.0,0.0048823487013578415,0.025688016787171364,0.0013337284326553345,1495.0,1495.0,1495.0,1495.0,0.0,0.0,0.0,0.0,0.0,0.0,0.0,0.0,1495.0,1495.0,1495.0,1495.0,1.7171165943145752,-0.06014835466984387,0.07726742826294976,0.16486147198199788,0.0055812145583331585,0.00014305803051684052,0.0
168,5,-2.271041239509941e-06,1.3706180652661715e-05,3.6995075788581744e-05,0.0009053259855136275,0.0009661240037530661,0.002086849417537451,-0.014377434737980366,-0.0839255303144455,0.014184057712554932,0.001879388582892716,0.01018067542463541,0.0014925282448530197,0.0,0.0,0.0,0.0005346288671717048,-0.001001100754365325,-0.0,0.0,0.0,0.0,0.0048823487013578415,0.025688016787171364,0.0013337284326553345,1495.0,1495.0,1495.0,1495.0,0.0,0.0,0.0,0.0,0.0,0.0,0.0,0.0,1495.0,1495.0,1495.0,1495.0,1.7171262502670288,-0.06012152332729978,0.07674639517490356,0.16497062901940135,0.0041422066278755665,0.0017016221536323428,-0.0
173,5,5.526471340999706e-06,1.7925549400388263e-05,5.390359365264885e-05,0.001297831884585321,-0.00011987462494289503,-0.0011942826677113771,-0.014378969557583332,-0.08393487334251404,0.014178336597979069,-0.001525294384919107,-0.0035534584894776344,-0.0018317356007173657,0.0,0.0,0.0,0.0005346288671717048,-0.001001100754365325,-0.0,0.0,0.0,0.0,0.003674633800983429,0.024788236245512962,0.0014254405396059155,1495.0,1495.0,1495.0,1495.0,0.0,0.0,0.0,0.0,0.0,0.0,0.0,0.0,1495.0,1495.0,1495.0,1495.0,1.7171262502670288,-0.06086074370789557,0.07637759025553978,0.16519775547014845,0.0041422066278755665,0.0017016221536323428,-0.0
178,5,-2.054891865554964e-06,1.8630911654327065e-05,3.808248584391549e-05,-0.00039063082658685744,-0.00013259325351100415,0.0014208200154826045,-0.014378969557583332,-0.08393487334251404,0.014178336597979069,-0.001525294384919107,-0.0035534584894776344,-0.0018317356007173657,0.0,0.0,0.0,0.00017245511116925627,0.0011836230987682939,-0.0,0.0,0.0,0.0,0.003674633800983429,0.024788236245512962,0.0014254405396059155,1495.0,1495.0,1495.0,1495.0,0.0,0.0,0.0,0.0,0.0,0.0,0.0,0.0,1495.0,1495.0,1495.0,1495.0,1.7170064449310303,-0.06026302262716528,0.07735328755514308,0.16484039397334171,-0.0048970794305205345,0.0005488536553457379,0.0
183,5,2.3753580080665415e-06,3.7142428482184187e-05,2.1997235307935625e-05,0.00037537762545980513,-0.00227441918104887,0.002498558023944497,-0.014373029582202435,-0.08389356732368469,0.01417868584394455,-0.001900671748444438,0.001540668890811503,-0.00031320282141678035,0.0,0.0,0.0,0.00017245511116925627,0.0011836230987682939,-0.0,0.0,0.0,0.0,0.0038276200648397207,0.025075504556298256,0.0014279938768595457,15718.0,11037.0,12862.0,15230.0,0.5607341527938843,0.2641400992870331,0.36670777201652527,0.5246731042861938,0.0,0.0,0.0,0.0,15693.0,11019.0,12864.0,15268.0,1.7170064449310303,-0.06026561869672692,0.07638331198338062,0.1659299564699481,-0.0048970794305205345,0.0005488536553457379,0.0
188,5,4.09023459724267e-06,1.758947837515734e-05,-8.195839654945303e-06,0.000355936266714707,0.0014365861425176263,0.0046225921250879765,-0.014373029582202435,-0.08389356732368469,0.01417868584394455,-0.001900671748444438,0.001540668890811503,-0.00031320282141678035,0.0,0.0,0.0,0.0027443617582321167,0.0003433460951782763,-0.0,0.0,0.0,0.0,0.0038276200648397207,0.025075504556298256,0.0014279938768595457,15718.0,11037.0,12862.0,15230.0,0.5607341527938843,0.2641400992870331,0.36670777201652527,0.5246731042861938,0.0,0.0,0.0,0.0,15693.0,11019.0,12864.0,15268.0,1.7170190811157227,-0.05987661745303842,0.0761333558930318,0.16538446621693276,-0.0014205531915649772,0.008734218776226044,-0.0
193,5,-1.0702103736548452e-06,1.4319610272650607e-05,2.3794265871401876e-05,-0.00047687889309599996,0.000967018713708967,-0.0019897758029401302,-0.014373029582202435,-0.08389356732368469,0.01417868584394455,-0.001900671748444438,0.001540668890811503,-0.00031320282141678035,0.0,0.0,0.0,0.0027443617582321167,0.0003433460951782763,-0.0,0.0,0.0,0.0,0.0038276200648397207,0.025075504556298256,0.0014279938768595457,15718.0,11037.0,12862.0,15230.0,0.5607341527938843,0.2641400992870331,0.36670777201652527,0.5246731042861938,0.0,0.0,0.0,0.0,15693.0,11019.0,12864.0,15268.0,1.7170190811157227,-0.0595520114022183,0.07751861097769745,0.16441652034376125,-0.0014205531915649772,0.008734218776226044,-0.0
198,5,-6.052337084838655e-06,2.747203689068556e-05,3.049593578907661e-05,-0.0007886067614890635,-0.001191483810544014,-0.0016001105541363358,-0.014368548057973385,-0.0838860273361206,0.014180581085383892,-0.0007426926167681813,0.004407872911542654,-0.0007523327367380261,0.0,0.0,0.0,-0.0011143612209707499,-0.00043368549086153507,-0.0,0.0,0.0,0.0,0.0037932610139250755,0.025218263268470764,0.0015575526049360633,15784.0,10944.0,12904.0,15193.0,0.5656630992889404,0.259374737739563,0.36925655603408813,0.5219935178756714,0.0,0.0,0.0,0.0,15735.0,11016.0,12888.0,15206.0,1.7170535326004028,-0.059880209721782256,0.0771160612859466,0.1651173084238647,0.0017943631391972303,-0.0035466488916426897,0.0
203,5,-8.758317562751472e-06,9.736287211126182e-06,3.834666858892888e-05,-0.0006401604041457176,0.0016516965115442872,-0.0015821324195712805,-0.014368548057973385,-0.0838860273361206,0.014180581085383892,-0.0007426926167681813,0.004407872911542654,-0.0007523327367380261,0.0,0.0,0.0,-0.0011143612209707499,-0.00043368549086153507,-0.0,0.0,0.0,0.0,0.0037932610139250755,0.025218263268470764,0.0015575526049360633,15784.0,10944.0,12904.0,15193.0,0.5656630992889404,0.259374737739563,0.36925655603408813,0.5219935178756714,0.0,0.0,0.0,0.0,15735.0,11016.0,12888.0,15206.0,1.7170535326004028,-0.060436275509257446,0.0763555329331468,0.16514743140649205,0.0017943631391972303,-0.0035466488916426897,0.0
208,5,-3.563489008229226e-05,3.859233038383536e-05,0.00011031036410713568,-0.0034812530502676964,-0.0028020464815199375,-0.009268496185541153,-0.01433659065514803,-0.08388998359441757,0.014219158329069614,-0.0001559914817335084,0.005584615748375654,0.004930687136948109,0.0,0.0,0.0,-0.0019280868582427502,-0.0005916244117543101,-0.0,0.0,0.0,0.0,0.00500230910256505,0.025378942489624023,0.0014666186179965734,15704.0,10867.0,12946.0,15292.0,0.5596921443939209,0.2554531693458557,0.3718259930610657,0.52921062707901,0.0,0.0,0.0,0.0,15764.0,10962.0,12887.0,15215.0,1.7178640365600586,-0.06026590477865622,0.0773040042129401,0.16442418163351125,0.002448983956128359,-0.006139365024864674,0.0
213,5,-1.414009602740407e-05,2.871726428566035e-05,6.564212526427582e-05,0.0011868742294609547,6.418921111617237e-05,0.0016527900006622076,-0.01433659065514803,-0.08388998359441757,0.014219158329069614,-0.0001559914817335084,0.005584615748375654,0.004930687136948109,0.0,0.0,0.0,-0.0019280868582427502,-0.0005916244117543101,-0.0,0.0,0.0,0.0,0.00500230910256505,0.025378942489624023,0.0014666186179965734,15704.0,10867.0,12946.0,15292.0,0.5596921443939209,0.2554531693458557,0.3718259930610657,0.52921062707901,0.0,0.0,0.0,0.0,15764.0,10962.0,12887.0,15215.0,1.7178640365600586,-0.06020016215781299,0.07612421022044816,0.1653280104817148,0.002448983956128359,-0.006139365024864674,0.0
218,5,-8.365087523998227e-06,1.995437742152717e-05,2.147811210306827e-05,0.001167750684544444,0.0010772222885861993,0.0059607974253594875,-0.014361889101564884,-0.08386009186506271,0.014265602454543114,0.004299653694033623,0.0078043448738753796,-0.0010024314979091287,0.0,0.0,0.0,-2.5648831069702283e-05,0.0010557678760960698,-0.0,0.0,0.0,0.0,0.004494589753448963,0.024982566013932228,0.0014335381565615535,15704.0,10867.0,12946.0,15292.0,0.5596921443939209,0.2554531693458557,0.3718259930610657,0.52921062707901,0.0,0.0,0.0,0.0,15723.0,10839.0,12972.0,15271.0,1.7188345193862915,-0.0596426494874889,0.07511589267124888,0.16547214521803574,-0.004372746683657169,-8.171657827915624e-05,-0.0
223,5,-1.8032502339337952e-05,2.0022602257085964e-05,3.656523040262982e-05,-0.0006929895607754588,0.00042270185076631606,0.0005738650215789676,-0.014361889101564884,-0.08386009186506271,0.014265602454543114,0.004299653694033623,0.0078043448738753796,-0.0010024314979091287,0.0,0.0,0.0,-2.5648831069702283e-05,0.0010557678760960698,-0.0,0.0,0.0,0.0,0.004494589753448963,0.024982566013932228,0.0014335381565615535,15704.0,10867.0,12946.0,15292.0,0.5596921443939209,0.2554531693458557,0.3718259930610657,0.52921062707901,0.0,0.0,0.0,0.0,15723.0,10839.0,12972.0,15271.0,1.7188345193862915,-0.05952883563990319,0.07471278359904736,0.16564918586274902,-0.004372746683657169,-8.171657827915624e-05,-0.0
228,5,-4.197573616693262e-06,1.3979349205328617e-05,2.7272364604868926e-05,0.001382995629683137,0.0008942711283452809,0.001344689866527915,-0.014361889101564884,-0.08386009186506271,0.014265602454543114,0.004299653694033623,0.0078043448738753796,-0.0010024314979091287,0.0,0.0,0.0,-0.00046261792886070907,-0.0006514642736874521,-0.0,0.0,0.0,0.0,0.004473603330552578,0.02498983033001423,0.0014626509509980679,15760.0,10980.0,12923.0,15181.0,0.5638341307640076,0.2612396478652954,0.3704261779785156,0.521125853061676,0.0,0.0,0.0,0.0,15693.0,10987.0,12905.0,15262.0,1.7188340425491333,-0.05988513481740892,0.07368507488940043,0.16579731729340755,0.0026982140261679888,-0.0014738895697519183,-0.0
233,5,-2.1613364879158325e-05,-2.4840155674610287e-06,5.804781540064141e-05,-0.001536696800030768,0.002333312062546611,-0.0031551781576126814,-0.014361889101564884,-0.08386009186506271,0.014265602454543114,0.004299653694033623,0.0078043448738753796,-0.0010024314979091287,0.0,0.0,0.0,-0.00046261792886070907,-0.0006514642736874521,-0.0,0.0,0.0,0.0,0.004473603330552578,0.02498983033001423,0.0014626509509980679,15760.0,10980.0,12923.0,15181.0,0.5638341307640076,0.2612396478652954,0.3704261779785156,0.521125853061676,0.0,0.0,0.0,0.0,15693.0,10987.0,12905.0,15262.0,1.7188340425491333,-0.059880331861100436,0.07322560663332268,0.1652655892212814,0.0026982140261679888,-0.0014738895697519183,-0.0
239,5,-4.184839781373739e-05,-1.426355265721213e-05,0.00010042719077318907,-0.003042882541194558,0.0023468693252652884,-0.006347596179693937,-0.014312206767499447,-0.08390278369188309,0.014275535009801388,-0.0009225758258253336,-0.0008755646995268762,-0.003773863660171628,0.0,0.0,0.0,-0.0027499874122440815,-0.0014199663419276476,-0.0,0.0,0.0,0.0,0.003872249973937869,0.024804549291729927,0.0013227291638031602,15687.0,11081.0,12861.0,15237.0,0.5583993196487427,0.2664409279823303,0.36660993099212646,0.5251755714416504,0.0,0.0,0.0,0.0,15775.0,10957.0,12946.0,15162.0,1.7190498113632202,-0.05988351614954512,0.07221726903625528,0.1655683580245322,0.005881886463612318,-0.008762473240494728,0.0
244,5,-8.611709927208722e-05,-3.530784306349233e-05,0.00015646561223547906,-0.006529397331178188,0.0034640624653548002,-0.009263649582862854,-0.014312206767499447,-0.08390278369188309,0.014275535009801388,-0.0009225758258253336,-0.0008755646995268762,-0.003773863660171628,0.0,0.0,0.0,-0.0027499874122440815,-0.0014199663419276476,-0.0,0.0,0.0,0.0,0.003872249973937869,0.024804549291729927,0.0013227291638031602,15687.0,11081.0,12861.0,15237.0,0.5583993196487427,0.2664409279823303,0.36660993099212646,0.5251755714416504,0.0,0.0,0.0,0.0,15775.0,10957.0,12946.0,15162.0,1.7190498113632202,-0.0599522660594928,0.07110205343570784,0.16541043931094604,0.005881886463612318,-0.008762473240494728,0.0
249,5,-0.00015076232375577092,-5.846853309776634e-05,0.0002370381698710844,-0.010369186289608479,0.004164907615631819,-0.013374165631830692,-0.014345811679959297,-0.08388691395521164,0.014257414266467094,-0.0037707260344177485,0.006030382588505745,-0.00042911380296573043,0.0,0.0,0.0,-0.004138285294175148,-0.006026840768754482,-0.0,0.0,0.0,0.0,0.004615765996277332,0.025299426168203354,0.0013438437599688768,15687.0,11081.0,12861.0,15237.0,0.5583993196487427,0.2664409279823303,0.36660993099212646,0.5251755714416504,0.0,0.0,0.0,0.0,15642.0,10822.0,13086.0,15270.0,1.7187079191207886,-0.05779796665565061,0.06951779988932999,0.16428383672217342,0.024959584698081017,-0.013183441944420338,0.0
254,5,-0.0002175658446503803,-8.710194379091263e-05,0.0003281571844127029,-0.012164095416665077,0.005101972725242376,-0.016283949837088585,-0.014345811679959297,-0.08388691395521164,0.014257414266467094,-0.0037707260344177485,0.006030382588505745,-0.00042911380296573043,0.0,0.0,0.0,-0.004138285294175148,-0.006026840768754482,-0.0,0.0,0.0,0.0,0.004615765996277332,0.025299426168203354,0.0013438437599688768,15687.0,11081.0,12861.0,15237.0,0.5583993196487427,0.2664409279823303,0.36660993099212646,0.5251755714416504,0.0,0.0,0.0,0.0,15642.0,10822.0,13086.0,15270.0,1.7187079191207886,-0.05614976635884421,0.06624542992860484,0.16448371175640117,0.024959584698081017,-0.013183441944420338,0.0
259,5,-0.0003103554481640458,-0.00011827104754047468,0.0004664651060011238,-0.01600039005279541,0.005781081505119801,-0.02311052940785885,-0.014339745976030827,-0.08391693234443665,0.014268075115978718,-0.0008177554700523615,0.003494396572932601,0.0010322312591597438,0.0,0.0,0.0,-0.006006363779306412,-0.011029500514268875,-0.0,0.0,0.0,0.0,0.0030634987633675337,0.02583226002752781,0.0014984100125730038,15611.0,10868.0,13053.0,15298.0,0.5526798963546753,0.25550490617752075,0.3784106969833374,0.5296425223350525,0.0,0.0,0.0,0.0,15856.0,10977.0,12801.0,15192.0,1.7614866495132446,-0.05410162618037225,0.062325862629232835,0.16346358792777985,0.04681343212723732,-0.019610777497291565,0.0
264,5,-0.0005390694714151323,-0.00022955649183131754,0.0007797999423928559,-0.03384583815932274,0.01566668599843979,-0.04684438928961754,-0.014339745976030827,-0.08391693234443665,0.014268075115978718,-0.0008177554700523615,0.003494396572932601,0.0010322312591597438,0.0,0.0,0.0,-0.006006363779306412,-0.011029500514268875,-0.0,0.0,0.0,0.0,0.0030634987633675337,0.02583226002752781,0.0014984100125730038,15611.0,10868.0,13053.0,15298.0,0.5526798963546753,0.25550490617752075,0.3784106969833374,0.5296425223350525,0.0,0.0,0.0,0.0,15856.0,10977.0,12801.0,15192.0,1.7614866495132446,-0.05656485602485029,0.05544118414891008,0.1622493666885314,0.04681343212723732,-0.019610777497291565,0.0
269,5,-0.0005730293341912329,-0.0002490906335879117,0.0008346567046828568,-0.017613518983125687,0.008610771968960762,-0.025320572778582573,-0.014305956661701202,-0.08392036706209183,0.014310083352029324,-0.000936340366024524,0.0014473070623353124,-0.00021662548533640802,0.0,0.0,0.0,-0.01621365360915661,-0.026998858898878098,-0.0,0.0,0.0,0.0,0.004254055209457874,0.025783179327845573,0.0014567460166290402,15766.0,10916.0,12858.0,15290.0,0.564289927482605,0.2579241693019867,0.3664596974849701,0.5290359258651733,0.0,0.0,0.0,0.0,15789.0,10878.0,12885.0,15269.0,1.9970488548278809,-0.04967970293232294,0.04876106678909986,0.16322667205521538,0.12989012897014618,-0.060012754052877426,0.0
274,5,-0.0007608017767779529,-0.00037877578870393336,0.0011294004507362843,-0.02957809902727604,0.019006527960300446,-0.045497480779886246,-0.014305956661701202,-0.08392036706209183,0.014310083352029324,-0.000936340366024524,0.0014473070623353124,-0.00021662548533640802,0.0,0.0,0.0,-0.01621365360915661,-0.026998858898878098,-0.0,0.0,0.0,0.0,0.004254055209457874,0.025783179327845573,0.0014567460166290402,15766.0,10916.0,12858.0,15290.0,0.564289927482605,0.2579241693019867,0.3664596974849701,0.5290359258651733,0.0,0.0,0.0,0.0,15789.0,10878.0,12885.0,15269.0,1.9970488548278809,-0.05016419210675682,0.038654069127804815,0.1618078548483373,0.12989012897014618,-0.060012754052877426,0.0
279,5,-0.0009186638053506613,-0.0004466493264771998,0.0012516252463683486,-0.030774688348174095,0.0157474372535944,-0.032865963876247406,-0.014238933101296425,-0.0838887020945549,0.014107427559792995,-0.00037814286770299077,-0.0026120480615645647,-0.04524466022849083,0.0,0.0,0.0,-0.01998288929462433,-0.024123668670654297,-0.0,0.0,0.0,0.0,0.004050935618579388,0.024781979620456696,0.0008086346788331866,15309.0,11546.0,12460.0,15614.0,0.5304467678070068,0.2910977005958557,0.34264975786209106,0.5529223084449768,0.0,0.0,0.0,0.0,15780.0,10898.0,12868.0,15279.0,1.9807980060577393,-0.04249028467366912,0.03302898684392615,0.16226073304659092,0.11510829627513885,-0.07335919141769409,0.0
284,5,-0.0010685722809284925,-0.000562571978662163,0.0014423029497265816,-0.030298884958028793,0.020209694281220436,-0.0360277034342289,-0.014238933101296425,-0.0838887020945549,0.014107427559792995,-0.00037814286770299077,-0.0026120480615645647,-0.04524466022849083,0.0,0.0,0.0,-0.01998288929462433,-0.024123668670654297,-0.0,0.0,0.0,0.0,0.004050935618579388,0.024781979620456696,0.0008086346788331866,15309.0,11546.0,12460.0,15614.0,0.5304467678070068,0.2910977005958557,0.34264975786209106,0.5529223084449768,0.0,0.0,0.0,0.0,15780.0,10898.0,12868.0,15279.0,1.9807980060577393,-0.03878860867724391,0.024477193221784863,0.1622708527408374,0.11510829627513885,-0.07335919141769409,0.0
290,5,-0.0012546172365546227,-0.0006710646557621658,0.0016227401793003082,-0.03444495052099228,0.021102992817759514,-0.0360635481774807,-0.014211516827344894,-0.08372360467910767,0.01457579992711544,0.01833641715347767,-0.01954428106546402,0.1111774891614914,0.0,0.0,0.0,-0.02130955271422863,-0.024838309735059738,-0.0,0.0,0.0,0.0,0.004436958581209183,0.025928722694516182,-0.002135463757440448,16602.0,9562.0,14055.0,14190.0,0.6290261149406433,0.19345879554748535,0.44279253482818604,0.4518488049507141,0.0,0.0,0.0,0.0,15885.0,10731.0,13132.0,15053.0,1.9974011182785034,-0.032894060347819866,0.01620857055808648,0.1618489418352058,0.11950771510601044,-0.07888391613960266,0.0
295,5,-0.0014352801954373717,-0.0007750504883006215,0.0017414954490959644,-0.035457544028759,0.020919501781463623,-0.028676051646471024,-0.014211516827344894,-0.08372360467910767,0.01457579992711544,0.01833641715347767,-0.01954428106546402,0.1111774891614914,0.0,0.0,0.0,-0.02130955271422863,-0.024838309735059738,-0.0,0.0,0.0,0.0,0.004436958581209183,0.025928722694516182,-0.002135463757440448,16602.0,9562.0,14055.0,14190.0,0.6290261149406433,0.19345879554748535,0.44279253482818604,0.4518488049507141,0.0,0.0,0.0,0.0,15885.0,10731.0,13132.0,15053.0,1.9974011182785034,-0.02826498015967304,0.007033335245367909,0.1621263576961768,0.11950771510601044,-0.07888391613960266,0.0
300,5,-0.0016064620576798916,-0.0008626951603218913,0.0019051189301535487,-0.03472483903169632,0.018885159865021706,-0.031105240806937218,-0.014239618554711342,-0.0838085263967514,0.01385439746081829,-0.005537412595003843,-0.012767004780471325,-0.02157132513821125,0.0,0.0,0.0,-0.02180517092347145,-0.02857286110520363,-0.0,0.0,0.0,0.0,0.005061408504843712,0.024332955479621887,0.0013588793808594346,15531.0,11222.0,12668.0,15459.0,0.5467724800109863,0.27380216121673584,0.355003297328949,0.5414285659790039,0.0,0.0,0.0,0.0,16407.0,9883.0,13808.0,14442.0,2.0468661785125732,-0.024366192177201505,-0.000861746650360486,0.16206282101803557,0.14087460935115814,-0.08271703869104385,0.0
305,5,-0.0018100431188941002,-0.000980950309894979,0.0021710610017180443,-0.0383196622133255,0.021744677796959877,-0.04435514286160469,-0.014239618554711342,-0.0838085263967514,0.01385439746081829,-0.005537412595003843,-0.012767004780471325,-0.02157132513821125,0.0,0.0,0.0,-0.02180517092347145,-0.02857286110520363,-0.0,0.0,0.0,0.0,0.005061408504843712,0.024332955479621887,0.0013588793808594346,15531.0,11222.0,12668.0,15459.0,0.5467724800109863,0.27380216121673584,0.355003297328949,0.5414285659790039,0.0,0.0,0.0,0.0,16407.0,9883.0,13808.0,14442.0,2.0468661785125732,-0.023615695162106293,-0.009262051156977853,0.1615507009685708,0.14087460935115814,-0.08271703869104385,0.0
310,5,-0.001959356013685465,-0.0010513975284993649,0.0023548314347863197,-0.03324540704488754,0.017151542007923126,-0.039794500917196274,-0.014239618554711342,-0.0838085263967514,0.01385439746081829,-0.005537412595003843,-0.012767004780471325,-0.02157132513821125,0.0,0.0,0.0,-0.022567717358469963,-0.030690452083945274,-0.0,0.0,0.0,0.0,0.005061408504843712,0.024332955479621887,0.0013588793808594346,15531.0,11222.0,12668.0,15459.0,0.5467724800109863,0.27380216121673584,0.355003297328949,0.5414285659790039,0.0,0.0,0.0,0.0,16407.0,9883.0,13808.0,14442.0,2.0788686275482178,-0.02228787564707434,-0.01499482355485552,0.16157059996817635,0.15367507934570312,-0.08694732934236526,0.0
315,5,-0.002064364030957222,-0.001119649619795382,0.002481753472238779,-0.025899138301610947,0.015050861984491348,-0.03114847093820572,-0.014264998026192188,-0.08288697898387909,0.014393449760973454,-0.03637862950563431,-0.06053446978330612,-0.002021225169301033,0.0,0.0,0.0,-0.022567717358469963,-0.030690452083945274,-0.0,0.0,0.0,0.0,0.004043933469802141,0.023706138134002686,0.0035446863621473312,15191.0,11601.0,12426.0,15715.0,0.5218201875686646,0.2940402626991272,0.3406873941421509,0.56047123670578,0.0,0.0,0.0,0.0,15164.0,11639.0,12382.0,15747.0,2.0788686275482178,-0.021197750750884075,-0.018284395775285765,0.16162633582763955,0.15367507934570312,-0.08694732934236526,0.0
320,5,-0.002105003222823143,-0.0011472582118585706,0.0025462449993938208,-0.015236335806548595,0.009333386085927486,-0.02019834890961647,-0.014264998026192188,-0.08288697898387909,0.014393449760973454,-0.03637862950563431,-0.06053446978330612,-0.002021225169301033,0.0,0.0,0.0,-0.01729949377477169,-0.023064328357577324,-0.0,0.0,0.0,0.0,0.004043933469802141,0.023706138134002686,0.0035446863621473312,15191.0,11601.0,12426.0,15715.0,0.5218201875686646,0.2940402626991272,0.3406873941421509,0.56047123670578,0.0,0.0,0.0,0.0,15164.0,11639.0,12382.0,15747.0,1.9527963399887085,-0.019983098015568225,-0.020728461648085332,0.1616579771137672,0.10850410908460617,-0.06261228770017624,0.0
325,5,-0.0021133804693818092,-0.0011541217099875212,0.002571122720837593,-0.007099825423210859,0.004556973464787006,-0.011064672842621803,-0.014497540891170502,-0.082210473716259,0.01424483023583889,0.0036483081057667732,-0.07864779978990555,0.05850273370742798,0.0,0.0,0.0,-0.01729949377477169,-0.023064328357577324,-0.0,0.0,0.0,0.0,0.0039075808599591255,0.02284112013876438,0.0026423423551023006,16114.0,10478.0,13620.0,14555.0,0.5908136963844299,0.23607376217842102,0.41421034932136536,0.4767662584781647,0.0,0.0,0.0,0.0,14870.0,12056.0,12192.0,15865.0,1.9527963399887085,-0.020573190921305773,-0.020582056258017255,0.1616628254969719,0.10850410908460617,-0.06261228770017624,0.0
330,5,-0.002117620315402746,-0.0011513292556628585,0.0026172043289989233,-0.003348709549754858,0.0014876901404932141,-0.00995566975325346,-0.014497540891170502,-0.082210473716259,0.01424483023583889,0.0036483081057667732,-0.07864779978990555,0.05850273370742798,0.0,0.0,0.0,-0.01729949377477169,-0.023064328357577324,-0.0,0.0,0.0,0.0,0.0039075808599591255,0.02284112013876438,0.0026423423551023006,16114.0,10478.0,13620.0,14555.0,0.5908136963844299,0.23607376217842102,0.41421034932136536,0.4767662584781647,0.0,0.0,0.0,0.0,14870.0,12056.0,12192.0,15865.0,1.9527963399887085,-0.02249112884118259,-0.016658317662658018,0.16103677805918007,0.10850410908460617,-0.06261228770017624,0.0
335,5,-0.001986484043300152,-0.0010947552509605885,0.002533996244892478,0.014396872371435165,-0.006193798501044512,0.006002700887620449,-0.014360880479216576,-0.08093811571598053,0.013908450491726398,0.031244982033967972,-0.13485941290855408,-0.05096275359392166,0.0,0.0,0.0,-0.0037449896335601807,-0.005854066461324692,-0.0,0.0,0.0,0.0,0.004061087500303984,0.022483306005597115,-0.0003388819459360093,15113.0,11880.0,12592.0,15477.0,0.5161813497543335,0.3094561696052551,0.35046738386154175,0.5427296757698059,0.0,0.0,0.0,0.0,15826.0,10936.0,13294.0,14839.0,1.7184399366378784,-0.023406623805024448,-0.014453600329033455,0.16124908184862743,0.024240320548415184,-0.011928660795092583,0.0
340,5,-0.0019463942153379321,-0.0010468446416780353,0.0025255640503019094,0.010569530539214611,-0.00822679977864027,0.003412943333387375,-0.014360880479216576,-0.08093811571598053,0.013908450491726398,0.031244982033967972,-0.13485941290855408,-0.05096275359392166,0.0,0.0,0.0,-0.0037449896335601807,-0.005854066461324692,-0.0,0.0,0.0,0.0,0.004061087500303984,0.022483306005597115,-0.0003388819459360093,15113.0,11880.0,12592.0,15477.0,0.5161813497543335,0.3094561696052551,0.35046738386154175,0.5427296757698059,0.0,0.0,0.0,0.0,15826.0,10936.0,13294.0,14839.0,1.7184399366378784,-0.027331296422113953,-0.01026276656267084,0.16102417350381276,0.024240320548415184,-0.011928660795092583,0.0
345,5,-0.001860395772382617,-0.0009763289708644152,0.002456882270053029,0.014547627419233322,-0.011752599850296974,0.009606985375285149,-0.014209511689841747,-0.07889387011528015,0.013999559916555882,0.04215014725923538,-0.36036184430122375,-0.053156644105911255,0.0,0.0,0.0,0.00782567635178566,0.006936198566108942,-0.0,0.0,0.0,0.0,0.0016912708524614573,0.00842843484133482,0.0017108360771089792,14757.0,12367.0,12976.0,15125.0,0.49086883664131165,0.3372443616390228,0.3736339509487152,0.5170868635177612,0.0,0.0,0.0,0.0,14453.0,12814.0,12743.0,15246.0,1.7284666299819946,-0.03265391631128063,-0.006565140849652405,0.16076114035136066,-0.02888801135122776,0.025071678683161736,-0.0
351,5,-0.0018703689565882087,-0.0010115180630236864,0.002452763495966792,0.004622270353138447,-0.00047835041186772287,0.004337065853178501,-0.014209511689841747,-0.07889387011528015,0.013999559916555882,0.04215014725923538,-0.36036184430122375,-0.053156644105911255,0.0,0.0,0.0,0.00782567635178566,0.006936198566108942,-0.0,0.0,0.0,0.0,0.0016912708524614573,0.00842843484133482,0.0017108360771089792,14757.0,12367.0,12976.0,15125.0,0.49086883664131165,0.3372443616390228,0.3736339509487152,0.5170868635177612,0.0,0.0,0.0,0.0,14453.0,12814.0,12743.0,15246.0,1.7284666299819946,-0.04531678637646319,-0.00843550037715644,0.16171296253912948,-0.02888801135122776,0.025071678683161736,-0.0
356,5,-0.001756918034516275,-0.0009015813120640814,0.0022672784980386496,0.015463009476661682,-0.013383748941123486,0.023993022739887238,-0.011328055523335934,-0.06419539451599121,0.013362139463424683,0.29288387298583984,-1.2258727550506592,-0.06468771398067474,0.0,0.0,0.0,-0.0011947974562644958,0.001694964012131095,-0.0,0.0,0.0,0.0,-0.0009995924774557352,-0.004882454872131348,-0.0006188479601405561,13376.0,14502.0,14150.0,13365.0,0.39857247471809387,0.47310683131217957,0.4491089880466461,0.397919625043869,0.0,0.0,0.0,0.0,14713.0,12837.0,14252.0,13556.0,1.7132606506347656,-0.04628540369879343,-0.00018878313811150418,0.16299988700501705,-0.00699737761169672,-0.0037942512426525354,-0.0
361,5,-0.001674421364441514,-0.0008407069835811853,0.0021643671207129955,0.016084808856248856,-0.012658419087529182,0.021946562454104424,-0.011328055523335934,-0.06419539451599121,0.013362139463424683,0.29288387298583984,-1.2258727550506592,-0.06468771398067474,0.0,0.0,0.0,-0.0011947974562644958,0.001694964012131095,-0.0,0.0,0.0,0.0,-0.0009995924774557352,-0.004882454872131348,-0.0006188479601405561,13376.0,14502.0,14150.0,13365.0,0.39857247471809387,0.47310683131217957,0.4491089880466461,0.397919625043869,0.0,0.0,0.0,0.0,14713.0,12837.0,14252.0,13556.0,1.7132606506347656,-0.0504407120424792,0.004789369492177256,0.16318655642924657,-0.00699737761169672,-0.0037942512426525354,-0.0
366,5,-0.0016027679666876793,-0.0007735959370620549,0.0020716553553938866,0.015032326802611351,-0.013116691261529922,0.019904032349586487,-0.006921138148754835,-0.0466785728931427,0.01347439270466566,0.44575074315071106,-1.6818052530288696,-0.00946020893752575,0.0,0.0,0.0,0.012812072411179543,0.011751847341656685,-0.0,0.0,0.0,0.0,-0.004173216875642538,-0.01769586279988289,0.0015571018448099494,14021.0,16631.0,16450.0,11858.0,0.4404962658882141,0.6313474774360657,0.6170058846473694,0.3081991672515869,0.0,0.0,0.0,0.0,13733.0,16888.0,16322.0,12006.0,1.8030809164047241,-0.052471349824283434,0.009299179206641646,0.1635372634273527,-0.05105374753475189,0.04281752556562424,-0.0
371,5,-0.0015573065029457211,-0.000742643023841083,0.002012884709984064,0.011468305252492428,-0.0089610256254673,0.015014096163213253,-0.006921138148754835,-0.0466785728931427,0.01347439270466566,0.44575074315071106,-1.6818052530288696,-0.00946020893752575,0.0,0.0,0.0,0.012812072411179543,0.011751847341656685,-0.0,0.0,0.0,0.0,-0.004173216875642538,-0.01769586279988289,0.0015571018448099494,14021.0,16631.0,16450.0,11858.0,0.4404962658882141,0.6313474774360657,0.6170058846473694,0.3081991672515869,0.0,0.0,0.0,0.0,13733.0,16888.0,16322.0,12006.0,1.8030809164047241,-0.05452555929488494,0.01249161116066102,0.16391580377048354,-0.05105374753475189,0.04281752556562424,-0.0
376,5,-0.001497167395427823,-0.0007269072812050581,0.0019450705731287599,0.011804020032286644,-0.005472703371196985,0.014143343083560467,-0.0032229649368673563,-0.03218859061598778,0.013192516751587391,0.48265987634658813,-1.9091001749038696,0.012834079563617706,0.0,0.0,0.0,0.009106297977268696,0.008166995830833912,-0.0,0.0,0.0,0.0,-0.012004023417830467,-0.03907975181937218,0.0017219363944604993,13323.0,17480.0,16943.0,10319.0,0.39521992206573486,0.700785756111145,0.6564310789108276,0.22836120426654816,0.0,0.0,0.0,0.0,13895.0,17017.0,17159.0,9971.0,1.7471141815185547,-0.05500733612756418,0.014311458411264591,0.16508319496689436,-0.03438054025173187,0.029489051550626755,-0.0
381,5,-0.0014881042297929525,-0.0006988972309045494,0.001939083682373166,0.005809191148728132,-0.005550286266952753,0.006375766824930906,-0.0032229649368673563,-0.03218859061598778,0.013192516751587391,0.48265987634658813,-1.9091001749038696,0.012834079563617706,0.0,0.0,0.0,0.009106297977268696,0.008166995830833912,-0.0,0.0,0.0,0.0,-0.012004023417830467,-0.03907975181937218,0.0017219363944604993,13323.0,17480.0,16943.0,10319.0,0.39521992206573486,0.700785756111145,0.6564310789108276,0.22836120426654816,0.0,0.0,0.0,0.0,13895.0,17017.0,17159.0,9971.0,1.7471141815185547,-0.05524443866062488,0.015405592711701816,0.16649148775310577,-0.03438054025173187,0.029489051550626755,-0.0
386,5,-0.0014765943633392453,-0.0007221417617984116,0.001880910713225603,0.003704861970618367,0.0005692308186553419,0.009531059302389622,-0.0032229649368673563,-0.03218859061598778,0.013192516751587391,0.48265987634658813,-1.9091001749038696,0.012834079563617706,0.0,0.0,0.0,0.005386676173657179,0.0033111642114818096,-0.0,0.0,0.0,0.0,-0.012630194425582886,-0.038260601460933685,0.0017666869098320603,14039.0,17001.0,17094.0,10263.0,0.44167107343673706,0.661214292049408,0.6687896251678467,0.22572612762451172,0.0,0.0,0.0,0.0,14367.0,16997.0,17431.0,10259.0,1.6963255405426025,-0.05145814693056774,0.016698555265646793,0.16731742782695866,-0.01353426743298769,0.016936935484409332,-0.0
391,5,-0.001590448897331953,-0.0008837340283207595,0.0021352593321353197,-0.012180601246654987,0.01961876079440117,-0.02670942060649395,0.005379030480980873,0.0032313568517565727,0.013414132408797741,0.30711230635643005,-1.4136253595352173,0.032959774136543274,0.0,0.0,0.0,0.005386676173657179,0.0033111642114818096,-0.0,0.0,0.0,0.0,-0.012630194425582886,-0.038260601460933685,0.0017666869098320603,14039.0,17001.0,17094.0,10263.0,0.44167107343673706,0.661214292049408,0.6687896251678467,0.22572612762451172,0.0,0.0,0.0,0.0,14367.0,16997.0,17431.0,10259.0,1.6963255405426025,-0.0583060502598149,0.008387022249434786,0.16615066493595695,-0.01353426743298769,0.016936935484409332,-0.0
396,5,-0.001671478385105729,-0.0009547515073791146,0.0021764207631349564,-0.014595785178244114,0.01636960357427597,-0.015623142011463642,0.005379030480980873,0.0032313568517565727,0.013414132408797741,0.30711230635643005,-1.4136253595352173,0.032959774136543274,0.0,0.0,0.0,-0.022548189386725426,-0.012047613970935345,-0.0,0.0,0.0,0.0,-0.006146817468106747,-0.017146429046988487,0.002355006756260991,14498.0,16609.0,16851.0,11627.0,0.4728580415248871,0.6295782327651978,0.6489803791046143,0.295449435710907,0.0,0.0,0.0,0.0,14708.0,16600.0,16737.0,12116.0,1.8777247667312622,-0.0543153967827032,0.005708276109941085,0.1665715649448607,0.0544959157705307,-0.07846668362617493,0.0
401,5,-0.001762141240760684,-0.0010592255275696516,0.002206428674980998,-0.01671784557402134,0.019084729254245758,-0.009850183501839638,0.007255445700138807,0.015964176505804062,0.013809598051011562,0.03186177834868431,-0.7418947815895081,0.02121192216873169,0.0,0.0,0.0,-0.022548189386725426,-0.012047613970935345,-0.0,0.0,0.0,0.0,-0.006146817468106747,-0.017146429046988487,0.002355006756260991,14498.0,16609.0,16851.0,11627.0,0.4728580415248871,0.6295782327651978,0.6489803791046143,0.295449435710907,0.0,0.0,0.0,0.0,14708.0,16600.0,16737.0,12116.0,1.8777247667312622,-0.04831801914278495,0.0029590740015549405,0.16636496271756676,0.0544959157705307,-0.07846668362617493,0.0
406,5,-0.001854830188676715,-0.0011681847972795367,0.0022298574913293123,-0.01780981570482254,0.020708996802568436,-0.006751534063369036,0.007255445700138807,0.015964176505804062,0.013809598051011562,0.03186177834868431,-0.7418947815895081,0.02121192216873169,0.0,0.0,0.0,-0.021938558667898178,-0.015794385224580765,-0.0,0.0,0.0,0.0,-0.006146817468106747,-0.017146429046988487,0.002355006756260991,14498.0,16609.0,16851.0,11627.0,0.4728580415248871,0.6295782327651978,0.6489803791046143,0.295449435710907,0.0,0.0,0.0,0.0,14708.0,16600.0,16737.0,12116.0,1.904463529586792,-0.042033561900633926,-0.0010195916125560086,0.16683207033942982,0.07246106117963791,-0.07743298262357712,0.0
412,5,-0.002068097935989499,-0.0013248048489913344,0.0024647628888487816,-0.032716054469347,0.02707800827920437,-0.030889276415109634,0.0013759509893134236,0.014045857824385166,0.014697871170938015,-0.5804594159126282,0.6974324584007263,0.0406557135283947,0.0,0.0,0.0,-0.021938558667898178,-0.015794385224580765,-0.0,0.0,0.0,0.0,0.000355614087311551,-0.0003684053954202682,0.003054050263017416,15655.0,13451.0,15555.0,14087.0,0.556005597114563,0.4033864438533783,0.548515260219574,0.44488897919654846,0.0,0.0,0.0,0.0,14708.0,16600.0,16737.0,12116.0,1.904463529586792,-0.040433460621403815,-0.005095693787574219,0.16580488185548986,0.07246106117963791,-0.07743298262357712,0.0
417,5,-0.0020348664838820696,-0.0013796094572171569,0.002351015340536833,-0.009098642505705357,0.017407750710844994,0.0012939934385940433,0.0013759509893134236,0.014045857824385166,0.014697871170938015,-0.5804594159126282,0.6974324584007263,0.0406557135283947,0.0,0.0,0.0,-0.028384823352098465,-0.026910144835710526,-0.0,0.0,0.0,0.0,0.000355614087311551,-0.0003684053954202682,0.003054050263017416,15655.0,13451.0,15555.0,14087.0,0.556005597114563,0.4033864438533783,0.548515260219574,0.44488897919654846,0.0,0.0,0.0,0.0,14708.0,16600.0,16737.0,12116.0,2.0698161125183105,-0.030615072483528114,-0.008794540958207078,0.167718775192567,0.13414433598518372,-0.10887309908866882,0.0
422,5,-0.0022297780960798264,-0.0015550365205854177,0.0025824091862887144,-0.027028853073716164,0.028014352545142174,-0.027249647304415703,-0.0043771034106612206,0.0070159598253667355,0.014709403738379478,-0.8162573575973511,1.034332275390625,-0.002265691990032792,0.0,0.0,0.0,-0.028384823352098465,-0.026910144835710526,-0.0,0.0,0.0,0.0,0.010156543925404549,0.015969207510352135,0.0014130525523796678,14843.0,11144.0,13976.0,15087.0,0.4969463646411896,0.2697051465511322,0.4374988377094269,0.5142895579338074,0.0,0.0,0.0,0.0,15644.0,13380.0,15399.0,14336.0,2.0698161125183105,-0.030015891746082705,-0.01287254287537165,0.16616650820081863,0.13414433598518372,-0.10887309908866882,0.0
427,5,-0.002183749107643962,-0.0015913277165964246,0.002435830421745777,-0.005288070999085903,0.015560685656964779,0.006689590401947498,-0.0043771034106612206,0.0070159598253667355,0.014709403738379478,-0.8162573575973511,1.034332275390625,-0.002265691990032792,0.0,0.0,0.0,-0.028384823352098465,-0.026910144835710526,-0.0,0.0,0.0,0.0,0.010156543925404549,0.015969207510352135,0.0014130525523796678,14843.0,11144.0,13976.0,15087.0,0.4969463646411896,0.2697051465511322,0.4374988377094269,0.5142895579338074,0.0,0.0,0.0,0.0,15644.0,13380.0,15399.0,14336.0,2.0698161125183105,-0.021354350451978994,-0.015643870385663852,0.16815039147861355,0.13414433598518372,-0.10887309908866882,0.0
432,5,-0.0022282940335571766,-0.0016599020455032587,0.00246607419103384,-0.007460625842213631,0.014453194104135036,-0.0009534280397929251,-0.0043771034106612206,0.0070159598253667355,0.014709403738379478,-0.8162573575973511,1.034332275390625,-0.002265691990032792,0.0,0.0,0.0,-0.019873615354299545,-0.00727004325017333,-0.0,0.0,0.0,0.0,0.016900405287742615,0.02291286550462246,0.001348353223875165,15032.0,9706.0,14132.0,15844.0,0.5104022026062012,0.19988355040550232,0.44793471693992615,0.570246160030365,0.0,0.0,0.0,0.0,14851.0,10927.0,13919.0,15286.0,1.8232330083847046,-0.018172141316233594,-0.017580787352011355,0.16915895284805627,0.03193312883377075,-0.06715458631515503,-0.0
437,5,-0.002386105479672551,-0.001785102067515254,0.002780565293505788,-0.021921608597040176,0.020805278792977333,-0.038120295852422714,-0.0043771034106612206,0.0070159598253667355,0.014709403738379478,-0.8162573575973511,1.034332275390625,-0.002265691990032792,0.0,0.0,0.0,-0.019873615354299545,-0.00727004325017333,-0.0,0.0,0.0,0.0,0.016900405287742615,0.02291286550462246,0.001348353223875165,15032.0,9706.0,14132.0,15844.0,0.5104022026062012,0.19988355040550232,0.44793471693992615,0.570246160030365,0.0,0.0,0.0,0.0,14851.0,10927.0,13919.0,15286.0,1.8232330083847046,-0.023339117770435198,-0.02328187025828098,0.16763797587951468,0.03193312883377075,-0.06715458631515503,-0.0
442,5,-0.002338613383471966,-0.001726604183204472,0.0026395099703222513,-0.003069597063586116,0.0013023631181567907,0.0016785244224593043,-0.014553865417838097,-0.005290605593472719,0.014592353254556656,-0.8593774437904358,1.0135530233383179,0.01308965589851141,0.0,0.0,0.0,-0.024147450923919678,-0.02017134614288807,-0.0,0.0,0.0,0.0,0.016900405287742615,0.02291286550462246,0.001348353223875165,15032.0,9706.0,14132.0,15844.0,0.5104022026062012,0.19988355040550232,0.44793471693992615,0.570246160030365,0.0,0.0,0.0,0.0,15144.0,9629.0,14264.0,15665.0,1.9640617370605469,-0.01723385380760028,-0.019838842193935613,0.16903619924975438,0.09543020278215408,-0.08789381384849548,0.0
447,5,-0.0024349112063646317,-0.0016858670860528946,0.0028128218837082386,-0.01125702727586031,-0.0033395090140402317,-0.01723937876522541,-0.014553865417838097,-0.005290605593472719,0.014592353254556656,-0.8593774437904358,1.0135530233383179,0.01308965589851141,0.0,0.0,0.0,-0.024147450923919678,-0.02017134614288807,-0.0,0.0,0.0,0.0,0.016900405287742615,0.02291286550462246,0.001348353223875165,15032.0,9706.0,14132.0,15844.0,0.5104022026062012,0.19988355040550232,0.44793471693992615,0.570246160030365,0.0,0.0,0.0,0.0,15144.0,9629.0,14264.0,15665.0,1.9640617370605469,-0.022556120420163275,-0.016333187498448386,0.1679476677694273,0.09543020278215408,-0.08789381384849548,0.0
452,5,-0.0024349112063646317,-0.0016858670860528946,0.0028128218837082386,-0.01125702727586031,-0.0033395090140402317,-0.01723937876522541,-0.020633697509765625,-0.012318863533437252,0.015000874176621437,-0.6563891172409058,0.7264835834503174,0.09530004858970642,0.0,0.0,0.0,0.0009694285108707845,-0.013028609566390514,-0.0,0.0,0.0,0.0,0.016301585361361504,0.015817172825336456,0.003407773096114397,15566.0,9307.0,14971.0,14537.0,0.5493811964988708,0.182345449924469,0.5059902667999268,0.4755437672138214,0.0,0.0,0.0,0.0,15475.0,9572.0,14958.0,14481.0,1.7747390270233154,-0.022556120420163275,-0.016333187498448386,0.1679476677694273,0.05571497976779938,0.0031890308018773794,0.0
457,5,-0.002349069807678461,-0.0015214176382869482,0.002744667697697878,0.00292776757851243,-0.014174235053360462,0.00033526920014992356,-0.020633697509765625,-0.012318863533437252,0.015000874176621437,-0.6563891172409058,0.7264835834503174,0.09530004858970642,0.0,0.0,0.0,0.0009694285108707845,-0.013028609566390514,-0.0,0.0,0.0,0.0,0.016301585361361504,0.015817172825336456,0.003407773096114397,15566.0,9307.0,14971.0,14537.0,0.5493811964988708,0.182345449924469,0.5059902667999268,0.4755437672138214,0.0,0.0,0.0,0.0,15475.0,9572.0,14958.0,14481.0,1.7747390270233154,-0.03078421938363427,-0.013922264940099096,0.16816386429878905,0.05571497976779938,0.0031890308018773794,0.0
462,5,-0.002344495616853237,-0.0014328205725178123,0.0027260580100119114,0.001720012747682631,-0.01630133017897606,0.0023672718089073896,-0.02595595270395279,-0.01810767687857151,0.016472816467285156,0.229352205991745,-0.27294158935546875,0.09283582866191864,0.0,0.0,0.0,0.013820361346006393,-0.0004892952856607735,-0.0,0.0,0.0,0.0,0.008629901334643364,0.00458715483546257,0.0038344799540936947,15128.0,11556.0,15692.0,13069.0,0.5172960162162781,0.29163068532943726,0.5587844848632812,0.3794029951095581,0.0,0.0,0.0,0.0,15374.0,10666.0,15536.0,14536.0,1.7457555532455444,-0.03555503808141802,-0.010392710317945083,0.16713063428652195,0.0020580925047397614,0.04471839964389801,-0.0
468,5,-0.0023207468912005424,-0.0013211212353780866,0.0026641031727194786,0.0035378318279981613,-0.019924450665712357,0.008381510153412819,-0.02595595270395279,-0.01810767687857151,0.016472816467285156,0.229352205991745,-0.27294158935546875,0.09283582866191864,0.0,0.0,0.0,0.013820361346006393,-0.0004892952856607735,-0.0,0.0,0.0,0.0,0.008629901334643364,0.00458715483546257,0.0038344799540936947,15128.0,11556.0,15692.0,13069.0,0.5172960162162781,0.29163068532943726,0.5587844848632812,0.3794029951095581,0.0,0.0,0.0,0.0,15374.0,10666.0,15536.0,14536.0,1.7457555532455444,-0.04033569986024026,-0.008583358777923204,0.1673164238995037,0.0020580925047397614,0.04471839964389801,-0.0
473,5,-0.002306467853486538,-0.001216708798892796,0.002595762722194195,0.003128634300082922,-0.020499277859926224,0.011553454212844372,-0.020613962784409523,-0.012110287323594093,0.01775103248655796,0.6190104484558105,-0.7045127153396606,0.09525983780622482,0.0,0.0,0.0,0.020140135660767555,8.676009747432545e-05,-0.0,0.0,0.0,0.0,0.0008856824715621769,-0.006806462537497282,0.004386438988149166,14748.0,12769.0,15850.0,11234.0,0.4902033805847168,0.3610581159591675,0.5706485509872437,0.2744154930114746,0.0,0.0,0.0,0.0,14696.0,12852.0,15884.0,11157.0,1.8051159381866455,-0.04631182096074317,-0.0063507745346690625,0.1678369092303048,-0.00037730185431428254,0.06737871468067169,-0.0
478,5,-0.002277017803862691,-0.001128152827732265,0.002532146405428648,0.004785443190485239,-0.018826428800821304,0.012255321256816387,-0.020613962784409523,-0.012110287323594093,0.01775103248655796,0.6190104484558105,-0.7045127153396606,0.09525983780622482,0.0,0.0,0.0,0.020140135660767555,8.676009747432545e-05,-0.0,0.0,0.0,0.0,0.0008856824715621769,-0.006806462537497282,0.004386438988149166,14748.0,12769.0,15850.0,11234.0,0.4902033805847168,0.3610581159591675,0.5706485509872437,0.2744154930114746,0.0,0.0,0.0,0.0,14696.0,12852.0,15884.0,11157.0,1.8051159381866455,-0.0519089728557628,-0.0045317077546162595,0.16796414836670967,-0.00037730185431428254,0.06737871468067169,-0.0
483,5,-0.0023579474072903395,-0.0010769875952973962,0.0025946483947336674,-0.00779735716059804,-0.013670396991074085,-0.002598094753921032,-0.014490514062345028,-0.0052495249547064304,0.01877821981906891,0.8890622854232788,-0.9598844051361084,0.14555706083774567,0.0,0.0,0.0,0.019304567947983742,0.0012210567947477102,-0.0,0.0,0.0,0.0,-0.013310102745890617,-0.02016524411737919,0.005407176911830902,15938.0,14663.0,16780.0,9082.0,0.5773767232894897,0.4842836856842041,0.6432529091835022,0.17281143367290497,0.0,0.0,0.0,0.0,14696.0,12852.0,15884.0,11157.0,1.7976962327957153,-0.06142086194929279,-0.0034644429875627363,0.1668542290682081,-0.005288384854793549,0.06431850790977478,-0.0
488,5,-0.002272334648296237,-0.0009756245417520404,0.0024679480120539665,0.0071545797400176525,-0.01763172447681427,0.01416480541229248,-0.014490514062345028,-0.0052495249547064304,0.01877821981906891,0.8890622854232788,-0.9598844051361084,0.14555706083774567,0.0,0.0,0.0,0.019304567947983742,0.0012210567947477102,-0.0,0.0,0.0,0.0,-0.013310102745890617,-0.02016524411737919,0.005407176911830902,15938.0,14663.0,16780.0,9082.0,0.5773767232894897,0.4842836856842041,0.6432529091835022,0.17281143367290497,0.0,0.0,0.0,0.0,14696.0,12852.0,15884.0,11157.0,1.7976962327957153,-0.06212105269892381,-0.002257128874503584,0.16852320417009486,-0.005288384854793549,0.06431850790977478,-0.0
