timestamp,dt,pos_x,pos_y,pos_z,vel_x,vel_y,vel_z,roll,pitch,yaw,agv_x,agv_y,agv_z,x_ref,y_ref,z_ref,roll_ref,pitch_ref,yaw_ref,x_vel_ref,y_vel_ref,z_vel_ref,x_torque,y_torque,z_torque,w0,w1,w2,w3,u0,u1,u2,u3,m0req,m1req,m2req,m3req,thrust0,thrust1,thrust2,thrust3,thrust_ref,roll_vicon,pitch_vicon,yaw_vicon,acc_x,acc_y,acc_z
5,5,0.0,0.0,0.0,-0.0016093016602098942,0.0007723793387413025,-0.00022441330656874925,-0.0021114428527653217,-0.035435955971479416,-0.006041125860065222,-0.0021264972165226936,-0.0021100137382745743,-0.0012975940480828285,0.0,0.0,0.0,-0.0009505582274869084,-0.0015234999591484666,-0.0,0.0,0.0,0.0,0.0004196993832010776,0.01051349751651287,-0.0005692669656127691,1495.0,1495.0,1495.0,1495.0,0.0,0.0,0.0,0.0,0.0,0.0,0.0,0.0,1495.0,1495.0,1495.0,1495.0,1.643897533416748,0.03650838409073089,-0.10953992294476454,-0.057628551283800254,0.006034881342202425,-0.0028964225202798843,0.0
33,28,0.0,0.0,0.0,0.0003588904219213873,-0.00026053900364786386,-0.0019489247351884842,-0.0021114428527653217,-0.035435955971479416,-0.006041125860065222,-0.0021264972165226936,-0.0021100137382745743,-0.0012975940480828285,0.0,0.0,0.0,-0.0009505582274869084,-0.0015234999591484666,-0.0,0.0,0.0,0.0,0.0004196993832010776,0.01051349751651287,-0.0005692669656127691,1495.0,1495.0,1495.0,1495.0,0.0,0.0,0.0,0.0,0.0,0.0,0.0,0.0,1495.0,1495.0,1495.0,1495.0,1.643897533416748,0.03651614216831915,-0.10899412715359456,-0.057803147915117786,0.006034881342202425,-0.0028964225202798843,0.0
38,5,0.0,0.0,0.0,0.000247569871135056,-7.277891563717276e-05,0.00352343893609941,-0.0021114428527653217,-0.035435955971479416,-0.006041125860065222,-0.0021264972165226936,-0.0021100137382745743,-0.0012975940480828285,0.0,0.0,0.0,0.00032332437695004046,0.00034259751555509865,-0.0,0.0,0.0,0.0,0.0004196993832010776,0.01051349751651287,-0.0005692669656127691,1495.0,1495.0,1495.0,1495.0,0.0,0.0,0.0,0.0,0.0,0.0,0.0,0.0,1495.0,1495.0,1495.0,1495.0,1.630260705947876,0.036696291756654405,-0.10919493807139993,-0.05757594530950269,-0.0013458391185849905,0.00097702129278332,0.0
43,5,0.0,0.0,0.0,-0.0002543885784689337,-0.0003657402121461928,0.0022537431214004755,-0.0021055256947875023,-0.03541696071624756,-0.006063783075660467,3.760225808946416e-05,-0.005672080907970667,-0.0030525652691721916,0.0,0.0,0.0,0.0004538715002126992,-0.00024283678794745356,-0.0,0.0,0.0,0.0,0.0001870102423708886,0.010096213780343533,-0.0006637167534790933,1495.0,1495.0,1495.0,1495.0,0.0,0.0,0.0,0.0,0.0,0.0,0.0,0.0,1495.0,1495.0,1495.0,1495.0,1.6302813291549683,0.03663400248373302,-0.10924276134848972,-0.05787600033794891,0.0009539571474306285,0.0013715258101001382,0.0
54,11,0.0,0.0,0.0,-0.0005734804435633123,0.0014374013990163803,0.0031562368385493755,-0.0021055256947875023,-0.03541696071624756,-0.006063783075660467,3.760225808946416e-05,-0.005672080907970667,-0.0030525652691721916,0.0,0.0,0.0,0.0004538715002126992,-0.00024283678794745356,-0.0,0.0,0.0,0.0,0.00020878644136246294,0.01018944475799799,-0.0006241147057153285,1495.0,1495.0,1495.0,1495.0,0.0,0.0,0.0,0.0,0.0,0.0,0.0,0.0,1495.0,1495.0,1495.0,1495.0,1.6302813291549683,0.03628771924755513,-0.10969929333465933,-0.05752815758912439,0.0009539571474306285,0.0013715258101001382,0.0
59,5,0.0,0.0,0.0,-0.0018272345187142491,-0.00046381339780054986,-0.0013189095770940185,-0.0021055256947875023,-0.03541696071624756,-0.006063783075660467,3.760225808946416e-05,-0.005672080907970667,-0.0030525652691721916,0.0,0.0,0.0,0.0004538715002126992,-0.00024283678794745356,-0.0,0.0,0.0,0.0,0.00020878644136246294,0.01018944475799799,-0.0006241147057153285,1495.0,1495.0,1495.0,1495.0,0.0,0.0,0.0,0.0,0.0,0.0,0.0,0.0,1495.0,1495.0,1495.0,1495.0,1.6302813291549683,0.03639107339842722,-0.10952310210652988,-0.0576809647523583,0.0009539571474306285,0.0013715258101001382,0.0
64,5,4.1420362322242e-06,2.7379708171793027e-06,2.147814302588813e-05,-0.00023384943779092282,-0.0005140818539075553,-0.003104940988123417,-0.0020921940449625254,-0.035415906459093094,-0.00606412161141634,-0.0006702958489768207,0.0020539218094199896,-0.0007998015498742461,0.0,0.0,0.0,0.0005704571376554668,-0.0017287449445575476,-0.0,0.0,0.0,0.0,0.0004583228437695652,0.01066590752452612,-0.0006245049880817533,13996.0,12955.0,12510.0,14507.0,0.4388166069984436,0.3723684549331665,0.3456316590309143,0.47344398498535156,0.0,0.0,0.0,0.0,1495.0,1495.0,1495.0,1495.0,1.6449134349822998,0.0363946129402591,-0.10930026965255948,-0.057795099052172366,0.006852129474282265,0.001739300205372274,0.0
69,5,1.154078017862048e-05,-6.914279765624087e-06,2.539906063248054e-06,0.0007943094824440777,0.0009526372887194157,0.001030612038448453,-0.0020921940449625254,-0.035415906459093094,-0.00606412161141634,-0.0006702958489768207,0.0020539218094199896,-0.0007998015498742461,0.0,0.0,0.0,0.0005704571376554668,-0.0017287449445575476,-0.0,0.0,0.0,0.0,0.0004583228437695652,0.01066590752452612,-0.0006245049880817533,13996.0,12955.0,12510.0,14507.0,0.4388166069984436,0.3723684549331665,0.3456316590309143,0.47344398498535156,0.0,0.0,0.0,0.0,1495.0,1495.0,1495.0,1495.0,1.6449134349822998,0.036641578987923244,-0.10953304445346199,-0.057671827215215424,0.006852129474282265,0.001739300205372274,0.0
75,5,1.15364809971652e-05,3.9504752749053296e-06,5.1641545724123716e-05,0.0003172078577335924,-0.0009227156406268477,-0.0054799518547952175,-0.002111881971359253,-0.035416264086961746,-0.006033503916114569,-0.0005493062199093401,-0.003596886759623885,0.00406587915495038,0.0,0.0,0.0,-0.0011887509608641267,0.0007704978925175965,-0.0,0.0,0.0,0.0,0.0005191435921005905,0.010563124902546406,-0.0006337295053526759,14036.0,12901.0,12592.0,14446.0,0.4415265619754791,0.3690865933895111,0.35044965147972107,0.46921852231025696,0.0,0.0,0.0,0.0,13999.0,12944.0,12554.0,14476.0,1.638555645942688,0.03636307341525302,-0.10941652107670284,-0.05771997616400808,-0.0030421752016991377,-0.0036104426253587008,-0.0
80,5,3.4243967093061656e-05,-1.8729740531853167e-06,1.4970538359193597e-05,0.0028517814353108406,0.0003297276562079787,0.002208540216088295,-0.002111881971359253,-0.035416264086961746,-0.006033503916114569,-0.0005493062199093401,-0.003596886759623885,0.00406587915495038,0.0,0.0,0.0,-0.0011887509608641267,0.0007704978925175965,-0.0,0.0,0.0,0.0,0.0005191435921005905,0.010563124902546406,-0.0006337295053526759,14036.0,12901.0,12592.0,14446.0,0.4415265619754791,0.3690865933895111,0.35044965147972107,0.46921852231025696,0.0,0.0,0.0,0.0,13999.0,12944.0,12554.0,14476.0,1.638555645942688,0.03661635072969568,-0.10918655765885868,-0.057714113677762746,-0.0030421752016991377,-0.0036104426253587008,-0.0
85,5,3.689374716486782e-05,4.42735108663328e-06,1.4065864888834767e-05,0.0014586860779672861,-0.00062414794228971,0.0009919769363477826,-0.0021138545125722885,-0.03543560579419136,-0.006041383370757103,-0.003913454711437225,0.00820962619036436,0.0024342602118849754,0.0,0.0,0.0,-0.0004063369706273079,0.0027282172814011574,-0.0,0.0,0.0,0.0,0.0005993946688249707,0.010321884416043758,-0.0005925786681473255,14035.0,13012.0,12630.0,14528.0,0.44142964482307434,0.3758566081523895,0.35274645686149597,0.47488072514533997,0.0,0.0,0.0,0.0,13962.0,12984.0,12497.0,14526.0,1.6554104089736938,0.03666720491468135,-0.109294430261123,-0.057503732193372646,-0.010882682166993618,-0.0012468107743188739,-0.0
90,5,2.815785410348326e-05,8.09802168078022e-06,2.8382150048855692e-05,-0.0004648325266316533,-0.0006901396554894745,-0.0013211634941399097,-0.0021138545125722885,-0.03543560579419136,-0.006041383370757103,-0.003913454711437225,0.00820962619036436,0.0024342602118849754,0.0,0.0,0.0,-0.0004063369706273079,0.0027282172814011574,-0.0,0.0,0.0,0.0,0.0005993946688249707,0.010321884416043758,-0.0005925786681473255,14035.0,13012.0,12630.0,14528.0,0.44142964482307434,0.3758566081523895,0.35274645686149597,0.47488072514533997,0.0,0.0,0.0,0.0,13962.0,12984.0,12497.0,14526.0,1.6554104089736938,0.03656594219164762,-0.10902056678766035,-0.05776241901494789,-0.010882682166993618,-0.0012468107743188739,-0.0
95,5,3.085783828282729e-05,-5.31682462678873e-06,-6.954443279028055e-07,0.0001380650937790051,0.0013337256386876106,0.0029608458280563354,-0.0021241919603198767,-0.03547142818570137,-0.006044661160558462,0.00044999236706644297,0.002543135778978467,-3.045178709726315e-05,0.0,0.0,0.0,0.0008691479451954365,-0.0004032934957649559,-0.0,0.0,0.0,0.0,0.00031269274768419564,0.011545088142156601,-0.0006075376877561212,14168.0,12991.0,12553.0,14635.0,0.4503534436225891,0.3745877742767334,0.3481731414794922,0.48229604959487915,0.0,0.0,0.0,0.0,14045.0,13006.0,12654.0,14502.0,1.634090781211853,0.03625125139855197,-0.10905039677150277,-0.05782865470788991,0.001587994978763163,0.0026325604412704706,0.0
100,5,1.463971784687601e-05,1.454859216210025e-06,1.366859669360565e-05,-0.001890948391519487,-0.00027911175857298076,-0.0005393464816734195,-0.0021241919603198767,-0.03547142818570137,-0.006044661160558462,0.00044999236706644297,0.002543135778978467,-3.045178709726315e-05,0.0,0.0,0.0,0.0008691479451954365,-0.0004032934957649559,-0.0,0.0,0.0,0.0,0.00031269274768419564,0.011545088142156601,-0.0006075376877561212,14168.0,12991.0,12553.0,14635.0,0.4503534436225891,0.3745877742767334,0.3481731414794922,0.48229604959487915,0.0,0.0,0.0,0.0,14045.0,13006.0,12654.0,14502.0,1.634090781211853,0.03648369436350949,-0.10911214994288546,-0.057944444339118474,0.001587994978763163,0.0026325604412704706,0.0
108,8,6.612238394154701e-06,5.58129556793574e-07,5.708630396838998e-06,-0.0017196768894791603,-4.037153303215746e-06,0.000739457318559289,-0.0021241919603198767,-0.03547142818570137,-0.006044661160558462,0.00044999236706644297,0.002543135778978467,-3.045178709726315e-05,0.0,0.0,0.0,0.00034590146970003843,-0.001768574700690806,-0.0,0.0,0.0,0.0,0.0005745673552155495,0.01046044286340475,-0.0007220296538434923,14168.0,12991.0,12553.0,14635.0,0.4503534436225891,0.3745877742767334,0.3481731414794922,0.48229604959487915,0.0,0.0,0.0,0.0,14139.0,13013.0,12529.0,14663.0,1.6449666023254395,0.03649320245650029,-0.10917407379714988,-0.05758350961935603,0.0070102280005812645,0.0010546734556555748,0.0
113,5,-3.656477701952099e-06,-2.5850124529824825e-06,1.9175204215571284e-05,-0.0019201167160645127,0.0003755621728487313,-0.0013202059781178832,-0.0021241919603198767,-0.03547142818570137,-0.006044661160558462,0.00044999236706644297,0.002543135778978467,-3.045178709726315e-05,0.0,0.0,0.0,0.00034590146970003843,-0.001768574700690806,-0.0,0.0,0.0,0.0,0.0005745673552155495,0.01046044286340475,-0.0007220296538434923,14168.0,12991.0,12553.0,14635.0,0.4503534436225891,0.3745877742767334,0.3481731414794922,0.48229604959487915,0.0,0.0,0.0,0.0,14139.0,13013.0,12529.0,14663.0,1.6449666023254395,0.0361945884379831,-0.10926248344635238,-0.057787337161705754,0.0070102280005812645,0.0010546734556555748,0.0
118,5,1.9629056623671204e-05,1.6321166640409501e-06,5.019182026444469e-06,0.0017414884641766548,-0.001322873868048191,0.0005032208282500505,-0.002150172833353281,-0.03542279824614525,-0.006046653259545565,-0.00030869737383909523,0.0016194115160033107,0.00034118699841201305,0.0,0.0,0.0,-0.0004663574800360948,-0.00182075216434896,-0.0,0.0,0.0,0.0,0.000668998050969094,0.010543175972998142,-0.0005541201098822057,14009.0,12946.0,12571.0,14505.0,0.4396950602531433,0.37180614471435547,0.34924691915512085,0.4733426570892334,0.0,0.0,0.0,0.0,14011.0,12953.0,12588.0,14483.0,1.6456968784332275,0.03675237973531391,-0.10925069643127464,-0.05777821552420754,0.007220251020044088,-0.001422582077793777,0.0
123,5,1.9629056623671204e-05,1.6321166640409501e-06,5.019182026444469e-06,0.0017414884641766548,-0.001322873868048191,0.0005032208282500505,-0.002150172833353281,-0.03542279824614525,-0.006046653259545565,-0.00030869737383909523,0.0016194115160033107,0.00034118699841201305,0.0,0.0,0.0,-0.0004663574800360948,-0.00182075216434896,-0.0,0.0,0.0,0.0,0.000668998050969094,0.010543175972998142,-0.0005541201098822057,14009.0,12946.0,12571.0,14505.0,0.4396950602531433,0.37180614471435547,0.34924691915512085,0.4733426570892334,0.0,0.0,0.0,0.0,14011.0,12953.0,12588.0,14483.0,1.6456968784332275,0.03675237973531391,-0.10925069643127464,-0.05777821552420754,0.007220251020044088,-0.001422582077793777,0.0
128,5,1.7189855498145334e-05,3.90542481909506e-06,2.0273439076845534e-05,0.0004038912302348763,-0.0008019465603865683,-0.0016292224172502756,-0.002154443645849824,-0.03546435013413429,-0.006055613048374653,-0.003730382304638624,0.0034370324574410915,0.000549874734133482,0.0,0.0,0.0,0.0016267114551737905,0.0016715886304154992,-0.0,0.0,0.0,0.0,0.0005452993209473789,0.010267459787428379,-0.0005715601146221161,14031.0,13023.0,12630.0,14523.0,0.4411710798740387,0.376524418592453,0.3527412712574005,0.47452983260154724,0.0,0.0,0.0,0.0,14002.0,13088.0,12578.0,14548.0,1.6482234001159668,0.036277311597117404,-0.10963416678973788,-0.05763901778618999,-0.006638907361775637,0.004969752859324217,-0.0
133,5,2.5047444069059566e-05,-2.8707745514111593e-06,7.68962490838021e-06,0.0007866412051953375,0.0003749868192244321,0.0004646044399123639,-0.002154443645849824,-0.03546435013413429,-0.006055613048374653,-0.003730382304638624,0.0034370324574410915,0.000549874734133482,0.0,0.0,0.0,0.0016267114551737905,0.0016715886304154992,-0.0,0.0,0.0,0.0,0.0005452993209473789,0.010267459787428379,-0.0005715601146221161,14031.0,13023.0,12630.0,14523.0,0.4411710798740387,0.376524418592453,0.3527412712574005,0.47452983260154724,0.0,0.0,0.0,0.0,14002.0,13088.0,12578.0,14548.0,1.6482234001159668,0.036456733778074187,-0.10914731248260869,-0.05774966590164412,-0.006638907361775637,0.004969752859324217,-0.0
138,5,2.5047444069059566e-05,-2.8707745514111593e-06,7.68962490838021e-06,0.0007866412051953375,0.0003749868192244321,0.0004646044399123639,-0.002167340600863099,-0.035495974123477936,-0.006065852474421263,-0.0013714502565562725,0.004301583394408226,0.0013974372996017337,0.0,0.0,0.0,-0.00046922446927055717,0.0007838475285097957,-0.0,0.0,0.0,0.0,0.0003732294717337936,0.010208307765424252,-0.0006078987498767674,14037.0,13048.0,12613.0,14519.0,0.4415555000305176,0.37810641527175903,0.35173624753952026,0.47429871559143066,0.0,0.0,0.0,0.0,14110.0,12933.0,12597.0,14601.0,1.6349730491638184,0.036456733778074187,-0.10914731248260869,-0.05774966590164412,-0.003088118974119425,-0.0014220005832612514,-0.0
143,5,2.420737837383058e-05,3.880157237290405e-06,1.0894995284616016e-05,0.0002950489579234272,-0.00029753928538411856,-6.129044049885124e-05,-0.002167340600863099,-0.035495974123477936,-0.006065852474421263,-0.0013714502565562725,0.004301583394408226,0.0013974372996017337,0.0,0.0,0.0,-0.00046922446927055717,0.0007838475285097957,-0.0,0.0,0.0,0.0,0.0003732294717337936,0.010208307765424252,-0.0006078987498767674,14037.0,13048.0,12613.0,14519.0,0.4415555000305176,0.37810641527175903,0.35173624753952026,0.47429871559143066,0.0,0.0,0.0,0.0,14110.0,12933.0,12597.0,14601.0,1.6349730491638184,0.03658718699388898,-0.10932356029807838,-0.057549463652393364,-0.003088118974119425,-0.0014220005832612514,-0.0
148,5,1.0085767826240044e-05,8.659015293233097e-06,8.514075489074457e-06,-0.0015765737043693662,-0.0006924786721356213,0.00026119418907910585,-0.002167340600863099,-0.035495974123477936,-0.006065852474421263,-0.0013714502565562725,0.004301583394408226,0.0013974372996017337,0.0,0.0,0.0,0.0003762921551242471,0.00031567347468808293,-0.0,0.0,0.0,0.0,0.0003732294717337936,0.010208307765424252,-0.0006078987498767674,14037.0,13048.0,12613.0,14519.0,0.4415555000305176,0.37810641527175903,0.35173624753952026,0.47429871559143066,0.0,0.0,0.0,0.0,14110.0,12933.0,12597.0,14601.0,1.630313515663147,0.03658167003409837,-0.10864922942381668,-0.05791666298127344,-0.0012401124695315957,0.001137116109021008,0.0
153,5,1.225059440912446e-05,-8.438886652584188e-06,9.215817954100203e-06,-0.00037085029180161655,0.0017747567035257816,2.0268586013116874e-05,-0.0021708940621465445,-0.03545595705509186,-0.006033927667886019,-0.0018382774433121085,-0.001572362962178886,0.0010097345802932978,0.0,0.0,0.0,0.0003762921551242471,0.00031567347468808293,-0.0,0.0,0.0,0.0,0.0007746347109787166,0.011112906970083714,-0.000514950486831367,14101.0,12941.0,12605.0,14595.0,0.4458566904067993,0.3715256452560425,0.3512640595436096,0.4795770049095154,0.0,0.0,0.0,0.0,14024.0,12975.0,12490.0,14548.0,1.630313515663147,0.03656903269197963,-0.10898280937157248,-0.05763732464041308,-0.0012401124695315957,0.001137116109021008,0.0
158,5,1.2232435437908862e-05,3.959214041060477e-07,1.4022817595105153e-05,-0.0001505191612523049,-0.0003502742329146713,-0.0005687325028702617,-0.0021708940621465445,-0.03545595705509186,-0.006033927667886019,-0.0018382774433121085,-0.001572362962178886,0.0010097345802932978,0.0,0.0,0.0,-0.0021989180240780115,-0.0003338466049171984,-0.0,0.0,0.0,0.0,0.0007746347109787166,0.011112906970083714,-0.000514950486831367,14101.0,12941.0,12605.0,14595.0,0.4458566904067993,0.3715256452560425,0.3512640595436096,0.4795770049095154,0.0,0.0,0.0,0.0,14024.0,12975.0,12490.0,14548.0,1.6442699432373047,0.035956741974369495,-0.1091856413730031,-0.0577333882031954,0.0013227291638031602,-0.006701778154820204,-0.0
163,5,1.409916421835078e-05,-1.3246216440165881e-05,1.9154289475409314e-05,0.0001637997484067455,0.001496946788392961,-0.0008432695758529007,-0.002167091006413102,-0.03545968607068062,-0.006047678180038929,0.0005464573623612523,0.0004896340542472899,0.000469386373879388,0.0,0.0,0.0,-0.0021989180240780115,-0.0003338466049171984,-0.0,0.0,0.0,0.0,0.00031370430951938033,0.010995425283908844,-0.0006124521605670452,14046.0,12957.0,12503.0,14531.0,0.44217395782470703,0.3724852204322815,0.3451979160308838,0.47511595487594604,0.0,0.0,0.0,0.0,14020.0,12922.0,12525.0,14500.0,1.6442699432373047,0.03631582025511706,-0.10938663131139642,-0.0579300528735239,0.0013227291638031602,-0.006701778154820204,-0.0
168,5,1.044820874085417e-05,-7.379299859167077e-06,2.963634324260056e-05,-0.0003725948045030236,-0.00010525122343096882,-0.001595154288224876,-0.002167091006413102,-0.03545968607068062,-0.006047678180038929,0.0005464573623612523,0.0004896340542472899,0.000469386373879388,0.0,0.0,0.0,-0.001869180821813643,0.0001750804512994364,-0.0,0.0,0.0,0.0,0.00031370430951938033,0.010995425283908844,-0.0006124521605670452,14046.0,12957.0,12503.0,14531.0,0.44217395782470703,0.3724852204322815,0.3451979160308838,0.47511595487594604,0.0,0.0,0.0,0.0,14020.0,12922.0,12525.0,14500.0,1.6412848234176636,0.03647149536111619,-0.10928325651769785,-0.05794836109734766,-0.0006924250046722591,-0.00568647775799036,0.0
174,5,1.959990731847938e-05,6.7778978518617805e-06,4.3023377656936646e-05,0.0009491660166531801,-0.0017409642459824681,-0.002244505798444152,-0.0021726263221353292,-0.03545760735869408,-0.006048920564353466,-0.0027621244080364704,-0.0025979140773415565,-0.01863480731844902,0.0,0.0,0.0,-0.001869180821813643,0.0001750804512994364,-0.0,0.0,0.0,0.0,0.0005437916261143982,0.010806695558130741,-0.0006403437000699341,13928.0,13016.0,12432.0,14584.0,0.43435773253440857,0.3761110007762909,0.3410393297672272,0.47880545258522034,0.0,0.0,0.0,0.0,13531.0,13422.0,11998.0,14947.0,1.6412848234176636,0.03607922829981418,-0.1093378573579472,-0.0571874314873591,-0.0006924250046722591,-0.00568647775799036,0.0
179,5,1.9392695321585052e-05,-2.24453197006369e-05,2.6927413273369893e-05,0.0003548009553924203,0.0028104004450142384,0.0010337133426219225,-0.0021726263221353292,-0.03545760735869408,-0.006048920564353466,-0.0027621244080364704,-0.0025979140773415565,-0.01863480731844902,0.0,0.0,0.0,0.002151874592527747,0.0009246928384527564,-0.0,0.0,0.0,0.0,0.0005437916261143982,0.010806695558130741,-0.0006403437000699341,13928.0,13016.0,12432.0,14584.0,0.43435773253440857,0.3761110007762909,0.3410393297672272,0.47880545258522034,0.0,0.0,0.0,0.0,13531.0,13422.0,11998.0,14947.0,1.6461361646652222,0.03609064225986374,-0.10936892394420802,-0.0582660787582663,-0.0036678712349385023,0.006565845105797052,0.0
184,5,2.4762555767665617e-05,-9.665151992521714e-06,2.8721433409373276e-05,0.0007863036007620394,-0.0004094599571544677,0.00019820289162453264,-0.0021950681693851948,-0.03546131029725075,-0.005880488082766533,0.007245661225169897,0.002258667256683111,0.1264040768146515,0.0,0.0,0.0,0.002151874592527747,0.0009246928384527564,-0.0,0.0,0.0,0.0,3.7544807128142565e-05,0.010744839906692505,0.0002420928212814033,14825.0,12184.0,13363.0,13774.0,0.49566468596458435,0.32662442326545715,0.39779821038246155,0.42418262362480164,0.0,0.0,0.0,0.0,15551.0,11252.0,14193.0,12893.0,1.6461361646652222,0.036036777690990916,-0.109522566103811,-0.05858904608780893,-0.0036678712349385023,0.006565845105797052,0.0
189,5,2.398968172201421e-05,1.2987332411285024e-05,2.1134761482244357e-05,0.00022177648497745395,-0.002882082015275955,0.0009896818082779646,-0.0021950681693851948,-0.03546131029725075,-0.005880488082766533,0.007245661225169897,0.002258667256683111,0.1264040768146515,0.0,0.0,0.0,0.0004890808486379683,0.0007831824477761984,-0.0,0.0,0.0,0.0,3.7544807128142565e-05,0.010744839906692505,0.0002420928212814033,14825.0,12184.0,13363.0,13774.0,0.49566468596458435,0.32662442326545715,0.39779821038246155,0.42418262362480164,0.0,0.0,0.0,0.0,15551.0,11252.0,14193.0,12893.0,1.6350364685058594,0.03620493973669213,-0.10916605515976567,-0.057167105477769584,-0.0030856183730065823,0.0014822334051132202,-0.0
194,5,2.8343974918243475e-05,1.3935622519056778e-05,5.3419457799464e-06,0.0006112258415669203,-0.0012666275724768639,0.002291010692715645,-0.0020629961509257555,-0.03541981056332588,-0.0063323345966637135,0.04184539243578911,0.028134599328041077,-0.2602851092815399,0.0,0.0,0.0,0.0004890808486379683,0.0007831824477761984,-0.0,0.0,0.0,0.0,0.0015738699585199356,0.010671447031199932,0.005981085356324911,11458.0,15414.0,9286.0,16681.0,0.2863171696662903,0.5381293296813965,0.18147914111614227,0.6353591680526733,0.0,0.0,0.0,0.0,12468.0,14617.0,10434.0,16013.0,1.6350364685058594,0.036661023024474264,-0.10889679981542129,-0.05753077844660943,-0.0030856183730065823,0.0014822334051132202,-0.0
199,5,2.589295218058396e-05,-8.822461495583411e-06,-2.0613802917068824e-05,-4.9632337322691455e-05,0.0022243191488087177,0.004031094256788492,-0.0020629961509257555,-0.03541981056332588,-0.0063323345966637135,0.04184539243578911,0.028134599328041077,-0.2602851092815399,0.0,0.0,0.0,0.0015873175580054522,0.0006195237510837615,-0.0,0.0,0.0,0.0,0.0015738699585199356,0.010671447031199932,0.005981085356324911,11458.0,15414.0,9286.0,16681.0,0.2863171696662903,0.5381293296813965,0.18147914111614227,0.6353591680526733,0.0,0.0,0.0,0.0,12468.0,14617.0,10434.0,16013.0,1.640427827835083,0.036249219239757144,-0.10885011886974826,-0.05840711157680917,-0.0024488738272339106,0.004826465155929327,-0.0
204,5,2.3673470423091203e-05,1.4685657333757263e-05,-1.8421529603074305e-05,-0.00028619071235880256,-0.0019312467193230987,0.001349364873021841,-0.0022048919927328825,-0.03551670163869858,-0.005382783245295286,-0.05704880878329277,-0.03353636711835861,0.22722364962100983,0.0,0.0,0.0,0.0024005535524338484,-0.00023754862195346504,-0.0,0.0,0.0,0.0,-0.0002027192385867238,0.011906708590686321,-0.005647698417305946,16219.0,9933.0,15131.0,12058.0,0.5989516973495483,0.21024248003959656,0.5174862146377563,0.3194557726383209,0.0,0.0,0.0,0.0,14810.0,12018.0,13570.0,13761.0,1.6457643508911133,0.03648569107665601,-0.10876146517003986,-0.05743998061850617,0.00094204320339486,0.007322963327169418,0.0
209,5,1.0251643288938794e-05,1.1810366231657099e-05,5.07265667692991e-07,-0.0017250956734642386,-0.00042746373219415545,-0.0017317094607278705,-0.0022048919927328825,-0.03551670163869858,-0.005382783245295286,-0.05704880878329277,-0.03353636711835861,0.22722364962100983,0.0,0.0,0.0,0.0024005535524338484,-0.00023754862195346504,-0.0,0.0,0.0,0.0,-0.0002027192385867238,0.011906708590686321,-0.005647698417305946,16219.0,9933.0,15131.0,12058.0,0.5989516973495483,0.21024248003959656,0.5174862146377563,0.3194557726383209,0.0,0.0,0.0,0.0,14810.0,12018.0,13570.0,13761.0,1.6457643508911133,0.03660114902191544,-0.10873597881113096,-0.05742345244269765,0.00094204320339486,0.007322963327169418,0.0
214,5,1.5970261301845312e-05,-1.3422305755739217e-06,1.3557141755882185e-05,-3.8040227536839666e-06,0.0014073260826990008,-0.0022586688864976168,-0.002053426345810294,-0.035677339881658554,-0.006538771092891693,0.056827038526535034,0.04564446955919266,-0.05391838029026985,0.0,0.0,0.0,0.0024005535524338484,-0.00023754862195346504,-0.0,0.0,0.0,0.0,0.0015338407829403877,0.009985435754060745,0.0007403634372167289,12796.0,14268.0,10788.0,15759.0,0.3627241849899292,0.45708805322647095,0.25143593549728394,0.5637882947921753,0.0,0.0,0.0,0.0,15125.0,11693.0,13606.0,13486.0,1.6457643508911133,0.03623247516900346,-0.1088162654831351,-0.05804426934517412,0.00094204320339486,0.007322963327169418,0.0
219,5,2.557397965574637e-05,1.52543261719984e-05,4.222118514007889e-05,0.0011509244795888662,-0.0014286563964560628,-0.004343152977526188,-0.002053426345810294,-0.035677339881658554,-0.006538771092891693,0.056827038526535034,0.04564446955919266,-0.05391838029026985,0.0,0.0,0.0,-0.0017384318634867668,1.8875263776862994e-05,-0.0,0.0,0.0,0.0,0.0015338407829403877,0.009985435754060745,0.0007403634372167289,12796.0,14268.0,10788.0,15759.0,0.3627241849899292,0.45708805322647095,0.25143593549728394,0.5637882947921753,0.0,0.0,0.0,0.0,15125.0,11693.0,13606.0,13486.0,1.6400845050811768,0.03670335657766572,-0.10856704321088102,-0.057134935249913615,-7.459513290086761e-05,-0.005284842569380999,0.0
225,5,3.396034662728198e-05,2.1793885025545023e-05,6.373903306666762e-05,0.0014667341019958258,-0.0013562095118686557,-0.004319402389228344,-0.0022869943641126156,-0.03551563620567322,-0.005718231666833162,-0.047544628381729126,-0.038958046585321426,-0.07569663226604462,0.0,0.0,0.0,-0.0017384318634867668,1.8875263776862994e-05,-0.0,0.0,0.0,0.0,-3.0175096981110983e-05,0.011907876469194889,0.002383856801316142,13802.0,13101.0,12544.0,14680.0,0.4260207712650299,0.3813597857952118,0.34761181473731995,0.48543545603752136,0.0,0.0,0.0,0.0,12601.0,14329.0,10927.0,15837.0,1.6400845050811768,0.036158906429700405,-0.10892163782153058,-0.05685447618872681,-7.459513290086761e-05,-0.005284842569380999,0.0
230,5,4.4115400669397786e-05,1.0805810234160163e-05,8.748529944568872e-05,0.0018052998930215836,0.0007760850712656975,-0.004577313084155321,-0.0022869943641126156,-0.03551563620567322,-0.005718231666833162,-0.047544628381729126,-0.038958046585321426,-0.07569663226604462,0.0,0.0,0.0,-0.0017384318634867668,1.8875263776862994e-05,-0.0,0.0,0.0,0.0,-3.0175096981110983e-05,0.011907876469194889,0.002383856801316142,13802.0,13101.0,12544.0,14680.0,0.4260207712650299,0.3813597857952118,0.34761181473731995,0.48543545603752136,0.0,0.0,0.0,0.0,12601.0,14329.0,10927.0,15837.0,1.6400845050811768,0.036767909913699014,-0.10868245902558374,-0.05776597882881625,-0.007013687398284674,-0.002850836841389537,0.0
235,5,5.869517190149054e-05,1.3829439012624789e-05,0.0001146423164755106,0.0024716926272958517,-5.24013776157517e-05,-0.005089767277240753,-0.001845244667492807,-0.03594919666647911,-0.0057013146579265594,0.02465124987065792,0.008842883631587029,0.17257897555828094,0.0,0.0,0.0,-0.0009342493140138686,0.0017680468736216426,-0.0,0.0,0.0,0.0,0.0007344169425778091,0.010569761507213116,-0.0049061584286391735,15515.0,11255.0,14056.0,13109.0,0.5455772876739502,0.27552974224090576,0.44279932975769043,0.3818579912185669,0.0,0.0,0.0,0.0,15296.0,11382.0,14143.0,13165.0,1.6462702751159668,0.03667893216690303,-0.1086140641949497,-0.05731862553766969,-0.007013687398284674,-0.002850836841389537,0.0
240,5,7.588291919091716e-05,2.8829499569837935e-05,0.0001545197155792266,0.0030512064695358276,-0.0018209678819403052,-0.006821194663643837,-0.001845244667492807,-0.03594919666647911,-0.0057013146579265594,0.02465124987065792,0.008842883631587029,0.17257897555828094,0.0,0.0,0.0,-0.0009342493140138686,0.0017680468736216426,-0.0,0.0,0.0,0.0,0.0007344169425778091,0.010569761507213116,-0.0049061584286391735,15515.0,11255.0,14056.0,13109.0,0.5455772876739502,0.27552974224090576,0.44279932975769043,0.3818579912185669,0.0,0.0,0.0,0.0,15296.0,11382.0,14143.0,13165.0,1.6462702751159668,0.036765086592133206,-0.10886126285812801,-0.056730857749077684,-0.007013687398284674,-0.002850836841389537,0.0
245,5,6.78028300171718e-05,1.7514101273263805e-05,0.0002238754677819088,0.0002508720790501684,0.0006294607883319259,-0.011051169596612453,-0.0022189526353031397,-0.03579837456345558,-0.006051602307707071,0.020127322524785995,0.055962830781936646,-0.15027748048305511,0.0,0.0,0.0,0.002266800031065941,0.002959877485409379,-0.0,0.0,0.0,0.0,0.00042090649367310107,0.011616261675953865,0.0038497440982609987,14987.0,11833.0,13753.0,13547.0,0.5071808695793152,0.3068002760410309,0.4228058159351349,0.4094833433628082,0.0,0.0,0.0,0.0,14040.0,13181.0,11963.0,14857.0,1.6629952192306519,0.03626477824397746,-0.10869103756210868,-0.05792139486033168,-0.011860824190080166,0.006987343076616526,0.0
250,5,8.144214370986447e-05,1.9079465346294455e-05,0.00028353327070362866,0.001737066195346415,6.394061347236857e-05,-0.011579404585063457,-0.0022189526353031397,-0.03579837456345558,-0.006051602307707071,0.020127322524785995,0.055962830781936646,-0.15027748048305511,0.0,0.0,0.0,0.002266800031065941,0.002959877485409379,-0.0,0.0,0.0,0.0,0.00042090649367310107,0.011616261675953865,0.0038497440982609987,14987.0,11833.0,13753.0,13547.0,0.5071808695793152,0.3068002760410309,0.4228058159351349,0.4094833433628082,0.0,0.0,0.0,0.0,14040.0,13181.0,11963.0,14857.0,1.6629952192306519,0.036378562738288746,-0.11012665213988397,-0.0573687971545231,-0.006963659077882767,-0.00013462238712236285,0.0
255,5,6.979985482757911e-05,5.012593464925885e-05,0.0003577118623070419,-0.0007022483041509986,-0.003700000001117587,-0.013533192686736584,-0.0020276433788239956,-0.036147672683000565,-0.004996469244360924,-0.0714094489812851,-0.07215701043605804,0.04535028338432312,0.0,0.0,0.0,-4.4161148252896965e-05,0.0017571848584339023,-0.0,0.0,0.0,0.0,0.0010017206659540534,0.009684350341558456,-0.0026147046592086554,13920.0,13222.0,12689.0,14660.0,0.4338035583496094,0.38887715339660645,0.35626739263534546,0.4840471148490906,0.0,0.0,0.0,0.0,12955.0,14048.0,11535.0,15456.0,1.6446305513381958,0.03594182654217913,-0.11109073367595247,-0.05654277490457155,-0.006963659077882767,-0.00013462238712236285,0.0
260,5,2.9049055228824727e-05,5.875803253729828e-05,0.00048307006363756955,-0.005170994903892279,-0.0025158522184938192,-0.020456261932849884,-0.0020276433788239956,-0.036147672683000565,-0.004996469244360924,-0.0714094489812851,-0.07215701043605804,0.04535028338432312,0.0,0.0,0.0,0.003126260358840227,-0.004739065188914537,-0.0,0.0,0.0,0.0,0.0010017206659540534,0.009684350341558456,-0.0026147046592086554,13920.0,13222.0,12689.0,14660.0,0.4338035583496094,0.38887715339660645,0.35626739263534546,0.4840471148490906,0.0,0.0,0.0,0.0,12955.0,14048.0,11535.0,15456.0,1.6839535236358643,0.03563292408083999,-0.1123412225679341,-0.05786756047232024,0.019229630008339882,0.009758038446307182,0.0
265,5,-9.9851995400968e-06,3.938501322409138e-05,0.000576044141780585,-0.006752508692443371,0.0013184216804802418,-0.019339393824338913,-0.002292199758812785,-0.035506200045347214,-0.0060072788037359715,-0.014473053626716137,-0.126759335398674,0.04824107885360718,0.0,0.0,0.0,0.003126260358840227,-0.004739065188914537,-0.0,0.0,0.0,0.0,0.0022704685106873512,0.003522493178024888,-0.001754338969476521,12227.0,14492.0,12167.0,15129.0,0.32911762595176697,0.4724402129650116,0.3256966173648834,0.5173760652542114,0.0,0.0,0.0,0.0,15001.0,11919.0,14135.0,13320.0,1.6839535236358643,0.03496129027251736,-0.11426993997390253,-0.057930885883047144,0.019229630008339882,0.009758038446307182,0.0
270,5,-6.022140951245092e-05,7.150503370212391e-05,0.000704753736499697,-0.00872934889048338,-0.003327034180983901,-0.023180905729532242,-0.002292199758812785,-0.035506200045347214,-0.0060072788037359715,-0.014473053626716137,-0.126759335398674,0.04824107885360718,0.0,0.0,0.0,0.004034384153783321,-0.00797286257147789,-0.0,0.0,0.0,0.0,0.0022704685106873512,0.003522493178024888,-0.001754338969476521,12227.0,14492.0,12167.0,15129.0,0.32911762595176697,0.4724402129650116,0.3256966173648834,0.5173760652542114,0.0,0.0,0.0,0.0,15001.0,11919.0,14135.0,13320.0,1.7210994958877563,0.033601953780251666,-0.11697319658610705,-0.05729067766324056,0.03306465595960617,0.012870329432189465,0.0
275,5,-0.00010150646994588897,0.00010702125291572884,0.0008399165817536414,-0.008445946499705315,-0.005592760164290667,-0.025491908192634583,-0.004300567787140608,-0.029297856613993645,-0.006140331272035837,-0.23995937407016754,-0.5524146556854248,0.06583765149116516,0.0,0.0,0.0,0.004034384153783321,-0.00797286257147789,-0.0,0.0,0.0,0.0,0.0039131660014390945,-0.0016671298071742058,0.00025525011005811393,13586.0,13294.0,14485.0,13502.0,0.41202038526535034,0.3934060335159302,0.4719242453575134,0.4066028594970703,0.0,0.0,0.0,0.0,11643.0,14961.0,11585.0,15572.0,1.7210994958877563,0.03222128500276449,-0.11991903316488246,-0.056560625631701236,0.03306465595960617,0.012870329432189465,0.0
280,5,-0.0001593832712387666,0.00012714335753116757,0.0009498840081505477,-0.010323595255613327,-0.0046517569571733475,-0.023392848670482635,-0.004300567787140608,-0.029297856613993645,-0.006140331272035837,-0.23995937407016754,-0.5524146556854248,0.06583765149116516,0.0,0.0,0.0,0.00672491081058979,-0.007732199504971504,-0.0,0.0,0.0,0.0,0.0039131660014390945,-0.0016671298071742058,0.00025525011005811393,13586.0,13294.0,14485.0,13502.0,0.41202038526535034,0.3934060335159302,0.4719242453575134,0.4066028594970703,0.0,0.0,0.0,0.0,11643.0,14961.0,11585.0,15572.0,1.7298574447631836,0.03024932880769687,-0.12316940441292533,-0.05637326018993191,0.03222931921482086,0.021562516689300537,0.0
285,5,-0.00021489974460564554,0.00015809800243005157,0.0010518718045204878,-0.010791413486003876,-0.005575260147452354,-0.021595677360892296,-0.004300567787140608,-0.029297856613993645,-0.006140331272035837,-0.23995937407016754,-0.5524146556854248,0.06583765149116516,0.0,0.0,0.0,0.00672491081058979,-0.007732199504971504,-0.0,0.0,0.0,0.0,0.0039131660014390945,-0.0016671298071742058,0.00025525011005811393,13586.0,13294.0,14485.0,13502.0,0.41202038526535034,0.3934060335159302,0.4719242453575134,0.4066028594970703,0.0,0.0,0.0,0.0,11643.0,14961.0,11585.0,15572.0,1.7298574447631836,0.027986390171225103,-0.12546855235918733,-0.05699432713481125,0.03222931921482086,0.021562516689300537,0.0
290,5,-0.0002699861070141196,0.00019932357827201486,0.0011168619384989142,-0.0109269293025136,-0.007177172694355249,-0.016437090933322906,-0.007620878983289003,-0.02229500003159046,-0.005950192455202341,-0.2618037760257721,-0.581619918346405,-0.05859440937638283,0.0,0.0,0.0,0.008578188717365265,-0.01000232994556427,-0.0,0.0,0.0,0.0,0.005655183922499418,-0.00570486206561327,-0.001929159858264029,12104.0,14703.0,13979.0,14517.0,0.3221058249473572,0.4870893955230713,0.43773388862609863,0.47417038679122925,0.0,0.0,0.0,0.0,13435.0,13299.0,14816.0,13285.0,1.7617982625961304,0.02695212377670702,-0.1290081518528636,-0.056359399082539355,0.04246059060096741,0.02801242284476757,0.0
296,5,-0.0003156119491904974,0.0002384607505518943,0.001179890357889235,-0.009845872409641743,-0.007567329797893763,-0.014138245023787022,-0.007620878983289003,-0.02229500003159046,-0.005950192455202341,-0.2618037760257721,-0.581619918346405,-0.05859440937638283,0.0,0.0,0.0,0.008578188717365265,-0.01000232994556427,-0.0,0.0,0.0,0.0,0.005655183922499418,-0.00570486206561327,-0.001929159858264029,12104.0,14703.0,13979.0,14517.0,0.3221058249473572,0.4870893955230713,0.43773388862609863,0.47417038679122925,0.0,0.0,0.0,0.0,13435.0,13299.0,14816.0,13285.0,1.7617982625961304,0.024742245335523383,-0.13218268082171186,-0.05605180933653228,0.04246059060096741,0.02801242284476757,0.0
301,5,-0.0003528062952682376,0.00026103720301762223,0.0011970199411734939,-0.00840167049318552,-0.0057361070066690445,-0.00771085312590003,-0.009962182492017746,-0.017449574545025826,-0.00634589372202754,-0.3637681305408478,-0.6978950500488281,-0.0224118921905756,0.0,0.0,0.0,0.008578188717365265,-0.01000232994556427,-0.0,0.0,0.0,0.0,0.0073546539060771465,-0.01055863406509161,-0.0016758644487708807,11880.0,14690.0,14478.0,14222.0,0.30945172905921936,0.48616644740104675,0.47148188948631287,0.45399942994117737,0.0,0.0,0.0,0.0,11905.0,14898.0,13778.0,14674.0,1.7617982625961304,0.023558989562816084,-0.13481940474752382,-0.056124799144825654,0.04246059060096741,0.02801242284476757,0.0
306,5,-0.00040976429590955377,0.0002895220532082021,0.0012425340246409178,-0.010195627808570862,-0.005712625104933977,-0.008546018972992897,-0.009962182492017746,-0.017449574545025826,-0.00634589372202754,-0.3637681305408478,-0.6978950500488281,-0.0224118921905756,0.0,0.0,0.0,0.007137728855013847,-0.008002608083188534,-0.0,0.0,0.0,0.0,0.0073546539060771465,-0.01055863406509161,-0.0016758644487708807,11880.0,14690.0,14478.0,14222.0,0.30945172905921936,0.48616644740104675,0.47148188948631287,0.45399942994117737,0.0,0.0,0.0,0.0,11905.0,14898.0,13778.0,14674.0,1.7345924377441406,0.02273952535244621,-0.136526505691302,-0.055961475811212684,0.033447615802288055,0.022948766127228737,0.0
311,5,-0.00044869285193271935,0.00031635205959901214,0.0012627113610506058,-0.008749677799642086,-0.005504650995135307,-0.005839689169079065,-0.013144943863153458,-0.01040745247155428,-0.006276567932218313,-0.1687335968017578,-0.4496145248413086,-0.017632687464356422,0.0,0.0,0.0,0.007137728855013847,-0.008002608083188534,-0.0,0.0,0.0,0.0,0.0061460272409021854,-0.008330871351063251,-0.000332904135575518,12542.0,14364.0,14566.0,14031.0,0.3475085198879242,0.46364399790763855,0.4775311052799225,0.44117382168769836,0.0,0.0,0.0,0.0,12285.0,14361.0,14996.0,13804.0,1.7345924377441406,0.022464192959677404,-0.13823583452472965,-0.05567481933625243,0.033447615802288055,0.022948766127228737,0.0
316,5,-0.00048305519158020616,0.0003376210806891322,0.001310765277594328,-0.007623353507369757,-0.004754140507429838,-0.00810235645622015,-0.013144943863153458,-0.01040745247155428,-0.006276567932218313,-0.1687335968017578,-0.4496145248413086,-0.017632687464356422,0.0,0.0,0.0,0.006949786562472582,-0.008425704203546047,-0.0,0.0,0.0,0.0,0.0061460272409021854,-0.008330871351063251,-0.000332904135575518,12542.0,14364.0,14566.0,14031.0,0.3475085198879242,0.46364399790763855,0.4775311052799225,0.44117382168769836,0.0,0.0,0.0,0.0,12285.0,14361.0,14996.0,13804.0,1.7378233671188354,0.02152089968230477,-0.13984863389143845,-0.05519166420096238,0.03528158739209175,0.02238614484667778,0.0
321,5,-0.0004984051338396966,0.00034696911461651325,0.0013459431938827038,-0.004891334567219019,-0.0030234213918447495,-0.007462282665073872,-0.014481804333627224,-0.006990619469434023,-0.006134665105491877,-0.1428053230047226,-0.3549785315990448,0.03753023222088814,0.0,0.0,0.0,0.006949786562472582,-0.008425704203546047,-0.0,0.0,0.0,0.0,0.006676838733255863,-0.00901095848530531,0.00040874729165807366,13162.0,13996.0,15165.0,13676.0,0.3851768672466278,0.4388439357280731,0.5199621915817261,0.417815238237381,0.0,0.0,0.0,0.0,12669.0,14467.0,14716.0,14135.0,1.7378233671188354,0.02173294260540886,-0.1398321059563176,-0.05563782655661221,0.03528158739209175,0.02238614484667778,0.0
326,5,-0.0005087153404019773,0.000368640961823985,0.0013932143338024616,-0.0031937595922499895,-0.0038099889643490314,-0.008657452650368214,-0.014481804333627224,-0.006990619469434023,-0.006134665105491877,-0.1428053230047226,-0.3549785315990448,0.03753023222088814,0.0,0.0,0.0,0.0042229341343045235,-0.0051695858128368855,-0.0,0.0,0.0,0.0,0.006676838733255863,-0.00901095848530531,0.00040874729165807366,13162.0,13996.0,15165.0,13676.0,0.3851768672466278,0.4388439357280731,0.5199621915817261,0.417815238237381,0.0,0.0,0.0,0.0,12669.0,14467.0,14716.0,14135.0,1.6929057836532593,0.021976136297185478,-0.14110166520297707,-0.054903250794231945,0.02108796313405037,0.013251141645014286,0.0
331,5,-0.0004925401881337166,0.0003708365256898105,0.001409148913808167,0.0006635168683715165,-0.0017874649493023753,-0.005375131033360958,-0.014905980788171291,-0.004336202517151833,-0.005825101397931576,0.026928432285785675,-0.08826731890439987,0.013790483586490154,0.0,0.0,0.0,0.0042229341343045235,-0.0051695858128368855,-0.0,0.0,0.0,0.0,0.004050880204886198,-0.0032699047587811947,-0.0003996729792561382,13338.0,13956.0,14303.0,14055.0,0.3961930572986603,0.43616387248039246,0.4594864547252655,0.4427490532398224,0.0,0.0,0.0,0.0,13399.0,13946.0,14242.0,14117.0,1.6929057836532593,0.022094950824712918,-0.14083163780102723,-0.05491842771359081,0.02108796313405037,0.013251141645014286,0.0
336,5,-0.0004960419610142708,0.0003943534102290869,0.001437322236597538,-0.00015480424917768687,-0.003537011332809925,-0.005530850496143103,-0.014905980788171291,-0.004336202517151833,-0.005825101397931576,0.026928432285785675,-0.08826731890439987,0.013790483586490154,0.0,0.0,0.0,0.0028615507762879133,-5.704646173398942e-05,-0.0,0.0,0.0,0.0,0.004050880204886198,-0.0032699047587811947,-0.0003996729792561382,13338.0,13956.0,14303.0,14055.0,0.3961930572986603,0.43616387248039246,0.4594864547252655,0.4427490532398224,0.0,0.0,0.0,0.0,13399.0,13946.0,14242.0,14117.0,1.649465560913086,0.022563865827678147,-0.14051763742937826,-0.054631266163784796,0.00022673683997709304,0.008748874068260193,0.0
341,5,-0.0004850958939641714,0.0004211241321172565,0.0014215060509741306,0.001251604058779776,-0.004627292510122061,-0.0003143972426187247,-0.014560936018824577,-0.0038119510281831026,-0.005505335982888937,0.05405481159687042,0.023381290957331657,0.04807380586862564,0.0,0.0,0.0,0.0028615507762879133,-5.704646173398942e-05,-0.0,0.0,0.0,0.0,0.0037133244331926107,-0.0016580495284870267,0.0007728346390649676,13883.0,13491.0,14533.0,13791.0,0.4313323497772217,0.40592479705810547,0.47525864839553833,0.42530757188796997,0.0,0.0,0.0,0.0,13788.0,13366.0,13923.0,13950.0,1.649465560913086,0.022867874411843358,-0.14011169985653554,-0.05449290622976729,0.00022673683997709304,0.008748874068260193,0.0
346,5,-0.00047882783110253513,0.000461498333606869,0.0014116368256509304,0.001252809539437294,-0.006695821415632963,0.001058547175489366,-0.014560936018824577,-0.0038119510281831026,-0.005505335982888937,0.05405481159687042,0.023381290957331657,0.04807380586862564,0.0,0.0,0.0,0.006321834400296211,0.000498707580845803,-0.0,0.0,0.0,0.0,0.0037133244331926107,-0.0016580495284870267,0.0007728346390649676,13883.0,13491.0,14533.0,13791.0,0.4313323497772217,0.40592479705810547,0.47525864839553833,0.42530757188796997,0.0,0.0,0.0,0.0,13788.0,13366.0,13923.0,13950.0,1.6791776418685913,0.022932162851724804,-0.13958702249427365,-0.054253362692620495,-0.0020178358536213636,0.01967628300189972,0.0
351,5,-0.0004800308379344642,0.0005012524197809398,0.0014103438006713986,0.00035676374682225287,-0.00744881946593523,0.0005785851972177625,-0.013627319596707821,-0.004873574245721102,-0.005232906434684992,0.03907110169529915,0.09742357581853867,0.022727884352207184,0.0,0.0,0.0,0.006321834400296211,0.000498707580845803,-0.0,0.0,0.0,0.0,0.0027447903994470835,0.002114651957526803,-0.00019765866454690695,13676.0,13459.0,13772.0,14120.0,0.4177989065647125,0.40389856696128845,0.42409536242485046,0.44711294770240784,0.0,0.0,0.0,0.0,13903.0,13136.0,14071.0,13906.0,1.6791776418685913,0.023529632853546836,-0.1394251660434349,-0.05358312997201535,-0.0020178358536213636,0.01967628300189972,0.0
356,5,-0.0004806010110769421,0.0005322218639776111,0.0013654424110427499,7.428290700772777e-05,-0.006695861462503672,0.005619596689939499,-0.013627319596707821,-0.004873574245721102,-0.005232906434684992,0.03907110169529915,0.09742357581853867,0.022727884352207184,0.0,0.0,0.0,0.00969450268894434,-0.00031862015021033585,-0.0,0.0,0.0,0.0,0.0027447903994470835,0.002114651957526803,-0.00019765866454690695,13676.0,13459.0,13772.0,14120.0,0.4177989065647125,0.40389856696128845,0.42409536242485046,0.44711294770240784,0.0,0.0,0.0,0.0,13903.0,13136.0,14071.0,13906.0,1.7084770202636719,0.02371711901708309,-0.13924355080858936,-0.05335364793131803,0.0013116375776007771,0.0306994691491127,-0.0
362,5,-0.00048811829765327275,0.0005837289500050247,0.0013394710840657353,-0.0008723612991161644,-0.00885919202119112,0.005364391021430492,-0.01362804789096117,-0.0057073733769357204,-0.004703462589532137,-0.001455544144846499,0.09285387396812439,0.06815904378890991,0.0,0.0,0.0,0.00969450268894434,-0.00031862015021033585,-0.0,0.0,0.0,0.0,0.0035121976397931576,0.003996445331722498,0.0015972848050296307,14206.0,12453.0,14126.0,13505.0,0.45287686586380005,0.3422882556915283,0.4474884271621704,0.40681201219558716,0.0,0.0,0.0,0.0,13959.0,12723.0,13881.0,13765.0,1.7084770202636719,0.023663685314582752,-0.13879665015388784,-0.053273065466321406,0.0013116375776007771,0.0306994691491127,-0.0
367,5,-0.0005039821844547987,0.0006430763751268387,0.001328450976870954,-0.002252609468996525,-0.010665368288755417,0.0034681730903685093,-0.01362804789096117,-0.0057073733769357204,-0.004703462589532137,-0.001455544144846499,0.09285387396812439,0.06815904378890991,0.0,0.0,0.0,0.011398549191653728,-0.0014356563333421946,-0.0,0.0,0.0,0.0,0.0035121976397931576,0.003996445331722498,0.0015972848050296307,14206.0,12453.0,14126.0,13505.0,0.45287686586380005,0.3422882556915283,0.4474884271621704,0.40681201219558716,0.0,0.0,0.0,0.0,13959.0,12723.0,13881.0,13765.0,1.724985122680664,0.022440827579717465,-0.1396540046976989,-0.05267529354474632,0.00596704613417387,0.036444030702114105,-0.0
372,5,-0.0005266910884529352,0.0006797029636800289,0.0013155005872249603,-0.0036261139903217554,-0.008661340922117233,0.0029413222800940275,-0.013946249149739742,-0.006435965187847614,-0.004226330202072859,-0.05877405405044556,-0.01386382058262825,0.02958332560956478,0.0,0.0,0.0,0.011398549191653728,-0.0014356563333421946,-0.0,0.0,0.0,0.0,0.006306269206106663,-0.0011076763039454818,0.0010126563720405102,13699.0,13036.0,14014.0,14050.0,0.41934773325920105,0.3773193657398224,0.44006165862083435,0.4424488842487335,0.0,0.0,0.0,0.0,13640.0,13110.0,14081.0,13973.0,1.724985122680664,0.022162699005308845,-0.14000991892605,-0.0525971525661428,0.00596704613417387,0.036444030702114105,-0.0
377,5,-0.0005635363631881773,0.000711558386683464,0.0013273842632770538,-0.005871878936886787,-0.007287186570465565,-0.00024951176601462066,-0.013946249149739742,-0.006435965187847614,-0.004226330202072859,-0.05877405405044556,-0.01386382058262825,0.02958332560956478,0.0,0.0,0.0,0.011282267048954964,-0.003954149782657623,-0.0,0.0,0.0,0.0,0.006306269206106663,-0.0011076763039454818,0.0010126563720405102,13699.0,13036.0,14014.0,14050.0,0.41934773325920105,0.3773193657398224,0.44006165862083435,0.4424488842487335,0.0,0.0,0.0,0.0,13640.0,13110.0,14081.0,13973.0,1.7326385974884033,0.022266730085238568,-0.14106779823176105,-0.05233890837774727,0.01650761254131794,0.036232322454452515,-0.0
382,5,-0.0005966195603832603,0.0007426158990710974,0.0013550942530855536,-0.006318733096122742,-0.006641772110015154,-0.0034250086173415184,-0.014680623076856136,-0.005819153971970081,-0.00380801223218441,-0.09502959996461868,-0.17335757613182068,0.041319746524095535,0.0,0.0,0.0,0.011282267048954964,-0.003954149782657623,-0.0,0.0,0.0,0.0,0.005287722684442997,-0.0019497404573485255,-9.771226177690551e-05,13684.0,13103.0,14673.0,13766.0,0.418335884809494,0.38146278262138367,0.4850023090839386,0.4236760437488556,0.0,0.0,0.0,0.0,13214.0,13641.0,14229.0,14163.0,1.7326385974884033,0.021093784945122568,-0.14165242065728,-0.05253216221355197,0.01650761254131794,0.036232322454452515,-0.0
387,5,-0.0006301778485067189,0.0007603323319926858,0.0013912227004766464,-0.006554487626999617,-0.004782684613019228,-0.005705411545932293,-0.014680623076856136,-0.005819153971970081,-0.00380801223218441,-0.09502959996461868,-0.17335757613182068,0.041319746524095535,0.0,0.0,0.0,0.009035191498696804,-0.006467283237725496,-0.0,0.0,0.0,0.0,0.005287722684442997,-0.0019497404573485255,-9.771226177690551e-05,13684.0,13103.0,14673.0,13766.0,0.418335884809494,0.38146278262138367,0.4850023090839386,0.4236760437488556,0.0,0.0,0.0,0.0,13214.0,13641.0,14229.0,14163.0,1.7321122884750366,0.02172444701871427,-0.14215825034162397,-0.05220782779508005,0.026991628110408783,0.02900756150484085,0.0
392,5,-0.0006808156613260508,0.0007727866759523749,0.0014639360597357154,-0.008698337711393833,-0.003407590789720416,-0.011007776483893394,-0.015105988830327988,-0.003926118835806847,-0.003543005557730794,-0.005763358436524868,-0.17727798223495483,0.04192763566970825,0.0,0.0,0.0,0.009035191498696804,-0.006467283237725496,-0.0,0.0,0.0,0.0,0.004924525041133165,-0.005057032220065594,0.00012010959471808746,13510.0,13537.0,14516.0,13937.0,0.40711700916290283,0.40885305404663086,0.4740613102912903,0.4349537491798401,0.0,0.0,0.0,0.0,13539.0,13511.0,14677.0,13764.0,1.7321122884750366,0.02131549794392776,-0.14319095003242172,-0.05225040152867637,0.026991628110408783,0.02900756150484085,0.0
397,5,-0.0007327636703848839,0.0007979912916198373,0.0015359026147052646,-0.009713093750178814,-0.004387590102851391,-0.013039092533290386,-0.015105988830327988,-0.003926118835806847,-0.003543005557730794,-0.005763358436524868,-0.17727798223495483,0.04192763566970825,0.0,0.0,0.0,0.005305547267198563,-0.008709447458386421,-0.0,0.0,0.0,0.0,0.004924525041133165,-0.005057032220065594,0.00012010959471808746,13510.0,13537.0,14516.0,13937.0,0.40711700916290283,0.40885305404663086,0.4740613102912903,0.4349537491798401,0.0,0.0,0.0,0.0,13539.0,13511.0,14677.0,13764.0,1.7335606813430786,0.02154079165955576,-0.14349234556023366,-0.05257807511378045,0.03638060763478279,0.017048025503754616,0.0
402,5,-0.0007470182026736438,0.0008121404098346829,0.0015273933531716466,-0.005595782306045294,-0.0034529329277575016,-0.0041945213451981544,-0.015106870792806149,-0.002038916340097785,-0.0032270036172121763,0.03905493766069412,-0.1859617382287979,0.022793227806687355,0.0,0.0,0.0,0.005305547267198563,-0.008709447458386421,-0.0,0.0,0.0,0.0,0.004156467039138079,-0.005200916901230812,8.592741505708545e-05,13328.0,13895.0,14658.0,13717.0,0.395555317401886,0.4321476221084595,0.48394811153411865,0.4204612374305725,0.0,0.0,0.0,0.0,13320.0,13939.0,14401.0,13959.0,1.7335606813430786,0.021662289559172033,-0.14505883309100528,-0.05205124723023734,0.03638060763478279,0.017048025503754616,0.0
407,5,-0.0007828833186067641,0.0008365127141587436,0.0015557099832221866,-0.00654212199151516,-0.004305849317461252,-0.005075803026556969,-0.015106870792806149,-0.002038916340097785,-0.0032270036172121763,0.03905493766069412,-0.1859617382287979,0.022793227806687355,0.0,0.0,0.0,0.005507784895598888,-0.006101728416979313,-0.0,0.0,0.0,0.0,0.004156467039138079,-0.005200916901230812,8.592741505708545e-05,13328.0,13895.0,14658.0,13717.0,0.395555317401886,0.4321476221084595,0.48394811153411865,0.4204612374305725,0.0,0.0,0.0,0.0,13320.0,13939.0,14401.0,13959.0,1.7080432176589966,0.02223198213956801,-0.14507168540366902,-0.05231997914665037,0.025112753733992577,0.017437346279621124,0.0
412,5,-0.0008071740157902241,0.0008512045606039464,0.0015408198814839125,-0.005531734321266413,-0.0034853611141443253,-0.0002435111382510513,-0.015106870792806149,-0.002038916340097785,-0.0032270036172121763,0.03905493766069412,-0.1859617382287979,0.022793227806687355,0.0,0.0,0.0,0.005507784895598888,-0.006101728416979313,-0.0,0.0,0.0,0.0,0.004156467039138079,-0.005200916901230812,8.592741505708545e-05,13328.0,13895.0,14658.0,13717.0,0.395555317401886,0.4321476221084595,0.48394811153411865,0.4204612374305725,0.0,0.0,0.0,0.0,13320.0,13939.0,14401.0,13959.0,1.7080432176589966,0.02235693145319861,-0.14594141926849843,-0.051929156464647123,0.025112753733992577,0.017437346279621124,0.0
417,5,-0.0008388505084440112,0.0008735199808143079,0.0015287109417840838,-0.006013873498886824,-0.0040719942189753056,0.001355666434392333,-0.014532224275171757,-2.0842437152168714e-05,-0.002905848203226924,0.007723611313849688,-0.19427351653575897,0.03458985686302185,0.0,0.0,0.0,0.005612625740468502,-0.006121858023107052,-0.0,0.0,0.0,0.0,0.002394055249169469,-0.004246451426297426,0.0006607467657886446,13328.0,13895.0,14658.0,13717.0,0.395555317401886,0.4321476221084595,0.48394811153411865,0.4204612374305725,0.0,0.0,0.0,0.0,13419.0,13830.0,14725.0,13621.0,1.7087664604187012,0.02311914613455802,-0.14628087093056724,-0.05186430573184962,0.025206254795193672,0.01777678355574608,0.0
422,5,-0.0008772285655140877,0.0008991647628135979,0.0015271838055923581,-0.007010919041931629,-0.004706174600869417,0.000725520309060812,-0.014532224275171757,-2.0842437152168714e-05,-0.002905848203226924,0.007723611313849688,-0.19427351653575897,0.03458985686302185,0.0,0.0,0.0,0.005612625740468502,-0.006121858023107052,-0.0,0.0,0.0,0.0,0.002394055249169469,-0.004246451426297426,0.0006607467657886446,13328.0,13895.0,14658.0,13717.0,0.395555317401886,0.4321476221084595,0.48394811153411865,0.4204612374305725,0.0,0.0,0.0,0.0,13419.0,13830.0,14725.0,13621.0,1.7087664604187012,0.02291576926135545,-0.14676171550043737,-0.05162504027395222,0.025206254795193672,0.01777678355574608,0.0
427,5,-0.0009196040919050574,0.0009156560990959406,0.0015192556893453002,-0.007889429107308388,-0.003861428238451481,0.0012415798846632242,-0.013866615481674671,0.0010596943320706487,-0.0025943974032998085,0.08177340030670166,-0.06038975343108177,0.04403964802622795,0.0,0.0,0.0,0.007058369927108288,-0.007474521640688181,-0.0,0.0,0.0,0.0,0.004172901157289743,-0.004315401893109083,0.0011225779308006167,13673.0,13388.0,14772.0,13385.0,0.41763395071029663,0.39934200048446655,0.4919271469116211,0.3991401195526123,0.0,0.0,0.0,0.0,13749.0,13696.0,14722.0,13453.0,1.7290997505187988,0.023019471242982936,-0.14726175294185434,-0.05093492779914159,0.03114156797528267,0.02262176387012005,-0.0
432,5,-0.000989818014204502,0.000957620854023844,0.0015444016316905618,-0.011581441387534142,-0.006580341141670942,-0.0025208820588886738,-0.013866615481674671,0.0010596943320706487,-0.0025943974032998085,0.08177340030670166,-0.06038975343108177,0.04403964802622795,0.0,0.0,0.0,0.007058369927108288,-0.007474521640688181,-0.0,0.0,0.0,0.0,0.004172901157289743,-0.004315401893109083,0.0011225779308006167,13673.0,13388.0,14772.0,13385.0,0.41763395071029663,0.39934200048446655,0.4919271469116211,0.3991401195526123,0.0,0.0,0.0,0.0,13749.0,13696.0,14722.0,13453.0,1.7290997505187988,0.02251960520242341,-0.14712231706026738,-0.050709995552899796,0.03114156797528267,0.02262176387012005,-0.0
437,5,-0.0010157452197745442,0.0009813924552872777,0.0015255127800628543,-0.007743834517896175,-0.005484732333570719,0.0012583107454702258,-0.013445180840790272,0.0023152946960181,-0.0014857652131468058,-0.0628805011510849,-0.03521427884697914,0.06420280039310455,0.0,0.0,0.0,0.00805193092674017,-0.008256848901510239,-0.0,0.0,0.0,0.0,0.003959462512284517,-0.0028702612034976482,0.0014863894321024418,13901.0,13159.0,14829.0,13324.0,0.4325351119041443,0.38498765230178833,0.4959583878517151,0.39528530836105347,0.0,0.0,0.0,0.0,13832.0,13274.0,14808.0,13295.0,1.7418971061706543,0.022472841649997213,-0.1479541417057403,-0.0502254662379453,0.03465530648827553,0.02599695883691311,-0.0
444,6,-0.0010703332955017686,0.001029972918331623,0.0015305362176150084,-0.004320494830608368,-0.00335966725833714,0.002122391713783145,-0.013445180840790272,0.0023152946960181,-0.0014857652131468058,-0.0628805011510849,-0.03521427884697914,0.06420280039310455,0.0,0.0,0.0,0.00805193092674017,-0.008256848901510239,-0.0,0.0,0.0,0.0,0.003959462512284517,-0.0028702612034976482,0.0014863894321024418,13901.0,13159.0,14829.0,13324.0,0.4325351119041443,0.38498765230178833,0.4959583878517151,0.39528530836105347,0.0,0.0,0.0,0.0,13832.0,13274.0,14808.0,13295.0,1.7418971061706543,0.022023621760500503,-0.1480972431178772,-0.04933618147931641,0.03465530648827553,0.02599695883691311,-0.0
449,5,-0.0011034345952793956,0.0010682143038138747,0.001541801611892879,-0.005700360052287579,-0.005932842381298542,-0.0005028824671171606,-0.014611595310270786,0.0028105664532631636,-0.0005740866763517261,-0.06765422224998474,-0.013303389772772789,0.07889893651008606,0.0,0.0,0.0,0.005796744953840971,-0.005390684120357037,-0.0,0.0,0.0,0.0,0.005099115427583456,-0.003333142027258873,0.0019431489054113626,14084.0,12979.0,15198.0,13211.0,0.4447237551212311,0.3738352954387665,0.5223325490951538,0.3882081210613251,0.0,0.0,0.0,0.0,13806.0,13143.0,14955.0,13297.0,1.703073501586914,0.02133645749476462,-0.14735050786851236,-0.04919377975174264,0.022121764719486237,0.018298761919140816,-0.0
454,5,-0.0011346593964844942,0.0011042279656976461,0.001542541547678411,-0.00602711271494627,-0.006694778800010681,-0.0002899539831560105,-0.014611595310270786,0.0028105664532631636,-0.0005740866763517261,-0.06765422224998474,-0.013303389772772789,0.07889893651008606,0.0,0.0,0.0,0.005796744953840971,-0.005390684120357037,-0.0,0.0,0.0,0.0,0.005099115427583456,-0.003333142027258873,0.0019431489054113626,14084.0,12979.0,15198.0,13211.0,0.4447237551212311,0.3738352954387665,0.5223325490951538,0.3882081210613251,0.0,0.0,0.0,0.0,13806.0,13143.0,14955.0,13297.0,1.703073501586914,0.021027374759822987,-0.147323842382859,-0.048692217526334014,0.022121764719486237,0.018298761919140816,-0.0
459,5,-0.0011622324818745255,0.0011077998206019402,0.0015527971554547548,-0.005719622131437063,-0.003106527728959918,-0.0013466431992128491,-0.014778684824705124,0.002644393825903535,-7.357669528573751e-05,-0.08627378940582275,-0.002241080394014716,0.0715828686952591,0.0,0.0,0.0,0.009680641815066338,-0.006889040581882,-0.0,0.0,0.0,0.0,0.0049324557185173035,-0.0026134406216442585,0.0014864294789731503,14038.0,13116.0,15109.0,13431.0,0.44164854288101196,0.38231325149536133,0.515877902507782,0.402057409286499,0.0,0.0,0.0,0.0,13944.0,13203.0,14947.0,13425.0,1.7398046255111694,0.0209478921852675,-0.1474377421298518,-0.04857004249764803,0.028879346325993538,0.031217698007822037,0.0
464,5,-0.001193008734844625,0.001136337872594595,0.0015393869252875447,-0.005980995949357748,-0.004667173605412245,0.0010705593740567565,-0.014778684824705124,0.002644393825903535,-7.357669528573751e-05,-0.08627378940582275,-0.002241080394014716,0.0715828686952591,0.0,0.0,0.0,0.009680641815066338,-0.006889040581882,-0.0,0.0,0.0,0.0,0.0049324557185173035,-0.0026134406216442585,0.0014864294789731503,14038.0,13116.0,15109.0,13431.0,0.44164854288101196,0.38231325149536133,0.515877902507782,0.402057409286499,0.0,0.0,0.0,0.0,13944.0,13203.0,14947.0,13425.0,1.7398046255111694,0.02122182270450534,-0.1472159316324731,-0.048098484929432604,0.028879346325993538,0.031217698007822037,0.0
469,5,-0.0012338144006207585,0.001153931487351656,0.0015304600819945335,-0.007289078086614609,-0.003978107590228319,0.00149944715667516,-0.015672124922275543,0.0024796947836875916,0.0007723781163804233,-0.015039795078337193,0.061279281973838806,0.06473077088594437,0.0,0.0,0.0,0.007435249164700508,-0.006978284101933241,-0.0,0.0,0.0,0.0,0.0051742298528552055,-0.0026489761658012867,0.0016139650251716375,14128.0,13062.0,15049.0,13457.0,0.44762781262397766,0.37893131375312805,0.5115935206413269,0.4037444293498993,0.0,0.0,0.0,0.0,13828.0,13271.0,15078.0,13532.0,1.7265714406967163,0.021245855603350017,-0.14721321659654654,-0.04819630234316959,0.029031505808234215,0.023794760927557945,-0.0
474,5,-0.0012761361431330442,0.001190644921734929,0.0015590020921081305,-0.007994231767952442,-0.005996852647513151,-0.0028252641204744577,-0.015672124922275543,0.0024796947836875916,0.0007723781163804233,-0.015039795078337193,0.061279281973838806,0.06473077088594437,0.0,0.0,0.0,0.007435249164700508,-0.006978284101933241,-0.0,0.0,0.0,0.0,0.0051742298528552055,-0.0026489761658012867,0.0016139650251716375,14128.0,13062.0,15049.0,13457.0,0.44762781262397766,0.37893131375312805,0.5115935206413269,0.4037444293498993,0.0,0.0,0.0,0.0,13828.0,13271.0,15078.0,13532.0,1.7265714406967163,0.020652409725207366,-0.14737088698965845,-0.04799466582827944,0.029031505808234215,0.023794760927557945,-0.0
