timestamp,dt,pos_x,pos_y,pos_z,vel_x,vel_y,vel_z,roll,pitch,yaw,agv_x,agv_y,agv_z,x_ref,y_ref,z_ref,roll_ref,pitch_ref,yaw_ref,x_vel_ref,y_vel_ref,z_vel_ref,x_torque,y_torque,z_torque,w0,w1,w2,w3,u0,u1,u2,u3,m0req,m1req,m2req,m3req,thrust0,thrust1,thrust2,thrust3,thrust_ref,roll_vicon,pitch_vicon,yaw_vicon,acc_x,acc_y,acc_z,roll_received,pitch_received,yaw_received
5,5,0.0,0.0,0.0,0.0008166870102286339,-0.0024837011005729437,-0.0012635192833840847,0.005239568185061216,-0.1546936333179474,-0.000588162976782769,0.0,0.0,0.0,0.0,0.0,0.0,0.0030411072075366974,0.0007692110375501215,-0.0,0.0,0.0,0.0,-0.0011059165699407458,0.0464678592979908,-6.442394806072116e-05,1495.0,1495.0,1495.0,1495.0,0.0,0.0,0.0,0.0,0.0,0.0,0.0,0.0,0.0,0.0,0.0,0.0,1.6523100137710571,0.01858278262957074,0.34192462084168246,0.18441360528447637,-0.003062576288357377,0.009313879534602165,0.0,0.0,0.0,0.0
28,23,0.0,0.0,0.0,0.0008166870102286339,-0.0024837011005729437,-0.0012635192833840847,0.005239568185061216,-0.1546936333179474,-0.000588162976782769,0.0,0.0,0.0,0.0,0.0,0.0,0.0030411072075366974,0.0007692110375501215,-0.0,0.0,0.0,0.0,-0.0011059165699407458,0.0464678592979908,-6.442394806072116e-05,1495.0,1495.0,1495.0,1495.0,0.0,0.0,0.0,0.0,0.0,0.0,0.0,0.0,0.0,0.0,0.0,0.0,1.6523100137710571,0.017759146273514454,0.346270065314356,0.18756292698868499,-0.003062576288357377,0.009313879534602165,0.0,0.0,0.0,0.0
38,10,0.0,0.0,0.0,0.017047522589564323,0.00032035066396929324,-0.036625053733587265,0.0052262963727116585,-0.15469759702682495,-0.000603271764703095,0.0,0.0,0.0,0.0,0.0,0.0,0.0030411072075366974,0.0007692110375501215,-0.0,0.0,0.0,0.0,-0.0004221631388645619,0.046654921025037766,-0.00011686322250170633,1495.0,1495.0,1495.0,1495.0,0.0,0.0,0.0,0.0,0.0,0.0,0.0,0.0,0.0,0.0,0.0,0.0,1.6523100137710571,0.02698985812593529,0.36383560759514616,0.18313190513351052,-0.06392820924520493,-0.0012013149680569768,0.0,0.0030411072075366974,0.0007692110375501215,0.0
47,9,0.0,0.0,0.0,0.017047522589564323,0.00032035066396929324,-0.036625053733587265,0.0052262963727116585,-0.15469759702682495,-0.000603271764703095,0.0,0.0,0.0,0.0,0.0,0.0,-0.0003608616243582219,0.014772322960197926,-0.0,0.0,0.0,0.0,-0.0004221631388645619,0.046654921025037766,-0.00011686322250170633,1495.0,1495.0,1495.0,1495.0,0.0,0.0,0.0,0.0,0.0,0.0,0.0,0.0,0.0,0.0,0.0,0.0,1.7960054874420166,0.01812497257864774,0.34090518113868323,0.18465997423020042,-0.06392820924520493,-0.0012013149680569768,0.0,0.0030411072075366974,0.0007692110375501215,0.0
52,5,0.0,0.0,0.0,0.017047522589564323,0.00032035066396929324,-0.036625053733587265,0.005206804722547531,-0.1546885073184967,-0.0006419881246984005,0.0,0.0,0.0,0.0,0.0,0.0,-0.0003608616243582219,0.014772322960197926,-0.0,0.0,0.0,0.0,-0.00044613052159547806,0.046737123280763626,-7.865692168707028e-05,16573.0,9780.0,9658.0,16546.0,0.6267313957214355,0.20322805643081665,0.19773337244987488,0.6246172189712524,0.0,0.0,0.0,0.0,0.0,0.0,0.0,0.0,1.7960054874420166,0.01812497257864774,0.34090518113868323,0.18465997423020042,-0.06392820924520493,-0.0012013149680569768,0.0,0.0030411072075366974,0.0007692110375501215,0.0
58,7,0.0,0.0,0.0,0.022260524332523346,0.0045817578211426735,-0.037478383630514145,0.005206804722547531,-0.1546885073184967,-0.0006419881246984005,0.0,0.0,0.0,0.0,0.0,0.0,-0.0003608616243582219,0.014772322960197926,-0.0,0.0,0.0,0.0,-0.00044613052159547806,0.046737123280763626,-7.865692168707028e-05,16573.0,9780.0,9658.0,16546.0,0.6267313957214355,0.20322805643081665,0.19773337244987488,0.6246172189712524,0.0,0.0,0.0,0.0,0.0,0.0,0.0,0.0,1.7960054874420166,0.01752239044810694,0.35149596876619865,0.18779243800167045,-0.06392820924520493,-0.0012013149680569768,0.0,0.0030411072075366974,0.0007692110375501215,0.0
63,5,0.0,0.0,0.0,0.022260524332523346,0.0045817578211426735,-0.037478383630514145,0.005199297331273556,-0.15468351542949677,-0.0006622735527344048,0.0,0.0,0.0,0.0,0.0,0.0,-0.0003608616243582219,0.014772322960197926,-0.0,0.0,0.0,0.0,-0.0011713304556906223,0.050877682864665985,5.87157228437718e-05,17316.0,10163.0,10014.0,17158.0,0.6870867013931274,0.22094066441059113,0.2139558047056198,0.674022376537323,0.0,0.0,0.0,0.0,0.0,0.0,0.0,0.0,1.7960054874420166,0.040903295978517676,0.391929446933532,0.17800734035195373,-0.06392820924520493,-0.0012013149680569768,0.0,-0.0003608616243582219,0.014772322960197926,0.0
68,5,0.0,0.0,0.0,0.022260524332523346,0.0045817578211426735,-0.037478383630514145,0.005199297331273556,-0.15468351542949677,-0.0006622735527344048,0.0,0.0,0.0,0.0,0.0,0.0,-0.005007494240999222,0.01871577836573124,-0.0,0.0,0.0,0.0,-0.0011713304556906223,0.050877682864665985,5.87157228437718e-05,17316.0,10163.0,10014.0,17158.0,0.6870867013931274,0.22094066441059113,0.2139558047056198,0.674022376537323,0.0,0.0,0.0,0.0,0.0,0.0,0.0,0.0,1.8511332273483276,0.040903295978517676,0.391929446933532,0.17800734035195373,-0.0834769681096077,-0.01718159206211567,0.0,-0.0003608616243582219,0.014772322960197926,0.0
73,5,-0.0003165661764796823,6.32189548923634e-05,-0.0006410552305169404,-0.029083730652928352,-0.005753571167588234,0.06193527206778526,0.005199297331273556,-0.15468351542949677,-0.0006622735527344048,0.0,0.0,0.0,0.0,0.0,0.0,-0.005007494240999222,0.01871577836573124,-0.0,0.0,0.0,0.0,-0.0011713304556906223,0.050877682864665985,5.87157228437718e-05,17316.0,10163.0,10014.0,17158.0,0.6870867013931274,0.22094066441059113,0.2139558047056198,0.674022376537323,0.0,0.0,0.0,0.0,0.0,0.0,0.0,0.0,1.8511332273483276,0.02498727099853486,0.35567124112470166,0.18233847552598645,-0.0834769681096077,-0.01718159206211567,0.0,-0.0003608616243582219,0.014772322960197926,0.0
78,5,-0.0003165661764796823,6.32189548923634e-05,-0.0006410552305169404,-0.029083730652928352,-0.005753571167588234,0.06193527206778526,0.005208338610827923,-0.15463726222515106,-0.0006404576706700027,0.0,0.0,0.0,0.0,0.0,0.0,-0.005007494240999222,0.01871577836573124,-0.0,0.0,0.0,0.0,-0.0011087453458458185,0.05102682486176491,-4.3677235225914046e-05,17299.0,10183.0,9977.0,17183.0,0.685725748538971,0.221896231174469,0.21225175261497498,0.6761317849159241,0.0,0.0,0.0,0.0,0.0,0.0,0.0,0.0,1.8511332273483276,0.02498727099853486,0.35567124112470166,0.18233847552598645,-0.0834769681096077,-0.01718159206211567,0.0,-0.0003608616243582219,0.014772322960197926,0.0
84,5,-0.0005000648088753223,8.25674578663893e-05,-0.0009175545419566333,-0.03365333005785942,-0.004623249173164368,0.057954028248786926,0.005208338610827923,-0.15463726222515106,-0.0006404576706700027,0.0,0.0,0.0,0.0,0.0,0.0,0.0061548249796032906,-0.02393122762441635,-0.0,0.0,0.0,0.0,-0.0011087453458458185,0.05102682486176491,-4.3677235225914046e-05,17299.0,10183.0,9977.0,17183.0,0.685725748538971,0.221896231174469,0.21225175261497498,0.6761317849159241,0.0,0.0,0.0,0.0,0.0,0.0,0.0,0.0,1.9217500686645508,0.01744504000714996,0.33884119433518345,0.18475226950161786,0.11080621182918549,0.021923817694187164,0.0,-0.0003608616243582219,0.014772322960197926,0.0
89,5,-0.0005000648088753223,8.25674578663893e-05,-0.0009175545419566333,-0.03365333005785942,-0.004623249173164368,0.057954028248786926,0.005204174667596817,-0.154647096991539,-0.0006390608032234013,0.0,0.0,0.0,0.0,0.0,0.0,0.0061548249796032906,-0.02393122762441635,-0.0,0.0,0.0,0.0,-0.0020229278597980738,0.05221031606197357,-0.00015389526379294693,17534.0,10509.0,9997.0,17410.0,0.7053661346435547,0.23761165142059326,0.2131972312927246,0.6949581503868103,0.0,0.0,0.0,0.0,0.0,0.0,0.0,0.0,1.9217500686645508,0.01744504000714996,0.33884119433518345,0.18475226950161786,0.11080621182918549,0.021923817694187164,0.0,-0.005007494240999222,0.01871577836573124,0.0
94,5,-0.00048688019160181284,9.986103395931423e-05,-0.0008894298225641251,-0.03365333005785942,-0.004623249173164368,0.057954028248786926,0.005204174667596817,-0.154647096991539,-0.0006390608032234013,0.0,0.0,0.0,0.0,0.0,0.0,0.00488505233079195,-0.02723914571106434,-0.0,0.0,0.0,0.0,-0.0020229278597980738,0.05221031606197357,-0.00015389526379294693,17534.0,10509.0,9997.0,17410.0,0.7053661346435547,0.23761165142059326,0.2131972312927246,0.6949581503868103,0.0,0.0,0.0,0.0,0.0,0.0,0.0,0.0,1.9649235010147095,0.01778886051972627,0.3397258388110042,0.18482851099573097,0.12895320355892181,0.017791815102100372,0.0,-0.005007494240999222,0.01871577836573124,0.0
99,5,-0.00048688019160181284,9.986103395931423e-05,-0.0008894298225641251,-0.03365333005785942,-0.004623249173164368,0.057954028248786926,0.005194911267608404,-0.1546422839164734,-0.0006455725524574518,0.0,0.0,0.0,0.0,0.0,0.0,0.004911619238555431,-0.02722615748643875,-0.0,0.0,0.0,0.0,-0.0020229278597980738,0.05221031606197357,-0.00015389526379294693,17534.0,10509.0,9997.0,17410.0,0.7053661346435547,0.23761165142059326,0.2131972312927246,0.6949581503868103,0.0,0.0,0.0,0.0,0.0,0.0,0.0,0.0,1.964781403541565,0.01778886051972627,0.3397258388110042,0.18482851099573097,0.12888239324092865,0.017887279391288757,0.0,-0.005007494240999222,0.01871577836573124,0.0
107,8,-0.0003236897464375943,5.302320278133266e-05,-0.0005880291573703289,0.006121520418673754,0.0037712405901402235,-0.012986468151211739,0.005211600102484226,-0.1546221822500229,-0.0006371524650603533,0.0,0.0,0.0,0.0,0.0,0.0,0.004911619238555431,-0.02722615748643875,-0.0,0.0,0.0,0.0,-3.542288686730899e-05,0.03852180391550064,-2.4070279323495924e-05,17050.0,12025.0,11978.0,17075.0,0.6651732921600342,0.3175898790359497,0.3149319291114807,0.6672284007072449,0.0,0.0,0.0,0.0,0.0,0.0,0.0,0.0,1.964781403541565,0.02623157913967726,0.35770539216835845,0.18259252282508848,0.12888239324092865,0.017887279391288757,0.0,0.00488505233079195,-0.02723914571106434,0.0
112,5,-0.0003236897464375943,5.302320278133266e-05,-0.0005880291573703289,0.006121520418673754,0.0037712405901402235,-0.012986468151211739,0.005211600102484226,-0.1546221822500229,-0.0006371524650603533,0.0,0.0,0.0,0.0,0.0,0.0,-0.004410885274410248,0.005186418071389198,-0.0,0.0,0.0,0.0,-3.542288686730899e-05,0.03852180391550064,-2.4070279323495924e-05,17050.0,12025.0,11978.0,17075.0,0.6651732921600342,0.3175898790359497,0.3149319291114807,0.6672284007072449,0.0,0.0,0.0,0.0,0.0,0.0,0.0,0.0,1.693954348564148,0.02623157913967726,0.35770539216835845,0.18259252282508848,-0.021169712767004967,-0.013849479146301746,0.0,0.00488505233079195,-0.02723914571106434,0.0
117,5,-0.0004858294560108334,9.806374873733148e-05,-0.0009190652635879815,0.006121520418673754,0.0037712405901402235,-0.012986468151211739,0.0051956502720713615,-0.1546236127614975,-0.0006538701709359884,0.0,0.0,0.0,0.0,0.0,0.0,-0.004337920341640711,0.004974450450390577,-0.0,0.0,0.0,0.0,-3.542288686730899e-05,0.03852180391550064,-2.4070279323495924e-05,17050.0,12025.0,11978.0,17075.0,0.6651732921600342,0.3175898790359497,0.3149319291114807,0.6672284007072449,0.0,0.0,0.0,0.0,0.0,0.0,0.0,0.0,1.6915949583053589,0.01767700575785639,0.33992427185492796,0.18457251978120637,-0.02027624472975731,-0.013601412996649742,0.0,0.00488505233079195,-0.02723914571106434,0.0
123,6,-0.00037825925392098725,4.8937476094579324e-05,-0.0007019625045359135,0.006121520418673754,0.0037712405901402235,-0.012986468151211739,0.0051956502720713615,-0.1546236127614975,-0.0006538701709359884,0.0,0.0,0.0,0.0,0.0,0.0,-0.004337920341640711,0.004974450450390577,-0.0,0.0,0.0,0.0,-3.542288686730899e-05,0.03852180391550064,-2.4070279323495924e-05,17050.0,12025.0,11978.0,17075.0,0.6651732921600342,0.3175898790359497,0.3149319291114807,0.6672284007072449,0.0,0.0,0.0,0.0,0.0,0.0,0.0,0.0,1.6915949583053589,0.01756285663291073,0.35031978470843544,0.18801765511244636,-0.02027624472975731,-0.013601412996649742,0.0,0.00488505233079195,-0.02723914571106434,0.0
128,5,-0.00037825925392098725,4.8937476094579324e-05,-0.0007019625045359135,0.006121520418673754,0.0037712405901402235,-0.012986468151211739,0.005193800665438175,-0.15463405847549438,-0.0006683520623482764,0.0,0.0,0.0,0.0,0.0,0.0,-0.004419559612870216,0.005114092491567135,-0.0,0.0,0.0,0.0,-7.638882379978895e-05,0.03854138404130936,-0.00011725573858711869,17034.0,12053.0,11937.0,17098.0,0.663864016532898,0.3192003071308136,0.3126278221607208,0.6690891981124878,0.0,0.0,0.0,0.0,0.0,0.0,0.0,0.0,1.6933097839355469,0.01756285663291073,0.35031978470843544,0.18801765511244636,-0.020866556093096733,-0.013871436007320881,0.0,0.004911619238555431,-0.02722615748643875,0.0
135,7,-0.0004382877959869802,8.456049545202404e-05,-0.0008431047899648547,0.006121520418673754,0.0037712405901402235,-0.012986468151211739,0.005193800665438175,-0.15463405847549438,-0.0006683520623482764,0.0,0.0,0.0,0.0,0.0,0.0,-0.004419559612870216,0.005114092491567135,-0.0,0.0,0.0,0.0,-7.638882379978895e-05,0.03854138404130936,-0.00011725573858711869,17034.0,12053.0,11937.0,17098.0,0.663864016532898,0.3192003071308136,0.3126278221607208,0.6690891981124878,0.0,0.0,0.0,0.0,0.0,0.0,0.0,0.0,1.6933097839355469,0.01793961705805203,0.34403893583886336,0.1855836679323289,-0.020866556093096733,-0.013871436007320881,0.0,0.004911619238555431,-0.02722615748643875,0.0
140,5,-0.0004382877959869802,8.456049545202404e-05,-0.0008431047899648547,0.006121520418673754,0.0037712405901402235,-0.012986468151211739,0.005172381643205881,-0.15463659167289734,-0.0006615184247493744,0.0,0.0,0.0,0.0,0.0,0.0,-0.004419559612870216,0.005114092491567135,-0.0,0.0,0.0,0.0,-0.0018701937515288591,0.04825375974178314,4.769554652739316e-05,17039.0,12041.0,11956.0,17088.0,0.6642965078353882,0.31850185990333557,0.31368908286094666,0.6682940125465393,0.0,0.0,0.0,0.0,0.0,0.0,0.0,0.0,1.6933097839355469,0.01793961705805203,0.34403893583886336,0.1855836679323289,-0.020866556093096733,-0.013871436007320881,0.0,-0.004410885274410248,0.005186418071389198,0.0
145,5,-0.0004818827146664262,9.782182314665988e-05,-0.0008855435880832374,-0.002782783005386591,-8.286229422083125e-05,-0.00010193310299655423,0.005172381643205881,-0.15463659167289734,-0.0006615184247493744,0.0,0.0,0.0,0.0,0.0,0.0,-0.004359692335128784,0.00503586046397686,-0.0,0.0,0.0,0.0,-0.0018701937515288591,0.04825375974178314,4.769554652739316e-05,17039.0,12041.0,11956.0,17088.0,0.6642965078353882,0.31850185990333557,0.31368908286094666,0.6682940125465393,0.0,0.0,0.0,0.0,0.0,0.0,0.0,0.0,1.6922800540924072,0.017574096197134473,0.339672608145774,0.1848981696380006,-0.02053486555814743,-0.013675213791429996,0.0,-0.004410885274410248,0.005186418071389198,0.0
150,5,-0.0004818827146664262,9.782182314665988e-05,-0.0008855435880832374,-0.002782783005386591,-8.286229422083125e-05,-0.00010193310299655423,0.005177698563784361,-0.15458545088768005,-0.0006502515752799809,0.0,0.0,0.0,0.0,0.0,0.0,-0.004359692335128784,0.00503586046397686,-0.0,0.0,0.0,0.0,-0.0019204234704375267,0.04814363643527031,-0.00013806618517264724,16824.0,10045.0,9549.0,16695.0,0.6468130350112915,0.21539567410945892,0.1928897649049759,0.6364965438842773,0.0,0.0,0.0,0.0,0.0,0.0,0.0,0.0,1.6922800540924072,0.017574096197134473,0.339672608145774,0.1848981696380006,-0.02053486555814743,-0.013675213791429996,0.0,-0.004337920341640711,0.004974450450390577,0.0
155,5,-0.0003968358796555549,9.116316505242139e-05,-0.0014565254095941782,-0.002782783005386591,-8.286229422083125e-05,-0.00010193310299655423,0.005177698563784361,-0.15458545088768005,-0.0006502515752799809,0.0,0.0,0.0,0.0,0.0,0.0,0.0002763484080787748,-0.003271941328421235,-0.0,0.0,0.0,0.0,-0.0019204234704375267,0.04814363643527031,-0.00013806618517264724,16824.0,10045.0,9549.0,16695.0,0.6468130350112915,0.21539567410945892,0.1928897649049759,0.6364965438842773,0.0,0.0,0.0,0.0,0.0,0.0,0.0,0.0,1.6612671613693237,0.00030528265061749183,0.3272986011537445,0.18660543806890423,0.0130977313965559,0.0008509518229402602,0.0,-0.004337920341640711,0.004974450450390577,0.0
160,5,-0.0003968358796555549,9.116316505242139e-05,-0.0014565254095941782,-0.002782783005386591,-8.286229422083125e-05,-0.00010193310299655423,0.005192272365093231,-0.15456001460552216,-0.0006630326970480382,0.0,0.0,0.0,0.0,0.0,0.0,0.0002763484080787748,-0.003271941328421235,-0.0,0.0,0.0,0.0,-0.0019957248587161303,0.04815617948770523,-9.645104728406295e-05,16716.0,10262.0,9330.0,16815.0,0.6381737589836121,0.22564801573753357,0.18335896730422974,0.6461290121078491,0.0,0.0,0.0,0.0,0.0,0.0,0.0,0.0,1.6612671613693237,0.00030528265061749183,0.3272986011537445,0.18660543806890423,0.0130977313965559,0.0008509518229402602,0.0,-0.004419559612870216,0.005114092491567135,0.0
165,5,-0.0005241839680820704,7.78982721385546e-05,-0.0007960314396768808,-0.002782783005386591,-8.286229422083125e-05,-0.00010193310299655423,0.005192272365093231,-0.15456001460552216,-0.0006630326970480382,0.0,0.0,0.0,0.0,0.0,0.0,0.0002647596993483603,-0.003157834056764841,-0.0,0.0,0.0,0.0,-0.0019957248587161303,0.04815617948770523,-9.645104728406295e-05,16716.0,10262.0,9330.0,16815.0,0.6381737589836121,0.22564801573753357,0.18335896730422974,0.6461290121078491,0.0,0.0,0.0,0.0,0.0,0.0,0.0,0.0,1.6600062847137451,0.02103392834388276,0.341226777820215,0.1857274999468529,0.012631362304091454,0.0008146482869051397,0.0,-0.004419559612870216,0.005114092491567135,0.0
170,5,-0.0005241839680820704,7.78982721385546e-05,-0.0007960314396768808,-0.002782783005386591,-8.286229422083125e-05,-0.00010193310299655423,0.005238689947873354,-0.15463124215602875,-0.0006540184840559959,0.0,0.0,0.0,0.0,0.0,0.0,0.0002647596993483603,-0.003157834056764841,-0.0,0.0,0.0,0.0,-0.0019546118564903736,0.04843534156680107,0.001058922614902258,17337.0,9103.0,10406.0,16195.0,0.6888834238052368,0.1737203598022461,0.23260411620140076,0.5970721244812012,0.0,0.0,0.0,0.0,0.0,0.0,0.0,0.0,1.6600062847137451,0.02103392834388276,0.341226777820215,0.1857274999468529,0.012631362304091454,0.0008146482869051397,0.0,-0.004359692335128784,0.00503586046397686,0.0
175,5,-0.00041890371358022094,0.00010753947572084144,-0.0015560538740828633,-0.002782783005386591,-8.286229422083125e-05,-0.00010193310299655423,0.005238689947873354,-0.15463124215602875,-0.0006540184840559959,0.0,0.0,0.0,0.0,0.0,0.0,0.00024086494522634894,-0.0033296302426606417,-0.0,0.0,0.0,0.0,-0.0019546118564903736,0.04843534156680107,0.001058922614902258,17337.0,9103.0,10406.0,16195.0,0.6888834238052368,0.1737203598022461,0.23260411620140076,0.5970721244812012,0.0,0.0,0.0,0.0,0.0,0.0,0.0,0.0,1.6618839502334595,0.0023125384847536975,0.3275789522063187,0.18240023143162304,0.013333612121641636,0.0007419640314765275,0.0,-0.004359692335128784,0.00503586046397686,0.0
180,5,-0.00041890371358022094,0.00010753947572084144,-0.0015560538740828633,-0.002782783005386591,-8.286229422083125e-05,-0.00010193310299655423,0.005140780471265316,-0.15448756515979767,-0.0009702644892968237,0.0,0.0,0.0,0.0,0.0,0.0,0.00024086494522634894,-0.0033296302426606417,-0.0,0.0,0.0,0.0,-0.0010175020433962345,0.04553981125354767,-0.002413906855508685,15799.0,11207.0,8353.0,17203.0,0.5668023824691772,0.27300941944122314,0.14367254078388214,0.6777828335762024,0.0,0.0,0.0,0.0,0.0,0.0,0.0,0.0,1.6618839502334595,0.0023125384847536975,0.3275789522063187,0.18240023143162304,0.013333612121641636,0.0007419640314765275,0.0,0.0002763484080787748,-0.003271941328421235,0.0
185,5,-0.00019761285511776805,0.0001535360497655347,-0.0012369604082778096,0.025441788136959076,-0.00555273424834013,-0.03833198547363281,0.005140780471265316,-0.15448756515979767,-0.0009702644892968237,0.0,0.0,0.0,0.0,0.0,0.0,0.0002941808197647333,-0.0031883269548416138,-0.0,0.0,0.0,0.0,-0.0010175020433962345,0.04553981125354767,-0.002413906855508685,15799.0,11207.0,8353.0,17203.0,0.5668023824691772,0.27300941944122314,0.14367254078388214,0.6777828335762024,0.0,0.0,0.0,0.0,0.0,0.0,0.0,0.0,1.6603580713272095,0.0031437027657326417,0.3420905619477543,0.18331739265591432,0.012756036594510078,0.0009053670219145715,0.0,0.0002763484080787748,-0.003271941328421235,0.0
191,5,-0.00019761285511776805,0.0001535360497655347,-0.0012369604082778096,0.025441788136959076,-0.00555273424834013,-0.03833198547363281,0.005280062090605497,-0.15438835322856903,-0.000761774426791817,0.0,0.0,0.0,0.0,0.0,0.0,0.0002941808197647333,-0.0031883269548416138,-0.0,0.0,0.0,0.0,-0.0011072080815210938,0.04547233134508133,0.0004242818395141512,16405.0,10258.0,9513.0,16610.0,0.6135201454162598,0.22545939683914185,0.19131454825401306,0.6297121644020081,0.0,0.0,0.0,0.0,0.0,0.0,0.0,0.0,1.6603580713272095,0.0031437027657326417,0.3420905619477543,0.18331739265591432,0.012756036594510078,0.0009053670219145715,0.0,0.0002647596993483603,-0.003157834056764841,0.0
196,5,-0.00018000371346715838,0.0001645313750486821,-0.00117074279114604,0.025441788136959076,-0.00555273424834013,-0.03833198547363281,0.005280062090605497,-0.15438835322856903,-0.000761774426791817,0.0,0.0,0.0,0.0,0.0,0.0,0.006216704845428467,0.020811229944229126,-0.0,0.0,0.0,0.0,-0.0011072080815210938,0.04547233134508133,0.0004242818395141512,16405.0,10258.0,9513.0,16610.0,0.6135201454162598,0.22545939683914185,0.19131454825401306,0.6297121644020081,0.0,0.0,0.0,0.0,0.0,0.0,0.0,0.0,1.8806732892990112,0.0016386781668265645,0.3429065332318801,0.18465044508332296,-0.09430251270532608,0.021670905873179436,0.0,0.0002647596993483603,-0.003157834056764841,0.0
201,5,-0.00018000371346715838,0.0001645313750486821,-0.00117074279114604,0.025441788136959076,-0.00555273424834013,-0.03833198547363281,0.005275852046906948,-0.1538473665714264,-0.0008677519508637488,0.0,0.0,0.0,0.0,0.0,0.0,0.006216704845428467,0.020811229944229126,-0.0,0.0,0.0,0.0,-0.0009796104859560728,0.04456209018826485,0.0016029656399041414,16974.0,9263.0,10704.0,15910.0,0.6589745283126831,0.180476576089859,0.24721601605415344,0.5752168297767639,0.0,0.0,0.0,0.0,0.0,0.0,0.0,0.0,1.8806732892990112,0.0016386781668265645,0.3429065332318801,0.18465044508332296,-0.09430251270532608,0.021670905873179436,0.0,0.00024086494522634894,-0.0033296302426606417,0.0
206,5,-0.00034969396074302495,0.00011677563452394679,-0.0013792398385703564,0.025441788136959076,-0.00555273424834013,-0.03833198547363281,0.005275852046906948,-0.1538473665714264,-0.0008677519508637488,0.0,0.0,0.0,0.0,0.0,0.0,0.0062333098612725735,0.02082943357527256,-0.0,0.0,0.0,0.0,-0.0009796104859560728,0.04456209018826485,0.0016029656399041414,16974.0,9263.0,10704.0,15910.0,0.6589745283126831,0.180476576089859,0.24721601605415344,0.5752168297767639,0.0,0.0,0.0,0.0,0.0,0.0,0.0,0.0,1.880947470664978,0.003379785785499454,0.330176073923227,0.18329914234019162,-0.09439873695373535,0.02173195593059063,0.0,0.00024086494522634894,-0.0033296302426606417,0.0
211,5,-0.00034969396074302495,0.00011677563452394679,-0.0013792398385703564,0.025441788136959076,-0.00555273424834013,-0.03833198547363281,0.005275852046906948,-0.1538473665714264,-0.0008677519508637488,0.0,0.0,0.0,0.0,0.0,0.0,0.0062333098612725735,0.02082943357527256,-0.0,0.0,0.0,0.0,-0.0009796104859560728,0.04456209018826485,0.0016029656399041414,16974.0,9263.0,10704.0,15910.0,0.6589745283126831,0.180476576089859,0.24721601605415344,0.5752168297767639,0.0,0.0,0.0,0.0,0.0,0.0,0.0,0.0,1.880947470664978,0.003379785785499454,0.330176073923227,0.18329914234019162,-0.09439873695373535,0.02173195593059063,0.0,0.00024086494522634894,-0.0033296302426606417,0.0
216,5,-0.0001435996819054708,0.00046890010708011687,-0.0011828766437247396,0.034908030182123184,-0.04447602853178978,-0.03889637067914009,0.005414911080151796,-0.15323355793952942,-0.0011698512826114893,0.0,0.0,0.0,0.0,0.0,0.0,0.006166198756545782,0.020650353282690048,-0.0,0.0,0.0,0.0,-0.0014238895382732153,0.04397963732481003,-0.0005681545590050519,16490.0,10198.0,9880.0,16358.0,0.6201529502868652,0.22259849309921265,0.20777291059494019,0.6098337173461914,0.0,0.0,0.0,0.0,0.0,0.0,0.0,0.0,1.8784735202789307,0.0025940925345685284,0.3348577184377086,0.17530733252651184,-0.0934642106294632,0.021469708532094955,0.0,0.0002941808197647333,-0.0031883269548416138,0.0
221,5,-0.0001435996819054708,0.00046890010708011687,-0.0011828766437247396,0.034908030182123184,-0.04447602853178978,-0.03889637067914009,0.005414911080151796,-0.15323355793952942,-0.0011698512826114893,0.0,0.0,0.0,0.0,0.0,0.0,0.006166198756545782,0.020650353282690048,-0.0,0.0,0.0,0.0,-0.0014238895382732153,0.04397963732481003,-0.0005681545590050519,16490.0,10198.0,9880.0,16358.0,0.6201529502868652,0.22259849309921265,0.20777291059494019,0.6098337173461914,0.0,0.0,0.0,0.0,0.0,0.0,0.0,0.0,1.8784735202789307,0.0025940925345685284,0.3348577184377086,0.17530733252651184,-0.0934642106294632,0.021469708532094955,0.0,0.0002941808197647333,-0.0031883269548416138,0.0
226,5,-0.00014612528320867568,0.0001337152934866026,-0.0007479030755348504,0.013660138472914696,0.022431764751672745,-0.06775538623332977,0.0057176887057721615,-0.15153515338897705,-0.0013267886824905872,0.0,0.0,0.0,0.0,0.0,0.0,0.042180851101875305,0.024934155866503716,-0.0,0.0,0.0,0.0,-0.00035280067822895944,0.049250733107328415,-0.00131958385463804,17025.0,11352.0,10054.0,17719.0,0.6631717085838318,0.280673086643219,0.21583177149295807,0.7209967374801636,0.0,0.0,0.0,0.0,0.0,0.0,0.0,0.0,2.167442560195923,0.00937247072050003,0.34362149903085737,0.18221874219790787,-0.13009563088417053,0.1693703830242157,0.0,0.006216704845428467,0.020811229944229126,0.0
231,5,-0.00014612528320867568,0.0001337152934866026,-0.0007479030755348504,0.013660138472914696,0.022431764751672745,-0.06775538623332977,0.0057176887057721615,-0.15153515338897705,-0.0013267886824905872,0.0,0.0,0.0,0.0,0.0,0.0,0.042180851101875305,0.024934155866503716,-0.0,0.0,0.0,0.0,-0.00035280067822895944,0.049250733107328415,-0.00131958385463804,17025.0,11352.0,10054.0,17719.0,0.6631717085838318,0.280673086643219,0.21583177149295807,0.7209967374801636,0.0,0.0,0.0,0.0,0.0,0.0,0.0,0.0,2.167442560195923,0.00937247072050003,0.34362149903085737,0.18221874219790787,-0.13009563088417053,0.1693703830242157,0.0,0.006216704845428467,0.020811229944229126,0.0
236,5,-0.00011048862506868318,0.00019937437900807709,-0.0003417932603042573,0.009740455076098442,0.0010936165926977992,-0.07583533227443695,0.00636235112324357,-0.1483309417963028,-0.0012407967587932944,0.0,0.0,0.0,0.0,0.0,0.0,-0.023897875100374222,0.011114061810076237,-0.0,0.0,0.0,0.0,-0.001568939653225243,0.04147999733686447,3.071861283387989e-05,16955.0,11708.0,11163.0,16899.0,0.6574397683143616,0.29992836713790894,0.27068328857421875,0.652895987033844,0.0,0.0,0.0,0.0,0.0,0.0,0.0,0.0,1.8825777769088745,0.009701502966830266,0.33877989198034164,0.1815364528689873,-0.05040163919329643,-0.08337688446044922,0.0,0.0062333098612725735,0.02082943357527256,0.0
242,5,-0.00011048862506868318,0.00019937437900807709,-0.0003417932603042573,0.009740455076098442,0.0010936165926977992,-0.07583533227443695,0.00636235112324357,-0.1483309417963028,-0.0012407967587932944,0.0,0.0,0.0,0.0,0.0,0.0,-0.023897875100374222,0.011114061810076237,-0.0,0.0,0.0,0.0,-0.001568939653225243,0.04147999733686447,3.071861283387989e-05,16955.0,11708.0,11163.0,16899.0,0.6574397683143616,0.29992836713790894,0.27068328857421875,0.652895987033844,0.0,0.0,0.0,0.0,0.0,0.0,0.0,0.0,1.8825777769088745,0.009701502966830266,0.33877989198034164,0.1815364528689873,-0.05040163919329643,-0.08337688446044922,0.0,0.0062333098612725735,0.02082943357527256,0.0
247,5,-0.0002445662103127688,9.972351836040616e-05,0.00020928005687892437,0.009740455076098442,0.0010936165926977992,-0.07583533227443695,0.00836966186761856,-0.1375352293252945,-0.0012792196357622743,0.0,0.0,0.0,0.0,0.0,0.0,-0.000938667100854218,0.008648911491036415,-0.0,0.0,0.0,0.0,-0.0026442280504852533,0.028490042313933372,0.0012825876474380493,16667.0,12221.0,12822.0,15591.0,0.6342102289199829,0.3287493586540222,0.36426448822021484,0.5512495040893555,0.0,0.0,0.0,0.0,0.0,0.0,0.0,0.0,1.7225341796875,0.014048584258745068,0.3217201792640362,0.1847484205859893,-0.035898443311452866,-0.002997007919475436,0.0,0.006166198756545782,0.020650353282690048,0.0
252,5,-0.0002445662103127688,9.972351836040616e-05,0.00020928005687892437,0.009740455076098442,0.0010936165926977992,-0.07583533227443695,0.00836966186761856,-0.1375352293252945,-0.0012792196357622743,0.0,0.0,0.0,0.0,0.0,0.0,-0.000938667100854218,0.008648911491036415,-0.0,0.0,0.0,0.0,-0.0026442280504852533,0.028490042313933372,0.0012825876474380493,16667.0,12221.0,12822.0,15591.0,0.6342102289199829,0.3287493586540222,0.36426448822021484,0.5512495040893555,0.0,0.0,0.0,0.0,0.0,0.0,0.0,0.0,1.7225341796875,0.014048584258745068,0.3217201792640362,0.1847484205859893,-0.035898443311452866,-0.002997007919475436,0.0,0.006166198756545782,0.020650353282690048,0.0
257,5,-0.00024718698114156723,3.869027568725869e-05,0.0013837834121659398,0.009740455076098442,0.0010936165926977992,-0.07583533227443695,0.010331716388463974,-0.12527498602867126,-0.0007893334259279072,0.0,0.0,0.0,0.0,0.0,0.0,-0.0011113911168649793,0.008479993790388107,-0.0,0.0,0.0,0.0,0.002781482646241784,0.01203974336385727,0.0024758309591561556,16685.0,13839.0,15712.0,15481.0,0.6356576681137085,0.4284541606903076,0.5602670907974243,0.5430636405944824,0.0,0.0,0.0,0.0,0.0,0.0,0.0,0.0,1.720714807510376,0.03153532076220208,0.3247280749605565,0.18223167254363892,-0.035160161554813385,-0.0035447385162115097,0.0,0.042180851101875305,0.024934155866503716,0.0
262,5,-0.00024718698114156723,3.869027568725869e-05,0.0013837834121659398,0.009740455076098442,0.0010936165926977992,-0.07583533227443695,0.010331716388463974,-0.12527498602867126,-0.0007893334259279072,0.0,0.0,0.0,0.0,0.0,0.0,-0.0011113911168649793,0.008479993790388107,-0.0,0.0,0.0,0.0,0.002781482646241784,0.01203974336385727,0.0024758309591561556,16685.0,13839.0,15712.0,15481.0,0.6356576681137085,0.4284541606903076,0.5602670907974243,0.5430636405944824,0.0,0.0,0.0,0.0,0.0,0.0,0.0,0.0,1.720714807510376,0.03153532076220208,0.3247280749605565,0.18223167254363892,-0.035160161554813385,-0.0035447385162115097,0.0,0.042180851101875305,0.024934155866503716,0.0
267,5,-0.0005122220027260482,1.327739573753206e-05,0.0020622212905436754,-0.027908021584153175,0.0034869923256337643,-0.11174667626619339,0.014588629826903343,-0.09893990308046341,-3.118807580904104e-05,0.0,0.0,0.0,0.0,0.0,0.0,-0.0012165586231276393,0.008476046845316887,-0.0,0.0,0.0,0.0,-0.01316519733518362,-0.01073541771620512,0.0021106572821736336,15157.0,15357.0,15075.0,11993.0,0.5193596482276917,0.5339365601539612,0.513495922088623,0.315785676240921,0.0,0.0,0.0,0.0,0.0,0.0,0.0,0.0,1.7207680940628052,0.03515609538566125,0.2969752996470416,0.18381118811849398,-0.035144880414009094,-0.0038802861236035824,0.0,-0.023897875100374222,0.011114061810076237,0.0
272,5,-0.0005122220027260482,1.327739573753206e-05,0.0020622212905436754,-0.027908021584153175,0.0034869923256337643,-0.11174667626619339,0.014588629826903343,-0.09893990308046341,-3.118807580904104e-05,0.0,0.0,0.0,0.0,0.0,0.0,-0.0012165586231276393,0.008476046845316887,-0.0,0.0,0.0,0.0,-0.01316519733518362,-0.01073541771620512,0.0021106572821736336,15157.0,15357.0,15075.0,11993.0,0.5193596482276917,0.5339365601539612,0.513495922088623,0.315785676240921,0.0,0.0,0.0,0.0,0.0,0.0,0.0,0.0,1.7207680940628052,0.03515609538566125,0.2969752996470416,0.18381118811849398,-0.035144880414009094,-0.0038802861236035824,0.0,-0.023897875100374222,0.011114061810076237,0.0
277,5,-0.0010760449804365635,-3.210759678040631e-05,0.0019906903617084026,-0.027908021584153175,0.0034869923256337643,-0.11174667626619339,0.017521880567073822,-0.0772368386387825,0.0002243215567432344,0.0,0.0,0.0,0.0,0.0,0.0,-0.0012165586231276393,0.008476046845316887,-0.0,0.0,0.0,0.0,-0.007457471452653408,-0.04010196775197983,0.0013481095666065812,13282.0,15462.0,16137.0,9611.0,0.3926553428173065,0.5416725873947144,0.5925780534744263,0.19562819600105286,0.0,0.0,0.0,0.0,0.0,0.0,0.0,0.0,1.7207680940628052,0.022999224904478727,0.22488458983864926,0.19044612504306152,-0.035144880414009094,-0.0038802861236035824,0.0,-0.0011113911168649793,0.008479993790388107,0.0
282,5,-0.0010760449804365635,-3.210759678040631e-05,0.0019906903617084026,-0.027908021584153175,0.0034869923256337643,-0.11174667626619339,0.017521880567073822,-0.0772368386387825,0.0002243215567432344,0.0,0.0,0.0,0.0,0.0,0.0,-0.003725992748513818,-0.023935575038194656,-0.0,0.0,0.0,0.0,-0.007457471452653408,-0.04010196775197983,0.0013481095666065812,13282.0,15462.0,16137.0,9611.0,0.3926553428173065,0.5416725873947144,0.5925780534744263,0.19562819600105286,0.0,0.0,0.0,0.0,0.0,0.0,0.0,0.0,1.9177918434143066,0.022999224904478727,0.22488458983864926,0.19044612504306152,0.11059939116239548,-0.01324494555592537,0.0,-0.0011113911168649793,0.008479993790388107,0.0
287,5,-0.0011979766422882676,0.00013752258382737637,0.0031563725788146257,-0.027908021584153175,0.0034869923256337643,-0.11174667626619339,0.02012546919286251,-0.04202814772725105,0.0004207513702567667,0.0,0.0,0.0,0.0,0.0,0.0,-0.003725992748513818,-0.023935575038194656,-0.0,0.0,0.0,0.0,-0.0035186519380658865,-0.04611172154545784,-0.00048322483780793846,11760.0,16454.0,16276.0,9645.0,0.3027992844581604,0.6173532605171204,0.6034213900566101,0.1971408575773239,0.0,0.0,0.0,0.0,0.0,0.0,0.0,0.0,1.9177918434143066,0.03868330237411295,0.22435666060658874,0.18197242107307166,0.11059939116239548,-0.01324494555592537,0.0,-0.0012165586231276393,0.008476046845316887,0.0
292,5,-0.0011979766422882676,0.00013752258382737637,0.0031563725788146257,-0.027908021584153175,0.0034869923256337643,-0.11174667626619339,0.02012546919286251,-0.04202814772725105,0.0004207513702567667,0.0,0.0,0.0,0.0,0.0,0.0,-0.00346083240583539,-0.024063773453235626,-0.0,0.0,0.0,0.0,-0.0035186519380658865,-0.04611172154545784,-0.00048322483780793846,11760.0,16454.0,16276.0,9645.0,0.3027992844581604,0.6173532605171204,0.6034213900566101,0.1971408575773239,0.0,0.0,0.0,0.0,0.0,0.0,0.0,0.0,1.919213891029358,0.03868330237411295,0.22435666060658874,0.18197242107307166,0.11127420514822006,-0.012311498634517193,0.0,-0.0012165586231276393,0.008476046845316887,0.0
298,5,-0.001468725735321641,-7.444131915690377e-05,0.0035569346509873867,-0.027908021584153175,0.0034869923256337643,-0.11174667626619339,0.020171156153082848,-0.0193378496915102,-0.0003294511407148093,0.0,0.0,0.0,0.0,0.0,0.0,-0.00346083240583539,-0.024063773453235626,-0.0,0.0,0.0,0.0,-0.001992550678551197,-0.05231030285358429,-0.0018470571376383305,10550.0,16866.0,16535.0,9865.0,0.23963326215744019,0.6502578258514404,0.6237603425979614,0.20711663365364075,0.0,0.0,0.0,0.0,0.0,0.0,0.0,0.0,1.919213891029358,0.041124939371581036,0.19770014487950718,0.18790100342955285,0.11127420514822006,-0.012311498634517193,0.0,-0.003725992748513818,-0.023935575038194656,0.0
303,5,-0.0016125106485560536,-9.420636160939466e-06,0.0038609628099948168,-0.028417397290468216,-0.006407684646546841,-0.08118203282356262,0.020171156153082848,-0.0193378496915102,-0.0003294511407148093,0.0,0.0,0.0,0.0,0.0,0.0,-0.003780580125749111,-0.024335239082574844,-0.0,0.0,0.0,0.0,-0.001992550678551197,-0.05231030285358429,-0.0018470571376383305,10550.0,16866.0,16535.0,9865.0,0.23963326215744019,0.6502578258514404,0.6237603425979614,0.20711663365364075,0.0,0.0,0.0,0.0,0.0,0.0,0.0,0.0,1.9232960939407349,0.04040190984333863,0.1764789369314319,0.1885089789099673,0.11276847124099731,-0.013477560132741928,0.0,-0.003725992748513818,-0.023935575038194656,0.0
308,5,-0.0016125106485560536,-9.420636160939466e-06,0.0038609628099948168,-0.028417397290468216,-0.006407684646546841,-0.08118203282356262,0.01824036054313183,0.009623915888369083,-0.001069800229743123,0.0,0.0,0.0,0.0,0.0,0.0,-0.003780580125749111,-0.024335239082574844,-0.0,0.0,0.0,0.0,-0.002386343665421009,-0.04407241567969322,4.151871326030232e-05,9965.0,18195.0,16959.0,11456.0,0.2116917073726654,0.7621078491210938,0.6577955484390259,0.2861967384815216,0.0,0.0,0.0,0.0,0.0,0.0,0.0,0.0,1.9232960939407349,0.04040190984333863,0.1764789369314319,0.1885089789099673,0.11276847124099731,-0.013477560132741928,0.0,-0.00346083240583539,-0.024063773453235626,0.0
313,5,-0.0017587518086656928,-0.00022636303037870675,0.004492778796702623,-0.028417397290468216,-0.006407684646546841,-0.08118203282356262,0.01824036054313183,0.009623915888369083,-0.001069800229743123,0.0,0.0,0.0,0.0,0.0,0.0,0.006689794827252626,-0.024777941405773163,-0.0,0.0,0.0,0.0,-0.002386343665421009,-0.04407241567969322,4.151871326030232e-05,9965.0,18195.0,16959.0,11456.0,0.2116917073726654,0.7621078491210938,0.6577955484390259,0.2861967384815216,0.0,0.0,0.0,0.0,0.0,0.0,0.0,0.0,1.9343066215515137,0.039901282713523875,0.18523093107166463,0.18447503210763844,0.11547508835792542,0.023985059931874275,0.0,-0.00346083240583539,-0.024063773453235626,0.0
318,5,-0.0017587518086656928,-0.00022636303037870675,0.004492778796702623,-0.028417397290468216,-0.006407684646546841,-0.08118203282356262,0.017002614215016365,0.023431433364748955,-0.0014598288107663393,0.0,0.0,0.0,0.0,0.0,0.0,0.006689794827252626,-0.024777941405773163,-0.0,0.0,0.0,0.0,-0.003159545361995697,-0.02833685837686062,-0.0033041094429790974,11632.0,17290.0,16981.0,11320.0,0.295734703540802,0.6849828958511353,0.6595475673675537,0.27894872426986694,0.0,0.0,0.0,0.0,0.0,0.0,0.0,0.0,1.9343066215515137,0.039901282713523875,0.18523093107166463,0.18447503210763844,0.11547508835792542,0.023985059931874275,0.0,-0.003780580125749111,-0.024335239082574844,0.0
323,5,-0.0017352349823340774,-0.0003176747995894402,0.0035862543154507875,-0.028417397290468216,-0.006407684646546841,-0.08118203282356262,0.017002614215016365,0.023431433364748955,-0.0014598288107663393,0.0,0.0,0.0,0.0,0.0,0.0,0.00635216711089015,-0.024933764711022377,-0.0,0.0,0.0,0.0,-0.003159545361995697,-0.02833685837686062,-0.0033041094429790974,11632.0,17290.0,16981.0,11320.0,0.295734703540802,0.6849828958511353,0.6595475673675537,0.27894872426986694,0.0,0.0,0.0,0.0,0.0,0.0,0.0,0.0,1.935707926750183,0.02734835437540593,0.1490887080947951,0.18623107551056892,0.11628556996583939,0.02279108390212059,0.0,-0.003780580125749111,-0.024335239082574844,0.0
328,5,-0.0017352349823340774,-0.0003176747995894402,0.0035862543154507875,-0.028417397290468216,-0.006407684646546841,-0.08118203282356262,0.016049306839704514,0.0332811139523983,-0.002578283194452524,0.0,0.0,0.0,0.0,0.0,0.0,0.00635216711089015,-0.024933764711022377,-0.0,0.0,0.0,0.0,-0.0025157062336802483,-0.012306815944612026,-0.0025572702288627625,11672.0,17364.0,15042.0,13758.0,0.2979472875595093,0.69112628698349,0.5110844969749451,0.4231380224227905,0.0,0.0,0.0,0.0,0.0,0.0,0.0,0.0,1.935707926750183,0.02734835437540593,0.1490887080947951,0.18623107551056892,0.11628556996583939,0.02279108390212059,0.0,0.006689794827252626,-0.024777941405773163,0.0
333,5,-0.0017640903824940324,-0.0004484273958951235,0.003497972385957837,-0.014829614199697971,0.013127238489687443,-0.021878980100154877,0.016049306839704514,0.0332811139523983,-0.002578283194452524,0.0,0.0,0.0,0.0,0.0,0.0,0.006213631015270948,-0.0249143298715353,-0.0,0.0,0.0,0.0,-0.0025157062336802483,-0.012306815944612026,-0.0025572702288627625,11672.0,17364.0,15042.0,13758.0,0.2979472875595093,0.69112628698349,0.5110844969749451,0.4231380224227905,0.0,0.0,0.0,0.0,0.0,0.0,0.0,0.0,1.9351623058319092,0.030678853005767084,0.1550962585501884,0.18399340372732678,0.11616230010986328,0.022287756204605103,0.0,0.006689794827252626,-0.024777941405773163,0.0
338,5,-0.0017640903824940324,-0.0004484273958951235,0.003497972385957837,-0.014829614199697971,0.013127238489687443,-0.021878980100154877,0.01626744121313095,0.033152420073747635,-0.00324315601028502,0.0,0.0,0.0,0.0,0.0,0.0,0.006213631015270948,-0.0249143298715353,-0.0,0.0,0.0,0.0,-0.0031309721525758505,-0.0014352797297760844,-0.003972760867327452,13481.0,16095.0,13160.0,15656.0,0.4052478075027466,0.5893564224243164,0.3850259780883789,0.5560776591300964,0.0,0.0,0.0,0.0,0.0,0.0,0.0,0.0,1.9351623058319092,0.030678853005767084,0.1550962585501884,0.18399340372732678,0.11616230010986328,0.022287756204605103,0.0,0.00635216711089015,-0.024933764711022377,0.0
343,5,-0.0017502191476523876,-0.0006272708415053785,0.003958627115935087,-0.014829614199697971,0.013127238489687443,-0.021878980100154877,0.01626744121313095,0.033152420073747635,-0.00324315601028502,0.0,0.0,0.0,0.0,0.0,0.0,0.006213631015270948,-0.0249143298715353,-0.0,0.0,0.0,0.0,-0.0031309721525758505,-0.0014352797297760844,-0.003972760867327452,13481.0,16095.0,13160.0,15656.0,0.4052478075027466,0.5893564224243164,0.3850259780883789,0.5560776591300964,0.0,0.0,0.0,0.0,0.0,0.0,0.0,0.0,1.9351623058319092,0.047826707503971395,0.18581583830295886,0.18603388526937137,0.11616230010986328,0.022287756204605103,0.0,0.00635216711089015,-0.024933764711022377,0.0
348,5,-0.0017502191476523876,-0.0006272708415053785,0.003958627115935087,-0.014829614199697971,0.013127238489687443,-0.021878980100154877,0.016843700781464577,0.025962645187973976,-0.004651573486626148,0.0,0.0,0.0,0.0,0.0,0.0,-0.015380162745714188,-0.014667456969618797,-0.0,0.0,0.0,0.0,-0.0038310608360916376,0.007237514015287161,-0.003502064384520054,14170.0,15571.0,12566.0,16052.0,0.45044153928756714,0.5497536063194275,0.34891417622566223,0.5860529541969299,0.0,0.0,0.0,0.0,0.0,0.0,0.0,0.0,1.8477838039398193,0.047826707503971395,0.18581583830295886,0.18603388526937137,0.06529665738344193,-0.052673179656267166,0.0,0.006213631015270948,-0.0249143298715353,0.0
353,5,-0.0016989463474601507,-0.0007572290487587452,0.0032971594482660294,0.0002208874939242378,0.020845886319875717,0.07062453776597977,0.016843700781464577,0.025962645187973976,-0.004651573486626148,0.0,0.0,0.0,0.0,0.0,0.0,-0.015380162745714188,-0.014667456969618797,-0.0,0.0,0.0,0.0,-0.0038310608360916376,0.007237514015287161,-0.003502064384520054,14170.0,15571.0,12566.0,16052.0,0.45044153928756714,0.5497536063194275,0.34891417622566223,0.5860529541969299,0.0,0.0,0.0,0.0,0.0,0.0,0.0,0.0,1.8477838039398193,0.0375170530915563,0.18008975999416288,0.18505520849805335,0.06529665738344193,-0.052673179656267166,0.0,0.006213631015270948,-0.0249143298715353,0.0
358,5,-0.0016989463474601507,-0.0007572290487587452,0.0032971594482660294,0.0002208874939242378,0.020845886319875717,0.07062453776597977,0.018179692327976227,0.006740326061844826,-0.006202084943652153,0.0,0.0,0.0,0.0,0.0,0.0,-0.02407945692539215,-0.0019307006150484085,-0.0,0.0,0.0,0.0,-0.0074625215493142605,0.012409172020852566,-0.0025434463750571012,14799.0,14775.0,12044.0,15482.0,0.4938051104545593,0.4921357035636902,0.318687379360199,0.5431556105613708,0.0,0.0,0.0,0.0,0.0,0.0,0.0,0.0,1.8450506925582886,0.0375170530915563,0.18008975999416288,0.18505520849805335,0.008581218309700489,-0.08233553171157837,-0.0,-0.015380162745714188,-0.014667456969618797,0.0
364,5,-0.001592740649357438,-0.0008035379578359425,0.0034786653704941273,0.0002208874939242378,0.020845886319875717,0.07062453776597977,0.018179692327976227,0.006740326061844826,-0.006202084943652153,0.0,0.0,0.0,0.0,0.0,0.0,-0.02407945692539215,-0.0019307006150484085,-0.0,0.0,0.0,0.0,-0.0074625215493142605,0.012409172020852566,-0.0025434463750571012,14799.0,14775.0,12044.0,15482.0,0.4938051104545593,0.4921357035636902,0.318687379360199,0.5431556105613708,0.0,0.0,0.0,0.0,0.0,0.0,0.0,0.0,1.8450506925582886,0.04157126711823142,0.20131060039154622,0.1824649305651349,0.008581218309700489,-0.08233553171157837,-0.0,-0.015380162745714188,-0.014667456969618797,0.0
369,5,-0.001592740649357438,-0.0008035379578359425,0.0034786653704941273,0.0002208874939242378,0.020845886319875717,0.07062453776597977,0.01841704547405243,-9.977992885978892e-05,-0.006457999814301729,0.0,0.0,0.0,0.0,0.0,0.0,-0.024148089811205864,-0.0018000338459387422,-0.0,0.0,0.0,0.0,-0.008764580823481083,0.016067003831267357,-0.0018078333232551813,15242.0,14469.0,11883.0,15427.0,0.5255448818206787,0.4708598554134369,0.3095839321613312,0.5390620231628418,0.0,0.0,0.0,0.0,0.0,0.0,0.0,0.0,1.8455625772476196,0.04157126711823142,0.20131060039154622,0.1824649305651349,0.008002662099897861,-0.08259303867816925,-0.0,-0.02407945692539215,-0.0019307006150484085,0.0
374,5,-0.0015889588976278901,-0.0009916938142850995,0.0037527659442275763,0.0005421744426712394,0.030917063355445862,-0.004642264451831579,0.01841704547405243,-9.977992885978892e-05,-0.006457999814301729,0.0,0.0,0.0,0.0,0.0,0.0,-0.024148089811205864,-0.0018000338459387422,-0.0,0.0,0.0,0.0,-0.008764580823481083,0.016067003831267357,-0.0018078333232551813,15242.0,14469.0,11883.0,15427.0,0.5255448818206787,0.4708598554134369,0.3095839321613312,0.5390620231628418,0.0,0.0,0.0,0.0,0.0,0.0,0.0,0.0,1.8455625772476196,0.054615680381661126,0.21673611681427138,0.1863452206719323,0.008002662099897861,-0.08259303867816925,-0.0,-0.02407945692539215,-0.0019307006150484085,0.0
379,5,-0.0015889588976278901,-0.0009916938142850995,0.0037527659442275763,0.0005421744426712394,0.030917063355445862,-0.004642264451831579,0.017924433574080467,-0.006586906500160694,-0.006514705251902342,0.0,0.0,0.0,0.0,0.0,0.0,-0.03370388224720955,-0.001448830240406096,-0.0,0.0,0.0,0.0,-0.008042452856898308,0.01053931936621666,-0.0009563600760884583,15078.0,14572.0,12736.0,14813.0,0.5136572122573853,0.47797536849975586,0.3590935468673706,0.4948364496231079,0.0,0.0,0.0,0.0,0.0,0.0,0.0,0.0,1.94389808177948,0.054615680381661126,0.21673611681427138,0.1863452206719323,0.00678259739652276,-0.12139828503131866,0.0,-0.024148089811205864,-0.0018000338459387422,0.0
384,5,-0.0016025220975279808,-0.0008371253497898579,0.0038290724623948336,0.0005421744426712394,0.030917063355445862,-0.004642264451831579,0.017924433574080467,-0.006586906500160694,-0.006514705251902342,0.0,0.0,0.0,0.0,0.0,0.0,-0.03370388224720955,-0.001448830240406096,-0.0,0.0,0.0,0.0,-0.008042452856898308,0.01053931936621666,-0.0009563600760884583,15078.0,14572.0,12736.0,14813.0,0.5136572122573853,0.47797536849975586,0.3590935468673706,0.4948364496231079,0.0,0.0,0.0,0.0,0.0,0.0,0.0,0.0,1.94389808177948,0.05224929457791347,0.21582895589269602,0.18257358458195339,0.00678259739652276,-0.12139828503131866,0.0,-0.024148089811205864,-0.0018000338459387422,0.0
389,5,-0.0016025220975279808,-0.0008371253497898579,0.0038290724623948336,0.0005421744426712394,0.030917063355445862,-0.004642264451831579,0.01768162101507187,-0.007197895087301731,-0.006395844742655754,0.0,0.0,0.0,0.0,0.0,0.0,-0.03350500762462616,-0.0014675508718937635,-0.0,0.0,0.0,0.0,-0.008085636422038078,0.001597262336872518,-0.00017835693142842501,14852.0,14810.0,13746.0,13878.0,0.49759048223495483,0.4945729374885559,0.4223528504371643,0.4310463070869446,0.0,0.0,0.0,0.0,0.0,0.0,0.0,0.0,1.9417821168899536,0.05224929457791347,0.21582895589269602,0.18257358458195339,0.00686280382797122,-0.12055108696222305,0.0,-0.024148089811205864,-0.0018000338459387422,0.0
394,5,-0.0016200803220272064,-0.0009669927530921996,0.0037837347481399775,0.0005421744426712394,0.030917063355445862,-0.004642264451831579,0.01768162101507187,-0.007197895087301731,-0.006395844742655754,0.0,0.0,0.0,0.0,0.0,0.0,-0.03350500762462616,-0.0014675508718937635,-0.0,0.0,0.0,0.0,-0.008085636422038078,0.001597262336872518,-0.00017835693142842501,14852.0,14810.0,13746.0,13878.0,0.49759048223495483,0.4945729374885559,0.4223528504371643,0.4310463070869446,0.0,0.0,0.0,0.0,0.0,0.0,0.0,0.0,1.9417821168899536,0.04547903380839042,0.2099337877401568,0.18470676290641674,0.00686280382797122,-0.12055108696222305,0.0,-0.024148089811205864,-0.0018000338459387422,0.0
399,5,-0.0016200803220272064,-0.0009669927530921996,0.0037837347481399775,0.0005421744426712394,0.030917063355445862,-0.004642264451831579,0.01691310852766037,-0.004093309864401817,-0.005710029974579811,0.0,0.0,0.0,0.0,0.0,0.0,-0.03367307782173157,-0.0014880304224789143,-0.0,0.0,0.0,0.0,-0.00908941775560379,-0.004489365965127945,0.0011818127240985632,15430.0,15000.0,14994.0,13187.0,0.5392895340919495,0.50808185338974,0.5076842308044434,0.3867265284061432,0.0,0.0,0.0,0.0,0.0,0.0,0.0,0.0,1.943598747253418,0.04547903380839042,0.2099337877401568,0.18470676290641674,0.006965044420212507,-0.12126874178647995,0.0,-0.03370388224720955,-0.001448830240406096,0.0
404,5,-0.0016221859259530902,-0.0010081926593557,0.0037391814403235912,-3.58115867129527e-05,0.017310822382569313,0.0034894992131739855,0.01691310852766037,-0.004093309864401817,-0.005710029974579811,0.0,0.0,0.0,0.0,0.0,0.0,-0.03367307782173157,-0.0014880304224789143,-0.0,0.0,0.0,0.0,-0.00908941775560379,-0.004489365965127945,0.0011818127240985632,15430.0,15000.0,14994.0,13187.0,0.5392895340919495,0.50808185338974,0.5076842308044434,0.3867265284061432,0.0,0.0,0.0,0.0,0.0,0.0,0.0,0.0,1.943598747253418,0.04519267354931702,0.2010312853106508,0.18755758949368734,0.006965044420212507,-0.12126874178647995,0.0,-0.03370388224720955,-0.001448830240406096,0.0
409,5,-0.0016221859259530902,-0.0010081926593557,0.0037391814403235912,-3.58115867129527e-05,0.017310822382569313,0.0034894992131739855,0.01691310852766037,-0.004093309864401817,-0.005710029974579811,0.0,0.0,0.0,0.0,0.0,0.0,-0.03367307782173157,-0.0014880304224789143,-0.0,0.0,0.0,0.0,-0.00908941775560379,-0.004489365965127945,0.0011818127240985632,15430.0,15000.0,14994.0,13187.0,0.5392895340919495,0.50808185338974,0.5076842308044434,0.3867265284061432,0.0,0.0,0.0,0.0,0.0,0.0,0.0,0.0,1.943598747253418,0.04519267354931702,0.2010312853106508,0.18755758949368734,0.006965044420212507,-0.12126874178647995,0.0,-0.03370388224720955,-0.001448830240406096,0.0
414,5,-0.0016349760117009282,-0.0010265151504427195,0.004006719682365656,-0.0015491313533857465,0.009123016148805618,-0.030708787962794304,0.015610759146511555,-0.00012575827713590115,-0.004922050517052412,0.0,0.0,0.0,0.0,0.0,0.0,-0.020954620093107224,-0.002092886483296752,-0.0,0.0,0.0,0.0,-0.007550911512225866,-0.010691073723137379,0.002247842727228999,15190.0,15101.0,15663.0,12552.0,0.5217414498329163,0.5153041481971741,0.5566089153289795,0.3481276333332062,0.0,0.0,0.0,0.0,0.0,0.0,0.0,0.0,1.8147104978561401,0.046855000435957986,0.20523981648454753,0.18689972972116953,0.00914975069463253,-0.07047546654939651,-0.0,-0.03350500762462616,-0.0014675508718937635,0.0
419,5,-0.0016349760117009282,-0.0010265151504427195,0.004006719682365656,-0.0015491313533857465,0.009123016148805618,-0.030708787962794304,0.015610759146511555,-0.00012575827713590115,-0.004922050517052412,0.0,0.0,0.0,0.0,0.0,0.0,-0.020954620093107224,-0.002092886483296752,-0.0,0.0,0.0,0.0,-0.007550911512225866,-0.010691073723137379,0.002247842727228999,15190.0,15101.0,15663.0,12552.0,0.5217414498329163,0.5153041481971741,0.5566089153289795,0.3481276333332062,0.0,0.0,0.0,0.0,0.0,0.0,0.0,0.0,1.8147104978561401,0.046855000435957986,0.20523981648454753,0.18689972972116953,0.00914975069463253,-0.07047546654939651,-0.0,-0.03350500762462616,-0.0014675508718937635,0.0
424,5,-0.001807786407880485,-0.0009043838945217431,0.004007096402347088,-0.0015491313533857465,0.009123016148805618,-0.030708787962794304,0.013246085494756699,0.007020039949566126,-0.004172210115939379,0.0,0.0,0.0,0.0,0.0,0.0,-0.012364746071398258,-0.003554329741746187,-0.0,0.0,0.0,0.0,-0.006998066790401936,-0.013384143821895123,0.0008902843110263348,14449.0,15734.0,15310.0,13107.0,0.46943601965904236,0.5619314908981323,0.5305039882659912,0.3817271590232849,0.0,0.0,0.0,0.0,0.0,0.0,0.0,0.0,1.7399355173110962,0.04113382580540912,0.19080406178814147,0.1895242450478933,0.014900767244398594,-0.03987555950880051,0.0,-0.03367307782173157,-0.0014880304224789143,0.0
429,5,-0.001807786407880485,-0.0009043838945217431,0.004007096402347088,-0.0015491313533857465,0.009123016148805618,-0.030708787962794304,0.013246085494756699,0.007020039949566126,-0.004172210115939379,0.0,0.0,0.0,0.0,0.0,0.0,-0.012364746071398258,-0.003554329741746187,-0.0,0.0,0.0,0.0,-0.006998066790401936,-0.013384143821895123,0.0008902843110263348,14449.0,15734.0,15310.0,13107.0,0.46943601965904236,0.5619314908981323,0.5305039882659912,0.3817271590232849,0.0,0.0,0.0,0.0,0.0,0.0,0.0,0.0,1.7399355173110962,0.04113382580540912,0.19080406178814147,0.1895242450478933,0.014900767244398594,-0.03987555950880051,0.0,-0.03367307782173157,-0.0014880304224789143,0.0
434,5,-0.0019484703661873937,-0.0008664887282066047,0.004110513720661402,-0.017501726746559143,-0.0008982071885839105,-0.024693557992577553,0.011463873088359833,0.011019537225365639,-0.0038824155926704407,0.0,0.0,0.0,0.0,0.0,0.0,-0.01216253824532032,-0.0037841391749680042,-0.0,0.0,0.0,0.0,-0.003933564759790897,-0.012438100762665272,0.0008565541356801987,14039.0,14884.0,15133.0,12678.0,0.4417027235031128,0.4998164772987366,0.5176180005073547,0.35557329654693604,0.0,0.0,0.0,0.0,0.0,0.0,0.0,0.0,1.7392030954360962,0.04248772099377466,0.18727522253884926,0.19076541376056666,0.015857551246881485,-0.03920700028538704,0.0,-0.020954620093107224,-0.002092886483296752,0.0
439,5,-0.0019484703661873937,-0.0008664887282066047,0.004110513720661402,-0.017501726746559143,-0.0008982071885839105,-0.024693557992577553,0.011463873088359833,0.011019537225365639,-0.0038824155926704407,0.0,0.0,0.0,0.0,0.0,0.0,-0.01216253824532032,-0.0037841391749680042,-0.0,0.0,0.0,0.0,-0.003933564759790897,-0.012438100762665272,0.0008565541356801987,14039.0,14884.0,15133.0,12678.0,0.4417027235031128,0.4998164772987366,0.5176180005073547,0.35557329654693604,0.0,0.0,0.0,0.0,0.0,0.0,0.0,0.0,1.7392030954360962,0.04248772099377466,0.18727522253884926,0.19076541376056666,0.015857551246881485,-0.03920700028538704,0.0,-0.020954620093107224,-0.002092886483296752,0.0
444,5,-0.0019818299915641546,-0.001111468649469316,0.0034607979469001293,-0.017501726746559143,-0.0008982071885839105,-0.024693557992577553,0.008730180561542511,0.014747794717550278,-0.0035229315981268883,0.0,0.0,0.0,0.0,0.0,0.0,-0.00041955619235523045,-0.017353950068354607,-0.0,0.0,0.0,0.0,-0.0015956711722537875,-0.009827070869505405,-3.1472245609620586e-05,13357.0,14697.0,14463.0,13167.0,0.3973875939846039,0.48666760325431824,0.47041741013526917,0.3854629099369049,0.0,0.0,0.0,0.0,0.0,0.0,0.0,0.0,1.8285547494888306,0.0501036585741697,0.16934897391860282,0.19262452138731498,0.07646036893129349,-0.001422023051418364,0.0,-0.012364746071398258,-0.003554329741746187,0.0
450,5,-0.0019818299915641546,-0.001111468649469316,0.0034607979469001293,-0.017501726746559143,-0.0008982071885839105,-0.024693557992577553,0.008730180561542511,0.014747794717550278,-0.0035229315981268883,0.0,0.0,0.0,0.0,0.0,0.0,-0.00041955619235523045,-0.017353950068354607,-0.0,0.0,0.0,0.0,-0.0015956711722537875,-0.009827070869505405,-3.1472245609620586e-05,13357.0,14697.0,14463.0,13167.0,0.3973875939846039,0.48666760325431824,0.47041741013526917,0.3854629099369049,0.0,0.0,0.0,0.0,0.0,0.0,0.0,0.0,1.8285547494888306,0.0501036585741697,0.16934897391860282,0.19262452138731498,0.07646036893129349,-0.001422023051418364,0.0,-0.012364746071398258,-0.003554329741746187,0.0
455,5,-0.0021086966153234243,-0.0010875251609832048,0.0032848361879587173,-0.017501726746559143,-0.0008982071885839105,-0.024693557992577553,0.00691978819668293,0.015972087159752846,-0.0034164609387516975,0.0,0.0,0.0,0.0,0.0,0.0,-0.0008179772412404418,-0.01739158295094967,-0.0,0.0,0.0,0.0,0.00017287889204453677,-0.008327482268214226,-0.0002839270746335387,13409.0,14603.0,14310.0,13374.0,0.4006863832473755,0.4801201820373535,0.4599362015724182,0.398460328578949,0.0,0.0,0.0,0.0,0.0,0.0,0.0,0.0,1.8291428089141846,0.042027620412654176,0.16455889728927406,0.19721094841501335,0.07665078341960907,-0.0027733028400689363,0.0,-0.00041955619235523045,-0.017353950068354607,0.0
460,5,-0.0021086966153234243,-0.0010875251609832048,0.0032848361879587173,-0.017501726746559143,-0.0008982071885839105,-0.024693557992577553,0.00691978819668293,0.015972087159752846,-0.0034164609387516975,0.0,0.0,0.0,0.0,0.0,0.0,-0.0008179772412404418,-0.01739158295094967,-0.0,0.0,0.0,0.0,0.00017287889204453677,-0.008327482268214226,-0.0002839270746335387,13409.0,14603.0,14310.0,13374.0,0.4006863832473755,0.4801201820373535,0.4599362015724182,0.398460328578949,0.0,0.0,0.0,0.0,0.0,0.0,0.0,0.0,1.8291428089141846,0.042027620412654176,0.16455889728927406,0.19721094841501335,0.07665078341960907,-0.0027733028400689363,0.0,-0.00041955619235523045,-0.017353950068354607,0.0
465,5,-0.0022237212397158146,-0.001054997555911541,0.0032178086694329977,-0.020803652703762054,-0.004262592177838087,-0.0018341131508350372,0.005272941198199987,0.015972688794136047,-0.0034330140333622694,0.0,0.0,0.0,0.0,0.0,0.0,-0.0007794871926307678,-0.01753423921763897,-0.0,0.0,0.0,0.0,-0.0009380134288221598,-0.006676149554550648,8.315045124618337e-05,13522.0,14980.0,14629.0,13895.0,0.40788593888282776,0.5066438317298889,0.4818967282772064,0.4321282207965851,0.0,0.0,0.0,0.0,0.0,0.0,0.0,0.0,1.830952763557434,0.04384795279365559,0.15906150492291735,0.19817869128921975,0.07735592871904373,-0.0026454199105501175,0.0,-0.0008179772412404418,-0.01739158295094967,0.0
470,5,-0.0022237212397158146,-0.001054997555911541,0.0032178086694329977,-0.020803652703762054,-0.004262592177838087,-0.0018341131508350372,0.005272941198199987,0.015972688794136047,-0.0034330140333622694,0.0,0.0,0.0,0.0,0.0,0.0,-0.0007794871926307678,-0.01753423921763897,-0.0,0.0,0.0,0.0,-0.0009380134288221598,-0.006676149554550648,8.315045124618337e-05,13522.0,14980.0,14629.0,13895.0,0.40788593888282776,0.5066438317298889,0.4818967282772064,0.4321282207965851,0.0,0.0,0.0,0.0,0.0,0.0,0.0,0.0,1.830952763557434,0.04384795279365559,0.15906150492291735,0.19817869128921975,0.07735592871904373,-0.0026454199105501175,0.0,-0.0008179772412404418,-0.01739158295094967,0.0
475,5,-0.002125424100086093,-0.0009869738714769483,0.0034734865184873343,0.003474190831184387,-0.009867879562079906,-0.031415000557899475,0.004866566509008408,0.015071374364197254,-0.003333497093990445,0.0,0.0,0.0,0.0,0.0,0.0,0.002933809068053961,-0.02010384388267994,-0.0,0.0,0.0,0.0,-0.0015823019202798605,-0.006401678081601858,9.542074622004293e-06,13915.0,14744.0,14685.0,13708.0,0.4334878623485565,0.48991915583610535,0.48583945631980896,0.41989633440971375,0.0,0.0,0.0,0.0,0.0,0.0,0.0,0.0,1.8658020496368408,0.046858471455220756,0.17831196146742914,0.19475352885995315,0.09037856757640839,0.01014623325318098,0.0,-0.0008179772412404418,-0.01739158295094967,0.0
480,5,-0.002125424100086093,-0.0009869738714769483,0.0034734865184873343,0.003474190831184387,-0.009867879562079906,-0.031415000557899475,0.004866566509008408,0.015071374364197254,-0.003333497093990445,0.0,0.0,0.0,0.0,0.0,0.0,0.002933809068053961,-0.02010384388267994,-0.0,0.0,0.0,0.0,-0.0015823019202798605,-0.006401678081601858,9.542074622004293e-06,13915.0,14744.0,14685.0,13708.0,0.4334878623485565,0.48991915583610535,0.48583945631980896,0.41989633440971375,0.0,0.0,0.0,0.0,0.0,0.0,0.0,0.0,1.8658020496368408,0.046858471455220756,0.17831196146742914,0.19475352885995315,0.09037856757640839,0.01014623325318098,0.0,-0.0008179772412404418,-0.01739158295094967,0.0
485,5,-0.0023316615261137486,-0.0009155195439234376,0.003312415210530162,0.003474190831184387,-0.009867879562079906,-0.031415000557899475,0.00503460131585598,0.013713800348341465,-0.0032363159116357565,0.0,0.0,0.0,0.0,0.0,0.0,0.009946001693606377,0.0002902848063968122,-0.0,0.0,0.0,0.0,-0.0017734752036631107,-0.007870417088270187,0.00013447178935166448,13940.0,14815.0,14776.0,13534.0,0.43514078855514526,0.49497243762016296,0.492196261882782,0.40864330530166626,0.0,0.0,0.0,0.0,0.0,0.0,0.0,0.0,1.7106953859329224,0.042428306676563145,0.1651659580252617,0.1968822437669816,-0.0011965404264628887,0.031536735594272614,0.0,-0.0007794871926307678,-0.01753423921763897,0.0
490,5,-0.0023316615261137486,-0.0009155195439234376,0.003312415210530162,0.003474190831184387,-0.009867879562079906,-0.031415000557899475,0.00503460131585598,0.013713800348341465,-0.0032363159116357565,0.0,0.0,0.0,0.0,0.0,0.0,0.009946001693606377,0.0002902848063968122,-0.0,0.0,0.0,0.0,-0.0017734752036631107,-0.007870417088270187,0.00013447178935166448,13940.0,14815.0,14776.0,13534.0,0.43514078855514526,0.49497243762016296,0.492196261882782,0.40864330530166626,0.0,0.0,0.0,0.0,0.0,0.0,0.0,0.0,1.7106953859329224,0.042428306676563145,0.1651659580252617,0.1968822437669816,-0.0011965404264628887,0.031536735594272614,0.0,-0.0007794871926307678,-0.01753423921763897,0.0
