timestamp,dt,pos_x,pos_y,pos_z,vel_x,vel_y,vel_z,roll,pitch,yaw,agv_x,agv_y,agv_z,x_ref,y_ref,z_ref,roll_ref,pitch_ref,yaw_ref,x_vel_ref,y_vel_ref,z_vel_ref,x_torque,y_torque,z_torque,w0,w1,w2,w3,u0,u1,u2,u3,m0req,m1req,m2req,m3req,thrust0,thrust1,thrust2,thrust3,thrust_ref,roll_vicon,pitch_vicon,yaw_vicon,acc_x,acc_y,acc_z,roll_received,pitch_received,yaw_received
5,5,0.0,0.0,0.0,0.0001302100863540545,0.0003264272818341851,-0.002264337847009301,0.0,0.0,0.0,0.0,0.0,0.0,0.0,0.0,0.0,-0.0004053236043546349,0.00012437031546141952,-0.0,0.0,0.0,0.0,0.0,0.0,0.0,0.0,0.0,0.0,0.0,0.0,0.0,0.0,0.0,0.0,0.0,0.0,0.0,0.0,0.0,0.0,0.0,1.6293234825134277,0.047754693408325354,-0.007950725448859473,0.00817597488709118,-0.0004882878274656832,-0.0012241023359820247,0.0,0.0,0.0,0.0
32,27,0.0,0.0,0.0,-0.0002970856730826199,7.82968618295854e-06,-0.001486626686528325,0.0,0.0,0.0,0.0,0.0,0.0,0.0,0.0,0.0,-0.0004053236043546349,0.00012437031546141952,-0.0,0.0,0.0,0.0,0.0,0.0,0.0,0.0,0.0,0.0,0.0,0.0,0.0,0.0,0.0,0.0,0.0,0.0,0.0,0.0,0.0,0.0,0.0,1.6293234825134277,0.04779755364190475,-0.007587084332350251,0.008190475494669799,-0.0004882878274656832,-0.0012241023359820247,0.0,0.0,0.0,0.0
37,5,0.0,0.0,0.0,-0.00018450968491379172,-0.00016969302669167519,-0.0007709083729423583,0.0,0.0,0.0,0.0,0.0,0.0,0.0,0.0,0.0,-9.72539055510424e-06,-0.000283857953036204,-0.0,0.0,0.0,0.0,0.0,0.0,0.0,0.0,0.0,0.0,0.0,0.0,0.0,0.0,0.0,0.0,0.0,0.0,0.0,0.0,0.0,0.0,0.0,1.6287709474563599,0.047712798570540574,-0.007447837028055593,0.008045537564882767,0.001114071230404079,-2.9361322958720848e-05,0.0,0.0,0.0,0.0
43,5,0.0,0.0,0.0,0.001990803750231862,-8.656055433675647e-05,0.0017650286899879575,0.0,0.0,0.0,0.0,0.0,0.0,0.0,0.0,0.0,-9.72539055510424e-06,-0.000283857953036204,-0.0,0.0,0.0,0.0,0.0,0.0,0.0,0.0,0.0,0.0,0.0,0.0,0.0,0.0,0.0,0.0,0.0,0.0,0.0,0.0,0.0,0.0,0.0,1.6287709474563599,0.047990025844842556,-0.0076870543668075475,0.008238351766865822,-0.0074655138887465,0.0003246020642109215,0.0,0.0,0.0,0.0
48,5,0.0,0.0,0.0,-0.0002520574489608407,0.0001755663106450811,-0.0012153304414823651,0.0,0.0,0.0,0.0,0.0,0.0,0.0,0.0,0.0,0.00010639271204126999,0.0018822496058419347,-0.0,0.0,0.0,0.0,0.0,0.0,0.0,0.0,0.0,0.0,0.0,0.0,0.0,0.0,0.0,0.0,0.0,0.0,0.0,0.0,0.0,0.0,0.0,1.6460038423538208,0.04756101505541682,-0.007906145014644277,0.008326800806838137,-0.0074655138887465,0.0003246020642109215,0.0,0.0,0.0,0.0
54,6,-4.34960747952573e-06,4.062946572958026e-06,1.6206047803279944e-05,-0.0006227758713066578,-0.00041732710087671876,-0.0024308578576892614,0.0,0.0,0.0,0.0,0.0,0.0,0.0,0.0,0.0,0.0005242650513537228,-0.0005994188832119107,-0.0,0.0,0.0,0.0,0.0,0.0,0.0,0.0,0.0,0.0,0.0,0.0,0.0,0.0,0.0,0.0,0.0,0.0,0.0,0.0,0.0,0.0,0.0,1.6334645748138428,0.04721459933448345,-0.00801965655077092,0.008383171071511182,0.002359347650781274,0.0015873369993641973,0.0,0.0,0.0,0.0
59,5,3.372171931914636e-06,-3.966781605413416e-06,-1.7054042018571636e-06,0.0006775031797587872,0.0007966365665197372,0.0011770310811698437,0.0,0.0,0.0,0.0,0.0,0.0,0.0,0.0,0.0,0.0005242650513537228,-0.0005994188832119107,-0.0,0.0,0.0,0.0,0.0,0.0,0.0,0.0,0.0,0.0,0.0,0.0,0.0,0.0,0.0,0.0,0.0,0.0,0.0,0.0,0.0,0.0,0.0,1.6334645748138428,0.04775864874825687,-0.008029098289145864,0.00815795063123549,0.002359347650781274,0.0015873369993641973,0.0,0.0,0.0,0.0
64,5,-6.842387847427744e-07,-6.483669949375326e-06,-7.812721378286369e-06,-0.0002157680137315765,0.0006206812104210258,0.0012036905391141772,0.0,0.0,0.0,0.0,0.0,0.0,0.0,0.0,0.0,0.0005242650513537228,-0.0005994188832119107,-0.0,0.0,0.0,0.0,0.0,0.0,0.0,0.0,0.0,0.0,0.0,0.0,0.0,0.0,0.0,0.0,0.0,0.0,0.0,0.0,0.0,0.0,0.0,1.6334645748138428,0.047404906408891355,-0.00810053176882043,0.008255591831515585,0.002359347650781274,0.0015873369993641973,0.0,0.0,0.0,0.0
69,5,-3.1032361675897846e-06,-9.342339239992725e-07,-2.8364080208120868e-05,-0.0003765868896152824,-0.00041765981586650014,0.0029476392082870007,0.0,0.0,0.0,0.0,0.0,0.0,0.0,0.0,0.0,-0.0007809713133610785,-0.00020664744079113007,-0.0,0.0,0.0,0.0,0.0,0.0,0.0,0.0,0.0,0.0,0.0,0.0,0.0,0.0,0.0,0.0,0.0,0.0,0.0,0.0,0.0,0.0,0.0,1.6325299739837646,0.0477914073379996,-0.007729803371578435,0.008161779729085477,0.0008129109628498554,-0.0023632231168448925,0.0,0.0,0.0,0.0
76,6,-7.992460268724244e-06,-3.842999376502121e-06,-1.6372190657421015e-05,-0.0010775193804875016,-0.0002690703549887985,-0.002139509655535221,0.0,0.0,0.0,0.0,0.0,0.0,0.0,0.0,0.0,0.0003255341434851289,-0.0010354288388043642,-0.0,0.0,0.0,0.0,0.0,0.0,0.0,0.0,0.0,0.0,0.0,0.0,0.0,0.0,0.0,0.0,0.0,0.0,0.0,0.0,0.0,0.0,0.0,1.6371492147445679,0.047929049852766505,-0.007630094842372386,0.008095909907664857,0.0040847016498446465,0.0009878553682938218,0.0,0.0,0.0,0.0
81,5,-1.0734363968367688e-05,3.57846010956564e-06,6.42324175714748e-06,-0.0007600361132062972,-0.0009982032934203744,-0.0035912557505071163,0.0,0.0,0.0,0.0,0.0,0.0,0.0,0.0,0.0,0.0003255341434851289,-0.0010354288388043642,-0.0,0.0,0.0,0.0,0.0,0.0,0.0,0.0,0.0,0.0,0.0,0.0,0.0,0.0,0.0,0.0,0.0,0.0,0.0,0.0,0.0,0.0,0.0,1.6371492147445679,0.047768879277098227,-0.007619178807598039,0.008043601589453867,0.0040847016498446465,0.0009878553682938218,0.0,0.0,0.0,0.0
86,5,7.945741344883572e-06,-2.443208359181881e-06,-7.836877557565458e-06,0.0019375982228666544,0.0003233189054299146,0.00027471198700368404,0.0,0.0,0.0,0.0,0.0,0.0,0.0,0.0,0.0,-0.00040185003308579326,0.001843143254518509,-0.0,0.0,0.0,0.0,0.0,0.0,0.0,0.0,0.0,0.0,0.0,0.0,0.0,0.0,0.0,0.0,0.0,0.0,0.0,0.0,0.0,0.0,0.0,1.6458394527435303,0.0478417778024233,-0.007693383235629259,0.008319527400200142,-0.007309677079319954,-0.0012259139912202954,0.0,0.0,0.0,0.0
91,5,4.4090475057601e-06,3.176673999405466e-06,6.8527410803653765e-06,0.00035063596442341805,-0.0005450582830235362,-0.0016528693959116936,0.0,0.0,0.0,0.0,0.0,0.0,0.0,0.0,0.0,-0.00040185003308579326,0.001843143254518509,-0.0,0.0,0.0,0.0,0.0,0.0,0.0,0.0,0.0,0.0,0.0,0.0,0.0,0.0,0.0,0.0,0.0,0.0,0.0,0.0,0.0,0.0,0.0,1.6458394527435303,0.04785928374107274,-0.007754723585368644,0.008143168027092565,-0.007309677079319954,-0.0012259139912202954,0.0,0.0,0.0,0.0
96,5,2.3434643026121194e-06,9.17340628348029e-07,4.11129258282017e-06,-0.00010761556768557057,5.309667903929949e-05,-0.0003321739786770195,0.0,0.0,0.0,0.0,0.0,0.0,0.0,0.0,0.0,-6.43024395685643e-05,-9.956139547284693e-05,-0.0,0.0,0.0,0.0,0.0,0.0,0.0,0.0,0.0,0.0,0.0,0.0,0.0,0.0,0.0,0.0,0.0,0.0,0.0,0.0,0.0,0.0,0.0,1.6284600496292114,0.047732939259396666,-0.00795170230391627,0.008174030534747004,0.00039067890611477196,-0.0001940944348461926,0.0,0.0,0.0,0.0
107,11,-2.607471515148063e-06,-1.8026936743353872e-07,-2.605058762128465e-05,-0.000331736053340137,0.0002740476338658482,0.0025107336696237326,0.0,0.0,0.0,0.0,0.0,0.0,0.0,0.0,0.0,-6.43024395685643e-05,-9.956139547284693e-05,-0.0,0.0,0.0,0.0,0.0,0.0,0.0,0.0,0.0,0.0,0.0,0.0,0.0,0.0,0.0,0.0,0.0,0.0,0.0,0.0,0.0,0.0,0.0,1.6284600496292114,0.04766673297599254,-0.007908165420523632,0.008451049830396186,0.00039067890611477196,-0.0001940944348461926,0.0,0.0,0.0,0.0
112,5,-3.888753212777374e-07,-7.867995009291917e-06,-2.4412176571786404e-05,0.0001335371343884617,0.0010321461595594883,0.0008076841477304697,0.0,0.0,0.0,0.0,0.0,0.0,0.0,0.0,0.0,-0.0003404470917303115,-0.000320351478876546,-0.0,0.0,0.0,0.0,0.0,0.0,0.0,0.0,0.0,0.0,0.0,0.0,0.0,0.0,0.0,0.0,0.0,0.0,0.0,0.0,0.0,0.0,0.0,1.6301581859588623,0.04794241215537081,-0.007870657532327777,0.00827595489735533,0.0012583700008690357,-0.0010286980541422963,0.0,0.0,0.0,0.0
117,5,-9.408165169588756e-06,3.865561666316353e-07,-1.1870508842548588e-06,-0.0010288999183103442,-0.0005776876932941377,-0.0024639414623379707,0.0,0.0,0.0,0.0,0.0,0.0,0.0,0.0,0.0,-0.0003404470917303115,-0.000320351478876546,-0.0,0.0,0.0,0.0,0.0,0.0,0.0,0.0,0.0,0.0,0.0,0.0,0.0,0.0,0.0,0.0,0.0,0.0,0.0,0.0,0.0,0.0,0.0,1.6301581859588623,0.0478044151142852,-0.007846669995261882,0.008088886210635249,0.0012583700008690357,-0.0010286980541422963,0.0,0.0,0.0,0.0
122,5,-3.2219559216173366e-06,-1.8533219190430827e-06,-2.193065711253439e-06,0.0003307851147837937,3.771029514609836e-05,-0.0008648547809571028,0.0,0.0,0.0,0.0,0.0,0.0,0.0,0.0,0.0,0.0007142579997889698,-0.0009907465428113937,-0.0,0.0,0.0,0.0,0.0,0.0,0.0,0.0,0.0,0.0,0.0,0.0,0.0,0.0,0.0,0.0,0.0,0.0,0.0,0.0,0.0,0.0,0.0,1.6378777027130127,0.047570672360472584,-0.008080395938554636,0.00829663721179783,0.0039101713337004185,0.00216842838563025,0.0,0.0,0.0,0.0
127,5,-5.565570404542086e-07,3.885011210513767e-06,4.856892246607458e-06,0.0004521619121078402,-0.0006735158385708928,-0.0011919368989765644,0.0,0.0,0.0,0.0,0.0,0.0,0.0,0.0,0.0,0.0008409355650655925,0.00042984375613741577,-0.0,0.0,0.0,0.0,0.0,0.0,0.0,0.0,0.0,0.0,0.0,0.0,0.0,0.0,0.0,0.0,0.0,0.0,0.0,0.0,0.0,0.0,0.0,1.6340464353561401,0.04739834957630906,-0.007981739021251122,0.008135799026859285,-0.001692492514848709,0.0025470389518886805,0.0,0.0,0.0,0.0
134,7,3.0167045679263538e-06,6.066911417690335e-10,5.4028519116400275e-06,0.0006096561555750668,0.00019672219059430063,-0.0005422899266704917,0.0,0.0,0.0,0.0,0.0,0.0,0.0,0.0,0.0,0.0008409355650655925,0.00042984375613741577,-0.0,0.0,0.0,0.0,0.0,0.0,0.0,0.0,0.0,0.0,0.0,0.0,0.0,0.0,0.0,0.0,0.0,0.0,0.0,0.0,0.0,0.0,0.0,1.6340464353561401,0.047653207059352484,-0.007527233124330611,0.007954792496111415,-0.001692492514848709,0.0025470389518886805,0.0,0.0,0.0,0.0
139,5,1.7498217857792042e-05,-4.944546162732877e-06,-1.9008917661267333e-05,0.001981644192710519,0.0006721072131767869,0.0027124963235110044,0.0,0.0,0.0,0.0,0.0,0.0,0.0,0.0,0.0,0.0008409355650655925,0.00042984375613741577,-0.0,0.0,0.0,0.0,0.0,0.0,0.0,0.0,0.0,0.0,0.0,0.0,0.0,0.0,0.0,0.0,0.0,0.0,0.0,0.0,0.0,0.0,0.0,1.6340464353561401,0.04752151333844635,-0.007439262492545657,0.008023607578735876,-0.001692492514848709,0.0025470389518886805,0.0,0.0,0.0,0.0
145,5,4.994263917978969e-07,7.294660235857009e-07,2.2636542780674063e-05,-0.0012471973896026611,-0.0004120385565329343,-0.003912456799298525,0.0,0.0,0.0,0.0,0.0,0.0,0.0,0.0,0.0,-0.0008343691006302834,0.001896378700621426,-0.0,0.0,0.0,0.0,0.0,0.0,0.0,0.0,0.0,0.0,0.0,0.0,0.0,0.0,0.0,0.0,0.0,0.0,0.0,0.0,0.0,0.0,0.0,1.6472867727279663,0.047804418711926984,-0.007770698430043341,0.008028406943138375,-0.0075274137780070305,-0.002547627314925194,0.0,0.0,0.0,0.0
150,6,-1.202200905936479e-06,-1.7672258536549634e-06,2.73414627827151e-07,-0.0003472794487606734,3.0305103791761212e-05,0.0003354197833687067,0.0,0.0,0.0,0.0,0.0,0.0,0.0,0.0,0.0,-0.0008343691006302834,0.001896378700621426,-0.0,0.0,0.0,0.0,0.0,0.0,0.0,0.0,0.0,0.0,0.0,0.0,0.0,0.0,0.0,0.0,0.0,0.0,0.0,0.0,0.0,0.0,0.0,1.6472867727279663,0.04766266220993234,-0.00810000755226423,0.008404616726425071,-0.0075274137780070305,-0.002547627314925194,0.0,0.0,0.0,0.0
155,5,-1.202200905936479e-06,-1.7672258536549634e-06,2.73414627827151e-07,-0.0003472794487606734,3.0305103791761212e-05,0.0003354197833687067,0.0,0.0,0.0,0.0,0.0,0.0,0.0,0.0,0.0,-4.0860410081222653e-05,-0.00033338938374072313,-0.0,0.0,0.0,0.0,0.0,0.0,0.0,0.0,0.0,0.0,0.0,0.0,0.0,0.0,0.0,0.0,0.0,0.0,0.0,0.0,0.0,0.0,0.0,1.6293147802352905,0.04766266220993234,-0.00810000755226423,0.008404616726425071,0.001308906590566039,-0.00012340031389612705,0.0,0.0,0.0,0.0
160,5,-1.7141179341706447e-05,5.88009288549074e-06,-2.0727804439957254e-05,-0.0015707656275480986,-0.0010019853943958879,0.0011555675882846117,0.0,0.0,0.0,0.0,0.0,0.0,0.0,0.0,0.0,-4.0860410081222653e-05,-0.00033338938374072313,-0.0,0.0,0.0,0.0,0.0,0.0,0.0,0.0,0.0,0.0,0.0,0.0,0.0,0.0,0.0,0.0,0.0,0.0,0.0,0.0,0.0,0.0,0.0,1.6293147802352905,0.047783504943189586,-0.007813121786348477,0.008271289004732812,0.001308906590566039,-0.00012340031389612705,0.0,0.0,0.0,0.0
165,5,-1.4755867596250027e-05,2.452267438002309e-07,-3.052427928196266e-05,-0.0003420689608901739,0.00027538975700736046,0.00163780408911407,0.0,0.0,0.0,0.0,0.0,0.0,0.0,0.0,0.0,0.001242942875251174,-0.0015098643489181995,-0.0,0.0,0.0,0.0,0.0,0.0,0.0,0.0,0.0,0.0,0.0,0.0,0.0,0.0,0.0,0.0,0.0,0.0,0.0,0.0,0.0,0.0,0.0,1.644952416419983,0.0474371900283137,-0.008063527240084722,0.008510177574839019,0.0059847040101885796,0.0037897699512541294,0.0,0.0,0.0,0.0
170,5,-3.724435146068572e-06,-7.211033789644716e-06,-3.192796793882735e-05,0.0011869443114846945,0.0010049071861431003,0.0008235640125349164,0.0,0.0,0.0,0.0,0.0,0.0,0.0,0.0,0.0,0.001242942875251174,-0.0015098643489181995,-0.0,0.0,0.0,0.0,0.0,0.0,0.0,0.0,0.0,0.0,0.0,0.0,0.0,0.0,0.0,0.0,0.0,0.0,0.0,0.0,0.0,0.0,0.0,1.644952416419983,0.047590976121974916,-0.007927305175356685,0.008123387093202865,0.0059847040101885796,0.0037897699512541294,0.0,0.0,0.0,0.0
175,5,-1.5749619706184603e-06,-3.1527079045190476e-06,-2.934333861048799e-05,0.000732714484911412,-8.503624121658504e-05,1.9270188204245642e-05,0.0,0.0,0.0,0.0,0.0,0.0,0.0,0.0,0.0,-0.0012515125563368201,0.0011200433364138007,-0.0,0.0,0.0,0.0,0.0,0.0,0.0,0.0,0.0,0.0,0.0,0.0,0.0,0.0,0.0,0.0,0.0,0.0,0.0,0.0,0.0,0.0,0.0,1.6415919065475464,0.04761408047716407,-0.007585958177854695,0.008422143707473259,-0.004430487286299467,-0.003808103734627366,0.0,0.0,0.0,0.0
181,5,1.0425410437164828e-05,-1.578886667630286e-06,-9.441565453016665e-06,0.00173313042614609,-0.00022287304454948753,-0.0023805047385394573,0.0,0.0,0.0,0.0,0.0,0.0,0.0,0.0,0.0,-0.0012515125563368201,0.0011200433364138007,-0.0,0.0,0.0,0.0,0.0,0.0,0.0,0.0,0.0,0.0,0.0,0.0,0.0,0.0,0.0,0.0,0.0,0.0,0.0,0.0,0.0,0.0,0.0,1.6415919065475464,0.047613648204491356,-0.007866954053789293,0.008407977165946838,-0.004430487286299467,-0.003808103734627366,0.0,0.0,0.0,0.0
186,5,1.1493351848912425e-05,-2.804515588650247e-06,5.121311460243305e-06,0.0008214051485992968,5.7926248700823635e-05,-0.002699746983125806,0.0,0.0,0.0,0.0,0.0,0.0,0.0,0.0,0.0,-0.0012515125563368201,0.0011200433364138007,-0.0,0.0,0.0,0.0,0.0,0.0,0.0,0.0,0.0,0.0,0.0,0.0,0.0,0.0,0.0,0.0,0.0,0.0,0.0,0.0,0.0,0.0,0.0,1.6415919065475464,0.047599632947300526,-0.007731061687494504,0.008143874717024263,-0.0031434535048902035,-0.00023269918165169656,0.0,0.0,0.0,0.0
191,5,1.485088978370186e-05,-6.159807526273653e-06,2.376372867729515e-05,0.00073146668728441,0.00042580554145388305,-0.0033169889356940985,0.0,0.0,0.0,0.0,0.0,0.0,0.0,0.0,0.0,-7.681644638068974e-05,0.0007982209208421409,-0.0,0.0,0.0,0.0,0.0,0.0,0.0,0.0,0.0,0.0,0.0,0.0,0.0,0.0,0.0,0.0,0.0,0.0,0.0,0.0,0.0,0.0,0.0,1.6343010663986206,0.04769482947287088,-0.007829660159106301,0.008161404187978966,-0.0031434535048902035,-0.00023269918165169656,0.0,0.0,0.0,0.0
196,5,2.210670936619863e-05,-6.949844191694865e-06,9.861262697086204e-06,0.001163284876383841,0.0002651266404427588,0.0003415003593545407,0.0,0.0,0.0,0.0,0.0,0.0,0.0,0.0,0.0,-0.0003400296554900706,0.0011358850169926882,-0.0,0.0,0.0,0.0,0.0,0.0,0.0,0.0,0.0,0.0,0.0,0.0,0.0,0.0,0.0,0.0,0.0,0.0,0.0,0.0,0.0,0.0,0.0,1.6382302045822144,0.047720659569045074,-0.007716768194655107,0.008014088950728807,-0.00448395311832428,-0.0010325242765247822,0.0,0.0,0.0,0.0
201,5,6.873568509035977e-06,-8.2350816228427e-06,9.478956599195953e-06,-0.00136266287881881,0.00026027910644188523,0.00018247692787554115,0.0,0.0,0.0,0.0,0.0,0.0,0.0,0.0,0.0,-0.0003400296554900706,0.0011358850169926882,-0.0,0.0,0.0,0.0,0.0,0.0,0.0,0.0,0.0,0.0,0.0,0.0,0.0,0.0,0.0,0.0,0.0,0.0,0.0,0.0,0.0,0.0,0.0,1.6382302045822144,0.047287489130977974,-0.008052119299959767,0.00831132673123904,-0.00448395311832428,-0.0010325242765247822,0.0,0.0,0.0,0.0
207,6,1.09162635908433e-06,-3.283614887550357e-06,-1.6531978417333448e-06,-0.001238898141309619,-0.0004900643252767622,0.0014088492607697845,0.0,0.0,0.0,0.0,0.0,0.0,0.0,0.0,0.0,0.0005988421617075801,-0.001174619304947555,-0.0,0.0,0.0,0.0,0.0,0.0,0.0,0.0,0.0,0.0,0.0,0.0,0.0,0.0,0.0,0.0,0.0,0.0,0.0,0.0,0.0,0.0,0.0,1.6392667293548584,0.04734911070281619,-0.008252328424695466,0.008407714439895594,0.004639791790395975,0.0018195773009210825,0.0,0.0,0.0,0.0
212,5,-3.030034804396564e-06,-8.784182682575192e-06,-2.3209906430565752e-05,-0.0009901586454361677,0.0004640424158424139,0.0031503448262810707,0.0,0.0,0.0,0.0,0.0,0.0,0.0,0.0,0.0,0.0005988421617075801,-0.001174619304947555,-0.0,0.0,0.0,0.0,0.0,0.0,0.0,0.0,0.0,0.0,0.0,0.0,0.0,0.0,0.0,0.0,0.0,0.0,0.0,0.0,0.0,0.0,0.0,1.6392667293548584,0.04743029559138289,-0.007728086290644541,0.008372702973271837,0.004639791790395975,0.0018195773009210825,0.0,0.0,0.0,0.0
217,5,-1.3380650671024341e-05,2.7095029508927837e-06,-2.7650796255329624e-05,-0.0016381373861804605,-0.0011936253868043423,0.0017930446192622185,0.0,0.0,0.0,0.0,0.0,0.0,0.0,0.0,0.0,0.0005988421617075801,-0.001174619304947555,-0.0,0.0,0.0,0.0,0.0,0.0,0.0,0.0,0.0,0.0,0.0,0.0,0.0,0.0,0.0,0.0,0.0,0.0,0.0,0.0,0.0,0.0,0.0,1.6392667293548584,0.047740669748928155,-0.007750034464957357,0.008186553426372029,0.004639791790395975,0.0018195773009210825,0.0,0.0,0.0,0.0
222,5,-1.089831130229868e-05,-4.61984564026352e-06,-3.714790000231005e-05,-0.0003573741705622524,0.0004020717169623822,0.00185687025077641,0.0,0.0,0.0,0.0,0.0,0.0,0.0,0.0,0.0,0.0014714794233441353,-0.0015668566338717937,-0.0,0.0,0.0,0.0,0.0,0.0,0.0,0.0,0.0,0.0,0.0,0.0,0.0,0.0,0.0,0.0,0.0,0.0,0.0,0.0,0.0,0.0,0.0,1.6465359926223755,0.04778697254440488,-0.008087507058724595,0.008225396820436225,0.0062165833078324795,0.004490903113037348,0.0,0.0,0.0,0.0
228,5,-1.2865067446909961e-06,2.9947472057756386e-07,-3.753879718715325e-05,0.0010104668326675892,-0.0004294897662475705,0.0007896559545770288,0.0,0.0,0.0,0.0,0.0,0.0,0.0,0.0,0.0,0.0014714794233441353,-0.0015668566338717937,-0.0,0.0,0.0,0.0,0.0,0.0,0.0,0.0,0.0,0.0,0.0,0.0,0.0,0.0,0.0,0.0,0.0,0.0,0.0,0.0,0.0,0.0,0.0,1.6465359926223755,0.047688795648676806,-0.007638280143430775,0.008421611615556846,0.0062165833078324795,0.004490903113037348,0.0,0.0,0.0,0.0
233,5,-4.0981876736623235e-07,4.219254606141476e-06,-1.2364272151899058e-05,0.0005093892687000334,-0.0006421694997698069,-0.0027050806675106287,0.0,0.0,0.0,0.0,0.0,0.0,0.0,0.0,0.0,0.000531338679138571,0.0009588912362232804,-0.0,0.0,0.0,0.0,0.0,0.0,0.0,0.0,0.0,0.0,0.0,0.0,0.0,0.0,0.0,0.0,0.0,0.0,0.0,0.0,0.0,0.0,0.0,1.6369025707244873,0.04750465168431835,-0.007715175149561583,0.008170413764305742,-0.0037821955047547817,0.0016121402150020003,0.0,0.0,0.0,0.0
238,5,1.3720426068175584e-05,3.918733909813454e-06,-6.544300504174316e-06,0.0018993851263076067,-0.00022080529015511274,-0.0017804289236664772,0.0,0.0,0.0,0.0,0.0,0.0,0.0,0.0,0.0,0.000531338679138571,0.0009588912362232804,-0.0,0.0,0.0,0.0,0.0,0.0,0.0,0.0,0.0,0.0,0.0,0.0,0.0,0.0,0.0,0.0,0.0,0.0,0.0,0.0,0.0,0.0,0.0,1.6369025707244873,0.0474140267622344,-0.00796867954535587,0.008236921644075936,-0.0037821955047547817,0.0016121402150020003,0.0,0.0,0.0,0.0
243,5,1.3720426068175584e-05,3.918733909813454e-06,-6.544300504174316e-06,0.0018993851263076067,-0.00022080529015511274,-0.0017804289236664772,0.0,0.0,0.0,0.0,0.0,0.0,0.0,0.0,0.0,0.00027853556093759835,0.0018155286088585854,-0.0,0.0,0.0,0.0,0.0,0.0,0.0,0.0,0.0,0.0,0.0,0.0,0.0,0.0,0.0,0.0,0.0,0.0,0.0,0.0,0.0,0.0,0.0,1.6453969478607178,0.0474140267622344,-0.00796867954535587,0.008236921644075936,-0.007198225241154432,0.0008494930807501078,0.0,0.0,0.0,0.0
248,5,1.7375516108586453e-05,-1.2051288649672642e-05,6.45961790723959e-06,0.0007348362123593688,0.0011976875830441713,-0.0003573633439373225,0.0,0.0,0.0,0.0,0.0,0.0,0.0,0.0,0.0,0.00027853556093759835,0.0018155286088585854,-0.0,0.0,0.0,0.0,0.0,0.0,0.0,0.0,0.0,0.0,0.0,0.0,0.0,0.0,0.0,0.0,0.0,0.0,0.0,0.0,0.0,0.0,0.0,1.6453969478607178,0.04735330305775545,-0.008077942766116467,0.008326701765624559,-0.007198225241154432,0.0008494930807501078,0.0,0.0,0.0,0.0
253,5,1.6437728845630772e-05,-1.5124958736123517e-05,3.919139544450445e-06,0.0001813999260775745,0.0008479154785163701,0.00016191211761906743,0.0,0.0,0.0,0.0,0.0,0.0,0.0,0.0,0.0,-0.0014990264317020774,0.000721381395123899,-0.0,0.0,0.0,0.0,0.0,0.0,0.0,0.0,0.0,0.0,0.0,0.0,0.0,0.0,0.0,0.0,0.0,0.0,0.0,0.0,0.0,0.0,0.0,1.640330195426941,0.047935405393992186,-0.007972021800582606,0.00841612677155799,-0.0028513306751847267,-0.004557732492685318,0.0,0.0,0.0,0.0
258,5,-1.7405367316314369e-06,-1.0179457603953779e-05,5.305177637637826e-06,-0.0021088318899273872,-0.00025429396191611886,-0.00010155972267966717,0.0,0.0,0.0,0.0,0.0,0.0,0.0,0.0,0.0,-0.0014990264317020774,0.000721381395123899,-0.0,0.0,0.0,0.0,0.0,0.0,0.0,0.0,0.0,0.0,0.0,0.0,0.0,0.0,0.0,0.0,0.0,0.0,0.0,0.0,0.0,0.0,0.0,1.640330195426941,0.04763949476370786,-0.007908414970729548,0.008320216431333766,-0.0028513306751847267,-0.004557732492685318,0.0,0.0,0.0,0.0
263,5,-2.0592625560311717e-07,-1.2454084753699135e-05,-1.4568867300113197e-05,-0.0006593794678337872,0.00017123766883742064,0.0023442613892257214,0.0,0.0,0.0,0.0,0.0,0.0,0.0,0.0,0.0,0.00029391449061222374,-0.0019946000538766384,-0.0,0.0,0.0,0.0,0.0,0.0,0.0,0.0,0.0,0.0,0.0,0.0,0.0,0.0,0.0,0.0,0.0,0.0,0.0,0.0,0.0,0.0,0.0,1.6473445892333984,0.04732317721903625,-0.007925935946451357,0.008375448808927372,0.007917569018900394,0.0008974577067419887,0.0,0.0,0.0,0.0
268,5,-8.842011993692722e-06,2.9571042432507966e-06,-2.002763721975498e-06,-0.0013000820763409138,-0.0017808475531637669,-0.0005702278576791286,0.0,0.0,0.0,0.0,0.0,0.0,0.0,0.0,0.0,0.00029391449061222374,-0.0019946000538766384,-0.0,0.0,0.0,0.0,0.0,0.0,0.0,0.0,0.0,0.0,0.0,0.0,0.0,0.0,0.0,0.0,0.0,0.0,0.0,0.0,0.0,0.0,0.0,1.6473445892333984,0.04726108460563401,-0.007878898383034334,0.008079660010964392,0.007917569018900394,0.0008974577067419887,0.0,0.0,0.0,0.0
273,5,-3.617279162426712e-06,1.3369800626605866e-06,-2.517214852559846e-05,0.00010693512012949213,-0.0005179241416044533,0.002552235033363104,0.0,0.0,0.0,0.0,0.0,0.0,0.0,0.0,0.0,0.002191131701692939,-0.0012397246900945902,-0.0,0.0,0.0,0.0,0.0,0.0,0.0,0.0,0.0,0.0,0.0,0.0,0.0,0.0,0.0,0.0,0.0,0.0,0.0,0.0,0.0,0.0,0.0,1.6482703685760498,0.04762556655458638,-0.007817449107611946,0.008234243140908664,0.004923846106976271,0.006694294977933168,0.0,0.0,0.0,0.0
279,5,-2.1431160348583944e-06,6.403395673260093e-06,-1.8774579075397924e-05,0.00021967364591546357,-0.0008151395013555884,0.00025318562984466553,0.0,0.0,0.0,0.0,0.0,0.0,0.0,0.0,0.0,0.002191131701692939,-0.0012397246900945902,-0.0,0.0,0.0,0.0,0.0,0.0,0.0,0.0,0.0,0.0,0.0,0.0,0.0,0.0,0.0,0.0,0.0,0.0,0.0,0.0,0.0,0.0,0.0,1.6482703685760498,0.047486241145473056,-0.007917974434292884,0.00820306546031889,0.004923846106976271,0.006694294977933168,0.0,0.0,0.0,0.0
284,5,7.953975909913424e-06,-5.67845700061298e-06,-3.497986472211778e-05,0.0012995204888284206,0.0011237665312364697,0.002045908709987998,0.0,0.0,0.0,0.0,0.0,0.0,0.0,0.0,0.0,0.0010205822763964534,0.00020619569113478065,-0.0,0.0,0.0,0.0,0.0,0.0,0.0,0.0,0.0,0.0,0.0,0.0,0.0,0.0,0.0,0.0,0.0,0.0,0.0,0.0,0.0,0.0,0.0,1.6344226598739624,0.047927441058435064,-0.00780905213724465,0.008141043393985345,-0.0008120740531012416,0.003091866848990321,0.0,0.0,0.0,0.0
289,5,6.307851435849443e-06,-6.948082500457531e-06,-2.1092992028570734e-05,0.0003222732921130955,0.0006018616841174662,-0.000848061463329941,0.0,0.0,0.0,0.0,0.0,0.0,0.0,0.0,0.0,0.0010205822763964534,0.00020619569113478065,-0.0,0.0,0.0,0.0,0.0,0.0,0.0,0.0,0.0,0.0,0.0,0.0,0.0,0.0,0.0,0.0,0.0,0.0,0.0,0.0,0.0,0.0,0.0,1.6344226598739624,0.04788682944023092,-0.0076782280909773746,0.008291939050941761,-0.0008120740531012416,0.003091866848990321,0.0,0.0,0.0,0.0
294,5,1.3146123819751665e-05,-1.1185800758539699e-05,-1.2738470104523003e-05,0.0009495019330643117,0.0007492708973586559,-0.001341767143458128,0.0,0.0,0.0,0.0,0.0,0.0,0.0,0.0,0.0,-0.0007583993719890714,0.0003160031628794968,-0.0,0.0,0.0,0.0,0.0,0.0,0.0,0.0,0.0,0.0,0.0,0.0,0.0,0.0,0.0,0.0,0.0,0.0,0.0,0.0,0.0,0.0,0.0,1.6328320503234863,0.04782258259528927,-0.007851319377226194,0.008134240354211555,-0.0012433251831680536,-0.0022953448351472616,0.0,0.0,0.0,0.0
299,5,8.415057891397737e-06,-4.099979832972167e-06,-7.38209746486973e-06,-0.00018792707123793662,-0.0005505901644937694,-0.0011794714955613017,0.0,0.0,0.0,0.0,0.0,0.0,0.0,0.0,0.0,0.0006752139306627214,-0.00016744452295824885,-0.0,0.0,0.0,0.0,0.0,0.0,0.0,0.0,0.0,0.0,0.0,0.0,0.0,0.0,0.0,0.0,0.0,0.0,0.0,0.0,0.0,0.0,0.0,1.6315702199935913,0.04749521514435028,-0.007832429293857471,0.008161770344745243,0.0006583071080967784,0.002041999716311693,0.0,0.0,0.0,0.0
304,5,1.0113474502304598e-07,5.381474693422206e-06,1.681516550888773e-05,-0.0010728415800258517,-0.0013580105733126402,-0.003375460160896182,0.0,0.0,0.0,0.0,0.0,0.0,0.0,0.0,0.0,0.0006752139306627214,-0.00016744452295824885,-0.0,0.0,0.0,0.0,0.0,0.0,0.0,0.0,0.0,0.0,0.0,0.0,0.0,0.0,0.0,0.0,0.0,0.0,0.0,0.0,0.0,0.0,0.0,1.6315702199935913,0.04720570563632369,-0.008322592413744945,0.008358794504213687,0.0006583071080967784,0.002041999716311693,0.0,0.0,0.0,0.0
309,5,2.4224264052463695e-06,6.368819640556467e-07,1.0806611498992424e-05,-0.00015058164717629552,2.614686673041433e-05,-0.0006291576428338885,0.0,0.0,0.0,0.0,0.0,0.0,0.0,0.0,0.0,0.0006752139306627214,-0.00016744452295824885,-0.0,0.0,0.0,0.0,0.0,0.0,0.0,0.0,0.0,0.0,0.0,0.0,0.0,0.0,0.0,0.0,0.0,0.0,0.0,0.0,0.0,0.0,0.0,1.6315702199935913,0.04772152121706705,-0.00809837539886449,0.00814204173768966,0.0006583071080967784,0.002041999716311693,0.0,0.0,0.0,0.0
314,5,-4.029549472761573e-06,4.238484962115763e-06,1.1327609172440134e-05,-0.0008344697998836637,-0.00042173362453468144,-0.00031418283469974995,0.0,0.0,0.0,0.0,0.0,0.0,0.0,0.0,0.0,-3.137664680252783e-05,-0.00014047215518075973,-0.0,0.0,0.0,0.0,0.0,0.0,0.0,0.0,0.0,0.0,0.0,0.0,0.0,0.0,0.0,0.0,0.0,0.0,0.0,0.0,0.0,0.0,0.0,1.6284600496292114,0.04723980443871105,-0.008030910088480838,0.008188742926731172,0.0005512127536348999,-9.470919758314267e-05,0.0,0.0,0.0,0.0
319,5,-1.1080167496402282e-05,-1.9641106518974993e-06,1.0279284651915077e-05,-0.001179862068966031,0.0005756180617026985,1.2583953434841533e-07,0.0,0.0,0.0,0.0,0.0,0.0,0.0,0.0,0.0,-3.137664680252783e-05,-0.00014047215518075973,-0.0,0.0,0.0,0.0,0.0,0.0,0.0,0.0,0.0,0.0,0.0,0.0,0.0,0.0,0.0,0.0,0.0,0.0,0.0,0.0,0.0,0.0,0.0,1.6284600496292114,0.04780548451532515,-0.007575520785561451,0.008299093854900961,0.0005512127536348999,-9.470919758314267e-05,0.0,0.0,0.0,0.0
324,5,-9.86525719781639e-06,-1.5092679859662894e-05,9.592057494955952e-07,-0.0003261555975768715,0.001805675565265119,0.0011184598552063107,0.0,0.0,0.0,0.0,0.0,0.0,0.0,0.0,0.0,-0.0007140197558328509,-0.0011355148162692785,-0.0,0.0,0.0,0.0,0.0,0.0,0.0,0.0,0.0,0.0,0.0,0.0,0.0,0.0,0.0,0.0,0.0,0.0,0.0,0.0,0.0,0.0,0.0,1.6392631530761719,0.04735594176430274,-0.0076950021728572765,0.00828097755494853,0.0044853175058960915,-0.0021695385221391916,0.0,0.0,0.0,0.0
329,5,2.5902945708367042e-06,-2.774405629679677e-06,-1.753375181579031e-05,0.001364203984849155,-0.0007559226942248642,0.0026665388140827417,0.0,0.0,0.0,0.0,0.0,0.0,0.0,0.0,0.0,-0.0007140197558328509,-0.0011355148162692785,-0.0,0.0,0.0,0.0,0.0,0.0,0.0,0.0,0.0,0.0,0.0,0.0,0.0,0.0,0.0,0.0,0.0,0.0,0.0,0.0,0.0,0.0,0.0,1.6392631530761719,0.04760171894017302,-0.007670090198709507,0.008246063928711668,0.0044853175058960915,-0.0021695385221391916,0.0,0.0,0.0,0.0
334,5,5.0068742893927265e-06,-1.0626516996126156e-05,-5.497553502209485e-06,0.0008356711477972567,0.0006398842670023441,-0.00037772825453430414,0.0,0.0,0.0,0.0,0.0,0.0,0.0,0.0,0.0,0.0009265209082514048,0.0012968897353857756,-0.0,0.0,0.0,0.0,0.0,0.0,0.0,0.0,0.0,0.0,0.0,0.0,0.0,0.0,0.0,0.0,0.0,0.0,0.0,0.0,0.0,0.0,0.0,1.6416231393814087,0.04725735430008384,-0.008016930765336857,0.008230240755548438,-0.0051301270723342896,0.0028192729223519564,0.0,0.0,0.0,0.0
339,5,1.3225610018707812e-05,-1.7513350485387491e-06,-1.530032568552997e-05,0.0013205168070271611,-0.0008090680930763483,0.0010252413339912891,0.0,0.0,0.0,0.0,0.0,0.0,0.0,0.0,0.0,0.0009265209082514048,0.0012968897353857756,-0.0,0.0,0.0,0.0,0.0,0.0,0.0,0.0,0.0,0.0,0.0,0.0,0.0,0.0,0.0,0.0,0.0,0.0,0.0,0.0,0.0,0.0,0.0,1.6416231393814087,0.047252629708106855,-0.00797863628530709,0.008288918371173513,-0.0051301270723342896,0.0028192729223519564,0.0,0.0,0.0,0.0
344,5,2.2495378289022483e-05,-9.827219400904141e-06,-4.4245483877602965e-05,0.001640578848309815,0.000645478896331042,0.0038835154846310616,0.0,0.0,0.0,0.0,0.0,0.0,0.0,0.0,0.0,0.0009938462171703577,0.0012702506501227617,-0.0,0.0,0.0,0.0,0.0,0.0,0.0,0.0,0.0,0.0,0.0,0.0,0.0,0.0,0.0,0.0,0.0,0.0,0.0,0.0,0.0,0.0,0.0,1.6416528224945068,0.047862725927311604,-0.007897518473478641,0.008300880220282924,-0.005024840589612722,0.0030241890344768763,0.0,0.0,0.0,0.0
350,5,8.111521310638636e-06,-6.53108781989431e-06,-2.129533822881058e-05,-0.0010698313126340508,-0.00013734426465816796,-0.0012006111210212111,0.0,0.0,0.0,0.0,0.0,0.0,0.0,0.0,0.0,0.0009938462171703577,0.0012702506501227617,-0.0,0.0,0.0,0.0,0.0,0.0,0.0,0.0,0.0,0.0,0.0,0.0,0.0,0.0,0.0,0.0,0.0,0.0,0.0,0.0,0.0,0.0,0.0,1.6416528224945068,0.04755426180455405,-0.007919609371265773,0.008345153885005585,-0.005024840589612722,0.0030241890344768763,0.0,0.0,0.0,0.0
355,5,-4.5032838897896e-06,-5.268184395390563e-06,-1.873927794804331e-05,-0.0019417090807110071,-0.00020648608915507793,-0.0007869717665016651,0.0,0.0,0.0,0.0,0.0,0.0,0.0,0.0,0.0,0.0001578732335474342,-0.0010059529449790716,-0.0,0.0,0.0,0.0,0.0,0.0,0.0,0.0,0.0,0.0,0.0,0.0,0.0,0.0,0.0,0.0,0.0,0.0,0.0,0.0,0.0,0.0,0.0,1.6365891695022583,0.04729613384959887,-0.007963598202853403,0.008307365908537805,0.003967063967138529,0.0004789131344296038,0.0,0.0,0.0,0.0
360,5,-6.491203748737462e-06,6.354709057632135e-06,8.878560606717656e-07,-0.0010152340400964022,-0.0014773416332900524,-0.0026700447779148817,0.0,0.0,0.0,0.0,0.0,0.0,0.0,0.0,0.0,0.0001578732335474342,-0.0010059529449790716,-0.0,0.0,0.0,0.0,0.0,0.0,0.0,0.0,0.0,0.0,0.0,0.0,0.0,0.0,0.0,0.0,0.0,0.0,0.0,0.0,0.0,0.0,0.0,1.6365891695022583,0.04762315509383109,-0.007981376796795978,0.00824634940059836,0.003967063967138529,0.0004789131344296038,0.0,0.0,0.0,0.0
365,5,-4.4174553295306396e-06,-5.854075880051823e-06,4.372208422864787e-06,0.00011745722440537065,0.0003585802624002099,-0.0015871085925027728,0.0,0.0,0.0,0.0,0.0,0.0,0.0,0.0,0.0,0.0018293256871402264,-0.0009699540096335113,-0.0,0.0,0.0,0.0,0.0,0.0,0.0,0.0,0.0,0.0,0.0,0.0,0.0,0.0,0.0,0.0,0.0,0.0,0.0,0.0,0.0,0.0,0.0,1.6441065073013306,0.047899772142502225,-0.007502333401986966,0.008211585455286729,0.003842662088572979,0.0055747972801327705,0.0,0.0,0.0,0.0
370,5,-4.4174553295306396e-06,-5.854075880051823e-06,4.372208422864787e-06,0.00011745722440537065,0.0003585802624002099,-0.0015871085925027728,0.0,0.0,0.0,0.0,0.0,0.0,0.0,0.0,0.0,0.0018293256871402264,-0.0009699540096335113,-0.0,0.0,0.0,0.0,0.0,0.0,0.0,0.0,0.0,0.0,0.0,0.0,0.0,0.0,0.0,0.0,0.0,0.0,0.0,0.0,0.0,0.0,0.0,1.6441065073013306,0.047899772142502225,-0.007502333401986966,0.008211585455286729,0.003842662088572979,0.0055747972801327705,0.0,0.0,0.0,0.0
375,5,1.4519341675622854e-05,-1.1495033504616003e-05,1.1858265679620672e-05,0.0011838179780170321,0.0009155759471468627,0.00040267693111673,0.0,0.0,0.0,0.0,0.0,0.0,0.0,0.0,0.0,-0.0004558851942420006,0.00010601838584989309,-0.0,0.0,0.0,0.0,0.0,0.0,0.0,0.0,0.0,0.0,0.0,0.0,0.0,0.0,0.0,0.0,0.0,0.0,0.0,0.0,0.0,0.0,0.0,1.6296513080596924,0.0475504294975204,-0.007683143003324302,0.008079969701889471,-0.0004163204284850508,-0.0013770784717053175,0.0,0.0,0.0,0.0
380,5,1.7907965229824185e-05,-5.715569386666175e-06,2.1827449927513953e-06,0.0008801621152088046,-0.00032730537350289524,0.0013221332337707281,0.0,0.0,0.0,0.0,0.0,0.0,0.0,0.0,0.0,-0.0004558851942420006,0.00010601838584989309,-0.0,0.0,0.0,0.0,0.0,0.0,0.0,0.0,0.0,0.0,0.0,0.0,0.0,0.0,0.0,0.0,0.0,0.0,0.0,0.0,0.0,0.0,0.0,1.6296513080596924,0.04751560722181393,-0.00807738905970649,0.008262741954278213,-0.0004163204284850508,-0.0013770784717053175,0.0,0.0,0.0,0.0
385,5,1.3817265426041558e-05,-6.099258825997822e-06,-1.3315173418959603e-05,-0.00013881921768188477,-8.487943705404177e-05,0.0023886035196483135,0.0,0.0,0.0,0.0,0.0,0.0,0.0,0.0,0.0,0.00039442902198061347,0.0008625463815405965,-0.0,0.0,0.0,0.0,0.0,0.0,0.0,0.0,0.0,0.0,0.0,0.0,0.0,0.0,0.0,0.0,0.0,0.0,0.0,0.0,0.0,0.0,0.0,1.6355254650115967,0.04745779510736306,-0.008125582814979196,0.008510749623058303,-0.003399316221475601,0.001195734366774559,0.0,0.0,0.0,0.0
390,5,4.6167119762685616e-06,-1.4834059811619227e-06,-2.1327776266844012e-05,-0.0011595941614359617,-0.0005878541269339621,0.001916953711770475,0.0,0.0,0.0,0.0,0.0,0.0,0.0,0.0,0.0,0.00039442902198061347,0.0008625463815405965,-0.0,0.0,0.0,0.0,0.0,0.0,0.0,0.0,0.0,0.0,0.0,0.0,0.0,0.0,0.0,0.0,0.0,0.0,0.0,0.0,0.0,0.0,0.0,1.6355254650115967,0.04736489978192889,-0.00796728514237176,0.008329804334872331,-0.003399316221475601,0.001195734366774559,0.0,0.0,0.0,0.0
395,5,1.1437833791205776e-06,6.6895245254272595e-06,-3.2813586585689336e-05,-0.0008805890684016049,-0.0012158933095633984,0.0021450784988701344,0.0,0.0,0.0,0.0,0.0,0.0,0.0,0.0,0.0,0.0007229094044305384,-0.0010946276597678661,-0.0,0.0,0.0,0.0,0.0,0.0,0.0,0.0,0.0,0.0,0.0,0.0,0.0,0.0,0.0,0.0,0.0,0.0,0.0,0.0,0.0,0.0,0.0,1.638900637626648,0.04785407462332893,-0.00798481460425297,0.008292345531962324,0.004322855733335018,0.0021960639860481024,0.0,0.0,0.0,0.0
400,5,-7.149714292609133e-06,3.0637090731033823e-06,-2.206033605034463e-05,-0.0013474553124979138,-5.125948882778175e-05,-0.0004323585017118603,0.0,0.0,0.0,0.0,0.0,0.0,0.0,0.0,0.0,0.0007229094044305384,-0.0010946276597678661,-0.0,0.0,0.0,0.0,0.0,0.0,0.0,0.0,0.0,0.0,0.0,0.0,0.0,0.0,0.0,0.0,0.0,0.0,0.0,0.0,0.0,0.0,0.0,1.638900637626648,0.04750772556792615,-0.007825776495735284,0.008374080439648893,0.004322855733335018,0.0021960639860481024,0.0,0.0,0.0,0.0
406,5,-4.897507096757181e-06,-8.216489732149057e-06,-3.566924715414643e-05,-0.00026871729642152786,0.001333120046183467,0.0014601257862523198,0.0,0.0,0.0,0.0,0.0,0.0,0.0,0.0,0.0,-0.0016597933135926723,-0.0002618024591356516,-0.0,0.0,0.0,0.0,0.0,0.0,0.0,0.0,0.0,0.0,0.0,0.0,0.0,0.0,0.0,0.0,0.0,0.0,0.0,0.0,0.0,0.0,0.0,1.6397167444229126,0.04781393321895806,-0.007764621692369239,0.008315852735664406,0.0010344126494601369,-0.005044649820774794,0.0,0.0,0.0,0.0
411,5,-8.105550477921497e-06,-4.829826593777398e-06,-1.3000936633034144e-05,-0.0004924520617350936,0.00012684841931331903,-0.0021361468825489283,0.0,0.0,0.0,0.0,0.0,0.0,0.0,0.0,0.0,-0.0016597933135926723,-0.0002618024591356516,-0.0,0.0,0.0,0.0,0.0,0.0,0.0,0.0,0.0,0.0,0.0,0.0,0.0,0.0,0.0,0.0,0.0,0.0,0.0,0.0,0.0,0.0,0.0,1.6397167444229126,0.04775223569746743,-0.007902737183880413,0.008343407070005554,0.0010344126494601369,-0.005044649820774794,0.0,0.0,0.0,0.0
416,5,3.8713776007170964e-07,-2.8048748390574474e-06,-1.2395398130138346e-07,0.0008221417083404958,-0.00019225481082685292,-0.002399696735665202,0.0,0.0,0.0,0.0,0.0,0.0,0.0,0.0,0.0,0.00023280871391762048,0.0007834563730284572,-0.0,0.0,0.0,0.0,0.0,0.0,0.0,0.0,0.0,0.0,0.0,0.0,0.0,0.0,0.0,0.0,0.0,0.0,0.0,0.0,0.0,0.0,0.0,1.6343361139297485,0.04738022481155853,-0.008032346879726052,0.008247663080195344,-0.0030853755306452513,0.0007052598521113396,0.0,0.0,0.0,0.0
421,5,1.508228979218984e-05,-1.0973903954436537e-05,3.1057847991178278e-06,0.0020922748371958733,0.0009033816168084741,-0.0013474472798407078,0.0,0.0,0.0,0.0,0.0,0.0,0.0,0.0,0.0,0.00023280871391762048,0.0007834563730284572,-0.0,0.0,0.0,0.0,0.0,0.0,0.0,0.0,0.0,0.0,0.0,0.0,0.0,0.0,0.0,0.0,0.0,0.0,0.0,0.0,0.0,0.0,0.0,1.6343361139297485,0.04763299088332023,-0.007863595434000004,0.00836534508291691,-0.0030853755306452513,0.0007052598521113396,0.0,0.0,0.0,0.0
426,5,1.2821985365008004e-05,-9.007338121591602e-06,2.7216628950554878e-05,0.0005656733992509544,0.00012536469148471951,-0.0034322801511734724,0.0,0.0,0.0,0.0,0.0,0.0,0.0,0.0,0.0,-0.00017190033395309,0.0005574635579250753,-0.0,0.0,0.0,0.0,0.0,0.0,0.0,0.0,0.0,0.0,0.0,0.0,0.0,0.0,0.0,0.0,0.0,0.0,0.0,0.0,0.0,0.0,0.0,1.6318615674972534,0.0474815148824218,-0.007757617785188033,0.00797256193070859,-0.0021920560393482447,-0.0005199583829380572,0.0,0.0,0.0,0.0
431,5,2.3184442397905514e-05,-6.454873528127791e-06,1.9463896023808047e-05,0.0014697641599923372,-0.00025614985497668386,-0.00044258416164666414,0.0,0.0,0.0,0.0,0.0,0.0,0.0,0.0,0.0,-0.00017190033395309,0.0005574635579250753,-0.0,0.0,0.0,0.0,0.0,0.0,0.0,0.0,0.0,0.0,0.0,0.0,0.0,0.0,0.0,0.0,0.0,0.0,0.0,0.0,0.0,0.0,0.0,1.6318615674972534,0.04776065662220338,-0.007852115699470865,0.008333306468104394,-0.0021920560393482447,-0.0005199583829380572,0.0,0.0,0.0,0.0
436,5,1.7790001948014833e-05,-6.771139851480257e-06,7.48843513065367e-06,-5.942712232354097e-05,-6.450802175095305e-05,0.0012600215850397944,0.0,0.0,0.0,0.0,0.0,0.0,0.0,0.0,0.0,-0.00017190033395309,0.0005574635579250753,-0.0,0.0,0.0,0.0,0.0,0.0,0.0,0.0,0.0,0.0,0.0,0.0,0.0,0.0,0.0,0.0,0.0,0.0,0.0,0.0,0.0,0.0,0.0,1.6318615674972534,0.0473468023076736,-0.007577078563695007,0.008283146639638868,-0.0021920560393482447,-0.0005199583829380572,0.0,0.0,0.0,0.0
441,5,1.6622139810351655e-05,-5.951061211817432e-06,-1.636585329833906e-05,-0.00016391421377193183,-0.00012421263090800494,0.003366523189470172,0.0,0.0,0.0,0.0,0.0,0.0,0.0,0.0,0.0,6.769663741579279e-05,-3.1774889066582546e-05,-0.0,0.0,0.0,0.0,0.0,0.0,0.0,0.0,0.0,0.0,0.0,0.0,0.0,0.0,0.0,0.0,0.0,0.0,0.0,0.0,0.0,0.0,0.0,1.6284600496292114,0.04809231717292112,-0.0076410465071924715,0.008204146511926965,0.0001246846659341827,0.00020433969621080905,0.0,0.0,0.0,0.0
446,5,9.973596206691582e-07,1.042451117427845e-06,-1.194184096675599e-05,-0.00194053933955729,-0.000888906535692513,0.0008157278643921018,0.0,0.0,0.0,0.0,0.0,0.0,0.0,0.0,0.0,6.769663741579279e-05,-3.1774889066582546e-05,-0.0,0.0,0.0,0.0,0.0,0.0,0.0,0.0,0.0,0.0,0.0,0.0,0.0,0.0,0.0,0.0,0.0,0.0,0.0,0.0,0.0,0.0,0.0,1.6284600496292114,0.04778100599625489,-0.007525602054083778,0.008084617635018077,0.0001246846659341827,0.00020433969621080905,0.0,0.0,0.0,0.0
451,5,-1.6263720681308769e-06,1.916235760290874e-06,-2.9672735763597302e-05,-0.0010910634882748127,-0.00046041677705943584,0.0024539984297007322,0.0,0.0,0.0,0.0,0.0,0.0,0.0,0.0,0.0,0.001093391445465386,-0.0018316707573831081,-0.0,0.0,0.0,0.0,0.0,0.0,0.0,0.0,0.0,0.0,0.0,0.0,0.0,0.0,0.0,0.0,0.0,0.0,0.0,0.0,0.0,0.0,0.0,1.6474337577819824,0.04768057496305386,-0.007815961953643853,0.008226420158519425,0.007271211594343185,0.003338812617585063,0.0,0.0,0.0,0.0
456,5,-1.1177919986948837e-05,2.9650129818037385e-06,-4.072815045219613e-06,-0.0015826111193746328,-0.00031001996831037104,-0.0020903912372887135,0.0,0.0,0.0,0.0,0.0,0.0,0.0,0.0,0.0,0.001093391445465386,-0.0018316707573831081,-0.0,0.0,0.0,0.0,0.0,0.0,0.0,0.0,0.0,0.0,0.0,0.0,0.0,0.0,0.0,0.0,0.0,0.0,0.0,0.0,0.0,0.0,0.0,1.6474337577819824,0.04721833162068989,-0.007942904385263096,0.008085049736211814,0.007271211594343185,0.003338812617585063,0.0,0.0,0.0,0.0
461,5,1.052190214068105e-06,-6.417532858904451e-06,-4.7656089009251446e-05,0.0008345686946995556,0.0010018975008279085,0.0043938360176980495,0.0,0.0,0.0,0.0,0.0,0.0,0.0,0.0,0.0,0.0003871598746627569,-0.001515135052613914,-0.0,0.0,0.0,0.0,0.0,0.0,0.0,0.0,0.0,0.0,0.0,0.0,0.0,0.0,0.0,0.0,0.0,0.0,0.0,0.0,0.0,0.0,0.0,1.642318606376648,0.047769572333504935,-0.008197571366965448,0.008485513379992777,0.005995983723551035,0.0011785724200308323,0.0,0.0,0.0,0.0
466,5,8.056921615207102e-06,-3.920302788174013e-06,-3.097749868175015e-05,0.0011743952054530382,0.00010109139839187264,-0.00024389621103182435,0.0,0.0,0.0,0.0,0.0,0.0,0.0,0.0,0.0,0.0003871598746627569,-0.001515135052613914,-0.0,0.0,0.0,0.0,0.0,0.0,0.0,0.0,0.0,0.0,0.0,0.0,0.0,0.0,0.0,0.0,0.0,0.0,0.0,0.0,0.0,0.0,0.0,1.642318606376648,0.047586019538640244,-0.00773871589510496,0.008139764359769309,0.005995983723551035,0.0011785724200308323,0.0,0.0,0.0,0.0
472,5,1.9130291093460983e-06,-8.880217137630098e-06,-5.749336651206249e-06,-0.0002675089635886252,0.0006356262601912022,-0.003124937880784273,0.0,0.0,0.0,0.0,0.0,0.0,0.0,0.0,0.0,-0.00013207909069024026,0.0011271827388554811,-0.0,0.0,0.0,0.0,0.0,0.0,0.0,0.0,0.0,0.0,0.0,0.0,0.0,0.0,0.0,0.0,0.0,0.0,0.0,0.0,0.0,0.0,0.0,1.6378653049468994,0.04750261583524202,-0.0081117768757475,0.008221750469952419,-0.00444860989227891,-0.0004009782278444618,0.0,0.0,0.0,0.0
477,5,9.605682862456888e-06,-5.339817562344251e-06,-6.6266652538615745e-06,0.0008161148289218545,-0.00017059742822311819,-0.001144695677794516,0.0,0.0,0.0,0.0,0.0,0.0,0.0,0.0,0.0,-0.00013207909069024026,0.0011271827388554811,-0.0,0.0,0.0,0.0,0.0,0.0,0.0,0.0,0.0,0.0,0.0,0.0,0.0,0.0,0.0,0.0,0.0,0.0,0.0,0.0,0.0,0.0,0.0,1.6378653049468994,0.04780384743922975,-0.007686784420401607,0.007985114900579241,-0.00444860989227891,-0.0004009782278444618,0.0,0.0,0.0,0.0
482,5,1.3708457117900252e-05,-8.164543942257296e-06,3.42410407938587e-06,0.0008187788771465421,0.0002707281964831054,-0.0016639706445857882,0.0,0.0,0.0,0.0,0.0,0.0,0.0,0.0,0.0,0.0002013700141105801,0.0007906155078671873,-0.0,0.0,0.0,0.0,0.0,0.0,0.0,0.0,0.0,0.0,0.0,0.0,0.0,0.0,0.0,0.0,0.0,0.0,0.0,0.0,0.0,0.0,0.0,1.6343574523925781,0.04768753514664847,-0.007874056236752077,0.008290770495705783,-0.0031136099714785814,0.0006100288592278957,0.0,0.0,0.0,0.0
487,5,6.615588517888682e-06,-6.263371233217185e-06,1.707264527794905e-05,-0.0005236327415332198,-0.00011984943557763472,-0.002303413348272443,0.0,0.0,0.0,0.0,0.0,0.0,0.0,0.0,0.0,0.0002013700141105801,0.0007906155078671873,-0.0,0.0,0.0,0.0,0.0,0.0,0.0,0.0,0.0,0.0,0.0,0.0,0.0,0.0,0.0,0.0,0.0,0.0,0.0,0.0,0.0,0.0,0.0,1.6343574523925781,0.047309744426995655,-0.007961718521285513,0.00823877193513612,-0.0031136099714785814,0.0006100288592278957,0.0,0.0,0.0,0.0
492,5,1.9782486560870893e-05,-1.3221639783012051e-08,7.050105978123611e-06,0.0013705745805054903,-0.0007979577640071511,0.00028133951127529144,0.0,0.0,0.0,0.0,0.0,0.0,0.0,0.0,0.0,0.00013714014494325966,-0.0004902526270598173,-0.0,0.0,0.0,0.0,0.0,0.0,0.0,0.0,0.0,0.0,0.0,0.0,0.0,0.0,0.0,0.0,0.0,0.0,0.0,0.0,0.0,0.0,0.0,1.6310964822769165,0.04770581434958773,-0.007697023479508782,0.008262232720887913,0.0019268656615167856,0.0004146224237047136,0.0,0.0,0.0,0.0
497,5,2.0638144633267075e-06,-4.704518687503878e-06,9.959159115169314e-07,-0.0015780107351019979,0.00024377256340812892,0.0008390385773964226,0.0,0.0,0.0,0.0,0.0,0.0,0.0,0.0,0.0,0.00013714014494325966,-0.0004902526270598173,-0.0,0.0,0.0,0.0,0.0,0.0,0.0,0.0,0.0,0.0,0.0,0.0,0.0,0.0,0.0,0.0,0.0,0.0,0.0,0.0,0.0,0.0,0.0,1.6310964822769165,0.047624757853201374,-0.007672738074465466,0.008315000704587934,0.0019268656615167856,0.0004146224237047136,0.0,0.0,0.0,0.0
502,5,7.49994160287315e-06,9.784167787074693e-07,2.806193322157924e-07,2.1130947061465122e-05,-0.0005844432162120938,0.00042145102634094656,0.0,0.0,0.0,0.0,0.0,0.0,0.0,0.0,0.0,-0.00030898788827471435,-0.0014926701551303267,-0.0,0.0,0.0,0.0,0.0,0.0,0.0,0.0,0.0,0.0,0.0,0.0,0.0,0.0,0.0,0.0,0.0,0.0,0.0,0.0,0.0,0.0,0.0,1.6419652700424194,0.0479553609069455,-0.007605578299127916,0.007942334730026656,0.005905810743570328,-0.0009404028533026576,0.0,0.0,0.0,0.0
507,5,2.643889047249104e-06,1.575035639689304e-06,-1.7890275557874702e-05,-0.0005742739303968847,-0.00030537156271748245,0.0023490877356380224,0.0,0.0,0.0,0.0,0.0,0.0,0.0,0.0,0.0,-0.00030898788827471435,-0.0014926701551303267,-0.0,0.0,0.0,0.0,0.0,0.0,0.0,0.0,0.0,0.0,0.0,0.0,0.0,0.0,0.0,0.0,0.0,0.0,0.0,0.0,0.0,0.0,0.0,1.6419652700424194,0.04741743802899716,-0.008131986424168855,0.008499902053500447,0.005905810743570328,-0.0009404028533026576,0.0,0.0,0.0,0.0
512,5,7.3087148848571815e-06,-4.26515407525585e-06,-3.0329816581797786e-05,0.000330069538904354,0.0005786741385236382,0.0024323801044374704,0.0,0.0,0.0,0.0,0.0,0.0,0.0,0.0,0.0,0.0003812166687566787,-0.0005437085637822747,-0.0,0.0,0.0,0.0,0.0,0.0,0.0,0.0,0.0,0.0,0.0,0.0,0.0,0.0,0.0,0.0,0.0,0.0,0.0,0.0,0.0,0.0,0.0,1.632341742515564,0.04741255861650591,-0.007746822169157123,0.008256339840920486,0.0021385978907346725,0.0011534306686371565,0.0,0.0,0.0,0.0
517,5,5.16836553288158e-06,-3.914488843292929e-06,-7.071521849866258e-06,-0.00012481410522013903,0.00018938981520477682,-0.001818043296225369,0.0,0.0,0.0,0.0,0.0,0.0,0.0,0.0,0.0,0.0003812166687566787,-0.0005437085637822747,-0.0,0.0,0.0,0.0,0.0,0.0,0.0,0.0,0.0,0.0,0.0,0.0,0.0,0.0,0.0,0.0,0.0,0.0,0.0,0.0,0.0,0.0,0.0,1.632341742515564,0.04750089039715184,-0.00790749425796029,0.008123821215233175,0.0021385978907346725,0.0011534306686371565,0.0,0.0,0.0,0.0
523,5,1.2760033314407337e-05,-1.3411748113867361e-05,-1.7558611943968572e-05,0.0008610744844190776,0.0012154270661994815,0.0005312336143106222,0.0,0.0,0.0,0.0,0.0,0.0,0.0,0.0,0.0,-0.00024255088646896183,-0.00011193194222869352,-0.0,0.0,0.0,0.0,0.0,0.0,0.0,0.0,0.0,0.0,0.0,0.0,0.0,0.0,0.0,0.0,0.0,0.0,0.0,0.0,0.0,0.0,0.0,1.6284600496292114,0.04715153514962496,-0.007875761981332843,0.008076725939721372,0.00043922095210291445,-0.0007321305456571281,0.0,0.0,0.0,0.0
528,5,4.070676368428394e-06,-1.408358798471454e-06,-5.07832010043785e-06,-0.0006982930353842676,-0.0009542359039187431,-0.0012851416831836104,0.0,0.0,0.0,0.0,0.0,0.0,0.0,0.0,0.0,-0.00024255088646896183,-0.00011193194222869352,-0.0,0.0,0.0,0.0,0.0,0.0,0.0,0.0,0.0,0.0,0.0,0.0,0.0,0.0,0.0,0.0,0.0,0.0,0.0,0.0,0.0,0.0,0.0,1.6284600496292114,0.04739095094806891,-0.00778695906271634,0.007961801306028613,0.00043922095210291445,-0.0007321305456571281,0.0,0.0,0.0,0.0
533,5,9.251042683899868e-06,-3.035321753941389e-07,-2.0371486243675463e-05,0.00034232676262035966,-0.0005142735317349434,0.0013211232144385576,0.0,0.0,0.0,0.0,0.0,0.0,0.0,0.0,0.0,0.0011761129135265946,-0.0006577750900760293,-0.0,0.0,0.0,0.0,0.0,0.0,0.0,0.0,0.0,0.0,0.0,0.0,0.0,0.0,0.0,0.0,0.0,0.0,0.0,0.0,0.0,0.0,0.0,1.637723445892334,0.04724238958319062,-0.007745860519534562,0.007997967569090578,0.0025957899633795023,0.003570244647562504,0.0,0.0,0.0,0.0
538,5,-1.7414998865206144e-07,-5.5698856158414856e-06,-1.2434053132892586e-05,-0.0009940924355760217,0.00042625301284715533,-0.00042404260602779686,0.0,0.0,0.0,0.0,0.0,0.0,0.0,0.0,0.0,0.0011761129135265946,-0.0006577750900760293,-0.0,0.0,0.0,0.0,0.0,0.0,0.0,0.0,0.0,0.0,0.0,0.0,0.0,0.0,0.0,0.0,0.0,0.0,0.0,0.0,0.0,0.0,0.0,1.637723445892334,0.04718553536787295,-0.008023619962570436,0.00833016135547658,0.0025957899633795023,0.003570244647562504,0.0,0.0,0.0,0.0
543,5,3.428868694754783e-06,-2.723262468862231e-06,-8.902640729502309e-06,3.4725275327218696e-05,-0.00017109359032474458,-0.0005933865904808044,0.0,0.0,0.0,0.0,0.0,0.0,0.0,0.0,0.0,-0.0005370969884097576,-0.0009453153470531106,-0.0,0.0,0.0,0.0,0.0,0.0,0.0,0.0,0.0,0.0,0.0,0.0,0.0,0.0,0.0,0.0,0.0,0.0,0.0,0.0,0.0,0.0,0.0,1.6367872953414917,0.04805234022432046,-0.007369149842218986,0.008052620663107989,0.0037283848505467176,-0.0016294966917484999,0.0,0.0,0.0,0.0
548,5,4.9423524615122005e-06,-1.5111872926354408e-06,-2.3762504497426562e-05,0.00019550816796254367,-0.0002138864656444639,0.0015458291163668036,0.0,0.0,0.0,0.0,0.0,0.0,0.0,0.0,0.0,-0.0005370969884097576,-0.0009453153470531106,-0.0,0.0,0.0,0.0,0.0,0.0,0.0,0.0,0.0,0.0,0.0,0.0,0.0,0.0,0.0,0.0,0.0,0.0,0.0,0.0,0.0,0.0,0.0,1.6367872953414917,0.04778676624902769,-0.007504330974431921,0.008236885378348435,0.0037283848505467176,-0.0016294966917484999,0.0,0.0,0.0,0.0
553,5,3.744146169992746e-06,-5.265168283585808e-07,-1.726167647575494e-05,-6.558151653734967e-05,-0.00020371504069771618,-0.00016176776262000203,0.0,0.0,0.0,0.0,0.0,0.0,0.0,0.0,0.0,0.0002627870999276638,0.0001938454806804657,-0.0,0.0,0.0,0.0,0.0,0.0,0.0,0.0,0.0,0.0,0.0,0.0,0.0,0.0,0.0,0.0,0.0,0.0,0.0,0.0,0.0,0.0,0.0,1.6287294626235962,0.047777058666573224,-0.007815485153671859,0.00815473907952908,-0.00076077546691522,0.0007933439337648451,0.0,0.0,0.0,0.0
558,5,2.854566901078215e-06,2.376469865339459e-06,-2.0186744222883135e-06,-0.00013298210978973657,-0.0004298443964216858,-0.0018938673892989755,0.0,0.0,0.0,0.0,0.0,0.0,0.0,0.0,0.0,0.0002627870999276638,0.0001938454806804657,-0.0,0.0,0.0,0.0,0.0,0.0,0.0,0.0,0.0,0.0,0.0,0.0,0.0,0.0,0.0,0.0,0.0,0.0,0.0,0.0,0.0,0.0,0.0,1.6287294626235962,0.047645362150929085,-0.007730954342993193,0.008013449626926983,-0.00076077546691522,0.0007933439337648451,0.0,0.0,0.0,0.0
563,5,6.970751655899221e-06,2.4184205358324107e-06,-9.403402145835571e-06,0.00044074931065551937,-0.0001769718510331586,0.00012862040603067726,0.0,0.0,0.0,0.0,0.0,0.0,0.0,0.0,0.0,0.0002627870999276638,0.0001938454806804657,-0.0,0.0,0.0,0.0,0.0,0.0,0.0,0.0,0.0,0.0,0.0,0.0,0.0,0.0,0.0,0.0,0.0,0.0,0.0,0.0,0.0,0.0,0.0,1.6287294626235962,0.04704629192641705,-0.007824208212307749,0.008136665257752442,-0.0016916103195399046,0.0006765354191884398,0.0,0.0,0.0,0.0
568,5,6.327937626338098e-06,-1.229422423421056e-06,-9.324492566520348e-06,9.91620690911077e-05,0.0003669524157885462,4.197894304525107e-05,0.0,0.0,0.0,0.0,0.0,0.0,0.0,0.0,0.0,0.00022382578754331917,0.00043050339445471764,-0.0,0.0,0.0,0.0,0.0,0.0,0.0,0.0,0.0,0.0,0.0,0.0,0.0,0.0,0.0,0.0,0.0,0.0,0.0,0.0,0.0,0.0,0.0,1.6306917667388916,0.04740180131312222,-0.007861431616356662,0.008022018875912354,-0.0016916103195399046,0.0006765354191884398,0.0,0.0,0.0,0.0
573,5,4.937106041325023e-06,-7.319719770748634e-06,-1.2165470252512023e-05,-0.00012723496183753014,0.0008776166359893978,0.0003577090101316571,0.0,0.0,0.0,0.0,0.0,0.0,0.0,0.0,0.0,-0.0010994650656357408,-0.00011410197475925088,-0.0,0.0,0.0,0.0,0.0,0.0,0.0,0.0,0.0,0.0,0.0,0.0,0.0,0.0,0.0,0.0,0.0,0.0,0.0,0.0,0.0,0.0,0.0,1.6348707675933838,0.047515935439376794,-0.007848210490882588,0.008117981709557031,0.0004494984750635922,-0.0033317566849291325,0.0,0.0,0.0,0.0
579,5,1.918217321872362e-06,-1.5053993820401956e-06,-3.569035015971167e-06,-0.0004131606547161937,-0.0003466717607807368,-0.0008884887211024761,0.0,0.0,0.0,0.0,0.0,0.0,0.0,0.0,0.0,-0.0010994650656357408,-0.00011410197475925088,-0.0,0.0,0.0,0.0,0.0,0.0,0.0,0.0,0.0,0.0,0.0,0.0,0.0,0.0,0.0,0.0,0.0,0.0,0.0,0.0,0.0,0.0,0.0,1.6348707675933838,0.047402000870822004,-0.007817231396450405,0.008033884169296554,0.0004494984750635922,-0.0033317566849291325,0.0,0.0,0.0,0.0
584,5,-3.0196001716831233e-06,3.2654179449309595e-06,-2.325974264749675e-06,-0.0007578023360110819,-0.0007111667655408382,-0.0005045627476647496,0.0,0.0,0.0,0.0,0.0,0.0,0.0,0.0,0.0,0.0008764217491261661,-0.0007179382373578846,-0.0,0.0,0.0,0.0,0.0,0.0,0.0,0.0,0.0,0.0,0.0,0.0,0.0,0.0,0.0,0.0,0.0,0.0,0.0,0.0,0.0,0.0,0.0,1.6362838745117188,0.04756952498639467,-0.007781803262393564,0.008010626236944882,0.00283072330057621,0.002658154582604766,0.0,0.0,0.0,0.0
589,5,-3.2224802453129087e-06,5.992947990307584e-06,-2.9741877369815484e-06,-0.00032746655051596463,-0.0006117703160271049,-0.0001240394776687026,0.0,0.0,0.0,0.0,0.0,0.0,0.0,0.0,0.0,0.0008764217491261661,-0.0007179382373578846,-0.0,0.0,0.0,0.0,0.0,0.0,0.0,0.0,0.0,0.0,0.0,0.0,0.0,0.0,0.0,0.0,0.0,0.0,0.0,0.0,0.0,0.0,0.0,1.6362838745117188,0.04754044226982852,-0.007948091142621894,0.008124176361734231,0.00283072330057621,0.002658154582604766,0.0,0.0,0.0,0.0
594,5,-5.187118404137436e-06,2.398041033302434e-06,3.5363859751669224e-07,-0.0003667432174552232,0.00018668071425054222,-0.0004489549610298127,0.0,0.0,0.0,0.0,0.0,0.0,0.0,0.0,0.0,0.0007687162142246962,-0.00031647717696614563,-0.0,0.0,0.0,0.0,0.0,0.0,0.0,0.0,0.0,0.0,0.0,0.0,0.0,0.0,0.0,0.0,0.0,0.0,0.0,0.0,0.0,0.0,0.0,1.6329094171524048,0.04726477162673902,-0.008062533322035336,0.00812950363014273,0.0012452491791918874,0.0023266796488314867,0.0,0.0,0.0,0.0
599,6,3.822521193797002e-06,-3.929213107767282e-06,-1.9327340851305053e-05,0.0009344595018774271,0.0008339427877217531,0.0021821355912834406,0.0,0.0,0.0,0.0,0.0,0.0,0.0,0.0,0.0,0.0007687162142246962,-0.00031647717696614563,-0.0,0.0,0.0,0.0,0.0,0.0,0.0,0.0,0.0,0.0,0.0,0.0,0.0,0.0,0.0,0.0,0.0,0.0,0.0,0.0,0.0,0.0,0.0,1.6329094171524048,0.047595085429489696,-0.007783537988309787,0.00835514864126163,0.0012452491791918874,0.0023266796488314867,0.0,0.0,0.0,0.0
604,5,1.2701937521342188e-05,-6.578336069651414e-06,-2.7185044018551707e-05,0.0014393137535080314,0.0006514718406833708,0.0018157786689698696,0.0,0.0,0.0,0.0,0.0,0.0,0.0,0.0,0.0,-0.0010369173251092434,0.000892960699275136,-0.0,0.0,0.0,0.0,0.0,0.0,0.0,0.0,0.0,0.0,0.0,0.0,0.0,0.0,0.0,0.0,0.0,0.0,0.0,0.0,0.0,0.0,0.0,1.6385724544525146,0.04770396239350371,-0.007796297696802434,0.008109434562507824,-0.0035257344134151936,-0.003149330150336027,0.0,0.0,0.0,0.0
610,5,1.2325272109592333e-05,-9.803463854041183e-07,-2.918085374403745e-05,0.0005305256345309317,-0.000411170010920614,0.0009658086346462369,0.0,0.0,0.0,0.0,0.0,0.0,0.0,0.0,0.0,-0.0010369173251092434,0.000892960699275136,-0.0,0.0,0.0,0.0,0.0,0.0,0.0,0.0,0.0,0.0,0.0,0.0,0.0,0.0,0.0,0.0,0.0,0.0,0.0,0.0,0.0,0.0,0.0,1.6385724544525146,0.0477740731424845,-0.007529580242318805,0.00783692621110315,-0.0035257344134151936,-0.003149330150336027,0.0,0.0,0.0,0.0
615,5,5.541501195693854e-06,-9.714053703646641e-06,-7.861391168262344e-06,-0.000601842300966382,0.0008835769258439541,-0.0021720121148973703,0.0,0.0,0.0,0.0,0.0,0.0,0.0,0.0,0.0,-0.0011099453549832106,-0.0005643973709084094,-0.0,0.0,0.0,0.0,0.0,0.0,0.0,0.0,0.0,0.0,0.0,0.0,0.0,0.0,0.0,0.0,0.0,0.0,0.0,0.0,0.0,0.0,0.0,1.6366996765136719,0.04785596578956114,-0.007926090409471226,0.008260217956324043,0.002225899836048484,-0.0033672782592475414,0.0,0.0,0.0,0.0
620,5,-1.6319518181262538e-06,2.6812801934283925e-06,8.823707275951165e-07,-0.0006599180633202195,-0.0005705467192456126,-0.0012296726927161217,0.0,0.0,0.0,0.0,0.0,0.0,0.0,0.0,0.0,-0.0011099453549832106,-0.0005643973709084094,-0.0,0.0,0.0,0.0,0.0,0.0,0.0,0.0,0.0,0.0,0.0,0.0,0.0,0.0,0.0,0.0,0.0,0.0,0.0,0.0,0.0,0.0,0.0,1.6366996765136719,0.047667873915471344,-0.007580434017371506,0.008156578878096938,0.002225899836048484,-0.0033672782592475414,0.0,0.0,0.0,0.0
625,5,-6.297224899753928e-06,1.0287742043146864e-05,8.516336492903065e-06,-0.0008238000445999205,-0.0011409941362217069,-0.0014079449465498328,0.0,0.0,0.0,0.0,0.0,0.0,0.0,0.0,0.0,0.0014258187729865313,-0.0007902518264017999,-0.0,0.0,0.0,0.0,0.0,0.0,0.0,0.0,0.0,0.0,0.0,0.0,0.0,0.0,0.0,0.0,0.0,0.0,0.0,0.0,0.0,0.0,0.0,1.6402400732040405,0.047368107659232606,-0.007782893177127287,0.008357177650874001,0.0031233765184879303,0.004334909375756979,0.0,0.0,0.0,0.0
630,5,-1.339441860181978e-05,7.733453458058648e-06,9.155633051705081e-06,-0.001181183266453445,-0.00014988302427809685,-0.0006398935802280903,0.0,0.0,0.0,0.0,0.0,0.0,0.0,0.0,0.0,0.0014258187729865313,-0.0007902518264017999,-0.0,0.0,0.0,0.0,0.0,0.0,0.0,0.0,0.0,0.0,0.0,0.0,0.0,0.0,0.0,0.0,0.0,0.0,0.0,0.0,0.0,0.0,0.0,1.6402400732040405,0.047304654859451435,-0.00812706547926467,0.00839333959845541,0.0031233765184879303,0.004334909375756979,0.0,0.0,0.0,0.0
635,5,-1.8391943967799307e-06,4.949106823914917e-06,-1.0782115168694872e-05,0.0009141536429524422,0.00027416841476224363,0.002136572264134884,0.0,0.0,0.0,0.0,0.0,0.0,0.0,0.0,0.0,-0.0003303134290035814,0.0008674641139805317,-0.0,0.0,0.0,0.0,0.0,0.0,0.0,0.0,0.0,0.0,0.0,0.0,0.0,0.0,0.0,0.0,0.0,0.0,0.0,0.0,0.0,0.0,0.0,1.6354131698608398,0.04746505153272446,-0.008099964057130836,0.008307035614134477,-0.00341846258379519,-0.0010012955171987414,0.0,0.0,0.0,0.0
640,5,-4.433771664480446e-06,2.620105306050391e-06,-1.3482067515724339e-05,5.431216777651571e-05,0.00038914757897146046,0.0011786232935264707,0.0,0.0,0.0,0.0,0.0,0.0,0.0,0.0,0.0,-0.0003303134290035814,0.0008674641139805317,-0.0,0.0,0.0,0.0,0.0,0.0,0.0,0.0,0.0,0.0,0.0,0.0,0.0,0.0,0.0,0.0,0.0,0.0,0.0,0.0,0.0,0.0,0.0,1.6354131698608398,0.04709226601200108,-0.007631553214467763,0.007897148779403581,-0.00341846258379519,-0.0010012955171987414,0.0,0.0,0.0,0.0
645,5,2.0585557081176376e-07,-4.887182512902655e-06,-2.0252005924703553e-05,0.0005784801323898137,0.0010565335396677256,0.0012838419061154127,0.0,0.0,0.0,0.0,0.0,0.0,0.0,0.0,0.0,-0.0003303134290035814,0.0008674641139805317,-0.0,0.0,0.0,0.0,0.0,0.0,0.0,0.0,0.0,0.0,0.0,0.0,0.0,0.0,0.0,0.0,0.0,0.0,0.0,0.0,0.0,0.0,0.0,1.6354131698608398,0.04721998450101552,-0.007745996253432887,0.008057510773196821,-0.00341846258379519,-0.0010012955171987414,0.0,0.0,0.0,0.0
650,5,6.462854003075336e-07,-1.1820478903246112e-05,-2.819726250891108e-05,0.0002842436369974166,0.001254608971066773,0.0014669675147160888,0.0,0.0,0.0,0.0,0.0,0.0,0.0,0.0,0.0,-0.0013138750800862908,0.0005500005790963769,-0.0,0.0,0.0,0.0,0.0,0.0,0.0,0.0,0.0,0.0,0.0,0.0,0.0,0.0,0.0,0.0,0.0,0.0,0.0,0.0,0.0,0.0,0.0,1.6380692720413208,0.04750620039586607,-0.007643526877817827,0.008237139486239834,-0.002170935506001115,-0.003989281598478556,0.0,0.0,0.0,0.0
655,5,6.426277650461998e-06,-4.5043952923151664e-06,-1.7293050404987298e-05,0.000807296484708786,-0.0003760864201467484,-0.0007217184756882489,0.0,0.0,0.0,0.0,0.0,0.0,0.0,0.0,0.0,-0.0013138750800862908,0.0005500005790963769,-0.0,0.0,0.0,0.0,0.0,0.0,0.0,0.0,0.0,0.0,0.0,0.0,0.0,0.0,0.0,0.0,0.0,0.0,0.0,0.0,0.0,0.0,0.0,1.6380692720413208,0.04741153667047224,-0.00774106183042689,0.008047341373108252,-0.002170935506001115,-0.003989281598478556,0.0,0.0,0.0,0.0
660,5,-1.1362482155163889e-06,-1.0898307891693548e-06,1.1208918294869363e-05,-0.0005845844862051308,-0.0005601823213510215,-0.0037089234683662653,0.0,0.0,0.0,0.0,0.0,0.0,0.0,0.0,0.0,0.00045708782272413373,0.000777579378336668,-0.0,0.0,0.0,0.0,0.0,0.0,0.0,0.0,0.0,0.0,0.0,0.0,0.0,0.0,0.0,0.0,0.0,0.0,0.0,0.0,0.0,0.0,0.0,1.634870171546936,0.04744216250730029,-0.00782886439022917,0.008181518721657347,-0.003063231473788619,0.0013851328985765576,0.0,0.0,0.0,0.0
666,5,5.692067588825012e-06,3.648258143584826e-06,2.2619999072048813e-05,0.0005855640629306436,-0.0007926435791887343,-0.002852899022400379,0.0,0.0,0.0,0.0,0.0,0.0,0.0,0.0,0.0,0.00045708782272413373,0.000777579378336668,-0.0,0.0,0.0,0.0,0.0,0.0,0.0,0.0,0.0,0.0,0.0,0.0,0.0,0.0,0.0,0.0,0.0,0.0,0.0,0.0,0.0,0.0,0.0,1.634870171546936,0.04719779525273075,-0.00787533003339306,0.008187594635255617,-0.003063231473788619,0.0013851328985765576,0.0,0.0,0.0,0.0
671,5,8.456353498331737e-06,-6.976391091484402e-07,4.474236448004376e-07,0.0005659399903379381,0.00020445024711079895,0.0015195492887869477,0.0,0.0,0.0,0.0,0.0,0.0,0.0,0.0,0.0,0.0009867686312645674,0.0005651446990668774,-0.0,0.0,0.0,0.0,0.0,0.0,0.0,0.0,0.0,0.0,0.0,0.0,0.0,0.0,0.0,0.0,0.0,0.0,0.0,0.0,0.0,0.0,0.0,1.6358696222305298,0.047214328750852456,-0.007699550129770829,0.008176912690697603,-0.0022277168463915586,0.002992074703797698,0.0,0.0,0.0,0.0
676,5,-1.558681560709374e-06,1.5228798474709038e-05,1.8856113456422463e-05,-0.0009754282655194402,-0.0018293923931196332,-0.0016012231353670359,0.0,0.0,0.0,0.0,0.0,0.0,0.0,0.0,0.0,0.0009867686312645674,0.0005651446990668774,-0.0,0.0,0.0,0.0,0.0,0.0,0.0,0.0,0.0,0.0,0.0,0.0,0.0,0.0,0.0,0.0,0.0,0.0,0.0,0.0,0.0,0.0,0.0,1.6358696222305298,0.04774147232153396,-0.007807299998085125,0.008233990877051945,-0.0022277168463915586,0.002992074703797698,0.0,0.0,0.0,0.0
681,5,-2.0232168935763184e-06,1.0850975741050206e-05,7.331058895942988e-06,-0.00044591553159989417,-0.00020641821902245283,0.0007425174117088318,0.0,0.0,0.0,0.0,0.0,0.0,0.0,0.0,0.0,0.002274451544508338,-0.0009236909099854529,-0.0,0.0,0.0,0.0,0.0,0.0,0.0,0.0,0.0,0.0,0.0,0.0,0.0,0.0,0.0,0.0,0.0,0.0,0.0,0.0,0.0,0.0,0.0,1.6470316648483276,0.047619515125360265,-0.007407097643928235,0.008158640983760962,0.003665889147669077,0.006943629123270512,0.0,0.0,0.0,0.0
686,5,3.802851722412015e-07,4.173038632870885e-06,-2.08055462280754e-05,0.00011005402484443039,0.0007187851588241756,0.00367339956574142,0.0,0.0,0.0,0.0,0.0,0.0,0.0,0.0,0.0,0.002274451544508338,-0.0009236909099854529,-0.0,0.0,0.0,0.0,0.0,0.0,0.0,0.0,0.0,0.0,0.0,0.0,0.0,0.0,0.0,0.0,0.0,0.0,0.0,0.0,0.0,0.0,0.0,1.6470316648483276,0.04765401541077257,-0.007386361469310383,0.008056169296791873,0.003665889147669077,0.006943629123270512,0.0,0.0,0.0,0.0
691,5,-6.156539711810183e-06,3.5137877603119705e-06,-1.9190110833733343e-05,-0.0007403973722830415,0.0003666241536848247,0.001275507383979857,0.0,0.0,0.0,0.0,0.0,0.0,0.0,0.0,0.0,-0.000882984371855855,0.00010554491746006534,-0.0,0.0,0.0,0.0,0.0,0.0,0.0,0.0,0.0,0.0,0.0,0.0,0.0,0.0,0.0,0.0,0.0,0.0,0.0,0.0,0.0,0.0,0.0,1.6330883502960205,0.04783208276604677,-0.007638285198604322,0.008017675903770272,-0.00041533520561642945,-0.0026728289667516947,0.0,0.0,0.0,0.0
696,5,-1.0574198313406669e-05,7.742810907984676e-07,-1.3074657545075752e-05,-0.0008262780029326677,0.0004753904649987817,-0.0002236512809759006,0.0,0.0,0.0,0.0,0.0,0.0,0.0,0.0,0.0,-0.000882984371855855,0.00010554491746006534,-0.0,0.0,0.0,0.0,0.0,0.0,0.0,0.0,0.0,0.0,0.0,0.0,0.0,0.0,0.0,0.0,0.0,0.0,0.0,0.0,0.0,0.0,0.0,1.6330883502960205,0.04755956801404935,-0.007682607278813912,0.008165707030240138,-0.00041533520561642945,-0.0026728289667516947,0.0,0.0,0.0,0.0
