timestamp,dt,pos_x,pos_y,pos_z,vel_x,vel_y,vel_z,roll,pitch,yaw,agv_x,agv_y,agv_z,x_ref,y_ref,z_ref,roll_ref,pitch_ref,yaw_ref,x_vel_ref,y_vel_ref,z_vel_ref,x_torque,y_torque,z_torque,w0,w1,w2,w3,u0,u1,u2,u3,m0req,m1req,m2req,m3req,thrust0,thrust1,thrust2,thrust3,thrust_ref,roll_vicon,pitch_vicon,yaw_vicon,acc_x,acc_y,acc_z
5,5,0.0,0.0,0.0,-0.002003312110900879,-0.0003813516814261675,0.0014190726215019822,-0.005245796404778957,-0.1409267634153366,0.013687212020158768,0.0016937442123889923,-0.006630951538681984,-0.0013392958790063858,0.0,0.0,0.0,0.0004519404610618949,-0.0018262534867972136,-0.0,0.0,0.0,0.0,0.0017269770614802837,0.04180984944105148,0.001440262421965599,1495.0,1495.0,1495.0,1495.0,0.0,0.0,0.0,0.0,0.0,0.0,0.0,0.0,1495.0,1495.0,1495.0,1495.0,1.707132339477539,-0.002363235225443744,0.1529780842877866,0.020478818506084615,0.007512420415878296,0.001430068863555789,0.0
31,26,0.0,0.0,0.0,0.0010446729138493538,9.086237696465105e-05,-0.002109808148816228,-0.005245796404778957,-0.1409267634153366,0.013687212020158768,0.0016937442123889923,-0.006630951538681984,-0.0013392958790063858,0.0,0.0,0.0,0.0004519404610618949,-0.0018262534867972136,-0.0,0.0,0.0,0.0,0.0017269770614802837,0.04180984944105148,0.001440262421965599,1495.0,1495.0,1495.0,1495.0,0.0,0.0,0.0,0.0,0.0,0.0,0.0,0.0,1495.0,1495.0,1495.0,1495.0,1.707132339477539,-0.0010262308438667815,0.15286988454530018,0.02033100205134369,0.007512420415878296,0.001430068863555789,0.0
36,5,0.0,0.0,0.0,-0.0007328644278459251,0.0011444183764979243,-0.0032934939954429865,-0.005280771758407354,-0.14098547399044037,0.013723435811698437,-0.003267840947955847,5.1097216783091426e-05,0.002592222997918725,0.0,0.0,0.0,-0.00010770837980089709,0.0009525822824798524,-0.0,0.0,0.0,0.0,0.0017639264697209,0.041845690459012985,0.001485983724705875,1495.0,1495.0,1495.0,1495.0,0.0,0.0,0.0,0.0,0.0,0.0,0.0,0.0,1495.0,1495.0,1495.0,1495.0,1.7067004442214966,-0.002259100314626594,0.15260670257505526,0.02045565067036158,-0.00391752365976572,-0.0003407339099794626,0.0
41,5,0.0,0.0,0.0,-0.0019365481566637754,-0.0008504766738042235,-0.000978144584223628,-0.005280771758407354,-0.14098547399044037,0.013723435811698437,-0.003267840947955847,5.1097216783091426e-05,0.002592222997918725,0.0,0.0,0.0,-0.00010770837980089709,0.0009525822824798524,-0.0,0.0,0.0,0.0,0.0017639264697209,0.041845690459012985,0.001485983724705875,1495.0,1495.0,1495.0,1495.0,0.0,0.0,0.0,0.0,0.0,0.0,0.0,0.0,1495.0,1495.0,1495.0,1495.0,1.7067004442214966,-0.002435223655410539,0.15271231376913172,0.020578125141652897,-0.00391752365976572,-0.0003407339099794626,0.0
53,11,0.0,0.0,0.0,0.0011132749496027827,-0.0004052097792737186,0.0023359712213277817,-0.005280771758407354,-0.14098547399044037,0.013723435811698437,-0.003267840947955847,5.1097216783091426e-05,0.002592222997918725,0.0,0.0,0.0,0.0010077055776491761,-0.001765047898516059,-0.0,0.0,0.0,0.0,0.001773484400473535,0.04170763120055199,0.0014296218287199736,1495.0,1495.0,1495.0,1495.0,0.0,0.0,0.0,0.0,0.0,0.0,0.0,0.0,1495.0,1495.0,1495.0,1495.0,1.7074642181396484,-0.002241444654240838,0.15241641609984896,0.02007498755130087,0.007262055762112141,0.0031892876140773296,0.0
58,5,2.2997814141945128e-07,1.1019816156476736e-05,-2.9766408715659054e-06,0.0004729073552880436,-0.0014844619436189532,0.001291585387662053,-0.005307651590555906,-0.14097896218299866,0.01371851284056902,-0.0008570787031203508,-0.002645493019372225,0.005116194020956755,0.0,0.0,0.0,0.0004801220784429461,0.0010146843269467354,-0.0,0.0,0.0,0.0,0.001773484400473535,0.04170763120055199,0.0014296218287199736,16856.0,9487.0,11276.0,16109.0,0.6494067907333374,0.1901848316192627,0.27664777636528015,0.5904610753059387,0.0,0.0,0.0,0.0,1495.0,1495.0,1495.0,1495.0,1.7074618339538574,-0.0021363965888864145,0.1526021115351112,0.020445809220185112,-0.004174781031906605,0.0015195367159321904,0.0
63,5,5.3446028687176295e-06,7.3619653448986355e-06,7.087403901095968e-06,0.0008029178716242313,-0.00015484260802622885,-0.0006910512456670403,-0.005307651590555906,-0.14097896218299866,0.01371851284056902,-0.0008570787031203508,-0.002645493019372225,0.005116194020956755,0.0,0.0,0.0,0.0004801220784429461,0.0010146843269467354,-0.0,0.0,0.0,0.0,0.001773484400473535,0.04170763120055199,0.0014296218287199736,16856.0,9487.0,11276.0,16109.0,0.6494067907333374,0.1901848316192627,0.27664777636528015,0.5904610753059387,0.0,0.0,0.0,0.0,1495.0,1495.0,1495.0,1495.0,1.7074618339538574,-0.001513719492121941,0.1531429506754547,0.02003111742460054,-0.004174781031906605,0.0015195367159321904,0.0
68,5,1.6950489225564525e-05,1.351529954263242e-05,4.208805421512807e-06,0.0017138735856860876,-0.0008003372349776328,6.901131564518437e-05,-0.005308651365339756,-0.14094524085521698,0.013759056106209755,-0.0018252996960654855,-0.0002454850764479488,-0.0036025468725711107,0.0,0.0,0.0,0.00019628262089099735,0.0007390061509795487,-0.0,0.0,0.0,0.0,0.0016143603716045618,0.04252628609538078,0.0013789971126243472,16810.0,9567.0,11200.0,16163.0,0.6457356214523315,0.19368255138397217,0.2726208567619324,0.5946614146232605,0.0,0.0,0.0,0.0,16828.0,9550.0,11213.0,16146.0,1.7073577642440796,-0.0021829532242437365,0.1529523760805328,0.020674433984052176,-0.00304035609588027,0.0006211763829924166,0.0
73,5,9.896855772240087e-06,2.9379300485743443e-06,5.2555831643985584e-05,-0.00016088665870483965,0.0009491495438851416,-0.005774038378149271,-0.005308651365339756,-0.14094524085521698,0.013759056106209755,-0.0018252996960654855,-0.0002454850764479488,-0.0036025468725711107,0.0,0.0,0.0,0.00019628262089099735,0.0007390061509795487,-0.0,0.0,0.0,0.0,0.0016143603716045618,0.04252628609538078,0.0013789971126243472,16810.0,9567.0,11200.0,16163.0,0.6457356214523315,0.19368255138397217,0.2726208567619324,0.5946614146232605,0.0,0.0,0.0,0.0,16828.0,9550.0,11213.0,16146.0,1.7073577642440796,-0.0015887089347767975,0.15302246509247175,0.02016409151337539,-0.00304035609588027,0.0006211763829924166,0.0
78,5,1.8096123312716372e-05,-5.360678642318817e-06,1.1183392416569404e-05,0.0009195575257763267,0.0013754928950220346,0.0026550772599875927,-0.005294755566865206,-0.1409667730331421,0.013768632896244526,0.0003947000077459961,0.004205511882901192,-0.0020462749525904655,0.0,0.0,0.0,-0.001119014574214816,-0.00013333740935195237,-0.0,0.0,0.0,0.0,0.0017446313286200166,0.04283199831843376,0.001402681809850037,16836.0,9503.0,11221.0,16168.0,0.6478325724601746,0.19088491797447205,0.2737111449241638,0.5950332283973694,0.0,0.0,0.0,0.0,16829.0,9510.0,11197.0,16188.0,1.7082099914550781,-0.0012954009620632586,0.15316973228072958,0.019997492953805544,0.0005488389288075268,-0.0035431161522865295,0.0
83,5,1.840864570112899e-05,4.524559358287661e-07,1.4407967796614685e-07,0.0004053256707265973,-0.00014737901801709086,0.0023867483250796795,-0.005294755566865206,-0.1409667730331421,0.013768632896244526,0.0003947000077459961,0.004205511882901192,-0.0020462749525904655,0.0,0.0,0.0,-0.001119014574214816,-0.00013333740935195237,-0.0,0.0,0.0,0.0,0.0017446313286200166,0.04283199831843376,0.001402681809850037,16836.0,9503.0,11221.0,16168.0,0.6478325724601746,0.19088491797447205,0.2737111449241638,0.5950332283973694,0.0,0.0,0.0,0.0,16829.0,9510.0,11197.0,16188.0,1.7082099914550781,-0.0012633194968100173,0.15271534527791816,0.020170936992191885,0.0005488389288075268,-0.0035431161522865295,0.0
88,5,4.91874573071982e-07,-1.4470427231572103e-05,2.3741160930512706e-06,-0.0019878821913152933,0.0017317943274974823,0.0006870949873700738,-0.0053094844333827496,-0.14104990661144257,0.013751475140452385,4.504012758843601e-05,0.0022424524649977684,-0.0017972256755456328,0.0,0.0,0.0,0.00017532618949189782,0.0003938484296668321,-0.0,0.0,0.0,0.0,0.001652243547141552,0.04256170615553856,0.0013780361041426659,16839.0,9516.0,11253.0,16135.0,0.6480368375778198,0.1914619654417038,0.27541977167129517,0.5924392938613892,0.0,0.0,0.0,0.0,16808.0,9575.0,11188.0,16178.0,1.7084102630615234,-0.0015217418026747518,0.15284720681162786,0.02027146088785023,-0.0016213365597650409,0.0005551974754780531,-0.0
93,5,-1.542964128020685e-05,-1.8083417671732605e-05,1.8175360310124233e-05,-0.002705734921619296,0.0011262765619903803,-0.0016213114140555263,-0.0053094844333827496,-0.14104990661144257,0.013751475140452385,4.504012758843601e-05,0.0022424524649977684,-0.0017972256755456328,0.0,0.0,0.0,0.00017532618949189782,0.0003938484296668321,-0.0,0.0,0.0,0.0,0.001652243547141552,0.04256170615553856,0.0013780361041426659,16839.0,9516.0,11253.0,16135.0,0.6480368375778198,0.1914619654417038,0.27541977167129517,0.5924392938613892,0.0,0.0,0.0,0.0,16808.0,9575.0,11188.0,16178.0,1.7084102630615234,-0.001244817481169697,0.15264173938044792,0.01994016353160587,-0.0016213365597650409,0.0005551974754780531,-0.0
98,5,-6.003076123306528e-06,-2.18399400182534e-05,2.417878931737505e-05,4.8893893108470365e-05,0.0009012933587655425,-0.0013689360348507762,-0.0053094844333827496,-0.14104990661144257,0.013751475140452385,4.504012758843601e-05,0.0022424524649977684,-0.0017972256755456328,0.0,0.0,0.0,-0.0013654532376676798,-0.002485866192728281,-0.0,0.0,0.0,0.0,0.001652243547141552,0.04256170615553856,0.0013780361041426659,16839.0,9516.0,11253.0,16135.0,0.6480368375778198,0.1914619654417038,0.27541977167129517,0.5924392938613892,0.0,0.0,0.0,0.0,16808.0,9575.0,11188.0,16178.0,1.7080565690994263,-0.0020242569336059927,0.15295076560743942,0.019963451325702694,0.010231304913759232,-0.0043230215087533,0.0
103,5,6.2479120970238e-06,1.3437935422189184e-06,-1.6055471860454418e-05,0.0014896761858835816,-0.0024215306621044874,0.004280536901205778,-0.005311221815645695,-0.14099743962287903,0.01374429278075695,-0.0046236878260970116,0.003870798274874687,-0.0005703859496861696,0.0,0.0,0.0,-0.0013654532376676798,-0.002485866192728281,-0.0,0.0,0.0,0.0,0.0013554039178416133,0.04245195537805557,0.0013166159624233842,16831.0,9593.0,11203.0,16144.0,0.647394597530365,0.1948535293340683,0.27277377247810364,0.5931880474090576,0.0,0.0,0.0,0.0,16868.0,9475.0,11317.0,16084.0,1.7080565690994263,-0.0018214387043168731,0.1531369141776548,0.02026858088483739,0.010231304913759232,-0.0043230215087533,0.0
108,5,6.578497959708329e-06,8.96656001714291e-06,1.3337482414499391e-05,0.0006355407531373203,-0.0018833442591130733,-0.0018149397801607847,-0.005311221815645695,-0.14099743962287903,0.01374429278075695,-0.0046236878260970116,0.003870798274874687,-0.0005703859496861696,0.0,0.0,0.0,0.0028707922901958227,0.0013657738454639912,-0.0,0.0,0.0,0.0,0.0013554039178416133,0.04245195537805557,0.0013166159624233842,16831.0,9593.0,11203.0,16144.0,0.647394597530365,0.1948535293340683,0.27277377247810364,0.5931880474090576,0.0,0.0,0.0,0.0,16868.0,9475.0,11317.0,16084.0,1.7079074382781982,-0.0019966016521700738,0.15331638288729083,0.020183845135087034,-0.005620734766125679,0.00908811017870903,0.0
114,5,1.1771206118282862e-05,1.001728196570184e-05,2.110141394950915e-05,0.0008773413137532771,-0.0008794243913143873,-0.001657647779211402,-0.0052808839827775955,-0.14101551473140717,0.013759964145720005,-0.0002671404799912125,0.003096161410212517,0.00010340846347389743,0.0,0.0,0.0,0.0028707922901958227,0.0013657738454639912,-0.0,0.0,0.0,0.0,0.001586622791364789,0.042614247649908066,0.0014216754352673888,16847.0,9518.0,11243.0,16146.0,0.6487011909484863,0.19154700636863708,0.2748814821243286,0.5932806134223938,0.0,0.0,0.0,0.0,16852.0,9504.0,11259.0,16137.0,1.7079074382781982,-0.0025062726231161493,0.15254206841977402,0.020563366843678575,-0.005620734766125679,0.00908811017870903,0.0
119,5,1.3433809726848267e-05,9.248761671187822e-06,1.8135091522708535e-05,0.0005504488945007324,-0.0002595473488327116,-0.00030710024293512106,-0.0052808839827775955,-0.14101551473140717,0.013759964145720005,-0.0002671404799912125,0.003096161410212517,0.00010340846347389743,0.0,0.0,0.0,0.0010589428711682558,0.000815044913906604,-0.0,0.0,0.0,0.0,0.001586622791364789,0.042614247649908066,0.0014216754352673888,16847.0,9518.0,11243.0,16146.0,0.6487011909484863,0.19154700636863708,0.2748814821243286,0.5932806134223938,0.0,0.0,0.0,0.0,16852.0,9504.0,11259.0,16137.0,1.7082295417785645,-0.0016889616947565167,0.15307657769069868,0.02034828403496706,-0.0033548984210938215,0.0033529505599290133,0.0
124,5,1.908479316625744e-05,8.28560132504208e-06,7.734525752312038e-06,0.00089829764328897,1.1760346751543693e-05,0.0011252276599407196,-0.005280711222440004,-0.14104299247264862,0.013781710527837276,0.00047975045163184404,-0.0016697193495929241,0.002799833891913295,0.0,0.0,0.0,0.0010589428711682558,0.000815044913906604,-0.0,0.0,0.0,0.0,0.0011837630299851298,0.0417487658560276,0.001388998469337821,16824.0,9642.0,11293.0,16060.0,0.6468454003334045,0.19702892005443573,0.27752137184143066,0.5866608619689941,0.0,0.0,0.0,0.0,16848.0,9597.0,11347.0,16024.0,1.7082295417785645,-0.001993774141827672,0.15249608619036212,0.020549543717593856,-0.0033548984210938215,0.0033529505599290133,0.0
129,5,2.5012903279275633e-05,4.272056685294956e-06,-9.240339750249404e-06,0.0010706920875236392,0.000486329518025741,0.002487075049430132,-0.005280711222440004,-0.14104299247264862,0.013781710527837276,0.00047975045163184404,-0.0016697193495929241,0.002799833891913295,0.0,0.0,0.0,0.0010589428711682558,0.000815044913906604,-0.0,0.0,0.0,0.0,0.0011837630299851298,0.0417487658560276,0.001388998469337821,16824.0,9642.0,11293.0,16060.0,0.6468454003334045,0.19702892005443573,0.27752137184143066,0.5866608619689941,0.0,0.0,0.0,0.0,16848.0,9597.0,11347.0,16024.0,1.7082295417785645,-0.0011062541683595905,0.15303213902582888,0.02016429111687843,-0.0033548984210938215,0.0033529505599290133,0.0
134,5,1.143766439781757e-05,1.7564076415510499e-06,7.71800841903314e-06,-0.001200751750729978,0.0004964096588082612,-0.0010401717154309154,-0.005286511965095997,-0.14099334180355072,0.013812121003866196,0.0008094415534287691,-0.006897809915244579,-0.0021006178576499224,0.0,0.0,0.0,-0.000568397983442992,0.0010086382972076535,-0.0,0.0,0.0,0.0,0.001894064829684794,0.042882055044174194,0.0015465590404346585,16793.0,9447.0,11280.0,16211.0,0.6443183422088623,0.1884360909461975,0.2768383026123047,0.5983147025108337,0.0,0.0,0.0,0.0,16804.0,9438.0,11299.0,16191.0,1.7086858749389648,-0.0019475219697480857,0.15265798916579404,0.020236916769744196,-0.0041528805159032345,-0.0018002103315666318,0.0
139,5,3.7320070987334475e-05,6.362817202898441e-06,2.124430693584145e-06,0.002625588094815612,-0.00035420525819063187,0.00025516055757179856,-0.005286511965095997,-0.14099334180355072,0.013812121003866196,0.0008094415534287691,-0.006897809915244579,-0.0021006178576499224,0.0,0.0,0.0,-0.000568397983442992,0.0010086382972076535,-0.0,0.0,0.0,0.0,0.001894064829684794,0.042882055044174194,0.0015465590404346585,16793.0,9447.0,11280.0,16211.0,0.6443183422088623,0.1884360909461975,0.2768383026123047,0.5983147025108337,0.0,0.0,0.0,0.0,16804.0,9438.0,11299.0,16191.0,1.7086858749389648,-0.0013241449244287742,0.15254665127566513,0.02058572445234722,-0.0041528805159032345,-0.0018002103315666318,0.0
144,5,-4.416816864249995e-06,-4.676414846471744e-06,2.9731645554420538e-05,-0.003958191256970167,0.0011830257717519999,-0.003210801398381591,-0.005275394767522812,-0.1409723162651062,0.013838784769177437,-0.0008811012958176434,0.004973066039383411,0.001964422408491373,0.0,0.0,0.0,0.00043029137304984033,0.0024403748102486134,-0.0,0.0,0.0,0.0,0.001894064829684794,0.042882055044174194,0.0015465590404346585,16879.0,9401.0,11293.0,16143.0,0.6512370705604553,0.18643701076507568,0.2775036692619324,0.5930517911911011,0.0,0.0,0.0,0.0,16843.0,9459.0,11240.0,16183.0,1.709328532218933,-0.002305964545266604,0.15298054371313582,0.020304166164607212,-0.010051560588181019,0.0013633165508508682,-0.0
149,5,-2.66937763626629e-06,-5.178119408810744e-06,4.1009090637089685e-05,-0.0013735838001593947,0.0005334148881956935,-0.002637614030390978,-0.005275394767522812,-0.1409723162651062,0.013838784769177437,-0.0008811012958176434,0.004973066039383411,0.001964422408491373,0.0,0.0,0.0,0.00043029137304984033,0.0024403748102486134,-0.0,0.0,0.0,0.0,0.001894064829684794,0.042882055044174194,0.0015465590404346585,16879.0,9401.0,11293.0,16143.0,0.6512370705604553,0.18643701076507568,0.2775036692619324,0.5930517911911011,0.0,0.0,0.0,0.0,16843.0,9459.0,11240.0,16183.0,1.709328532218933,-0.002227678485782483,0.1527220028500784,0.020207969742940857,-0.010051560588181019,0.0013633165508508682,-0.0
154,5,-0.00020843470701947808,-0.0004524932010099292,0.0008892922196537256,-0.025241274386644363,0.05389117822051048,-0.10284902155399323,-0.005268119741231203,-0.1410074084997177,0.013818212784826756,0.0024649633560329676,0.003867381252348423,-0.0017028481233865023,0.0,0.0,0.0,-0.0006401086575351655,-0.001253648311831057,-0.0,0.0,0.0,0.0,0.0013634481001645327,0.04296886548399925,0.0013278629630804062,16865.0,9539.0,11168.0,16170.0,0.6501210927963257,0.19245801866054535,0.27097204327583313,0.5951347351074219,0.0,0.0,0.0,0.0,16867.0,9525.0,11183.0,16165.0,1.709884762763977,-0.0027897376192275334,0.14608321944540606,0.011003034949498645,0.005165284965187311,-0.002028752351179719,0.0
159,5,-0.00020082788250874728,-0.00044591494952328503,0.0008586824988014996,-0.009183689951896667,0.020767081528902054,-0.037466444075107574,-0.005268119741231203,-0.1410074084997177,0.013818212784826756,0.0024649633560329676,0.003867381252348423,-0.0017028481233865023,0.0,0.0,0.0,-0.0006401086575351655,-0.001253648311831057,-0.0,0.0,0.0,0.0,0.0013634481001645327,0.04296886548399925,0.0013278629630804062,16865.0,9539.0,11168.0,16170.0,0.6501210927963257,0.19245801866054535,0.27097204327583313,0.5951347351074219,0.0,0.0,0.0,0.0,16867.0,9525.0,11183.0,16165.0,1.709884762763977,-0.0017983030552277263,0.14635511835022544,0.010737368568369703,0.005165284965187311,-0.002028752351179719,0.0
164,5,-0.0001933335734065622,-0.0004422364290803671,0.0008097916143015027,-0.0027741589583456516,0.007865408435463905,-0.009119674563407898,-0.005255864933133125,-0.1410253942012787,0.013812952674925327,0.0007970671285875142,-0.003750721924006939,0.004585839807987213,0.0,0.0,0.0,-0.023328501731157303,-0.007941031828522682,-0.0,0.0,0.0,0.0,0.0016929173143580556,0.04258759692311287,0.0009907112689688802,16899.0,9418.0,11229.0,16169.0,0.6528757810592651,0.18715815246105194,0.27417027950286865,0.595124363899231,0.0,0.0,0.0,0.0,16910.0,9385.0,11259.0,16155.0,1.8580495119094849,-0.002102385376591996,0.1462658328620938,0.010983423667827999,0.03554375842213631,-0.08033061772584915,0.0
170,5,-0.00019762922602239996,-0.00043484551133587956,0.00081636942923069,-0.0016251414781436324,0.0022592528257519007,-0.004437207709997892,-0.005255864933133125,-0.1410253942012787,0.013812952674925327,0.0007970671285875142,-0.003750721924006939,0.004585839807987213,0.0,0.0,0.0,-0.023328501731157303,-0.007941031828522682,-0.0,0.0,0.0,0.0,0.0016929173143580556,0.04258759692311287,0.0009907112689688802,16899.0,9418.0,11229.0,16169.0,0.6528757810592651,0.18715815246105194,0.27417027950286865,0.595124363899231,0.0,0.0,0.0,0.0,16910.0,9385.0,11259.0,16155.0,1.8580495119094849,-0.00225851412212908,0.14628833342369027,0.011086057637041019,0.03554375842213631,-0.08033061772584915,0.0
175,5,-0.00018644075316842645,-0.00044120565871708095,0.0008682059124112129,0.0006925592315383255,0.001666921190917492,-0.007995259016752243,-0.005349406041204929,-0.14106477797031403,0.013718903064727783,-0.0054273707792162895,-0.0017657772405073047,0.012038059532642365,0.0,0.0,0.0,-0.0034297837410122156,-0.0017437433125451207,-0.0,0.0,0.0,0.0,-0.005475349258631468,0.040358252823352814,0.0004911058931611478,17289.0,11561.0,11147.0,16379.0,0.68483567237854,0.29191088676452637,0.2698798179626465,0.6114231944084167,0.0,0.0,0.0,0.0,17052.0,9168.0,11654.0,15857.0,1.7093534469604492,-0.0011189499006761922,0.14621384174174265,0.01078287340188589,0.007182300090789795,-0.010866898111999035,0.0
180,5,-0.0001685674797045067,-0.00044874558807350695,0.0008821345982141793,0.0024218172766268253,0.0015715587651357055,-0.004869544412940741,-0.005349406041204929,-0.14106477797031403,0.013718903064727783,-0.0054273707792162895,-0.0017657772405073047,0.012038059532642365,0.0,0.0,0.0,-0.0034297837410122156,-0.0017437433125451207,-0.0,0.0,0.0,0.0,-0.005475349258631468,0.040358252823352814,0.0004911058931611478,17289.0,11561.0,11147.0,16379.0,0.68483567237854,0.29191088676452637,0.2698798179626465,0.6114231944084167,0.0,0.0,0.0,0.0,17052.0,9168.0,11654.0,15857.0,1.7093534469604492,-0.00218722485506617,0.14631815864825826,0.01093572614208247,0.007182300090789795,-0.010866898111999035,0.0
185,5,-0.0001898477494250983,-0.00045057007810100913,0.0009308754233643413,-0.0015849056653678417,0.0008475634385831654,-0.007796717341989279,-0.005363837815821171,-0.14104236662387848,0.01365545392036438,0.011138142086565495,0.0042410497553646564,-0.027355162426829338,0.0,0.0,0.0,-0.00264353328384459,0.001981713343411684,-0.0,0.0,0.0,0.0,0.0005086105084046721,0.04227679222822189,0.0016335782129317522,17289.0,11561.0,11147.0,16379.0,0.68483567237854,0.29191088676452637,0.2698798179626465,0.6114231944084167,0.0,0.0,0.0,0.0,17586.0,11101.0,11600.0,16062.0,1.7073748111724854,-0.0031646708225422375,0.14572349459871967,0.010956075556759077,-0.008153044618666172,-0.00836606603115797,0.0
190,5,-0.00018466770416125655,-0.00047272260417230427,0.000944802537560463,-1.2356194019957911e-05,0.002997326198965311,-0.004789938684552908,-0.005363837815821171,-0.14104236662387848,0.01365545392036438,0.011138142086565495,0.0042410497553646564,-0.027355162426829338,0.0,0.0,0.0,-0.00264353328384459,0.001981713343411684,-0.0,0.0,0.0,0.0,0.0005086105084046721,0.04227679222822189,0.0016335782129317522,17289.0,11561.0,11147.0,16379.0,0.68483567237854,0.29191088676452637,0.2698798179626465,0.6114231944084167,0.0,0.0,0.0,0.0,17586.0,11101.0,11600.0,16062.0,1.7073748111724854,-0.0015521945919650657,0.14661759162475607,0.010485673907811618,-0.008153044618666172,-0.00836606603115797,0.0
195,5,-0.00018236093455925584,-0.000447145604994148,0.0009230079594999552,0.0002718693867791444,-0.001870310283266008,0.0006993729039095342,-0.005279874429106712,-0.14106903970241547,0.013904580846428871,0.0017096629599109292,0.004412637557834387,-0.05756024643778801,0.0,0.0,0.0,-0.004378585610538721,-0.0002588965289760381,-0.0,0.0,0.0,0.0,0.0005445171264000237,0.042652878910303116,0.004735671449452639,17867.0,7539.0,12581.0,15020.0,0.7336998581886292,0.1142921969294548,0.34983327984809875,0.5095494389533997,0.0,0.0,0.0,0.0,16254.0,10732.0,10208.0,16688.0,1.7060487270355225,-0.0021970642090062505,0.14696152674479224,0.0112776640957877,0.0010643033310770988,-0.013846222311258316,0.0
200,5,-0.0003342577547300607,-0.00045992975356057286,0.0010445043444633484,-0.01811887137591839,0.0007859766483306885,-0.014299821108579636,-0.005279874429106712,-0.14106903970241547,0.013904580846428871,0.0017096629599109292,0.004412637557834387,-0.05756024643778801,0.0,0.0,0.0,-0.004378585610538721,-0.0002588965289760381,-0.0,0.0,0.0,0.0,0.0005445171264000237,0.042652878910303116,0.004735671449452639,17867.0,7539.0,12581.0,15020.0,0.7336998581886292,0.1142921969294548,0.34983327984809875,0.5095494389533997,0.0,0.0,0.0,0.0,16254.0,10732.0,10208.0,16688.0,1.7060487270355225,-0.0018838427012227753,0.1497559208566683,0.009819113212023986,0.0697876513004303,-0.00548491021618247,0.0
205,5,-0.0001907393307192251,-0.00043021043529734015,0.000828342221211642,0.009974663145840168,-0.0032519283704459667,0.020219530910253525,-0.005279874429106712,-0.14106903970241547,0.013904580846428871,0.0017096629599109292,0.004412637557834387,-0.05756024643778801,0.0,0.0,0.0,-0.0016332564409822226,-0.015985963866114616,-0.0,0.0,0.0,0.0,0.0005445171264000237,0.042652878910303116,0.004735671449452639,17867.0,7539.0,12581.0,15020.0,0.7336998581886292,0.1142921969294548,0.34983327984809875,0.5095494389533997,0.0,0.0,0.0,0.0,16254.0,10732.0,10208.0,16688.0,1.81178617477417,-0.002056554084635194,0.1471826953496623,0.01089000760965944,0.0697876513004303,-0.00548491021618247,0.0
210,5,-0.0001973027247004211,-0.00043721613474190235,0.0008729129331186414,0.0032022574450820684,-0.0004600878746714443,0.0027393281925469637,-0.005292803049087524,-0.14105789363384247,0.013680633157491684,-0.013112356886267662,0.001368379802443087,0.07689639925956726,0.0,0.0,0.0,-0.0016332564409822226,-0.015985963866114616,-0.0,0.0,0.0,0.0,0.001031093648634851,0.04357198625802994,0.00044980307575315237,17063.0,9306.0,11371.0,15918.0,0.6662390232086182,0.18231560289859772,0.28165650367736816,0.5758375525474548,0.0,0.0,0.0,0.0,16969.0,9383.0,11154.0,16141.0,1.81178617477417,-0.002681290242119308,0.146142040676727,0.011078179134404061,0.0697876513004303,-0.00548491021618247,0.0
215,5,-0.0003603854274842888,-0.00047733596875332296,0.0011413872707635164,-0.018289020285010338,0.004630343988537788,-0.03112119622528553,-0.005292803049087524,-0.14105789363384247,0.013680633157491684,-0.013112356886267662,0.001368379802443087,0.07689639925956726,0.0,0.0,0.0,-0.00021774320339318365,0.002655301010236144,-0.0,0.0,0.0,0.0,0.0004876253951806575,0.042980603873729706,-0.001242540660314262,15970.0,11989.0,10621.0,17149.0,0.5798291563987732,0.3155556917190552,0.24312537908554077,0.6732759475708008,0.0,0.0,0.0,0.0,17972.0,7245.0,12762.0,14860.0,1.7065675258636475,-0.005412574480415431,0.14521695156271558,0.010109159186133303,-0.010919144377112389,-0.00068877381272614,-0.0
220,5,-0.00021360621030908078,-0.00047909619752317667,0.0010701928986236453,0.010297897271811962,0.002063366584479809,-0.0039051526691764593,-0.005292803049087524,-0.14105789363384247,0.013680633157491684,-0.013112356886267662,0.001368379802443087,0.07689639925956726,0.0,0.0,0.0,-0.00021774320339318365,0.002655301010236144,-0.0,0.0,0.0,0.0,0.0004876253951806575,0.042980603873729706,-0.001242540660314262,15970.0,11989.0,10621.0,17149.0,0.5798291563987732,0.3155556917190552,0.24312537908554077,0.6732759475708008,0.0,0.0,0.0,0.0,17972.0,7245.0,12762.0,14860.0,1.7065675258636475,-0.006473659098573406,0.14114069954271163,0.01081360759196121,-0.010919144377112389,-0.00068877381272614,-0.0
225,5,-0.00020379175839480013,-0.00042810835293494165,0.0009676558547653258,0.005296893417835236,-0.00529319467023015,0.010742387734353542,-0.005292803049087524,-0.14105789363384247,0.013680633157491684,-0.013112356886267662,0.001368379802443087,0.07689639925956726,0.0,0.0,0.0,-0.0032381031196564436,0.008980601094663143,-0.0,0.0,0.0,0.0,0.0004876253951806575,0.042980603873729706,-0.001242540660314262,15970.0,11989.0,10621.0,17149.0,0.5798291563987732,0.3155556917190552,0.24312537908554077,0.6732759475708008,0.0,0.0,0.0,0.0,17972.0,7245.0,12762.0,14860.0,1.730040192604065,-0.0010845682424521865,0.14663490358343034,0.010728961630922178,-0.037437375634908676,-0.010383745655417442,0.0
231,5,-0.00016366464842576534,-0.00043970064143650234,0.0009398245019838214,0.00693401088938117,-0.000726204423699528,0.007636713329702616,-0.00530816288664937,-0.14105018973350525,0.01469142735004425,0.011016876436769962,-0.00941704586148262,-0.0027640105690807104,0.0,0.0,0.0,9.126569784712046e-05,0.006028149276971817,-0.0,0.0,0.0,0.0,0.0014699383173137903,0.037995412945747375,0.004581708461046219,17415.0,8361.0,11961.0,15618.0,0.6953365802764893,0.14398282766342163,0.31399649381637573,0.5532516241073608,0.0,0.0,0.0,0.0,16807.0,10821.0,11865.0,16291.0,1.7277740240097046,-0.0017214095419315653,0.14623452894124334,0.01040661335056264,-0.02509690821170807,0.00029228266794234514,-0.0
236,5,-0.00019802867609541863,-0.0004194748180452734,0.0010631419718265533,-0.001350079313851893,-0.0027175794821232557,-0.011743411421775818,-0.00530816288664937,-0.14105018973350525,0.01469142735004425,0.011016876436769962,-0.00941704586148262,-0.0027640105690807104,0.0,0.0,0.0,9.126569784712046e-05,0.006028149276971817,-0.0,0.0,0.0,0.0,0.0014699383173137903,0.037995412945747375,0.004581708461046219,17415.0,8361.0,11961.0,15618.0,0.6953365802764893,0.14398282766342163,0.31399649381637573,0.5532516241073608,0.0,0.0,0.0,0.0,16807.0,10821.0,11865.0,16291.0,1.7277740240097046,-0.0011242034480037119,0.1451682211823005,0.011133428459809363,-0.02509690821170807,0.00029228266794234514,-0.0
241,5,-0.00025007963995449245,-0.00041508732829242945,0.0011561448918655515,-0.0067861489951610565,-0.0016135313780978322,-0.01585770770907402,-0.005164088681340218,-0.1397802084684372,0.014013446867465973,0.04213922470808029,-0.24994437396526337,0.09520591795444489,0.0,0.0,0.0,0.001174218486994505,-0.0014914197381585836,-0.0,0.0,0.0,0.0,0.0012293977197259665,0.03757690638303757,0.0015269924188032746,17230.0,9372.0,12254.0,15360.0,0.680024266242981,0.18517285585403442,0.33067137002944946,0.5341715812683105,0.0,0.0,0.0,0.0,15889.0,11172.0,9538.0,17101.0,1.71355140209198,0.0007473157597435603,0.14426241275077714,0.010835570779272696,0.006158124189823866,0.0037295327056199312,0.0
246,5,-0.00046424398897215724,-0.0004886120441369712,0.001641739159822464,-0.028414178639650345,0.008177554234862328,-0.06461440026760101,-0.005164088681340218,-0.1397802084684372,0.014013446867465973,0.04213922470808029,-0.24994437396526337,0.09520591795444489,0.0,0.0,0.0,0.001174218486994505,-0.0014914197381585836,-0.0,0.0,0.0,0.0,0.0012293977197259665,0.03757690638303757,0.0015269924188032746,17230.0,9372.0,12254.0,15360.0,0.680024266242981,0.18517285585403442,0.33067137002944946,0.5341715812683105,0.0,0.0,0.0,0.0,15889.0,11172.0,9538.0,17101.0,1.71355140209198,-0.003503198283831636,0.13715402156208584,0.009231517625294965,0.006158124189823866,0.0037295327056199312,0.0
251,5,-0.00035396049497649074,-0.0005029687890782952,0.0013588475994765759,0.0018683451926335692,0.004993830807507038,0.008101224899291992,-0.004934233147650957,-0.13696126639842987,0.014073044992983341,0.05009930208325386,-0.599536657333374,-0.12024518847465515,0.0,0.0,0.0,0.001174218486994505,-0.0014914197381585836,-0.0,0.0,0.0,0.0,-0.00011182381422258914,0.029922831803560257,-0.0004566495190374553,15246.0,12266.0,11423.0,16053.0,0.525813639163971,0.3313835859298706,0.28446006774902344,0.5861167311668396,0.0,0.0,0.0,0.0,17410.0,9087.0,12749.0,14916.0,1.71355140209198,-0.003853605978572164,0.13715288117148797,0.009978446195925791,0.006158124189823866,0.0037295327056199312,0.0
256,5,-0.00048178949509747326,-0.000537077256012708,0.0015659666387364268,-0.014592141844332218,0.006090544164180756,-0.021613791584968567,-0.004934233147650957,-0.13696126639842987,0.014073044992983341,0.05009930208325386,-0.599536657333374,-0.12024518847465515,0.0,0.0,0.0,-0.00676698936149478,0.0012226640246808529,-0.0,0.0,0.0,0.0,-0.00011182381422258914,0.029922831803560257,-0.0004566495190374553,15246.0,12266.0,11423.0,16053.0,0.525813639163971,0.3313835859298706,0.28446006774902344,0.5861167311668396,0.0,0.0,0.0,0.0,17410.0,9087.0,12749.0,14916.0,1.7148386240005493,-0.004355655473496536,0.13294582706189792,0.009404098156596184,-0.005052103661000729,-0.02150905318558216,-0.0
261,5,-0.0005842400714755058,-0.0005838109645992517,0.00169517716858536,-0.018130922690033913,0.00804426521062851,-0.024150775745511055,-0.004550308454781771,-0.12738510966300964,0.013616679236292839,0.05403256416320801,-1.0596965551376343,-0.007602756377309561,0.0,0.0,0.0,-0.00676698936149478,0.0012226640246808529,-0.0,0.0,0.0,0.0,0.00046829364146105945,0.012223178520798683,0.0018677526386454701,15094.0,12521.0,13797.0,14028.0,0.514842689037323,0.3462713658809662,0.4257151782512665,0.4409448206424713,0.0,0.0,0.0,0.0,14813.0,12787.0,11711.0,15851.0,1.7148386240005493,-0.004964539698680537,0.12719688405104185,0.008662800399876939,-0.005052103661000729,-0.02150905318558216,-0.0
266,5,-0.0007257642573677003,-0.0006602927460335195,0.0019910396076738834,-0.024235276505351067,0.012395517900586128,-0.04516379162669182,-0.004550308454781771,-0.12738510966300964,0.013616679236292839,0.05403256416320801,-1.0596965551376343,-0.007602756377309561,0.0,0.0,0.0,-0.009822690859436989,-0.01611381396651268,-0.0,0.0,0.0,0.0,0.00046829364146105945,0.012223178520798683,0.0018677526386454701,15094.0,12521.0,13797.0,14028.0,0.514842689037323,0.3462713658809662,0.4257151782512665,0.4409448206424713,0.0,0.0,0.0,0.0,14813.0,12787.0,11711.0,15851.0,1.8342278003692627,-0.010220198006785669,0.11479375742768484,0.008227950193132806,0.0712137371301651,-0.03339485824108124,0.0
271,5,-0.0009905368788167834,-0.0006659457576461136,0.002103355247527361,-0.04146682843565941,0.0056365723721683025,-0.031543392688035965,-0.004290801007300615,-0.11727319657802582,0.013320224359631538,0.05393519625067711,-1.5706990957260132,-0.030764250084757805,0.0,0.0,0.0,-0.009822690859436989,-0.01611381396651268,-0.0,0.0,0.0,0.0,0.0008720926707610488,-0.008489693515002728,1.6708321709302254e-05,13213.0,14333.0,14680.0,13050.0,0.38831469416618347,0.46149739623069763,0.4854981601238251,0.3782411515712738,0.0,0.0,0.0,0.0,14377.0,13140.0,13960.0,13844.0,1.8342278003692627,-0.0065569295301545994,0.11615023183827225,0.0072557523283406115,0.0712137371301651,-0.03339485824108124,0.0
276,5,-0.0010610513854771852,-0.0007074735476635396,0.0021336860954761505,-0.02504846826195717,0.0072379643097519875,-0.016257084906101227,-0.004290801007300615,-0.11727319657802582,0.013320224359631538,0.05393519625067711,-1.5706990957260132,-0.030764250084757805,0.0,0.0,0.0,-0.006546476390212774,-0.03266359120607376,-0.0,0.0,0.0,0.0,0.0008720926707610488,-0.008489693515002728,1.6708321709302254e-05,13213.0,14333.0,14680.0,13050.0,0.38831469416618347,0.46149739623069763,0.4854981601238251,0.3782411515712738,0.0,0.0,0.0,0.0,14377.0,13140.0,13960.0,13844.0,2.0454678535461426,-0.007457516611042419,0.10775416562876744,0.00746315214420579,0.16096147894859314,-0.024820081889629364,0.0
281,5,-0.0012629814445972443,-0.0007450900739058852,0.0022776240948587656,-0.03425099328160286,0.007409165147691965,-0.023775367066264153,-0.0037913531996309757,-0.09667043387889862,0.013127701357007027,0.056204453110694885,-1.8918262720108032,-0.003991791978478432,0.0,0.0,0.0,-0.006546476390212774,-0.03266359120607376,-0.0,0.0,0.0,0.0,-0.0017848463030532002,-0.023053042590618134,0.0012540235184133053,12576.0,15230.0,15811.0,11206.0,0.34950998425483704,0.5246284604072571,0.5677401423454285,0.2729600965976715,0.0,0.0,0.0,0.0,13000.0,14840.0,14923.0,12421.0,2.0454678535461426,-0.007797227646357436,0.10165286531977911,0.006773074463423935,0.16096147894859314,-0.024820081889629364,0.0
286,5,-0.0014323702780529857,-0.0007984608528204262,0.002376704243943095,-0.03402705490589142,0.009368160739541054,-0.021399786695837975,-0.0037913531996309757,-0.09667043387889862,0.013127701357007027,0.056204453110694885,-1.8918262720108032,-0.003991791978478432,0.0,0.0,0.0,-0.008662272244691849,-0.028283024206757545,-0.0,0.0,0.0,0.0,-0.0017848463030532002,-0.023053042590618134,0.0012540235184133053,12576.0,15230.0,15811.0,11206.0,0.34950998425483704,0.5246284604072571,0.5677401423454285,0.2729600965976715,0.0,0.0,0.0,0.0,13000.0,14840.0,14923.0,12421.0,1.9871516227722168,-0.009130955805028122,0.0929625961918845,0.006517065703000257,0.13540495932102203,-0.03190520405769348,0.0
291,5,-0.0016300558345392346,-0.0008157475385814905,0.002512461505830288,-0.03733309358358383,0.005821671336889267,-0.02485078014433384,-0.0033468056935817003,-0.08131113648414612,0.013108464889228344,0.0757916197180748,-1.9111149311065674,-0.04147685691714287,0.0,0.0,0.0,-0.008662272244691849,-0.028283024206757545,-0.0,0.0,0.0,0.0,-0.0030889338813722134,-0.03772006928920746,0.0007623729761689901,11987.0,16602.0,16591.0,10987.0,0.31542423367500305,0.6290859580039978,0.6281590461730957,0.26155856251716614,0.0,0.0,0.0,0.0,12749.0,15986.0,16650.0,10965.0,1.9871516227722168,-0.009613967330364813,0.0842146084500775,0.006748673247852409,0.13540495932102203,-0.03190520405769348,0.0
297,5,-0.0017524618888273835,-0.0008326992974616587,0.002524346113204956,-0.029621964320540428,0.004362879320979118,-0.011366469785571098,-0.0033468056935817003,-0.08131113648414612,0.013108464889228344,0.0757916197180748,-1.9111149311065674,-0.04147685691714287,0.0,0.0,0.0,-0.0070457239635288715,-0.03065699338912964,-0.0,0.0,0.0,0.0,-0.0030889338813722134,-0.03772006928920746,0.0007623729761689901,11987.0,16602.0,16591.0,10987.0,0.31542423367500305,0.6290859580039978,0.6281590461730957,0.26155856251716614,0.0,0.0,0.0,0.0,12749.0,15986.0,16650.0,10965.0,2.017191171646118,-0.009206837049103661,0.07611240996130393,0.0075699622975478505,0.14898745715618134,-0.0263435747474432,0.0
302,5,-0.0018763493280857801,-0.0008555491222068667,0.0025142328813672066,-0.005750330630689859,-0.00033330352744087577,0.009817591868340969,-0.002492099767550826,-0.06014098599553108,0.012828612700104713,0.05549514666199684,-1.5568287372589111,-0.021256335079669952,0.0,0.0,0.0,-0.0070457239635288715,-0.03065699338912964,-0.0,0.0,0.0,0.0,-0.0023947395384311676,-0.03805655613541603,0.0011640576412901282,12950.0,17116.0,17530.0,11669.0,0.3720470368862152,0.6706081628799438,0.7050222158432007,0.29779043793678284,0.0,0.0,0.0,0.0,12407.0,17486.0,17530.0,11703.0,2.017191171646118,-0.0077790230962779434,0.06592534360221249,0.009034886952410415,0.14898745715618134,-0.0263435747474432,0.0
307,5,-0.0019654936622828245,-0.0008739717886783183,0.0026410166174173355,-0.012997446581721306,0.0020773960277438164,-0.011287008412182331,-0.002492099767550826,-0.06014098599553108,0.012828612700104713,0.05549514666199684,-1.5568287372589111,-0.021256335079669952,0.0,0.0,0.0,-0.001097940024919808,-0.007735576946288347,-0.0,0.0,0.0,0.0,-0.0023947395384311676,-0.03805655613541603,0.0011640576412901282,12950.0,17116.0,17530.0,11669.0,0.3720470368862152,0.6706081628799438,0.7050222158432007,0.29779043793678284,0.0,0.0,0.0,0.0,12407.0,17486.0,17530.0,11703.0,1.7121086120605469,-0.010321087102741414,0.061544763628453784,0.010240707284463099,0.03191327303647995,-0.0034843224566429853,-0.0
312,5,-0.0018975593848153949,-0.0008215938578359783,0.0024803117848932743,0.00295313261449337,-0.005454395432025194,0.014769784174859524,-0.002018773229792714,-0.049626607447862625,0.01261927094310522,0.05643311142921448,-0.9184001088142395,0.0006062398897483945,0.0,0.0,0.0,-0.001097940024919808,-0.007735576946288347,-0.0,0.0,0.0,0.0,-0.0032575998920947313,-0.024497656151652336,0.0009142982889898121,14039.0,15967.0,16456.0,12557.0,0.4417281448841095,0.5795528888702393,0.6174906492233276,0.34838002920150757,0.0,0.0,0.0,0.0,13025.0,16738.0,16891.0,12038.0,1.7121086120605469,-0.006450957079372466,0.06289250110961424,0.011960549857811448,0.03191327303647995,-0.0034843224566429853,-0.0
317,5,-0.001895866240374744,-0.0008077446836978197,0.0025023038033396006,0.0013844385975971818,-0.0038436558097600937,0.0032688823994249105,-0.002018773229792714,-0.049626607447862625,0.01261927094310522,0.05643311142921448,-0.9184001088142395,0.0006062398897483945,0.0,0.0,0.0,0.005094402469694614,0.00014819401258137077,-0.0,0.0,0.0,0.0,-0.0032575998920947313,-0.024497656151652336,0.0009142982889898121,14039.0,15967.0,16456.0,12557.0,0.4417281448841095,0.5795528888702393,0.6174906492233276,0.34838002920150757,0.0,0.0,0.0,0.0,13025.0,16738.0,16891.0,12038.0,1.684218406677246,-0.006983197124874633,0.06376385231882109,0.013205159815563925,-0.0006014165119268,0.015903649851679802,-0.0
322,5,-0.0018370960606262088,-0.0008776528411544859,0.0024876752868294716,0.007606194354593754,0.006851519457995892,0.0030629548709839582,-0.0015480888541787863,-0.04264892265200615,0.012956760823726654,0.000770952261518687,-0.15125863254070282,0.023294370621442795,0.0,0.0,0.0,0.005094402469694614,0.00014819401258137077,-0.0,0.0,0.0,0.0,-0.0018634417792782187,-0.004062597639858723,0.00232722912915051,15664.0,14427.0,15725.0,13882.0,0.556695818901062,0.46794435381889343,0.5612335801124573,0.4313172996044159,0.0,0.0,0.0,0.0,14545.0,15618.0,16390.0,13007.0,1.684218406677246,-0.013345741393198086,0.06335640480814642,0.012801839473485913,-0.0006014165119268,0.015903649851679802,-0.0
327,5,-0.0017699521267786622,-0.0007601669058203697,0.0024037316907197237,0.011099742725491524,-0.01135771069675684,0.011298411525785923,-0.0015480888541787863,-0.04264892265200615,0.012956760823726654,0.000770952261518687,-0.15125863254070282,0.023294370621442795,0.0,0.0,0.0,0.005094402469694614,0.00014819401258137077,-0.0,0.0,0.0,0.0,-0.0018634417792782187,-0.004062597639858723,0.00232722912915051,15664.0,14427.0,15725.0,13882.0,0.556695818901062,0.46794435381889343,0.5612335801124573,0.4313172996044159,0.0,0.0,0.0,0.0,14545.0,15618.0,16390.0,13007.0,1.684218406677246,-0.005376160651981942,0.07002377165543551,0.015587628026519477,-0.0006014165119268,0.015903649851679802,-0.0
332,5,-0.0017165307654067874,-0.0007587213185615838,0.0023703300394117832,0.01085046399384737,-0.004716551396995783,0.008527581579983234,-0.0016035784501582384,-0.04378921166062355,0.01323831919580698,-0.026729637756943703,0.4236334562301636,0.07152768969535828,0.0,0.0,0.0,0.011769525706768036,0.007513378746807575,-0.0,0.0,0.0,0.0,0.000807043572422117,0.02151378244161606,0.003076871857047081,16290.0,10664.0,13451.0,14297.0,0.6044893264770508,0.2452332079410553,0.40334048867225647,0.45904555916786194,0.0,0.0,0.0,0.0,16661.0,9362.0,13307.0,14479.0,1.759192943572998,-0.0047786836103541445,0.07293708658129842,0.015711935841733204,-0.031846851110458374,0.03837627172470093,-0.0
337,5,-0.0016598934307694435,-0.0007671235944144428,0.0023291378747671843,0.01113666407763958,-0.0008783444063737988,0.008354086428880692,-0.0016035784501582384,-0.04378921166062355,0.01323831919580698,-0.026729637756943703,0.4236334562301636,0.07152768969535828,0.0,0.0,0.0,0.011769525706768036,0.007513378746807575,-0.0,0.0,0.0,0.0,0.000807043572422117,0.02151378244161606,0.003076871857047081,16290.0,10664.0,13451.0,14297.0,0.6044893264770508,0.2452332079410553,0.40334048867225647,0.45904555916786194,0.0,0.0,0.0,0.0,16661.0,9362.0,13307.0,14479.0,1.759192943572998,-0.004592594533604907,0.07452987195325865,0.016375854463128735,-0.031846851110458374,0.03837627172470093,-0.0
342,5,-0.0016352299135178328,-0.0007892985013313591,0.002330765826627612,0.007414288818836212,0.0023096499498933554,0.0031462758779525757,-0.001629259786568582,-0.049774426966905594,0.01395348645746708,-0.0020107028540223837,0.5315042734146118,0.018177131190896034,0.0,0.0,0.0,-0.0003029952058568597,0.007892266847193241,-0.0,0.0,0.0,0.0,0.002304527908563614,0.031289856880903244,0.0026726750656962395,16368.0,9988.0,12425.0,15170.0,0.6105510592460632,0.2127625048160553,0.34059658646583557,0.5203081965446472,0.0,0.0,0.0,0.0,16372.0,10442.0,12645.0,15713.0,1.7134289741516113,-0.004624929368177339,0.07428133785721018,0.016064314871931145,-0.032584816217422485,-0.0009622998186387122,-0.0
347,5,-0.001653479877859354,-0.0008076508529484272,0.002359051024541259,0.0007757258717902005,0.003126140683889389,-0.0021357201039791107,-0.001629259786568582,-0.049774426966905594,0.01395348645746708,-0.0020107028540223837,0.5315042734146118,0.018177131190896034,0.0,0.0,0.0,-0.0003029952058568597,0.007892266847193241,-0.0,0.0,0.0,0.0,0.002304527908563614,0.031289856880903244,0.0026726750656962395,16368.0,9988.0,12425.0,15170.0,0.6105510592460632,0.2127625048160553,0.34059658646583557,0.5203081965446472,0.0,0.0,0.0,0.0,16372.0,10442.0,12645.0,15713.0,1.7134289741516113,-0.004448087871741711,0.07349622262740195,0.01649510138269802,-0.032584816217422485,-0.0009622998186387122,-0.0
352,5,-0.0017169829225167632,-0.0008066724403761327,0.002387543674558401,-0.007310074288398027,0.0011330480920150876,-0.00427338806912303,-0.0014650969533249736,-0.05278255045413971,0.013992855325341225,0.04294398054480553,0.12025783210992813,0.03536619991064072,0.0,0.0,0.0,-0.0051057105883955956,-0.0015121683245524764,-0.0,0.0,0.0,0.0,0.003464045934379101,0.025220096111297607,0.0019075371092185378,16063.0,11035.0,13391.0,15008.0,0.5869235992431641,0.2640500068664551,0.399541974067688,0.5086772441864014,0.0,0.0,0.0,0.0,16041.0,11159.0,13851.0,14518.0,1.7123147249221802,-0.0022793193637930587,0.07248886703261101,0.016280884748253097,0.006239213049411774,-0.016204845160245895,0.0
358,5,-0.0017903265543282032,-0.0008277863380499184,0.002426763065159321,-0.011725270189344883,0.002986882347613573,-0.006415676325559616,-0.0014650969533249736,-0.05278255045413971,0.013992855325341225,0.04294398054480553,0.12025783210992813,0.03536619991064072,0.0,0.0,0.0,-0.0051057105883955956,-0.0015121683245524764,-0.0,0.0,0.0,0.0,0.003464045934379101,0.025220096111297607,0.0019075371092185378,16063.0,11035.0,13391.0,15008.0,0.5869235992431641,0.2640500068664551,0.399541974067688,0.5086772441864014,0.0,0.0,0.0,0.0,16041.0,11159.0,13851.0,14518.0,1.7123147249221802,-0.0016431828718808275,0.06915272973288195,0.016862838671159255,0.006239213049411774,-0.016204845160245895,0.0
363,5,-0.0019361062441021204,-0.0008495061192661524,0.0025299196131527424,-0.022183675318956375,0.003801128827035427,-0.014945068396627903,-0.0005377486813813448,-0.05150539427995682,0.014446868561208248,0.08559338003396988,-0.4627131223678589,0.01237420178949833,0.0,0.0,0.0,-0.004799492657184601,-0.012592538259923458,-0.0,0.0,0.0,0.0,-0.0038549136370420456,-0.01060241274535656,0.0022209384478628635,15122.0,12631.0,14057.0,13413.0,0.5168215036392212,0.3527771234512329,0.4428880214691162,0.400942325592041,0.0,0.0,0.0,0.0,14609.0,13285.0,14149.0,13255.0,1.775634765625,-0.0028587689457100383,0.06518458866765264,0.0165500424485003,0.05387686938047409,-0.015796268358826637,0.0
368,5,-0.0020132071804255247,-0.0009077778086066246,0.002641988918185234,-0.018125591799616814,0.008513052947819233,-0.01942634955048561,-0.0005377486813813448,-0.05150539427995682,0.014446868561208248,0.08559338003396988,-0.4627131223678589,0.01237420178949833,0.0,0.0,0.0,-0.004799492657184601,-0.012592538259923458,-0.0,0.0,0.0,0.0,-0.0038549136370420456,-0.01060241274535656,0.0022209384478628635,15122.0,12631.0,14057.0,13413.0,0.5168215036392212,0.3527771234512329,0.4428880214691162,0.400942325592041,0.0,0.0,0.0,0.0,14609.0,13285.0,14149.0,13255.0,1.775634765625,-0.0048604150000929455,0.055625955698967194,0.015984201482719063,0.05387686938047409,-0.015796268358826637,0.0
373,5,-0.002167073544114828,-0.0007848683162592351,0.00270291930064559,-0.02571418508887291,-0.011343912221491337,-0.015082188881933689,-0.0005377486813813448,-0.05150539427995682,0.014446868561208248,0.08559338003396988,-0.4627131223678589,0.01237420178949833,0.0,0.0,0.0,-0.010741452686488628,-0.017685895785689354,-0.0,0.0,0.0,0.0,-0.0038549136370420456,-0.01060241274535656,0.0022209384478628635,15122.0,12631.0,14057.0,13413.0,0.5168215036392212,0.3527771234512329,0.4428880214691162,0.400942325592041,0.0,0.0,0.0,0.0,14609.0,13285.0,14149.0,13255.0,1.8565446138381958,0.00412260348134996,0.055182302184451894,0.01792848405292593,0.07911096513271332,-0.036962538957595825,0.0
378,5,-0.0022791994269937277,-0.0007755178376100957,0.002750193700194359,-0.023740779608488083,-0.005659624468535185,-0.011705796234309673,0.0004027151735499501,-0.0463068000972271,0.014587453566491604,0.1049174815416336,-0.897380530834198,0.028515396639704704,0.0,0.0,0.0,-0.010741452686488628,-0.017685895785689354,-0.0,0.0,0.0,0.0,-0.003869782667607069,-0.023120060563087463,0.0035180666018277407,13919.0,14692.0,16551.0,10366.0,0.43371444940567017,0.48631054162979126,0.6249691843986511,0.23064057528972626,0.0,0.0,0.0,0.0,13963.0,14237.0,15415.0,11386.0,1.8565446138381958,0.0038096411502282286,0.049417037938574666,0.01816994449419683,0.07911096513271332,-0.036962538957595825,0.0
383,5,-0.0024438851978629827,-0.0007806557696312666,0.002906110370531678,-0.029258616268634796,-0.0016472962452098727,-0.023392315953969955,0.0004027151735499501,-0.0463068000972271,0.014587453566491604,0.1049174815416336,-0.897380530834198,0.028515396639704704,0.0,0.0,0.0,0.004810010083019733,-0.022241488099098206,-0.0,0.0,0.0,0.0,-0.003869782667607069,-0.023120060563087463,0.0035180666018277407,13919.0,14692.0,16551.0,10366.0,0.43371444940567017,0.48631054162979126,0.6249691843986511,0.23064057528972626,0.0,0.0,0.0,0.0,13963.0,14237.0,15415.0,11386.0,1.8966397047042847,0.0012712656829033866,0.04499143557160176,0.017479628094182503,0.10163885354995728,0.01690971665084362,0.0
388,5,-0.0025181376840919256,-0.0006983634666539729,0.002896020421758294,-0.020613733679056168,-0.010533999651670456,-0.00814614724367857,0.001656745676882565,-0.034587129950523376,0.015202837064862251,0.07110502570867538,-1.0585246086120605,0.0761115550994873,0.0,0.0,0.0,0.004810010083019733,-0.022241488099098206,-0.0,0.0,0.0,0.0,-0.004044518340379,-0.024115871638059616,0.0031499089673161507,13919.0,14692.0,16551.0,10366.0,0.43371444940567017,0.48631054162979126,0.6249691843986511,0.23064057528972626,0.0,0.0,0.0,0.0,14141.0,14433.0,16611.0,10332.0,1.8966397047042847,0.004103262159828288,0.041272505986135556,0.01923741192448122,0.10163885354995728,0.01690971665084362,0.0
393,5,-0.0026365481317043304,-0.0006792498170398176,0.00305899023078382,-0.022454751655459404,-0.006507235113531351,-0.022814838215708733,0.001656745676882565,-0.034587129950523376,0.015202837064862251,0.07110502570867538,-1.0585246086120605,0.0761115550994873,0.0,0.0,0.0,0.010199318639934063,-0.020102541893720627,-0.0,0.0,0.0,0.0,-0.004044518340379,-0.024115871638059616,0.0031499089673161507,13919.0,14692.0,16551.0,10366.0,0.43371444940567017,0.48631054162979126,0.6249691843986511,0.23064057528972626,0.0,0.0,0.0,0.0,14141.0,14433.0,16611.0,10332.0,1.8837027549743652,0.0010674126005856225,0.03793693451568133,0.01893308204394173,0.09123540669679642,0.03561052680015564,0.0
398,5,-0.002637220546603203,-0.0006100931786932051,0.002982278121635318,-0.009062595665454865,-0.010901693254709244,7.954276952659711e-05,0.0021382563281804323,-0.026833223178982735,0.01578456535935402,-0.03858460485935211,-0.8515966534614563,0.053256966173648834,0.0,0.0,0.0,0.010199318639934063,-0.020102541893720627,-0.0,0.0,0.0,0.0,0.002486615674570203,-0.01600063405930996,0.003171192714944482,14121.0,15054.0,16586.0,11142.0,0.44718247652053833,0.5119377970695496,0.627810001373291,0.2696143388748169,0.0,0.0,0.0,0.0,14376.0,14726.0,16550.0,11312.0,1.8837027549743652,0.003360227082060548,0.03793137686698281,0.020434752256588567,0.09123540669679642,0.03561052680015564,0.0
403,5,-0.0026987046003341675,-0.0005834223120473325,0.003048537066206336,-0.011003131046891212,-0.007561179343611002,-0.00791926309466362,0.0021382563281804323,-0.026833223178982735,0.01578456535935402,-0.03858460485935211,-0.8515966534614563,0.053256966173648834,0.0,0.0,0.0,0.011298961006104946,-0.01126893050968647,-0.0,0.0,0.0,0.0,0.002486615674570203,-0.01600063405930996,0.003171192714944482,14121.0,15054.0,16586.0,11142.0,0.44718247652053833,0.5119377970695496,0.627810001373291,0.2696143388748169,0.0,0.0,0.0,0.0,14376.0,14726.0,16550.0,11312.0,1.789307951927185,0.000649519844950794,0.03728283368307474,0.020003067316594896,0.04858282580971718,0.03747273236513138,-0.0
408,5,-0.002684737788513303,-0.0005288754473440349,0.0029961641412228346,-0.0027252216823399067,-0.009570097550749779,0.003117048880085349,0.0014187408378347754,-0.018758347257971764,0.01642976701259613,-0.08613435178995132,-0.45264485478401184,0.05305872857570648,0.0,0.0,0.0,0.011298961006104946,-0.01126893050968647,-0.0,0.0,0.0,0.0,0.004484512377530336,-0.0026424352545291185,0.003144380170851946,15203.0,13098.0,15886.0,13499.0,0.5227141976356506,0.38119959831237793,0.5733938217163086,0.4063951373100281,0.0,0.0,0.0,0.0,14826.0,13871.0,16427.0,12670.0,1.789307951927185,0.003625231753559597,0.03920357244653099,0.02042020971979085,0.04858282580971718,0.03747273236513138,-0.0
413,5,-0.0026762017514556646,-0.00048291575512848794,0.0029326684307307005,-6.576364830834791e-05,-0.009343202225863934,0.008866294287145138,0.0014187408378347754,-0.018758347257971764,0.01642976701259613,-0.08613435178995132,-0.45264485478401184,0.05305872857570648,0.0,0.0,0.0,0.010069665499031544,-0.005902585107833147,-0.0,0.0,0.0,0.0,0.004484512377530336,-0.0026424352545291185,0.003144380170851946,15203.0,13098.0,15886.0,13499.0,0.5227141976356506,0.38119959831237793,0.5733938217163086,0.4063951373100281,0.0,0.0,0.0,0.0,14826.0,13871.0,16427.0,12670.0,1.764020323753357,0.003863826382419287,0.04038514953588349,0.020805805235579795,0.025088414549827576,0.032924093306064606,-0.0
418,5,-0.0027202304918318987,-0.0005598251591436565,0.0030553971882909536,-0.005309760104864836,0.005491852294653654,-0.011180922389030457,0.000719615665730089,-0.016696076840162277,0.01687835156917572,-0.06761320680379868,0.008437287993729115,0.048860155045986176,0.0,0.0,0.0,0.010069665499031544,-0.005902585107833147,-0.0,0.0,0.0,0.0,0.004051865544170141,0.010593686252832413,0.004094066563993692,16094.0,11153.0,15173.0,13543.0,0.5893262624740601,0.27017807960510254,0.5205449461936951,0.4092586636543274,0.0,0.0,0.0,0.0,15497.0,12774.0,15676.0,13718.0,1.764020323753357,-0.004059233990632229,0.03661030620322506,0.018973258357878706,0.025088414549827576,0.032924093306064606,-0.0
424,5,-0.0026572528295218945,-0.0004454245208762586,0.002847109455615282,0.005433416459709406,-0.011531339958310127,0.020522158592939377,0.000719615665730089,-0.016696076840162277,0.01687835156917572,-0.06761320680379868,0.008437287993729115,0.048860155045986176,0.0,0.0,0.0,-0.007219810504466295,-0.008187863975763321,-0.0,0.0,0.0,0.0,0.004051865544170141,0.010593686252832413,0.004094066563993692,16094.0,11153.0,15173.0,13543.0,0.5893262624740601,0.27017807960510254,0.5205449461936951,0.4092586636543274,0.0,0.0,0.0,0.0,15497.0,12774.0,15676.0,13718.0,1.7732810974121094,0.003723216146546893,0.04414273776728108,0.02137771785332217,0.03498516604304314,-0.023730400949716568,0.0
429,5,-0.0026524371933192015,-0.0004412583657540381,0.002838522894307971,0.0027512565720826387,-0.0051124729216098785,0.009239254519343376,5.645448254654184e-05,-0.0184771828353405,0.01777513697743416,-0.028129085898399353,0.30336740612983704,0.0911126583814621,0.0,0.0,0.0,-0.007219810504466295,-0.008187863975763321,-0.0,0.0,0.0,0.0,0.002738002687692642,0.015585185028612614,0.0037658356595784426,16168.0,11029.0,14586.0,13807.0,0.5950421094894409,0.26373013854026794,0.47890952229499817,0.4263385832309723,0.0,0.0,0.0,0.0,15982.0,11343.0,14842.0,13886.0,1.7732810974121094,0.0041392712944094195,0.04543842838531421,0.021991474139198924,0.03498516604304314,-0.023730400949716568,0.0
434,5,-0.002699340460821986,-0.0004960359074175358,0.002930083079263568,-0.00452789943665266,0.004528316203504801,-0.0072915456257760525,5.645448254654184e-05,-0.0184771828353405,0.01777513697743416,-0.028129085898399353,0.30336740612983704,0.0911126583814621,0.0,0.0,0.0,0.005024563521146774,-0.0010174978524446487,-0.0,0.0,0.0,0.0,0.002738002687692642,0.015585185028612614,0.0037658356595784426,16168.0,11029.0,14586.0,13807.0,0.5950421094894409,0.26373013854026794,0.47890952229499817,0.4263385832309723,0.0,0.0,0.0,0.0,15982.0,11343.0,14842.0,13886.0,1.7916734218597412,0.0022562275394097217,0.045767538883177264,0.021218398730961353,0.004392772447317839,0.016686391085386276,-0.0
439,5,-0.00271996739320457,-0.0005662266630679369,0.00302768312394619,-0.004286383744329214,0.010234217159450054,-0.01462860219180584,0.0009053281391970813,-0.023754015564918518,0.019158244132995605,0.1458882838487625,0.07983963191509247,0.06536111235618591,0.0,0.0,0.0,0.005024563521146774,-0.0010174978524446487,-0.0,0.0,0.0,0.0,-0.0045518046244978905,0.009405780583620071,0.003438360057771206,16120.0,12377.0,14445.0,12997.0,0.5913038849830627,0.33783066272735596,0.4691963791847229,0.3749501705169678,0.0,0.0,0.0,0.0,16097.0,11269.0,14538.0,13749.0,1.7916734218597412,-0.0021114090915661412,0.04073718371724396,0.020714709932748546,0.004392772447317839,0.016686391085386276,-0.0
444,5,-0.0027168418746441603,-0.0004850362311117351,0.00282290973700583,-0.001339506939984858,-0.005649164784699678,0.018721353262662888,0.0009053281391970813,-0.023754015564918518,0.019158244132995605,0.1458882838487625,0.07983963191509247,0.06536111235618591,0.0,0.0,0.0,-0.0123170530423522,-0.007106289267539978,-0.0,0.0,0.0,0.0,-0.0045518046244978905,0.009405780583620071,0.003438360057771206,16120.0,12377.0,14445.0,12997.0,0.5913038849830627,0.33783066272735596,0.4691963791847229,0.3749501705169678,0.0,0.0,0.0,0.0,16097.0,11269.0,14538.0,13749.0,1.820149302482605,0.007311955718153229,0.04506887103480943,0.022775214990396402,0.031164860352873802,-0.04155300557613373,0.0
449,5,-0.002817206084728241,-0.0005243576597422361,0.0028558115009218454,-0.012579509057104588,0.0024589041713625193,0.003540326375514269,0.0024865835439413786,-0.023518990725278854,0.019564611837267876,0.21526312828063965,-0.20223432779312134,0.04451032727956772,0.0,0.0,0.0,-0.0123170530423522,-0.007106289267539978,-0.0,0.0,0.0,0.0,-0.003513722214847803,0.002964348066598177,0.003228219226002693,15659.0,12914.0,14873.0,12859.0,0.5562865138053894,0.3698408901691437,0.499047189950943,0.36649879813194275,0.0,0.0,0.0,0.0,15999.0,12677.0,14571.0,12715.0,1.820149302482605,0.00847567894795496,0.04320668889747918,0.0232841439155851,0.031164860352873802,-0.04155300557613373,0.0
454,5,-0.0029733297415077686,-0.0005912288324907422,0.0029900651425123215,-0.02376663312315941,0.009008103050291538,-0.014694297686219215,0.0024865835439413786,-0.023518990725278854,0.019564611837267876,0.21526312828063965,-0.20223432779312134,0.04451032727956772,0.0,0.0,0.0,-0.0035900501534342766,-0.014256233349442482,-0.0,0.0,0.0,0.0,-0.003513722214847803,0.002964348066598177,0.003228219226002693,15659.0,12914.0,14873.0,12859.0,0.5562865138053894,0.3698408901691437,0.499047189950943,0.36649879813194275,0.0,0.0,0.0,0.0,15999.0,12677.0,14571.0,12715.0,1.8284411430358887,0.006498706727648225,0.03991814590013453,0.022385859387239335,0.06280875205993652,-0.012167136184871197,-0.0
459,5,-0.003186112968251109,-0.0006047178176231682,0.0032469984143972397,-0.035040635615587234,0.005221919156610966,-0.036709707230329514,0.004390849266201258,-0.02014613337814808,0.020001400262117386,0.10852063447237015,-0.42419618368148804,0.018340226262807846,0.0,0.0,0.0,-0.0035900501534342766,-0.014256233349442482,-0.0,0.0,0.0,0.0,-0.002123200334608555,-0.004514394327998161,0.0029217388946563005,15009.0,13483.0,15323.0,12518.0,0.5087274312973022,0.4054127037525177,0.5314639210700989,0.3460693061351776,0.0,0.0,0.0,0.0,15489.0,13089.0,15134.0,12580.0,1.8284411430358887,0.00457712920695696,0.036093216936664604,0.02188800802063594,0.06280875205993652,-0.012167136184871197,-0.0
464,5,-0.0031706979498267174,-0.000583355373237282,0.0030621655751019716,-0.01216644886881113,-0.0004747248312924057,0.007496061269193888,0.004390849266201258,-0.02014613337814808,0.020001400262117386,0.10852063447237015,-0.42419618368148804,0.018340226262807846,0.0,0.0,0.0,-0.006147564854472876,-0.030692769214510918,-0.0,0.0,0.0,0.0,-0.002123200334608555,-0.004514394327998161,0.0029217388946563005,15009.0,13483.0,15323.0,12518.0,0.5087274312973022,0.4054127037525177,0.5314639210700989,0.3460693061351776,0.0,0.0,0.0,0.0,15489.0,13089.0,15134.0,12580.0,2.016054630279541,0.008367415538674542,0.03658062741643563,0.02309898948408839,0.1490781158208847,-0.02297253906726837,0.0
469,5,-0.0032544133719056845,-0.0005951370694674551,0.003139263018965721,-0.014912443235516548,0.001223912462592125,-0.006253275088965893,0.004854718688875437,-0.016605965793132782,0.020043542608618736,0.007603982929140329,-0.4876452684402466,0.018647635355591774,0.0,0.0,0.0,-0.006147564854472876,-0.030692769214510918,-0.0,0.0,0.0,0.0,-0.005790209397673607,-0.01025927159935236,0.002236915985122323,14763.0,14412.0,15425.0,12121.0,0.4912612736225128,0.46693265438079834,0.5389300584793091,0.32302531599998474,0.0,0.0,0.0,0.0,14463.0,14357.0,15911.0,12060.0,2.016054630279541,0.007341330205087268,0.03311569610899136,0.023325420030445597,0.1490781158208847,-0.02297253906726837,0.0
