timestamp,dt,pos_x,pos_y,pos_z,vel_x,vel_y,vel_z,roll,pitch,yaw,agv_x,agv_y,agv_z,x_ref,y_ref,z_ref,roll_ref,pitch_ref,yaw_ref,x_vel_ref,y_vel_ref,z_vel_ref,x_torque,y_torque,z_torque,w0,w1,w2,w3,u0,u1,u2,u3,m0req,m1req,m2req,m3req,thrust0,thrust1,thrust2,thrust3,thrust_ref,roll_vicon,pitch_vicon,yaw_vicon,acc_x,acc_y,acc_z
5,5,0.0,0.0,0.0,-0.00019932819122914225,0.00022661624825559556,0.0015482084127143025,-0.007994284853339195,-0.1267232596874237,-0.007085115183144808,0.0026761172339320183,-0.0015019671991467476,-0.0034888479858636856,0.0,0.0,0.0,-0.00028147592092864215,-0.00019044762302655727,-0.0,0.0,0.0,0.0,0.0015915067633613944,0.03803827986121178,-0.000764531665481627,1495.0,1495.0,1495.0,1495.0,0.0,0.0,0.0,0.0,0.0,0.0,0.0,0.0,1495.0,1495.0,1495.0,1495.0,1.6288179159164429,0.03213891702963382,-0.020799391740872225,0.049063740934564226,0.0007474807207472622,-0.0008498109527863562,0.0
32,27,0.0,0.0,0.0,-2.2671807528240606e-05,-0.0007796850404702127,-0.0011052275076508522,-0.007994284853339195,-0.1267232596874237,-0.007085115183144808,0.0026761172339320183,-0.0015019671991467476,-0.0034888479858636856,0.0,0.0,0.0,-0.00028147592092864215,-0.00019044762302655727,-0.0,0.0,0.0,0.0,0.0015915067633613944,0.03803827986121178,-0.000764531665481627,1495.0,1495.0,1495.0,1495.0,0.0,0.0,0.0,0.0,0.0,0.0,0.0,0.0,1495.0,1495.0,1495.0,1495.0,1.6288179159164429,0.032178603072691006,-0.020558212364664395,0.049099174627739724,0.0007474807207472622,-0.0008498109527863562,0.0
37,5,0.0,0.0,0.0,0.00020524789579212666,0.0007963348762132227,-0.0002541641006246209,-0.007991129532456398,-0.1266988068819046,-0.007108908612281084,-0.0032119390089064837,0.0068287355825304985,0.002363329753279686,0.0,0.0,0.0,0.0009655472822487354,-2.1597188606392592e-05,-0.0,0.0,0.0,0.0,0.001601654221303761,0.038140635937452316,-0.0006651956937275827,1495.0,1495.0,1495.0,1495.0,0.0,0.0,0.0,0.0,0.0,0.0,0.0,0.0,1495.0,1495.0,1495.0,1495.0,1.6336857080459595,0.03190988524432704,-0.01995231969386104,0.04853976441983597,8.501928095938638e-05,0.002923819003626704,0.0
49,12,0.0,0.0,0.0,4.782151881954633e-05,0.0014718335587531328,0.0007492591394111514,-0.008012977428734303,-0.12669721245765686,-0.007110904902219772,0.0015657874755561352,-0.0006659505888819695,0.0042258272878825665,0.0,0.0,0.0,-0.0009859061101451516,0.00019546783005353063,-0.0,0.0,0.0,0.0,0.0015443130396306515,0.03796645253896713,-0.0007415465661324561,1495.0,1495.0,1495.0,1495.0,0.0,0.0,0.0,0.0,0.0,0.0,0.0,0.0,1495.0,1495.0,1495.0,1495.0,1.6341164112091064,0.03179565305869245,-0.020260198170595715,0.04866021658273182,-0.000769679609220475,-0.0029862558003515005,0.0
54,5,0.0,0.0,0.0,4.782151881954633e-05,0.0014718335587531328,0.0007492591394111514,-0.008012977428734303,-0.12669721245765686,-0.007110904902219772,0.0015657874755561352,-0.0006659505888819695,0.0042258272878825665,0.0,0.0,0.0,-0.0009859061101451516,0.00019546783005353063,-0.0,0.0,0.0,0.0,0.0015443130396306515,0.03796645253896713,-0.0007415465661324561,1495.0,1495.0,1495.0,1495.0,0.0,0.0,0.0,0.0,0.0,0.0,0.0,0.0,1495.0,1495.0,1495.0,1495.0,1.6341164112091064,0.03179565305869245,-0.020260198170595715,0.04866021658273182,-0.000769679609220475,-0.0029862558003515005,0.0
59,5,0.0,0.0,0.0,-0.00020936172222718596,-0.0008780998177826405,-0.00047522547538392246,-0.008012977428734303,-0.12669721245765686,-0.007110904902219772,0.0015657874755561352,-0.0006659505888819695,0.0042258272878825665,0.0,0.0,0.0,-0.0018148707458749413,4.535940024652518e-05,-0.0,0.0,0.0,0.0,0.0015443130396306515,0.03796645253896713,-0.0007415465661324561,1495.0,1495.0,1495.0,1495.0,0.0,0.0,0.0,0.0,0.0,0.0,0.0,0.0,15704.0,10588.0,10307.0,16230.0,1.6407263278961182,0.03204382973835514,-0.020501721747743964,0.048970818299045156,-0.00017933070193976164,-0.005519375670701265,0.0
64,5,6.72835710702202e-07,-1.663888582470463e-07,-2.30160712817451e-05,-3.004399559358717e-06,-0.000331273244228214,0.0025718382094055414,-0.008015522733330727,-0.1267062872648239,-0.007096805609762669,-0.0001687048061285168,0.002389417728409171,0.0006001448491588235,0.0,0.0,0.0,0.00041109000449068844,-1.9267338302597636e-06,-0.0,0.0,0.0,0.0,0.0015577791491523385,0.038025710731744766,-0.0007522185915149748,15649.0,10669.0,10211.0,16291.0,0.555507242679596,0.245512455701828,0.2232479751110077,0.6045501828193665,0.0,0.0,0.0,0.0,15669.0,10640.0,10239.0,16274.0,1.6291157007217407,0.03189358607873338,-0.020443873848773348,0.04906303601226272,7.56354711484164e-06,0.0012413589283823967,0.0
70,5,7.254609954543412e-06,-4.654897566069849e-06,-2.765165118034929e-05,0.000788611127063632,0.0004061117651872337,0.001585005084052682,-0.008015522733330727,-0.1267062872648239,-0.007096805609762669,-0.0001687048061285168,0.002389417728409171,0.0006001448491588235,0.0,0.0,0.0,0.00041109000449068844,-1.9267338302597636e-06,-0.0,0.0,0.0,0.0,0.0015577791491523385,0.038025710731744766,-0.0007522185915149748,15649.0,10669.0,10211.0,16291.0,0.555507242679596,0.245512455701828,0.2232479751110077,0.6045501828193665,0.0,0.0,0.0,0.0,15669.0,10640.0,10239.0,16274.0,1.6291157007217407,0.03198281938069211,-0.020375949005866048,0.0487134025175079,7.56354711484164e-06,0.0012413589283823967,0.0
75,5,3.6628575799113605e-06,1.1075004522353993e-06,-1.8683433154365048e-05,-0.00011556582467164844,-0.0005290430854074657,-0.0004421843041200191,-0.008015522733330727,-0.1267062872648239,-0.007096805609762669,-0.0001687048061285168,0.002389417728409171,0.0006001448491588235,0.0,0.0,0.0,0.0006581453490070999,-0.0001051225553965196,-0.0,0.0,0.0,0.0,0.0015577791491523385,0.038025710731744766,-0.0007522185915149748,15649.0,10669.0,10211.0,16291.0,0.555507242679596,0.245512455701828,0.2232479751110077,0.6045501828193665,0.0,0.0,0.0,0.0,15669.0,10640.0,10239.0,16274.0,1.6312634944915771,0.03201770820410395,-0.020419814795511283,0.048833698860674776,0.0004132109461352229,0.001990006072446704,0.0
80,5,7.645149707968812e-06,-8.793354936642572e-06,-1.5646390238543972e-05,0.0004316487174946815,0.0009764854330569506,-0.0005413188482634723,-0.008043008856475353,-0.1266990303993225,-0.00708756223320961,-0.004117242526262999,0.007016617339104414,-0.0008477407973259687,0.0,0.0,0.0,0.0006581453490070999,-0.0001051225553965196,-0.0,0.0,0.0,0.0,0.0014448427828028798,0.03827408328652382,-0.000695923576131463,15658.0,10649.0,10257.0,16329.0,0.556236982345581,0.2445017248392105,0.22543840110301971,0.6075085997581482,0.0,0.0,0.0,0.0,15655.0,10662.0,10240.0,16334.0,1.6312634944915771,0.03219821568674639,-0.0204942216881515,0.04889014059989902,0.0004132109461352229,0.001990006072446704,0.0
85,5,1.2985055036551785e-05,-9.941816642822232e-06,-1.2055710612912662e-05,0.0008134481031447649,0.0005284096114337444,-0.0006474090041592717,-0.008043008856475353,-0.1266990303993225,-0.00708756223320961,-0.004117242526262999,0.007016617339104414,-0.0008477407973259687,0.0,0.0,0.0,0.0006581453490070999,-0.0001051225553965196,-0.0,0.0,0.0,0.0,0.0014448427828028798,0.03827408328652382,-0.000695923576131463,15658.0,10649.0,10257.0,16329.0,0.556236982345581,0.2445017248392105,0.22543840110301971,0.6075085997581482,0.0,0.0,0.0,0.0,15655.0,10662.0,10240.0,16334.0,1.6312634944915771,0.03265116709976315,-0.020406885971602375,0.04881054599798216,0.0004132109461352229,0.001990006072446704,0.0
90,5,1.9678134322020924e-06,-1.937427259690594e-05,-1.2800885087926872e-05,-0.0009966897778213024,0.0013432585401460528,-0.0001695426763035357,-0.00803697481751442,-0.12674427032470703,-0.007046475540846586,0.00036907766479998827,0.0021725394763052464,-0.00012635179155040532,0.0,0.0,0.0,-0.0006715458002872765,0.0007919942145235837,-0.0,0.0,0.0,0.0,0.0012108110822737217,0.03826455771923065,-0.0006099134916439652,15738.0,10710.0,10255.0,16305.0,0.5621886849403381,0.24754762649536133,0.22529810667037964,0.6056918501853943,0.0,0.0,0.0,0.0,15716.0,10644.0,10258.0,16282.0,1.6358611583709717,0.031854188165918756,-0.019883101430983968,0.04869077992021064,-0.0031219087541103363,-0.0020362476352602243,0.0
95,5,-3.371395223439322e-06,1.0068037227028981e-05,2.8352384106256068e-05,-0.001039380906149745,-0.0029957739170640707,-0.00500620948150754,-0.00803697481751442,-0.12674427032470703,-0.007046475540846586,0.00036907766479998827,0.0021725394763052464,-0.00012635179155040532,0.0,0.0,0.0,-0.0006715458002872765,0.0007919942145235837,-0.0,0.0,0.0,0.0,0.0012108110822737217,0.03826455771923065,-0.0006099134916439652,15738.0,10710.0,10255.0,16305.0,0.5621886849403381,0.24754762649536133,0.22529810667037964,0.6056918501853943,0.0,0.0,0.0,0.0,15716.0,10644.0,10258.0,16282.0,1.6358611583709717,0.032172976469288773,-0.020147246582085724,0.048932560712638164,-0.0031219087541103363,-0.0020362476352602243,0.0
101,6,-7.6058490776631515e-06,8.961183084466029e-06,5.337560651241802e-06,-0.0009238868369720876,-0.0010654870420694351,0.0007592950714752078,-0.008028770796954632,-0.12671950459480286,-0.007062351796776056,-0.0013736141845583916,0.0022871552500873804,-0.003304113168269396,0.0,0.0,0.0,0.003673314116895199,-0.0009801710257306695,-0.0,0.0,0.0,0.0,0.001761911204084754,0.03817804157733917,-0.0007047037361189723,15635.0,10681.0,10203.0,16333.0,0.5544760823249817,0.2460806518793106,0.22283954918384552,0.6078671813011169,0.0,0.0,0.0,0.0,15621.0,10698.0,10177.0,16350.0,1.658101201057434,0.03198291447794367,-0.01981076691880652,0.04874070048025567,0.003916172310709953,0.01128953043371439,0.0
106,5,1.2002425364698865e-06,4.086637545697158e-06,-2.497945024515502e-05,0.0003791252092923969,0.0003776695521082729,0.004015516955405474,-0.008028770796954632,-0.12671950459480286,-0.007062351796776056,-0.0013736141845583916,0.0022871552500873804,-0.003304113168269396,0.0,0.0,0.0,-0.0004609819152392447,0.00036340634687803686,-0.0,0.0,0.0,0.0,0.001761911204084754,0.03817804157733917,-0.0007047037361189723,15635.0,10681.0,10203.0,16333.0,0.5544760823249817,0.2460806518793106,0.22283954918384552,0.6078671813011169,0.0,0.0,0.0,0.0,15621.0,10698.0,10177.0,16350.0,1.6311635971069336,0.03187541259092397,-0.020108461780421066,0.04891472696900558,-0.0014283738564699888,-0.0013937662588432431,0.0
111,5,3.5616533295979025e-06,6.807850240875268e-06,-7.864697181503288e-06,0.0004350193776190281,-0.0001754777185851708,-0.00044756350689567626,-0.008031600154936314,-0.12673872709274292,-0.00708423089236021,-0.002899015787988901,0.00473396060988307,-0.004681667312979698,0.0,0.0,0.0,0.0002301204513059929,0.0004201838164590299,-0.0,0.0,0.0,0.0,0.0015377462841570377,0.038370538502931595,-0.0006371783674694598,15701.0,10618.0,10220.0,16298.0,0.5594226121902466,0.2429593801498413,0.2236652970314026,0.6051162481307983,0.0,0.0,0.0,0.0,15654.0,10813.0,10378.0,16465.0,1.6306092739105225,0.03205747250095869,-0.020605093437124286,0.04894760623468533,-0.0016509772976860404,0.0006955264834687114,0.0
120,9,-1.8532055037212558e-06,-3.3563983379281126e-06,-1.6747520930948667e-05,-0.00047577533405274153,0.001149518764577806,0.000886913447175175,-0.008031600154936314,-0.12673872709274292,-0.00708423089236021,-0.002899015787988901,0.00473396060988307,-0.004681667312979698,0.0,0.0,0.0,0.0002301204513059929,0.0004201838164590299,-0.0,0.0,0.0,0.0,0.0015377462841570377,0.038370538502931595,-0.0006371783674694598,15701.0,10618.0,10220.0,16298.0,0.5594226121902466,0.2429593801498413,0.2236652970314026,0.6051162481307983,0.0,0.0,0.0,0.0,15654.0,10813.0,10378.0,16465.0,1.6306092739105225,0.0322485665506224,-0.019951680688507476,0.048782668000400334,-0.0016509772976860404,0.0006955264834687114,0.0
125,5,-4.043006811116356e-06,-7.344771347561618e-06,-1.5073650274644024e-06,-0.0004530862788669765,0.0009384122677147388,-0.0014740533661097288,-0.008031600154936314,-0.12673872709274292,-0.00708423089236021,-0.002899015787988901,0.00473396060988307,-0.004681667312979698,0.0,0.0,0.0,0.0002301204513059929,0.0004201838164590299,-0.0,0.0,0.0,0.0,0.0015377462841570377,0.038370538502931595,-0.0006371783674694598,15701.0,10618.0,10220.0,16298.0,0.5594226121902466,0.2429593801498413,0.2236652970314026,0.6051162481307983,0.0,0.0,0.0,0.0,15654.0,10813.0,10378.0,16465.0,1.6306092739105225,0.0317827775966818,-0.020039073568190954,0.048879195520319454,-0.0016509772976860404,0.0006955264834687114,0.0
130,5,-2.770897253867588e-06,-6.956599918339634e-06,-7.719472705502994e-07,-2.858136940631084e-05,0.0003287843137513846,-0.0006778714596293867,-0.008040182292461395,-0.12674391269683838,-0.007081578951328993,-0.0017944230930879712,0.0017003589309751987,0.0016884685028344393,0.0,0.0,0.0,-0.0011734432773664594,-0.00043650082079693675,-0.0,0.0,0.0,0.0,0.0016522848745808005,0.038427241146564484,-0.0006792633212171495,15686.0,10610.0,10216.0,16313.0,0.5583071708679199,0.2425798773765564,0.2234516143798828,0.6062706708908081,0.0,0.0,0.0,0.0,15669.0,10665.0,10172.0,16328.0,1.6364755630493164,0.032022660561155776,-0.020257899585970268,0.048876753119754035,0.0017212587408721447,-0.0035594261717051268,0.0
135,5,2.01916509467992e-06,-9.356500413559843e-06,-1.093468745239079e-05,0.0005633748951368034,0.00041950176819227636,0.0009483802132308483,-0.008040182292461395,-0.12674391269683838,-0.007081578951328993,-0.0017944230930879712,0.0017003589309751987,0.0016884685028344393,0.0,0.0,0.0,-0.0011734432773664594,-0.00043650082079693675,-0.0,0.0,0.0,0.0,0.0016522848745808005,0.038427241146564484,-0.0006792633212171495,15686.0,10610.0,10216.0,16313.0,0.5583071708679199,0.2425798773765564,0.2234516143798828,0.6062706708908081,0.0,0.0,0.0,0.0,15669.0,10665.0,10172.0,16328.0,1.6364755630493164,0.03175951965511857,-0.02025192240976813,0.04866330846833005,0.0017212587408721447,-0.0035594261717051268,0.0
140,5,-2.621992052809219e-06,-1.0824408036569366e-06,9.747825970407575e-06,-0.0003315888752695173,-0.0008250864339061081,-0.0021025496535003185,-0.008040182292461395,-0.12674391269683838,-0.007081578951328993,-0.0017944230930879712,0.0017003589309751987,0.0016884685028344393,0.0,0.0,0.0,-0.0005367264966480434,0.0005397324566729367,-0.0,0.0,0.0,0.0,0.0016522848745808005,0.038427241146564484,-0.0006792633212171495,15686.0,10610.0,10216.0,16313.0,0.5583071708679199,0.2425798773765564,0.2234516143798828,0.6062706708908081,0.0,0.0,0.0,0.0,15669.0,10665.0,10172.0,16328.0,1.6330041885375977,0.03154078117464211,-0.02065467565109302,0.04909943121299078,-0.002123819664120674,-0.001624608994461596,0.0
145,5,7.457218998752069e-06,5.613533744508459e-07,-1.6580828742007725e-05,0.0010768697829917073,-0.0005272898706607521,0.0023184188175946474,-0.008062133565545082,-0.12674564123153687,-0.007102695293724537,-0.0027182975318282843,0.0055450075305998325,-0.003074370324611664,0.0,0.0,0.0,-0.0005367264966480434,0.0005397324566729367,-0.0,0.0,0.0,0.0,0.0014221437741070986,0.03826826810836792,-0.0008227998041547835,15665.0,10743.0,10168.0,16352.0,0.556765079498291,0.24917420744895935,0.22118616104125977,0.6093500852584839,0.0,0.0,0.0,0.0,15670.0,10626.0,10205.0,16325.0,1.6330041885375977,0.03175723197044999,-0.020280979307456155,0.04874530046166731,-0.002123819664120674,-0.001624608994461596,0.0
150,5,-6.731293524353532e-06,1.7667376596364193e-05,5.307691026246175e-06,-0.001271873596124351,-0.0022636386565864086,-0.0016992547316476703,-0.008062133565545082,-0.12674564123153687,-0.007102695293724537,-0.0027182975318282843,0.0055450075305998325,-0.003074370324611664,0.0,0.0,0.0,0.00065225810976699,0.0010335067054256797,-0.0,0.0,0.0,0.0,0.0014221437741070986,0.03826826810836792,-0.0008227998041547835,15665.0,10743.0,10168.0,16352.0,0.556765079498291,0.24917420744895935,0.22118616104125977,0.6093500852584839,0.0,0.0,0.0,0.0,15670.0,10626.0,10205.0,16325.0,1.6380497217178345,0.03191661878371752,-0.020359972486868244,0.0490225545022766,-0.004079360980540514,0.001980409724637866,0.0
155,5,3.202819470971008e-06,-4.2765523176058196e-06,-3.0406252335524186e-05,0.00068334408570081,0.0017278159502893686,0.003605971345677972,-0.008070845156908035,-0.12676391005516052,-0.00712598068639636,0.002001808490604162,0.002029841998592019,-0.0004771231906488538,0.0,0.0,0.0,-0.0021330718882381916,0.000651058740913868,-0.0,0.0,0.0,0.0,0.0013680646661669016,0.03827401623129845,-0.0008170726941898465,15681.0,10673.0,10152.0,16347.0,0.5579376816749573,0.24571794271469116,0.22042012214660645,0.608928382396698,0.0,0.0,0.0,0.0,15683.0,10717.0,10201.0,16332.0,1.6447162628173828,0.03211789682413757,-0.020332512513331007,0.04888753096612218,-0.002580251544713974,-0.006502860225737095,0.0
161,6,-1.2354477803455666e-05,-2.157668313884642e-05,-8.146254003804643e-06,-0.00164762360509485,0.0030423321295529604,0.000576326681766659,-0.008070845156908035,-0.12676391005516052,-0.00712598068639636,0.002001808490604162,0.002029841998592019,-0.0004771231906488538,0.0,0.0,0.0,-0.0021330718882381916,0.000651058740913868,-0.0,0.0,0.0,0.0,0.0013680646661669016,0.03827401623129845,-0.0008170726941898465,15681.0,10673.0,10152.0,16347.0,0.5579376816749573,0.24571794271469116,0.22042012214660645,0.608928382396698,0.0,0.0,0.0,0.0,15683.0,10717.0,10201.0,16332.0,1.6447162628173828,0.03167282245560787,-0.020474871471716338,0.0485445789490389,-0.002580251544713974,-0.006502860225737095,0.0
166,5,-1.5475970940315165e-05,-1.3131631931173615e-05,5.140367193234852e-06,-0.0010336287086829543,0.00020352660794742405,-0.0013638639356940985,-0.008037599734961987,-0.12674754858016968,-0.007003115024417639,-0.0009757762309163809,-0.007818195968866348,0.07857789844274521,0.0,0.0,0.0,-0.0021330718882381916,0.000651058740913868,-0.0,0.0,0.0,0.0,0.0014877653447911143,0.03836891055107117,0.0005714613362215459,16271.0,9731.0,11115.0,15787.0,0.6029837727546692,0.20100466907024384,0.2681826651096344,0.5658786296844482,0.0,0.0,0.0,0.0,15692.0,10653.0,10188.0,16328.0,1.6447162628173828,0.03159456930279967,-0.020895425431308318,0.0485200302533472,-0.002580251544713974,-0.006502860225737095,0.0
171,5,1.1323802937113214e-05,1.1835864825116005e-05,-1.6139662761815998e-07,0.0028025214560329914,-0.002914689015597105,9.066610073205084e-05,-0.008037599734961987,-0.12674754858016968,-0.007003115024417639,-0.0009757762309163809,-0.007818195968866348,0.07857789844274521,0.0,0.0,0.0,-0.0002754058223217726,-0.0010043747024610639,-0.0,0.0,0.0,0.0,0.0014877653447911143,0.03836891055107117,0.0005714613362215459,16271.0,9731.0,11115.0,15787.0,0.6029837727546692,0.20100466907024384,0.2681826651096344,0.5658786296844482,0.0,0.0,0.0,0.0,15692.0,10653.0,10188.0,16328.0,1.636731505393982,0.03208671236708429,-0.02057414448064208,0.04928870300005618,0.003961184062063694,-0.000835524289868772,0.0
176,5,1.4398708117369097e-05,2.750817839114461e-05,1.4825882317381911e-05,0.0014899971429258585,-0.0030465531162917614,-0.0017622070154175162,-0.008137554861605167,-0.12674064934253693,-0.007994066923856735,-0.0049799224361777306,-0.0027097121346741915,-0.10043077915906906,0.0,0.0,0.0,-0.0002754058223217726,-0.0010043747024610639,-0.0,0.0,0.0,0.0,0.0016526124672964215,0.03905058279633522,-0.006054781377315521,14028.0,12808.0,7152.0,17850.0,0.4409857392311096,0.36340996623039246,0.10147237777709961,0.7321816682815552,0.0,0.0,0.0,0.0,15960.0,10235.0,10644.0,16108.0,1.636731505393982,0.03210144702273393,-0.021072033865488907,0.04984827056303162,0.003961184062063694,-0.000835524289868772,0.0
181,5,7.886649655119982e-06,-1.3976622540212702e-05,2.746917516560643e-06,-0.00018544806516729295,0.003759554820135236,0.0007445929804816842,-0.008137554861605167,-0.12674064934253693,-0.007994066923856735,-0.0049799224361777306,-0.0027097121346741915,-0.10043077915906906,0.0,0.0,0.0,0.0037607450503855944,0.0014161636354401708,-0.0,0.0,0.0,0.0,0.0016526124672964215,0.03905058279633522,-0.006054781377315521,14028.0,12808.0,7152.0,17850.0,0.4409857392311096,0.36340996623039246,0.10147237777709961,0.7321816682815552,0.0,0.0,0.0,0.0,15960.0,10235.0,10644.0,16108.0,1.6606334447860718,0.03176062688762518,-0.02099551517340547,0.048204988704272776,-0.005666774231940508,0.011575889773666859,0.0
187,5,1.618592068552971e-05,-2.2735126549378037e-05,-1.0071387805510312e-05,0.0009217332699336112,0.0025548425037413836,0.0018360338872298598,-0.007951236329972744,-0.12654173374176025,-0.006514534819871187,0.021728025749325752,-0.011956967413425446,0.18573036789894104,0.0,0.0,0.0,0.0037607450503855944,0.0014161636354401708,-0.0,0.0,0.0,0.0,0.0010557054774835706,0.03801913186907768,0.005825359374284744,17585.0,7241.0,12936.0,14303.0,0.7096757888793945,0.10434825718402863,0.3712235689163208,0.4594685733318329,0.0,0.0,0.0,0.0,15990.0,10340.0,10670.0,16083.0,1.6606334447860718,0.032284963999857544,-0.02116815517897738,0.048305869314646546,-0.005666774231940508,0.011575889773666859,0.0
192,5,2.6192010409431532e-05,-1.356117627437925e-05,-3.223429303034209e-05,0.001569424057379365,-7.893709698691964e-05,0.003393962047994137,-0.007951236329972744,-0.12654173374176025,-0.006514534819871187,0.021728025749325752,-0.011956967413425446,0.18573036789894104,0.0,0.0,0.0,-0.0031663263216614723,0.0008897788356989622,-0.0,0.0,0.0,0.0,0.0010557054774835706,0.03801913186907768,0.005825359374284744,17585.0,7241.0,12936.0,14303.0,0.7096757888793945,0.10434825718402863,0.3712235689163208,0.4594685733318329,0.0,0.0,0.0,0.0,15990.0,10340.0,10670.0,16083.0,1.653738021850586,0.03202013894041997,-0.020738013033892354,0.04919014368028074,-0.0035456710029393435,-0.009705761447548866,0.0
197,5,1.552617504785303e-05,-1.8536511561251245e-05,1.8656838847164181e-06,-0.0006521305185742676,0.0005654654232785106,-0.002734412206336856,-0.007998947985470295,-0.1264239400625229,-0.008344361558556557,-0.0016275672242045403,-0.01071627251803875,-0.20390646159648895,0.0,0.0,0.0,-0.0031663263216614723,0.0008897788356989622,-0.0,0.0,0.0,0.0,0.0014472388429567218,0.038008805364370346,-0.008475396782159805,13210.0,13667.0,5547.0,18341.0,0.3881550133228302,0.41722428798675537,0.056387901306152344,0.7749643325805664,0.0,0.0,0.0,0.0,15431.0,11030.0,9990.0,16496.0,1.653738021850586,0.03187908257648456,-0.02085424371604167,0.04848835031385758,-0.0035456710029393435,-0.009705761447548866,0.0
202,5,6.147267868072959e-06,-6.2974318097985815e-06,3.9944359741639346e-05,-0.0013863211497664452,-0.0012425035238265991,-0.005663206335157156,-0.007998947985470295,-0.1264239400625229,-0.008344361558556557,-0.0016275672242045403,-0.01071627251803875,-0.20390646159648895,0.0,0.0,0.0,-0.0007335845730267465,-0.0005991611978970468,-0.0,0.0,0.0,0.0,0.0014472388429567218,0.038008805364370346,-0.008475396782159805,13210.0,13667.0,5547.0,18341.0,0.3881550133228302,0.41722428798675537,0.056387901306152344,0.7749643325805664,0.0,0.0,0.0,0.0,15431.0,11030.0,9990.0,16496.0,1.6345446109771729,0.031911698901739956,-0.021690386175848442,0.04833352144804326,0.002359892474487424,-0.002222569892182946,0.0
207,5,-3.453565113886725e-06,-1.8409604308544658e-05,4.28136954724323e-05,-0.0017066283617168665,0.0009564593783579767,-0.002609602641314268,-0.008188115432858467,-0.12621207535266876,-0.006884434260427952,-0.04825983941555023,-0.011370640248060226,0.06042061001062393,0.0,0.0,0.0,-0.0007335845730267465,-0.0005991611978970468,-0.0,0.0,0.0,0.0,0.00314777041785419,0.03822668641805649,0.004337357822805643,16788.0,8749.0,12112.0,15371.0,0.6439453363418579,0.1591774821281433,0.3225443363189697,0.534966230392456,0.0,0.0,0.0,0.0,14973.0,11744.0,9208.0,17163.0,1.6345446109771729,0.031695580189104185,-0.021735521432558833,0.048488928281708234,0.002359892474487424,-0.002222569892182946,0.0
212,5,2.2184019599080784e-07,-4.301060471334495e-06,8.474307833239436e-05,-0.00024160272732842714,-0.0013104415265843272,-0.006075367331504822,-0.008188115432858467,-0.12621207535266876,-0.006884434260427952,-0.04825983941555023,-0.011370640248060226,0.06042061001062393,0.0,0.0,0.0,-0.0012089841766282916,-0.0016184966079890728,-0.0,0.0,0.0,0.0,0.00314777041785419,0.03822668641805649,0.004337357822805643,16788.0,8749.0,12112.0,15371.0,0.6439453363418579,0.1591774821281433,0.3225443363189697,0.534966230392456,0.0,0.0,0.0,0.0,14973.0,11744.0,9208.0,17163.0,1.6458157300949097,0.03208001732882328,-0.022079206004707634,0.048588757565641974,0.006418660283088684,-0.0036881635896861553,0.0
217,5,1.1092799468315206e-05,-1.4346823263622355e-05,9.335775393992662e-05,0.00120787404011935,0.0006813149084337056,-0.0034639076329767704,-0.008287905715405941,-0.12585420906543732,-0.007593471556901932,0.006526267621666193,-0.06015653535723686,0.04692405089735985,0.0,0.0,0.0,-0.0012089841766282916,-0.0016184966079890728,-0.0,0.0,0.0,0.0,0.0009282861137762666,0.03735020011663437,-0.001873319735750556,15756.0,10859.0,10407.0,16265.0,0.5635563135147095,0.2550196349620819,0.23262321949005127,0.6025388836860657,0.0,0.0,0.0,0.0,16322.0,9979.0,11258.0,15692.0,1.6458157300949097,0.031054584555276293,-0.02303940170254895,0.048646146995155966,0.006418660283088684,-0.0036881635896861553,0.0
222,5,1.3216230399848428e-05,9.852992661762983e-06,0.00014252823893912137,0.000737961265258491,-0.0026314519345760345,-0.007286021485924721,-0.008287905715405941,-0.12585420906543732,-0.007593471556901932,0.006526267621666193,-0.06015653535723686,0.04692405089735985,0.0,0.0,0.0,-0.000866460264660418,0.001161615364253521,-0.0,0.0,0.0,0.0,0.0009282861137762666,0.03735020011663437,-0.001873319735750556,15756.0,10859.0,10407.0,16265.0,0.5635563135147095,0.2550196349620819,0.23262321949005127,0.6025388836860657,0.0,0.0,0.0,0.0,16322.0,9979.0,11258.0,15692.0,1.640103816986084,0.03145835710745716,-0.023321131987572085,0.0488584717419032,-0.004590767901390791,-0.0026340768672525883,0.0
227,5,-4.1743032852537e-06,3.467685746727511e-05,0.00023411930305883288,-0.0017916795331984758,-0.004031444434076548,-0.013905336149036884,-0.008287905715405941,-0.12585420906543732,-0.007593471556901932,0.006526267621666193,-0.06015653535723686,0.04692405089735985,0.0,0.0,0.0,-0.000866460264660418,0.001161615364253521,-0.0,0.0,0.0,0.0,0.0009282861137762666,0.03735020011663437,-0.001873319735750556,15756.0,10859.0,10407.0,16265.0,0.5635563135147095,0.2550196349620819,0.23262321949005127,0.6025388836860657,0.0,0.0,0.0,0.0,16322.0,9979.0,11258.0,15692.0,1.640103816986084,0.031340737903729585,-0.02517430741003698,0.04903317310095105,-0.004590767901390791,-0.0026340768672525883,0.0
232,5,-5.2393690566532314e-05,4.31384178227745e-05,0.0003707782307174057,-0.006502998527139425,-0.0026279648300260305,-0.021961206570267677,-0.008077962324023247,-0.12534089386463165,-0.007731718942523003,0.0008312826394103467,-0.078544981777668,-0.06271546334028244,0.0,0.0,0.0,0.004942636471241713,-0.0016743397573009133,-0.0,0.0,0.0,0.0,0.002019315492361784,0.03419288620352745,0.0002931067137978971,14933.0,11758.0,9298.0,16821.0,0.5032796859741211,0.3026646673679352,0.18197500705718994,0.6466252207756042,0.0,0.0,0.0,0.0,15310.0,11145.0,10223.0,16367.0,1.6709723472595215,0.030823137938473702,-0.027528164089322217,0.04916561480223741,0.006741541903465986,0.015308522619307041,0.0
238,5,-8.996993710752577e-05,6.361262785503641e-05,0.0004949515569023788,-0.00711034843698144,-0.0035080912057310343,-0.023685278370976448,-0.008077962324023247,-0.12534089386463165,-0.007731718942523003,0.0008312826394103467,-0.078544981777668,-0.06271546334028244,0.0,0.0,0.0,0.004942636471241713,-0.0016743397573009133,-0.0,0.0,0.0,0.0,0.002019315492361784,0.03419288620352745,0.0002931067137978971,14933.0,11758.0,9298.0,16821.0,0.5032796859741211,0.3026646673679352,0.18197500705718994,0.6466252207756042,0.0,0.0,0.0,0.0,15310.0,11145.0,10223.0,16367.0,1.6709723472595215,0.030573438915737265,-0.030679270657116925,0.04978811752331038,0.006741541903465986,0.015308522619307041,0.0
243,5,-0.00015226672985590994,6.953004776732996e-05,0.0006698083016090095,-0.010319754481315613,-0.0021133271511644125,-0.030456922948360443,-0.008592584170401096,-0.12354056537151337,-0.007526042405515909,-0.04943487420678139,-0.20589257776737213,0.01726808212697506,0.0,0.0,0.0,0.004267413169145584,-0.00660132197663188,-0.0,0.0,0.0,0.0,0.003049628809094429,0.027610916644334793,-0.0011287637753412127,14781.0,11696.0,11295.0,15849.0,0.492562860250473,0.2992568016052246,0.2776569128036499,0.5706273317337036,0.0,0.0,0.0,0.0,15066.0,11493.0,10714.0,16194.0,1.7073947191238403,0.029718757371283194,-0.033701751377680715,0.04941231261847519,0.027158740907907486,0.013505317270755768,0.0
248,5,-0.00025295998784713447,0.00012229294225107878,0.0009166111703962088,-0.016211092472076416,-0.007176878396421671,-0.041799113154411316,-0.008592584170401096,-0.12354056537151337,-0.007526042405515909,-0.04943487420678139,-0.20589257776737213,0.01726808212697506,0.0,0.0,0.0,0.004267413169145584,-0.00660132197663188,-0.0,0.0,0.0,0.0,0.003049628809094429,0.027610916644334793,-0.0011287637753412127,14781.0,11696.0,11295.0,15849.0,0.492562860250473,0.2992568016052246,0.2776569128036499,0.5706273317337036,0.0,0.0,0.0,0.0,15066.0,11493.0,10714.0,16194.0,1.7073947191238403,0.02896284206906391,-0.03990019788930253,0.05009420314004297,0.027158740907907486,0.013505317270755768,0.0
253,5,-0.0003699414664879441,0.00011988868209300563,0.0011594861280173063,-0.020522216334939003,-0.0025822396855801344,-0.04586463421583176,-0.00934563111513853,-0.12050294131040573,-0.0076944599859416485,-0.1357993334531784,-0.554457426071167,0.002281240886077285,0.0,0.0,0.0,0.004267413169145584,-0.00660132197663188,-0.0,0.0,0.0,0.0,0.005478013306856155,0.016223810613155365,-0.0011901278048753738,13842.0,12706.0,12466.0,15466.0,0.42868566513061523,0.3573051691055298,0.3430505394935608,0.5419309735298157,0.0,0.0,0.0,0.0,15034.0,11278.0,12200.0,15239.0,1.7073947191238403,0.02869095189877905,-0.04695929845649168,0.05006170984249687,0.07899438589811325,0.010343312285840511,0.0
258,5,-0.0005139838322065771,0.00015330189489759505,0.0014027045108377934,-0.02549397014081478,-0.005042482167482376,-0.047532059252262115,-0.00934563111513853,-0.12050294131040573,-0.0076944599859416485,-0.1357993334531784,-0.554457426071167,0.002281240886077285,0.0,0.0,0.0,0.0030379993841052055,-0.017848623916506767,-0.0,0.0,0.0,0.0,0.005478013306856155,0.016223810613155365,-0.0011901278048753738,13842.0,12706.0,12466.0,15466.0,0.42868566513061523,0.3573051691055298,0.3430505394935608,0.5419309735298157,0.0,0.0,0.0,0.0,15034.0,11278.0,12200.0,15239.0,1.8368116617202759,0.028387119878803938,-0.05526659466262199,0.05051943410443572,0.07899438589811325,0.010343312285840511,0.0
263,5,-0.0007029874832369387,0.0001895832538139075,0.001673093531280756,-0.032878026366233826,-0.006370756309479475,-0.05145951732993126,-0.01314113661646843,-0.10020764917135239,-0.007245060987770557,-0.21645806729793549,-1.6106501817703247,0.018020346760749817,0.0,0.0,0.0,0.0030379993841052055,-0.017848623916506767,-0.0,0.0,0.0,0.0,0.006784476339817047,-0.0011645329650491476,-0.0007783518522046506,13056.0,13695.0,14245.0,14226.0,0.37856054306030273,0.4190419912338257,0.45554912090301514,0.4542430639266968,0.0,0.0,0.0,0.0,13665.0,12820.0,13047.0,15051.0,1.8368116617202759,0.027273837544705234,-0.0648802310972386,0.0507131403994117,0.1271628886461258,0.024934232234954834,0.0
268,5,-0.0009075742564164102,0.00023923363187350333,0.0019194545457139611,-0.037701625376939774,-0.008506346493959427,-0.050147123634815216,-0.01314113661646843,-0.10020764917135239,-0.007245060987770557,-0.21645806729793549,-1.6106501817703247,0.018020346760749817,0.0,0.0,0.0,0.006851274520158768,-0.026881204918026924,-0.0,0.0,0.0,0.0,0.006784476339817047,-0.0011645329650491476,-0.0007783518522046506,13056.0,13695.0,14245.0,14226.0,0.37856054306030273,0.4190419912338257,0.45554912090301514,0.4542430639266968,0.0,0.0,0.0,0.0,13665.0,12820.0,13047.0,15051.0,1.963460922241211,0.027636468873424493,-0.07608121599027358,0.05203440282280985,0.1271628886461258,0.024934232234954834,0.0
273,5,-0.0011088575702160597,0.00026409467682242393,0.0021405541338026524,-0.039234645664691925,-0.006385865155607462,-0.046590790152549744,-0.015877943485975266,-0.07798126339912415,-0.007209257688373327,-0.22671151161193848,-2.094959259033203,-0.037907086312770844,0.0,0.0,0.0,0.006851274520158768,-0.026881204918026924,-0.0,0.0,0.0,0.0,0.006990661378949881,-0.015590616501867771,-0.00163235270883888,11638.0,15767.0,15338.0,14070.0,0.2960767447948456,0.5644042491912842,0.5325659513473511,0.44376465678215027,0.0,0.0,0.0,0.0,12362.0,14312.0,14279.0,14201.0,1.963460922241211,0.027756952038757964,-0.08754267548984691,0.0530357129645252,0.15323637425899506,0.025401627644896507,0.0
278,5,-0.0013429794926196337,0.00029351835837587714,0.0023676264099776745,-0.04378848895430565,-0.006085188128054142,-0.04588499292731285,-0.015877943485975266,-0.07798126339912415,-0.007209257688373327,-0.22671151161193848,-2.094959259033203,-0.037907086312770844,0.0,0.0,0.0,0.006760685238987207,-0.03137782961130142,-0.0,0.0,0.0,0.0,0.006990661378949881,-0.015590616501867771,-0.00163235270883888,11638.0,15767.0,15338.0,14070.0,0.2960767447948456,0.5644042491912842,0.5325659513473511,0.44376465678215027,0.0,0.0,0.0,0.0,12362.0,14312.0,14279.0,14201.0,2.0270678997039795,0.029113992176935614,-0.0989139778769647,0.053444841028479836,0.15323637425899506,0.025401627644896507,0.0
283,5,-0.00156455859541893,0.00031177449272945523,0.0025874634739011526,-0.04410489276051521,-0.004624809138476849,-0.044734448194503784,-0.017773399129509926,-0.059959668666124344,-0.006948665715754032,-0.17841961979866028,-2.353325366973877,-0.006511087063699961,0.0,0.0,0.0,0.006760685238987207,-0.03137782961130142,-0.0,0.0,0.0,0.0,0.0071308729238808155,-0.03343694284558296,-0.0006044199108146131,10946.0,16229.0,16525.0,12663.0,0.2594556212425232,0.5997290015220642,0.6229357123374939,0.3546912670135498,0.0,0.0,0.0,0.0,11446.0,15856.0,15878.0,13512.0,2.0270678997039795,0.028736760345802755,-0.11110728553385366,0.05376849770138785,0.17401163280010223,0.019060999155044556,0.0
288,5,-0.0017842408269643784,0.0003283649275545031,0.0027978268917649984,-0.04400382936000824,-0.0038407789543271065,-0.043137386441230774,-0.017773399129509926,-0.059959668666124344,-0.006948665715754032,-0.17841961979866028,-2.353325366973877,-0.006511087063699961,0.0,0.0,0.0,0.004955873358994722,-0.034809622913599014,-0.0,0.0,0.0,0.0,0.0071308729238808155,-0.03343694284558296,-0.0006044199108146131,10946.0,16229.0,16525.0,12663.0,0.2594556212425232,0.5997290015220642,0.6229357123374939,0.3546912670135498,0.0,0.0,0.0,0.0,11446.0,15856.0,15878.0,13512.0,2.07500958442688,0.02897595455967364,-0.12283185409109199,0.0544620207205322,0.17401163280010223,0.019060999155044556,0.0
293,5,-0.0019716154783964157,0.00032191909849643707,0.0029610218480229378,-0.04008648544549942,-0.0007628120365552604,-0.0368383452296257,-0.019573885947465897,-0.03154583275318146,-0.006622180808335543,-0.1296975165605545,-2.3254928588867188,-0.020462356507778168,0.0,0.0,0.0,0.004955873358994722,-0.034809622913599014,-0.0,0.0,0.0,0.0,0.0070183961652219296,-0.042108047753572464,-0.0010191226610913873,10810.0,17470.0,17552.0,12879.0,0.2525426149368286,0.6999707818031311,0.7068479657173157,0.36770644783973694,0.0,0.0,0.0,0.0,10840.0,17046.0,17227.0,12830.0,2.07500958442688,0.029822443993929977,-0.13281061539186448,0.055057753463634965,0.17401163280010223,0.019060999155044556,0.0
299,5,-0.0021380181424319744,0.0003263690450694412,0.0031296024098992348,-0.03600290045142174,-0.0008391180308535695,-0.034965015947818756,-0.019573885947465897,-0.03154583275318146,-0.006622180808335543,-0.1296975165605545,-2.3254928588867188,-0.020462356507778168,0.0,0.0,0.0,0.001224971259944141,-0.032772064208984375,-0.0,0.0,0.0,0.0,0.0070183961652219296,-0.042108047753572464,-0.0010191226610913873,10810.0,17470.0,17552.0,12879.0,0.2525426149368286,0.6999707818031311,0.7068479657173157,0.36770644783973694,0.0,0.0,0.0,0.0,10840.0,17046.0,17227.0,12830.0,2.0415306091308594,0.029517015612089564,-0.14225150069313716,0.055311575163018295,0.16118831932544708,0.0046354313381016254,0.0
304,5,-0.0022943324875086546,0.0003527190419845283,0.00329965609125793,-0.03315889835357666,-0.0034976473543792963,-0.034392450004816055,-0.02009611204266548,-0.014454387128353119,-0.006322169676423073,-0.0011795692844316363,-1.9202280044555664,-0.00682559609413147,0.0,0.0,0.0,0.001224971259944141,-0.032772064208984375,-0.0,0.0,0.0,0.0,0.005758177489042282,-0.04444349929690361,-0.0008889710297808051,11038.0,17479.0,17587.0,12623.0,0.2642166316509247,0.7007315754890442,0.7097904682159424,0.35232919454574585,0.0,0.0,0.0,0.0,10819.0,17510.0,17598.0,12750.0,2.0415306091308594,0.029995551231183994,-0.15094205336597033,0.05633726969369244,0.13699284195899963,0.015061697922647,0.0
309,5,-0.0024267048574984074,0.0003801567363552749,0.0034648654982447624,-0.029148224741220474,-0.004691579844802618,-0.03358210623264313,-0.02009611204266548,-0.014454387128353119,-0.006322169676423073,-0.0011795692844316363,-1.9202280044555664,-0.00682559609413147,0.0,0.0,0.0,0.004095844458788633,-0.028660578653216362,-0.0,0.0,0.0,0.0,0.005758177489042282,-0.04444349929690361,-0.0008889710297808051,11038.0,17479.0,17587.0,12623.0,0.2642166316509247,0.7007315754890442,0.7097904682159424,0.35232919454574585,0.0,0.0,0.0,0.0,10819.0,17510.0,17598.0,12750.0,1.9839198589324951,0.030648345625893896,-0.1575463694278813,0.0574179307733561,0.13699284195899963,0.015061697922647,0.0
314,5,-0.002521037356927991,0.00037207792047411203,0.0035751413088291883,-0.022979186847805977,-0.0009071753593161702,-0.0266659427434206,-0.019581753760576248,0.004496426787227392,-0.005972780287265778,0.06420718133449554,-1.3243008852005005,0.007893871515989304,0.0,0.0,0.0,0.004095844458788633,-0.028660578653216362,-0.0,0.0,0.0,0.0,0.004339530132710934,-0.038304999470710754,-0.0005578177515417337,11937.0,17192.0,17223.0,12959.0,0.31261616945266724,0.6768879890441895,0.6794267296791077,0.37259969115257263,0.0,0.0,0.0,0.0,11236.0,17726.0,17601.0,12881.0,1.9839198589324951,0.030961815539960944,-0.16255590665074346,0.05794963407618663,0.10007429122924805,0.00545520382001996,0.0
319,5,-0.002577301347628236,0.000374911556718871,0.003693018574267626,-0.015943370759487152,-0.0007029047701507807,-0.024811645969748497,-0.019581753760576248,0.004496426787227392,-0.005972780287265778,0.06420718133449554,-1.3243008852005005,0.007893871515989304,0.0,0.0,0.0,0.0015576158184558153,-0.021981824189424515,-0.0,0.0,0.0,0.0,0.004339530132710934,-0.038304999470710754,-0.0005578177515417337,11937.0,17192.0,17223.0,12959.0,0.31261616945266724,0.6768879890441895,0.6794267296791077,0.37259969115257263,0.0,0.0,0.0,0.0,11236.0,17726.0,17601.0,12881.0,1.8894803524017334,0.030993943829013233,-0.16613079127898256,0.05819134115410072,0.10007429122924805,0.00545520382001996,0.0
324,5,-0.0025985005777329206,0.00039531526272185147,0.003757154569029808,-0.008921249769628048,-0.0027296082116663456,-0.017620984464883804,-0.01877996139228344,0.012229129672050476,-0.005800885148346424,0.12337714433670044,-0.5742110013961792,0.007069435901939869,0.0,0.0,0.0,0.0015576158184558153,-0.021981824189424515,-0.0,0.0,0.0,0.0,0.0024643091019243,-0.02757411263883114,-0.0005410025478340685,12879.0,16628.0,16586.0,13631.0,0.3677421510219574,0.6310890316963196,0.6278048753738403,0.4148944616317749,0.0,0.0,0.0,0.0,12466.0,16906.0,17142.0,12954.0,1.7578577995300293,0.032363184410633364,-0.16689579639381946,0.058254038112252035,0.04779209569096565,0.012418445199728012,0.0
329,5,-0.0025616504717618227,0.00038750586099922657,0.003760901279747486,0.0008535149972885847,-0.0001547156134620309,-0.007497985847294331,-0.01877996139228344,0.012229129672050476,-0.005800885148346424,0.12337714433670044,-0.5742110013961792,0.007069435901939869,0.0,0.0,0.0,0.0038113323971629143,-0.011283213272690773,-0.0,0.0,0.0,0.0,0.0024643091019243,-0.02757411263883114,-0.0005410025478340685,12879.0,16628.0,16586.0,13631.0,0.3677421510219574,0.6310890316963196,0.6278048753738403,0.4148944616317749,0.0,0.0,0.0,0.0,12466.0,16906.0,17142.0,12954.0,1.7578577995300293,0.03181824445687302,-0.16591198276832533,0.05830137468925753,0.04779209569096565,0.012418445199728012,0.0
334,5,-0.0024798507802188396,0.00036757357884198427,0.0037113928701728582,0.010157357901334763,0.002329988870769739,0.0029417993500828743,-0.017062433063983917,0.014480591751635075,-0.005378867033869028,0.163030743598938,0.20751748979091644,0.04770418256521225,0.0,0.0,0.0,0.0008863118127919734,-0.002741902833804488,-0.0,0.0,0.0,0.0,0.002846868010237813,-0.011892547830939293,0.00019558830535970628,14132.0,15178.0,15737.0,14206.0,0.44793421030044556,0.5208898186683655,0.5621665120124817,0.45292937755584717,0.0,0.0,0.0,0.0,13071.0,16078.0,16136.0,13768.0,1.656280517578125,0.032404130859641465,-0.16304285101236973,0.05826532467947894,0.010943018831312656,0.0027210020925849676,0.0
339,5,-0.0023799457121640444,0.0003417789121158421,0.003656399669125676,0.016051562502980232,0.004027355927973986,0.007775915786623955,-0.017062433063983917,0.014480591751635075,-0.005378867033869028,0.163030743598938,0.20751748979091644,0.04770418256521225,0.0,0.0,0.0,0.0008863118127919734,-0.002741902833804488,-0.0,0.0,0.0,0.0,0.002846868010237813,-0.011892547830939293,0.00019558830535970628,14132.0,15178.0,15737.0,14206.0,0.44793421030044556,0.5208898186683655,0.5621665120124817,0.45292937755584717,0.0,0.0,0.0,0.0,13071.0,16078.0,16136.0,13768.0,1.656280517578125,0.03343015791581825,-0.15907275215139902,0.05773537189189434,0.010943018831312656,0.0027210020925849676,0.0
344,5,-0.0022657064255326986,0.000314436067128554,0.0035445615649223328,0.020129341632127762,0.004892084281891584,0.016530925408005714,-0.015403471887111664,0.010556826367974281,-0.005438012070953846,0.20923663675785065,0.7204228043556213,-0.013663402758538723,0.0,0.0,0.0,-0.004058053717017174,0.011114446446299553,-0.0,0.0,0.0,0.0,0.0006410974310711026,0.0037845675833523273,-0.0007823332562111318,14430.0,14473.0,13881.0,15152.0,0.46817895770072937,0.47110989689826965,0.4312078058719635,0.5189837217330933,0.0,0.0,0.0,0.0,14215.0,14567.0,14941.0,14229.0,1.7564936876296997,0.03455158925095135,-0.15368801855530823,0.057567360627144064,-0.047040704637765884,-0.013212068006396294,-0.0
349,5,-0.0021300874650478363,0.00028156524058431387,0.0033999409060925245,0.024326005950570107,0.005901332013309002,0.02396686002612114,-0.015403471887111664,0.010556826367974281,-0.005438012070953846,0.20923663675785065,0.7204228043556213,-0.013663402758538723,0.0,0.0,0.0,-0.004058053717017174,0.011114446446299553,-0.0,0.0,0.0,0.0,0.0006410974310711026,0.0037845675833523273,-0.0007823332562111318,14430.0,14473.0,13881.0,15152.0,0.46817895770072937,0.47110989689826965,0.4312078058719635,0.5189837217330933,0.0,0.0,0.0,0.0,14215.0,14567.0,14941.0,14229.0,1.7564936876296997,0.035504676108866096,-0.14843213645279027,0.057302478560319114,-0.047040704637765884,-0.013212068006396294,-0.0
354,5,-0.002025420079007745,0.0002692356356419623,0.003298617899417877,0.022290494292974472,0.003840083722025156,0.02174549549818039,-0.013217234052717686,0.0003249957226216793,-0.005252697039395571,0.15655416250228882,0.991569995880127,0.05448644980788231,0.0,0.0,0.0,-0.004058053717017174,0.011114446446299553,-0.0,0.0,0.0,0.0,0.0011079396354034543,0.01544101070612669,0.0008610148215666413,15240.0,12438.0,13330.0,14821.0,0.5253888964653015,0.34139585494995117,0.3956730365753174,0.4954000413417816,0.0,0.0,0.0,0.0,15393.0,11429.0,12682.0,14588.0,1.7564936876296997,0.03647275245037719,-0.14322051234342856,0.05688019191983415,-0.047040704637765884,-0.013212068006396294,-0.0
359,5,-0.0019191288156434894,0.0002659238234627992,0.003172485623508692,0.02167113684117794,0.0019334513926878572,0.023834090679883957,-0.013217234052717686,0.0003249957226216793,-0.005252697039395571,0.15655416250228882,0.991569995880127,0.05448644980788231,0.0,0.0,0.0,-0.003824340645223856,0.01649666205048561,-0.0,0.0,0.0,0.0,0.0011079396354034543,0.01544101070612669,0.0008610148215666413,15240.0,12438.0,13330.0,14821.0,0.5253888964653015,0.34139585494995117,0.3956730365753174,0.4954000413417816,0.0,0.0,0.0,0.0,15393.0,11429.0,12682.0,14588.0,1.820918321609497,0.03735080381686491,-0.13831122686298733,0.05660448210193425,-0.07237949967384338,-0.012907843105494976,-0.0
364,5,-0.0018381662666797638,0.00025299229309894145,0.003079717280343175,0.018383966758847237,0.0023251641541719437,0.020665818825364113,-0.013217234052717686,0.0003249957226216793,-0.005252697039395571,0.15655416250228882,0.991569995880127,0.05448644980788231,0.0,0.0,0.0,-0.003824340645223856,0.01649666205048561,-0.0,0.0,0.0,0.0,0.0011079396354034543,0.01544101070612669,0.0008610148215666413,15240.0,12438.0,13330.0,14821.0,0.5253888964653015,0.34139585494995117,0.3956730365753174,0.4954000413417816,0.0,0.0,0.0,0.0,15393.0,11429.0,12682.0,14588.0,1.820918321609497,0.037596365963257924,-0.13445892755502,0.056630512698558684,-0.07237949967384338,-0.012907843105494976,-0.0
370,5,-0.0017804742092266679,0.0002369745052419603,0.002960236743092537,0.014276632107794285,0.002852201461791992,0.02260400913655758,-0.011629456654191017,-0.008267952129244804,-0.0049999481998384,0.14495767652988434,1.0026952028274536,0.006047029979526997,0.0,0.0,0.0,-0.0022126773837953806,0.013670593500137329,-0.0,0.0,0.0,0.0,-1.904453347378876e-05,0.023647891357541084,0.00020774341828655452,15077.0,11914.0,11879.0,15193.0,0.5135970711708069,0.3113405108451843,0.3094017505645752,0.5219412446022034,0.0,0.0,0.0,0.0,15733.0,12103.0,11855.0,15769.0,1.7836471796035767,0.03801758893255799,-0.13046111813481992,0.05601681452269326,-0.05875348672270775,-0.0073153474368155,-0.0
375,5,-0.0017442033858969808,0.00023184713791124523,0.0028752111829817295,0.01006314903497696,0.0017561649437993765,0.01924465410411358,-0.011629456654191017,-0.008267952129244804,-0.0049999481998384,0.14495767652988434,1.0026952028274536,0.006047029979526997,0.0,0.0,0.0,-0.0022126773837953806,0.013670593500137329,-0.0,0.0,0.0,0.0,-1.904453347378876e-05,0.023647891357541084,0.00020774341828655452,15077.0,11914.0,11879.0,15193.0,0.5135970711708069,0.3113405108451843,0.3094017505645752,0.5219412446022034,0.0,0.0,0.0,0.0,15733.0,12103.0,11855.0,15769.0,1.7836471796035767,0.03827773632587757,-0.12854227891533618,0.05600510964852474,-0.05875348672270775,-0.0073153474368155,-0.0
380,5,-0.00174036028329283,0.00022080376220401376,0.0028427739161998034,0.004486437421292067,0.002027670154348016,0.01159033365547657,-0.009735435247421265,-0.01887708157300949,-0.004938286729156971,0.13489553332328796,0.7514276504516602,0.01755518466234207,0.0,0.0,0.0,-0.0016784255858510733,0.006839590147137642,-0.0,0.0,0.0,0.0,-0.0010711320210248232,0.025522451847791672,0.00019950013665948063,15647.0,12222.0,12190.0,15511.0,0.5554162263870239,0.32885289192199707,0.3269701600074768,0.5452544093132019,0.0,0.0,0.0,0.0,15599.0,12296.0,12188.0,15504.0,1.7026557922363281,0.03880759738510875,-0.12694481141003275,0.05577455720167154,-0.02806111052632332,-0.005297087598592043,-0.0
385,5,-0.0017787290271371603,0.00023632857482880354,0.0028505155351012945,-0.0028096837922930717,-0.0010519097559154034,0.0037071537226438522,-0.009735435247421265,-0.01887708157300949,-0.004938286729156971,0.13489553332328796,0.7514276504516602,0.01755518466234207,0.0,0.0,0.0,-0.0016784255858510733,0.006839590147137642,-0.0,0.0,0.0,0.0,-0.0010711320210248232,0.025522451847791672,0.00019950013665948063,15647.0,12222.0,12190.0,15511.0,0.5554162263870239,0.32885289192199707,0.3269701600074768,0.5452544093132019,0.0,0.0,0.0,0.0,15599.0,12296.0,12188.0,15504.0,1.7026557922363281,0.039010786364117866,-0.12725774366777684,0.05622245706266229,-0.02806111052632332,-0.005297087598592043,-0.0
390,5,-0.0018353175837546587,0.0002494538202881813,0.002879645675420761,-0.007914489135146141,-0.001995791681110859,-0.0020127485040575266,-0.008593319915235043,-0.023474864661693573,-0.004942267667502165,0.0662655383348465,0.3221959173679352,-0.009868682362139225,0.0,0.0,0.0,0.0016860730247572064,-0.005033412948250771,-0.0,0.0,0.0,0.0,-0.0007168421288952231,0.021712902933359146,-0.0005471764598041773,15321.0,13105.0,12488.0,15758.0,0.5312885642051697,0.3816218376159668,0.34431636333465576,0.5636916160583496,0.0,0.0,0.0,0.0,15323.0,13067.0,12822.0,15520.0,1.6826398372650146,0.03824117615093054,-0.12886465010378273,0.05598204629434314,0.020408129319548607,0.005258667748421431,-0.0
395,5,-0.0019211617764085531,0.00026193802477791905,0.002945732092484832,-0.013467106968164444,-0.002296420279890299,-0.00873547326773405,-0.008593319915235043,-0.023474864661693573,-0.004942267667502165,0.0662655383348465,0.3221959173679352,-0.009868682362139225,0.0,0.0,0.0,0.0016860730247572064,-0.005033412948250771,-0.0,0.0,0.0,0.0,-0.0007168421288952231,0.021712902933359146,-0.0005471764598041773,15321.0,13105.0,12488.0,15758.0,0.5312885642051697,0.3816218376159668,0.34431636333465576,0.5636916160583496,0.0,0.0,0.0,0.0,15323.0,13067.0,12822.0,15520.0,1.6826398372650146,0.037969301794736364,-0.1312926736700502,0.05627738773024443,0.020408129319548607,0.005258667748421431,-0.0
400,5,-0.002024448476731777,0.00029540868126787245,0.0030519403517246246,-0.017781242728233337,-0.004935047123581171,-0.01623920165002346,-0.0082324780523777,-0.024293074384331703,-0.00494049908593297,-0.04176931083202362,-0.19699493050575256,-0.017084181308746338,0.0,0.0,0.0,0.0030327278655022383,-0.014173693023622036,-0.0,0.0,0.0,0.0,0.0028996707405894995,-0.0032560310792177916,-0.0005339782801456749,14444.0,13582.0,13227.0,15077.0,0.46910378336906433,0.4117371141910553,0.38922837376594543,0.513577938079834,0.0,0.0,0.0,0.0,14117.0,13847.0,13497.0,14907.0,1.7909127473831177,0.037985179701951595,-0.1354397146900667,0.0567304570111789,0.06116357073187828,0.010067351162433624,0.0
405,5,-0.0021488445345312357,0.00030853706994093955,0.00317737297154963,-0.022040026262402534,-0.0035494284238666296,-0.021547574549913406,-0.0082324780523777,-0.024293074384331703,-0.00494049908593297,-0.04176931083202362,-0.19699493050575256,-0.017084181308746338,0.0,0.0,0.0,0.0030327278655022383,-0.014173693023622036,-0.0,0.0,0.0,0.0,0.0028996707405894995,-0.0032560310792177916,-0.0005339782801456749,14444.0,13582.0,13227.0,15077.0,0.46910378336906433,0.4117371141910553,0.38922837376594543,0.513577938079834,0.0,0.0,0.0,0.0,14117.0,13847.0,13497.0,14907.0,1.7909127473831177,0.037256577963439265,-0.1392863393791176,0.05665747286434407,0.06116357073187828,0.010067351162433624,0.0
410,5,-0.0023062194231897593,0.0003201477520633489,0.00330381840467453,-0.02770099975168705,-0.0028130505234003067,-0.02379249408841133,-0.008903303183615208,-0.020727764815092087,-0.004987791180610657,-0.12615202367305756,-0.7018499374389648,-0.0036476263776421547,0.0,0.0,0.0,0.004315637052059174,-0.020898979157209396,-0.0,0.0,0.0,0.0,0.005608995910733938,-0.018284721300005913,-0.00074100645724684,13060.0,14112.0,14039.0,13946.0,0.378827303647995,0.44659391045570374,0.44171711802482605,0.43551746010780334,0.0,0.0,0.0,0.0,12957.0,14195.0,14399.0,13585.0,1.8781068325042725,0.03623046862156678,-0.14471140384274958,0.05717006934264681,0.0945717915892601,0.015023506246507168,0.0
415,5,-0.0024842366110533476,0.0003468698123469949,0.0034378173295408487,-0.03244244307279587,-0.0043318686075508595,-0.025596866384148598,-0.008903303183615208,-0.020727764815092087,-0.004987791180610657,-0.12615202367305756,-0.7018499374389648,-0.0036476263776421547,0.0,0.0,0.0,0.004315637052059174,-0.020898979157209396,-0.0,0.0,0.0,0.0,0.005608995910733938,-0.018284721300005913,-0.00074100645724684,13060.0,14112.0,14039.0,13946.0,0.378827303647995,0.44659391045570374,0.44171711802482605,0.43551746010780334,0.0,0.0,0.0,0.0,12957.0,14195.0,14399.0,13585.0,1.8781068325042725,0.03485582521180828,-0.1503908609421993,0.05783468439920816,0.0945717915892601,0.015023506246507168,0.0
421,5,-0.002648381981998682,0.0003917374706361443,0.0035672492813318968,-0.03267442435026169,-0.007116867229342461,-0.02577057294547558,-0.012790343724191189,-0.002391151851043105,-0.004829719662666321,-0.24437043070793152,-1.0667681694030762,-0.002528315642848611,0.0,0.0,0.0,0.004948273301124573,-0.028376009315252304,-0.0,0.0,0.0,0.0,0.006422468461096287,-0.02611200325191021,-0.00043195910984650254,11822.0,15914.0,16282.0,13279.0,0.3061995208263397,0.5755196809768677,0.6038909554481506,0.39249667525291443,0.0,0.0,0.0,0.0,11970.0,15298.0,15566.0,13358.0,1.9810194969177246,0.03373682788381671,-0.1567018437302835,0.05876808252195623,0.13543421030044556,0.018169701099395752,0.0
426,5,-0.0028035989962518215,0.0004157985094934702,0.003640620969235897,-0.031695831567049026,-0.005734070669859648,-0.019112830981612206,-0.012790343724191189,-0.002391151851043105,-0.004829719662666321,-0.24437043070793152,-1.0667681694030762,-0.002528315642848611,0.0,0.0,0.0,0.004948273301124573,-0.028376009315252304,-0.0,0.0,0.0,0.0,0.006422468461096287,-0.02611200325191021,-0.00043195910984650254,11822.0,15914.0,16282.0,13279.0,0.3061995208263397,0.5755196809768677,0.6038909554481506,0.39249667525291443,0.0,0.0,0.0,0.0,11970.0,15298.0,15566.0,13358.0,1.9810194969177246,0.033298339451191566,-0.16098380572756313,0.05878218961862212,0.13543421030044556,0.018169701099395752,0.0
431,5,-0.0029500341042876244,0.0004208053869660944,0.003670227713882923,-0.030250538140535355,-0.0028944548685103655,-0.011197938583791256,-0.015674766153097153,0.009914066642522812,-0.004817330744117498,-0.24569150805473328,-0.9757485389709473,-0.02772330865263939,0.0,0.0,0.0,0.006485195364803076,-0.02816501073539257,-0.0,0.0,0.0,0.0,0.007057881448417902,-0.029498325660824776,-0.0010381261818110943,11702.0,16588.0,16635.0,13737.0,0.2996074855327606,0.6279672384262085,0.6316726803779602,0.4217721223831177,0.0,0.0,0.0,0.0,11895.0,15857.0,16351.0,13197.0,1.980643630027771,0.03212156907546207,-0.16498447732041635,0.058895956600358415,0.13440072536468506,0.023808522149920464,0.0
436,5,-0.003084509400650859,0.0004414021968841553,0.0037108866963535547,-0.028237242251634598,-0.003629398299381137,-0.009358273819088936,-0.015674766153097153,0.009914066642522812,-0.004817330744117498,-0.24569150805473328,-0.9757485389709473,-0.02772330865263939,0.0,0.0,0.0,0.006485195364803076,-0.02816501073539257,-0.0,0.0,0.0,0.0,0.007057881448417902,-0.029498325660824776,-0.0010381261818110943,11702.0,16588.0,16635.0,13737.0,0.2996074855327606,0.6279672384262085,0.6316726803779602,0.4217721223831177,0.0,0.0,0.0,0.0,11895.0,15857.0,16351.0,13197.0,1.980643630027771,0.0322629985486258,-0.16890305056629343,0.059170998495738286,0.13440072536468506,0.023808522149920464,0.0
441,5,-0.0032155064400285482,0.00047067986452020705,0.0037454823032021523,-0.027014538645744324,-0.004965078551322222,-0.00789477489888668,-0.01720569096505642,0.01616762951016426,-0.004777334630489349,-0.1609390377998352,-0.6006265878677368,-0.004308667499572039,0.0,0.0,0.0,0.004443807993084192,-0.02618306316435337,-0.0,0.0,0.0,0.0,0.0070982701145112514,-0.02606191672384739,-0.0006102853221818805,12283.0,16191.0,16562.0,13796.0,0.3323271870613098,0.5968042016029358,0.62584388256073,0.42566829919815063,0.0,0.0,0.0,0.0,11934.0,16470.0,16626.0,13693.0,1.949575662612915,0.030889861743031037,-0.1713113160004876,0.05914394518047999,0.1229868158698082,0.016058364883065224,0.0
446,5,-0.003312149317935109,0.00045924674486741424,0.003752288408577442,-0.022402973845601082,-0.0006140583427622914,-0.003974642604589462,-0.01720569096505642,0.01616762951016426,-0.004777334630489349,-0.1609390377998352,-0.6006265878677368,-0.004308667499572039,0.0,0.0,0.0,0.004443807993084192,-0.02618306316435337,-0.0,0.0,0.0,0.0,0.0070982701145112514,-0.02606191672384739,-0.0006102853221818805,12283.0,16191.0,16562.0,13796.0,0.3323271870613098,0.5968042016029358,0.62584388256073,0.42566829919815063,0.0,0.0,0.0,0.0,11934.0,16470.0,16626.0,13693.0,1.949575662612915,0.03148971799741332,-0.17291309666678548,0.059047933992606653,0.1229868158698082,0.016058364883065224,0.0
451,5,-0.003427807241678238,0.00047842858475632966,0.003805235493928194,-0.012107102200388908,-0.0015315160853788257,-0.005003522150218487,-0.01720569096505642,0.01616762951016426,-0.004777334630489349,-0.1609390377998352,-0.6006265878677368,-0.004308667499572039,0.0,0.0,0.0,0.0013807755894958973,-0.022418281063437462,-0.0,0.0,0.0,0.0,0.0070982701145112514,-0.02606191672384739,-0.0006102853221818805,12283.0,16191.0,16562.0,13796.0,0.3323271870613098,0.5968042016029358,0.62584388256073,0.42566829919815063,0.0,0.0,0.0,0.0,11934.0,16470.0,16626.0,13693.0,1.895236611366272,0.030264725516934828,-0.17251749545426065,0.05859424417630671,0.10237191617488861,0.00485059292986989,0.0
456,5,-0.0034261224791407585,0.00048240323667414486,0.0037811635993421078,-0.004640667233616114,-0.0010895634768530726,0.0008872323087416589,-0.018393564969301224,0.0199960395693779,-0.00486712995916605,-0.07267887890338898,-0.09960796684026718,-0.007018326316028833,0.0,0.0,0.0,0.0013807755894958973,-0.022418281063437462,-0.0,0.0,0.0,0.0,0.0060278791934251785,-0.017690787091851234,-0.0012624929659068584,12724.0,15776.0,15711.0,14397.0,0.3583638370037079,0.5650938749313354,0.5602115392684937,0.4659065008163452,0.0,0.0,0.0,0.0,12381.0,16161.0,16358.0,13989.0,1.895236611366272,0.030349090451253797,-0.17040649585047232,0.058204605336091814,0.10237191617488861,0.00485059292986989,0.0
461,5,-0.0034214965999126434,0.00047127073048613966,0.003763376036658883,-0.0013011809205636382,0.0009000753634609282,0.0024893933441489935,-0.018393564969301224,0.0199960395693779,-0.00486712995916605,-0.07267887890338898,-0.09960796684026718,-0.007018326316028833,0.0,0.0,0.0,0.002114849863573909,-0.008756752125918865,-0.0,0.0,0.0,0.0,0.0060278791934251785,-0.017690787091851234,-0.0012624929659068584,12724.0,15776.0,15711.0,14397.0,0.3583638370037079,0.5650938749313354,0.5602115392684937,0.4659065008163452,0.0,0.0,0.0,0.0,12381.0,16161.0,16358.0,13989.0,1.7251949310302734,0.029728470383516805,-0.16749027741067882,0.057653221399157926,0.03640211373567581,0.00676278630271554,-0.0
466,5,-0.003402629168704152,0.0004822011396754533,0.00376681936904788,0.0017436172347515821,-0.0009516215650364757,0.0005825499538332224,-0.018741896376013756,0.019249800592660904,-0.004807372111827135,0.0040857247076928616,0.35363253951072693,-0.006677206140011549,0.0,0.0,0.0,0.002114849863573909,-0.008756752125918865,-0.0,0.0,0.0,0.0,0.004927441012114286,-0.008418443612754345,-0.0002069432521238923,13624.0,14830.0,14990.0,14565.0,0.4144302010536194,0.4959982633590698,0.5073635578155518,0.4774446487426758,0.0,0.0,0.0,0.0,13334.0,15363.0,15802.0,14196.0,1.7251949310302734,0.030185521436807614,-0.16533544682063875,0.05794587977983813,0.03640211373567581,0.00676278630271554,-0.0
471,5,-0.003388304030522704,0.0004683782462961972,0.0037309816107153893,0.0024164789356291294,0.001278100535273552,0.004533573519438505,-0.018741896376013756,0.019249800592660904,-0.004807372111827135,0.0040857247076928616,0.35363253951072693,-0.006677206140011549,0.0,0.0,0.0,0.0020260994788259268,-0.0030800497625023127,-0.0,0.0,0.0,0.0,0.004927441012114286,-0.008418443612754345,-0.0002069432521238923,13624.0,14830.0,14990.0,14565.0,0.4144302010536194,0.4959982633590698,0.5073635578155518,0.4774446487426758,0.0,0.0,0.0,0.0,13334.0,15363.0,15802.0,14196.0,1.6631783246994019,0.030532592429484105,-0.162101048050716,0.057490991163528155,0.01234374288469553,0.006246080622076988,-0.0
476,5,-0.0033732454758137465,0.00045463393325917423,0.0036760023795068264,0.002773611806333065,0.002160557545721531,0.008410918526351452,-0.017881762236356735,0.013543945737183094,-0.0049398294650018215,0.1446460336446762,0.6261225342750549,0.00773575296625495,0.0,0.0,0.0,0.0020260994788259268,-0.0030800497625023127,-0.0,0.0,0.0,0.0,0.0028047943487763405,0.00044253835221752524,-0.00030408447491936386,14355.0,14359.0,14508.0,14821.0,0.4630489945411682,0.46329593658447266,0.47353363037109375,0.49535804986953735,0.0,0.0,0.0,0.0,13745.0,14766.0,14717.0,14792.0,1.6631783246994019,0.03129653646950201,-0.15831035603173577,0.05727635730784872,0.01234374288469553,0.006246080622076988,-0.0
