timestamp,dt,pos_x,pos_y,pos_z,vel_x,vel_y,vel_z,roll,pitch,yaw,agv_x,agv_y,agv_z,x_ref,y_ref,z_ref,roll_ref,pitch_ref,yaw_ref,x_vel_ref,y_vel_ref,z_vel_ref,x_torque,y_torque,z_torque,w0,w1,w2,w3,u0,u1,u2,u3,m0req,m1req,m2req,m3req,thrust0,thrust1,thrust2,thrust3,thrust_ref,roll_vicon,pitch_vicon,yaw_vicon,acc_x,acc_y,acc_z
5,5,0.0,0.0,0.0,0.0009561288170516491,0.0012684362009167671,0.0037711055483669043,-0.04354250431060791,-0.08577630668878555,0.00020598432456608862,-0.0013016219018027186,-0.001271690707653761,0.005130407866090536,0.0,0.0,0.0,-0.001562947640195489,0.0009062521858140826,-0.0,0.0,0.0,0.0,0.00840911827981472,0.017329232767224312,7.177826773840934e-05,1495.0,1495.0,1495.0,1495.0,0.0,0.0,0.0,0.0,0.0,0.0,0.0,0.0,1495.0,1495.0,1495.0,1495.0,1.641902208328247,-0.021332750946267673,0.09553274800805592,0.13494094553218727,-0.0035854829475283623,-0.00475663598626852,0.0
33,28,0.0,0.0,0.0,0.0012785900617018342,0.003897429211065173,0.004434115719050169,-0.04354250431060791,-0.08577630668878555,0.00020598432456608862,-0.0013016219018027186,-0.001271690707653761,0.005130407866090536,0.0,0.0,0.0,-0.001562947640195489,0.0009062521858140826,-0.0,0.0,0.0,0.0,0.00840911827981472,0.017329232767224312,7.177826773840934e-05,1495.0,1495.0,1495.0,1495.0,0.0,0.0,0.0,0.0,0.0,0.0,0.0,0.0,1495.0,1495.0,1495.0,1495.0,1.641902208328247,-0.022161988974314192,0.09798977669236889,0.13375133993354998,-0.0035854829475283623,-0.00475663598626852,0.0
38,5,0.0,0.0,0.0,-0.0003902125754393637,0.0023646170739084482,0.0001060621507349424,-0.0435534305870533,-0.08573228865861893,0.00023715919815003872,-0.0008819547947496176,0.000565233058296144,-0.000186798075446859,0.0,0.0,0.0,-0.00472907954826951,0.0011934064095839858,-0.0,0.0,0.0,0.0,0.008400864899158478,0.017351213842630386,3.937762448913418e-05,1495.0,1495.0,1495.0,1495.0,0.0,0.0,0.0,0.0,0.0,0.0,0.0,0.0,1495.0,1495.0,1495.0,1495.0,1.6673519611358643,-0.02109406016520364,0.09826397678685901,0.1332609749198259,-0.004794712644070387,-0.014615359716117382,0.0
43,5,0.0,0.0,0.0,0.0009303890983574092,-0.0017369792331010103,-0.0020411789882928133,-0.0435534305870533,-0.08573228865861893,0.00023715919815003872,-0.0008819547947496176,0.000565233058296144,-0.000186798075446859,0.0,0.0,0.0,-0.00472907954826951,0.0011934064095839858,-0.0,0.0,0.0,0.0,0.008400864899158478,0.017351213842630386,3.937762448913418e-05,1495.0,1495.0,1495.0,1495.0,0.0,0.0,0.0,0.0,0.0,0.0,0.0,0.0,1495.0,1495.0,1495.0,1495.0,1.6673519611358643,-0.01892780219970143,0.09586654310995657,0.13483258070000867,-0.004794712644070387,-0.014615359716117382,0.0
48,5,0.0,0.0,0.0,-0.0010972103336825967,0.0005848392611369491,-0.0013914026785641909,-0.043527279049158096,-0.0857299268245697,0.0002199856098741293,0.0034937793388962746,0.005071169696748257,-0.0016992419259622693,0.0,0.0,0.0,-0.0007221715059131384,-0.0010421986225992441,-0.0,0.0,0.0,0.0,0.007771420758217573,0.01741938479244709,-5.6060485803755e-05,1495.0,1495.0,1495.0,1495.0,0.0,0.0,0.0,0.0,0.0,0.0,0.0,0.0,14356.0,11780.0,12936.0,15292.0,1.6383962631225586,-0.020691517924270368,0.09678090501293722,0.13392970977665425,0.00411453889682889,-0.0021931473165750504,0.0
61,14,-1.3738223969994579e-05,-7.541862032667268e-06,2.922191379184369e-05,-0.00046621376532129943,0.0013847530353814363,-0.001671760925091803,-0.043527279049158096,-0.0857299268245697,0.0002199856098741293,0.0034937793388962746,0.005071169696748257,-0.0016992419259622693,0.0,0.0,0.0,-0.0007221715059131384,-0.0010421986225992441,-0.0,0.0,0.0,0.0,0.007771420758217573,0.01741938479244709,-5.6060485803755e-05,1495.0,1495.0,1495.0,1495.0,0.0,0.0,0.0,0.0,0.0,0.0,0.0,0.0,14356.0,11780.0,12936.0,15292.0,1.6383962631225586,-0.02207890778410971,0.09693474856730604,0.13389738897391334,0.00411453889682889,-0.0021931473165750504,0.0
66,5,-7.63887419452658e-06,1.824696710173157e-06,2.6244952096021734e-05,0.0005454365164041519,-0.0005700858891941607,-0.00031146896071732044,-0.043527279049158096,-0.0857299268245697,0.0002199856098741293,0.0034937793388962746,0.005071169696748257,-0.0016992419259622693,0.0,0.0,0.0,-0.0017210837686434388,-0.00046131882118061185,-0.0,0.0,0.0,0.0,0.007771420758217573,0.01741938479244709,-5.6060485803755e-05,1495.0,1495.0,1495.0,1495.0,0.0,0.0,0.0,0.0,0.0,0.0,0.0,0.0,14356.0,11780.0,12936.0,15292.0,1.6407822370529175,-0.0213225807155692,0.09701988866399006,0.133946030166678,0.0018239099299535155,-0.005234330426901579,0.0
71,5,-3.9358277717838064e-05,1.587102269695606e-05,4.1563591366866603e-05,-0.003588153747841716,-0.0019135934999212623,-0.0019628244917839766,-0.043527279049158096,-0.0857299268245697,0.0002199856098741293,0.0034937793388962746,0.005071169696748257,-0.0016992419259622693,0.0,0.0,0.0,0.0023497948423027992,-0.003402465023100376,-0.0,0.0,0.0,0.0,0.007771420758217573,0.01741938479244709,-5.6060485803755e-05,14147.0,11619.0,12918.0,15326.0,0.4489494264125824,0.2950505316257477,0.3700961172580719,0.5316839218139648,0.0,0.0,0.0,0.0,14356.0,11780.0,12936.0,15292.0,1.667615532875061,-0.022489521771859516,0.097208580409842,0.13376502755078967,0.013672232627868652,0.007263295352458954,0.0
76,5,1.322708612860879e-05,-5.244315616437234e-06,-5.591645822278224e-05,0.004874981939792633,0.0017684032209217548,0.010912476107478142,-0.043527279049158096,-0.0857299268245697,0.0002199856098741293,0.0034937793388962746,0.005071169696748257,-0.0016992419259622693,0.0,0.0,0.0,0.0023497948423027992,-0.003402465023100376,-0.0,0.0,0.0,0.0,0.007771420758217573,0.01741938479244709,-5.6060485803755e-05,14147.0,11619.0,12918.0,15326.0,0.4489494264125824,0.2950505316257477,0.3700961172580719,0.5316839218139648,0.0,0.0,0.0,0.0,14356.0,11780.0,12936.0,15292.0,1.667615532875061,-0.021505207981663943,0.09666665968585035,0.13392555512983728,0.013672232627868652,0.007263295352458954,0.0
81,5,9.895921721181367e-06,1.881456955743488e-05,-2.749181840044912e-05,0.0015502531314268708,-0.002179705072194338,0.0009540339233353734,-0.04351486638188362,-0.08573902398347855,0.00019544402312021703,-0.000545812479685992,0.003652175422757864,-0.0006387875764630735,0.0,0.0,0.0,0.0027011956553906202,0.0014729421818628907,-0.0,0.0,0.0,0.0,0.00914652831852436,0.01738007366657257,-2.6551211703917943e-05,14175.0,11586.0,12942.0,15306.0,0.4507945477962494,0.29321572184562683,0.3715684115886688,0.530201256275177,0.0,0.0,0.0,0.0,14182.0,11579.0,12954.0,15295.0,1.653232455253601,-0.021222312167873934,0.09625514651010543,0.13441770677500345,-0.00586772570386529,0.0082774693146348,0.0
88,7,8.797299528850999e-07,1.4356012798089068e-05,-3.1922896596370265e-05,-0.00046184175880625844,-0.0003368551260791719,0.0009133427520282567,-0.04351486638188362,-0.08573902398347855,0.00019544402312021703,-0.000545812479685992,0.003652175422757864,-0.0006387875764630735,0.0,0.0,0.0,0.0027011956553906202,0.0014729421818628907,-0.0,0.0,0.0,0.0,0.00914652831852436,0.01738007366657257,-2.6551211703917943e-05,14175.0,11586.0,12942.0,15306.0,0.4507945477962494,0.29321572184562683,0.3715684115886688,0.530201256275177,0.0,0.0,0.0,0.0,14182.0,11579.0,12954.0,15295.0,1.653232455253601,-0.020521568536367822,0.09643258313653709,0.13426278851634008,-0.00586772570386529,0.0082774693146348,0.0
93,5,-1.2218340998515487e-05,1.5177869499893859e-05,-2.6938809241983108e-05,-0.0017565052257850766,-0.0002333648590138182,-0.00023275318380910903,-0.0435224287211895,-0.08573698997497559,0.00020229077199473977,0.0013547675916925073,0.0004857699968852103,-0.004001726862043142,0.0,0.0,0.0,0.0027011956553906202,0.0014729421818628907,-0.0,0.0,0.0,0.0,0.008587299846112728,0.0170071329921484,4.767021891893819e-05,14154.0,11633.0,12897.0,15226.0,0.44942402839660645,0.29577964544296265,0.3688232898712158,0.5243692994117737,0.0,0.0,0.0,0.0,14142.0,11703.0,12839.0,15266.0,1.653232455253601,-0.022674841139334892,0.09755146346295714,0.1335951492566978,-0.00586772570386529,0.0082774693146348,0.0
98,5,9.833567673922516e-06,8.149850145855453e-06,-2.8504931833595037e-05,0.0019436270231381059,0.0007500163628719747,9.483339090365916e-05,-0.0435224287211895,-0.08573698997497559,0.00020229077199473977,0.0013547675916925073,0.0004857699968852103,-0.004001726862043142,0.0,0.0,0.0,0.00031462914193980396,-0.0016797883436083794,-0.0,0.0,0.0,0.0,0.008587299846112728,0.0170071329921484,4.767021891893819e-05,14154.0,11633.0,12897.0,15226.0,0.44942402839660645,0.29577964544296265,0.3688232898712158,0.5243692994117737,0.0,0.0,0.0,0.0,14142.0,11703.0,12839.0,15266.0,1.643975853919983,-0.022580942582468767,0.09745615870898844,0.13354530844978632,0.006654289551079273,0.0009587446111254394,0.0
103,5,-1.0723550076363608e-05,2.5090474082389846e-05,7.503543656639522e-06,-0.0016894034342840314,-0.0017328682588413358,-0.004283083602786064,-0.04350849986076355,-0.08571740239858627,0.00018427491886541247,0.003980557434260845,0.0033031627535820007,-0.0018816051306203008,0.0,0.0,0.0,0.00031462914193980396,-0.0016797883436083794,-0.0,0.0,0.0,0.0,0.00922095775604248,0.016573145985603333,8.029279706533998e-05,14190.0,11645.0,12884.0,15227.0,0.4518294334411621,0.29645591974258423,0.36805427074432373,0.5244426131248474,0.0,0.0,0.0,0.0,14212.0,11734.0,13107.0,15320.0,1.643975853919983,-0.020385660414568293,0.0975698869817205,0.13397185348528473,0.006654289551079273,0.0009587446111254394,0.0
109,5,4.63109017800889e-06,-1.5131328837014735e-05,-9.758859050634783e-06,0.0006357212550938129,0.001965111354365945,0.0018973356345668435,-0.04350849986076355,-0.08571740239858627,0.00018427491886541247,0.003980557434260845,0.0033031627535820007,-0.0018816051306203008,0.0,0.0,0.0,0.0021689897403120995,-0.0016076115425676107,-0.0,0.0,0.0,0.0,0.00922095775604248,0.016573145985603333,8.029279706533998e-05,14190.0,11645.0,12884.0,15227.0,0.4518294334411621,0.29645591974258423,0.36805427074432373,0.5244426131248474,0.0,0.0,0.0,0.0,14212.0,11734.0,13107.0,15320.0,1.6507184505462646,-0.02156099268564597,0.09722382403255446,0.13395752511710216,0.00639447383582592,0.006636489648371935,0.0
114,5,-3.986749652540311e-05,2.0360550934128696e-06,4.120721132494509e-05,-0.00508554233238101,-0.001274041598662734,-0.005356993991881609,-0.043514348566532135,-0.08574045449495316,0.000221926617086865,-0.003981052432209253,0.0009379165130667388,-0.0012052165111526847,0.0,0.0,0.0,0.0021689897403120995,-0.0016076115425676107,-0.0,0.0,0.0,0.0,0.009316962212324142,0.01756705343723297,1.0180210665566847e-05,14208.0,11585.0,12978.0,15347.0,0.45305246114730835,0.2932136058807373,0.3737812638282776,0.5331851243972778,0.0,0.0,0.0,0.0,14252.0,11538.0,13021.0,15306.0,1.6507184505462646,-0.02226428914145137,0.0976670580695254,0.133461278871789,0.00639447383582592,0.006636489648371935,0.0
119,5,-1.1438984074629843e-05,-3.7539621189353056e-06,-3.330462277517654e-05,0.0013772047823294997,0.0001851854322012514,0.006798622198402882,-0.043514348566532135,-0.08574045449495316,0.000221926617086865,-0.003981052432209253,0.0009379165130667388,-0.0012052165111526847,0.0,0.0,0.0,0.0015384560683742166,-0.0047668530605733395,-0.0,0.0,0.0,0.0,0.009316962212324142,0.01756705343723297,1.0180210665566847e-05,14208.0,11585.0,12978.0,15347.0,0.45305246114730835,0.2932136058807373,0.3737812638282776,0.5331851243972778,0.0,0.0,0.0,0.0,14252.0,11538.0,13021.0,15306.0,1.6794238090515137,-0.022160656925214527,0.09654625839979557,0.13435615106609233,0.01929042674601078,0.004789097234606743,0.0
124,5,-1.5684881873312406e-05,2.0187060727039352e-05,-1.2032479389745276e-05,4.137418363825418e-05,-0.0027988485526293516,0.00016679172404110432,-0.04351133108139038,-0.08573751151561737,0.00022336369147524238,0.005021521355956793,0.002152844099327922,-0.002939172787591815,0.0,0.0,0.0,0.003458799794316292,1.7172320440295152e-05,-0.0,0.0,0.0,0.0,0.008798344060778618,0.016944292932748795,8.271130354842171e-05,14171.0,11630.0,12952.0,15243.0,0.45052191615104675,0.2956646978855133,0.37221863865852356,0.5255705714225769,0.0,0.0,0.0,0.0,14161.0,11634.0,12950.0,15251.0,1.654478669166565,-0.020134552991026875,0.09698531524472084,0.13445178694953597,-6.846040923846886e-05,0.010607024654746056,0.0
129,5,-2.4451534045510925e-05,1.2014579624519683e-05,-1.7564118024893105e-05,-0.001035448512993753,-0.00013884164218325168,0.0007305134786292911,-0.04351133108139038,-0.08573751151561737,0.00022336369147524238,0.005021521355956793,0.002152844099327922,-0.002939172787591815,0.0,0.0,0.0,0.003458799794316292,1.7172320440295152e-05,-0.0,0.0,0.0,0.0,0.008798344060778618,0.016944292932748795,8.271130354842171e-05,14171.0,11630.0,12952.0,15243.0,0.45052191615104675,0.2956646978855133,0.37221863865852356,0.5255705714225769,0.0,0.0,0.0,0.0,14161.0,11634.0,12950.0,15251.0,1.654478669166565,-0.021403804834132727,0.0970084703615184,0.13419460142302628,-6.846040923846886e-05,0.010607024654746056,0.0
134,5,-6.504351858893642e-06,1.2884766874776687e-05,-1.4984583685873076e-05,0.001739482395350933,-0.00015995922149159014,-1.733885073917918e-05,-0.043520983308553696,-0.08574168384075165,0.00022642961994279176,0.000991134438663721,0.003268183907493949,0.004058751277625561,0.0,0.0,0.0,0.003458799794316292,1.7172320440295152e-05,-0.0,0.0,0.0,0.0,0.009212629869580269,0.016991496086120605,8.428239380009472e-05,14206.0,11582.0,13044.0,15261.0,0.45292678475379944,0.29305151104927063,0.377822607755661,0.526917576789856,0.0,0.0,0.0,0.0,14212.0,11578.0,13046.0,15257.0,1.654478669166565,-0.020215066427712643,0.0964455696789123,0.13437841133630452,-6.846040923846886e-05,0.010607024654746056,0.0
139,5,-1.2271286323084496e-05,7.442562491632998e-06,-3.286226728960173e-06,3.760881554626394e-06,0.0005890809115953743,-0.0014107383321970701,-0.043520983308553696,-0.08574168384075165,0.00022642961994279176,0.000991134438663721,0.003268183907493949,0.004058751277625561,0.0,0.0,0.0,0.00022029737010598183,0.0016380604356527328,-0.0,0.0,0.0,0.0,0.009212629869580269,0.016991496086120605,8.428239380009472e-05,14206.0,11582.0,13044.0,15261.0,0.45292678475379944,0.29305151104927063,0.377822607755661,0.526917576789856,0.0,0.0,0.0,0.0,14212.0,11578.0,13046.0,15257.0,1.6434303522109985,-0.021228443177630216,0.09738888557489905,0.13379772309130025,-0.006486836355179548,0.0006710721063427627,0.0
144,5,1.7531654521008022e-05,-9.506639798928518e-06,-5.920405237702653e-05,0.0035778572782874107,0.0022695367224514484,0.006145843770354986,-0.04351570084691048,-0.08577296882867813,0.00024282437516376376,0.001746136462315917,0.0025463153142482042,-0.001736367936246097,0.0,0.0,0.0,0.00022029737010598183,0.0016380604356527328,-0.0,0.0,0.0,0.0,0.009481125511229038,0.01736181601881981,0.00018001202261075377,14253.0,11805.0,13166.0,15340.0,0.4560724198818207,0.30528494715690613,0.3853941261768341,0.5326723456382751,0.0,0.0,0.0,0.0,14215.0,11853.0,13127.0,15372.0,1.6434303522109985,-0.02037970336338569,0.09729605506557072,0.13416637241472718,-0.006486836355179548,0.0006710721063427627,0.0
149,5,1.613163658475969e-05,-4.1949324440793134e-06,-5.173296085558832e-05,0.0012631407007575035,0.0002704097714740783,0.001561806770041585,-0.04351570084691048,-0.08577296882867813,0.00024282437516376376,0.001746136462315917,0.0025463153142482042,-0.001736367936246097,0.0,0.0,0.0,-0.002767878584563732,0.0033600444439798594,-0.0,0.0,0.0,0.0,0.009481125511229038,0.01736181601881981,0.00018001202261075377,14253.0,11805.0,13166.0,15340.0,0.4560724198818207,0.30528494715690613,0.3853941261768341,0.5326723456382751,0.0,0.0,0.0,0.0,14215.0,11853.0,13127.0,15372.0,1.6690040826797485,-0.021242513956065353,0.09686918103649404,0.13432375173453365,-0.01351300161331892,-0.008562724106013775,0.0
155,5,-5.570541816268815e-06,-1.3169090379960835e-05,-5.4449821618618444e-05,-0.002099005039781332,0.0011850628070533276,0.0009507457725703716,-0.04351981729269028,-0.08577803522348404,0.000255143124377355,0.0028522855136543512,-0.000227566430112347,0.004825450945645571,0.0,0.0,0.0,-0.002767878584563732,0.0033600444439798594,-0.0,0.0,0.0,0.0,0.008788838982582092,0.017697686329483986,-1.812930713640526e-05,14250.0,11521.0,13077.0,15290.0,0.4558720588684082,0.2897023558616638,0.3798829913139343,0.5290212631225586,0.0,0.0,0.0,0.0,14208.0,11574.0,13030.0,15328.0,1.6690040826797485,-0.02133237638849368,0.09747165015055248,0.1340171957255749,-0.01351300161331892,-0.008562724106013775,0.0
160,5,-1.0021799425885547e-05,1.4721024854225107e-05,-4.8694760153011885e-06,-0.0013737529516220093,-0.002872788580134511,-0.005569342989474535,-0.04351981729269028,-0.08577803522348404,0.000255143124377355,0.0028522855136543512,-0.000227566430112347,0.004825450945645571,0.0,0.0,0.0,-0.001476274454034865,-0.001987062394618988,-0.0,0.0,0.0,0.0,0.008788838982582092,0.017697686329483986,-1.812930713640526e-05,14250.0,11521.0,13077.0,15290.0,0.4558720588684082,0.2897023558616638,0.3798829913139343,0.5290212631225586,0.0,0.0,0.0,0.0,14208.0,11574.0,13030.0,15328.0,1.65040922164917,-0.020794226833283656,0.09772095004658195,0.13408743128971326,0.007902313955128193,-0.004516135901212692,0.0
165,5,-1.7653048416832462e-05,4.441580188085936e-07,1.4605805517931003e-05,-0.0014652510872110724,0.0005641085444949567,-0.0045647709630429745,-0.04345209151506424,-0.0857783630490303,0.00023568110191263258,0.018312303349375725,0.004409706685692072,-0.010862617753446102,0.0,0.0,0.0,-0.001476274454034865,-0.001987062394618988,-0.0,0.0,0.0,0.0,0.008378393948078156,0.018005428835749626,0.0029288865625858307,14178.0,11625.0,12840.0,15327.0,0.4509875178337097,0.29538458585739136,0.3653566241264343,0.5317015647888184,0.0,0.0,0.0,0.0,14042.0,11784.0,12694.0,15451.0,1.65040922164917,-0.021614473401492394,0.09727788432744118,0.1338931573410553,0.007902313955128193,-0.004516135901212692,0.0
170,5,6.736349860148039e-07,-1.7281732652918436e-05,-3.813657531281933e-05,0.001613101689144969,0.0023527503944933414,0.004503177013248205,-0.04345209151506424,-0.0857783630490303,0.00023568110191263258,0.018312303349375725,0.004409706685692072,-0.010862617753446102,0.0,0.0,0.0,-0.0006941661704331636,-0.0014134246157482266,-0.0,0.0,0.0,0.0,0.008378393948078156,0.018005428835749626,0.0029288865625858307,14178.0,11625.0,12840.0,15327.0,0.4509875178337097,0.29538458585739136,0.3653566241264343,0.5317015647888184,0.0,0.0,0.0,0.0,14042.0,11784.0,12694.0,15451.0,1.6419594287872314,-0.021069162278991024,0.09746542170572471,0.13334657855531448,0.005592252127826214,-0.002112683141604066,0.0
175,5,3.6674417060567066e-05,-2.0044713892275468e-05,-7.903306686785072e-05,0.004965334665030241,0.0012726577697321773,0.006708850152790546,-0.04352748021483421,-0.08579303324222565,0.0005522478022612631,-0.012050997465848923,0.0020530354231595993,0.07379315793514252,0.0,0.0,0.0,-0.0006941661704331636,-0.0014134246157482266,-0.0,0.0,0.0,0.0,0.008620533160865307,0.016998734325170517,-0.0036167630460113287,12807.0,13200.0,11399.0,16442.0,0.3633648753166199,0.3875247836112976,0.2831459045410156,0.6163736581802368,0.0,0.0,0.0,0.0,13895.0,12265.0,12385.0,15805.0,1.6419594287872314,-0.021196564675067718,0.0956374521155457,0.1341743722352443,0.005592252127826214,-0.002112683141604066,0.0
180,5,1.8552862002252368e-06,2.0005525584565476e-05,-2.2717991669196635e-05,-0.002192161977291107,-0.004296965431421995,-0.004074268974363804,-0.04352748021483421,-0.08579303324222565,0.0005522478022612631,-0.012050997465848923,0.0020530354231595993,0.07379315793514252,0.0,0.0,0.0,-0.0006941661704331636,-0.0014134246157482266,-0.0,0.0,0.0,0.0,0.008620533160865307,0.016998734325170517,-0.0036167630460113287,12807.0,13200.0,11399.0,16442.0,0.3633648753166199,0.3875247836112976,0.2831459045410156,0.6163736581802368,0.0,0.0,0.0,0.0,13895.0,12265.0,12385.0,15805.0,1.6419594287872314,-0.02178962663290411,0.0963675054888525,0.13533934054574726,0.005592252127826214,-0.002112683141604066,0.0
185,5,2.110753848683089e-05,-1.7562824723427184e-05,-6.165400554891676e-05,0.0014334055595099926,0.0027894156519323587,0.0030426140874624252,-0.04374990239739418,-0.08555993437767029,0.0010147539433091879,-0.00440980726853013,0.0006865912582725286,-0.1573825180530548,0.0,0.0,0.0,0.005225975997745991,-0.0020344997756183147,-0.0,0.0,0.0,0.0,0.008778435178101063,0.016871046274900436,0.0015142825432121754,13685.0,12191.0,12407.0,15668.0,0.41839250922203064,0.32704588770866394,0.3395920693874359,0.5569289922714233,0.0,0.0,0.0,0.0,15596.0,9665.0,14547.0,13779.0,1.6748874187469482,-0.021360382064272685,0.09595712909130885,0.1333781337055279,0.008210865780711174,0.016224002465605736,0.0
190,5,-2.1801517959829653e-06,5.498313385032816e-06,-2.312468677700963e-05,-0.0022211605682969093,-0.001651570200920105,-0.00340647273696959,-0.04374990239739418,-0.08555993437767029,0.0010147539433091879,-0.00440980726853013,0.0006865912582725286,-0.1573825180530548,0.0,0.0,0.0,0.005225975997745991,-0.0020344997756183147,-0.0,0.0,0.0,0.0,0.008778435178101063,0.016871046274900436,0.0015142825432121754,13685.0,12191.0,12407.0,15668.0,0.41839250922203064,0.32704588770866394,0.3395920693874359,0.5569289922714233,0.0,0.0,0.0,0.0,15596.0,9665.0,14547.0,13779.0,1.6748874187469482,-0.021153459042458148,0.09699668234286495,0.13348548684725833,0.008210865780711174,0.016224002465605736,0.0
195,5,7.700235983065795e-06,2.372945164097473e-05,-4.421592166181654e-06,0.0002971822104882449,-0.00284836464561522,-0.0036069604102522135,-0.04374990239739418,-0.08555993437767029,0.0010147539433091879,-0.00440980726853013,0.0006865912582725286,-0.1573825180530548,0.0,0.0,0.0,0.002030216623097658,-0.0020931027829647064,-0.0,0.0,0.0,0.0,0.008778435178101063,0.016871046274900436,0.0015142825432121754,13685.0,12191.0,12407.0,15668.0,0.41839250922203064,0.32704588770866394,0.3395920693874359,0.5569289922714233,0.0,0.0,0.0,0.0,15596.0,9665.0,14547.0,13779.0,1.653937816619873,-0.020098492427261035,0.09613669837771155,0.1346673603324852,0.008341812528669834,0.0062239994294941425,0.0
200,5,-5.1758419431280345e-05,-2.0599096387741156e-05,0.0001256273390026763,-0.0070161656476557255,0.0041800797916948795,-0.017048655077815056,-0.04393747076392174,-0.08525936305522919,-7.373317930614576e-05,0.00531649449840188,-0.04613315686583519,0.15700171887874603,0.0,0.0,0.0,0.002030216623097658,-0.0020931027829647064,-0.0,0.0,0.0,0.0,0.010009699501097202,0.016454821452498436,0.0018221925711259246,14821.0,10873.0,13894.0,14768.0,0.49538588523864746,0.255767285823822,0.43208712339401245,0.4916470944881439,0.0,0.0,0.0,0.0,11267.0,14439.0,9624.0,17480.0,1.653937816619873,-0.025303091719281485,0.0964199994906836,0.13203013507696315,0.008341812528669834,0.0062239994294941425,0.0
205,5,0.00045656049042008817,-0.00049672118620947,-0.0010643008863553405,0.058191802352666855,0.058806683868169785,0.13597191870212555,-0.04393747076392174,-0.08525936305522919,-7.373317930614576e-05,0.00531649449840188,-0.04613315686583519,0.15700171887874603,0.0,0.0,0.0,-0.004984141327440739,-0.006458509247750044,-0.0,0.0,0.0,0.0,0.010009699501097202,0.016454821452498436,0.0018221925711259246,14821.0,10873.0,13894.0,14768.0,0.49538588523864746,0.255767285823822,0.43208712339401245,0.4916470944881439,0.0,0.0,0.0,0.0,11267.0,14439.0,9624.0,17480.0,1.7089903354644775,-0.05614571216994577,0.10102533982200025,0.12164165699843549,0.026595942676067352,-0.01578829623758793,0.0
210,5,0.0004475484020076692,-0.0005178508581593633,-0.0010601209942251444,0.022195272147655487,0.02605823241174221,0.053887177258729935,-0.04364656284451485,-0.08514005690813065,0.00018844049191102386,0.06703943759202957,-0.014540741220116615,-0.09574133157730103,0.0,0.0,0.0,-0.004984141327440739,-0.006458509247750044,-0.0,0.0,0.0,0.0,0.008886788040399551,0.01673671416938305,-0.0022580025251954794,13205.0,12800.0,11923.0,16119.0,0.387868732213974,0.3629617393016815,0.3118538558483124,0.5912535190582275,0.0,0.0,0.0,0.0,15557.0,9798.0,14629.0,14017.0,1.7089903354644775,-0.057922244618772246,0.10006491395006147,0.12229767562946178,0.026595942676067352,-0.01578829623758793,0.0
215,5,0.00044400145998224616,-0.0005437087966129184,-0.0010471743298694491,0.00845247320830822,0.013526243157684803,0.020001275464892387,-0.04364656284451485,-0.08514005690813065,0.00018844049191102386,0.06703943759202957,-0.014540741220116615,-0.09574133157730103,0.0,0.0,0.0,-0.027546551078557968,0.01805952750146389,-0.0,0.0,0.0,0.0,0.008886788040399551,0.01673671416938305,-0.0022580025251954794,13205.0,12800.0,11923.0,16119.0,0.387868732213974,0.3629617393016815,0.3118538558483124,0.5912535190582275,0.0,0.0,0.0,0.0,15557.0,9798.0,14629.0,14017.0,1.970081090927124,-0.058659984197309785,0.09972197681200465,0.12248756588580072,-0.08569470047950745,-0.10056806355714798,0.0
220,5,0.00042376932105980814,-0.0005842042155563831,-0.0009433979284949601,0.0009531332179903984,0.0102699501439929,-0.004452659282833338,-0.04347694665193558,-0.08481565862894058,0.00039188421214930713,0.02582382597029209,-0.01763644441962242,0.02325318567454815,0.0,0.0,0.0,-0.027546551078557968,0.01805952750146389,-0.0,0.0,0.0,0.0,0.009176455438137054,0.0165708065032959,0.0019881189800798893,14863.0,10749.0,13814.0,14591.0,0.49836620688438416,0.24949528276920319,0.42682990431785583,0.4792464077472687,0.0,0.0,0.0,0.0,13787.0,12132.0,12626.0,15611.0,1.970081090927124,-0.06121225873176174,0.0975651670727963,0.121226090500862,-0.08569470047950745,-0.10056806355714798,0.0
226,5,0.0006162550416775048,-0.0005392556195147336,-0.0012343327980488539,0.023479541763663292,-0.001285852980799973,0.03313112631440163,-0.04347694665193558,-0.08481565862894058,0.00039188421214930713,0.02582382597029209,-0.01763644441962242,0.02325318567454815,0.0,0.0,0.0,-0.01294782292097807,0.001410018652677536,-0.0,0.0,0.0,0.0,0.009176455438137054,0.0165708065032959,0.0019881189800798893,14863.0,10749.0,13814.0,14591.0,0.49836620688438416,0.24949528276920319,0.42682990431785583,0.4792464077472687,0.0,0.0,0.0,0.0,13787.0,12132.0,12626.0,15611.0,1.738820195198059,-0.052827358571693635,0.09208125046975485,0.12655119010275154,-0.0059073795564472675,-0.041728995740413666,0.0
231,5,0.0005617702845484018,-0.0005450405878946185,-0.001027324702590704,0.002853645011782646,0.00017985835438594222,-0.011588520370423794,-0.04383626580238342,-0.084571473300457,-5.246184809948318e-05,0.03222951665520668,-0.03526194393634796,0.055787306278944016,0.0,0.0,0.0,-0.01294782292097807,0.001410018652677536,-0.0,0.0,0.0,0.0,0.0078080263920128345,0.015649981796741486,-0.000152813910972327,14633.0,11818.0,13502.0,15086.0,0.48216384649276733,0.30600976943969727,0.40659791231155396,0.514218807220459,0.0,0.0,0.0,0.0,13943.0,12584.0,12771.0,15741.0,1.738820195198059,-0.04544851676173856,0.09150480668268936,0.12755667031188853,-0.0059073795564472675,-0.041728995740413666,0.0
236,5,0.0005449450691230595,-0.0005761582287959754,-0.0009977022418752313,-0.0008775674505159259,0.0038060571532696486,-0.008190110325813293,-0.04383626580238342,-0.084571473300457,-5.246184809948318e-05,0.03222951665520668,-0.03526194393634796,0.055787306278944016,0.0,0.0,0.0,-0.0011921009281650186,0.0034397703129798174,-0.0,0.0,0.0,0.0,0.0078080263920128345,0.015649981796741486,-0.000152813910972327,14633.0,11818.0,13502.0,15086.0,0.48216384649276733,0.30600976943969727,0.40659791231155396,0.514218807220459,0.0,0.0,0.0,0.0,13943.0,12584.0,12771.0,15741.0,1.6643706560134888,-0.04493662856968852,0.0936531649994209,0.12679397389358332,-0.013795270584523678,-0.00367765873670578,0.0
241,5,0.0006072625983506441,-0.0004983983235433698,-0.0009395070956088603,0.00712707731872797,-0.007808764465153217,-0.010259455069899559,-0.04379919916391373,-0.08441665023565292,0.00010738711716840044,0.0073575470596551895,-0.013875234872102737,-0.11573789268732071,0.0,0.0,0.0,-0.0011921009281650186,0.0034397703129798174,-0.0,0.0,0.0,0.0,0.0033030167687684298,0.02089114859700203,-0.0013916599564254284,15424.0,13674.0,13037.0,16690.0,0.5388639569282532,0.417702317237854,0.37741872668266296,0.6360961198806763,0.0,0.0,0.0,0.0,16567.0,12227.0,14441.0,15517.0,1.6643706560134888,-0.041528814349238594,0.09228742581534811,0.12877025174544843,-0.013795270584523678,-0.00367765873670578,0.0
246,5,0.0006257645436562598,-0.0005467500304803252,-0.0009552543633617461,0.005071064457297325,0.0026786993257701397,-0.002214111154899001,-0.04379919916391373,-0.08441665023565292,0.00010738711716840044,0.0073575470596551895,-0.013875234872102737,-0.11573789268732071,0.0,0.0,0.0,0.008258771151304245,0.00720025273039937,-0.0,0.0,0.0,0.0,0.0033030167687684298,0.02089114859700203,-0.0013916599564254284,15424.0,13674.0,13037.0,16690.0,0.5388639569282532,0.417702317237854,0.37741872668266296,0.6360961198806763,0.0,0.0,0.0,0.0,16567.0,12227.0,14441.0,15517.0,1.7333860397338867,-0.052586853569056465,0.0910093203416725,0.1269066529164006,-0.030072974041104317,0.026534464210271835,0.0
251,5,0.0006001146975904703,-0.0005935379886068404,-0.0007316326373256743,-0.001049559679813683,0.006686031352728605,-0.0277202520519495,-0.043716367334127426,-0.08382334560155869,0.00021909266069997102,-0.02043343149125576,-0.1465582549571991,0.050536274909973145,0.0,0.0,0.0,0.008258771151304245,0.00720025273039937,-0.0,0.0,0.0,0.0,0.0062153697945177555,0.016176067292690277,0.001462252577766776,15090.0,11717.0,13755.0,14899.0,0.5145165920257568,0.3003901243209839,0.42299431562423706,0.5009191632270813,0.0,0.0,0.0,0.0,14402.0,11513.0,13366.0,15039.0,1.7333860397338867,-0.05336547616451882,0.08816412988176146,0.1259692126115396,-0.030072974041104317,0.026534464210271835,0.0
256,5,0.0005934184300713241,-0.0005752111319452524,-0.0006479747244156897,-0.0012233753222972155,0.00047519433428533375,-0.02112705446779728,-0.043716367334127426,-0.08382334560155869,0.00021909266069997102,-0.02043343149125576,-0.1465582549571991,0.050536274909973145,0.0,0.0,0.0,-0.008984711952507496,-0.0001527846179669723,-0.0,0.0,0.0,0.0,0.0062153697945177555,0.016176067292690277,0.001462252577766776,15090.0,11717.0,13755.0,14899.0,0.5145165920257568,0.3003901243209839,0.42299431562423706,0.5009191632270813,0.0,0.0,0.0,0.0,14402.0,11513.0,13366.0,15039.0,1.702139973640442,-0.051519873456263486,0.08751868354642078,0.12648163034446464,0.0006266272393986583,-0.028346365317702293,0.0
261,5,0.000541329849511385,-0.0006074008415453136,-0.0004073162854183465,-0.006739978678524494,0.004052841104567051,-0.03732983395457268,-0.04424264654517174,-0.08117262274026871,3.286084029241465e-05,-0.052033424377441406,-0.34346628189086914,-0.03467380627989769,0.0,0.0,0.0,-0.008984711952507496,-0.0001527846179669723,-0.0,0.0,0.0,0.0,0.009131666272878647,0.014670481905341148,-0.0017261781031265855,13410.0,12629.0,12519.0,15772.0,0.400773286819458,0.35269075632095337,0.3461265563964844,0.5647801160812378,0.0,0.0,0.0,0.0,14402.0,11513.0,13366.0,15039.0,1.702139973640442,-0.04389224887060679,0.0848382119689916,0.12855229157577194,0.0006266272393986583,-0.028346365317702293,0.0
266,5,0.0004600316460710019,-0.0005820089718326926,-0.0002433878107694909,-0.012451776303350925,-0.0014258903684094548,-0.03460334986448288,-0.04424264654517174,-0.08117262274026871,3.286084029241465e-05,-0.052033424377441406,-0.34346628189086914,-0.03467380627989769,0.0,0.0,0.0,-0.005873770918697119,-0.005428532138466835,-0.0,0.0,0.0,0.0,0.009131666272878647,0.014670481905341148,-0.0017261781031265855,13410.0,12629.0,12519.0,15772.0,0.400773286819458,0.35269075632095337,0.3461265563964844,0.5647801160812378,0.0,0.0,0.0,0.0,14402.0,11513.0,13366.0,15039.0,1.7038419246673584,-0.045754492897931986,0.08073557918023243,0.12818989140664555,0.022287121042609215,-0.018550273030996323,0.0
271,5,0.0004938528290949762,-0.0007073690649122,-0.00034410340595059097,-0.0009221702930517495,0.014472858048975468,-0.0017554659862071276,-0.04443909227848053,-0.07779598236083984,0.0003616290632635355,-0.03763333335518837,-0.532352089881897,-0.04603416845202446,0.0,0.0,0.0,-0.005873770918697119,-0.005428532138466835,-0.0,0.0,0.0,0.0,0.010905890725553036,0.012414705939590931,8.177276322385296e-05,13826.0,12488.0,13571.0,15580.0,0.4275922179222107,0.3443406820297241,0.4110678434371948,0.5503853559494019,0.0,0.0,0.0,0.0,14208.0,12073.0,13663.0,15481.0,1.7038419246673584,-0.051340574272478,0.07674897092706355,0.12600478502976503,0.022287121042609215,-0.018550273030996323,0.0
277,5,0.0003785748267546296,-0.0008087842143140733,-0.0002318820625077933,-0.01420222595334053,0.017958957701921463,-0.014168748632073402,-0.04443909227848053,-0.07779598236083984,0.0003616290632635355,-0.03763333335518837,-0.532352089881897,-0.04603416845202446,0.0,0.0,0.0,-0.017624055966734886,-0.00017005826521199197,-0.0,0.0,0.0,0.0,0.010905890725553036,0.012414705939590931,8.177276322385296e-05,13826.0,12488.0,13571.0,15580.0,0.4275922179222107,0.3443406820297241,0.4110678434371948,0.5503853559494019,0.0,0.0,0.0,0.0,14208.0,12073.0,13663.0,15481.0,1.7810763120651245,-0.05333222477163999,0.07202966858623636,0.1247148392873993,0.0007297341944649816,-0.0581776387989521,0.0
282,5,0.000260359636740759,-0.0008636129787191749,-0.0001087435957742855,-0.019866712391376495,0.01376303844153881,-0.02044411562383175,-0.04463328421115875,-0.07020233571529388,4.843616625294089e-05,0.010635895654559135,-0.8211448192596436,0.0001354050764348358,0.0,0.0,0.0,-0.017624055966734886,-0.00017005826521199197,-0.0,0.0,0.0,0.0,0.0073990789242088795,0.0075766765512526035,-0.000897394260391593,13491.0,13101.0,13411.0,15083.0,0.40591299533843994,0.38137179613113403,0.4008193016052246,0.5140358805656433,0.0,0.0,0.0,0.0,13697.0,12836.0,14045.0,14564.0,1.7810763120651245,-0.05265705488188163,0.06760441263593236,0.12464581342594194,0.0007297341944649816,-0.0581776387989521,0.0
287,5,0.0001703416637610644,-0.0008975810487754643,1.684983908489812e-05,-0.018748842179775238,0.009581380523741245,-0.023248858749866486,-0.04463328421115875,-0.07020233571529388,4.843616625294089e-05,0.010635895654559135,-0.8211448192596436,0.0001354050764348358,0.0,0.0,0.0,-0.016272539272904396,-0.01622157357633114,-0.0,0.0,0.0,0.0,0.0073990789242088795,0.0075766765512526035,-0.000897394260391593,13491.0,13101.0,13411.0,15083.0,0.40591299533843994,0.38137179613113403,0.4008193016052246,0.5140358805656433,0.0,0.0,0.0,0.0,13697.0,12836.0,14045.0,14564.0,1.8693128824234009,-0.05072569246040358,0.06198022539590098,0.12461917610266551,0.07305506616830826,-0.05637817829847336,0.0
292,5,8.957897807704285e-05,-0.0009732437902130187,8.354010060429573e-05,-0.01719105988740921,0.012912081554532051,-0.01730237528681755,-0.04425705969333649,-0.06306684017181396,0.00038301385939121246,0.06380018591880798,-0.9957197308540344,-0.07151862233877182,0.0,0.0,0.0,-0.016272539272904396,-0.01622157357633114,-0.0,0.0,0.0,0.0,0.0050569321028888226,-1.990270357055124e-05,-0.0007513751625083387,12872.0,13696.0,13597.0,14953.0,0.3673272132873535,0.4191009998321533,0.4127136468887329,0.5047000646591187,0.0,0.0,0.0,0.0,12523.0,14011.0,13447.0,15090.0,1.8693128824234009,-0.050137211799777016,0.05631195529714571,0.12467399381211822,0.07305506616830826,-0.05637817829847336,0.0
297,5,-5.6280889111803845e-05,-0.0009528417722322047,0.00028752992511726916,-0.024379607290029526,0.002716595074161887,-0.03139972686767578,-0.04425705969333649,-0.06306684017181396,0.00038301385939121246,0.06380018591880798,-0.9957197308540344,-0.07151862233877182,0.0,0.0,0.0,-0.015714280307292938,-0.014373699203133583,-0.0,0.0,0.0,0.0,0.0050569321028888226,-1.990270357055124e-05,-0.0007513751625083387,12872.0,13696.0,13597.0,14953.0,0.3673272132873535,0.4191009998321533,0.4127136468887329,0.5047000646591187,0.0,0.0,0.0,0.0,12523.0,14011.0,13447.0,15090.0,1.84696626663208,-0.03526192273994578,0.0511603774005402,0.12799012382071456,0.06396035104990005,-0.053793467581272125,0.0
302,5,-0.0001592058688402176,-0.0010230133775621653,0.0003379731497261673,-0.02210284024477005,0.009507223963737488,-0.01861307956278324,-0.04342253878712654,-0.050301600247621536,0.0003115197760052979,0.0677640363574028,-1.140855312347412,-0.012877213768661022,0.0,0.0,0.0,-0.015714280307292938,-0.014373699203133583,-0.0,0.0,0.0,0.0,0.0051713623106479645,-0.006023581139743328,-0.0024726949632167816,13567.0,13951.0,14247.0,14584.0,0.4108019769191742,0.43584540486335754,0.4556407034397125,0.47878822684288025,0.0,0.0,0.0,0.0,13698.0,13883.0,14383.0,14392.0,1.84696626663208,-0.03326597946578388,0.046305851338599824,0.12734049603827083,0.06396035104990005,-0.053793467581272125,0.0
307,5,-0.0002456649672240019,-0.0011590725043788552,0.0003082506882492453,-0.019216228276491165,0.020129995420575142,-0.003878535469993949,-0.04342253878712654,-0.050301600247621536,0.0003115197760052979,0.0677640363574028,-1.140855312347412,-0.012877213768661022,0.0,0.0,0.0,-0.011903181672096252,-0.01856762357056141,-0.0,0.0,0.0,0.0,0.0051713623106479645,-0.006023581139743328,-0.0024726949632167816,13567.0,13951.0,14247.0,14584.0,0.4108019769191742,0.43584540486335754,0.4556407034397125,0.47878822684288025,0.0,0.0,0.0,0.0,13698.0,13883.0,14383.0,14392.0,1.8720782995224,-0.044639095059968395,0.039702361304819266,0.12436767084661121,0.08374840021133423,-0.04130256175994873,0.0
312,5,-0.0003706955467350781,-0.0012269951403141022,0.0004248152836225927,-0.02269016206264496,0.016202710568904877,-0.015539165586233139,-0.042478278279304504,-0.04130546376109123,0.0002133316156687215,0.08611955493688583,-1.1588472127914429,-0.1124621108174324,0.0,0.0,0.0,-0.011903181672096252,-0.01856762357056141,-0.0,0.0,0.0,0.0,0.0051713623106479645,-0.006023581139743328,-0.0024726949632167816,12583.0,15432.0,14172.0,15294.0,0.3499618470668793,0.539442777633667,0.450607568025589,0.5293006896972656,0.0,0.0,0.0,0.0,12683.0,15395.0,14309.0,15122.0,1.8720782995224,-0.043723000257474345,0.03342815706466345,0.1242319208705384,0.08374840021133423,-0.04130256175994873,0.0
317,5,-0.000478537316666916,-0.0013961679069325328,0.0004950168076902628,-0.02201707661151886,0.02678181603550911,-0.014639848843216896,-0.042478278279304504,-0.04130546376109123,0.0002133316156687215,0.08611955493688583,-1.1588472127914429,-0.1124621108174324,0.0,0.0,0.0,-0.019028834998607635,-0.01888337731361389,-0.0,0.0,0.0,0.0,0.0051713623106479645,-0.006023581139743328,-0.0024726949632167816,12583.0,15432.0,14172.0,15294.0,0.3499618470668793,0.539442777633667,0.450607568025589,0.5293006896972656,0.0,0.0,0.0,0.0,12683.0,15395.0,14309.0,15122.0,1.914994478225708,-0.05480352218615469,0.02681522848578824,0.12089181736228502,0.0871153473854065,-0.06753683090209961,0.0
322,5,-0.0006402219296433032,-0.001280399039387703,0.0007730781799182296,-0.028208982199430466,-0.003179541090503335,-0.03922330215573311,-0.042478278279304504,-0.04130546376109123,0.0002133316156687215,0.08611955493688583,-1.1588472127914429,-0.1124621108174324,0.0,0.0,0.0,-0.019028834998607635,-0.01888337731361389,-0.0,0.0,0.0,0.0,0.0051713623106479645,-0.006023581139743328,-0.0024726949632167816,12583.0,15432.0,14172.0,15294.0,0.3499618470668793,0.539442777633667,0.450607568025589,0.5293006896972656,0.0,0.0,0.0,0.0,12683.0,15395.0,14309.0,15122.0,1.914994478225708,-0.04106522549958507,0.02161992488303249,0.12416838832040507,0.0871153473854065,-0.06753683090209961,0.0
328,5,-0.0007199769606813788,-0.001302987220697105,0.000825551338493824,-0.020854201167821884,0.0014387674164026976,-0.0219861026853323,-0.041529130190610886,-0.02747027575969696,0.0004248586483299732,0.04213184863328934,-1.136655569076538,0.014470793306827545,0.0,0.0,0.0,0.001367504708468914,-0.02371535636484623,-0.0,0.0,0.0,0.0,0.00630194554105401,-0.00952889584004879,-0.002089420799165964,12768.0,15176.0,14883.0,14753.0,0.3610162138938904,0.5207294225692749,0.4997643828392029,0.49056828022003174,0.0,0.0,0.0,0.0,13188.0,14766.0,14967.0,14354.0,1.9127671718597412,-0.039425859869919165,0.01661165783444156,0.1244524868940847,0.1092955619096756,0.004848408978432417,0.0
333,5,-0.0008063176064752042,-0.0013127983547747135,0.0009196659084409475,-0.01870255172252655,0.0017528390744701028,-0.02008819207549095,-0.041529130190610886,-0.02747027575969696,0.0004248586483299732,0.04213184863328934,-1.136655569076538,0.014470793306827545,0.0,0.0,0.0,0.001367504708468914,-0.02371535636484623,-0.0,0.0,0.0,0.0,0.00630194554105401,-0.00952889584004879,-0.002089420799165964,12768.0,15176.0,14883.0,14753.0,0.3610162138938904,0.5207294225692749,0.4997643828392029,0.49056828022003174,0.0,0.0,0.0,0.0,13188.0,14766.0,14967.0,14354.0,1.9127671718597412,-0.04053744888791618,0.012114310971415855,0.12440560601051705,0.1092955619096756,0.004848408978432417,0.0
338,5,-0.0009009635541588068,-0.001350925536826253,0.0009603585349395871,-0.018838539719581604,0.005276395007967949,-0.012918388471007347,-0.041390497237443924,-0.019028909504413605,0.00020440293883439153,-0.02161799930036068,-0.9787420630455017,-0.03580298274755478,0.0,0.0,0.0,-0.004084364045411348,-0.01693861559033394,-0.0,0.0,0.0,0.0,0.005082659889012575,-0.009076876565814018,0.0009452724480070174,12768.0,15176.0,14883.0,14753.0,0.3610162138938904,0.5207294225692749,0.4997643828392029,0.49056828022003174,0.0,0.0,0.0,0.0,13339.0,14667.0,15448.0,14171.0,1.8269083499908447,-0.041856630333810256,0.009569311234518981,0.1240281220906833,0.07456279546022415,-0.013830807991325855,0.0
343,5,-0.000952427857555449,-0.0013990001752972603,0.0009505146881565452,-0.013711127452552319,0.007879514247179031,-0.003986095078289509,-0.041390497237443924,-0.019028909504413605,0.00020440293883439153,-0.02161799930036068,-0.9787420630455017,-0.03580298274755478,0.0,0.0,0.0,-0.004084364045411348,-0.01693861559033394,-0.0,0.0,0.0,0.0,0.005082659889012575,-0.009076876565814018,0.0009452724480070174,12768.0,15176.0,14883.0,14753.0,0.3610162138938904,0.5207294225692749,0.4997643828392029,0.49056828022003174,0.0,0.0,0.0,0.0,13339.0,14667.0,15448.0,14171.0,1.8269083499908447,-0.044644106249690084,0.007125255203730586,0.12326947945806963,0.07456279546022415,-0.013830807991325855,0.0
348,5,-0.0010095351608470082,-0.0014238959411159158,0.0009481677552685142,-0.012337335385382175,0.006139297038316727,-0.0013128023128956556,-0.04194668307900429,-0.008642320521175861,0.0009297458454966545,-0.06669330596923828,-0.7549627423286438,0.009062997065484524,0.0,0.0,0.0,-0.01113741286098957,-0.013018050231039524,-0.0,0.0,0.0,0.0,0.009242521598935127,-0.009575914591550827,-0.0002180035662604496,13473.0,14492.0,15815.0,14421.0,0.4047609567642212,0.47242170572280884,0.568019688129425,0.4675648808479309,0.0,0.0,0.0,0.0,13434.0,15033.0,15253.0,14542.0,1.8061583042144775,-0.04829562314413126,0.0044613908619039935,0.12296461975705947,0.05665189400315285,-0.03728484734892845,0.0
353,5,-0.0010362387401983142,-0.0014629252254962921,0.0008565226453356445,-0.00813935324549675,0.007139234337955713,0.010472292080521584,-0.04194668307900429,-0.008642320521175861,0.0009297458454966545,-0.06669330596923828,-0.7549627423286438,0.009062997065484524,0.0,0.0,0.0,-0.01113741286098957,-0.013018050231039524,-0.0,0.0,0.0,0.0,0.009242521598935127,-0.009575914591550827,-0.0002180035662604496,13473.0,14492.0,15815.0,14421.0,0.4047609567642212,0.47242170572280884,0.568019688129425,0.4675648808479309,0.0,0.0,0.0,0.0,13434.0,15033.0,15253.0,14542.0,1.8061583042144775,-0.05138050519464383,0.003147258320731304,0.12200207027493751,0.05665189400315285,-0.03728484734892845,0.0
358,5,-0.0011439811205491424,-0.0015058435965329409,0.0007508488488383591,-0.010966960340738297,0.004749630112200975,0.010775642469525337,-0.042235057801008224,-0.003559626406058669,0.0008982367580756545,-0.031414832919836044,-0.5406345725059509,0.03616449609398842,0.0,0.0,0.0,-0.010686294175684452,-0.008540419861674309,-0.0,0.0,0.0,0.0,0.008063116110861301,-0.006559029687196016,0.0008770683198235929,13435.0,14042.0,15279.0,14229.0,0.40236806869506836,0.44188374280929565,0.5282190442085266,0.4544374942779541,0.0,0.0,0.0,0.0,14085.0,13921.0,16292.0,13855.0,1.7602537870407104,-0.05751524744909629,0.00015288301035018537,0.12129438663003574,0.03622232750058174,-0.03486550599336624,0.0
363,5,-0.0011986272875219584,-0.001531724352389574,0.0006986279622651637,-0.01094431895762682,0.005005553364753723,0.010576761327683926,-0.042235057801008224,-0.003559626406058669,0.0008982367580756545,-0.031414832919836044,-0.5406345725059509,0.03616449609398842,0.0,0.0,0.0,-0.010686294175684452,-0.008540419861674309,-0.0,0.0,0.0,0.0,0.008063116110861301,-0.006559029687196016,0.0008770683198235929,13435.0,14042.0,15279.0,14229.0,0.40236806869506836,0.44188374280929565,0.5282190442085266,0.4544374942779541,0.0,0.0,0.0,0.0,14085.0,13921.0,16292.0,13855.0,1.7602537870407104,-0.06006869234948063,-0.0006721155472109771,0.12112171722649571,0.03622232750058174,-0.03486550599336624,0.0
368,5,-0.0011986272875219584,-0.001531724352389574,0.0006986279622651637,-0.01094431895762682,0.005005553364753723,0.010576761327683926,-0.04265385493636131,0.0031487944070249796,0.0016783304745331407,-0.01078779436647892,-0.11849173158407211,0.06080801784992218,0.0,0.0,0.0,-0.008294466882944107,-0.011155323125422001,-0.0,0.0,0.0,0.0,0.0066081080585718155,-0.004302664659917355,0.0010865428484976292,14011.0,13498.0,15363.0,13795.0,0.439849853515625,0.40634453296661377,0.5343547463417053,0.42560917139053345,0.0,0.0,0.0,0.0,13093.0,14370.0,14937.0,14579.0,1.7723356485366821,-0.06006869234948063,-0.0006721155472109771,0.12112171722649571,0.04763828217983246,-0.02724795788526535,0.0
373,5,-0.0013286591274663806,-0.0015903068706393242,0.0006591511191800237,-0.012576861307024956,0.004208157770335674,0.0056046126410365105,-0.04265385493636131,0.0031487944070249796,0.0016783304745331407,-0.01078779436647892,-0.11849173158407211,0.06080801784992218,0.0,0.0,0.0,-0.008294466882944107,-0.011155323125422001,-0.0,0.0,0.0,0.0,0.0066081080585718155,-0.004302664659917355,0.0010865428484976292,14011.0,13498.0,15363.0,13795.0,0.439849853515625,0.40634453296661377,0.5343547463417053,0.42560917139053345,0.0,0.0,0.0,0.0,13093.0,14370.0,14937.0,14579.0,1.7723356485366821,-0.06387326398176259,-0.0005195198010134095,0.11994886682309865,0.04763828217983246,-0.02724795788526535,0.0
378,5,-0.0014537868555635214,-0.0016441931948065758,0.0009120988543145359,-0.020046070218086243,0.008149631321430206,-0.028111884370446205,-0.042661506682634354,0.0031109291594475508,0.001819369848817587,-0.0035801862832158804,0.09419645369052887,-0.03400975465774536,0.0,0.0,0.0,-0.007430285681039095,-0.012665950693190098,-0.0,0.0,0.0,0.0,0.006369130220264196,-0.0021131206303834915,-0.0004587447619996965,13239.0,13921.0,14259.0,14601.0,0.3899364471435547,0.43383610248565674,0.45651310682296753,0.4799681305885315,0.0,0.0,0.0,0.0,14168.0,13343.0,15441.0,13697.0,1.7851393222808838,-0.050414507881504124,0.0027250491584190277,0.12087680620236725,0.054480139166116714,-0.02458549290895462,-0.0
383,5,-0.0014940843684598804,-0.0016422233311459422,0.0009221577784046531,-0.012854132801294327,0.0030234723817557096,-0.012451821006834507,-0.042661506682634354,0.0031109291594475508,0.001819369848817587,-0.0035801862832158804,0.09419645369052887,-0.03400975465774536,0.0,0.0,0.0,-0.007430285681039095,-0.012665950693190098,-0.0,0.0,0.0,0.0,0.006369130220264196,-0.0021131206303834915,-0.0004587447619996965,13239.0,13921.0,14259.0,14601.0,0.3899364471435547,0.43383610248565674,0.45651310682296753,0.4799681305885315,0.0,0.0,0.0,0.0,14168.0,13343.0,15441.0,13697.0,1.7851393222808838,-0.05146341678945062,0.003477130643633441,0.12069155421702406,0.054480139166116714,-0.02458549290895462,-0.0
388,5,-0.0015155537985265255,-0.0016500662313774228,0.0009074609261006117,-0.007717980071902275,0.0021505295298993587,-0.0032171057537198067,-0.04246366396546364,0.0019522181246429682,0.0020133070647716522,-0.017311958596110344,0.14764803647994995,0.04403339698910713,0.0,0.0,0.0,-0.006173405796289444,-0.01311558485031128,-0.0,0.0,0.0,0.0,0.006522614508867264,-8.570196223445237e-05,0.0015256766928359866,14073.0,13065.0,14925.0,13929.0,0.4439992904663086,0.37911534309387207,0.5027316808700562,0.43440747261047363,0.0,0.0,0.0,0.0,13390.0,13756.0,14368.0,14511.0,1.7857863903045654,-0.052127834268764564,0.004194491987067072,0.12090025377175025,0.05643497779965401,-0.020434211939573288,0.0
393,5,-0.001557635492645204,-0.0016527712577953935,0.0009053566609509289,-0.008136991411447525,0.0011848119320347905,-0.0010343334870412946,-0.04246366396546364,0.0019522181246429682,0.0020133070647716522,-0.017311958596110344,0.14764803647994995,0.04403339698910713,0.0,0.0,0.0,-0.006173405796289444,-0.01311558485031128,-0.0,0.0,0.0,0.0,0.006522614508867264,-8.570196223445237e-05,0.0015256766928359866,14073.0,13065.0,14925.0,13929.0,0.4439992904663086,0.37911534309387207,0.5027316808700562,0.43440747261047363,0.0,0.0,0.0,0.0,13390.0,13756.0,14368.0,14511.0,1.7857863903045654,-0.05291931209671822,0.004889734813896243,0.12087534994778341,0.05643497779965401,-0.020434211939573288,0.0
399,5,-0.0015929803485050797,-0.0016536741750314832,0.000880612526088953,-0.007496187463402748,0.0005822828388772905,0.002555561950430274,-0.04274667799472809,-0.00027239005430601537,0.0019702697172760963,-0.04334135726094246,0.184628427028656,-0.012597661465406418,0.0,0.0,0.0,-0.004225531127303839,-0.009343172423541546,-0.0,0.0,0.0,0.0,0.007203725166618824,0.00014750190894119442,-0.000211979218875058,13430.0,13731.0,14379.0,14663.0,0.40199732780456543,0.4213743209838867,0.4646860957145691,0.4842779040336609,0.0,0.0,0.0,0.0,13910.0,13240.0,14890.0,14147.0,1.7367937564849854,-0.053443735227883815,0.006028414275605237,0.12089821369590875,0.039100680500268936,-0.013603033497929573,0.0
404,5,-0.0016490016132593155,-0.0016458906466141343,0.000859960971865803,-0.009721027687191963,-0.000701111217495054,0.0035004138480871916,-0.04274667799472809,-0.00027239005430601537,0.0019702697172760963,-0.04334135726094246,0.184628427028656,-0.012597661465406418,0.0,0.0,0.0,-0.004225531127303839,-0.009343172423541546,-0.0,0.0,0.0,0.0,0.007203725166618824,0.00014750190894119442,-0.000211979218875058,13430.0,13731.0,14379.0,14663.0,0.40199732780456543,0.4213743209838867,0.4646860957145691,0.4842779040336609,0.0,0.0,0.0,0.0,13910.0,13240.0,14890.0,14147.0,1.7367937564849854,-0.05376078168801604,0.006822970979072841,0.12063406728519317,0.039100680500268936,-0.013603033497929573,0.0
409,5,-0.0017047919100150466,-0.0016467840177938342,0.0008689344977028668,-0.010583240538835526,-0.0001732400996843353,0.0003233402094338089,-0.043428193777799606,-0.0013442778727039695,0.0020776703022420406,-0.09709639847278595,0.128859281539917,-0.008757789619266987,0.0,0.0,0.0,-0.0020046455319970846,-0.010808208957314491,-0.0,0.0,0.0,0.0,0.00816911831498146,-0.0005828948342241347,0.0009046972263604403,13632.0,13514.0,14758.0,14484.0,0.4149661958217621,0.40737470984458923,0.4909118115901947,0.47188660502433777,0.0,0.0,0.0,0.0,13852.0,13339.0,14889.0,14301.0,1.7489744424819946,-0.055348026214921,0.005839350361637264,0.12048666703977327,0.045549098402261734,-0.006498738657683134,-0.0
414,5,-0.001794531592167914,-0.001664723502472043,0.0008847720455378294,-0.015002066269516945,0.0020834363531321287,-0.0017711687833070755,-0.043428193777799606,-0.0013442778727039695,0.0020776703022420406,-0.09709639847278595,0.128859281539917,-0.008757789619266987,0.0,0.0,0.0,-0.0020046455319970846,-0.010808208957314491,-0.0,0.0,0.0,0.0,0.00816911831498146,-0.0005828948342241347,0.0009046972263604403,13632.0,13514.0,14758.0,14484.0,0.4149661958217621,0.40737470984458923,0.4909118115901947,0.47188660502433777,0.0,0.0,0.0,0.0,13852.0,13339.0,14889.0,14301.0,1.7489744424819946,-0.05654592630847378,0.00646396703317232,0.11993369642142736,0.045549098402261734,-0.006498738657683134,-0.0
419,5,-0.001847752369940281,-0.001630379818379879,0.0008084814180620015,-0.012387317605316639,-0.0032878611236810684,0.008446406573057175,-0.04390861093997955,-0.0027885902673006058,0.0018367288867011666,-0.02119605988264084,0.06955432146787643,-0.020606011152267456,0.0,0.0,0.0,-0.005089369602501392,-0.01519160158932209,-0.0,0.0,0.0,0.0,0.007996425032615662,-0.0008399697253480554,1.6134392808453413e-06,13410.0,13761.0,14581.0,14646.0,0.40076327323913574,0.4233686923980713,0.47857534885406494,0.48307907581329346,0.0,0.0,0.0,0.0,13595.0,13535.0,14720.0,14547.0,1.8074251413345337,-0.05505231116068576,0.007615905713152259,0.12050863983910808,0.066159687936306,-0.01705019921064377,0.0
424,5,-0.0019094070885330439,-0.0016282874858006835,0.0007817943696863949,-0.012353489175438881,-0.001566229504533112,0.00658100750297308,-0.04390861093997955,-0.0027885902673006058,0.0018367288867011666,-0.02119605988264084,0.06955432146787643,-0.020606011152267456,0.0,0.0,0.0,-0.005089369602501392,-0.01519160158932209,-0.0,0.0,0.0,0.0,0.007996425032615662,-0.0008399697253480554,1.6134392808453413e-06,13410.0,13761.0,14581.0,14646.0,0.40076327323913574,0.4233686923980713,0.47857534885406494,0.48307907581329346,0.0,0.0,0.0,0.0,13595.0,13535.0,14720.0,14547.0,1.8074251413345337,-0.054968692022290426,0.007683661909815672,0.12062474362213545,0.066159687936306,-0.01705019921064377,0.0
429,5,-0.0019094070885330439,-0.0016282874858006835,0.0007817943696863949,-0.012353489175438881,-0.001566229504533112,0.00658100750297308,-0.044190991669893265,-0.00319766066968441,0.0018379270331934094,-0.06160306558012962,0.011812053620815277,-0.023851966485381126,0.0,0.0,0.0,-0.0009617857867851853,-0.013275280594825745,-0.0,0.0,0.0,0.0,0.008596444502472878,-0.00042674312135204673,0.00021758211369160563,13261.0,13431.0,14486.0,14476.0,0.3913443088531494,0.40211838483810425,0.471996545791626,0.4713345170021057,0.0,0.0,0.0,0.0,13541.0,13185.0,14645.0,14283.0,1.7777479887008667,-0.054968692022290426,0.007683661909815672,0.12062474362213545,0.05686602368950844,-0.0031692534685134888,-0.0
434,5,-0.002113516442477703,-0.0016323557356372476,0.0008644530898891389,-0.01928774081170559,-2.7311130907037295e-05,-0.004642966203391552,-0.044190991669893265,-0.00319766066968441,0.0018379270331934094,-0.06160306558012962,0.011812053620815277,-0.023851966485381126,0.0,0.0,0.0,-0.0009617857867851853,-0.013275280594825745,-0.0,0.0,0.0,0.0,0.008596444502472878,-0.00042674312135204673,0.00021758211369160563,13261.0,13431.0,14486.0,14476.0,0.3913443088531494,0.40211838483810425,0.471996545791626,0.4713345170021057,0.0,0.0,0.0,0.0,13541.0,13185.0,14645.0,14283.0,1.7777479887008667,-0.05433614227448788,0.006775297770705369,0.1206474338205396,0.05686602368950844,-0.0031692534685134888,-0.0
439,5,-0.0021904048044234514,-0.001631865045055747,0.0008739147451706231,-0.016941698268055916,-6.981516344239935e-05,-0.002992582507431507,-0.044190991669893265,-0.00319766066968441,0.0018379270331934094,-0.06160306558012962,0.011812053620815277,-0.023851966485381126,0.0,0.0,0.0,-0.002616486046463251,-0.0188524778932333,-0.0,0.0,0.0,0.0,0.008596444502472878,-0.00042674312135204673,0.00021758211369160563,13261.0,13431.0,14486.0,14476.0,0.3913443088531494,0.40211838483810425,0.471996545791626,0.4713345170021057,0.0,0.0,0.0,0.0,13541.0,13185.0,14645.0,14283.0,1.8491979837417603,-0.05388561407296393,0.006600381850628074,0.12060798406453116,0.08399946987628937,-0.008968286216259003,0.0
444,5,-0.002280397107824683,-0.001623226678930223,0.0009110496612265706,-0.017575755715370178,-0.0010645303409546614,-0.0056532216258347034,-0.044340580701828,-0.0029352314304560423,0.0017874755430966616,-0.028435958549380302,-0.0820935070514679,0.01531769335269928,0.0,0.0,0.0,-0.002616486046463251,-0.0188524778932333,-0.0,0.0,0.0,0.0,0.008929026313126087,-0.0016319658607244492,0.0003586471430025995,13448.0,13300.0,14849.0,14233.0,0.4031510651111603,0.39378419518470764,0.4973404109477997,0.454698771238327,0.0,0.0,0.0,0.0,13412.0,13368.0,14807.0,14246.0,1.8491979837417603,-0.05422360489157017,0.005102252993380996,0.120622473955783,0.08399946987628937,-0.008968286216259003,0.0
449,5,-0.002348428824916482,-0.001604250748641789,0.000905332388356328,-0.015194125473499298,-0.00270291930064559,-0.0015752208419144154,-0.044340580701828,-0.0029352314304560423,0.0017874755430966616,-0.028435958549380302,-0.0820935070514679,0.01531769335269928,0.0,0.0,0.0,-0.0014807063853368163,-0.01776309497654438,-0.0,0.0,0.0,0.0,0.008929026313126087,-0.0016319658607244492,0.0003586471430025995,13448.0,13300.0,14849.0,14233.0,0.4031510651111603,0.39378419518470764,0.4973404109477997,0.454698771238327,0.0,0.0,0.0,0.0,13412.0,13368.0,14807.0,14246.0,1.8342223167419434,-0.05312372708793421,0.004596231212873319,0.12010496496144192,0.07850534468889236,-0.005034185480326414,0.0
455,5,-0.002437927760183811,-0.0016161565436050296,0.0009176055900752544,-0.016817506402730942,0.0003475262492429465,-0.002102871425449848,-0.04445110633969307,-0.0020074648782610893,0.0017135776579380035,0.02581273950636387,-0.16115301847457886,-0.024575041607022285,0.0,0.0,0.0,-0.0014807063853368163,-0.01776309497654438,-0.0,0.0,0.0,0.0,0.008260217495262623,-0.005409572273492813,-0.00018929265206679702,13053.0,13908.0,14692.0,14602.0,0.37837302684783936,0.43302416801452637,0.4862980246543884,0.48005276918411255,0.0,0.0,0.0,0.0,13120.0,13898.0,14754.0,14490.0,1.8342223167419434,-0.05322522608421482,0.002538257413937016,0.12026784149754936,0.07850534468889236,-0.005034185480326414,0.0
460,5,-0.0025210350286215544,-0.0016119233332574368,0.0009144592913798988,-0.016699882224202156,-0.0003689778095576912,-0.0004635926161427051,-0.04445110633969307,-0.0020074648782610893,0.0017135776579380035,0.02581273950636387,-0.16115301847457886,-0.024575041607022285,0.0,0.0,0.0,-0.003034573048353195,-0.017352892085909843,-0.0,0.0,0.0,0.0,0.008260217495262623,-0.005409572273492813,-0.00018929265206679702,13053.0,13908.0,14692.0,14602.0,0.37837302684783936,0.43302416801452637,0.4862980246543884,0.48005276918411255,0.0,0.0,0.0,0.0,13120.0,13898.0,14754.0,14490.0,1.8305041790008545,-0.05297378187527021,0.0017116427203614656,0.12021659058178394,0.0765368640422821,-0.010296168737113476,0.0
465,5,-0.002604992361739278,-0.0016058481996878982,0.0009182177600450814,-0.016754833981394768,-0.0008766008540987968,-0.0006364501314237714,-0.043930478394031525,0.00043187473784200847,0.001662301947362721,0.058717627078294754,-0.23033715784549713,-0.011400500312447548,0.0,0.0,0.0,-0.003034573048353195,-0.017352892085909843,-0.0,0.0,0.0,0.0,0.008244822733104229,-0.005856306757777929,-4.481418727664277e-05,13378.0,14236.0,15157.0,14547.0,0.39869239926338196,0.45490190386772156,0.5193820595741272,0.47622165083885193,0.0,0.0,0.0,0.0,13210.0,14385.0,15078.0,14634.0,1.8305041790008545,-0.05234606764786446,0.000545556843351874,0.11989107482723617,0.0765368640422821,-0.010296168737113476,0.0
470,5,-0.0027471540961414576,-0.0016223950078710914,0.0010149733861908317,-0.02376135252416134,0.0016349739162251353,-0.011865263804793358,-0.043930478394031525,0.00043187473784200847,0.001662301947362721,0.058717627078294754,-0.23033715784549713,-0.011400500312447548,0.0,0.0,0.0,-0.0016660802066326141,-0.01750478707253933,-0.0,0.0,0.0,0.0,0.008244822733104229,-0.005856306757777929,-4.481418727664277e-05,13378.0,14236.0,15157.0,14547.0,0.39869239926338196,0.45490190386772156,0.5193820595741272,0.47622165083885193,0.0,0.0,0.0,0.0,13210.0,14385.0,15078.0,14634.0,1.8310450315475464,-0.05451475940968219,-0.001708998011327979,0.11964209457949018,0.0772298127412796,-0.00565461628139019,0.0
475,5,-0.002863196888938546,-0.0016357148997485638,0.0010194990318268538,-0.02342967316508293,0.002252371283248067,-0.005289174150675535,-0.04348774626851082,0.0023630724754184484,0.0016029739053919911,0.08765670657157898,-0.20937101542949677,0.011048607528209686,0.0,0.0,0.0,-0.0016660802066326141,-0.01750478707253933,-0.0,0.0,0.0,0.0,0.007856850512325764,-0.005500379018485546,-0.0004935081233270466,13419.0,14091.0,15228.0,14357.0,0.40131887793540955,0.44520214200019836,0.5245431065559387,0.4631582200527191,0.0,0.0,0.0,0.0,13541.0,13998.0,15311.0,14246.0,1.8310450315475464,-0.05430715837199288,-0.0014229326817942589,0.11946524528450585,0.0772298127412796,-0.00565461628139019,0.0
