timestamp,dt,pos_x,pos_y,pos_z,vel_x,vel_y,vel_z,roll,pitch,yaw,agv_x,agv_y,agv_z,x_ref,y_ref,z_ref,roll_ref,pitch_ref,yaw_ref,x_vel_ref,y_vel_ref,z_vel_ref,x_torque,y_torque,z_torque,w0,w1,w2,w3,u0,u1,u2,u3,m0req,m1req,m2req,m3req,thrust0,thrust1,thrust2,thrust3,thrust_ref,roll_vicon,pitch_vicon,yaw_vicon,acc_x,acc_y,acc_z
5,5,0.0,0.0,0.0,0.0019795247353613377,-0.0019047633977606893,0.0071260640397667885,-0.008184719830751419,-0.2506202757358551,-0.00217631459236145,0.0008840926457196474,0.0024743240792304277,-0.002795300679281354,0.0,0.0,0.0,0.002330346265807748,0.001862935139797628,-0.0,0.0,0.0,0.0,0.0024372555781155825,0.0752788558602333,-0.00030397658701986074,1495.0,1495.0,1495.0,1495.0,0.0,0.0,0.0,0.0,0.0,0.0,0.0,0.0,1495.0,1495.0,1495.0,1495.0,1.653651475906372,0.009377146369545916,0.2549172006880474,-0.009546539524446616,-0.007423217874020338,0.007142862770706415,0.0
29,23,0.0,0.0,0.0,0.0011470104800537229,-0.0025226909201592207,-0.0007019237382337451,-0.008184719830751419,-0.2506202757358551,-0.00217631459236145,0.0008840926457196474,0.0024743240792304277,-0.002795300679281354,0.0,0.0,0.0,0.002330346265807748,0.001862935139797628,-0.0,0.0,0.0,0.0,0.0024372555781155825,0.0752788558602333,-0.00030397658701986074,1495.0,1495.0,1495.0,1495.0,0.0,0.0,0.0,0.0,0.0,0.0,0.0,0.0,1495.0,1495.0,1495.0,1495.0,1.653651475906372,0.00911245737849928,0.25375032062718733,-0.009631396373213547,-0.007423217874020338,0.007142862770706415,0.0
41,13,0.0,0.0,0.0,0.00019828748190775514,-0.0015991476830095053,-0.0032625810708850622,-0.008179118856787682,-0.2506367266178131,-0.0021849600598216057,-9.202308865496889e-05,0.0006032669916749001,0.0009789420291781425,0.0,0.0,0.0,0.0030858837999403477,0.0010792957618832588,-0.0,0.0,0.0,0.0,0.002472864231094718,0.0752597525715828,-0.00021069240756332874,1495.0,1495.0,1495.0,1495.0,0.0,0.0,0.0,0.0,0.0,0.0,0.0,0.0,1495.0,1495.0,1495.0,1495.0,1.6538968086242676,0.010188798360251147,0.2540869073565742,-0.010133064838239872,-0.0043012890964746475,0.009460090659558773,0.0
47,5,0.0,0.0,0.0,-0.00044408280518837273,0.0005020384560339153,-0.0006658319616690278,-0.008179118856787682,-0.2506367266178131,-0.0021849600598216057,-9.202308865496889e-05,0.0006032669916749001,0.0009789420291781425,0.0,0.0,0.0,0.001970165641978383,0.0001879171613836661,-0.0,0.0,0.0,0.0,0.002472864231094718,0.0752597525715828,-0.00021069240756332874,1495.0,1495.0,1495.0,1495.0,0.0,0.0,0.0,0.0,0.0,0.0,0.0,0.0,1495.0,1495.0,1495.0,1495.0,1.642135739326477,0.008755760950106594,0.254903292319603,-0.00967627544391625,-0.000743578071705997,0.005996803753077984,0.0
52,5,0.0,0.0,0.0,0.0008535402012057602,6.682841194560751e-05,0.005408947821706533,-0.008179118856787682,-0.2506367266178131,-0.0021849600598216057,-9.202308865496889e-05,0.0006032669916749001,0.0009789420291781425,0.0,0.0,0.0,0.001970165641978383,0.0001879171613836661,-0.0,0.0,0.0,0.0,0.002472864231094718,0.0752597525715828,-0.00021069240756332874,1495.0,1495.0,1495.0,1495.0,0.0,0.0,0.0,0.0,0.0,0.0,0.0,0.0,1495.0,1495.0,1495.0,1495.0,1.642135739326477,0.009553369755581584,0.2555338153251385,-0.00961779543454937,-0.000743578071705997,0.005996803753077984,0.0
57,5,2.456129095662618e-06,-1.1438019100751262e-05,4.955879194312729e-05,0.0006361515843309462,0.001399293658323586,-0.0037834756076335907,-0.008169015869498253,-0.25064176321029663,-0.0021908811759203672,0.00013635218783747405,0.004392444156110287,-0.00475441524758935,0.0,0.0,0.0,-8.271982369478792e-05,0.0008126979228109121,-0.0,0.0,0.0,0.0,0.003126690397039056,0.07566976547241211,-3.757084778044373e-05,1495.0,1495.0,1495.0,1495.0,0.0,0.0,0.0,0.0,0.0,0.0,0.0,0.0,17912.0,5770.0,6288.0,18383.0,1.6344598531723022,0.009022776103476533,0.2540202281071124,-0.009587653536137794,-0.0032007757108658552,-0.00025060653570108116,0.0
62,5,-1.0016772648668848e-05,-1.6582722309976816e-05,8.138333942042664e-05,-0.0012422875734046102,0.0011770818382501602,-0.0053323362953960896,-0.008158337324857712,-0.2506149411201477,-0.0021635580342262983,0.006180920638144016,-0.00707317003980279,0.003191754687577486,0.0,0.0,0.0,-0.0014789944980293512,-0.001190310693345964,-0.0,0.0,0.0,0.0,0.0034019441809505224,0.07568398863077164,-0.0003033196262549609,17898.0,5743.0,6371.0,18380.0,0.7363651990890503,0.061193645000457764,0.07791221886873245,0.7784257531166077,0.0,0.0,0.0,0.0,17905.0,5835.0,6283.0,18373.0,1.6434285640716553,0.009984501088971079,0.2542680334102081,-0.010097764391557315,0.004713705740869045,-0.004505319986492395,0.0
67,5,1.6376549183405587e-06,-1.9805385818472132e-05,4.347493450040929e-05,0.0009016162366606295,0.0008575523388572037,0.002416074275970459,-0.008158337324857712,-0.2506149411201477,-0.0021635580342262983,0.006180920638144016,-0.00707317003980279,0.003191754687577486,0.0,0.0,0.0,-0.0014789944980293512,-0.001190310693345964,-0.0,0.0,0.0,0.0,0.0034019441809505224,0.07568398863077164,-0.0003033196262549609,17898.0,5743.0,6371.0,18380.0,0.7363651990890503,0.061193645000457764,0.07791221886873245,0.7784257531166077,0.0,0.0,0.0,0.0,17905.0,5835.0,6283.0,18373.0,1.6434285640716553,0.009496018052543898,0.2545515559803068,-0.010123358141051034,0.004713705740869045,-0.004505319986492395,0.0
72,5,3.891202595696086e-06,-9.979059541365132e-06,4.107471977476962e-05,0.0006310722674243152,-0.0008361382642760873,0.0012544554192572832,-0.008158337324857712,-0.2506149411201477,-0.0021635580342262983,0.006180920638144016,-0.00707317003980279,0.003191754687577486,0.0,0.0,0.0,-0.0014789944980293512,-0.001190310693345964,-0.0,0.0,0.0,0.0,0.0034019441809505224,0.07568398863077164,-0.0003033196262549609,17898.0,5743.0,6371.0,18380.0,0.7363651990890503,0.061193645000457764,0.07791221886873245,0.7784257531166077,0.0,0.0,0.0,0.0,17905.0,5835.0,6283.0,18373.0,1.6434285640716553,0.010085918227108961,0.25469248705673264,-0.010425146458574772,0.004713705740869045,-0.004505319986492395,0.0
77,5,-2.113403388648294e-05,-1.7225889678229578e-05,6.791248597437516e-05,-0.0027505995240062475,0.0005351644358597696,-0.0027187494561076164,-0.008150010369718075,-0.250633180141449,-0.002161554293707013,-0.0015654291491955519,0.002176940441131592,-0.00014239642769098282,0.0,0.0,0.0,0.0010156625648960471,0.0006056135171093047,-0.0,0.0,0.0,0.0,0.0030605150386691093,0.07541429996490479,-5.8186185924569145e-05,17907.0,5597.0,6362.0,18283.0,0.737069845199585,0.057587120682001114,0.07766802608966827,0.7698107957839966,0.0,0.0,0.0,0.0,17939.0,5620.0,6490.0,18336.0,1.63632333278656,0.00862353642200098,0.25396388056540203,-0.009564073920495995,-0.00238790106959641,0.0030805408023297787,-0.0
82,5,-1.3634520655614324e-05,2.5236846568077453e-07,2.6970961698680185e-05,-0.0002002981782425195,-0.0018833252834156156,0.003825482912361622,-0.008150010369718075,-0.250633180141449,-0.002161554293707013,-0.0015654291491955519,0.002176940441131592,-0.00014239642769098282,0.0,0.0,0.0,0.0010156625648960471,0.0006056135171093047,-0.0,0.0,0.0,0.0,0.0030605150386691093,0.07541429996490479,-5.8186185924569145e-05,17907.0,5597.0,6362.0,18283.0,0.737069845199585,0.057587120682001114,0.07766802608966827,0.7698107957839966,0.0,0.0,0.0,0.0,17939.0,5620.0,6490.0,18336.0,1.63632333278656,0.008837926187520275,0.2547155845118102,-0.009667745421957469,-0.00238790106959641,0.0030805408023297787,-0.0
87,5,-1.3634520655614324e-05,2.5236846568077453e-07,2.6970961698680185e-05,-0.0002002981782425195,-0.0018833252834156156,0.003825482912361622,-0.008133741095662117,-0.2505906820297241,-0.002145254984498024,-0.0017437927890568972,-0.003748412011191249,0.0023755060974508524,0.0,0.0,0.0,0.002316619036719203,-0.00020842443336732686,-0.0,0.0,0.0,0.0,0.0020039828959852457,0.07504226267337799,-0.0002659848832990974,17912.0,5642.0,6163.0,18240.0,0.7375154495239258,0.058693721890449524,0.07215838134288788,0.7660923004150391,0.0,0.0,0.0,0.0,17913.0,5637.0,6148.0,18245.0,1.6450300216674805,0.008837926187520275,0.2547155845118102,-0.009667745421957469,0.0008261771872639656,0.007063765544444323,-0.0
92,5,-1.3634520655614324e-05,2.5236846568077453e-07,2.6970961698680185e-05,-0.0002002981782425195,-0.0018833252834156156,0.003825482912361622,-0.008133741095662117,-0.2505906820297241,-0.002145254984498024,-0.0017437927890568972,-0.003748412011191249,0.0023755060974508524,0.0,0.0,0.0,0.002316619036719203,-0.00020842443336732686,-0.0,0.0,0.0,0.0,0.0020039828959852457,0.07504226267337799,-0.0002659848832990974,17912.0,5642.0,6163.0,18240.0,0.7375154495239258,0.058693721890449524,0.07215838134288788,0.7660923004150391,0.0,0.0,0.0,0.0,17913.0,5637.0,6148.0,18245.0,1.6450300216674805,0.008837926187520275,0.2547155845118102,-0.009667745421957469,0.0008261771872639656,0.007063765544444323,-0.0
98,5,-1.4568802725989372e-05,3.1710794701211853e-06,9.304396371589974e-05,0.00030196915031410754,-0.00029992303461767733,-0.0035686008632183075,-0.00812861230224371,-0.25057145953178406,-0.0021459816489368677,-0.0002465557772666216,0.000151242726133205,-0.0029444980900734663,0.0,0.0,0.0,0.0023166192695498466,-0.00020843646780122072,-0.0,0.0,0.0,0.0,0.0030747856944799423,0.07543877512216568,-0.0001538649812573567,17895.0,6018.0,6127.0,18261.0,0.7361035346984863,0.06827502697706223,0.07118390500545502,0.7678660750389099,0.0,0.0,0.0,0.0,17923.0,5943.0,6177.0,18241.0,1.6450300216674805,0.009502127082135173,0.2535637854340722,-0.009531188222767021,0.0008262249175459146,0.007063766475766897,-0.0
103,5,-8.66714003677771e-07,-1.2280772352823988e-05,5.8141351473750547e-05,0.0017650382360443473,0.0017342530190944672,0.002760873408988118,-0.008092682808637619,-0.25058218836784363,-0.002131233923137188,0.0010816595749929547,0.00252267112955451,0.0011312832357361913,0.0,0.0,0.0,-0.0021472496446222067,0.0016625110292807221,-0.0,0.0,0.0,0.0,0.0031591281294822693,0.07540842145681381,-0.00020926984143443406,17886.0,5705.0,6310.0,18323.0,0.7352734804153442,0.06024230271577835,0.07620719820261002,0.7733070850372314,0.0,0.0,0.0,0.0,17890.0,5678.0,6320.0,18322.0,1.6510088443756104,0.010079539885086468,0.2546511954994498,-0.010197489183115988,-0.006614006590098143,-0.006571127101778984,-0.0
108,5,-8.797008376859594e-06,-1.2603230061358772e-05,6.680306978523731e-05,-0.00024562006001360714,0.0007323961472138762,6.494304398074746e-05,-0.008092682808637619,-0.25058218836784363,-0.002131233923137188,0.0010816595749929547,0.00252267112955451,0.0011312832357361913,0.0,0.0,0.0,-0.0021472496446222067,0.0016625110292807221,-0.0,0.0,0.0,0.0,0.0031591281294822693,0.07540842145681381,-0.00020926984143443406,17886.0,5705.0,6310.0,18323.0,0.7352734804153442,0.06024230271577835,0.07620719820261002,0.7733070850372314,0.0,0.0,0.0,0.0,17890.0,5678.0,6320.0,18322.0,1.6510088443756104,0.009436120286679284,0.2547476764422236,-0.010085086169926843,-0.006614006590098143,-0.006571127101778984,-0.0
113,5,-3.924049906345317e-06,-1.2696024896285962e-05,4.901435750070959e-05,0.0004865070222876966,0.00030409378814511,0.002160622738301754,-0.008092682808637619,-0.25058218836784363,-0.002131233923137188,0.0010816595749929547,0.00252267112955451,0.0011312832357361913,0.0,0.0,0.0,-0.0021472496446222067,0.0016625110292807221,-0.0,0.0,0.0,0.0,0.0031591281294822693,0.07540842145681381,-0.00020926984143443406,17886.0,5705.0,6310.0,18323.0,0.7352734804153442,0.06024230271577835,0.07620719820261002,0.7733070850372314,0.0,0.0,0.0,0.0,17890.0,5678.0,6320.0,18322.0,1.6510088443756104,0.009915897368230935,0.25509510610687874,-0.009977038967818107,-0.006614006590098143,-0.006571127101778984,-0.0
118,5,-4.233555046084803e-06,-1.4615861800848506e-05,4.6892779209883884e-05,0.00015746220014989376,0.0003520180471241474,0.001118838437832892,-0.008112752810120583,-0.2505835294723511,-0.0021253773011267185,0.0013948121340945363,0.002599123865365982,-0.0006661359220743179,0.0,0.0,0.0,-0.0004002036585006863,0.0004585045971907675,-0.0,0.0,0.0,0.0,0.0018270561704412103,0.07611431926488876,-0.00024078780552372336,18004.0,5862.0,6049.0,18310.0,0.7455080151557922,0.06421034038066864,0.06909282505512238,0.7721977233886719,0.0,0.0,0.0,0.0,17893.0,5674.0,6299.0,18327.0,1.6316403150558472,0.009384674831442372,0.2553845406322893,-0.010071614074513716,-0.0018026854377239943,-0.0012103584595024586,-0.0
123,5,-7.771946002321783e-07,-1.8438631741446443e-05,5.580741344601847e-05,0.0004777481372002512,0.0005995396641083062,-0.0006222205120138824,-0.008112752810120583,-0.2505835294723511,-0.0021253773011267185,0.0013948121340945363,0.002599123865365982,-0.0006661359220743179,0.0,0.0,0.0,-0.0004002036585006863,0.0004585045971907675,-0.0,0.0,0.0,0.0,0.0018270561704412103,0.07611431926488876,-0.00024078780552372336,18004.0,5862.0,6049.0,18310.0,0.7455080151557922,0.06421034038066864,0.06909282505512238,0.7721977233886719,0.0,0.0,0.0,0.0,17893.0,5674.0,6299.0,18327.0,1.6316403150558472,0.008874516225231874,0.2548504333981427,-0.009863893918304539,-0.0018026854377239943,-0.0012103584595024586,-0.0
128,5,-2.813648825394921e-05,-0.00011048584565287456,0.0004416164883878082,-0.0030920158606022596,0.011285481043159962,-0.046545978635549545,-0.008112752810120583,-0.2505835294723511,-0.0021253773011267185,0.0013948121340945363,0.002599123865365982,-0.0006661359220743179,0.0,0.0,0.0,-0.0007759937434457242,0.00045396233326755464,-0.0,0.0,0.0,0.0,0.0018270561704412103,0.07611431926488876,-0.00024078780552372336,18004.0,5862.0,6049.0,18310.0,0.7455080151557922,0.06421034038066864,0.06909282505512238,0.7721977233886719,0.0,0.0,0.0,0.0,17893.0,5674.0,6299.0,18327.0,1.6337594985961914,0.033246825894535384,0.2568842028116525,-0.015742056422519923,-0.0017871445743367076,-0.002349929418414831,0.0
134,5,-3.7472418625839055e-05,-0.00011291885311948135,0.0004229560145176947,-0.0023571180645376444,0.004806153476238251,-0.016379132866859436,-0.008086113259196281,-0.2505978047847748,-0.0020924212876707315,0.005425820592790842,-0.0007537660421803594,0.004933842457830906,0.0,0.0,0.0,-0.0007759937434457242,0.00045396233326755464,-0.0,0.0,0.0,0.0,0.0022216844372451305,0.07575985044240952,-0.00010147202556254342,17947.0,5532.0,6122.0,18216.0,0.7405962347984314,0.05601140111684799,0.07105318456888199,0.7639795541763306,0.0,0.0,0.0,0.0,18019.0,5814.0,6086.0,18298.0,1.6337594985961914,0.0329944379775222,0.25656409381637374,-0.01623307296388784,-0.0017871445743367076,-0.002349929418414831,0.0
139,5,-4.504267781157978e-05,-0.0001190440307254903,0.00047814741265028715,-0.0018512782407924533,0.002657482400536537,-0.013174619525671005,-0.008086113259196281,-0.2505978047847748,-0.0020924212876707315,0.005425820592790842,-0.0007537660421803594,0.004933842457830906,0.0,0.0,0.0,-0.0059813945554196835,-0.0022322405129671097,-0.0,0.0,0.0,0.0,0.0022216844372451305,0.07575985044240952,-0.00010147202556254342,17947.0,5532.0,6122.0,18216.0,0.7405962347984314,0.05601140111684799,0.07105318456888199,0.7639795541763306,0.0,0.0,0.0,0.0,18019.0,5814.0,6086.0,18298.0,1.6817082166671753,0.03373834499911841,0.2563032389750979,-0.016454808030833167,0.009045558981597424,-0.01864476688206196,0.0
144,5,-4.152590918238275e-05,-0.00010780526645248756,0.0004467832623049617,-0.0003184990200679749,-0.00028565837419591844,-0.0015061500016599894,-0.008096201345324516,-0.25061601400375366,-0.0021169385872781277,0.00012462068116292357,0.0033959641586989164,-0.0009543951600790024,0.0,0.0,0.0,-0.0059813945554196835,-0.0022322405129671097,-0.0,0.0,0.0,0.0,0.0023249732330441475,0.07595723867416382,-0.00029677615384571254,17912.0,5709.0,5936.0,18282.0,0.737513542175293,0.06034638732671738,0.06612274795770645,0.7697768211364746,0.0,0.0,0.0,0.0,17917.0,5619.0,6053.0,18243.0,1.6817082166671753,0.032518743528458426,0.2560680233369978,-0.015873050899089008,0.009045558981597424,-0.01864476688206196,0.0
149,5,-2.335251701879315e-05,-0.00010662290878826752,0.0004298593557905406,0.0020534072536975145,-0.0002561462461017072,0.0014284078497439623,-0.008096201345324516,-0.25061601400375366,-0.0021169385872781277,0.00012462068116292357,0.0033959641586989164,-0.0009543951600790024,0.0,0.0,0.0,-0.0059813945554196835,-0.0022322405129671097,-0.0,0.0,0.0,0.0,0.0023249732330441475,0.07595723867416382,-0.00029677615384571254,17912.0,5709.0,5936.0,18282.0,0.737513542175293,0.06034638732671738,0.06612274795770645,0.7697768211364746,0.0,0.0,0.0,0.0,17917.0,5619.0,6053.0,18243.0,1.6817082166671753,0.03406816827234561,0.2569014997596972,-0.016546500335143082,-0.007571425288915634,0.00037310674088075757,-0.0
154,5,-1.920236536534503e-05,-0.00011390700819902122,0.0004429746186360717,0.0013193810591474175,0.00077163300011307,-0.0010024697985500097,-0.008108755573630333,-0.2506142854690552,-0.002121034311130643,0.0008736090385355055,0.0012617319589480758,-5.676858199876733e-05,0.0,0.0,0.0,0.00012226906255818903,0.0019086137181147933,-0.0,0.0,0.0,0.0,0.002236968372017145,0.07595203816890717,-0.00018532750254962593,17937.0,5615.0,6028.0,18257.0,0.7397125363349915,0.05802056938409805,0.06852821260690689,0.7674981355667114,0.0,0.0,0.0,0.0,17918.0,5671.0,6018.0,18263.0,1.6462961435317993,0.033273732345313445,0.2569478107865544,-0.01635716149509262,-0.007571425288915634,0.00037310674088075757,-0.0
159,5,6.613751338591101e-06,-0.00010247292084386572,0.000411119224736467,0.003625686513260007,-0.001063436851836741,0.0034216612111777067,-0.008108755573630333,-0.2506142854690552,-0.002121034311130643,0.0008736090385355055,0.0012617319589480758,-5.676858199876733e-05,0.0,0.0,0.0,0.00012226906255818903,0.0019086137181147933,-0.0,0.0,0.0,0.0,0.002236968372017145,0.07595203816890717,-0.00018532750254962593,17937.0,5615.0,6028.0,18257.0,0.7397125363349915,0.05802056938409805,0.06852821260690689,0.7674981355667114,0.0,0.0,0.0,0.0,17918.0,5671.0,6018.0,18263.0,1.6462961435317993,0.03376036614230259,0.2575066376929033,-0.016033992688870582,-0.007571425288915634,0.00037310674088075757,-0.0
164,5,1.8634487787494436e-05,-8.474734204355627e-05,0.0004808524972759187,0.0028927631210535765,-0.0025524445809423923,-0.006999327335506678,-0.008038477972149849,-0.25059208273887634,-0.002112010261043906,0.006419002544134855,-0.0017908514710143209,-0.016869422048330307,0.0,0.0,0.0,0.0011099238181486726,0.003400356275960803,-0.0,0.0,0.0,0.0,0.0004410728288348764,0.07500233501195908,-2.9086400900268927e-05,18088.0,6579.0,6260.0,18288.0,0.7527480125427246,0.08388739824295044,0.07483462989330292,0.7702381610870361,0.0,0.0,0.0,0.0,18049.0,6652.0,6179.0,18327.0,1.663773775100708,0.03696546012429557,0.25667962854589105,-0.016312898708214715,-0.013632310554385185,0.0034229126758873463,-0.0
169,5,-2.2998247004579753e-06,-8.690082904649898e-05,0.0004624668217729777,-0.0013550122966989875,-0.0007625595317222178,-0.0005934509681537747,-0.008038477972149849,-0.25059208273887634,-0.002112010261043906,0.006419002544134855,-0.0017908514710143209,-0.016869422048330307,0.0,0.0,0.0,0.0011099238181486726,0.003400356275960803,-0.0,0.0,0.0,0.0,0.0004410728288348764,0.07500233501195908,-2.9086400900268927e-05,18088.0,6579.0,6260.0,18288.0,0.7527480125427246,0.08388739824295044,0.07483462989330292,0.7702381610870361,0.0,0.0,0.0,0.0,18049.0,6652.0,6179.0,18327.0,1.663773775100708,0.033809140887717616,0.2556591862556769,-0.014985975927099982,-0.013632310554385185,0.0034229126758873463,-0.0
174,5,-4.293332949600881e-06,-0.00011081967386417091,0.00041610561311244965,-0.000781225913669914,0.002565238159149885,0.005325963255017996,-0.008004672825336456,-0.2505566477775574,-0.0019245723960921168,-0.011815151199698448,-0.004909552168101072,0.07958900183439255,0.0,0.0,0.0,0.0007824455969966948,-0.0012883341405540705,-0.0,0.0,0.0,0.0,0.0025562653318047523,0.07622403651475906,0.0018786984728649259,18616.0,1748.0,7957.0,17669.0,0.7994406223297119,0.0011114664375782013,0.1289648413658142,0.7167791724205017,0.0,0.0,0.0,0.0,17621.0,6779.0,4770.0,18674.0,1.6409977674484253,0.03205761715891501,0.2563508288442381,-0.01570272175846767,0.005094342865049839,0.0023799652699381113,0.0
179,5,-2.5732819267432205e-05,-7.626308070030063e-05,0.00038956518983468413,-0.0011936837108805776,-0.004096686374396086,0.003933297470211983,-0.008004672825336456,-0.2505566477775574,-0.0019245723960921168,-0.011815151199698448,-0.004909552168101072,0.07958900183439255,0.0,0.0,0.0,0.0007824455969966948,-0.0012883341405540705,-0.0,0.0,0.0,0.0,0.0025562653318047523,0.07622403651475906,0.0018786984728649259,18616.0,1748.0,7957.0,17669.0,0.7994406223297119,0.0011114664375782013,0.1289648413658142,0.7167791724205017,0.0,0.0,0.0,0.0,17621.0,6779.0,4770.0,18674.0,1.6409977674484253,0.028050937823837125,0.2545666948197794,-0.014286935988265052,0.005094342865049839,0.0023799652699381113,0.0
184,5,-2.5732819267432205e-05,-7.626308070030063e-05,0.00038956518983468413,-0.0011936837108805776,-0.004096686374396086,0.003933297470211983,-0.008079023100435734,-0.25064125657081604,-0.0023603818845003843,0.003040185198187828,0.006722277961671352,-0.06975176930427551,0.0,0.0,0.0,0.0048325019888579845,-0.00114902900531888,-0.0,0.0,0.0,0.0,0.0026526590809226036,0.07729565352201462,-0.0021043901797384024,17487.0,7337.0,3826.0,18982.0,0.701358437538147,0.10752110183238983,0.02237161248922348,0.8325225710868835,0.0,0.0,0.0,0.0,17728.0,6253.0,5712.0,18446.0,1.6680437326431274,0.028050937823837125,0.2545666948197794,-0.014286935988265052,0.004618332255631685,0.014941181987524033,-0.0
189,5,-1.635547050682362e-05,-5.082651478005573e-05,0.00032940329401753843,0.000647808366920799,-0.004691062495112419,0.00879274494946003,-0.008079023100435734,-0.25064125657081604,-0.0023603818845003843,0.003040185198187828,0.006722277961671352,-0.06975176930427551,0.0,0.0,0.0,0.0048325019888579845,-0.00114902900531888,-0.0,0.0,0.0,0.0,0.0026526590809226036,0.07729565352201462,-0.0021043901797384024,17487.0,7337.0,3826.0,18982.0,0.701358437538147,0.10752110183238983,0.02237161248922348,0.8325225710868835,0.0,0.0,0.0,0.0,17728.0,6253.0,5712.0,18446.0,1.6680437326431274,0.024334209977854054,0.2547663422375427,-0.013197226685109096,0.004618332255631685,0.014941181987524033,-0.0
194,5,-2.0752393538714387e-05,-6.569744437001646e-05,0.0002991478831972927,0.00011758930486394092,0.0009274826152250171,0.00010077689512399957,-0.008140664547681808,-0.2505846619606018,-0.0017070469912141562,-0.023019272834062576,-0.004790676292032003,0.05048573762178421,0.0,0.0,0.0,0.005582148674875498,0.0005801735678687692,-0.0,0.0,0.0,0.0,0.003217637538909912,0.07529470324516296,0.003366695949807763,18640.0,1495.0,8361.0,17515.0,0.8015189170837402,-0.008269276469945908,0.14398950338363647,0.7037586569786072,0.0,0.0,0.0,0.0,17307.0,7506.0,4392.0,19026.0,1.6729638576507568,0.01660509369211664,0.252374970172549,-0.012404806784381477,-0.0023387812543660402,0.01730981469154358,-0.0
200,5,-5.692342710972298e-06,-5.000367673346773e-05,0.0001689329365035519,0.0018542417092248797,-0.001512259477749467,0.01566610299050808,-0.008140664547681808,-0.2505846619606018,-0.0017070469912141562,-0.023019272834062576,-0.004790676292032003,0.05048573762178421,0.0,0.0,0.0,0.005582148674875498,0.0005801735678687692,-0.0,0.0,0.0,0.0,0.003217637538909912,0.07529470324516296,0.003366695949807763,18640.0,1495.0,8361.0,17515.0,0.8015189170837402,-0.008269276469945908,0.14398950338363647,0.7037586569786072,0.0,0.0,0.0,0.0,17307.0,7506.0,4392.0,19026.0,1.6729638576507568,0.016621995381367927,0.255494136338213,-0.011965052789121855,-0.0023387812543660402,0.01730981469154358,-0.0
205,5,2.6367371901869774e-05,-2.5060991902137175e-05,0.0001644954172661528,0.004588862415403128,-0.00359802576713264,0.006798943504691124,-0.008213181979954243,-0.2507963478565216,-0.0027206684462726116,0.009092707186937332,0.031020956113934517,0.04337482154369354,0.0,0.0,0.0,0.001764069776982069,0.0017413741443306208,-0.0,0.0,0.0,0.0,0.0034435305278748274,0.0766386166214943,-0.0022202252876013517,17845.0,6123.0,5959.0,18606.0,0.731788694858551,0.07107067853212357,0.06672213971614838,0.7984622120857239,0.0,0.0,0.0,0.0,18932.0,1495.0,8953.0,17531.0,1.6495262384414673,0.015706467447813167,0.2549363643290676,-0.011782802669899905,-0.006921533495187759,0.005393654573708773,-0.0
210,5,1.6562380551476963e-05,-2.8956832466064952e-05,0.0001666319149080664,0.0006589459953829646,-0.0009717096108943224,0.0024631978012621403,-0.008213181979954243,-0.2507963478565216,-0.0027206684462726116,0.009092707186937332,0.031020956113934517,0.04337482154369354,0.0,0.0,0.0,0.001764069776982069,0.0017413741443306208,-0.0,0.0,0.0,0.0,0.0034435305278748274,0.0766386166214943,-0.0022202252876013517,17845.0,6123.0,5959.0,18606.0,0.731788694858551,0.07107067853212357,0.06672213971614838,0.7984622120857239,0.0,0.0,0.0,0.0,18932.0,1495.0,8953.0,17531.0,1.6495262384414673,0.01273734948857085,0.2538808134869169,-0.01100646185162029,-0.006921533495187759,0.005393654573708773,-0.0
215,5,1.5528650692431256e-05,-1.385423274768982e-05,0.00020785776723641902,0.00013953086454421282,-0.0022009958047419786,-0.003961823880672455,-0.008074859157204628,-0.25072550773620605,-0.0024574422277510166,0.007962205447256565,-0.021643953397870064,-0.1255427896976471,0.0,0.0,0.0,0.0011472984915599227,0.0006492177490144968,-0.0,0.0,0.0,0.0,0.0038617169484496117,0.07582418620586395,-0.0018526255153119564,17158.0,7950.0,3571.0,19189.0,0.6740482449531555,0.12871327996253967,0.01859138160943985,0.8516110181808472,0.0,0.0,0.0,0.0,17214.0,7718.0,3431.0,18995.0,1.6374763250350952,0.012856661212480764,0.25280072613810195,-0.010757646761262474,-0.002561633475124836,0.003482248866930604,-0.0
220,5,-0.00011582962906686589,-1.900282768474426e-05,0.0003533590352162719,-0.01570718176662922,-0.0002625668712425977,-0.01904487982392311,-0.008074859157204628,-0.25072550773620605,-0.0024574422277510166,0.007962205447256565,-0.021643953397870064,-0.1255427896976471,0.0,0.0,0.0,0.0011472984915599227,0.0006492177490144968,-0.0,0.0,0.0,0.0,0.0038617169484496117,0.07582418620586395,-0.0018526255153119564,17158.0,7950.0,3571.0,19189.0,0.6740482449531555,0.12871327996253967,0.01859138160943985,0.8516110181808472,0.0,0.0,0.0,0.0,17214.0,7718.0,3431.0,18995.0,1.6374763250350952,0.009950317342094393,0.2530007323357754,-0.010439887018296535,-0.002561633475124836,0.003482248866930604,-0.0
225,5,-3.271087189204991e-05,-9.752136065799277e-06,0.00022104865638539195,0.0036913782823830843,-0.0012151097180321813,0.00825929269194603,-0.007991050370037556,-0.2500324547290802,-0.0020859292708337307,0.009792476892471313,-0.15725994110107422,0.048107922077178955,0.0,0.0,0.0,0.00026532940682955086,-0.013846679590642452,-0.0,0.0,0.0,0.0,0.0029345154762268066,0.07324808835983276,0.0021196019370108843,18331.0,4088.0,8146.0,17624.0,0.7740910053253174,0.02659345418214798,0.1358826756477356,0.7129591107368469,0.0,0.0,0.0,0.0,17531.0,6877.0,6430.0,18308.0,1.7845326662063599,0.009475541748959142,0.2504641118683659,-0.00979577198187833,0.059539906680583954,0.000877644051797688,0.0
230,5,-0.0002002907422138378,-6.62813035887666e-05,0.0005328828119672835,-0.018633034080266953,0.006297456566244364,-0.03411637991666794,-0.007991050370037556,-0.2500324547290802,-0.0020859292708337307,0.009792476892471313,-0.15725994110107422,0.048107922077178955,0.0,0.0,0.0,0.00026532940682955086,-0.013846679590642452,-0.0,0.0,0.0,0.0,0.0029345154762268066,0.07324808835983276,0.0021196019370108843,18331.0,4088.0,8146.0,17624.0,0.7740910053253174,0.02659345418214798,0.1358826756477356,0.7129591107368469,0.0,0.0,0.0,0.0,17531.0,6877.0,6430.0,18308.0,1.7845326662063599,0.005328239631683186,0.24589021183906748,-0.010152099876014143,0.059539906680583954,0.000877644051797688,0.0
235,5,-0.00018979540618602186,-3.7058231100672856e-05,0.00048038281966000795,-0.006193773355334997,-0.0009877862175926566,-0.007346553262323141,-0.007968852296471596,-0.24683257937431335,-0.0023194316308945417,0.02820414863526821,-0.4148472249507904,0.018592558801174164,0.0,0.0,0.0,-0.0070915305987000465,-0.016145065426826477,-0.0,0.0,0.0,0.0,0.0024089966900646687,0.06777934730052948,-0.0006504168850369751,17454.0,7104.0,7491.0,17780.0,0.6986576914787292,0.09995786100625992,0.11264597624540329,0.7262148261070251,0.0,0.0,0.0,0.0,17420.0,7204.0,8575.0,17306.0,1.8245521783828735,0.0066763621857926555,0.24131321918336354,-0.009794785814482159,0.0709770917892456,-0.023982707411050797,0.0
241,5,-0.0004433449648786336,-8.681346662342548e-05,0.0008793834713287652,-0.03290345519781113,0.0055755130015313625,-0.050818704068660736,-0.007968852296471596,-0.24683257937431335,-0.0023194316308945417,0.02820414863526821,-0.4148472249507904,0.018592558801174164,0.0,0.0,0.0,-0.0070915305987000465,-0.016145065426826477,-0.0,0.0,0.0,0.0,0.0024089966900646687,0.06777934730052948,-0.0006504168850369751,17454.0,7104.0,7491.0,17780.0,0.6986576914787292,0.09995786100625992,0.11264597624540329,0.7262148261070251,0.0,0.0,0.0,0.0,17420.0,7204.0,8575.0,17306.0,1.8245521783828735,0.0011935017657596148,0.23156390585737677,-0.010933534979375494,0.0709770917892456,-0.023982707411050797,0.0
246,5,-0.0005711584817618132,-6.661967927357182e-05,0.0009819603292271495,-0.028499003499746323,-0.00019304841407574713,-0.03263670206069946,-0.007537181954830885,-0.2408178448677063,-0.00215487414970994,0.04717455804347992,-1.0993748903274536,-0.04812248423695564,0.0,0.0,0.0,-0.005891633220016956,-0.02666526846587658,-0.0,0.0,0.0,0.0,0.001442393404431641,0.04567971080541611,-0.0004111171292606741,16411.0,11045.0,10363.0,17177.0,0.6139227151870728,0.2645393908023834,0.23047849535942078,0.6755921244621277,0.0,0.0,0.0,0.0,15757.0,11952.0,10749.0,16961.0,1.9585906267166138,0.006944199353979654,0.22462217818541427,-0.011271046500378919,0.1258295178413391,-0.021388649940490723,0.0
251,5,-0.0008350842981599271,-8.946560410549864e-05,0.0012910387013107538,-0.04307069629430771,0.0026642908342182636,-0.05014409124851227,-0.007537181954830885,-0.2408178448677063,-0.00215487414970994,0.04717455804347992,-1.0993748903274536,-0.04812248423695564,0.0,0.0,0.0,-0.005891633220016956,-0.02666526846587658,-0.0,0.0,0.0,0.0,0.001442393404431641,0.04567971080541611,-0.0004111171292606741,16411.0,11045.0,10363.0,17177.0,0.6139227151870728,0.2645393908023834,0.23047849535942078,0.6755921244621277,0.0,0.0,0.0,0.0,15757.0,11952.0,10749.0,16961.0,1.9585906267166138,0.00565556023192884,0.2128810193570711,-0.011735540499849149,0.1258295178413391,-0.021388649940490723,0.0
256,5,-0.0011436671484261751,-6.514542474178597e-05,0.001596732996404171,-0.05425822362303734,-0.0018527052598074079,-0.05674094334244728,-0.007008926477283239,-0.2216239720582962,-0.002165609272196889,0.05545225366950035,-2.1026179790496826,0.012827059254050255,0.0,0.0,0.0,-0.002754146233201027,-0.03356628865003586,-0.0,0.0,0.0,0.0,-0.0007461752975359559,-0.023143267259001732,-0.0006274934858083725,15343.0,13183.0,13103.0,15216.0,0.5329160094261169,0.3864862322807312,0.38151389360427856,0.523635983467102,0.0,0.0,0.0,0.0,14663.0,13972.0,13904.0,14461.0,2.054161787033081,0.00783832695620656,0.2009460331793648,-0.01158780171987839,0.16611416637897491,-0.010486466810107231,0.0
261,5,-0.0015768896555528045,-7.852690760046244e-05,0.001989312469959259,-0.07368999719619751,0.0008646959322504699,-0.06980592012405396,-0.007008926477283239,-0.2216239720582962,-0.002165609272196889,0.05545225366950035,-2.1026179790496826,0.012827059254050255,0.0,0.0,0.0,-0.002754146233201027,-0.03356628865003586,-0.0,0.0,0.0,0.0,-0.0007461752975359559,-0.023143267259001732,-0.0006274934858083725,15343.0,13183.0,13103.0,15216.0,0.5329160094261169,0.3864862322807312,0.38151389360427856,0.523635983467102,0.0,0.0,0.0,0.0,14663.0,13972.0,13904.0,14461.0,2.054161787033081,0.0046904032926902706,0.18394687902178658,-0.011548378890634698,0.16611416637897491,-0.010486466810107231,0.0
266,5,-0.002045297995209694,-0.00011771594290621579,0.00247396994382143,-0.08568499237298965,0.005048563238233328,-0.08608125150203705,-0.006447668187320232,-0.19998015463352203,-0.0020946913864463568,0.06562638282775879,-3.3292365074157715,-0.008356533944606781,0.0,0.0,0.0,-0.0008517121314071119,-0.05079154297709465,-0.0,0.0,0.0,0.0,0.0003964222560171038,-0.06257224828004837,-0.00013145909179002047,12764.0,16559.0,16140.0,13068.0,0.3607516586780548,0.6256471276283264,0.5928639769554138,0.3793279230594635,0.0,0.0,0.0,0.0,11827.0,17217.0,17054.0,11848.0,2.329817771911621,0.0006771150283278524,0.16117820895217994,-0.011754141616617534,0.28502199053764343,-0.0036780976224690676,0.0
271,5,-0.002751661231741309,-0.0002086177992168814,0.0029256718698889017,-0.11903758347034454,0.012927648611366749,-0.08863674104213715,-0.006447668187320232,-0.19998015463352203,-0.0020946913864463568,0.06562638282775879,-3.3292365074157715,-0.008356533944606781,0.0,0.0,0.0,-0.0008517121314071119,-0.05079154297709465,-0.0,0.0,0.0,0.0,0.0003964222560171038,-0.06257224828004837,-0.00013145909179002047,12764.0,16559.0,16140.0,13068.0,0.3607516586780548,0.6256471276283264,0.5928639769554138,0.3793279230594635,0.0,0.0,0.0,0.0,11827.0,17217.0,17054.0,11848.0,2.329817771911621,-0.009496588676888214,0.14098262437839154,-0.014168623734707534,0.28502199053764343,-0.0036780976224690676,0.0
276,5,-0.003312378888949752,-8.844984404277056e-05,0.0033345557749271393,-0.11490116268396378,-0.009249095804989338,-0.08452076464891434,-0.006447668187320232,-0.19998015463352203,-0.0020946913864463568,0.06562638282775879,-3.3292365074157715,-0.008356533944606781,0.0,0.0,0.0,-0.009920657612383366,-0.0710294172167778,-0.0,0.0,0.0,0.0,0.0003964222560171038,-0.06257224828004837,-0.00013145909179002047,12764.0,16559.0,16140.0,13068.0,0.3607516586780548,0.6256471276283264,0.5928639769554138,0.3793279230594635,0.0,0.0,0.0,0.0,11827.0,17217.0,17054.0,11848.0,2.6990549564361572,-0.0020402966629497047,0.11710365647857385,-0.013256500894065658,0.46154630184173584,-0.04963039979338646,0.0
281,5,-0.0040031117387115955,-6.436604599002749e-05,0.00379772437736392,-0.1288483738899231,-0.006589693948626518,-0.08938853442668915,-0.005814122036099434,-0.1525888293981552,-0.001813628594391048,0.03214471414685249,-4.553934574127197,-0.01636637933552265,0.0,0.0,0.0,-0.009920657612383366,-0.0710294172167778,-0.0,0.0,0.0,0.0,0.0020473410841077566,-0.11542300134897232,-8.314278238685802e-05,9555.0,18952.0,18811.0,10021.0,0.19315887987613678,0.8297742605209351,0.8169306516647339,0.21429799497127533,0.0,0.0,0.0,0.0,7362.0,19783.0,19335.0,9093.0,2.6990549564361572,-0.003571358318468012,0.08666442757266786,-0.012915833944285556,0.46154630184173584,-0.04963039979338646,0.0
286,5,-0.004770912230014801,-5.009628148400225e-05,0.004346356261521578,-0.14367541670799255,-0.004348249174654484,-0.10159126669168472,-0.005814122036099434,-0.1525888293981552,-0.001813628594391048,0.03214471414685249,-4.553934574127197,-0.01636637933552265,0.0,0.0,0.0,0.004731835797429085,-0.0755867063999176,-0.0,0.0,0.0,0.0,0.0020473410841077566,-0.11542300134897232,-8.314278238685802e-05,9555.0,18952.0,18811.0,10021.0,0.19315887987613678,0.8297742605209351,0.8169306516647339,0.21429799497127533,0.0,0.0,0.0,0.0,7362.0,19783.0,19335.0,9093.0,2.7766013145446777,-0.009147290306427655,0.05237191831715018,-0.011881805197929645,0.5052337646484375,0.024352794513106346,0.0
291,5,-0.005513106007128954,-9.022643098433036e-06,0.0047460817731916904,-0.14653345942497253,-0.006668135989457369,-0.08860356360673904,-0.005915438290685415,-0.11181849241256714,-0.001686102943494916,-0.02530055120587349,-5.606878280639648,0.025331493467092514,0.0,0.0,0.0,0.004731835797429085,-0.0755867063999176,-0.0,0.0,0.0,0.0,-0.00040389798232354224,-0.1535140424966812,-0.0003821958089247346,1495.0,24342.0,24220.0,1495.0,-0.04295249283313751,1.39479398727417,1.3804287910461426,-0.03321543335914612,0.0,0.0,0.0,0.0,1495.0,22244.0,22617.0,1495.0,2.7766013145446777,-0.008649978529008425,0.01985596050287852,-0.011287780711341625,0.5052337646484375,0.024352794513106346,0.0
296,5,-0.006423105485737324,-3.164324152749032e-05,0.005283246748149395,-0.16781331598758698,4.7217450628522784e-05,-0.09990119934082031,-0.005915438290685415,-0.11181849241256714,-0.001686102943494916,-0.02530055120587349,-5.606878280639648,0.025331493467092514,0.0,0.0,0.0,0.004629111848771572,-0.0828506126999855,-0.0,0.0,0.0,0.0,-0.00040389798232354224,-0.1535140424966812,-0.0003821958089247346,1495.0,24342.0,24220.0,1495.0,-0.04295249283313751,1.39479398727417,1.3804287910461426,-0.03321543335914612,0.0,0.0,0.0,0.0,1495.0,22244.0,22617.0,1495.0,2.9079699516296387,-0.014818706022443178,-0.013530524527101337,-0.012339246759521642,0.5798770785331726,0.024951308965682983,0.0
301,5,-0.007227314170449972,6.36730037513189e-05,0.0057527762837708,-0.16363033652305603,-0.011419062502682209,-0.09630400687456131,-0.006326371803879738,-0.04029116407036781,-0.001056414213962853,-0.05984696000814438,-6.354636192321777,0.010530872270464897,0.0,0.0,0.0,0.004629111848771572,-0.0828506126999855,-0.0,0.0,0.0,0.0,0.003847519401460886,-0.1908988058567047,0.0017016212223097682,1495.0,25361.0,26105.0,1495.0,-0.16457359492778778,1.5180584192276,1.611360788345337,-0.18824417889118195,0.0,0.0,0.0,0.0,1495.0,24695.0,24746.0,1495.0,2.9079699516296387,-0.013195009662751554,-0.05049951959001411,-0.01028011742999044,0.5798770785331726,0.024951308965682983,0.0
307,5,-0.008069713599979877,7.235605880850926e-05,0.006302943453192711,-0.16654013097286224,-0.005609591491520405,-0.10454170405864716,-0.006326371803879738,-0.04029116407036781,-0.001056414213962853,-0.05984696000814438,-6.354636192321777,0.010530872270464897,0.0,0.0,0.0,0.007688118144869804,-0.08964304625988007,-0.0,0.0,0.0,0.0,0.003847519401460886,-0.1908988058567047,0.0017016212223097682,1495.0,25361.0,26105.0,1495.0,-0.16457359492778778,1.5180584192276,1.611360788345337,-0.18824417889118195,0.0,0.0,0.0,0.0,1495.0,24695.0,24746.0,1495.0,3.029244899749756,-0.012113224675288262,-0.08539084209794892,-0.01004209366625432,0.6534438133239746,0.04316733032464981,0.0
312,5,-0.009001385420560837,-2.886240508814808e-05,0.006910029333084822,-0.17841656506061554,0.009902379475533962,-0.11466698348522186,-0.006949941627681255,0.0936502143740654,0.00032871137955226004,0.06475641578435898,-6.962532043457031,0.020943213254213333,0.0,0.0,0.0,0.007688118144869804,-0.08964304625988007,-0.0,0.0,0.0,0.0,0.0024532030802220106,-0.20000000298023224,0.0010705114109441638,1495.0,26051.0,26545.0,1495.0,-0.16877028346061707,1.6044591665267944,1.6677076816558838,-0.1954265832901001,0.0,0.0,0.0,0.0,1495.0,25986.0,26097.0,1495.0,3.029244899749756,-0.01960740856411455,-0.12864624236086528,-0.013088178450424719,0.6534438133239746,0.04316733032464981,0.0
317,5,-0.009964004158973694,-1.4475072021014057e-05,0.007434495259076357,-0.1868809014558792,0.002234471496194601,-0.1088026687502861,-0.006949941627681255,0.0936502143740654,0.00032871137955226004,0.06475641578435898,-6.962532043457031,0.020943213254213333,0.0,0.0,0.0,-0.006435542367398739,-0.095536008477211,-0.0,0.0,0.0,0.0,0.0024532030802220106,-0.20000000298023224,0.0010705114109441638,1495.0,26051.0,26545.0,1495.0,-0.16877028346061707,1.6044591665267944,1.6677076816558838,-0.1954265832901001,0.0,0.0,0.0,0.0,1495.0,25986.0,26097.0,1495.0,3.126706123352051,-0.015576764230761405,-0.16501448795354778,-0.01146818694005505,0.7186810970306396,-0.037297122180461884,0.0
322,5,-0.010858465917408466,3.801921775448136e-05,0.007674155756831169,-0.18208780884742737,-0.005405526142567396,-0.07228035479784012,-0.0062021915800869465,0.14973625540733337,0.0008705147192813456,0.10167728364467621,-7.1035237312316895,0.026596173644065857,0.0,0.0,0.0,-0.006435542367398739,-0.095536008477211,-0.0,0.0,0.0,0.0,0.0016414695419371128,-0.20000000298023224,0.0011750225676223636,1495.0,26282.0,26785.0,1495.0,-0.13543009757995605,1.6339104175567627,1.6988937854766846,-0.16812929511070251,0.0,0.0,0.0,0.0,1495.0,26275.0,26323.0,1495.0,3.126706123352051,-0.01130734398587363,-0.1961298121040984,-0.009910075968959885,0.7186810970306396,-0.037297122180461884,0.0
327,5,-0.011874635703861713,-1.5092551620909944e-05,0.008086089976131916,-0.19477549195289612,0.004211201798170805,-0.07834427803754807,-0.0062021915800869465,0.14973625540733337,0.0008705147192813456,0.10167728364467621,-7.1035237312316895,0.026596173644065857,0.0,0.0,0.0,0.0034957868047058582,-0.09769506007432938,-0.0,0.0,0.0,0.0,0.0016414695419371128,-0.20000000298023224,0.0011750225676223636,1495.0,26282.0,26785.0,1495.0,-0.13543009757995605,1.6339104175567627,1.6988937854766846,-0.16812929511070251,0.0,0.0,0.0,0.0,1495.0,26275.0,26323.0,1495.0,3.159968614578247,-0.011796444725820872,-0.23336057577083716,-0.010176768495720034,0.7427002191543579,0.02047550678253174,0.0
332,5,-0.012887324206531048,-4.298490239307284e-06,0.00842650979757309,-0.1994328647851944,0.00038919338840059936,-0.07218801975250244,-0.0052396394312381744,0.2350943684577942,0.001349983736872673,0.0898696780204773,-7.189352512359619,0.030402855947613716,0.0,0.0,0.0,0.0034957868047058582,-0.09769506007432938,-0.0,0.0,0.0,0.0,0.0031677864026278257,-0.20000000298023224,-0.0008389826980419457,1495.0,26403.0,26666.0,1495.0,-0.1557958722114563,1.6493678092956543,1.6834365129470825,-0.14776352047920227,0.0,0.0,0.0,0.0,1495.0,26394.0,26674.0,1495.0,3.159968614578247,-0.010672591905158887,-0.26926403463940923,-0.010534050266756979,0.7427002191543579,0.02047550678253174,0.0
337,5,-0.013829519972205162,-0.00023415416944772005,0.008728849701583385,-0.19283655285835266,0.027738358825445175,-0.06515603512525558,-0.0052396394312381744,0.2350943684577942,0.001349983736872673,0.0898696780204773,-7.189352512359619,0.030402855947613716,0.0,0.0,0.0,0.0034957868047058582,-0.09769506007432938,-0.0,0.0,0.0,0.0,0.0031677864026278257,-0.20000000298023224,-0.0008389826980419457,1495.0,26403.0,26666.0,1495.0,-0.1557958722114563,1.6493678092956543,1.6834365129470825,-0.14776352047920227,0.0,0.0,0.0,0.0,1495.0,26394.0,26674.0,1495.0,3.159968614578247,-0.023468969924647497,-0.3168960873374925,-0.017102570423561215,0.7427002191543579,0.02047550678253174,0.0
342,5,-0.014912547543644905,-0.0002590839867480099,0.009026643820106983,-0.20709800720214844,0.014086922630667686,-0.06179767847061157,-0.005075990688055754,0.2926531732082367,0.002234912244603038,0.03531790152192116,-7.266313552856445,-0.019567839801311493,0.0,0.0,0.0,-0.017507093027234077,-0.10240986198186874,-0.0,0.0,0.0,0.0,-0.0015347739681601524,-0.20000000298023224,0.000988966436125338,1495.0,26670.0,26902.0,1495.0,-0.12113223969936371,1.6839592456817627,1.7142069339752197,-0.11706528812646866,0.0,0.0,0.0,0.0,1495.0,26421.0,27020.0,1495.0,3.2455992698669434,-0.02059868524891496,-0.35300868723452317,-0.01747218280009265,0.7993971705436707,-0.10531183332204819,0.0
347,5,-0.016163533553481102,-0.00032098943484015763,0.00938876811414957,-0.23295755684375763,0.013063421472907066,-0.06817405670881271,-0.005075990688055754,0.2926531732082367,0.002234912244603038,0.03531790152192116,-7.266313552856445,-0.019567839801311493,0.0,0.0,0.0,-0.017507093027234077,-0.10240986198186874,-0.0,0.0,0.0,0.0,-0.0015347739681601524,-0.20000000298023224,0.000988966436125338,1495.0,26670.0,26902.0,1495.0,-0.12113223969936371,1.6839592456817627,1.7142069339752197,-0.11706528812646866,0.0,0.0,0.0,0.0,1495.0,26421.0,27020.0,1495.0,3.2455992698669434,-0.01761590119864998,-0.38507783655851086,-0.017134062215826716,0.9627445936203003,-0.050759539008140564,0.0
352,5,-0.017143139615654945,-0.00030827950104139745,0.009545350447297096,-0.21073567867279053,0.0037001767195761204,-0.046059492975473404,-0.005075990688055754,0.2926531732082367,0.002234912244603038,0.03531790152192116,-7.266313552856445,-0.019567839801311493,0.0,0.0,0.0,-0.007990275509655476,-0.11684387177228928,-0.0,0.0,0.0,0.0,-0.0003334905777592212,-0.20000000298023224,0.0026141731068491936,1495.0,26122.0,27434.0,1495.0,-0.0227268785238266,1.6134523153305054,1.7847137451171875,-0.21547064185142517,0.0,0.0,0.0,0.0,1495.0,26831.0,26741.0,1495.0,3.427328586578369,-0.0153026984923646,-0.42632193499190024,-0.016726543452354633,0.9627445936203003,-0.050759539008140564,0.0
357,5,-0.018378691747784615,-0.00035712457611225545,0.00980729516595602,-0.23256060481071472,0.007341481279581785,-0.049857109785079956,-0.005075990688055754,0.2926531732082367,0.002234912244603038,0.03531790152192116,-7.266313552856445,-0.019567839801311493,0.0,0.0,0.0,-0.007990275509655476,-0.11684387177228928,-0.0,0.0,0.0,0.0,-0.0003334905777592212,-0.20000000298023224,0.0026141731068491936,1495.0,26122.0,27434.0,1495.0,-0.0227268785238266,1.6134523153305054,1.7847137451171875,-0.21547064185142517,0.0,0.0,0.0,0.0,1495.0,26831.0,26741.0,1495.0,3.427328586578369,-0.011293728355913597,-0.46010865466698436,-0.015375225499242931,0.9627445936203003,-0.050759539008140564,0.0
362,5,-0.019395707175135612,-0.0002929182955995202,0.00993129052221775,-0.21506589651107788,-0.004768163897097111,-0.03482229635119438,-0.004749735817313194,0.38032469153404236,0.00337549252435565,0.08821506053209305,-7.406151294708252,0.1335638016462326,0.0,0.0,0.0,-0.004630668554455042,-0.11781204491853714,-0.0,0.0,0.0,0.0,-0.0052076163701713085,-0.20000000298023224,-0.00020243320614099503,1495.0,27157.0,26740.0,1495.0,-0.08024528622627258,1.7479381561279297,1.6930432319641113,-0.11513690650463104,0.0,0.0,0.0,0.0,1495.0,26673.0,27222.0,1495.0,3.4372076988220215,-0.010150893254671427,-0.5021576372197304,-0.013908104555806268,0.9735037088394165,-0.029502255842089653,0.0
367,5,-0.0205527413636446,-0.00029895876650698483,0.0100783696398139,-0.2248704731464386,-0.0011824080720543861,-0.03157838433980942,-0.004749735817313194,0.38032469153404236,0.00337549252435565,0.08821506053209305,-7.406151294708252,0.1335638016462326,0.0,0.0,0.0,-0.004630668554455042,-0.11781204491853714,-0.0,0.0,0.0,0.0,-0.0052076163701713085,-0.20000000298023224,-0.00020243320614099503,1495.0,27157.0,26740.0,1495.0,-0.08024528622627258,1.7479381561279297,1.6930432319641113,-0.11513690650463104,0.0,0.0,0.0,0.0,1495.0,26673.0,27222.0,1495.0,3.4372076988220215,-0.0086440315059024,-0.5415209315946922,-0.01322412014331825,0.9735037088394165,-0.029502255842089653,0.0
373,5,-0.021754372864961624,-0.0002793402527458966,0.01020555105060339,-0.23414398729801178,-0.002827185206115246,-0.02789311110973358,-0.0031520749907940626,0.5312150716781616,0.004619879182428122,0.10582663863897324,-7.682541370391846,-0.008918210864067078,0.0,0.0,0.0,0.0004387605295050889,-0.11636079102754593,-0.0,0.0,0.0,0.0,-0.003683761926367879,-0.20000000298023224,0.0016711258795112371,1495.0,27204.0,27381.0,1495.0,-0.012140674516558647,1.7541552782058716,1.7776907682418823,-0.09237685799598694,0.0,0.0,0.0,0.0,4358.0,26950.0,27631.0,1495.0,3.4197585582733154,-0.008884186007195718,-0.5807918379709819,-0.013043978099739924,0.9566949605941772,0.002781195566058159,0.0
378,5,-0.022966595366597176,-0.00026191462529823184,0.01021150778979063,-0.2391243278980255,-0.0032219502609223127,-0.011872108094394207,-0.0031520749907940626,0.5312150716781616,0.004619879182428122,0.10582663863897324,-7.682541370391846,-0.008918210864067078,0.0,0.0,0.0,0.0004387605295050889,-0.11636079102754593,-0.0,0.0,0.0,0.0,-0.003683761926367879,-0.20000000298023224,0.0016711258795112371,1495.0,27204.0,27381.0,1495.0,-0.012140674516558647,1.7541552782058716,1.7776907682418823,-0.09237685799598694,0.0,0.0,0.0,0.0,4358.0,26950.0,27631.0,1495.0,3.4197585582733154,-0.005840762435512111,-0.6204390759200347,-0.00998478327815584,0.9566949605941772,0.002781195566058159,0.0
383,5,-0.02419682964682579,-0.0002501096168998629,0.010130580514669418,-0.2432778775691986,-0.0027053796220570803,0.004962494596838951,-0.0020307281520217657,0.5931583642959595,0.004669474437832832,0.1446305364370346,-7.8007988929748535,0.02184399589896202,0.0,0.0,0.0,0.0016462382627651095,-0.12220612913370132,-0.0,0.0,0.0,0.0,-0.003081927541643381,-0.20000000298023224,0.0005145823233760893,1495.0,27316.0,27307.0,1495.0,-0.023792829364538193,1.7689650058746338,1.7678207159042358,-0.07578515261411667,0.0,0.0,0.0,0.0,1495.0,27381.0,27204.0,1495.0,3.4843881130218506,-0.002658468035328989,-0.6566705120114252,-0.007850152619431488,1.0235034227371216,0.010632304474711418,0.0
388,5,-0.02535521611571312,-0.0002605236950330436,0.010124010033905506,-0.2363174557685852,0.00016753780073486269,0.002773443702608347,-0.0020307281520217657,0.5931583642959595,0.004669474437832832,0.1446305364370346,-7.8007988929748535,0.02184399589896202,0.0,0.0,0.0,0.0016462382627651095,-0.12220612913370132,-0.0,0.0,0.0,0.0,-0.003081927541643381,-0.20000000298023224,0.0005145823233760893,1495.0,27316.0,27307.0,1495.0,-0.023792829364538193,1.7689650058746338,1.7678207159042358,-0.07578515261411667,0.0,0.0,0.0,0.0,1495.0,27381.0,27204.0,1495.0,3.4843881130218506,-0.004400117352391311,-0.7027989258576127,-0.009468510354873734,1.0235034227371216,0.010632304474711418,0.0
393,5,-0.026663009077310562,-0.00019846345821861178,0.00981353223323822,-0.2514621317386627,-0.007380213122814894,0.0383666530251503,-0.0009990392718464136,0.6552409529685974,0.004970760550349951,0.13651131093502045,-7.705134868621826,-0.06619894504547119,0.0,0.0,0.0,-0.0003205231041647494,-0.12244546413421631,-0.0,0.0,0.0,0.0,-0.0013119698269292712,-0.20000000298023224,-6.329234020086005e-05,1495.0,27438.0,27118.0,1495.0,-0.06851247698068619,1.785275936126709,1.742785096168518,-0.0397900715470314,0.0,0.0,0.0,0.0,1558.0,27177.0,27445.0,1495.0,3.4867820739746094,0.005765771569399641,-0.7335618785128217,-0.0005438140076180725,1.0262038707733154,-0.0020715370774269104,-0.0
398,5,-0.027872608974575996,-0.00018378996173851192,0.009591473266482353,-0.2457370162010193,-0.004712904803454876,0.04199380800127983,-0.0009990392718464136,0.6552409529685974,0.004970760550349951,0.13651131093502045,-7.705134868621826,-0.06619894504547119,0.0,0.0,0.0,-0.0003205231041647494,-0.12244546413421631,-0.0,0.0,0.0,0.0,-0.0013119698269292712,-0.20000000298023224,-6.329234020086005e-05,1495.0,27438.0,27118.0,1495.0,-0.06851247698068619,1.785275936126709,1.742785096168518,-0.0397900715470314,0.0,0.0,0.0,0.0,1558.0,27177.0,27445.0,1495.0,3.4867820739746094,0.009536961339577679,-0.7676117099485713,0.00216966505989859,1.0262038707733154,-0.0020715370774269104,-0.0
403,5,-0.029137184843420982,-0.00014335846935864538,0.009394241496920586,-0.25004392862319946,-0.006736941635608673,0.04046526923775673,-0.0009990392718464136,0.6552409529685974,0.004970760550349951,0.13651131093502045,-7.705134868621826,-0.06619894504547119,0.0,0.0,0.0,0.002545470604673028,-0.12680445611476898,-0.0,0.0,0.0,0.0,-0.0013119698269292712,-0.20000000298023224,-6.329234020086005e-05,1495.0,27438.0,27118.0,1495.0,-0.06851247698068619,1.785275936126709,1.742785096168518,-0.0397900715470314,0.0,0.0,0.0,0.0,1558.0,27177.0,27445.0,1495.0,3.5292136669158936,0.013837363494428956,-0.8029936745521382,0.005868771813724674,1.0754704475402832,0.016651514917612076,-0.0
408,5,-0.030361361801624298,-3.1470146495848894e-05,0.009142294526100159,-0.24691876769065857,-0.016121376305818558,0.046419788151979446,0.0009933216497302055,0.746737003326416,0.0046806070022284985,0.16962012648582458,-7.586203575134277,0.00029336995794437826,0.0,0.0,0.0,0.002545470604673028,-0.12680445611476898,-0.0,0.0,0.0,0.0,-0.0026021613739430904,-0.20000000298023224,0.0012656201142817736,1495.0,27308.0,27491.0,1495.0,-0.002498731017112732,1.7679613828659058,1.7924144268035889,-0.07348904013633728,0.0,0.0,0.0,0.0,1495.0,27503.0,27052.0,1495.0,3.5292136669158936,0.02030382214096667,-0.8249753720904542,0.012626206582176962,1.0754704475402832,0.016651514917612076,-0.0
413,5,-0.03158358484506607,-2.457160189806018e-05,0.008896756917238235,-0.24543441832065582,-0.007276375312358141,0.048032455146312714,0.0009933216497302055,0.746737003326416,0.0046806070022284985,0.16962012648582458,-7.586203575134277,0.00029336995794437826,0.0,0.0,0.0,0.00917255599051714,-0.12839168310165405,-0.0,0.0,0.0,0.0,-0.0026021613739430904,-0.20000000298023224,0.0012656201142817736,1495.0,27308.0,27491.0,1495.0,-0.002498731017112732,1.7679613828659058,1.7924144268035889,-0.07348904013633728,0.0,0.0,0.0,0.0,1495.0,27503.0,27052.0,1495.0,3.5450310707092285,0.021834577191173543,-0.8569592448700313,0.01736824623037941,1.0936963558197021,0.06027093157172203,-0.0
418,5,-0.03303831070661545,-0.00044015696039423347,0.009497706778347492,-0.2727404534816742,0.04695969447493553,-0.05290104076266289,0.0028579221107065678,0.8069322109222412,0.004104972817003727,0.16311244666576385,-7.482848167419434,-0.023432182148098946,0.0,0.0,0.0,0.00917255599051714,-0.12839168310165405,-0.0,0.0,0.0,0.0,-0.0032045322004705667,-0.20000000298023224,-0.00020667204807978123,1495.0,27536.0,27272.0,1495.0,-0.027549616992473602,1.7984163761138916,1.763156533241272,-0.047241173684597015,0.0,0.0,0.0,0.0,1495.0,27519.0,27280.0,1495.0,3.5450310707092285,0.044489014179401105,-0.8666713494737308,0.03778738859464257,1.0936963558197021,0.06027093157172203,-0.0
423,5,-0.03425562009215355,-0.00038411852438002825,0.009141851216554642,-0.25517338514328003,0.012059264816343784,0.021542219445109367,0.0028579221107065678,0.8069322109222412,0.004104972817003727,0.16311244666576385,-7.482848167419434,-0.023432182148098946,0.0,0.0,0.0,-0.026552798226475716,-0.13836173713207245,-0.0,0.0,0.0,0.0,-0.0032045322004705667,-0.20000000298023224,-0.00020667204807978123,1495.0,27536.0,27272.0,1495.0,-0.027549616992473602,1.7984163761138916,1.763156533241272,-0.047241173684597015,0.0,0.0,0.0,0.0,1495.0,27519.0,27280.0,1495.0,3.62819766998291,0.04675693037407559,-0.904168798607773,0.040284841809287424,1.205366611480713,-0.1785324066877365,0.0
428,5,-0.03545648604631424,-0.0003483926993794739,0.008780822157859802,-0.24617327749729156,0.00053660839330405,0.05194036662578583,0.0064163231290876865,0.8948403000831604,0.0016939195338636637,0.10010558366775513,-7.186783790588379,-0.12366995215415955,0.0,0.0,0.0,-0.026552798226475716,-0.13836173713207245,-0.0,0.0,0.0,0.0,-0.000350519607309252,-0.20000000298023224,-0.0029520054813474417,1495.0,28049.0,26905.0,5002.0,-0.09757495671510696,1.8680745363235474,1.7147141695022583,0.043999962508678436,0.0,0.0,0.0,0.0,1495.0,27618.0,27189.0,1495.0,3.62819766998291,0.046975486083898454,-0.9400133565946599,0.04161438950181661,1.205366611480713,-0.1785324066877365,0.0
433,5,-0.03661828488111496,-0.0002792324230540544,0.008306549862027168,-0.23788529634475708,-0.008084590546786785,0.07768882066011429,0.0064163231290876865,0.8948403000831604,0.0016939195338636637,0.10010558366775513,-7.186783790588379,-0.12366995215415955,0.0,0.0,0.0,-0.026552798226475716,-0.13836173713207245,-0.0,0.0,0.0,0.0,-0.000350519607309252,-0.20000000298023224,-0.0029520054813474417,1495.0,28049.0,26905.0,5002.0,-0.09757495671510696,1.8680745363235474,1.7147141695022583,0.043999962508678436,0.0,0.0,0.0,0.0,1495.0,27618.0,27189.0,1495.0,3.62819766998291,0.04917358973625932,-0.9759917213880722,0.043384839302692615,1.0944777727127075,0.028767775744199753,-0.0
439,5,-0.037814803421497345,-0.0001783788320608437,0.007992147468030453,-0.2387361228466034,-0.015336267650127411,0.0688038170337677,0.009294793009757996,0.9501274228096008,-0.001397775486111641,-0.011913211084902287,-6.685184001922607,-0.2911875247955322,0.0,0.0,0.0,0.004378585144877434,-0.12849567830562592,-0.0,0.0,0.0,0.0,0.0037172946613281965,-0.20000000298023224,-0.006052517332136631,1495.0,28620.0,26358.0,8935.0,-0.21239826083183289,1.9470127820968628,1.6436846256256104,0.16673195362091064,0.0,0.0,0.0,0.0,1495.0,28827.0,26131.0,9680.0,3.5445938110351562,0.045590321825808994,-1.0083633318101832,0.0433782319135573,1.0944777727127075,0.028767775744199753,-0.0
444,5,-0.04002461954951286,1.7508344171801582e-05,0.007119921967387199,-0.2205394208431244,-0.021961331367492676,0.08869832754135132,0.009294793009757996,0.9501274228096008,-0.001397775486111641,-0.011913211084902287,-6.685184001922607,-0.2911875247955322,0.0,0.0,0.0,0.004378585144877434,-0.12849567830562592,-0.0,0.0,0.0,0.0,0.0037172946613281965,-0.20000000298023224,-0.006052517332136631,1495.0,28620.0,26358.0,8935.0,-0.21239826083183289,1.9470127820968628,1.6436846256256104,0.16673195362091064,0.0,0.0,0.0,0.0,1495.0,28827.0,26131.0,9680.0,3.5445938110351562,0.04111007290968997,-1.0760690906808545,0.041324574334336804,1.0944777727127075,0.028767775744199753,-0.0
449,5,-0.04002461954951286,1.7508344171801582e-05,0.007119921967387199,-0.2205394208431244,-0.021961331367492676,0.08869832754135132,0.013773072510957718,1.0272172689437866,-0.007758858613669872,-0.1799159198999405,-6.306067943572998,-0.003992802929133177,0.0,0.0,0.0,0.012674485333263874,-0.12430306524038315,-0.0,0.0,0.0,0.0,-0.008416708558797836,-0.20000000298023224,-0.0030699248891323805,1495.0,28283.0,27037.0,2400.0,-0.009536933153867722,1.9002517461776733,1.732028841972351,0.0054539404809474945,0.0,0.0,0.0,0.0,3970.0,28024.0,27305.0,1495.0,3.509199380874634,0.04111007290968997,-1.0760690906808545,0.041324574334336804,1.048305630683899,0.08243768662214279,-0.0
454,5,-0.0410807803273201,0.00011835078475996852,0.006714632268995047,-0.21495479345321655,-0.02088562585413456,0.08411408960819244,0.013773072510957718,1.0272172689437866,-0.007758858613669872,-0.1799159198999405,-6.306067943572998,-0.003992802929133177,0.0,0.0,0.0,0.012674485333263874,-0.12430306524038315,-0.0,0.0,0.0,0.0,-0.008416708558797836,-0.20000000298023224,-0.0030699248891323805,1495.0,28283.0,27037.0,2400.0,-0.009536933153867722,1.9002517461776733,1.732028841972351,0.0054539404809474945,0.0,0.0,0.0,0.0,3970.0,28024.0,27305.0,1495.0,3.509199380874634,0.02915181807331671,-1.1081338690778895,0.03294410348726071,1.048305630683899,0.08243768662214279,-0.0
459,5,-0.04325132817029953,0.0005491405026987195,0.005392308346927166,-0.2147965133190155,-0.04701872542500496,0.13522370159626007,0.013210696168243885,1.0767589807510376,-0.009693783707916737,-0.3692130446434021,-6.122522354125977,-0.1158517524600029,0.0,0.0,0.0,0.012185641564428806,-0.12298312038183212,-0.0,0.0,0.0,0.0,0.003929372876882553,-0.20000000298023224,-0.00246987072750926,1495.0,27955.0,27062.0,6304.0,-0.12193484604358673,1.855204463005066,1.735274314880371,0.07604992389678955,0.0,0.0,0.0,0.0,1495.0,28350.0,26647.0,8264.0,3.4959347248077393,0.01751200270522818,-1.1887187292806674,0.03061431364430059,1.0333160161972046,0.07895883917808533,-0.0
464,5,-0.04424430802464485,0.0006543230847455561,0.004797409754246473,-0.20507584512233734,-0.03142939880490303,0.12547729909420013,0.013210696168243885,1.0767589807510376,-0.009693783707916737,-0.3692130446434021,-6.122522354125977,-0.1158517524600029,0.0,0.0,0.0,0.012185641564428806,-0.12298312038183212,-0.0,0.0,0.0,0.0,0.003929372876882553,-0.20000000298023224,-0.00246987072750926,1495.0,27955.0,27062.0,6304.0,-0.12193484604358673,1.855204463005066,1.735274314880371,0.07604992389678955,0.0,0.0,0.0,0.0,1495.0,28350.0,26647.0,8264.0,3.4959347248077393,0.020670754474169814,-1.2222706630368723,0.033511584301563264,1.0333160161972046,0.07895883917808533,-0.0
469,5,-0.045212868601083755,0.0007602404803037643,0.004203702788800001,-0.1982576549053192,-0.02528184838593006,0.12143578380346298,0.01565801538527012,1.1490528583526611,-0.01651540957391262,-0.2342219352722168,-6.1109538078308105,-0.0667128786444664,0.0,0.0,0.0,0.0188171174377203,-0.121136374771595,-0.0,0.0,0.0,0.0,0.005819583777338266,-0.20000000298023224,-0.005285682622343302,1495.0,28106.0,26769.0,7070.0,-0.16245213150978088,1.8758971691131592,1.6968843936920166,0.09886998683214188,0.0,0.0,0.0,0.0,1495.0,27667.0,27223.0,3537.0,3.4823765754699707,0.022687174083960232,-1.2569205679616815,0.034854044478032156,1.013824224472046,0.12144812941551208,-0.0
474,5,-0.046185653656721115,0.0008532722713425756,0.0035894187167286873,-0.19603729248046875,-0.021276557818055153,0.12228840589523315,0.01565801538527012,1.1490528583526611,-0.01651540957391262,-0.2342219352722168,-6.1109538078308105,-0.0667128786444664,0.0,0.0,0.0,0.0188171174377203,-0.121136374771595,-0.0,0.0,0.0,0.0,0.005819583777338266,-0.20000000298023224,-0.005285682622343302,1495.0,28106.0,26769.0,7070.0,-0.16245213150978088,1.8758971691131592,1.6968843936920166,0.09886998683214188,0.0,0.0,0.0,0.0,1495.0,27667.0,27223.0,3537.0,3.4823765754699707,0.02178986713624519,-1.2890652290359643,0.03445294534558631,1.013824224472046,0.12144812941551208,-0.0
