timestamp,dt,pos_x,pos_y,pos_z,vel_x,vel_y,vel_z,roll,pitch,yaw,agv_x,agv_y,agv_z,x_ref,y_ref,z_ref,roll_ref,pitch_ref,yaw_ref,x_vel_ref,y_vel_ref,z_vel_ref,x_torque,y_torque,z_torque,w0,w1,w2,w3,u0,u1,u2,u3,m0req,m1req,m2req,m3req,thrust0,thrust1,thrust2,thrust3,thrust_ref,roll_vicon,pitch_vicon,yaw_vicon,acc_x,acc_y,acc_z
5,5,0.0,0.0,0.0,-0.0002612526877783239,-0.001653223647736013,-0.0002961730060633272,-0.019558407366275787,-0.0617082342505455,0.007743529975414276,-0.00041512472671456635,-0.0009707216522656381,0.00018486288900021464,0.0,0.0,0.0,0.002036002930253744,-0.0002474939392413944,-0.0,0.0,0.0,0.0,0.004333100281655788,0.012275062501430511,0.0007160973036661744,1495.0,1495.0,1495.0,1495.0,0.0,0.0,0.0,0.0,0.0,0.0,0.0,0.0,1495.0,1495.0,1495.0,1495.0,1.6427687406539917,-0.02576191191266383,0.08443852222083206,-0.001533488740669276,0.0009796975646167994,0.006199588533490896,0.0
34,29,0.0,0.0,0.0,-0.0007724256138317287,0.00017866422422230244,-0.0011751878773793578,-0.019558407366275787,-0.0617082342505455,0.007743529975414276,-0.00041512472671456635,-0.0009707216522656381,0.00018486288900021464,0.0,0.0,0.0,0.002036002930253744,-0.0002474939392413944,-0.0,0.0,0.0,0.0,0.004333100281655788,0.012275062501430511,0.0007160973036661744,1495.0,1495.0,1495.0,1495.0,0.0,0.0,0.0,0.0,0.0,0.0,0.0,0.0,1495.0,1495.0,1495.0,1495.0,1.6427687406539917,-0.025408100663639056,0.08414729946111967,-0.0014835767306993805,0.0009796975646167994,0.006199588533490896,0.0
40,5,0.0,0.0,0.0,0.001239000353962183,0.0016992028104141355,0.00032857211772352457,-0.019558407366275787,-0.0617082342505455,0.007743529975414276,-0.00041512472671456635,-0.0009707216522656381,0.00018486288900021464,0.0,0.0,0.0,0.002036002930253744,-0.0002474939392413944,-0.0,0.0,0.0,0.0,0.004333100281655788,0.012275062501430511,0.0007160973036661744,1495.0,1495.0,1495.0,1495.0,0.0,0.0,0.0,0.0,0.0,0.0,0.0,0.0,1495.0,1495.0,1495.0,1495.0,1.6427687406539917,-0.025082032607462106,0.08426775718386872,-0.0015439818248875056,0.0009796975646167994,0.006199588533490896,0.0
45,5,0.0,0.0,0.0,-0.00099166517611593,-0.000321550527587533,0.00015241561050061136,-0.01954364776611328,-0.061704810708761215,0.007776816375553608,0.0009569196845404804,-1.3587300600192975e-05,0.0034231289755553007,0.0,0.0,0.0,-0.0020870952866971493,0.0011706461664289236,-0.0,0.0,0.0,0.0,0.0043047587387263775,0.012288215570151806,0.0009033821406774223,1495.0,1495.0,1495.0,1495.0,0.0,0.0,0.0,0.0,0.0,0.0,0.0,0.0,1495.0,1495.0,1495.0,1495.0,1.6471236944198608,-0.025968904202375152,0.08410784578959629,-0.0014421015338430532,-0.004646251443773508,-0.006372010335326195,0.0
53,8,0.0,0.0,0.0,-0.00099166517611593,-0.000321550527587533,0.00015241561050061136,-0.01954364776611328,-0.061704810708761215,0.007776816375553608,0.0009569196845404804,-1.3587300600192975e-05,0.0034231289755553007,0.0,0.0,0.0,-0.0020870952866971493,0.0011706461664289236,-0.0,0.0,0.0,0.0,0.0043047587387263775,0.012288215570151806,0.0009033821406774223,1495.0,1495.0,1495.0,1495.0,0.0,0.0,0.0,0.0,0.0,0.0,0.0,0.0,1495.0,1495.0,1495.0,1495.0,1.6471236944198608,-0.025968904202375152,0.08410784578959629,-0.0014421015338430532,-0.004646251443773508,-0.006372010335326195,0.0
64,11,0.0,0.0,0.0,0.00018542245379649103,0.0007868886459618807,0.003115888452157378,-0.019526949152350426,-0.061723701655864716,0.007767834700644016,0.00384855130687356,0.001167781068943441,-0.0034673979971557856,0.0,0.0,0.0,-0.0009742956608533859,0.00017660237790551037,-0.0,0.0,0.0,0.0,0.0043175783939659595,0.01232323981821537,0.0006804731674492359,14383.0,12056.0,13241.0,14434.0,0.46496087312698364,0.31932592391967773,0.3900843858718872,0.4683975577354431,0.0,0.0,0.0,0.0,1495.0,1495.0,1495.0,1495.0,1.6339747905731201,-0.02496070913810035,0.08414172271587729,-0.0018095272751202714,-0.0006953342235647142,-0.0029508324805647135,0.0
73,9,0.0,0.0,0.0,0.00219721719622612,-0.00032531790202483535,0.0010153244948014617,-0.019526949152350426,-0.061723701655864716,0.007767834700644016,0.00384855130687356,0.001167781068943441,-0.0034673979971557856,0.0,0.0,0.0,-0.0009742956608533859,0.00017660237790551037,-0.0,0.0,0.0,0.0,0.0043175783939659595,0.01232323981821537,0.0006804731674492359,14383.0,12056.0,13241.0,14434.0,0.46496087312698364,0.31932592391967773,0.3900843858718872,0.4683975577354431,0.0,0.0,0.0,0.0,1495.0,1495.0,1495.0,1495.0,1.6339747905731201,-0.02561226447973117,0.08379411041785732,-0.0014448639993800965,-0.0006953342235647142,-0.0029508324805647135,0.0
78,5,-4.650104983738856e-06,-1.5126631296880078e-05,1.9287477698526345e-05,0.00032087427098304033,0.0016850685933604836,-0.0019083674997091293,-0.019526949152350426,-0.061723701655864716,0.007767834700644016,0.00384855130687356,0.001167781068943441,-0.0034673979971557856,0.0,0.0,0.0,-0.0009742956608533859,0.00017660237790551037,-0.0,0.0,0.0,0.0,0.0043175783939659595,0.01232323981821537,0.0006804731674492359,14383.0,12056.0,13241.0,14434.0,0.46496087312698364,0.31932592391967773,0.3900843858718872,0.4683975577354431,0.0,0.0,0.0,0.0,1495.0,1495.0,1495.0,1495.0,1.6339747905731201,-0.025971381889875442,0.08380002446835697,-0.0011587527863079344,-0.0006953342235647142,-0.0029508324805647135,0.0
83,5,-5.7130237109959126e-06,-3.1692092306911945e-05,4.351017560111359e-05,7.994570978553384e-07,0.0026618828997015953,-0.0036700705531984568,-0.019549734890460968,-0.06173842027783394,0.007768269162625074,-0.0005737656611017883,-0.002864448819309473,0.0010061828652396798,0.0,0.0,0.0,-0.002101753605529666,0.00029739626916125417,-0.0,0.0,0.0,0.0,0.0043485527858138084,0.012306781485676765,0.0008067769813351333,14425.0,11998.0,13294.0,14391.0,0.46781861782073975,0.316078245639801,0.3934262990951538,0.4654455780982971,0.0,0.0,0.0,0.0,14391.0,12047.0,13249.0,14425.0,1.643399953842163,-0.02511727368256759,0.08446540861230895,-0.0016282395416430107,-0.0011776866158470511,-0.006402256432920694,0.0
88,5,-9.826185305428226e-06,-1.3349626897252165e-05,3.5328797821421176e-05,-0.0004932595766149461,-0.0011363427620381117,-0.0004862631030846387,-0.019549734890460968,-0.06173842027783394,0.007768269162625074,-0.0005737656611017883,-0.002864448819309473,0.0010061828652396798,0.0,0.0,0.0,-0.002101753605529666,0.00029739626916125417,-0.0,0.0,0.0,0.0,0.0043485527858138084,0.012306781485676765,0.0008067769813351333,14425.0,11998.0,13294.0,14391.0,0.46781861782073975,0.316078245639801,0.3934262990951538,0.4654455780982971,0.0,0.0,0.0,0.0,14391.0,12047.0,13249.0,14425.0,1.643399953842163,-0.02573130296465019,0.08392726026674475,-0.0016823344865290054,-0.0011776866158470511,-0.006402256432920694,0.0
93,5,-4.674904175772099e-06,-1.8035238099400885e-05,1.7269188901991583e-05,0.0004208498867228627,0.00010773620306281373,0.001972647849470377,-0.019537780433893204,-0.061706721782684326,0.007752376142889261,0.0008806183468550444,-0.0026635073591023684,-0.0041130357421934605,0.0,0.0,0.0,0.0013791117817163467,-0.00048228047671727836,-0.0,0.0,0.0,0.0,0.003988716751337051,0.0121794817969203,0.0007577355136163533,14390.0,12045.0,13255.0,14423.0,0.4654282331466675,0.3186984658241272,0.39095163345336914,0.4676904082298279,0.0,0.0,0.0,0.0,14463.0,12122.0,13177.0,14421.0,1.6382278203964233,-0.025249675581801596,0.08385067261340899,-0.0015921305737437925,0.0019038181053474545,0.00418776273727417,0.0
98,5,-1.865809826995246e-05,-2.5856321371975355e-05,2.7973555916105397e-05,-0.0015096432762220502,0.0009816244710236788,-0.0004954649484716356,-0.019537780433893204,-0.061706721782684326,0.007752376142889261,0.0008806183468550444,-0.0026635073591023684,-0.0041130357421934605,0.0,0.0,0.0,0.0013791117817163467,-0.00048228047671727836,-0.0,0.0,0.0,0.0,0.003988716751337051,0.0121794817969203,0.0007577355136163533,14390.0,12045.0,13255.0,14423.0,0.4654282331466675,0.3186984658241272,0.39095163345336914,0.4676904082298279,0.0,0.0,0.0,0.0,14463.0,12122.0,13177.0,14421.0,1.6382278203964233,-0.024931468789531987,0.08414923934333947,-0.0019276543127735466,0.0019038181053474545,0.00418776273727417,0.0
103,5,-2.6137773602386005e-05,-2.097890137520153e-05,-7.534140877396567e-06,-0.0015014184173196554,-0.00019264061120338738,0.004062737803906202,-0.01952386274933815,-0.061693161725997925,0.007748585660010576,0.0014456860953941941,0.0019796586129814386,-0.0010976741323247552,0.0,0.0,0.0,-0.0012543471530079842,-0.0014545571757480502,-0.0,0.0,0.0,0.0,0.004001887980848551,0.012202690355479717,0.0008130445494316518,14446.0,11991.0,13212.0,14322.0,0.4692683815956116,0.31568169593811035,0.38826340436935425,0.46076130867004395,0.0,0.0,0.0,0.0,14400.0,12026.0,13227.0,14361.0,1.644500732421875,-0.02601347637871636,0.0836856979473229,-0.0012817182704096602,0.00576389767229557,-0.003823491744697094,0.0
108,5,-1.2159580364823341e-05,-5.124560175318038e-06,1.7128564650192857e-05,0.0010768157662823796,-0.0019795771222561598,-0.0013344294857233763,-0.01952386274933815,-0.061693161725997925,0.007748585660010576,0.0014456860953941941,0.0019796586129814386,-0.0010976741323247552,0.0,0.0,0.0,-0.0012543471530079842,-0.0014545571757480502,-0.0,0.0,0.0,0.0,0.004001887980848551,0.012202690355479717,0.0008130445494316518,14446.0,11991.0,13212.0,14322.0,0.4692683815956116,0.31568169593811035,0.38826340436935425,0.46076130867004395,0.0,0.0,0.0,0.0,14400.0,12026.0,13227.0,14361.0,1.644500732421875,-0.02573543672753238,0.08424528505595696,-0.0014873251967077036,0.00576389767229557,-0.003823491744697094,0.0
113,5,-1.5103428268048447e-05,-1.0420397302368656e-05,1.4054063285584562e-05,7.746457413304597e-05,-0.00015633045404683799,-0.00016483175568282604,-0.019513413310050964,-0.06174617260694504,0.007736849132925272,0.002835111925378442,0.004919013939797878,0.0016356449341401458,0.0,0.0,0.0,0.002420156728476286,0.0009996861917898059,-0.0,0.0,0.0,0.0,0.0037175961770117283,0.012436538934707642,0.0008354226592928171,14454.0,11983.0,13214.0,14319.0,0.46979930996894836,0.31521013379096985,0.3884081542491913,0.4605571925640106,0.0,0.0,0.0,0.0,14399.0,12048.0,13154.0,14375.0,1.6484969854354858,-0.026098260957797343,0.08377472770112437,-0.00120296535864952,-0.003971023019403219,0.00739502115175128,0.0
118,5,-2.4707633201614954e-05,-9.947750186256599e-06,-5.4862148317624815e-06,-0.0011215186677873135,-0.00011924981663469225,0.0022789007052779198,-0.019513413310050964,-0.06174617260694504,0.007736849132925272,0.002835111925378442,0.004919013939797878,0.0016356449341401458,0.0,0.0,0.0,0.002420156728476286,0.0009996861917898059,-0.0,0.0,0.0,0.0,0.0037175961770117283,0.012436538934707642,0.0008354226592928171,14454.0,11983.0,13214.0,14319.0,0.46979930996894836,0.31521013379096985,0.3884081542491913,0.4605571925640106,0.0,0.0,0.0,0.0,14399.0,12048.0,13154.0,14375.0,1.6484969854354858,-0.026236638672332578,0.08375065307951354,-0.0010692747978947176,-0.003971023019403219,0.00739502115175128,0.0
124,5,-1.1399408322176896e-05,-1.503726434748387e-05,1.3055579984211363e-05,0.0011483795242384076,0.0005630418309010565,-0.001313455170020461,-0.019499242305755615,-0.06173821911215782,0.007758207619190216,0.003346690209582448,-0.0019550472497940063,-0.0010310770012438297,0.0,0.0,0.0,0.00012922081805299968,-0.001100322580896318,-0.0,0.0,0.0,0.0,0.00347906444221735,0.012453306466341019,0.0008656011777929962,14499.0,12047.0,13234.0,14340.0,0.47291049361228943,0.31881120800971985,0.38966575264930725,0.46201249957084656,0.0,0.0,0.0,0.0,14410.0,12136.0,13206.0,14398.0,1.6375749111175537,-0.02520398834990253,0.0844121867081809,-0.001708886277439332,0.004341831896454096,0.0003922312753275037,0.0
131,8,-2.292915633006487e-05,-1.7584483430255204e-05,3.3324955438729376e-05,-0.0014057469088584185,0.0007279763813130558,-0.001187973888590932,-0.019499242305755615,-0.06173821911215782,0.007758207619190216,0.003346690209582448,-0.0019550472497940063,-0.0010310770012438297,0.0,0.0,0.0,0.00012922081805299968,-0.001100322580896318,-0.0,0.0,0.0,0.0,0.00347906444221735,0.012453306466341019,0.0008656011777929962,14499.0,12047.0,13234.0,14340.0,0.47291049361228943,0.31881120800971985,0.38966575264930725,0.46201249957084656,0.0,0.0,0.0,0.0,14410.0,12136.0,13206.0,14398.0,1.6375749111175537,-0.025470335851082576,0.08421642371944764,-0.001801534364152765,0.004341831896454096,0.0003922312753275037,0.0
136,5,-2.0852312445640564e-05,-1.2417112884577364e-05,2.4145201678038575e-05,-0.0003130775294266641,-0.0003288938314653933,0.0006263810209929943,-0.019475696608424187,-0.061757009476423264,0.007750861346721649,0.0007536546909250319,0.0039522224105894566,0.0026694529224187136,0.0,0.0,0.0,-0.0009286704007536173,-0.0013640652177855372,-0.0,0.0,0.0,0.0,0.0036620618775486946,0.012178730219602585,0.0008289887337014079,14478.0,12054.0,13275.0,14334.0,0.47143828868865967,0.319219172000885,0.3922411799430847,0.4616020917892456,0.0,0.0,0.0,0.0,14492.0,11960.0,13324.0,14411.0,1.6422719955444336,-0.025512064560673675,0.08399833770880989,-0.0014755221722607982,0.0053979866206645966,-0.0028269304893910885,0.0
142,5,-1.009054722089786e-05,-1.772387076925952e-05,1.580364187248051e-05,0.0011661809403449297,0.0005052534397691488,0.0012515394482761621,-0.019475696608424187,-0.061757009476423264,0.007750861346721649,0.0007536546909250319,0.0039522224105894566,0.0026694529224187136,0.0,0.0,0.0,-0.0009286704007536173,-0.0013640652177855372,-0.0,0.0,0.0,0.0,0.0036620618775486946,0.012178730219602585,0.0008289887337014079,14478.0,12054.0,13275.0,14334.0,0.47143828868865967,0.319219172000885,0.3922411799430847,0.4616020917892456,0.0,0.0,0.0,0.0,14492.0,11960.0,13324.0,14411.0,1.6422719955444336,-0.025324697939681586,0.0841778606046495,-0.0015956054887370024,0.0053979866206645966,-0.0028269304893910885,0.0
147,5,-9.681701158115175e-06,-1.5456898836418986e-05,2.7868452889379114e-05,0.0005155338440090418,-6.993537681410089e-05,-0.000947161577641964,-0.019451089203357697,-0.06173287704586983,0.007768533192574978,-0.002466951496899128,-0.004474195186048746,-0.0007882573409006,0.0,0.0,0.0,-0.0006560168694704771,0.0010933952871710062,-0.0,0.0,0.0,0.0,0.003950235899537802,0.012265585362911224,0.0008050247561186552,14434.0,12002.0,13254.0,14339.0,0.468444287776947,0.31627148389816284,0.3909282088279724,0.46193093061447144,0.0,0.0,0.0,0.0,14380.0,12066.0,13210.0,14381.0,1.6386466026306152,-0.025928495783905384,0.08415826012897265,-0.0012100764462262912,-0.004317319951951504,-0.001992548117414117,-0.0
152,5,2.557491427523928e-07,-1.0608904631226324e-05,4.0463386540068313e-05,0.0013987076235935092,-0.000609733397141099,-0.0018902566516771913,-0.019451089203357697,-0.06173287704586983,0.007768533192574978,-0.002466951496899128,-0.004474195186048746,-0.0007882573409006,0.0,0.0,0.0,-0.0006560168694704771,0.0010933952871710062,-0.0,0.0,0.0,0.0,0.003950235899537802,0.012265585362911224,0.0008050247561186552,14434.0,12002.0,13254.0,14339.0,0.468444287776947,0.31627148389816284,0.3909282088279724,0.46193093061447144,0.0,0.0,0.0,0.0,14380.0,12066.0,13210.0,14381.0,1.6386466026306152,-0.025342970332599944,0.08440439054431324,-0.0015584263493732687,-0.004317319951951504,-0.001992548117414117,-0.0
157,5,-6.94744085194543e-06,-1.8635035303304903e-05,3.2794661819934845e-05,-0.0003048997896257788,0.00071924232179299,0.0001641442213440314,-0.01944747380912304,-0.06174834445118904,0.007768689654767513,0.001499044243246317,0.006862419657409191,-0.005419829860329628,0.0,0.0,0.0,0.0007323092431761324,0.00132657028734684,-0.0,0.0,0.0,0.0,0.003733850782737136,0.012231331318616867,0.0007408993551507592,14416.0,12098.0,13208.0,14388.0,0.4672006666660309,0.3217514455318451,0.3880334198474884,0.4652864634990692,0.0,0.0,0.0,0.0,14475.0,12025.0,13282.0,14322.0,1.6412055492401123,-0.025598976871107272,0.08408834526556619,-0.001406599377666337,-0.0052462005987763405,0.002227747580036521,0.0
162,5,-2.7251449864706956e-05,-2.9087737857480533e-05,4.118123251828365e-05,-0.0025584411341696978,0.0015420212876051664,-0.0009407307370565832,-0.01944747380912304,-0.06174834445118904,0.007768689654767513,0.001499044243246317,0.006862419657409191,-0.005419829860329628,0.0,0.0,0.0,0.0007323092431761324,0.00132657028734684,-0.0,0.0,0.0,0.0,0.003733850782737136,0.012231331318616867,0.0007408993551507592,14416.0,12098.0,13208.0,14388.0,0.4672006666660309,0.3217514455318451,0.3880334198474884,0.4652864634990692,0.0,0.0,0.0,0.0,14475.0,12025.0,13282.0,14322.0,1.6412055492401123,-0.02508244759976943,0.08457331943258876,-0.0018463865993413324,-0.0052462005987763405,0.002227747580036521,0.0
167,5,-1.2250218787812628e-05,-7.859700417611748e-06,3.1556291446577234e-07,0.0007767713395878673,-0.0019305560272186995,0.0045275879092514515,-0.01944747380912304,-0.06174834445118904,0.007768689654767513,0.001499044243246317,0.006862419657409191,-0.005419829860329628,0.0,0.0,0.0,-0.0019354018149897456,-0.0024410521145910025,-0.0,0.0,0.0,0.0,0.003733850782737136,0.012231331318616867,0.0007408993551507592,14416.0,12098.0,13208.0,14388.0,0.4672006666660309,0.3217514455318451,0.3880334198474884,0.4652864634990692,0.0,0.0,0.0,0.0,14475.0,12025.0,13282.0,14322.0,1.656652808189392,-0.02512405422303367,0.08329662001959384,-0.0014563141073817404,0.0097444923594594,-0.005943067837506533,0.0
172,5,-2.1376128643169068e-05,-7.929513230919838e-06,1.9498429537634365e-06,-0.0007844005594961345,-0.000763844873290509,0.0016149216098710895,-0.019534755498170853,-0.061792343854904175,0.007723410613834858,-0.027888013049960136,-0.0055360314436256886,-0.009896857663989067,0.0,0.0,0.0,-0.0019354018149897456,-0.0024410521145910025,-0.0,0.0,0.0,0.0,0.0038748488295823336,0.012718144804239273,0.0007541412487626076,14411.0,12039.0,13170.0,14424.0,0.46686479449272156,0.3183973729610443,0.38563433289527893,0.46775010228157043,0.0,0.0,0.0,0.0,14261.0,12217.0,13004.0,14575.0,1.656652808189392,-0.02562605317593843,0.08304473376135994,-0.0010023195263197209,0.0097444923594594,-0.005943067837506533,0.0
177,5,-1.79428043338703e-05,-1.8563128833193332e-05,6.889616088301409e-06,9.823872096603736e-05,0.0009704958647489548,5.3195868531474844e-05,-0.019534755498170853,-0.061792343854904175,0.007723410613834858,-0.027888013049960136,-0.0055360314436256886,-0.009896857663989067,0.0,0.0,0.0,0.0009294457267969847,-0.0007756297127343714,-0.0,0.0,0.0,0.0,0.0038748488295823336,0.012718144804239273,0.0007541412487626076,14411.0,12039.0,13170.0,14424.0,0.46686479449272156,0.3183973729610443,0.38563433289527893,0.46775010228157043,0.0,0.0,0.0,0.0,14261.0,12217.0,13004.0,14575.0,1.6370375156402588,-0.02509023806256613,0.08323334955631795,-0.0019937414831130906,0.0030596007127314806,0.002820272697135806,-0.0
182,5,-9.106384823098779e-06,-8.88493286765879e-06,1.2346777111815754e-05,0.0010996657656505704,-0.0007731851073913276,-0.0006335809594020247,-0.01954612322151661,-0.06182558089494705,0.007786237634718418,0.009320358745753765,-0.00725022004917264,0.08410399407148361,0.0,0.0,0.0,0.0009294457267969847,-0.0007756297127343714,-0.0,0.0,0.0,0.0,0.004032101482152939,0.012796221300959587,0.002388728316873312,15172.0,11062.0,14001.0,13650.0,0.520429790019989,0.26544439792633057,0.43918025493621826,0.41615110635757446,0.0,0.0,0.0,0.0,14864.0,11473.0,13682.0,13975.0,1.6370375156402588,-0.02516386687372626,0.08326249280315293,-0.0017386310225669963,0.0030596007127314806,0.002820272697135806,-0.0
187,5,-1.1717724191839807e-05,4.2449787542864215e-06,1.031889405567199e-05,0.00012650559074245393,-0.001884863362647593,-1.0086471775139216e-05,-0.01954612322151661,-0.06182558089494705,0.007786237634718418,0.009320358745753765,-0.00725022004917264,0.08410399407148361,0.0,0.0,0.0,0.0009379889816045761,0.0010311759542673826,-0.0,0.0,0.0,0.0,0.004032101482152939,0.012796221300959587,0.002388728316873312,15172.0,11062.0,14001.0,13650.0,0.520429790019989,0.26544439792633057,0.43918025493621826,0.41615110635757446,0.0,0.0,0.0,0.0,14864.0,11473.0,13682.0,13975.0,1.6392327547073364,-0.025830045686627764,0.08207775476929845,-0.00017163044787409424,-0.004073099698871374,0.002850012620911002,0.0
192,5,-4.757813258038368e-06,-1.63028780661989e-05,4.153890131419757e-06,0.0008857914945110679,0.001711797434836626,0.0007357659633271396,-0.01960732415318489,-0.061844032257795334,0.007092230021953583,-0.02586299180984497,0.00805368460714817,-0.08902406692504883,0.0,0.0,0.0,0.0009379889816045761,0.0010311759542673826,-0.0,0.0,0.0,0.0,0.0036391918547451496,0.012153821997344494,-0.00348391174338758,13128.0,13606.0,11792.0,15652.0,0.3830583095550537,0.41327112913131714,0.30454063415527344,0.5557827353477478,0.0,0.0,0.0,0.0,15038.0,11436.0,13921.0,13814.0,1.6392327547073364,-0.02583168238205375,0.08325297594964902,-0.001686886777149937,-0.004073099698871374,0.002850012620911002,0.0
198,5,1.5117228031158447e-05,-3.944045238313265e-05,2.3779357434250414e-05,0.0027393216732889414,0.0034612277522683144,-0.002060749800875783,-0.01960732415318489,-0.061844032257795334,0.007092230021953583,-0.02586299180984497,0.00805368460714817,-0.08902406692504883,0.0,0.0,0.0,-0.0021342060063034296,0.0008309897384606302,-0.0,0.0,0.0,0.0,0.0036391918547451496,0.012153821997344494,-0.00348391174338758,13128.0,13606.0,11792.0,15652.0,0.3830583095550537,0.41327112913131714,0.30454063415527344,0.5557827353477478,0.0,0.0,0.0,0.0,15038.0,11436.0,13921.0,13814.0,1.6455276012420654,-0.02418587359478239,0.08450950323348436,-0.003721537900439807,-0.0032949717715382576,-0.006509527564048767,-0.0
203,5,1.5067706954141613e-05,-3.0037328542675823e-05,3.616352842072956e-05,0.0010897860629484057,0.00025611650198698044,-0.002310400363057852,-0.019620472565293312,-0.06174338981509209,0.008622833527624607,-0.001744818757288158,-0.0052393702790141106,-0.032354146242141724,0.0,0.0,0.0,-0.0021342060063034296,0.0008309897384606302,-0.0,0.0,0.0,0.0,0.004098652862012386,0.013160361908376217,-0.0036576869897544384,15183.0,10982.0,14110.0,13524.0,0.521241307258606,0.26130756735801697,0.4464670717716217,0.4080215394496918,0.0,0.0,0.0,0.0,11700.0,14647.0,10155.0,16662.0,1.6455276012420654,-0.024540742075464896,0.08385490523122113,-0.002397804901954727,-0.0032949717715382576,-0.006509527564048767,-0.0
208,5,1.5394118236145005e-05,-0.00011920030374312773,0.00011111931235063821,0.00047508385614492,0.010802003554999828,-0.00991885457187891,-0.019620472565293312,-0.06174338981509209,0.008622833527624607,-0.001744818757288158,-0.0052393702790141106,-0.032354146242141724,0.0,0.0,0.0,-0.00037110797711648047,0.00105660583358258,-0.0,0.0,0.0,0.0,0.004098652862012386,0.013160361908376217,-0.0036576869897544384,15183.0,10982.0,14110.0,13524.0,0.521241307258606,0.26130756735801697,0.4464670717716217,0.4080215394496918,0.0,0.0,0.0,0.0,11700.0,14647.0,10155.0,16662.0,1.6374638080596924,-0.03363832361849022,0.07785131466132546,-0.0031827600407170545,-0.004169044550508261,-0.0011263686465099454,0.0
213,5,-1.041961968439864e-05,-2.7071379008702934e-05,5.198956569074653e-05,-0.002907615154981613,-0.006734669674187899,0.0031280280090868473,-0.019683852791786194,-0.062066882848739624,0.006169854663312435,0.03578426316380501,0.01851036585867405,0.07971780747175217,0.0,0.0,0.0,-0.00037110797711648047,0.00105660583358258,-0.0,0.0,0.0,0.0,0.003081774339079857,0.012405556626617908,0.001530529116280377,13913.0,12801.0,12501.0,14944.0,0.4333602786064148,0.36302971839904785,0.3450755476951599,0.5040620565414429,0.0,0.0,0.0,0.0,16701.0,8493.0,15643.0,11675.0,1.6374638080596924,-0.025391295728757757,0.08314782097706461,-0.0023071347784519775,-0.004169044550508261,-0.0011263686465099454,0.0
218,5,-7.970699516590685e-05,-6.739555828971788e-05,9.962701005861163e-05,-0.009477531537413597,0.002145033795386553,-0.004465282429009676,-0.019683852791786194,-0.062066882848739624,0.006169854663312435,0.03578426316380501,0.01851036585867405,0.07971780747175217,0.0,0.0,0.0,0.007969397120177746,-0.002676638774573803,-0.0,0.0,0.0,0.0,0.003081774339079857,0.012405556626617908,0.001530529116280377,13913.0,12801.0,12501.0,14944.0,0.4333602786064148,0.36302971839904785,0.3450755476951599,0.5040620565414429,0.0,0.0,0.0,0.0,16701.0,8493.0,15643.0,11675.0,1.6995725631713867,-0.026247244976023622,0.08482664485729954,-0.003030666079209553,0.010961426421999931,0.025105297565460205,-0.0
223,5,-0.00015403820725623518,-4.9871297960635275e-05,0.00027213519206270576,-0.012710756622254848,-0.00124489760491997,-0.02248709462583065,-0.019194921478629112,-0.06181809678673744,0.007962516508996487,0.06431817263364792,0.010455170646309853,-0.14319440722465515,0.0,0.0,0.0,0.007969397120177746,-0.002676638774573803,-0.0,0.0,0.0,0.0,0.003258730052039027,0.01255383063107729,0.0020532167982310057,15057.0,11267.0,13846.0,13713.0,0.5121610164642334,0.27615734934806824,0.42892858386039734,0.420216828584671,0.0,0.0,0.0,0.0,12584.0,14105.0,10918.0,16121.0,1.6995725631713867,-0.025253183597928656,0.08282289625788497,-0.002461615423756219,0.010961426421999931,0.025105297565460205,-0.0
228,5,-0.000155274014105089,-7.10487729520537e-05,0.0003047437348868698,-0.005232599563896656,0.0020433382596820593,-0.012907864525914192,-0.019194921478629112,-0.06181809678673744,0.007962516508996487,0.06431817263364792,0.010455170646309853,-0.14319440722465515,0.0,0.0,0.0,0.0013496220344677567,-0.011464985087513924,-0.0,0.0,0.0,0.0,0.003258730052039027,0.01255383063107729,0.0020532167982310057,15057.0,11267.0,13846.0,13713.0,0.5121610164642334,0.27615734934806824,0.42892858386039734,0.420216828584671,0.0,0.0,0.0,0.0,12584.0,14105.0,10918.0,16121.0,1.7560967206954956,-0.02582578477826971,0.0818398434620092,-0.00259923507972298,0.04851364716887474,0.0043930779211223125,0.0
233,5,-5.080072514829226e-05,-7.034983718767762e-05,0.00015649147098883986,0.010443754494190216,0.0007334626279771328,0.012627126649022102,-0.01878022775053978,-0.06190091371536255,0.007135693449527025,0.04661494866013527,-0.03755977749824524,0.06699974834918976,0.0,0.0,0.0,0.0013496220344677567,-0.011464985087513924,-0.0,0.0,0.0,0.0,0.0033003336284309626,0.012072204612195492,-0.0021778384689241648,13500.0,13415.0,12513.0,15524.0,0.40649357438087463,0.40105292201042175,0.3457752764225006,0.5462508201599121,0.0,0.0,0.0,0.0,14700.0,11775.0,13447.0,14071.0,1.7560967206954956,-0.025393068729614714,0.08118650189665899,-0.0028414829430914858,0.04851364716887474,0.0043930779211223125,0.0
238,5,-6.97296709404327e-05,-6.953024421818554e-05,0.0002279285399708897,0.0019060284830629826,0.0001950338773895055,-0.003521597245708108,-0.01878022775053978,-0.06190091371536255,0.007135693449527025,0.04661494866013527,-0.03755977749824524,0.06699974834918976,0.0,0.0,0.0,-0.0009785282891243696,0.009325186721980572,-0.0,0.0,0.0,0.0,0.0033003336284309626,0.012072204612195492,-0.0021778384689241648,13500.0,13415.0,12513.0,15524.0,0.40649357438087463,0.40105292201042175,0.3457752764225006,0.5462508201599121,0.0,0.0,0.0,0.0,14700.0,11775.0,13447.0,14071.0,1.7304586172103882,-0.023473116581093783,0.0808851704888597,-0.0026927236114655485,-0.03888339549303055,-0.003138650907203555,-0.0
243,5,-5.982451330055483e-05,-9.216056787408888e-05,0.0002516800013836473,0.0019510299898684025,0.0027936522383242846,-0.004258813336491585,-0.0172513946890831,-0.059390489012002945,0.006880170200020075,0.12816385924816132,-0.29994043707847595,-0.025200340896844864,0.0,0.0,0.0,-0.0009785282891243696,0.009325186721980572,-0.0,0.0,0.0,0.0,0.0032501299865543842,0.00743270106613636,0.0012573455460369587,14494.0,13063.0,13939.0,14449.0,0.4725720286369324,0.37902623414993286,0.43506497144699097,0.4694334864616394,0.0,0.0,0.0,0.0,14482.0,12375.0,13598.0,14563.0,1.7304586172103882,-0.021722810137464386,0.07976761777573407,-0.0034044447111446227,-0.03888339549303055,-0.003138650907203555,-0.0
249,5,-0.00016887637320905924,-0.00018748587172012776,0.0004774293629452586,-0.007673927117139101,0.011357168667018414,-0.018483810126781464,-0.0172513946890831,-0.059390489012002945,0.006880170200020075,0.12816385924816132,-0.29994043707847595,-0.025200340896844864,0.0,0.0,0.0,-0.0035679128486663103,0.001745439600199461,-0.0,0.0,0.0,0.0,0.0032501299865543842,0.00743270106613636,0.0012573455460369587,14494.0,13063.0,13939.0,14449.0,0.4725720286369324,0.37902623414993286,0.43506497144699097,0.4694334864616394,0.0,0.0,0.0,0.0,14482.0,12375.0,13598.0,14563.0,1.6609816551208496,-0.026592852978515085,0.07204876816403696,-0.004205680495238149,-0.006985838990658522,-0.01098464336246252,0.0
254,5,-0.00028274557553231716,-0.0001615233632037416,0.0006292207399383187,-0.016733873635530472,0.0014273661654442549,-0.025608491152524948,-0.015871236100792885,-0.05612706020474434,0.006475336384028196,0.23592083156108856,-0.5954739451408386,-0.006042476277798414,0.0,0.0,0.0,-0.0035679128486663103,0.001745439600199461,-0.0,0.0,0.0,0.0,0.0021965985652059317,0.0038086650893092155,-0.00013770617078989744,14202.0,13511.0,14001.0,14268.0,0.4526035487651825,0.40719935297966003,0.4391736686229706,0.4571201503276825,0.0,0.0,0.0,0.0,14019.0,13600.0,13510.0,14826.0,1.6609816551208496,-0.019882112228250273,0.07055085415852402,-0.0037169614066477,-0.006985838990658522,-0.01098464336246252,0.0
259,5,-0.00048697652528062463,-0.0002544982417020947,0.000967066443990916,-0.03120126575231552,0.011727931909263134,-0.0507848784327507,-0.015871236100792885,-0.05612706020474434,0.006475336384028196,0.23592083156108856,-0.5954739451408386,-0.006042476277798414,0.0,0.0,0.0,-0.0018735389458015561,-0.014845983125269413,-0.0,0.0,0.0,0.0,0.0021965985652059317,0.0038086650893092155,-0.00013770617078989744,14202.0,13511.0,14001.0,14268.0,0.4526035487651825,0.40719935297966003,0.4391736686229706,0.4571201503276825,0.0,0.0,0.0,0.0,14019.0,13600.0,13510.0,14826.0,1.7977598905563354,-0.022618311831698823,0.0626289009098694,-0.004663396866141262,0.06430960446596146,-0.006243131589144468,0.0
264,5,-0.0005360517534427345,-0.00021745283447671682,0.0008757887408137321,-0.018369531258940697,0.0002457242226228118,-0.00936062727123499,-0.012385590933263302,-0.04785933345556259,0.006458778399974108,0.35165566205978394,-0.8260361552238464,-0.0337710976600647,0.0,0.0,0.0,-0.0018735389458015561,-0.014845983125269413,-0.0,0.0,0.0,0.0,0.0005468353047035635,0.004495074972510338,4.920513674733229e-05,14106.0,13668.0,13620.0,14204.0,0.4461647868156433,0.41733670234680176,0.4141790270805359,0.4527781009674072,0.0,0.0,0.0,0.0,14524.0,13098.0,13773.0,14170.0,1.7977598905563354,-0.01671852126854466,0.06050173619092408,-0.0038248071454017284,0.06430960446596146,-0.006243131589144468,0.0
269,5,-0.0006933906115591526,-0.00029399420600384474,0.0011164983734488487,-0.02622847445309162,0.00928325206041336,-0.032629404217004776,-0.012385590933263302,-0.04785933345556259,0.006458778399974108,0.35165566205978394,-0.8260361552238464,-0.0337710976600647,0.0,0.0,0.0,-0.0006296973442658782,-0.016411850228905678,-0.0,0.0,0.0,0.0,0.0005468353047035635,0.004495074972510338,4.920513674733229e-05,14106.0,13668.0,13620.0,14204.0,0.4461647868156433,0.41733670234680176,0.4141790270805359,0.4527781009674072,0.0,0.0,0.0,0.0,14524.0,13098.0,13773.0,14170.0,1.8166307210922241,-0.016136305196438678,0.05350879616751542,-0.004820000756571465,0.07183837890625,-0.002120347460731864,0.0
274,5,-0.0006933906115591526,-0.00029399420600384474,0.0011164983734488487,-0.02622847445309162,0.00928325206041336,-0.032629404217004776,-0.012385590933263302,-0.04785933345556259,0.006458778399974108,0.35165566205978394,-0.8260361552238464,-0.0337710976600647,0.0,0.0,0.0,-0.0006296973442658782,-0.016411850228905678,-0.0,0.0,0.0,0.0,0.0005468353047035635,0.004495074972510338,4.920513674733229e-05,14106.0,13668.0,13620.0,14204.0,0.4461647868156433,0.41733670234680176,0.4141790270805359,0.4527781009674072,0.0,0.0,0.0,0.0,14524.0,13098.0,13773.0,14170.0,1.8166307210922241,-0.016136305196438678,0.05350879616751542,-0.004820000756571465,0.07183837890625,-0.002120347460731864,0.0
279,5,-0.000978930969722569,-0.00036330195143818855,0.0014534664805978537,-0.022841401398181915,0.00710679404437542,-0.021591616794466972,-0.012385590933263302,-0.04785933345556259,0.006458778399974108,0.35165566205978394,-0.8260361552238464,-0.0337710976600647,0.0,0.0,0.0,-0.010288720019161701,-0.022198358550667763,-0.0,0.0,0.0,0.0,-0.0013568006688728929,-0.0017249375814571977,0.000869181239977479,13843.0,13622.0,13924.0,13141.0,0.42871057987213135,0.4143334627151489,0.43408334255218506,0.3838542699813843,0.0,0.0,0.0,0.0,13723.0,13598.0,13479.0,13744.0,1.9104686975479126,-0.010534236203060994,0.04164542210953986,-0.004468758194983771,0.1021772101521492,-0.036433082073926926,0.0
284,5,-0.0011301178019493818,-0.00041740728192962706,0.0016619546804577112,-0.02727898396551609,0.009335355833172798,-0.03365522250533104,-0.012385590933263302,-0.04785933345556259,0.006458778399974108,0.35165566205978394,-0.8260361552238464,-0.0337710976600647,0.0,0.0,0.0,-0.010288720019161701,-0.022198358550667763,-0.0,0.0,0.0,0.0,-0.0013568006688728929,-0.0017249375814571977,0.000869181239977479,13843.0,13622.0,13924.0,13141.0,0.42871057987213135,0.4143334627151489,0.43408334255218506,0.3838542699813843,0.0,0.0,0.0,0.0,13723.0,13598.0,13479.0,13744.0,1.9104686975479126,-0.0077582941446861665,0.036005676329413865,-0.004563348392661474,0.1021772101521492,-0.036433082073926926,0.0
289,5,-0.0012837586691603065,-0.0005486388690769672,0.0018616419984027743,-0.029348501935601234,0.019481930881738663,-0.03742457553744316,-0.004490157589316368,-0.026476629078388214,0.0062072863802313805,0.41813021898269653,-1.2739771604537964,-0.019238846376538277,0.0,0.0,0.0,-0.010449299588799477,-0.023383131250739098,-0.0,0.0,0.0,0.0,-0.0017188522033393383,-0.008883098140358925,-0.0006339054089039564,13467.0,15053.0,14571.0,13455.0,0.4043703079223633,0.5119065046310425,0.4778517484664917,0.40363138914108276,0.0,0.0,0.0,0.0,13777.0,14679.0,14567.0,13561.0,1.9263216257095337,-0.013306983523714244,0.026013499424711872,-0.006407648442146946,0.10852257162332535,-0.0373087041079998,0.0
294,5,-0.0014391484437510371,-0.0005060723633505404,0.001881742267869413,-0.030386172235012054,0.0026847971603274345,-0.017381854355335236,-0.004490157589316368,-0.026476629078388214,0.0062072863802313805,0.41813021898269653,-1.2739771604537964,-0.019238846376538277,0.0,0.0,0.0,-0.010449299588799477,-0.023383131250739098,-0.0,0.0,0.0,0.0,-0.0017188522033393383,-0.008883098140358925,-0.0006339054089039564,13467.0,15053.0,14571.0,13455.0,0.4043703079223633,0.5119065046310425,0.4778517484664917,0.40363138914108276,0.0,0.0,0.0,0.0,13777.0,14679.0,14567.0,13561.0,1.9263216257095337,-0.00390721542681199,0.022553625767955957,-0.004389386893825181,0.10852257162332535,-0.0373087041079998,0.0
300,5,-0.0016151120653375983,-0.0005417449865490198,0.001970128621906042,-0.03327010199427605,0.005354630295187235,-0.017559099942445755,-0.0008224569610320032,-0.015995394438505173,0.006446250714361668,0.4545368254184723,-1.3245584964752197,-0.026612311601638794,0.0,0.0,0.0,-0.010449299588799477,-0.023383131250739098,-0.0,0.0,0.0,0.0,-0.002889320021495223,-0.013190220110118389,0.0012996273580938578,13751.0,15022.0,15143.0,12848.0,0.4227205514907837,0.5096660256385803,0.518377423286438,0.36586666107177734,0.0,0.0,0.0,0.0,13943.0,14639.0,15029.0,12912.0,1.9263216257095337,-0.0007832986628849808,0.016874963742541674,-0.004682898505416698,0.10852257162332535,-0.0373087041079998,0.0
305,5,-0.0018201489001512527,-0.0006168773397803307,0.0020828351844102144,-0.037912458181381226,0.011157735250890255,-0.020548442378640175,-0.0008224569610320032,-0.015995394438505173,0.006446250714361668,0.4545368254184723,-1.3245584964752197,-0.026612311601638794,0.0,0.0,0.0,-0.0062898797914385796,-0.02804027684032917,-0.0,0.0,0.0,0.0,-0.002889320021495223,-0.013190220110118389,0.0012996273580938578,13751.0,15022.0,15143.0,12848.0,0.4227205514907837,0.5096660256385803,0.518377423286438,0.36586666107177734,0.0,0.0,0.0,0.0,13943.0,14639.0,15029.0,12912.0,1.9785202741622925,-0.0018842780950619794,0.011209980901005652,-0.005860404538200803,0.1336623877286911,-0.02306673862040043,0.0
310,5,-0.0019566169939935207,-0.000569567724596709,0.002141237026080489,-0.03154116868972778,-0.0012140629114583135,-0.015227578580379486,0.004347348120063543,-0.000980663695372641,0.00606185756623745,0.38123810291290283,-1.168320894241333,0.01879959926009178,0.0,0.0,0.0,-0.0062898797914385796,-0.02804027684032917,-0.0,0.0,0.0,0.0,-0.005034679546952248,-0.015020688064396381,0.0003826142055913806,14150.0,15605.0,15527.0,12794.0,0.44913917779922485,0.5522711873054504,0.5464814901351929,0.36257684230804443,0.0,0.0,0.0,0.0,13239.0,15492.0,14730.0,13301.0,1.9785202741622925,0.004348172102402433,0.00784080472602562,-0.005476211407075219,0.1336623877286911,-0.02306673862040043,0.0
315,5,-0.0021131285466253757,-0.0005857618525624275,0.002209995873272419,-0.031397830694913864,0.001457673846744001,-0.014342103153467178,0.004347348120063543,-0.000980663695372641,0.00606185756623745,0.38123810291290283,-1.168320894241333,0.01879959926009178,0.0,0.0,0.0,0.00038791351835243404,-0.02730058878660202,-0.0,0.0,0.0,0.0,-0.005034679546952248,-0.015020688064396381,0.0003826142055913806,14150.0,15605.0,15527.0,12794.0,0.44913917779922485,0.5522711873054504,0.5464814901351929,0.36257684230804443,0.0,0.0,0.0,0.0,13239.0,15492.0,14730.0,13301.0,1.9621636867523193,0.004717088757030399,0.004541139427327075,-0.005206235286905789,0.12906400859355927,0.0014108429895713925,0.0
320,5,-0.0022704503498971462,-0.0006191862630657852,0.002330283634364605,-0.03143775463104248,0.004594001453369856,-0.020171381533145905,0.0065954881720244884,0.007391852792352438,0.00626037735491991,0.16462059319019318,-0.8960685133934021,0.007882959209382534,0.0,0.0,0.0,0.00038791351835243404,-0.02730058878660202,-0.0,0.0,0.0,0.0,-0.002082794439047575,-0.014179619029164314,0.0011435816995799541,14270.0,15514.0,15630.0,12907.0,0.4572452902793884,0.5455003976821899,0.5541579127311707,0.3694179654121399,0.0,0.0,0.0,0.0,13966.0,15722.0,15410.0,13250.0,1.9621636867523193,0.001343342851792864,0.0015382182065150909,-0.005988482783487321,0.12906400859355927,0.0014108429895713925,0.0
325,5,-0.002356151817366481,-0.0005497074453160167,0.002390820998698473,-0.02285928465425968,-0.006499863229691982,-0.015333037823438644,0.0065954881720244884,0.007391852792352438,0.00626037735491991,0.16462059319019318,-0.8960685133934021,0.007882959209382534,0.0,0.0,0.0,-0.005654973443597555,-0.027482273057103157,-0.0,0.0,0.0,0.0,-0.002082794439047575,-0.014179619029164314,0.0011435816995799541,14270.0,15514.0,15630.0,12907.0,0.4572452902793884,0.5455003976821899,0.5541579127311707,0.3694179654121399,0.0,0.0,0.0,0.0,13966.0,15722.0,15410.0,13250.0,1.9695578813552856,0.004410493918800234,0.0011741998106113711,-0.005184817601820069,0.13041023910045624,-0.02064446732401848,0.0
330,5,-0.0023933411575853825,-0.0005418084328994155,0.002343470696359873,-0.013606421649456024,-0.003547823987901211,-0.00045117296394892037,0.006729873828589916,0.0162179134786129,0.006427765358239412,-0.13015809655189514,-0.5230790376663208,0.05903416872024536,0.0,0.0,0.0,-0.005654973443597555,-0.027482273057103157,-0.0,0.0,0.0,0.0,0.0010835303692147136,-0.010644936934113503,-9.409910126123577e-05,14624.0,15219.0,16168.0,13049.0,0.4815501570701599,0.5238375067710876,0.5949863791465759,0.3781462013721466,0.0,0.0,0.0,0.0,14526.0,15270.0,15957.0,13356.0,1.9695578813552856,0.002294574978406937,0.00022681140929187122,-0.0050993375484117715,0.13041023910045624,-0.02064446732401848,0.0
335,5,-0.002457930939272046,-0.0005295597948133945,0.002357292687520385,-0.013193346560001373,-0.002888965653255582,-0.001839111209847033,0.006729873828589916,0.0162179134786129,0.006427765358239412,-0.13015809655189514,-0.5230790376663208,0.05903416872024536,0.0,0.0,0.0,0.003092348575592041,-0.014817544259130955,-0.0,0.0,0.0,0.0,0.0010835303692147136,-0.010644936934113503,-9.409910126123577e-05,14624.0,15219.0,16168.0,13049.0,0.4815501570701599,0.5238375067710876,0.5949863791465759,0.3781462013721466,0.0,0.0,0.0,0.0,14526.0,15270.0,15957.0,13356.0,1.7989022731781006,0.0004839091081631563,-5.647479282864039e-05,-0.005214807017513963,0.06422701478004456,0.010311059653759003,0.0
340,5,-0.002503941999748349,-0.0005718887550756335,0.002398406621068716,-0.010798684321343899,0.003923886921256781,-0.005669321399182081,0.004993245005607605,0.01877557300031185,0.006415343843400478,-0.33255934715270996,-0.09202698618173599,-0.007524788845330477,0.0,0.0,0.0,0.003092348575592041,-0.014817544259130955,-0.0,0.0,0.0,0.0,0.0019008633680641651,-0.007491476368159056,2.8559788916027173e-05,14366.0,14879.0,15565.0,14267.0,0.46374833583831787,0.4994790256023407,0.5492886900901794,0.45704174041748047,0.0,0.0,0.0,0.0,13875.0,15372.0,15307.0,14399.0,1.7989022731781006,-0.008301354755823694,-0.0016073527800130264,-0.006781812832503995,0.06422701478004456,0.010311059653759003,0.0
345,5,-0.002580378670245409,-0.0004610567702911794,0.0024377217050641775,-0.013491874560713768,-0.011730282567441463,-0.006985540501773357,0.004993245005607605,0.01877557300031185,0.006415343843400478,-0.33255934715270996,-0.09202698618173599,-0.007524788845330477,0.0,0.0,0.0,-0.005422891583293676,-0.012675606645643711,-0.0,0.0,0.0,0.0,0.0019008633680641651,-0.007491476368159056,2.8559788916027173e-05,14366.0,14879.0,15565.0,14267.0,0.46374833583831787,0.4994790256023407,0.5492886900901794,0.45704174041748047,0.0,0.0,0.0,0.0,13875.0,15372.0,15307.0,14399.0,1.778351902961731,-0.004562936949073675,0.004203748517983422,-0.005394474549490587,0.05431507155299187,-0.017875298857688904,0.0
350,5,-0.002579775871708989,-0.00043057758011855185,0.0023708650842309,-0.0053243935108184814,-0.008349615149199963,0.005228603258728981,0.004993245005607605,0.01877557300031185,0.006415343843400478,-0.33255934715270996,-0.09202698618173599,-0.007524788845330477,0.0,0.0,0.0,-0.005422891583293676,-0.012675606645643711,-0.0,0.0,0.0,0.0,0.0019008633680641651,-0.007491476368159056,2.8559788916027173e-05,14366.0,14879.0,15565.0,14267.0,0.46374833583831787,0.4994790256023407,0.5492886900901794,0.45704174041748047,0.0,0.0,0.0,0.0,13875.0,15372.0,15307.0,14399.0,1.778351902961731,-0.00738054899256428,0.006921310931430297,-0.00554413444096197,0.05431507155299187,-0.017875298857688904,0.0
355,5,-0.0026210953947156668,-0.00038066491833887994,0.002353418618440628,-0.007088107988238335,-0.009329365566372871,0.004185001831501722,-0.00014947523595765233,0.018177039921283722,0.0063238199800252914,-0.5660136342048645,0.21408799290657043,0.008063704706728458,0.0,0.0,0.0,0.00893909391015768,-0.008133151568472385,-0.0,0.0,0.0,0.0,0.0061972434632480145,-0.0019508934346958995,-0.00016583538672421128,13751.0,13759.0,14781.0,14317.0,0.42273032665252686,0.4232504963874817,0.49252849817276,0.46039295196533203,0.0,0.0,0.0,0.0,14219.0,14983.0,15359.0,14528.0,1.7458117008209229,-0.011700663108379077,0.008869899951225496,-0.005473457968949363,0.03421259671449661,0.02892603725194931,-0.0
360,5,-0.0026538155507296324,-0.000347135093761608,0.0023222891613841057,-0.006761655211448669,-0.007755326107144356,0.00540955038741231,-0.00014947523595765233,0.018177039921283722,0.0063238199800252914,-0.5660136342048645,0.21408799290657043,0.008063704706728458,0.0,0.0,0.0,0.00893909391015768,-0.008133151568472385,-0.0,0.0,0.0,0.0,0.0061972434632480145,-0.0019508934346958995,-0.00016583538672421128,13751.0,13759.0,14781.0,14317.0,0.42273032665252686,0.4232504963874817,0.49252849817276,0.46039295196533203,0.0,0.0,0.0,0.0,14219.0,14983.0,15359.0,14528.0,1.7458117008209229,-0.014571141915669246,0.012329700101492662,-0.006131900215912132,0.03421259671449661,0.02892603725194931,-0.0
366,5,-0.0026887860149145126,-0.0003018795687239617,0.0022892989218235016,-0.006901131477206945,-0.008532794192433357,0.00612262450158596,-0.00529339537024498,0.015700628980994225,0.006076483987271786,-0.6945463418960571,0.41743195056915283,-0.016193972900509834,0.0,0.0,0.0,0.00893909391015768,-0.008133151568472385,-0.0,0.0,0.0,0.0,0.005665602628141642,0.000450239225756377,-0.00023207286722026765,13807.0,13539.0,14501.0,14456.0,0.4263695776462555,0.4089842736721039,0.4730582535266876,0.46993979811668396,0.0,0.0,0.0,0.0,13368.0,14046.0,14402.0,14779.0,1.7458117008209229,-0.018003353898107415,0.016075747809832088,-0.0067931949163563,0.04073433205485344,0.030319740995764732,-0.0
371,5,-0.002717945957556367,-0.0002798152854666114,0.0022280998528003693,-0.0062596360221505165,-0.0060608298517763615,0.009792952798306942,-0.00529339537024498,0.015700628980994225,0.006076483987271786,-0.6945463418960571,0.41743195056915283,-0.016193972900509834,0.0,0.0,0.0,0.009285996668040752,-0.009596974588930607,-0.0,0.0,0.0,0.0,0.005665602628141642,0.000450239225756377,-0.00023207286722026765,13807.0,13539.0,14501.0,14456.0,0.4263695776462555,0.4089842736721039,0.4730582535266876,0.46993979811668396,0.0,0.0,0.0,0.0,13368.0,14046.0,14402.0,14779.0,1.7615692615509033,-0.02205748152541662,0.01667043475908959,-0.006377419102151229,0.04073433205485344,0.030319740995764732,-0.0
376,5,-0.002756229368969798,-0.00026251011877320707,0.002194248838350177,-0.00709787430241704,-0.004500952549278736,0.007979298941791058,-0.01371165830641985,0.01023583859205246,0.005704913754016161,-0.7067734599113464,0.501059889793396,-0.03094380721449852,0.0,0.0,0.0,0.006550866644829512,-0.009163983166217804,-0.0,0.0,0.0,0.0,0.009412454441189766,0.002469165250658989,-0.0006285599083639681,13426.0,13247.0,14337.0,14770.0,0.40179911255836487,0.3904741704463959,0.4617588222026825,0.4917795956134796,0.0,0.0,0.0,0.0,13268.0,14067.0,13990.0,14951.0,1.7435094118118286,-0.024205224187543662,0.019369616549078855,-0.007138316079547079,0.038498613983392715,0.021170249208807945,-0.0
381,5,-0.0027851462364196777,-0.00025359922437928617,0.0021918185520917177,-0.006309168878942728,-0.0028696886729449034,0.0034833585377782583,-0.01371165830641985,0.01023583859205246,0.005704913754016161,-0.7067734599113464,0.501059889793396,-0.03094380721449852,0.0,0.0,0.0,0.006550866644829512,-0.009163983166217804,-0.0,0.0,0.0,0.0,0.009412454441189766,0.002469165250658989,-0.0006285599083639681,13426.0,13247.0,14337.0,14770.0,0.40179911255836487,0.3904741704463959,0.4617588222026825,0.4917795956134796,0.0,0.0,0.0,0.0,13268.0,14067.0,13990.0,14951.0,1.7435094118118286,-0.02640699987906819,0.02052886983774429,-0.007404119748257755,0.038498613983392715,0.021170249208807945,-0.0
386,5,-0.00284012733027339,-0.00025327305775135756,0.0021817595697939396,-0.009121406823396683,-0.0011870143935084343,0.0026004095561802387,-0.018956394866108894,0.0061851791106164455,0.0051321005448699,-0.5643844604492188,0.46977531909942627,-0.04432273283600807,0.0,0.0,0.0,0.0029088668525218964,-0.00935189239680767,-0.0,0.0,0.0,0.0,0.009412454441189766,0.002469165250658989,-0.0006285599083639681,13426.0,13247.0,14337.0,14770.0,0.40179911255836487,0.3904741704463959,0.4617588222026825,0.4917795956134796,0.0,0.0,0.0,0.0,13030.0,13627.0,13956.0,15138.0,1.7335257530212402,-0.027606656146237772,0.022156570082666728,-0.0077373013669689685,0.0390637144446373,0.00934677105396986,-0.0
391,5,-0.0028658818919211626,-0.00023852175218053162,0.002177328569814563,-0.0067390878684818745,-0.002244963077828288,0.0015718949725851417,-0.018956394866108894,0.0061851791106164455,0.0051321005448699,-0.5643844604492188,0.46977531909942627,-0.04432273283600807,0.0,0.0,0.0,0.0029088668525218964,-0.00935189239680767,-0.0,0.0,0.0,0.0,0.009412454441189766,0.002469165250658989,-0.0006285599083639681,13426.0,13247.0,14337.0,14770.0,0.40179911255836487,0.3904741704463959,0.4617588222026825,0.4917795956134796,0.0,0.0,0.0,0.0,13030.0,13627.0,13956.0,15138.0,1.7335257530212402,-0.02731551678741376,0.022792719298720007,-0.007338321844692578,0.0390637144446373,0.00934677105396986,-0.0
396,5,-0.002899331506341696,-0.0002294557634741068,0.0021830257028341293,-0.006709605921059847,-0.001985903363674879,-5.490566763910465e-05,-0.02487499639391899,0.0008625336340628564,0.004461849573999643,-0.39438682794570923,0.36905109882354736,-0.04326445236802101,0.0,0.0,0.0,0.0029088668525218964,-0.00935189239680767,-0.0,0.0,0.0,0.0,0.008397401310503483,0.0011936586815863848,-0.0008722204365767539,13280.0,13611.0,14137.0,14731.0,0.3925503194332123,0.4136352837085724,0.4482720196247101,0.48905178904533386,0.0,0.0,0.0,0.0,13114.0,13729.0,14086.0,15073.0,1.7335257530212402,-0.027016276612156026,0.02397550990423372,-0.007424648611837773,0.0390637144446373,0.00934677105396986,-0.0
401,5,-0.0029543819837272167,-0.00024807691806927323,0.002196898218244314,-0.009289907291531563,0.0014401767402887344,-0.0016866512596607208,-0.02487499639391899,0.0008625336340628564,0.004461849573999643,-0.39438682794570923,0.36905109882354736,-0.04326445236802101,0.0,0.0,0.0,0.0019141380907967687,-0.009841682389378548,-0.0,0.0,0.0,0.0,0.008397401310503483,0.0011936586815863848,-0.0008722204365767539,13280.0,13611.0,14137.0,14731.0,0.3925503194332123,0.4136352837085724,0.4482720196247101,0.48905178904533386,0.0,0.0,0.0,0.0,13114.0,13729.0,14086.0,15073.0,1.7374842166900635,-0.025415476171284986,0.02441905868573088,-0.007519990093951461,0.041203517466783524,0.006164561491459608,0.0
406,5,-0.003018544754013419,-0.00027477749972604215,0.002202284522354603,-0.011415471322834492,0.0037801412399858236,-0.001321038231253624,-0.02674880065023899,-0.003296804614365101,0.0032958523370325565,0.14399470388889313,0.06794417649507523,-0.05084257200360298,0.0,0.0,0.0,0.0019141380907967687,-0.009841682389378548,-0.0,0.0,0.0,0.0,0.006181373726576567,4.498495763982646e-05,-0.0007997690117917955,13278.0,13848.0,13996.0,14503.0,0.3924142122268677,0.42906373739242554,0.4388653635978699,0.47318243980407715,0.0,0.0,0.0,0.0,13090.0,13867.0,13933.0,14856.0,1.7374842166900635,-0.02396374686164511,0.02451983539762175,-0.00778402558655401,0.041203517466783524,0.006164561491459608,0.0
411,5,-0.003104347735643387,-0.00028900266624987125,0.002210297156125307,-0.014862560667097569,0.003219074569642544,-0.0014899089001119137,-0.02674880065023899,-0.003296804614365101,0.0032958523370325565,0.14399470388889313,0.06794417649507523,-0.05084257200360298,0.0,0.0,0.0,-0.004735027439892292,-0.013800786808133125,-0.0,0.0,0.0,0.0,0.006181373726576567,4.498495763982646e-05,-0.0007997690117917955,13278.0,13848.0,13996.0,14503.0,0.3924142122268677,0.42906373739242554,0.4388653635978699,0.47318243980407715,0.0,0.0,0.0,0.0,13090.0,13867.0,13933.0,14856.0,1.789790153503418,-0.02172325523740641,0.02394569421207897,-0.00811967484863735,0.059516750276088715,-0.015708336606621742,0.0
416,5,-0.0031890245154500008,-0.0003141100751236081,0.002184557495638728,-0.016106225550174713,0.0043005188927054405,0.002492798725143075,-0.024685636162757874,-0.0034050208050757647,0.0028480589389801025,0.34320440888404846,-0.06668569147586823,-0.054869938641786575,0.0,0.0,0.0,-0.004735027439892292,-0.013800786808133125,-0.0,0.0,0.0,0.0,0.0035827760584652424,-0.0013840198516845703,-0.0009999367175623775,13228.0,14118.0,13921.0,14361.0,0.38928481936454773,0.4469830095767975,0.4338438808917999,0.4634140431880951,0.0,0.0,0.0,0.0,13133.0,14050.0,13853.0,14579.0,1.789790153503418,-0.019108903000470592,0.02300278131478887,-0.008419851307472793,0.059516750276088715,-0.015708336606621742,0.0
421,5,-0.003280650358647108,-0.0003544761275406927,0.0022034712601453066,-0.01743759959936142,0.006564135663211346,-0.0012725329725071788,-0.024685636162757874,-0.0034050208050757647,0.0028480589389801025,0.34320440888404846,-0.06668569147586823,-0.054869938641786575,0.0,0.0,0.0,-0.0052478197030723095,-0.017626535147428513,-0.0,0.0,0.0,0.0,0.0035827760584652424,-0.0013840198516845703,-0.0009999367175623775,13228.0,14118.0,13921.0,14361.0,0.38928481936454773,0.4469830095767975,0.4338438808917999,0.4634140431880951,0.0,0.0,0.0,0.0,13133.0,14050.0,13853.0,14579.0,1.8378719091415405,-0.016865192657550633,0.021650619585760016,-0.00880683334356726,0.07805588096380234,-0.017877181991934776,-0.0
427,5,-0.003346547717228532,-0.000374286319129169,0.0021891859360039234,-0.014882714487612247,0.005002875812351704,0.0012052226811647415,-0.019695576280355453,-0.002049828413873911,0.002331627532839775,0.4740379750728607,-0.16627421975135803,-0.04166864603757858,0.0,0.0,0.0,-0.0052478197030723095,-0.017626535147428513,-0.0,0.0,0.0,0.0,0.0018429664196446538,-0.0027515904512256384,-0.0006318935775198042,13438.0,14216.0,14044.0,14003.0,0.40254998207092285,0.4536101818084717,0.4420003294944763,0.4393237233161926,0.0,0.0,0.0,0.0,13199.0,14292.0,13822.0,14368.0,1.8378719091415405,-0.013940869577251722,0.02080291893844459,-0.00928993622595393,0.07805588096380234,-0.017877181991934776,-0.0
432,5,-0.003421238623559475,-0.0003987448872067034,0.0022081348579376936,-0.014915996231138706,0.0049361796118319035,-0.0017917969962581992,-0.019695576280355453,-0.002049828413873911,0.002331627532839775,0.4740379750728607,-0.16627421975135803,-0.04166864603757858,0.0,0.0,0.0,-0.006143250502645969,-0.016856549307703972,-0.0,0.0,0.0,0.0,0.0018429664196446538,-0.0027515904512256384,-0.0006318935775198042,13438.0,14216.0,14044.0,14003.0,0.40254998207092285,0.4536101818084717,0.4420003294944763,0.4393237233161926,0.0,0.0,0.0,0.0,13199.0,14292.0,13822.0,14368.0,1.8304786682128906,-0.0111366750089186,0.01929116515978658,-0.00982088414946266,0.07434580475091934,-0.020843299105763435,-0.0
437,5,-0.0034909690730273724,-0.00042770509026013315,0.0022335557732731104,-0.014334048144519329,0.0054496959783136845,-0.003767214249819517,-0.015438951551914215,-0.000534414779394865,0.0019595385529100895,0.5404544472694397,-0.258368581533432,-0.05280786752700806,0.0,0.0,0.0,-0.006143250502645969,-0.016856549307703972,-0.0,0.0,0.0,0.0,-0.0012573921121656895,-0.00475970609113574,-0.0010389111703261733,13575.0,14803.0,14092.0,14000.0,0.4112824499607086,0.49412575364112854,0.4452480375766754,0.4391339123249054,0.0,0.0,0.0,0.0,13483.0,14760.0,13992.0,14233.0,1.8304786682128906,-0.00878514972429812,0.018508057512133465,-0.010265188960881355,0.07434580475091934,-0.020843299105763435,-0.0
442,5,-0.003561868332326412,-0.0004322752356529236,0.0022528122644871473,-0.01424154732376337,0.002728294348344207,-0.0038176700472831726,-0.015438951551914215,-0.000534414779394865,0.0019595385529100895,0.5404544472694397,-0.258368581533432,-0.05280786752700806,0.0,0.0,0.0,-0.006730223540216684,-0.016587918624281883,-0.0,0.0,0.0,0.0,-0.0012573921121656895,-0.00475970609113574,-0.0010389111703261733,13575.0,14803.0,14092.0,14000.0,0.4112824499607086,0.49412575364112854,0.4452480375766754,0.4391339123249054,0.0,0.0,0.0,0.0,13483.0,14760.0,13992.0,14233.0,1.8288272619247437,-0.0060868718548664595,0.016248062601465378,-0.010030200547343503,0.07309484481811523,-0.022814175114035606,0.0
447,5,-0.0036230674013495445,-0.00045248199603520334,0.0022707260213792324,-0.013040507212281227,0.003516129683703184,-0.0036767267156392336,-0.00900538731366396,0.0026910309679806232,0.0013745306059718132,0.496538907289505,-0.30381467938423157,-0.02727280929684639,0.0,0.0,0.0,-0.006730223540216684,-0.016587918624281883,-0.0,0.0,0.0,0.0,-0.0020872545428574085,-0.00640660896897316,-0.001158062950707972,13824.0,15060.0,14418.0,13872.0,0.4274904429912567,0.5124136209487915,0.4673297703266144,0.43063804507255554,0.0,0.0,0.0,0.0,13301.0,15448.0,13920.0,14451.0,1.8288272619247437,-0.004638664663697702,0.014737021821478652,-0.010542007567065656,0.07309484481811523,-0.022814175114035606,0.0
452,5,-0.0036944453604519367,-0.0004406750958878547,0.002328350208699703,-0.01378155592828989,-1.0376430509495549e-05,-0.008385584689676762,-0.00900538731366396,0.0026910309679806232,0.0013745306059718132,0.496538907289505,-0.30381467938423157,-0.02727280929684639,0.0,0.0,0.0,-0.004670400172472,-0.015784936025738716,-0.0,0.0,0.0,0.0,-0.0020872545428574085,-0.00640660896897316,-0.001158062950707972,13824.0,15060.0,14418.0,13872.0,0.4274904429912567,0.5124136209487915,0.4673297703266144,0.43063804507255554,0.0,0.0,0.0,0.0,13301.0,15448.0,13920.0,14451.0,1.8137269020080566,-0.0029736736053298917,0.013757499302883221,-0.011128505672007597,0.0689832866191864,-0.015701157972216606,0.0
457,5,-0.0037772851064801216,-0.00041798505117185414,0.002371322363615036,-0.015453387051820755,-0.0027269558049738407,-0.008510899730026722,-0.005540427751839161,0.005241417326033115,0.000941347680054605,0.2823511064052582,-0.305123895406723,-0.05031761899590492,0.0,0.0,0.0,-0.004670400172472,-0.015784936025738716,-0.0,0.0,0.0,0.0,-0.0022561645600944757,-0.007177583873271942,-0.001427382929250598,13569.0,15192.0,14286.0,14004.0,0.41088730096817017,0.5219197273254395,0.45831453800201416,0.43935710191726685,0.0,0.0,0.0,0.0,12918.0,15697.0,13754.0,14554.0,1.8137269020080566,-0.003385972868955081,0.011241926536730429,-0.011562552451205002,0.0689832866191864,-0.015701157972216606,0.0
462,5,-0.003848729422315955,-0.0004053776792716235,0.002428899984806776,-0.014754687435925007,-0.0026036666240543127,-0.010313676670193672,-0.005540427751839161,0.005241417326033115,0.000941347680054605,0.2823511064052582,-0.305123895406723,-0.05031761899590492,0.0,0.0,0.0,0.0023212141823023558,-0.01783524826169014,-0.0,0.0,0.0,0.0,-0.0022561645600944757,-0.007177583873271942,-0.001427382929250598,13569.0,15192.0,14286.0,14004.0,0.41088730096817017,0.5219197273254395,0.45831453800201416,0.43935710191726685,0.0,0.0,0.0,0.0,12918.0,15697.0,13754.0,14554.0,1.8358262777328491,-0.004141419997435866,0.009414669433864323,-0.011667677542986803,0.07889299839735031,0.007898682728409767,0.0
467,5,-0.003952117171138525,-0.0003948548692278564,0.0024772656615823507,-0.018308401107788086,-0.002304204273968935,-0.009929345920681953,-0.003328942460939288,0.008537612855434418,0.00039778643986210227,0.07741745561361313,-0.260865718126297,-0.01088580209761858,0.0,0.0,0.0,0.0023212141823023558,-0.01783524826169014,-0.0,0.0,0.0,0.0,-0.0010897298343479633,-0.007307229097932577,-0.0011183725437149405,13762.0,14888.0,14627.0,13763.0,0.42345279455184937,0.500111997127533,0.4817686080932617,0.4234938621520996,0.0,0.0,0.0,0.0,13458.0,14971.0,14386.0,13995.0,1.8358262777328491,-0.005973887771757691,0.009787150386811676,-0.01269502756619857,0.07889299839735031,0.007898682728409767,0.0
472,5,-0.0039297291077673435,-0.0003698159707710147,0.0024178107269108295,-0.004636811558157206,-0.003926347941160202,0.003162848763167858,-0.003328942460939288,0.008537612855434418,0.00039778643986210227,0.07741745561361313,-0.260865718126297,-0.01088580209761858,0.0,0.0,0.0,0.0018622750649228692,-0.020151404663920403,-0.0,0.0,0.0,0.0,-0.0010897298343479633,-0.007307229097932577,-0.0011183725437149405,13762.0,14888.0,14627.0,13763.0,0.42345279455184937,0.500111997127533,0.4817686080932617,0.4234938621520996,0.0,0.0,0.0,0.0,13458.0,14971.0,14386.0,13995.0,1.865433931350708,-0.008510373046053126,0.007381748578442497,-0.012814215877440778,0.090574711561203,0.006439198274165392,0.0
477,5,-0.003996013663709164,-0.0003306882572360337,0.00260358233936131,-0.009808848612010479,-0.006265865173190832,-0.021027442067861557,-0.0036039825063198805,0.010222043842077255,0.00016175238124560565,-0.12981164455413818,-0.13373568654060364,-0.018735146149992943,0.0,0.0,0.0,0.0018622750649228692,-0.020151404663920403,-0.0,0.0,0.0,0.0,0.0006372632924467325,-0.006531692110002041,-0.0007970710285007954,13619.0,14700.0,14570.0,13937.0,0.41415098309516907,0.4868426024913788,0.4778002202510834,0.4349330961704254,0.0,0.0,0.0,0.0,13182.0,15037.0,14236.0,14335.0,1.865433931350708,-0.012138017981316161,0.004366680805550094,-0.013504831016511563,0.090574711561203,0.006439198274165392,0.0
482,5,-0.00406643096357584,-0.00021730124717578292,0.002672098344191909,-0.012373620644211769,-0.016112785786390305,-0.016632895916700363,-0.0036039825063198805,0.010222043842077255,0.00016175238124560565,-0.12981164455413818,-0.13373568654060364,-0.018735146149992943,0.0,0.0,0.0,0.006513330154120922,-0.013646126724779606,-0.0,0.0,0.0,0.0,0.0006372632924467325,-0.006531692110002041,-0.0007970710285007954,13619.0,14700.0,14570.0,13937.0,0.41415098309516907,0.4868426024913788,0.4778002202510834,0.4349330961704254,0.0,0.0,0.0,0.0,13182.0,15037.0,14236.0,14335.0,1.7930622100830078,-0.008061973902319145,0.0075800195958572805,-0.012529484778663794,0.0589568093419075,0.02164718508720398,0.0
