timestamp,dt,pos_x,pos_y,pos_z,vel_x,vel_y,vel_z,roll,pitch,yaw,agv_x,agv_y,agv_z,x_ref,y_ref,z_ref,roll_ref,pitch_ref,yaw_ref,x_vel_ref,y_vel_ref,z_vel_ref,x_torque,y_torque,z_torque,w0,w1,w2,w3,u0,u1,u2,u3,m0req,m1req,m2req,m3req,thrust0,thrust1,thrust2,thrust3,thrust_ref,roll_vicon,pitch_vicon,yaw_vicon,acc_x,acc_y,acc_z
5,5,0.0,0.0,0.0,-0.008451884612441063,-0.0054933843202888966,-0.019255144521594048,-0.003290238557383418,-0.27490752935409546,0.01323175523430109,0.001993295969441533,0.00279746251180768,0.005265566520392895,0.0,0.0,0.0,0.0064344084821641445,-0.007615293376147747,-0.0,0.0,0.0,0.0,0.0009360862895846367,0.08257380872964859,0.0014227456413209438,1495.0,1495.0,1495.0,1495.0,0.0,0.0,0.0,0.0,0.0,0.0,0.0,0.0,1495.0,1495.0,1495.0,1495.0,1.7272671461105347,0.09633425797372519,0.2837987811022432,-0.14338502894197475,0.03169456869363785,0.02060019038617611,0.0
31,26,0.0,0.0,0.0,-0.0002951882197521627,-0.003027775790542364,-0.006044353358447552,-0.003290238557383418,-0.27490752935409546,0.01323175523430109,0.001993295969441533,0.00279746251180768,0.005265566520392895,0.0,0.0,0.0,0.0064344084821641445,-0.007615293376147747,-0.0,0.0,0.0,0.0,0.0009360862895846367,0.08257380872964859,0.0014227456413209438,1495.0,1495.0,1495.0,1495.0,0.0,0.0,0.0,0.0,0.0,0.0,0.0,0.0,1495.0,1495.0,1495.0,1495.0,1.7272671461105347,0.09739881676109309,0.28074381300925516,-0.14148112303755364,0.03169456869363785,0.02060019038617611,0.0
36,5,0.0,0.0,0.0,0.004919764585793018,0.0015001065330579877,-0.014700786210596561,-0.003295255359262228,-0.27490556240081787,0.013241985812783241,0.0013966275146231055,-0.0023697579745203257,0.00397163862362504,0.0,0.0,0.0,0.003609385108575225,-0.0002706862869672477,-0.0,0.0,0.0,0.0,0.002935872646048665,0.08003111183643341,0.0013357645366340876,1495.0,1495.0,1495.0,1495.0,0.0,0.0,0.0,0.0,0.0,0.0,0.0,0.0,1495.0,1495.0,1495.0,1495.0,1.6971293687820435,0.1047446932990545,0.2785920966272064,-0.14254318250907114,0.0011069558095186949,0.011354159563779831,0.0
46,10,0.0,0.0,0.0,-0.00127100117970258,-0.0017822907539084554,0.013156669214367867,-0.003295255359262228,-0.27490556240081787,0.013241985812783241,0.0013966275146231055,-0.0023697579745203257,0.00397163862362504,0.0,0.0,0.0,0.0021243856754153967,-0.0011653539258986712,-0.0,0.0,0.0,0.0,0.002935872646048665,0.08003111183643341,0.0013357645366340876,1495.0,1495.0,1495.0,1495.0,0.0,0.0,0.0,0.0,0.0,0.0,0.0,0.0,1495.0,1495.0,1495.0,1495.0,1.6973387002944946,0.09660870195612706,0.2803601600096347,-0.14101560264577728,0.004766254220157862,0.006683590356260538,0.0
54,8,0.0,0.0,0.0,0.0025797083508223295,0.003732956713065505,-0.0035947593860328197,-0.003295255359262228,-0.27490556240081787,0.013241985812783241,0.0013966275146231055,-0.0023697579745203257,0.00397163862362504,0.0,0.0,0.0,0.0021243856754153967,-0.0011653539258986712,-0.0,0.0,0.0,0.0,0.002935872646048665,0.08003111183643341,0.0013357645366340876,1495.0,1495.0,1495.0,1495.0,0.0,0.0,0.0,0.0,0.0,0.0,0.0,0.0,1495.0,1495.0,1495.0,1495.0,1.6973387002944946,0.10485861575570364,0.27839257685766144,-0.14359671596238682,0.004766254220157862,0.006683590356260538,0.0
59,5,0.0,0.0,0.0,-0.0031221676617860794,-0.0027164260391145945,0.01752726174890995,-0.0033032591454684734,-0.27491164207458496,0.013245406560599804,-4.080670805706177e-06,-0.006343459710478783,0.0025473244022578,0.0,0.0,0.0,0.003237667493522167,-0.0028625214472413063,-0.0,0.0,0.0,0.0,0.0029450838919728994,0.08006192743778229,0.0013425634242594242,1495.0,1495.0,1495.0,1495.0,0.0,0.0,0.0,0.0,0.0,0.0,0.0,0.0,1495.0,1495.0,1495.0,1495.0,1.697421669960022,0.09639921756398843,0.2793167282393378,-0.1407030607220707,0.011708129197359085,0.01018659770488739,0.0
64,5,0.0,0.0,0.0,0.0002858979278244078,0.0008029902819544077,0.011614436283707619,-0.0033032591454684734,-0.27491164207458496,0.013245406560599804,-4.080670805706177e-06,-0.006343459710478783,0.0025473244022578,0.0,0.0,0.0,0.003237667493522167,-0.0028625214472413063,-0.0,0.0,0.0,0.0,0.0029450838919728994,0.08006192743778229,0.0013425634242594242,1495.0,1495.0,1495.0,1495.0,0.0,0.0,0.0,0.0,0.0,0.0,0.0,0.0,1495.0,1495.0,1495.0,1495.0,1.697421669960022,0.09908524971003775,0.2802742906353419,-0.14181316787111783,0.011708129197359085,0.01018659770488739,0.0
69,5,-3.460604784777388e-05,2.7317588319419883e-05,6.343721906887367e-05,-0.004038366489112377,-0.00295691448263824,-0.0029666919726878405,-0.0032903908286243677,-0.27491283416748047,0.013285866938531399,-0.00015856650134082884,0.0018672863952815533,0.004068633541464806,0.0,0.0,0.0,0.003570282133296132,-0.0037472029216587543,-0.0,0.0,0.0,0.0,0.002052854746580124,0.08232113718986511,0.001283059362322092,1495.0,1495.0,1495.0,1495.0,0.0,0.0,0.0,0.0,0.0,0.0,0.0,0.0,1495.0,1495.0,1495.0,1495.0,1.6982805728912354,0.09813755941541663,0.2800652355643445,-0.14086795002748853,0.015334328636527061,0.011238771490752697,0.0
74,5,-9.749994205776602e-06,3.9487757021561265e-05,1.0204435056948569e-05,0.001367379678413272,-0.0026431861333549023,0.005201257765293121,-0.0032903908286243677,-0.27491283416748047,0.013285866938531399,-0.00015856650134082884,0.0018672863952815533,0.004068633541464806,0.0,0.0,0.0,0.003570282133296132,-0.0037472029216587543,-0.0,0.0,0.0,0.0,0.002052854746580124,0.08232113718986511,0.001283059362322092,1495.0,1495.0,1495.0,1495.0,0.0,0.0,0.0,0.0,0.0,0.0,0.0,0.0,1495.0,1495.0,1495.0,1495.0,1.6982805728912354,0.0984308237017817,0.28063512901729054,-0.14082162935743753,0.015334328636527061,0.011238771490752697,0.0
79,5,5.988594239170197e-06,-1.9296845493954606e-05,0.00012901960872113705,0.0024355824571102858,0.005996877793222666,-0.012177317403256893,-0.0032903908286243677,-0.27491283416748047,0.013285866938531399,-0.00015856650134082884,0.0018672863952815533,0.004068633541464806,0.0,0.0,0.0,0.003570282133296132,-0.0037472029216587543,-0.0,0.0,0.0,0.0,0.002052854746580124,0.08232113718986511,0.001283059362322092,1495.0,1495.0,1495.0,1495.0,0.0,0.0,0.0,0.0,0.0,0.0,0.0,0.0,1495.0,1495.0,1495.0,1495.0,1.6982805728912354,0.10455194118954614,0.28030631637648823,-0.1432377127130367,0.015334328636527061,0.011238771490752697,0.0
85,5,5.793700984213501e-05,-4.510365215537604e-06,4.570832970784977e-05,0.007208042778074741,0.0006243735551834106,0.005126425996422768,-0.0032870364375412464,-0.2749069035053253,0.013273889198899269,-0.00018926757911685854,-0.003193518379703164,-0.0005596702103503048,0.0,0.0,0.0,-0.007178728934377432,0.002240273170173168,-0.0,0.0,0.0,0.0,0.001573776826262474,0.0822642594575882,0.0013650989858433604,18902.0,2859.0,6825.0,18298.0,0.8251959085464478,0.00978749617934227,0.09124651551246643,0.7711087465286255,0.0,0.0,0.0,0.0,18884.0,2548.0,6874.0,18331.0,1.6980535984039307,0.10338738961839847,0.2817359517130283,-0.14422037870061444,-0.009166271425783634,-0.022594396024942398,0.0
90,5,2.921695886470843e-05,1.321931995335035e-05,0.00015623467334080487,-0.000563188805244863,-0.0018778127850964665,-0.011212591081857681,-0.0033080948051065207,-0.2749827206134796,0.013283091597259045,-0.0012249014107510448,0.0007856787415221334,-0.0023684741463512182,0.0,0.0,0.0,-0.007178728934377432,0.002240273170173168,-0.0,0.0,0.0,0.0,0.0020041961688548326,0.08183848112821579,0.0012673733290284872,18829.0,3132.0,6850.0,18329.0,0.8186364769935608,0.012866392731666565,0.09201844781637192,0.7739003300666809,0.0,0.0,0.0,0.0,18907.0,2757.0,6839.0,18299.0,1.6980535984039307,0.10230487081510999,0.2788887455053359,-0.14302963426055446,-0.009166271425783634,-0.022594396024942398,0.0
95,5,4.897427061223425e-06,1.0368965376983397e-05,4.9683538236422464e-05,-0.0031436195131391287,-0.0004090825386811048,0.008301099762320518,-0.0033080948051065207,-0.2749827206134796,0.013283091597259045,-0.0012249014107510448,0.0007856787415221334,-0.0023684741463512182,0.0,0.0,0.0,0.002260223962366581,-0.0004768426879309118,-0.0,0.0,0.0,0.0,0.0020041961688548326,0.08183848112821579,0.0012673733290284872,18829.0,3132.0,6850.0,18329.0,0.8186364769935608,0.012866392731666565,0.09201844781637192,0.7739003300666809,0.0,0.0,0.0,0.0,18907.0,2757.0,6839.0,18299.0,1.6982039213180542,0.09867482233209905,0.27956629840718394,-0.14175469015399833,0.0019512627040967345,0.007114578504115343,0.0
100,5,-3.57247881765943e-06,-4.765248377225362e-06,0.0001916113105835393,-0.0022738364059478045,0.0016524726524949074,-0.013710892759263515,-0.0033080948051065207,-0.2749827206134796,0.013283091597259045,-0.0012249014107510448,0.0007856787415221334,-0.0023684741463512182,0.0,0.0,0.0,0.002260223962366581,-0.0004768426879309118,-0.0,0.0,0.0,0.0,0.0020041961688548326,0.08183848112821579,0.0012673733290284872,18829.0,3132.0,6850.0,18329.0,0.8186364769935608,0.012866392731666565,0.09201844781637192,0.7739003300666809,0.0,0.0,0.0,0.0,18907.0,2757.0,6839.0,18299.0,1.6982039213180542,0.10519008901798015,0.2774788873460532,-0.14277577282817883,0.0019512627040967345,0.007114578504115343,0.0
105,5,-3.797181307163555e-07,1.1263372471148614e-05,8.89922448550351e-05,-0.000526403309777379,-0.001262445468455553,0.006829931400716305,-0.0032940004020929337,-0.2749381363391876,0.013319969177246094,-0.001423083944246173,-0.004568577744066715,0.0015431540086865425,0.0,0.0,0.0,-0.0019760478753596544,-0.0020876170601695776,-0.0,0.0,0.0,0.0,0.0020689107477664948,0.08124995976686478,0.001444307854399085,18847.0,2966.0,7070.0,18265.0,0.8202294707298279,0.010950826108455658,0.09887424856424332,0.7682260274887085,0.0,0.0,0.0,0.0,18825.0,3142.0,6952.0,18307.0,1.698982834815979,0.1012875613305846,0.2790468939849874,-0.1420373709096979,0.008546545170247555,-0.006222923751920462,0.0
110,5,1.7239881344721653e-05,-7.228453796415124e-06,0.00015234629972837865,0.0019037907477468252,0.0017140409909188747,-0.004870513454079628,-0.0032940004020929337,-0.2749381363391876,0.013319969177246094,-0.001423083944246173,-0.004568577744066715,0.0015431540086865425,0.0,0.0,0.0,-0.0019760478753596544,-0.0020876170601695776,-0.0,0.0,0.0,0.0,0.0020689107477664948,0.08124995976686478,0.001444307854399085,18847.0,2966.0,7070.0,18265.0,0.8202294707298279,0.010950826108455658,0.09887424856424332,0.7682260274887085,0.0,0.0,0.0,0.0,18825.0,3142.0,6952.0,18307.0,1.698982834815979,0.10442569033520704,0.27901758080115174,-0.14302745208019368,0.008546545170247555,-0.006222923751920462,0.0
115,5,2.1649100744980387e-05,-6.964997282921104e-06,-1.3935497008787934e-05,0.0012906225165352225,0.000654001603834331,0.0180056095123291,-0.003292947309091687,-0.27492207288742065,0.01332091260701418,0.0006806597230024636,-0.007588756270706654,0.003230487694963813,0.0,0.0,0.0,-0.002053649630397558,0.0017670097295194864,-0.0,0.0,0.0,0.0,-0.0011629638029262424,0.08318974822759628,0.0013985484838485718,19092.0,3414.0,6322.0,18198.0,0.8426461815834045,0.016437500715255737,0.07655877619981766,0.7624111771583557,0.0,0.0,0.0,0.0,19091.0,3431.0,6288.0,18208.0,1.6990019083023071,0.09849038884407983,0.2810677097289964,-0.1422796230492154,-0.007234084419906139,-0.00646737776696682,0.0
120,5,-2.2636329504166497e-06,2.2506917957798578e-05,-6.597161245736061e-06,-0.0023532789200544357,-0.0032750291284173727,0.006321643479168415,-0.0032701159361749887,-0.2748931646347046,0.01334250159561634,0.0033936360850930214,-0.006455244962126017,0.00420825881883502,0.0,0.0,0.0,0.003938097972422838,-0.002158012008294463,-0.0,0.0,0.0,0.0,-0.0012000254355370998,0.08325298875570297,0.0013839179882779717,18926.0,2659.0,6853.0,18295.0,0.8274276256561279,0.00777016207575798,0.09209376573562622,0.7709123492240906,0.0,0.0,0.0,0.0,18932.0,2608.0,6835.0,18301.0,1.6994673013687134,0.09693629581106585,0.2805471867884723,-0.1410355911279123,0.008837203495204449,0.012405258603394032,0.0
125,5,1.9629154849098995e-05,-1.968487231351901e-05,0.00016463523206766695,0.0016858228482306004,0.0037530031986534595,-0.01801922917366028,-0.0032701159361749887,-0.2748931646347046,0.01334250159561634,0.0033936360850930214,-0.006455244962126017,0.00420825881883502,0.0,0.0,0.0,0.003938097972422838,-0.002158012008294463,-0.0,0.0,0.0,0.0,-0.0012000254355370998,0.08325298875570297,0.0013839179882779717,18926.0,2659.0,6853.0,18295.0,0.8274276256561279,0.00777016207575798,0.09209376573562622,0.7709123492240906,0.0,0.0,0.0,0.0,18932.0,2608.0,6835.0,18301.0,1.6994673013687134,0.10443914449294185,0.2790501761059819,-0.14318932909275162,0.008837203495204449,0.012405258603394032,0.0
130,5,-1.5317338693421334e-05,9.057906027010176e-06,4.775562774739228e-05,-0.0035192500799894333,-0.0019479321781545877,0.006817860063165426,-0.0032701159361749887,-0.2748931646347046,0.01334250159561634,0.0033936360850930214,-0.006455244962126017,0.00420825881883502,0.0,0.0,0.0,0.003938097972422838,-0.002158012008294463,-0.0,0.0,0.0,0.0,-0.0012000254355370998,0.08325298875570297,0.0013839179882779717,18926.0,2659.0,6853.0,18295.0,0.8274276256561279,0.00777016207575798,0.09209376573562622,0.7709123492240906,0.0,0.0,0.0,0.0,18932.0,2608.0,6835.0,18301.0,1.6994673013687134,0.09870757022385798,0.2797524462964255,-0.14170823386166553,0.008837203495204449,0.012405258603394032,0.0
135,5,1.5798294043634087e-05,2.2361157903105777e-07,0.00014971742348279804,0.0019289073534309864,-0.0020886987913399935,-0.0034243843983858824,-0.0032630860805511475,-0.2749018967151642,0.013337770476937294,0.00190670695155859,-0.001561416662298143,-0.002001658547669649,0.0,0.0,0.0,0.0023349151015281677,-0.0032434628810733557,-0.0,0.0,0.0,0.0,0.0003192911099176854,0.08217962086200714,0.0013487867545336485,18947.0,3479.0,6621.0,18253.0,0.8293262720108032,0.017316758632659912,0.0851435586810112,0.7671962976455688,0.0,0.0,0.0,0.0,18946.0,3411.0,6664.0,18251.0,1.699364185333252,0.10410502047790181,0.27898702991100416,-0.14284723136410107,0.013281445018947124,0.0073547069914639,-0.0
140,5,1.5798294043634087e-05,2.2361157903105777e-07,0.00014971742348279804,0.0019289073534309864,-0.0020886987913399935,-0.0034243843983858824,-0.0032630860805511475,-0.2749018967151642,0.013337770476937294,0.00190670695155859,-0.001561416662298143,-0.002001658547669649,0.0,0.0,0.0,0.0023349151015281677,-0.0032434628810733557,-0.0,0.0,0.0,0.0,0.0003192911099176854,0.08217962086200714,0.0013487867545336485,18947.0,3479.0,6621.0,18253.0,0.8293262720108032,0.017316758632659912,0.0851435586810112,0.7671962976455688,0.0,0.0,0.0,0.0,18946.0,3411.0,6664.0,18251.0,1.699364185333252,0.10410502047790181,0.27898702991100416,-0.14284723136410107,0.013281445018947124,0.0073547069914639,-0.0
146,5,-2.452447370160371e-05,1.6757658158894628e-05,0.00013338631833903491,-0.005617402493953705,-0.002903807908296585,0.00318977702409029,-0.0032791595440357924,-0.2749113440513611,0.013336393050849438,-0.00016253037028945982,0.0007179692620411515,-0.0035957160871475935,0.0,0.0,0.0,0.0024871265050023794,0.0017877350328490138,-0.0,0.0,0.0,0.0,0.00040242206887342036,0.08343643695116043,0.0012793964706361294,18995.0,3099.0,6385.0,18336.0,0.8336901068687439,0.012469291687011719,0.07830674201250076,0.7745357155799866,0.0,0.0,0.0,0.0,19023.0,2859.0,6486.0,18305.0,1.6993294954299927,0.10059363779842695,0.2790579706428726,-0.14136979673984806,-0.007320336997509003,0.00783399399369955,0.0
151,5,9.126968507189304e-06,1.4310765436675865e-05,9.444043826078996e-05,0.0017912121256813407,-0.0008678960730321705,0.005949417129158974,-0.0032791595440357924,-0.2749113440513611,0.013336393050849438,-0.00016253037028945982,0.0007179692620411515,-0.0035957160871475935,0.0,0.0,0.0,0.0024871265050023794,0.0017877350328490138,-0.0,0.0,0.0,0.0,0.00040242206887342036,0.08343643695116043,0.0012793964706361294,18995.0,3099.0,6385.0,18336.0,0.8336901068687439,0.012469291687011719,0.07830674201250076,0.7745357155799866,0.0,0.0,0.0,0.0,19023.0,2859.0,6486.0,18305.0,1.6993294954299927,0.09943974557687073,0.2792987576694331,-0.14155278349695966,-0.007320336997509003,0.00783399399369955,0.0
156,5,-8.646627065900248e-06,2.0460825908230618e-05,8.287729724543169e-05,-0.0014163465239107609,-0.0010851657716557384,0.0037673437036573887,-0.003275291295722127,-0.27491357922554016,0.0133338188752532,-0.0031145308166742325,-0.0018613880965858698,-0.0003706400457303971,0.0,0.0,0.0,0.0010583546245470643,0.0016527328407391906,-0.0,0.0,0.0,0.0,0.0022025795187801123,0.08219646662473679,0.0013657590607181191,18870.0,2705.0,6914.0,18341.0,0.8223355412483215,0.00821114331483841,0.09396539628505707,0.7749552130699158,0.0,0.0,0.0,0.0,18867.0,2794.0,6854.0,18355.0,1.6992706060409546,0.09859177610666908,0.2791816964383808,-0.14117621576317027,-0.006767319515347481,0.0033335131593048573,-0.0
161,5,1.8984947018907405e-05,-4.757448550662957e-05,0.00015291065210476518,0.0027492502704262733,0.007730171084403992,-0.006897064857184887,-0.003275291295722127,-0.27491357922554016,0.0133338188752532,-0.0031145308166742325,-0.0018613880965858698,-0.0003706400457303971,0.0,0.0,0.0,0.0010583546245470643,0.0016527328407391906,-0.0,0.0,0.0,0.0,0.0022025795187801123,0.08219646662473679,0.0013657590607181191,18870.0,2705.0,6914.0,18341.0,0.8223355412483215,0.00821114331483841,0.09396539628505707,0.7749552130699158,0.0,0.0,0.0,0.0,18867.0,2794.0,6854.0,18355.0,1.6992706060409546,0.10487070552944804,0.2786907633626661,-0.14413104354968598,-0.006767319515347481,0.0033335131593048573,-0.0
166,5,-5.862185571459122e-05,2.8164489776827395e-05,0.00014835962792858481,-0.00821311678737402,-0.005996608640998602,-0.0022127036936581135,-0.0033070812933146954,-0.2749065160751343,0.01334304641932249,-0.0018039735732600093,-0.0021004227455705404,-0.0002771048457361758,0.0,0.0,0.0,-0.00923207774758339,0.0025285365991294384,-0.0,0.0,0.0,0.0,0.0017718642484396696,0.08190319687128067,0.00138181378133595,18883.0,2977.0,6905.0,18298.0,0.8234705924987793,0.011073190718889236,0.09369802474975586,0.7711223363876343,0.0,0.0,0.0,0.0,18966.0,2156.0,6634.0,18389.0,1.7093292474746704,0.09787356096480596,0.27832349959657354,-0.1407222861054786,-0.010414247401058674,-0.029249774292111397,0.0
171,5,-2.644934102136176e-05,4.161070683039725e-05,2.0612185835489072e-05,0.0005754553712904453,-0.004012189339846373,0.014444611966609955,-0.0033070812933146954,-0.2749065160751343,0.01334304641932249,-0.0018039735732600093,-0.0021004227455705404,-0.0002771048457361758,0.0,0.0,0.0,-0.00923207774758339,0.0025285365991294384,-0.0,0.0,0.0,0.0,0.0017718642484396696,0.08190319687128067,0.00138181378133595,18883.0,2977.0,6905.0,18298.0,0.8234705924987793,0.011073190718889236,0.09369802474975586,0.7711223363876343,0.0,0.0,0.0,0.0,18966.0,2156.0,6634.0,18389.0,1.7093292474746704,0.09720001376331223,0.27944848684146345,-0.14044150125011606,-0.010414247401058674,-0.029249774292111397,0.0
176,5,-3.828890112345107e-05,1.5186239579634275e-05,5.044419231126085e-05,-0.0011905650608241558,0.0015660603530704975,0.0021980039309710264,-0.0032993019558489323,-0.27497628331184387,0.013462629169225693,-0.003911960404366255,0.002295187907293439,0.02750210091471672,0.0,0.0,0.0,0.004848996642976999,0.0004914510645903647,-0.0,0.0,0.0,0.0,0.0018055130494758487,0.08378766477108002,0.001736411708407104,19122.0,1495.0,7101.0,18234.0,0.8454200625419617,-0.011441141366958618,0.099848173558712,0.765502393245697,0.0,0.0,0.0,0.0,18966.0,2156.0,6634.0,18389.0,1.6994818449020386,0.0988455433258452,0.2799951310551328,-0.14140978567589532,-0.002012535696849227,0.015274741686880589,-0.0
181,5,-2.2607327991863713e-05,2.422369652776979e-05,3.328714592498727e-05,0.0014055627398192883,-0.00045807071728631854,0.002938047284260392,-0.0032993019558489323,-0.27497628331184387,0.013462629169225693,-0.003911960404366255,0.002295187907293439,0.02750210091471672,0.0,0.0,0.0,0.004848996642976999,0.0004914510645903647,-0.0,0.0,0.0,0.0,0.0018055130494758487,0.08378766477108002,0.001736411708407104,19122.0,1495.0,7101.0,18234.0,0.8454200625419617,-0.011441141366958618,0.099848173558712,0.765502393245697,0.0,0.0,0.0,0.0,18966.0,2156.0,6634.0,18389.0,1.6994818449020386,0.09726488376718613,0.2805011962515234,-0.1409164719021695,-0.002012535696849227,0.015274741686880589,-0.0
186,5,-4.03408776037395e-05,4.2314128222642466e-05,7.817168079782277e-05,-0.0015658008633181453,-0.0023540803231298923,-0.004210925195366144,-0.0034120078198611736,-0.2749435603618622,0.013175003230571747,-0.006584403105080128,-0.010812479071319103,-0.0017173398518934846,0.0,0.0,0.0,0.0005868173320777714,0.0012548883678391576,-0.0,0.0,0.0,0.0,0.0013832311378791928,0.08336766809225082,6.91364475642331e-05,18759.0,4002.0,5961.0,18567.0,0.8122706413269043,0.025166712701320648,0.06678349524736404,0.795049786567688,0.0,0.0,0.0,0.0,19511.0,1495.0,7382.0,17852.0,1.701979637145996,0.09595842440355047,0.2801214245106682,-0.1399880710446966,-0.0051464904099702835,0.0018512530950829387,-0.0
192,5,-6.122059858171269e-06,-1.1274093594693113e-05,5.8061319577973336e-05,0.0034799377899616957,0.005488954484462738,0.0007288731867447495,-0.0034120078198611736,-0.2749435603618622,0.013175003230571747,-0.006584403105080128,-0.010812479071319103,-0.0017173398518934846,0.0,0.0,0.0,0.0005868173320777714,0.0012548883678391576,-0.0,0.0,0.0,0.0,0.0013832311378791928,0.08336766809225082,6.91364475642331e-05,18759.0,4002.0,5961.0,18567.0,0.8122706413269043,0.025166712701320648,0.06678349524736404,0.795049786567688,0.0,0.0,0.0,0.0,19511.0,1495.0,7382.0,17852.0,1.701979637145996,0.09868068780210791,0.279616251408274,-0.14278228739192148,-0.0051464904099702835,0.0018512530950829387,-0.0
197,5,-1.7532960555399768e-05,1.7725969883031212e-05,9.405276796314865e-05,2.2667050870950334e-05,-0.0012844258453696966,-0.004027424845844507,-0.0032020655926316977,-0.27490490674972534,0.013490153476595879,0.030745575204491615,0.003750312840566039,-0.058891430497169495,0.0,0.0,0.0,-0.006567531265318394,0.003185074543580413,-0.0,0.0,0.0,0.0,-0.002208907622843981,0.08404696732759476,0.0022723416332155466,19164.0,4017.0,5895.0,18280.0,0.8492581844329834,0.025421280413866043,0.06507042050361633,0.7695793509483337,0.0,0.0,0.0,0.0,17925.0,7327.0,1495.0,19428.0,1.6959679126739502,0.09782014196961229,0.27744602900643606,-0.14101009677843604,-0.013016044162213802,-0.020645368844270706,-0.0
202,5,-1.997204526560381e-05,7.660556548216846e-06,0.0001418206957168877,-0.00028362340526655316,0.0006940793828107417,-0.007343120872974396,-0.0032020655926316977,-0.27490490674972534,0.013490153476595879,0.030745575204491615,0.003750312840566039,-0.058891430497169495,0.0,0.0,0.0,-0.006567531265318394,0.003185074543580413,-0.0,0.0,0.0,0.0,-0.002208907622843981,0.08404696732759476,0.0022723416332155466,19164.0,4017.0,5895.0,18280.0,0.8492581844329834,0.025421280413866043,0.06507042050361633,0.7695793509483337,0.0,0.0,0.0,0.0,17925.0,7327.0,1495.0,19428.0,1.6959679126739502,0.09972081710134162,0.27851422026647443,-0.14186219955933912,-0.013016044162213802,-0.020645368844270706,-0.0
207,5,-1.8065705944536603e-06,-5.5664455430814996e-05,0.0002513880608603358,0.002066407585516572,0.007876632735133171,-0.01608533412218094,-0.0033748955465853214,-0.2748887836933136,0.01242899801582098,-0.004277990199625492,-0.015229348093271255,0.06100137159228325,0.0,0.0,0.0,-0.0008113362127915025,-0.000286055204924196,-0.0,0.0,0.0,0.0,0.0011930452892556787,0.08356370031833649,-4.730429282062687e-05,19026.0,2174.0,6770.0,18309.0,0.8365898132324219,0.0037030354142189026,0.08957290649414062,0.7721138596534729,0.0,0.0,0.0,0.0,19634.0,1495.0,8479.0,17637.0,1.7025576829910278,0.10649783410438064,0.27755400550361037,-0.14507391772139216,0.0011735549196600914,-0.0025604197289794683,0.0
212,5,1.2299941772653256e-05,-1.5162934232648695e-06,8.529678598279133e-05,0.0025193444453179836,-0.003347126068547368,0.01349682081490755,-0.0033748955465853214,-0.2748887836933136,0.01242899801582098,-0.004277990199625492,-0.015229348093271255,0.06100137159228325,0.0,0.0,0.0,-0.0008113362127915025,-0.000286055204924196,-0.0,0.0,0.0,0.0,0.0011930452892556787,0.08356370031833649,-4.730429282062687e-05,19026.0,2174.0,6770.0,18309.0,0.8365898132324219,0.0037030354142189026,0.08957290649414062,0.7721138596534729,0.0,0.0,0.0,0.0,19634.0,1495.0,8479.0,17637.0,1.7025576829910278,0.10015344619074787,0.2799009960503705,-0.14350055848448964,0.0011735549196600914,-0.0025604197289794683,0.0
217,5,2.2897322196513414e-05,-0.00014917821681592613,-3.341932097100653e-05,0.0022794234100729227,0.01638058014214039,0.019644660875201225,-0.0036155148409307003,-0.27502763271331787,0.011636323295533657,0.0015093102119863033,0.03282037377357483,-0.19098122417926788,0.0,0.0,0.0,0.004027704708278179,0.002350212074816227,-0.0,0.0,0.0,0.0,-0.0008705184445716441,0.08530973643064499,-0.003850528271868825,17645.0,8285.0,1495.0,19801.0,0.7147381901741028,0.1410881131887436,-0.06894415616989136,0.909085750579834,0.0,0.0,0.0,0.0,18475.0,6078.0,2757.0,18960.0,1.680191993713379,0.09869561396085688,0.2824336116049062,-0.14655647967538338,-0.009515113197267056,0.01254362240433693,-0.0
222,5,-4.684408395405626e-06,-3.670322939797188e-06,0.00019323824380990118,-0.0023980382829904556,-0.010908715426921844,-0.019341042265295982,-0.0036155148409307003,-0.27502763271331787,0.011636323295533657,0.0015093102119863033,0.03282037377357483,-0.19098122417926788,0.0,0.0,0.0,0.004027704708278179,0.002350212074816227,-0.0,0.0,0.0,0.0,-0.0008705184445716441,0.08530973643064499,-0.003850528271868825,17645.0,8285.0,1495.0,19801.0,0.7147381901741028,0.1410881131887436,-0.06894415616989136,0.909085750579834,0.0,0.0,0.0,0.0,18475.0,6078.0,2757.0,18960.0,1.680191993713379,0.09990842273050439,0.27821584354050244,-0.14243141786098584,-0.009515113197267056,0.01254362240433693,-0.0
227,5,0.00044544308912009,-0.0003263872640673071,-0.001182068488560617,0.053056083619594574,0.0343625470995903,0.15730038285255432,-0.0035735215060412884,-0.27471667528152466,0.0122308898717165,-0.024336453527212143,-0.05716021731495857,0.07913977652788162,0.0,0.0,0.0,0.012692084535956383,-0.0021535016130656004,-0.0,0.0,0.0,0.0,0.0014003870310261846,0.08121250569820404,0.004247988574206829,19556.0,1495.0,8731.0,17529.0,0.8858180642127991,-0.04661671072244644,0.15845441818237305,0.704901933670044,0.0,0.0,0.0,0.0,18973.0,2953.0,6997.0,18211.0,1.7380914688110352,0.08182283393363798,0.29332312984947106,-0.15117035053424588,0.009018502198159695,0.04088772460818291,0.0
232,5,0.00042260560439899564,-0.00033000000985339284,-0.0011495931539684534,0.018481936305761337,0.014178549870848656,0.059023115783929825,-0.0035735215060412884,-0.27471667528152466,0.0122308898717165,-0.024336453527212143,-0.05716021731495857,0.07913977652788162,0.0,0.0,0.0,0.012692084535956383,-0.0021535016130656004,-0.0,0.0,0.0,0.0,0.0014003870310261846,0.08121250569820404,0.004247988574206829,19556.0,1495.0,8731.0,17529.0,0.8858180642127991,-0.04661671072244644,0.15845441818237305,0.704901933670044,0.0,0.0,0.0,0.0,18973.0,2953.0,6997.0,18211.0,1.7380914688110352,0.08015473653038149,0.29256532833229776,-0.15126502139950193,0.009018502198159695,0.04088772460818291,0.0
237,5,0.00048118431004695594,-0.0003025764599442482,-0.001107969437725842,0.0144222192466259,0.0023805948439985514,0.018614405766129494,-0.0035735215060412884,-0.27471667528152466,0.0122308898717165,-0.024336453527212143,-0.05716021731495857,0.07913977652788162,0.0,0.0,0.0,0.012692084535956383,-0.0021535016130656004,-0.0,0.0,0.0,0.0,0.004000908695161343,0.07547716796398163,0.0007259892881847918,18306.0,4573.0,5994.0,18683.0,0.7718446254730225,0.03530419245362282,0.06764538586139679,0.8053977489471436,0.0,0.0,0.0,0.0,18454.0,3939.0,7056.0,18315.0,1.7380914688110352,0.08361798930923237,0.29111060352251744,-0.1523377674565367,-0.05673142522573471,-0.010592233389616013,0.0
242,5,0.0004540457739494741,-0.00029199713026173413,-0.001025233417749405,0.0025122608058154583,-0.00031728381873108447,-0.0024825632572174072,-0.004158768802881241,-0.27394402027130127,0.011838046833872795,-0.07260704785585403,-0.12307558953762054,-0.0375538095831871,0.0,0.0,0.0,-0.003210886148735881,0.013229128904640675,-0.0,0.0,0.0,0.0,0.004000908695161343,0.07547716796398163,0.0007259892881847918,18306.0,4573.0,5994.0,18683.0,0.7718446254730225,0.03530419245362282,0.06764538586139679,0.8053977489471436,0.0,0.0,0.0,0.0,18454.0,3939.0,7056.0,18315.0,1.7797354459762573,0.08224001488239534,0.28949543270431716,-0.1524823894714944,-0.05673142522573471,-0.010592233389616013,0.0
247,5,0.00034407860948704183,-0.0002678446180652827,-0.0008992849034257233,-0.01219115313142538,-0.00302521581761539,-0.016106849536299706,-0.004602367989718914,-0.2722002863883972,0.011784636415541172,-0.09757643938064575,-0.33774667978286743,-0.058208610862493515,0.0,0.0,0.0,0.0030494569800794125,-0.010415363125503063,-0.0,0.0,0.0,0.0,0.004000908695161343,0.07547716796398163,0.0007259892881847918,18002.0,5588.0,7289.0,18302.0,0.7453433871269226,0.057367585599422455,0.10594361275434494,0.7715374231338501,0.0,0.0,0.0,0.0,17563.0,6806.0,7387.0,18314.0,1.7460951805114746,0.07722895007519529,0.28527164370141067,-0.14990140472598573,0.04382121190428734,0.009869559668004513,0.0
253,5,0.0002561766013968736,-0.00023176170361693949,-0.0006943890475668013,-0.015424703247845173,-0.0055400351993739605,-0.031030237674713135,-0.004602367989718914,-0.2722002863883972,0.011784636415541172,-0.09757643938064575,-0.33774667978286743,-0.058208610862493515,0.0,0.0,0.0,0.0030494569800794125,-0.010415363125503063,-0.0,0.0,0.0,0.0,0.004000908695161343,0.07547716796398163,0.0007259892881847918,18002.0,5588.0,7289.0,18302.0,0.7453433871269226,0.057367585599422455,0.10594361275434494,0.7715374231338501,0.0,0.0,0.0,0.0,17563.0,6806.0,7387.0,18314.0,1.7460951805114746,0.07535527759416986,0.28041602778217,-0.1493531062123776,0.04382121190428734,0.009869559668004513,0.0
258,5,0.00014947161253076047,-0.00019599139341153204,-0.0004161398101132363,-0.018974479287862778,-0.006508451420813799,-0.04580200836062431,-0.004602367989718914,-0.2722002863883972,0.011784636415541172,-0.09757643938064575,-0.33774667978286743,-0.058208610862493515,0.0,0.0,0.0,0.0030494569800794125,-0.010415363125503063,-0.0,0.0,0.0,0.0,0.004000908695161343,0.07547716796398163,0.0007259892881847918,18002.0,5588.0,7289.0,18302.0,0.7453433871269226,0.057367585599422455,0.10594361275434494,0.7715374231338501,0.0,0.0,0.0,0.0,17563.0,6806.0,7387.0,18314.0,1.7460951805114746,0.07687335903834436,0.2739692267267207,-0.15074099903647908,0.04382121190428734,0.009869559668004513,0.0
263,5,-2.0137380488449708e-05,-0.0001633346691960469,-8.015170897124335e-05,-0.027942871674895287,-0.006522186566144228,-0.05863937363028526,-0.006531097926199436,-0.2647930681705475,0.011744494549930096,-0.20453719794750214,-0.8957108855247498,0.01789591833949089,0.0,0.0,0.0,0.00690547376871109,-0.016016224399209023,-0.0,0.0,0.0,0.0,0.00574791245162487,0.03319894149899483,0.00037182506639510393,17433.0,6804.0,11107.0,17265.0,0.6968806385993958,0.09059743583202362,0.2677534222602844,0.6828599572181702,0.0,0.0,0.0,0.0,16653.0,8529.0,11301.0,17189.0,1.8224189281463623,0.071295562136538,0.26196715115607755,-0.149703616460407,0.07032850384712219,0.023326199501752853,0.0
268,5,-0.00030763118411414325,-0.0001134290432673879,0.00026650531799532473,-0.04567640274763107,-0.008597549982368946,-0.06505458801984787,-0.006531097926199436,-0.2647930681705475,0.011744494549930096,-0.20453719794750214,-0.8957108855247498,0.01789591833949089,0.0,0.0,0.0,0.00690547376871109,-0.016016224399209023,-0.0,0.0,0.0,0.0,0.00574791245162487,0.03319894149899483,0.00037182506639510393,17433.0,6804.0,11107.0,17265.0,0.6968806385993958,0.09059743583202362,0.2677534222602844,0.6828599572181702,0.0,0.0,0.0,0.0,16653.0,8529.0,11301.0,17189.0,1.8224189281463623,0.06813030593283824,0.24917504247512484,-0.149237713505096,0.07032850384712219,0.023326199501752853,0.0
273,5,-0.0005797743215225637,-2.569182288425509e-05,0.0006360892439261079,-0.05092773586511612,-0.013967486098408699,-0.07037191092967987,-0.00820092298090458,-0.25408273935317993,0.011570231057703495,-0.19044840335845947,-1.8464996814727783,-0.024391623213887215,0.0,0.0,0.0,0.00821217056363821,-0.03457106277346611,-0.0,0.0,0.0,0.0,0.00516250217333436,-0.015561395324766636,0.0010509334970265627,15807.0,11242.0,12470.0,16158.0,0.5674343705177307,0.274828165769577,0.3432662785053253,0.5942066311836243,0.0,0.0,0.0,0.0,15240.0,12042.0,13726.0,15093.0,2.0769307613372803,0.06489021167491675,0.23155079915554533,-0.14783974837225888,0.17297585308551788,0.031614016741514206,0.0
278,5,-0.0008968189358711243,8.728601824259385e-05,0.0010477419709786773,-0.058416448533535004,-0.019144335761666298,-0.077547088265419,-0.00820092298090458,-0.25408273935317993,0.011570231057703495,-0.19044840335845947,-1.8464996814727783,-0.024391623213887215,0.0,0.0,0.0,0.00821217056363821,-0.03457106277346611,-0.0,0.0,0.0,0.0,0.00516250217333436,-0.015561395324766636,0.0010509334970265627,15807.0,11242.0,12470.0,16158.0,0.5674343705177307,0.274828165769577,0.3432662785053253,0.5942066311836243,0.0,0.0,0.0,0.0,15240.0,12042.0,13726.0,15093.0,2.0769307613372803,0.06363514092322127,0.20906625648730637,-0.14570718298613813,0.17297585308551788,0.031614016741514206,0.0
283,5,-0.0014732546405866742,-8.492570486851037e-05,0.001974737271666527,-0.09253887087106705,0.013007672503590584,-0.14225827157497406,-0.00944583211094141,-0.2241823971271515,0.01179069746285677,-0.04255233705043793,-3.1059460639953613,-0.02424793317914009,0.0,0.0,0.0,0.01758399046957493,-0.04193874076008797,-0.0,0.0,0.0,0.0,0.003127160482108593,-0.07099321484565735,0.0006739483214914799,7782.0,18223.0,18908.0,7393.0,0.12271479517221451,0.7645348906517029,0.8258111476898193,0.10935813188552856,0.0,0.0,0.0,0.0,11026.0,15859.0,16576.0,11418.0,2.2175066471099854,0.04359960976712872,0.1748524546368499,-0.14412892382001188,0.22399470210075378,0.07226870208978653,0.0
288,5,-0.0018669386627152562,0.00010102274973178282,0.0017760054906830192,-0.08425763249397278,-0.01711074635386467,-0.03305550292134285,-0.00944583211094141,-0.2241823971271515,0.01179069746285677,-0.04255233705043793,-3.1059460639953613,-0.02424793317914009,0.0,0.0,0.0,0.01758399046957493,-0.04193874076008797,-0.0,0.0,0.0,0.0,0.003127160482108593,-0.07099321484565735,0.0006739483214914799,7782.0,18223.0,18908.0,7393.0,0.12271479517221451,0.7645348906517029,0.8258111476898193,0.10935813188552856,0.0,0.0,0.0,0.0,11026.0,15859.0,16576.0,11418.0,2.2175066471099854,0.030694219251284738,0.15958767452866066,-0.14082197777835354,0.22399470210075378,0.07226870208978653,0.0
293,5,-0.0024505325127393007,0.00023287539079319686,0.002300148131325841,-0.10373430699110031,-0.02266661450266838,-0.0761193186044693,-0.008988657034933567,-0.1936829835176468,0.011848744936287403,0.12489926069974899,-4.46386194229126,-0.016781289130449295,0.0,0.0,0.0,0.01434906292706728,-0.05567134916782379,-0.0,0.0,0.0,0.0,0.001545183826237917,-0.12212430685758591,0.00017583918815944344,1495.0,21509.0,21636.0,1495.0,-0.051577430218458176,1.0796629190444946,1.0929174423217773,-0.044072095304727554,0.0,0.0,0.0,0.0,5451.0,19058.0,19733.0,4065.0,2.4334611892700195,0.04435815785557275,0.13466276797602308,-0.1423090000180007,0.3262413442134857,0.06471864879131317,0.0
298,5,-0.0030661942437291145,0.0002048658934654668,0.002756118308752775,-0.1153731420636177,-0.005705507472157478,-0.0851641446352005,-0.008988657034933567,-0.1936829835176468,0.011848744936287403,0.12489926069974899,-4.46386194229126,-0.016781289130449295,0.0,0.0,0.0,0.01434906292706728,-0.05567134916782379,-0.0,0.0,0.0,0.0,0.001545183826237917,-0.12212430685758591,0.00017583918815944344,1495.0,21509.0,21636.0,1495.0,-0.051577430218458176,1.0796629190444946,1.0929174423217773,-0.044072095304727554,0.0,0.0,0.0,0.0,5451.0,19058.0,19733.0,4065.0,2.4334611892700195,0.04092301720086394,0.10346957700107737,-0.14048166086775207,0.3262413442134857,0.06471864879131317,0.0
303,5,-0.003654219675809145,0.000268633128143847,0.003140829037874937,-0.1167122945189476,-0.00993426889181137,-0.0802309513092041,-0.006889330223202705,-0.1337009072303772,0.011988104321062565,0.2353515326976776,-5.530134201049805,-0.04626908525824547,0.0,0.0,0.0,0.0045471834018826485,-0.06987620145082474,-0.0,0.0,0.0,0.0,0.0003294316993560642,-0.16506288945674896,0.0023331469856202602,1495.0,23035.0,24186.0,1495.0,-0.13646964728832245,1.2444474697113037,1.3764678239822388,-0.2669389843940735,0.0,0.0,0.0,0.0,1495.0,22075.0,22274.0,1495.0,2.6720006465911865,0.027988931695697734,0.070525169093511,-0.14193917783864565,0.4495311379432678,0.02252085506916046,0.0
308,5,-0.004443903919309378,0.0005250454996712506,0.0035709007643163204,-0.1414470374584198,-0.03474319353699684,-0.083700992166996,-0.006889330223202705,-0.1337009072303772,0.011988104321062565,0.2353515326976776,-5.530134201049805,-0.04626908525824547,0.0,0.0,0.0,0.0045471834018826485,-0.06987620145082474,-0.0,0.0,0.0,0.0,0.0003294316993560642,-0.16506288945674896,0.0023331469856202602,1495.0,23035.0,24186.0,1495.0,-0.13646964728832245,1.2444474697113037,1.3764678239822388,-0.2669389843940735,0.0,0.0,0.0,0.0,1495.0,22075.0,22274.0,1495.0,2.6720006465911865,0.013653370612726555,0.0386109940611238,-0.13797882974730344,0.4495311379432678,0.02252085506916046,0.0
314,5,-0.00520907249301672,0.0006876811385154724,0.004093941301107407,-0.14839905500411987,-0.03341355174779892,-0.09624524414539337,-0.00469142384827137,-0.0871490091085434,0.012279401533305645,0.30666089057922363,-6.120421409606934,0.05583547428250313,0.0,0.0,0.0,0.024850863963365555,-0.07974517345428467,-0.0,0.0,0.0,0.0,-0.002352293813601136,-0.19286693632602692,0.0033780683297663927,1495.0,24529.0,25693.0,1495.0,-0.18387165665626526,1.4171125888824463,1.5593355894088745,-0.3591153919696808,0.0,0.0,0.0,0.0,1495.0,23475.0,24567.0,1495.0,2.8917043209075928,0.018571115893465096,0.008744042842535316,-0.13819898591334812,0.5549011826515198,0.13317500054836273,0.0
319,5,-0.005989305675029755,0.0007727836491540074,0.004652939271181822,-0.15298759937286377,-0.023577721789479256,-0.10557786375284195,-0.00469142384827137,-0.0871490091085434,0.012279401533305645,0.30666089057922363,-6.120421409606934,0.05583547428250313,0.0,0.0,0.0,0.024850863963365555,-0.07974517345428467,-0.0,0.0,0.0,0.0,-0.002352293813601136,-0.19286693632602692,0.0033780683297663927,1495.0,24529.0,25693.0,1495.0,-0.18387165665626526,1.4171125888824463,1.5593355894088745,-0.3591153919696808,0.0,0.0,0.0,0.0,1495.0,23475.0,24567.0,1495.0,2.8917043209075928,0.010500570550034066,-0.024792689516778838,-0.13817821920671763,0.5549011826515198,0.13317500054836273,0.0
324,5,-0.00680907629430294,0.0008968323236331344,0.005125855095684528,-0.15956753492355347,-0.024316931143403053,-0.09898103028535843,0.000254589831456542,0.03875250741839409,0.01347416453063488,-0.0036061087157577276,-6.4773945808410645,0.012770126573741436,0.0,0.0,0.0,0.016871167346835136,-0.08507175743579865,-0.0,0.0,0.0,0.0,0.0027283518575131893,-0.20000000298023224,0.0021243065129965544,1495.0,25432.0,26231.0,1495.0,-0.19504845142364502,1.5267983675003052,1.6273837089538574,-0.2871330678462982,0.0,0.0,0.0,0.0,1495.0,24895.0,25809.0,1495.0,2.9636147022247314,-0.001850762636139942,-0.059167031307871994,-0.1382584348880036,0.6066989898681641,0.09266974776983261,0.0
329,5,-0.007601439021527767,0.0010264709126204252,0.005547654815018177,-0.15891052782535553,-0.02528339810669422,-0.09020841121673584,0.000254589831456542,0.03875250741839409,0.01347416453063488,-0.0036061087157577276,-6.4773945808410645,0.012770126573741436,0.0,0.0,0.0,0.016871167346835136,-0.08507175743579865,-0.0,0.0,0.0,0.0,0.0027283518575131893,-0.20000000298023224,0.0021243065129965544,1495.0,25432.0,26231.0,1495.0,-0.19504845142364502,1.5267983675003052,1.6273837089538574,-0.2871330678462982,0.0,0.0,0.0,0.0,1495.0,24895.0,25809.0,1495.0,2.9636147022247314,-0.00918059666020957,-0.09291837358328303,-0.13867400049819753,0.6066989898681641,0.09266974776983261,0.0
334,5,-0.00844148825854063,0.0011423121904954314,0.006085052154958248,-0.1643700897693634,-0.024014322087168694,-0.10057102888822556,-0.0007214891957119107,0.116364486515522,0.013348453678190708,-0.10769346356391907,-6.5394768714904785,-0.0005824371473863721,0.0,0.0,0.0,0.016871167346835136,-0.08507175743579865,-0.0,0.0,0.0,0.0,0.0039434307254850864,-0.20000000298023224,0.0008492001798003912,1495.0,25488.0,26177.0,1495.0,-0.23041749000549316,1.5337657928466797,1.620416283607483,-0.2517640292644501,0.0,0.0,0.0,0.0,1495.0,25491.0,26174.0,1495.0,2.9636147022247314,-0.020628582720041873,-0.12980970049691612,-0.14005252504989457,0.6066989898681641,0.09266974776983261,0.0
339,5,-0.00945571344345808,0.0011608477216213942,0.006858761887997389,-0.18745508790016174,-0.011829990893602371,-0.1330735832452774,-0.0007214891957119107,0.116364486515522,0.013348453678190708,-0.10769346356391907,-6.5394768714904785,-0.0005824371473863721,0.0,0.0,0.0,0.01702861115336418,-0.09025607258081436,-0.0,0.0,0.0,0.0,0.0039434307254850864,-0.20000000298023224,0.0008492001798003912,1495.0,25488.0,26177.0,1495.0,-0.23041749000549316,1.5337657928466797,1.620416283607483,-0.2517640292644501,0.0,0.0,0.0,0.0,1495.0,25491.0,26174.0,1495.0,3.052617311477661,-0.033915083225906174,-0.1686182840045464,-0.14322967486371554,0.6628998517990112,0.09634340554475784,0.0
344,5,-0.010223237797617912,0.0013225800357758999,0.007015611510723829,-0.16708499193191528,-0.02413986623287201,-0.07205136865377426,-0.0012181996135041118,0.16883336007595062,0.01333752553910017,0.014645388349890709,-6.629881381988525,-0.07303702086210251,0.0,0.0,0.0,0.01702861115336418,-0.09025607258081436,-0.0,0.0,0.0,0.0,0.00890788808465004,-0.20000000298023224,0.0002722453500609845,1495.0,26222.0,26592.0,1495.0,-0.20034782588481903,1.6262130737304688,1.6737761497497559,-0.13602666556835175,0.0,0.0,0.0,0.0,1495.0,25583.0,26933.0,1495.0,3.052617311477661,-0.031227545541894074,-0.19555103536745833,-0.14340343474064318,0.6628998517990112,0.09634340554475784,0.0
349,5,-0.011197265237569809,0.001386846648529172,0.00732865184545517,-0.18371719121932983,-0.01736794225871563,-0.06638538092374802,-0.0012181996135041118,0.16883336007595062,0.01333752553910017,0.014645388349890709,-6.629881381988525,-0.07303702086210251,0.0,0.0,0.0,0.017117483541369438,-0.09207001328468323,-0.0,0.0,0.0,0.0,0.00890788808465004,-0.20000000298023224,0.0002722453500609845,1495.0,26222.0,26592.0,1495.0,-0.20034782588481903,1.6262130737304688,1.6737761497497559,-0.13602666556835175,0.0,0.0,0.0,0.0,1495.0,25583.0,26933.0,1495.0,3.083008050918579,-0.03931953534673621,-0.2299041257619505,-0.14550569164833316,0.6829161643981934,0.097810298204422,0.0
354,5,-0.012085171416401863,0.001536460011266172,0.007734799757599831,-0.18003563582897186,-0.024900779128074646,-0.07529192417860031,-0.0005028069717809558,0.24859309196472168,0.01288581918925047,0.08858322352170944,-6.735621452331543,-0.021907402202486992,0.0,0.0,0.0,0.017117483541369438,-0.09207001328468323,-0.0,0.0,0.0,0.0,0.0042397258803248405,-0.20000000298023224,0.0005092282663099468,1495.0,26142.0,26670.0,1495.0,-0.16965046525001526,1.616054654121399,1.6839344501495361,-0.16672402620315552,0.0,0.0,0.0,0.0,1495.0,26300.0,26514.0,1495.0,3.083008050918579,-0.03970168202583741,-0.2648092447441153,-0.14579572580104325,0.6829161643981934,0.097810298204422,0.0
359,5,-0.01317175105214119,0.0016064901137724519,0.008089077658951283,-0.20240388810634613,-0.01836393214762211,-0.07263010740280151,-0.0005028069717809558,0.24859309196472168,0.01288581918925047,0.08858322352170944,-6.735621452331543,-0.021907402202486992,0.0,0.0,0.0,0.017344456166028976,-0.0973314568400383,-0.0,0.0,0.0,0.0,0.0042397258803248405,-0.20000000298023224,0.0005092282663099468,1495.0,26142.0,26670.0,1495.0,-0.16965046525001526,1.616054654121399,1.6839344501495361,-0.16672402620315552,0.0,0.0,0.0,0.0,1495.0,26300.0,26514.0,1495.0,3.1681947708129883,-0.04633582811845973,-0.29700928835836626,-0.14795765303959382,0.7417640089988708,0.10184543579816818,0.0
364,5,-0.0141118373721838,0.001751663163304329,0.008336345665156841,-0.19377189874649048,-0.024766331538558006,-0.058724239468574524,-0.0005028069717809558,0.24859309196472168,0.01288581918925047,0.08858322352170944,-6.735621452331543,-0.021907402202486992,0.0,0.0,0.0,0.017344456166028976,-0.0973314568400383,-0.0,0.0,0.0,0.0,0.005459173116832972,-0.20000000298023224,0.00022547495609614998,1495.0,26413.0,26746.0,1495.0,-0.17471693456172943,1.6506837606430054,1.6938066482543945,-0.1171562522649765,0.0,0.0,0.0,0.0,1495.0,26221.0,26933.0,1495.0,3.1681947708129883,-0.047139591920125894,-0.33470742890230504,-0.14784837641347354,0.7417640089988708,0.10184543579816818,0.0
369,5,-0.015089347027242184,0.0017409970751032233,0.008683782070875168,-0.19480986893177032,-0.008626608178019524,-0.06518208235502243,-0.0005028069717809558,0.24859309196472168,0.01288581918925047,0.08858322352170944,-6.735621452331543,-0.021907402202486992,0.0,0.0,0.0,0.017013197764754295,-0.10287001729011536,-0.0,0.0,0.0,0.0,0.005459173116832972,-0.20000000298023224,0.00022547495609614998,1495.0,26413.0,26746.0,1495.0,-0.17471693456172943,1.6506837606430054,1.6938066482543945,-0.1171562522649765,0.0,0.0,0.0,0.0,1495.0,26221.0,26933.0,1495.0,3.251612424850464,-0.06401660289298979,-0.3791180188313134,-0.15586894045506514,0.8044710159301758,0.10253100842237473,0.0
374,5,-0.016191914677619934,0.001840957091189921,0.008897258900105953,-0.21023209393024445,-0.015445835888385773,-0.05168997496366501,0.0002460498071741313,0.38582998514175415,0.012224256061017513,0.030792580917477608,-7.023656368255615,-0.00968407467007637,0.0,0.0,0.0,0.017013197764754295,-0.10287001729011536,-0.0,0.0,0.0,0.0,0.00463299173861742,-0.20000000298023224,0.0013846486108377576,1495.0,26224.0,27046.0,1495.0,-0.12450109422206879,1.6264970302581787,1.7331888675689697,-0.15217672288417816,0.0,0.0,0.0,0.0,1495.0,26572.0,26704.0,1495.0,3.251612424850464,-0.06648179148217997,-0.4144815761359838,-0.1576702880608313,0.8044710159301758,0.10253100842237473,0.0
379,5,-0.017295638099312782,0.001952870050445199,0.009098106995224953,-0.2165396362543106,-0.019607899710536003,-0.04477778822183609,0.0002460498071741313,0.38582998514175415,0.012224256061017513,0.030792580917477608,-7.023656368255615,-0.00968407467007637,0.0,0.0,0.0,0.011008752509951591,-0.10939974337816238,-0.0,0.0,0.0,0.0,0.00463299173861742,-0.20000000298023224,0.0013846486108377576,1495.0,26224.0,27046.0,1495.0,-0.12450109422206879,1.6264970302581787,1.7331888675689697,-0.15217672288417816,0.0,0.0,0.0,0.0,1495.0,26572.0,26704.0,1495.0,3.3363208770751953,-0.07093883144326472,-0.450438376778261,-0.16034330201547428,0.8776938915252686,0.0680767074227333,0.0
385,5,-0.018439877778291702,0.002077562967315316,0.00925721786916256,-0.2239246964454651,-0.022806290537118912,-0.037004463374614716,0.0002460498071741313,0.38582998514175415,0.012224256061017513,0.030792580917477608,-7.023656368255615,-0.00968407467007637,0.0,0.0,0.0,0.011008752509951591,-0.10939974337816238,-0.0,0.0,0.0,0.0,0.00463299173861742,-0.20000000298023224,0.0013846486108377576,1495.0,26224.0,27046.0,1495.0,-0.12450109422206879,1.6264970302581787,1.7331888675689697,-0.15217672288417816,0.0,0.0,0.0,0.0,1495.0,26572.0,26704.0,1495.0,3.3363208770751953,-0.07503568668668248,-0.4861076551503467,-0.1625930407220051,0.8776938915252686,0.0680767074227333,0.0
390,5,-0.019603442400693893,0.002219017129391432,0.009427408687770367,-0.22919762134552002,-0.026097025722265244,-0.03522463142871857,0.0002460498071741313,0.38582998514175415,0.012224256061017513,0.030792580917477608,-7.023656368255615,-0.00968407467007637,0.0,0.0,0.0,0.015348595567047596,-0.11486654728651047,-0.0,0.0,0.0,0.0,0.005499806720763445,-0.20000000298023224,-0.0010099048959091306,1495.0,26726.0,26878.0,1495.0,-0.15157264471054077,1.6912022829055786,1.7110769748687744,-0.08251180499792099,0.0,0.0,0.0,0.0,1495.0,26633.0,26969.0,1495.0,3.4093170166015625,-0.08128699173794711,-0.523511914124949,-0.16595407922931918,0.9414694905281067,0.09698701649904251,0.0
395,5,-0.02079165168106556,0.002355020958930254,0.009539772756397724,-0.23426412045955658,-0.026759274303913116,-0.02757352963089943,0.0002460498071741313,0.38582998514175415,0.012224256061017513,0.030792580917477608,-7.023656368255615,-0.00968407467007637,0.0,0.0,0.0,0.015348595567047596,-0.11486654728651047,-0.0,0.0,0.0,0.0,0.005499806720763445,-0.20000000298023224,-0.0010099048959091306,1495.0,26726.0,26878.0,1495.0,-0.15157264471054077,1.6912022829055786,1.7110769748687744,-0.08251180499792099,0.0,0.0,0.0,0.0,1495.0,26633.0,26969.0,1495.0,3.4093170166015625,-0.08767289463833423,-0.5613861756620717,-0.1689335403719323,0.9414694905281067,0.09698701649904251,0.0
400,5,-0.021992161870002747,0.00248467898927629,0.009665943682193756,-0.2377668172121048,-0.02626267448067665,-0.026169946417212486,0.0009568252135068178,0.442432701587677,0.011378022842109203,0.050459399819374084,-7.197940826416016,-0.05019199103116989,0.0,0.0,0.0,0.01766245998442173,-0.11934998631477356,-0.0,0.0,0.0,0.0,0.006258105393499136,-0.20000000298023224,-0.001531745190732181,1495.0,27031.0,26890.0,1495.0,-0.1595665067434311,1.7312637567520142,1.712724208831787,-0.03280910477042198,0.0,0.0,0.0,0.0,1495.0,26757.0,27163.0,1495.0,3.4624500274658203,-0.09421657917496998,-0.5978112068839716,-0.17314781023754514,0.9932498335838318,0.11334496736526489,0.0
405,5,-0.02330290898680687,0.00262991851195693,0.009702119044959545,-0.25239628553390503,-0.027933813631534576,-0.014809069223701954,0.0009568252135068178,0.442432701587677,0.011378022842109203,0.050459399819374084,-7.197940826416016,-0.05019199103116989,0.0,0.0,0.0,0.01766245998442173,-0.11934998631477356,-0.0,0.0,0.0,0.0,0.006258105393499136,-0.20000000298023224,-0.001531745190732181,1495.0,27031.0,26890.0,1495.0,-0.1595665067434311,1.7312637567520142,1.712724208831787,-0.03280910477042198,0.0,0.0,0.0,0.0,1495.0,26757.0,27163.0,1495.0,3.4624500274658203,-0.10008864222937283,-0.6339457214285624,-0.17656475205856986,0.9932498335838318,0.11334496736526489,0.0
410,5,-0.02442047744989395,0.0027972222305834293,0.009624470956623554,-0.23506683111190796,-0.03124997392296791,0.003394179278984666,0.0025044353678822517,0.5890412330627441,0.00941112358123064,0.020072797313332558,-7.571909427642822,-0.08011490106582642,0.0,0.0,0.0,0.018207520246505737,-0.12659823894500732,-0.0,0.0,0.0,0.0,0.003620178671553731,-0.20000000298023224,-0.000999573851004243,1495.0,27204.0,27038.0,1495.0,-0.11789317429065704,1.7541316747665405,1.732210636138916,-0.03212821111083031,0.0,0.0,0.0,0.0,1495.0,26890.0,27032.0,1495.0,3.534416437149048,-0.11212085762127584,-0.6765748709574586,-0.18417015365171371,1.0751389265060425,0.11927063018083572,0.0
415,5,-0.025699350982904434,0.0029757467564195395,0.009575081057846546,-0.2474914789199829,-0.03392292559146881,0.00728444242849946,0.0025044353678822517,0.5890412330627441,0.00941112358123064,0.020072797313332558,-7.571909427642822,-0.08011490106582642,0.0,0.0,0.0,0.018207520246505737,-0.12659823894500732,-0.0,0.0,0.0,0.0,0.003620178671553731,-0.20000000298023224,-0.000999573851004243,1495.0,27204.0,27038.0,1495.0,-0.11789317429065704,1.7541316747665405,1.732210636138916,-0.03212821111083031,0.0,0.0,0.0,0.0,1495.0,26890.0,27032.0,1495.0,3.534416437149048,-0.11841532067515714,-0.7113584029894696,-0.18829195788961714,1.0751389265060425,0.11927063018083572,0.0
420,5,-0.026985840871930122,0.003181168809533119,0.009405688382685184,-0.25337550044059753,-0.03821982815861702,0.02324092388153076,0.0033908975310623646,0.6810117959976196,0.008163301274180412,-0.004139318130910397,-7.764109134674072,-0.06798747181892395,0.0,0.0,0.0,0.018207520246505737,-0.12659823894500732,-0.0,0.0,0.0,0.0,0.004848066717386246,-0.20000000298023224,-0.0002438648953102529,1495.0,27200.0,27318.0,1495.0,-0.09228645265102386,1.7536121606826782,1.7692281007766724,-0.02123686857521534,0.0,0.0,0.0,0.0,1495.0,27094.0,27149.0,1495.0,3.534416437149048,-0.1268899390378902,-0.748942372849571,-0.19409415342560743,1.0991615056991577,0.16088619828224182,-0.0
425,5,-0.02825593575835228,0.0033125863410532475,0.008981612510979176,-0.2537616491317749,-0.031058017164468765,0.060185473412275314,0.0033908975310623646,0.6810117959976196,0.008163301274180412,-0.004139318130910397,-7.764109134674072,-0.06798747181892395,0.0,0.0,0.0,0.024404404684901237,-0.12862244248390198,-0.0,0.0,0.0,0.0,0.004848066717386246,-0.20000000298023224,-0.0002438648953102529,1495.0,27200.0,27318.0,1495.0,-0.09228645265102386,1.7536121606826782,1.7692281007766724,-0.02123686857521534,0.0,0.0,0.0,0.0,1495.0,27094.0,27149.0,1495.0,3.5572986602783203,-0.13730844560831268,-0.7944279035067626,-0.2014696669320711,1.0991615056991577,0.16088619828224182,-0.0
430,5,-0.029581770300865173,0.003504201304167509,0.008644423447549343,-0.2606046795845032,-0.03541699796915054,0.0645369216799736,0.004384945146739483,0.7437361478805542,0.007062542252242565,0.038318194448947906,-7.9334397315979,-0.08628448098897934,0.0,0.0,0.0,0.024404404684901237,-0.12862244248390198,-0.0,0.0,0.0,0.0,0.005078588146716356,-0.20000000298023224,-0.0007983348914422095,1495.0,27439.0,27278.0,2887.0,-0.09703478217124939,1.7854528427124023,1.7639540433883667,0.01007796823978424,0.0,0.0,0.0,0.0,1495.0,27410.0,27308.0,2020.0,3.5572986602783203,-0.1473895118826814,-0.8310134945164398,-0.20933440694534255,1.0991615056991577,0.16088619828224182,-0.0
436,5,-0.03103887103497982,0.0036767825949937105,0.008351925760507584,-0.27909404039382935,-0.03487655520439148,0.06091441959142685,0.004384945146739483,0.7437361478805542,0.007062542252242565,0.038318194448947906,-7.9334397315979,-0.08628448098897934,0.0,0.0,0.0,0.022897029295563698,-0.13243131339550018,-0.0,0.0,0.0,0.0,0.005078588146716356,-0.20000000298023224,-0.0007983348914422095,1495.0,27439.0,27278.0,2887.0,-0.09703478217124939,1.7854528427124023,1.7639540433883667,0.01007796823978424,0.0,0.0,0.0,0.0,1495.0,27410.0,27308.0,2020.0,3.5858712196350098,-0.15586130145513127,-0.8651152267419678,-0.215853738709356,1.1406521797180176,0.1521645337343216,-0.0
441,5,-0.03228522092103958,0.003879657480865717,0.008021472953259945,-0.2611995339393616,-0.03829560801386833,0.0640200823545456,0.006015953607857227,0.8384454250335693,0.005148949567228556,-0.01651434227824211,-7.914432048797607,-0.05239769071340561,0.0,0.0,0.0,0.022897029295563698,-0.13243131339550018,-0.0,0.0,0.0,0.0,0.005670114886015654,-0.20000000298023224,-0.0032529488671571016,1495.0,27476.0,27510.0,3459.0,-0.06801113486289978,1.790391206741333,1.7949987649917603,0.017037522047758102,0.0,0.0,0.0,0.0,1495.0,27380.0,27606.0,1711.0,3.5858712196350098,-0.17126743199646607,-0.8957381795520546,-0.22919190837238043,1.1406521797180176,0.1521645337343216,-0.0
446,5,-0.033580631017684937,0.004019451327621937,0.007612304762005806,-0.25992897152900696,-0.03209353983402252,0.07470829784870148,0.006015953607857227,0.8384454250335693,0.005148949567228556,-0.01651434227824211,-7.914432048797607,-0.05239769071340561,0.0,0.0,0.0,0.024747926741838455,-0.13397447764873505,-0.0,0.0,0.0,0.0,0.005670114886015654,-0.20000000298023224,-0.0032529488671571016,1495.0,27476.0,27510.0,3459.0,-0.06801113486289978,1.790391206741333,1.7949987649917603,0.017037522047758102,0.0,0.0,0.0,0.0,1495.0,27380.0,27606.0,1711.0,3.598461389541626,-0.17881593964038658,-0.9214410950840355,-0.23350937748750666,1.1578648090362549,0.16503790020942688,-0.0
451,5,-0.035989414900541306,0.004268201999366283,0.007028976455330849,-0.24469180405139923,-0.026237498968839645,0.06114618107676506,0.007618012372404337,0.8975337743759155,0.003475555684417486,0.20325738191604614,-6.866493225097656,-0.23208928108215332,0.0,0.0,0.0,0.024747926741838455,-0.13397447764873505,-0.0,0.0,0.0,0.0,-0.00044572658953256905,-0.20000000298023224,-0.00804785918444395,1495.0,28154.0,26903.0,7439.0,-0.15044619143009186,1.88241708278656,1.714414119720459,0.11091369390487671,0.0,0.0,0.0,0.0,1495.0,28746.0,26268.0,9124.0,3.598461389541626,-0.1925339257070068,-0.9772756182372645,-0.24365794120925066,1.1578648090362549,0.16503790020942688,-0.0
456,5,-0.035989414900541306,0.004268201999366283,0.007028976455330849,-0.24469180405139923,-0.026237498968839645,0.06114618107676506,0.007618012372404337,0.8975337743759155,0.003475555684417486,0.20325738191604614,-6.866493225097656,-0.23208928108215332,0.0,0.0,0.0,0.0184540543705225,-0.13031388819217682,-0.0,0.0,0.0,0.0,-0.00044572658953256905,-0.20000000298023224,-0.00804785918444395,1495.0,28154.0,26903.0,7439.0,-0.15044619143009186,1.88241708278656,1.714414119720459,0.11091369390487671,0.0,0.0,0.0,0.0,1495.0,28746.0,26268.0,9124.0,3.5661885738372803,-0.1925339257070068,-0.9772756182372645,-0.24365794120925066,1.116459846496582,0.12197192758321762,-0.0
461,5,-0.03719734027981758,0.004151676781475544,0.007617369294166565,-0.24282778799533844,0.0034879811573773623,-0.046148631721735,0.018081091344356537,0.9694138765335083,-0.004338420461863279,0.3558301031589508,-5.546737194061279,-0.30670854449272156,0.0,0.0,0.0,0.0184540543705225,-0.13031388819217682,-0.0,0.0,0.0,0.0,-0.004523694980889559,-0.20000000298023224,0.0008332784054800868,1495.0,29016.0,26082.0,9295.0,-0.20709651708602905,2.0027759075164795,1.6083415746688843,0.18185031414031982,0.0,0.0,0.0,0.0,1495.0,28927.0,26180.0,8870.0,3.5661885738372803,-0.2336089368558025,-0.9885976300779895,-0.25815783448374147,1.116459846496582,0.12197192758321762,-0.0
466,5,-0.03840365260839462,0.004733010195195675,0.007080777548253536,-0.2418886423110962,-0.06836479902267456,0.04593155160546303,0.018081091344356537,0.9694138765335083,-0.004338420461863279,0.3558301031589508,-5.546737194061279,-0.30670854449272156,0.0,0.0,0.0,0.0014961246633902192,-0.13046027719974518,-0.0,0.0,0.0,0.0,-0.004523694980889559,-0.20000000298023224,0.0008332784054800868,1495.0,29016.0,26082.0,9295.0,-0.20709651708602905,2.0027759075164795,1.6083415746688843,0.18185031414031982,0.0,0.0,0.0,0.0,1495.0,28927.0,26180.0,8870.0,3.560917615890503,-0.23591610567483257,-1.0247702579352662,-0.2564087073187636,1.116243600845337,0.009875019080936909,0.0
471,5,-0.039783552289009094,0.004908725619316101,0.006937572732567787,-0.2623433768749237,-0.048431772738695145,0.03555719926953316,0.0227028951048851,1.012579083442688,-0.007268517278134823,0.20635420083999634,-5.469519138336182,0.14114977419376373,0.0,0.0,0.0,0.0014961246633902192,-0.13046027719974518,-0.0,0.0,0.0,0.0,-0.0050257062539458275,-0.20000000298023224,0.0005340210627764463,1495.0,27869.0,27231.0,1495.0,-0.023785775527358055,1.8435183763504028,1.7577577829360962,-0.011301765218377113,0.0,0.0,0.0,0.0,7574.0,27041.0,28172.0,1495.0,3.560917615890503,-0.2529343381645076,-1.0526089701928383,-0.267148357855439,1.116243600845337,0.009875019080936909,0.0
476,5,-0.04052310809493065,0.0048752338625490665,0.0064119393937289715,-0.19368402659893036,-0.015353717841207981,0.0772988572716713,0.0227028951048851,1.012579083442688,-0.007268517278134823,0.20635420083999634,-5.469519138336182,0.14114977419376373,0.0,0.0,0.0,0.031033022329211235,-0.13812072575092316,-0.0,0.0,0.0,0.0,-0.0050257062539458275,-0.20000000298023224,0.0005340210627764463,1495.0,27869.0,27231.0,1495.0,-0.023785775527358055,1.8435183763504028,1.7577577829360962,-0.011301765218377113,0.0,0.0,0.0,0.0,7574.0,27041.0,28172.0,1495.0,3.63020396232605,-0.2398007398114226,-1.0889092682593646,-0.2752611661207535,1.2037904262542725,0.20875504612922668,-0.0
481,5,-0.04279346391558647,0.005324983038008213,0.00551012996584177,-0.22092971205711365,-0.0412709042429924,0.08890298008918762,0.026378208771348,1.0821837186813354,-0.009055359289050102,0.1591932326555252,-6.078555107116699,-0.07450800389051437,0.0,0.0,0.0,0.031033022329211235,-0.13812072575092316,-0.0,0.0,0.0,0.0,-0.012009616941213608,-0.20000000298023224,-0.000405340688303113,6110.0,27687.0,27397.0,1495.0,0.07072144746780396,1.8188313245773315,1.7798093557357788,-0.1084444671869278,0.0,0.0,0.0,0.0,1495.0,28385.0,26693.0,5838.0,3.63020396232605,-0.2871097010006277,-1.148854295157489,-0.31445130696590207,1.2037904262542725,0.20875504612922668,-0.0
