timestamp,dt,pos_x,pos_y,pos_z,vel_x,vel_y,vel_z,roll,pitch,yaw,agv_x,agv_y,agv_z,x_ref,y_ref,z_ref,roll_ref,pitch_ref,yaw_ref,x_vel_ref,y_vel_ref,z_vel_ref,x_torque,y_torque,z_torque,w0,w1,w2,w3,u0,u1,u2,u3,m0req,m1req,m2req,m3req,thrust0,thrust1,thrust2,thrust3,thrust_ref,roll_vicon,pitch_vicon,yaw_vicon,acc_x,acc_y,acc_z
5,5,0.0,0.0,0.0,-0.0008040566463023424,0.0003912869142368436,0.0011058264644816518,-0.002097104676067829,-0.01931256614625454,-0.0068712420761585236,0.001318221096880734,0.002236616797745228,-0.00195255596190691,0.0,0.0,0.0,-0.00048421803512610495,-0.0007654009386897087,-0.0,0.0,0.0,0.0,0.0003060821909457445,0.005695314146578312,-0.0006595846498385072,1495.0,1495.0,1495.0,1495.0,0.0,0.0,0.0,0.0,0.0,0.0,0.0,0.0,1495.0,1495.0,1495.0,1495.0,1.6348469257354736,0.05013368516929658,-0.13468588599542186,0.03364647051044208,0.003015212481841445,-0.001467325957491994,0.0
33,28,0.0,0.0,0.0,-0.0005915127112530172,0.000660965102724731,0.0007694130763411522,-0.002097104676067829,-0.01931256614625454,-0.0068712420761585236,0.001318221096880734,0.002236616797745228,-0.00195255596190691,0.0,0.0,0.0,-0.00048421803512610495,-0.0007654009386897087,-0.0,0.0,0.0,0.0,0.0003060821909457445,0.005695314146578312,-0.0006595846498385072,1495.0,1495.0,1495.0,1495.0,0.0,0.0,0.0,0.0,0.0,0.0,0.0,0.0,1495.0,1495.0,1495.0,1495.0,1.6348469257354736,0.05031112281012397,-0.13520843283997966,0.03405973099303517,0.003015212481841445,-0.001467325957491994,0.0
38,5,0.0,0.0,0.0,-0.00025842810282483697,-0.00019517235341481864,-0.0012080413289368153,-0.0020850207656621933,-0.01930554397404194,-0.006879867520183325,-0.0012261088704690337,0.00810504425317049,0.0017916288925334811,0.0,0.0,0.0,-0.000817981839645654,-0.0005631005624309182,-0.0,0.0,0.0,0.0,0.0002906443551182747,0.005623977165669203,-0.0005806575645692647,1495.0,1495.0,1495.0,1495.0,0.0,0.0,0.0,0.0,0.0,0.0,0.0,0.0,1495.0,1495.0,1495.0,1495.0,1.6347737312316895,0.05020042225064724,-0.13528057932640553,0.03387300165418253,0.0022181726526468992,-0.0024786191061139107,0.0
43,5,0.0,0.0,0.0,0.0012739914236590266,-0.00036530595389194787,0.002551658544689417,-0.0020850207656621933,-0.01930554397404194,-0.006879867520183325,-0.0012261088704690337,0.00810504425317049,0.0017916288925334811,0.0,0.0,0.0,-0.000817981839645654,-0.0005631005624309182,-0.0,0.0,0.0,0.0,0.0002906443551182747,0.005623977165669203,-0.0005806575645692647,1495.0,1495.0,1495.0,1495.0,0.0,0.0,0.0,0.0,0.0,0.0,0.0,0.0,1495.0,1495.0,1495.0,1495.0,1.6347737312316895,0.05031124299981399,-0.1349795283152334,0.03370312361793935,0.0022181726526468992,-0.0024786191061139107,0.0
48,5,0.0,0.0,0.0,-0.0004673208459280431,-0.0012919118162244558,-0.0017733352724462748,-0.0020850207656621933,-0.01930554397404194,-0.006879867520183325,-0.0012261088704690337,0.00810504425317049,0.0017916288925334811,0.0,0.0,0.0,0.0004508580022957176,0.0012095012934878469,-0.0,0.0,0.0,0.0,0.0002906443551182747,0.005623977165669203,-0.0005806575645692647,1495.0,1495.0,1495.0,1495.0,0.0,0.0,0.0,0.0,0.0,0.0,0.0,0.0,1495.0,1495.0,1495.0,1495.0,1.63922917842865,0.05039614771633412,-0.1351466741807824,0.0340002919400383,-0.004777467809617519,0.0013698972761631012,0.0
53,5,3.952636689064093e-06,3.152798399241874e-06,5.256449185253587e-06,0.0002873881021514535,-0.0008951005293056369,-0.0013401079922914505,-0.002083756495267153,-0.01932750642299652,-0.006837967783212662,0.0010234813671559095,0.002980597084388137,0.0016772998496890068,0.0,0.0,0.0,0.001113053527660668,0.00027900334680452943,-0.0,0.0,0.0,0.0,0.0002906443551182747,0.005623977165669203,-0.0005806575645692647,1495.0,1495.0,1495.0,1495.0,0.0,0.0,0.0,0.0,0.0,0.0,0.0,0.0,1495.0,1495.0,1495.0,1495.0,1.6353769302368164,0.0506815168018375,-0.13493262289795938,0.033897682017904086,-0.0010994586627930403,0.003373978426679969,0.0
58,5,1.907363002828788e-05,1.765073466231115e-05,-1.4550325431628153e-05,0.0019294744124636054,-0.0020977924577891827,0.0018407696625217795,-0.002083756495267153,-0.01932750642299652,-0.006837967783212662,0.0010234813671559095,0.002980597084388137,0.0016772998496890068,0.0,0.0,0.0,0.001113053527660668,0.00027900334680452943,-0.0,0.0,0.0,0.0,0.0002906443551182747,0.005623977165669203,-0.0005806575645692647,1495.0,1495.0,1495.0,1495.0,0.0,0.0,0.0,0.0,0.0,0.0,0.0,0.0,1495.0,1495.0,1495.0,1495.0,1.6353769302368164,0.05231498365765451,-0.13501938404674274,0.034419917185537,-0.0010994586627930403,0.003373978426679969,0.0
63,5,2.0300874894019216e-05,1.1923934835067485e-05,-2.26138363359496e-05,0.0009190592099912465,-0.00015190108388196677,0.001703929272480309,-0.002083756495267153,-0.01932750642299652,-0.006837967783212662,0.0010234813671559095,0.002980597084388137,0.0016772998496890068,0.0,0.0,0.0,0.001113053527660668,0.00027900334680452943,-0.0,0.0,0.0,0.0,0.0002715193259064108,0.005634052213281393,-0.0008179177530109882,13600.0,13433.0,12819.0,14245.0,0.4129332900047302,0.4022439122200012,0.3640832304954529,0.4555132985115051,0.0,0.0,0.0,0.0,1495.0,1495.0,1495.0,1495.0,1.6353769302368164,0.052424329400644475,-0.13467084939263055,0.03444883455111192,-0.0010994586627930403,0.003373978426679969,0.0
68,5,2.2860029275761917e-05,1.3651646440848708e-05,-2.6526604415266775e-05,0.0006747222505509853,-0.000268085888819769,0.0011511038755998015,-0.0020966380834579468,-0.019315341487526894,-0.006857207044959068,0.0009221592335961759,-0.0016660888213664293,-0.005046685226261616,0.0,0.0,0.0,0.00020954635692760348,0.000902848201803863,-0.0,0.0,0.0,0.0,0.00026373605942353606,0.005587628111243248,-0.0008176778792403638,13591.0,13443.0,12820.0,14244.0,0.4123104512691498,0.40282532572746277,0.36417892575263977,0.45545902848243713,0.0,0.0,0.0,0.0,13606.0,13429.0,12832.0,14231.0,1.6355551481246948,0.05220342888175204,-0.13494354780963735,0.03429141469298947,-0.003558211727067828,0.0006352634518407285,0.0
74,5,2.2757312763133086e-05,2.1209914848441258e-05,-4.639033068087883e-05,0.00025756293325684965,-0.00101422646548599,0.0028440887108445168,-0.0020966380834579468,-0.019315341487526894,-0.006857207044959068,0.0009221592335961759,-0.0016660888213664293,-0.005046685226261616,0.0,0.0,0.0,0.00020954635692760348,0.000902848201803863,-0.0,0.0,0.0,0.0,0.00026373605942353606,0.005587628111243248,-0.0008176778792403638,13591.0,13443.0,12820.0,14244.0,0.4123104512691498,0.40282532572746277,0.36417892575263977,0.45545902848243713,0.0,0.0,0.0,0.0,13606.0,13429.0,12832.0,14231.0,1.6355551481246948,0.05230051296913178,-0.13474791776963038,0.034435117925432704,-0.003558211727067828,0.0006352634518407285,0.0
79,5,1.9454551875242032e-05,1.906048237287905e-05,-3.400112109375186e-05,-0.0002933061041403562,-0.0001477588521083817,-0.0003490698290988803,-0.0020966380834579468,-0.019315341487526894,-0.006857207044959068,0.0009221592335961759,-0.0016660888213664293,-0.005046685226261616,0.0,0.0,0.0,0.0012921105371788144,0.00027666648384183645,-0.0,0.0,0.0,0.0,0.00026373605942353606,0.005587628111243248,-0.0008176778792403638,13591.0,13443.0,12820.0,14244.0,0.4123104512691498,0.40282532572746277,0.36417892575263977,0.45545902848243713,0.0,0.0,0.0,0.0,13606.0,13429.0,12832.0,14231.0,1.6367884874343872,0.05209337909224405,-0.13506820495072475,0.03442233746670607,-0.0010911907302215695,0.003920130897313356,0.0
84,5,1.9454551875242032e-05,1.906048237287905e-05,-3.400112109375186e-05,-0.0002933061041403562,-0.0001477588521083817,-0.0003490698290988803,-0.002069447422400117,-0.019253399223089218,-0.006917397025972605,-0.0011170106008648872,0.006430187728255987,0.002619144506752491,0.0,0.0,0.0,0.0012921105371788144,0.00027666648384183645,-0.0,0.0,0.0,0.0,0.0006366806337609887,0.0060908435843884945,-0.0006745668360963464,13670.0,13314.0,12882.0,14242.0,0.41743361949920654,0.3946729302406311,0.36793792247772217,0.4553324580192566,0.0,0.0,0.0,0.0,13692.0,13293.0,12923.0,14204.0,1.6367884874343872,0.05209337909224405,-0.13506820495072475,0.03442233746670607,-0.0010911907302215695,0.003920130897313356,0.0
89,5,2.6468385840416886e-05,1.6450363546027802e-05,-1.1323040780553129e-05,0.0008555243257433176,0.00040246371645480394,-0.0015832633944228292,-0.002069447422400117,-0.019253399223089218,-0.006917397025972605,-0.0011170106008648872,0.006430187728255987,0.002619144506752491,0.0,0.0,0.0,0.00021829383331350982,-0.0002528919721953571,-0.0,0.0,0.0,0.0,0.0006366806337609887,0.0060908435843884945,-0.0006745668360963464,13670.0,13314.0,12882.0,14242.0,0.41743361949920654,0.3946729302406311,0.36793792247772217,0.4553324580192566,0.0,0.0,0.0,0.0,13692.0,13293.0,12923.0,14204.0,1.628980278968811,0.05191862855732877,-0.13522756453917864,0.034602188639594675,0.0009926651837304235,0.0006591220735572278,0.0
94,5,2.00357026187703e-05,1.8592030755826272e-05,-6.7622931965161115e-06,-0.00042971238144673407,-9.601467900210992e-05,-0.0011805950198322535,-0.0020673268008977175,-0.019298484548926353,-0.00689962413161993,-0.00015671575965825468,0.005388109944760799,0.0011983755975961685,0.0,0.0,0.0,0.00015310126764234155,-0.00038213442894630134,-0.0,0.0,0.0,0.0,0.0007069337298162282,0.005900117103010416,-0.0007364118937402964,13680.0,13330.0,12843.0,14256.0,0.4180605411529541,0.39570504426956177,0.3655198812484741,0.45626968145370483,0.0,0.0,0.0,0.0,13688.0,13324.0,12863.0,14235.0,1.6300095319747925,0.05181842625976357,-0.13494549031912584,0.03445804818847839,0.001500922255218029,0.00046256999485194683,0.0
100,6,1.5143355085456278e-05,9.593061804480385e-06,-2.2006510334904306e-05,-0.0007589666056446731,0.0010414704447612166,0.0013570679584518075,-0.0020673268008977175,-0.019298484548926353,-0.00689962413161993,-0.00015671575965825468,0.005388109944760799,0.0011983755975961685,0.0,0.0,0.0,0.00015310126764234155,-0.00038213442894630134,-0.0,0.0,0.0,0.0,0.0007069337298162282,0.005900117103010416,-0.0007364118937402964,13680.0,13330.0,12843.0,14256.0,0.4180605411529541,0.39570504426956177,0.3655198812484741,0.45626968145370483,0.0,0.0,0.0,0.0,13688.0,13324.0,12863.0,14235.0,1.6300095319747925,0.05207437070918089,-0.13493887294308893,0.03440726661905984,0.001500922255218029,0.00046256999485194683,0.0
105,5,1.4106791240919847e-05,2.8747856504196534e-06,-2.413677611912135e-05,-0.00042797430069185793,0.0012227812549099326,0.0007984591065905988,-0.0020765059161931276,-0.019273284822702408,-0.00690747145563364,-0.00025612275931052864,-0.0018001520074903965,-0.0005753337172791362,0.0,0.0,0.0,-0.001504234503954649,-0.00038667567423544824,-0.0,0.0,0.0,0.0,0.0006643998785875738,0.00585893914103508,-0.0007776442216709256,13637.0,13353.0,12882.0,14259.0,0.4152900278568268,0.39711180329322815,0.36788514256477356,0.4565015137195587,0.0,0.0,0.0,0.0,13610.0,13384.0,12852.0,14281.0,1.6388174295425415,0.052158975755600696,-0.1346173980965287,0.034429333858516785,0.0015269641298800707,-0.004569349344819784,0.0
110,5,3.701124342114781e-06,9.849073649093043e-06,-3.446851042099297e-05,-0.0014198697172105312,-0.00034780206624418497,0.0015591916162520647,-0.0020765059161931276,-0.019273284822702408,-0.00690747145563364,-0.00025612275931052864,-0.0018001520074903965,-0.0005753337172791362,0.0,0.0,0.0,-0.001504234503954649,-0.00038667567423544824,-0.0,0.0,0.0,0.0,0.0006643998785875738,0.00585893914103508,-0.0007776442216709256,13637.0,13353.0,12882.0,14259.0,0.4152900278568268,0.39711180329322815,0.36788514256477356,0.4565015137195587,0.0,0.0,0.0,0.0,13610.0,13384.0,12852.0,14281.0,1.6388174295425415,0.05179892294704362,-0.1349939486437362,0.03427187955571569,0.0015269641298800707,-0.004569349344819784,0.0
115,5,7.141508149288711e-07,1.5733714462839998e-05,-2.6319115931983106e-05,-0.0009263847023248672,-0.0008452776237390935,-0.0003542504273355007,-0.002072533592581749,-0.019230419769883156,-0.006944909226149321,0.002738590817898512,8.547798643121496e-05,0.0005070380284450948,0.0,0.0,0.0,-0.001504234503954649,-0.00038667567423544824,-0.0,0.0,0.0,0.0,0.0004450442793313414,0.005800667218863964,-0.000687061867211014,13635.0,13328.0,12855.0,14192.0,0.415181428194046,0.3955424129962921,0.3663040101528168,0.45195242762565613,0.0,0.0,0.0,0.0,13647.0,13319.0,12865.0,14180.0,1.6388174295425415,0.05128012197294156,-0.13518761616414213,0.03427806239460944,0.0015269641298800707,-0.004569349344819784,0.0
120,5,1.0183201084146276e-05,2.4229768314398825e-05,-2.9306944270501845e-05,0.0007657321984879673,-0.0013576376950368285,0.00021683920931536704,-0.002072533592581749,-0.019230419769883156,-0.006944909226149321,0.002738590817898512,8.547798643121496e-05,0.0005070380284450948,0.0,0.0,0.0,0.0010721973376348615,-0.0008787135593593121,-0.0,0.0,0.0,0.0,0.0004450442793313414,0.005800667218863964,-0.000687061867211014,13635.0,13328.0,12855.0,14192.0,0.415181428194046,0.3955424129962921,0.3663040101528168,0.45195242762565613,0.0,0.0,0.0,0.0,13647.0,13319.0,12865.0,14180.0,1.6386568546295166,0.05167162092132867,-0.13522457022617196,0.03463158835053612,0.0034696601796895266,0.003256650408729911,0.0
126,6,1.804384373826906e-05,1.4778437616769224e-05,-2.9430053473333828e-05,0.0004491686704568565,0.000682735990267247,0.0004137091164011508,-0.0020332843996584415,-0.0192808136343956,-0.006928900256752968,0.001847118604928255,0.0027376813814044,-0.0006544541683979332,0.0,0.0,0.0,0.0010721973376348615,-0.0008787135593593121,-0.0,0.0,0.0,0.0,0.00043066806392744184,0.005796396639198065,-0.0006744077545590699,13631.0,13342.0,12851.0,14201.0,0.4148957133293152,0.3964654803276062,0.36605924367904663,0.45258909463882446,0.0,0.0,0.0,0.0,13630.0,13344.0,12844.0,14207.0,1.6386568546295166,0.05203876681913898,-0.1350294931901594,0.0344908226648753,0.0034696601796895266,0.003256650408729911,0.0
132,5,2.1041847503511235e-05,9.769267308001872e-06,-1.85402841452742e-05,0.0005394278559833765,0.0008741947822272778,-0.0011412888998165727,-0.002024748595431447,-0.01923377253115177,-0.006978170946240425,-4.5717806642642245e-05,0.004586956929415464,-0.005507540889084339,0.0,0.0,0.0,-0.0008183462778106332,0.0004530976584646851,-0.0,0.0,0.0,0.0,0.00010868992103496566,0.0056905485689640045,-0.0009059000876732171,13604.0,13481.0,12784.0,14287.0,0.41316136717796326,0.40528038144111633,0.3620004951953888,0.4583751857280731,0.0,0.0,0.0,0.0,13638.0,13451.0,12819.0,14252.0,1.6340351104736328,0.0518301106715512,-0.13484402802276152,0.034286571880312776,-0.0017840414075180888,-0.002478602807968855,0.0
138,7,2.469745959388092e-05,9.415576641913503e-06,-2.1736754206358455e-05,0.0006544445641338825,0.0003921207971870899,-7.293900853255764e-05,-0.002024748595431447,-0.01923377253115177,-0.006978170946240425,-4.5717806642642245e-05,0.004586956929415464,-0.005507540889084339,0.0,0.0,0.0,-0.0008183462778106332,0.0004530976584646851,-0.0,0.0,0.0,0.0,0.00010868992103496566,0.0056905485689640045,-0.0009059000876732171,13604.0,13481.0,12784.0,14287.0,0.41316136717796326,0.40528038144111633,0.3620004951953888,0.4583751857280731,0.0,0.0,0.0,0.0,13638.0,13451.0,12819.0,14252.0,1.6340351104736328,0.052101598610981764,-0.13503137058842674,0.034584889069735905,-0.0017840414075180888,-0.002478602807968855,0.0
144,5,3.013311288668774e-05,7.646206540812273e-06,-3.880360964103602e-05,0.0009140563779510558,0.0003691727470140904,0.0020188468042761087,-0.002024748595431447,-0.01923377253115177,-0.006978170946240425,-4.5717806642642245e-05,0.004586956929415464,-0.005507540889084339,0.0,0.0,0.0,-0.00046833662781864405,0.0006580276531167328,-0.0,0.0,0.0,0.0,0.00010868992103496566,0.0056905485689640045,-0.0009059000876732171,13604.0,13481.0,12784.0,14287.0,0.41316136717796326,0.40528038144111633,0.3620004951953888,0.4583751857280731,0.0,0.0,0.0,0.0,13638.0,13451.0,12819.0,14252.0,1.6337621212005615,0.05221481724396326,-0.1350550756597731,0.03456910129048205,-0.0025905072689056396,-0.0014182587619870901,0.0
149,5,2.3552907805424184e-05,7.907862709544133e-06,-3.919611481251195e-05,-0.0004240020934958011,0.00011627037019934505,0.000854639511089772,-0.002016607439145446,-0.01926228404045105,-0.0070054237730801105,0.0005536734242923558,0.0025457257870584726,0.0030103970784693956,0.0,0.0,0.0,-0.00046833662781864405,0.0006580276531167328,-0.0,0.0,0.0,0.0,0.000595610705204308,0.005626199766993523,-0.0007655565277673304,13634.0,13382.0,12905.0,14240.0,0.41512274742126465,0.39896875619888306,0.36934447288513184,0.45522087812423706,0.0,0.0,0.0,0.0,13619.0,13395.0,12883.0,14263.0,1.6337621212005615,0.051934062628642544,-0.13477613437752126,0.03431847433094429,-0.0025905072689056396,-0.0014182587619870901,0.0
154,5,1.8211316273664124e-05,1.9022738342755474e-05,-3.667924102046527e-05,-0.0008105918532237411,-0.0012872768566012383,3.983104761573486e-05,-0.002016607439145446,-0.01926228404045105,-0.0070054237730801105,0.0005536734242923558,0.0025457257870584726,0.0030103970784693956,0.0,0.0,0.0,-0.0001297847047680989,-0.0003717216313816607,-0.0,0.0,0.0,0.0,0.000595610705204308,0.005626199766993523,-0.0007655565277673304,13634.0,13382.0,12905.0,14240.0,0.41512274742126465,0.39896875619888306,0.36934447288513184,0.45522087812423706,0.0,0.0,0.0,0.0,13619.0,13395.0,12883.0,14263.0,1.6298494338989258,0.05168125189144659,-0.13530153902447659,0.03456670910043649,0.001459880149923265,-0.0003920843591913581,0.0
159,5,1.1934733265661635e-05,2.1216299501247704e-05,-2.9357899620663375e-05,-0.0010774267138913274,-0.0007781381136737764,-0.000862628745380789,-0.0019820902962237597,-0.01930426061153412,-0.00697195902466774,-0.0004363049811217934,0.005505422595888376,0.002311168471351266,0.0,0.0,0.0,-0.0001297847047680989,-0.0003717216313816607,-0.0,0.0,0.0,0.0,0.00020320469047874212,0.006072047632187605,-0.0006541937473230064,13695.0,13335.0,12848.0,14209.0,0.4190669655799866,0.3960264325141907,0.36581945419311523,0.45312225818634033,0.0,0.0,0.0,0.0,13736.0,13295.0,12892.0,14168.0,1.6298494338989258,0.051829787425655666,-0.13515683518658003,0.034386966816433426,0.001459880149923265,-0.0003920843591913581,0.0
164,5,2.2050396637496306e-06,2.0578872863552533e-05,-3.7755286030005664e-05,-0.0015985339414328337,-0.00023476420028600842,0.0006626351387239993,-0.0019820902962237597,-0.01930426061153412,-0.00697195902466774,-0.0004363049811217934,0.005505422595888376,0.002311168471351266,0.0,0.0,0.0,0.0009988948004320264,-0.0010060587665066123,-0.0,0.0,0.0,0.0,0.00020320469047874212,0.006072047632187605,-0.0006541937473230064,13695.0,13335.0,12848.0,14209.0,0.4190669655799866,0.3960264325141907,0.36581945419311523,0.45312225818634033,0.0,0.0,0.0,0.0,13736.0,13295.0,12892.0,14168.0,1.6393123865127563,0.0516914356777639,-0.13488362598549425,0.033999107663493865,0.003974080551415682,0.0030352179892361164,0.0
169,5,8.01306487119291e-06,1.5878005797276273e-05,-3.8959762605372816e-05,5.75494923396036e-05,0.00047019848716445267,0.0004095909825991839,-0.001993234269320965,-0.01931086741387844,-0.007015208248049021,-0.002101491205394268,0.00778974499553442,-0.010859756730496883,0.0,0.0,0.0,0.0009988948004320264,-0.0010060587665066123,-0.0,0.0,0.0,0.0,0.0003422748122829944,0.006070846691727638,-0.0008338699117302895,13591.0,13423.0,12744.0,14315.0,0.4123038649559021,0.40160977840423584,0.3595810532569885,0.46026742458343506,0.0,0.0,0.0,0.0,13484.0,13493.0,12671.0,14357.0,1.6393123865127563,0.051669126937082324,-0.1345678668902453,0.0343797566200763,0.003974080551415682,0.0030352179892361164,0.0
174,5,1.7256164937862195e-05,4.9268278417002875e-06,-3.271340756327845e-05,0.0011321918573230505,0.0015022207517176867,-0.0005857262876816094,-0.001993234269320965,-0.01931086741387844,-0.007015208248049021,-0.002101491205394268,0.00778974499553442,-0.010859756730496883,0.0,0.0,0.0,-0.0005543911829590797,6.631934957113117e-05,-0.0,0.0,0.0,0.0,0.0003422748122829944,0.006070846691727638,-0.0008338699117302895,13591.0,13423.0,12744.0,14315.0,0.4123038649559021,0.40160977840423584,0.3595810532569885,0.46026742458343506,0.0,0.0,0.0,0.0,13484.0,13493.0,12671.0,14357.0,1.6303486824035645,0.05197422768713723,-0.13487674212913348,0.03430571138212422,-0.0002605389163363725,-0.0016753491945564747,0.0
179,5,8.720939490558521e-07,-1.3944252714281902e-05,-1.560558121127542e-05,-0.001513211871497333,0.0028654178604483604,-0.002287229523062706,-0.0020075340289622545,-0.01931622065603733,-0.007124127354472876,0.009206896647810936,0.008850843645632267,0.06654051691293716,0.0,0.0,0.0,-0.0005543911829590797,6.631934957113117e-05,-0.0,0.0,0.0,0.0,0.0003873077221214771,0.005793832708150148,-0.00046153884613886476,13992.0,12974.0,13210.0,13856.0,0.43858033418655396,0.3735213875770569,0.3881782293319702,0.4295694828033447,0.0,0.0,0.0,0.0,14510.0,12408.0,13722.0,13331.0,1.6303486824035645,0.05110485315958411,-0.13498024757554605,0.03349829321333709,-0.0002605389163363725,-0.0016753491945564747,0.0
184,5,8.149409950419795e-06,-2.4642670268804068e-06,-6.724008926539682e-06,0.0002679932222235948,-0.000231431084102951,-0.0019806805066764355,-0.0020075340289622545,-0.01931622065603733,-0.007124127354472876,0.009206896647810936,0.008850843645632267,0.06654051691293716,0.0,0.0,0.0,-0.0035194982774555683,-0.0014182886807247996,-0.0,0.0,0.0,0.0,0.0003873077221214771,0.005793832708150148,-0.00046153884613886476,13992.0,12974.0,13210.0,13856.0,0.43858033418655396,0.3735213875770569,0.3881782293319702,0.4295694828033447,0.0,0.0,0.0,0.0,14510.0,12408.0,13722.0,13331.0,1.6588209867477417,0.05100204074657928,-0.13487438904605706,0.03409135833065848,0.005669088568538427,-0.010821493342518806,0.0
189,5,1.3915407180320472e-05,1.7693500922177918e-05,4.029543561046012e-06,0.0007991169113665819,-0.0025115045718848705,-0.0020826985128223896,-0.0019429185194894671,-0.019434351474046707,-0.007370957173407078,-0.0035408884286880493,0.006962417624890804,-0.12413036078214645,0.0,0.0,0.0,-0.0035194982774555683,-0.0014182886807247996,-0.0,0.0,0.0,0.0,0.0007789002847857773,0.005890554748475552,0.003316114656627178,12195.0,14699.0,11360.0,15496.0,0.3272547125816345,0.4867744445800781,0.28108489513397217,0.5441983342170715,0.0,0.0,0.0,0.0,13196.0,13818.0,12413.0,14673.0,1.6588209867477417,0.05117883579799977,-0.13460604832895295,0.03431216747254292,0.005669088568538427,-0.010821493342518806,0.0
195,5,2.112392758135684e-05,5.164089088793844e-06,-1.4696574908157345e-05,0.0011846692068502307,0.0004989276058040559,0.0014140547718852758,-0.0019429185194894671,-0.019434351474046707,-0.007370957173407078,-0.0035408884286880493,0.006962417624890804,-0.12413036078214645,0.0,0.0,0.0,0.0031061202753335238,0.0007718162378296256,-0.0,0.0,0.0,0.0,0.0007789002847857773,0.005890554748475552,0.003316114656627178,12195.0,14699.0,11360.0,15496.0,0.3272547125816345,0.4867744445800781,0.28108489513397217,0.5441983342170715,0.0,0.0,0.0,0.0,13196.0,13818.0,12413.0,14673.0,1.6528388261795044,0.05083264247610249,-0.1351879609233841,0.03408238178696081,-0.0030739314388483763,0.009516035206615925,0.0
200,5,7.515286142734112e-06,-3.4585202683956595e-06,3.7379438708740054e-06,-0.0011591692455112934,0.0012342841364443302,-0.0016465203370898962,-0.0020378686022013426,-0.01951533742249012,-0.006658217404037714,-0.04052092880010605,-0.011702853254973888,0.06672357767820358,0.0,0.0,0.0,0.0031061202753335238,0.0007718162378296256,-0.0,0.0,0.0,0.0,-0.0010265603195875883,0.006432774476706982,-0.0021284574177116156,14742.0,12037.0,14080.0,13044.0,0.48978081345558167,0.3182736933231354,0.44443753361701965,0.37785664200782776,0.0,0.0,0.0,0.0,13070.0,13859.0,12307.0,14708.0,1.6528388261795044,0.05054962853984687,-0.1354381805778229,0.0338637641751827,-0.0030739314388483763,0.009516035206615925,0.0
205,5,8.9579880295787e-06,4.908426490146667e-06,-1.4845797522866633e-05,-0.0002905435103457421,-0.0005103199509903789,0.0015714408364146948,-0.0020378686022013426,-0.01951533742249012,-0.006658217404037714,-0.04052092880010605,-0.011702853254973888,0.06672357767820358,0.0,0.0,0.0,-0.0015259789070114493,-0.0010873903520405293,-0.0,0.0,0.0,0.0,-0.0010265603195875883,0.006432774476706982,-0.0021284574177116156,14742.0,12037.0,14080.0,13044.0,0.48978081345558167,0.3182736933231354,0.44443753361701965,0.37785664200782776,0.0,0.0,0.0,0.0,13070.0,13859.0,12307.0,14708.0,1.6429252624511719,0.05094226229340004,-0.13528476426853442,0.03419040508073436,0.004304816015064716,-0.004647020250558853,0.0
210,5,-1.5742680261610076e-05,-2.109058914356865e-05,-7.624744284839835e-06,-0.0030802974943071604,0.002915753982961178,-0.00023795008019078523,-0.001909792423248291,-0.019701840355992317,-0.007195353973656893,0.06805068254470825,0.05151766166090965,0.026048501953482628,0.0,0.0,0.0,-0.0015259789070114493,-0.0010873903520405293,-0.0,0.0,0.0,0.0,0.0020636762492358685,0.004282199312001467,-0.0029316970612853765,13737.0,13678.0,12607.0,14424.0,0.42180147767066956,0.41796573996543884,0.3513425886631012,0.4677111804485321,0.0,0.0,0.0,0.0,14657.0,12627.0,13745.0,13400.0,1.6429252624511719,0.04973454323799512,-0.13548582898575062,0.033726845324097136,0.004304816015064716,-0.004647020250558853,0.0
215,5,-6.646124802500708e-06,-4.269235887477407e-06,-1.623115713300649e-05,-0.0001405324146617204,-0.0008522608550265431,0.0009375896188430488,-0.001909792423248291,-0.019701840355992317,-0.007195353973656893,0.06805068254470825,0.05151766166090965,0.026048501953482628,0.0,0.0,0.0,-0.0035714649129658937,-0.002893347991630435,-0.0,0.0,0.0,0.0,0.0020636762492358685,0.004282199312001467,-0.0029316970612853765,13737.0,13678.0,12607.0,14424.0,0.42180147767066956,0.41796573996543884,0.3513425886631012,0.4677111804485321,0.0,0.0,0.0,0.0,14657.0,12627.0,13745.0,13400.0,1.6691393852233887,0.05078429369737406,-0.13555233583785126,0.03385441071928292,0.011637020856142044,-0.011049582622945309,0.0
220,5,-1.5593896023347043e-05,-6.006495368637843e-06,-1.1588166444198578e-06,-0.0011299453908577561,-0.00013243325520306826,-0.0014336451422423124,-0.002082396764308214,-0.019367121160030365,-0.006989835761487484,-0.06196388974785805,-0.08267178386449814,-0.11120616644620895,0.0,0.0,0.0,-0.0035714649129658937,-0.002893347991630435,-0.0,0.0,0.0,0.0,-0.0011105971643701196,0.006805701646953821,0.0009742285474203527,12369.0,14480.0,11992.0,15278.0,0.33733931183815,0.4715994894504547,0.31572118401527405,0.5281788110733032,0.0,0.0,0.0,0.0,12980.0,14036.0,12381.0,14878.0,1.6691393852233887,0.05061366144960493,-0.13539486242941629,0.03394037327191878,0.011637020856142044,-0.011049582622945309,0.0
225,5,-2.706502709770575e-05,-1.3422327356238384e-05,1.6113468518597074e-05,-0.001828514039516449,0.0008369265124201775,-0.0026461323723196983,-0.002082396764308214,-0.019367121160030365,-0.006989835761487484,-0.06196388974785805,-0.08267178386449814,-0.11120616644620895,0.0,0.0,0.0,0.00015288835857063532,-0.00109542952850461,-0.0,0.0,0.0,0.0,-0.0011105971643701196,0.006805701646953821,0.0009742285474203527,12369.0,14480.0,11992.0,15278.0,0.33733931183815,0.4715994894504547,0.31572118401527405,0.5281788110733032,0.0,0.0,0.0,0.0,12980.0,14036.0,12381.0,14878.0,1.6375417709350586,0.05115609958149892,-0.13614270669453,0.033565288500329145,0.004322436638176441,0.00046406127512454987,0.0
230,5,-6.521635077660903e-05,-1.1565618478925899e-05,0.00014940949040465057,-0.003599475370720029,0.00010913151345448568,-0.011399554088711739,-0.0016027509700506926,-0.019470620900392532,-0.006983699277043343,0.07515661418437958,0.03060925379395485,0.028694866225123405,0.0,0.0,0.0,0.00015288835857063532,-0.00109542952850461,-0.0,0.0,0.0,0.0,7.68438694649376e-05,-8.640182932140306e-05,-0.0022798897698521614,14336.0,12908.0,13262.0,13715.0,0.46170851588249207,0.36948850750923157,0.3913811147212982,0.42034712433815,0.0,0.0,0.0,0.0,13145.0,14002.0,12424.0,14588.0,1.6375417709350586,0.05144680091804918,-0.1386423428135077,0.03384245272156823,0.004322436638176441,0.00046406127512454987,0.0
235,5,-0.00011647099745459855,-4.1041326767299324e-05,0.0002567303890828043,-0.007590347435325384,0.003580737393349409,-0.01743832789361477,-0.0016027509700506926,-0.019470620900392532,-0.006983699277043343,0.07515661418437958,0.03060925379395485,0.028694866225123405,0.0,0.0,0.0,-0.00015323644038289785,-0.0034573019947856665,-0.0,0.0,0.0,0.0,7.68438694649376e-05,-8.640182932140306e-05,-0.0022798897698521614,14336.0,12908.0,13262.0,13715.0,0.46170851588249207,0.36948850750923157,0.3913811147212982,0.42034712433815,0.0,0.0,0.0,0.0,13145.0,14002.0,12424.0,14588.0,1.6632585525512695,0.05301904691668169,-0.1410601907808414,0.03350493789610085,0.01385632622987032,-0.00047242228174582124,0.0
240,5,-0.00011647099745459855,-4.1041326767299324e-05,0.0002567303890828043,-0.007590347435325384,0.003580737393349409,-0.01743832789361477,-0.0019468966638669372,-0.018185965716838837,-0.007789393421262503,0.08710851520299911,-0.18076543509960175,0.06168233975768089,0.0,0.0,0.0,-0.00015323644038289785,-0.0034573019947856665,-0.0,0.0,0.0,0.0,-0.0020780465565621853,-0.003762244712561369,-0.0033901564311236143,13466.0,13953.0,13322.0,13918.0,0.4043058753013611,0.4359772801399231,0.3951594829559326,0.4336967468261719,0.0,0.0,0.0,0.0,14765.0,12872.0,14152.0,12770.0,1.6632585525512695,0.05301904691668169,-0.1410601907808414,0.03350493789610085,0.01385632622987032,-0.00047242228174582124,0.0
245,5,-0.000290905125439167,-0.0001159908642875962,0.000543740694411099,-0.016655998304486275,0.006395335774868727,-0.027839986607432365,-0.0019468966638669372,-0.018185965716838837,-0.007789393421262503,0.08710851520299911,-0.18076543509960175,0.06168233975768089,0.0,0.0,0.0,-0.0043019503355026245,-0.007054257672280073,-0.0,0.0,0.0,0.0,-0.0020780465565621853,-0.003762244712561369,-0.0033901564311236143,13466.0,13953.0,13322.0,13918.0,0.4043058753013611,0.4359772801399231,0.3951594829559326,0.4336967468261719,0.0,0.0,0.0,0.0,14765.0,12872.0,14152.0,12770.0,1.7122340202331543,0.05834845751804287,-0.14854804012312692,0.03440244137716899,0.029104404151439667,-0.013653204776346684,0.0
250,5,-0.000290905125439167,-0.0001159908642875962,0.000543740694411099,-0.016655998304486275,0.006395335774868727,-0.027839986607432365,6.858904089313e-05,-0.014936679974198341,-0.00782284140586853,0.18406271934509277,-0.5351182818412781,-0.12138529866933823,0.0,0.0,0.0,-0.0073458426631987095,-0.01470327377319336,-0.0,0.0,0.0,0.0,-0.006621131673455238,-0.013742486014962196,0.0007897237665019929,11731.0,15391.0,12268.0,14434.0,0.3011581301689148,0.5364276766777039,0.3315078020095825,0.4684481620788574,0.0,0.0,0.0,0.0,11721.0,15436.0,12724.0,13996.0,1.8082361221313477,0.05834845751804287,-0.14854804012312692,0.03440244137716899,0.0640610009431839,-0.024620575830340385,0.0
255,5,-0.00042159526492469013,-0.00018322136020287871,0.0006899046711623669,-0.02234521508216858,0.010625793598592281,-0.028675666078925133,6.858904089313e-05,-0.014936679974198341,-0.00782284140586853,0.18406271934509277,-0.5351182818412781,-0.12138529866933823,0.0,0.0,0.0,-0.0073458426631987095,-0.01470327377319336,-0.0,0.0,0.0,0.0,-0.006621131673455238,-0.013742486014962196,0.0007897237665019929,11731.0,15391.0,12268.0,14434.0,0.3011581301689148,0.5364276766777039,0.3315078020095825,0.4684481620788574,0.0,0.0,0.0,0.0,11721.0,15436.0,12724.0,13996.0,1.8082361221313477,0.06056202107666266,-0.15367052165797615,0.03510044221751955,0.0640610009431839,-0.024620575830340385,0.0
260,5,-0.0007137045031413436,-0.0003370871127117425,0.001040397910401225,-0.028285151347517967,0.014704849570989609,-0.034371986985206604,6.858904089313e-05,-0.014936679974198341,-0.00782284140586853,0.18406271934509277,-0.5351182818412781,-0.12138529866933823,0.0,0.0,0.0,-0.0073458426631987095,-0.01470327377319336,-0.0,0.0,0.0,0.0,-0.006621131673455238,-0.013742486014962196,0.0007897237665019929,11731.0,15391.0,12268.0,14434.0,0.3011581301689148,0.5364276766777039,0.3315078020095825,0.4684481620788574,0.0,0.0,0.0,0.0,11721.0,15436.0,12724.0,13996.0,1.8082361221313477,0.07149566628646782,-0.16510992859004647,0.03638299159799667,0.0640610009431839,-0.024620575830340385,0.0
265,5,-0.0008816617773845792,-0.0004234955704305321,0.0011842154199257493,-0.03146893158555031,0.016250954940915108,-0.03100689873099327,0.010888178832828999,0.002495828550308943,-0.008107424713671207,0.7902244329452515,-1.2519460916519165,0.034587204456329346,0.0,0.0,0.0,-0.01577633246779442,-0.023423202335834503,-0.0,0.0,0.0,0.0,-0.012381319887936115,-0.0244170892983675,-0.0009384352597407997,12659.0,16417.0,14676.0,10919.0,0.3544851541519165,0.6144418716430664,0.48521101474761963,0.25809597969055176,0.0,0.0,0.0,0.0,12433.0,15890.0,13559.0,12383.0,1.9493114948272705,0.07614482616975243,-0.1715094225937629,0.03648423000600841,0.10999821871519089,-0.05699846148490906,0.0
270,5,-0.0008816617773845792,-0.0004234955704305321,0.0011842154199257493,-0.03146893158555031,0.016250954940915108,-0.03100689873099327,0.010888178832828999,0.002495828550308943,-0.008107424713671207,0.7902244329452515,-1.2519460916519165,0.034587204456329346,0.0,0.0,0.0,-0.01577633246779442,-0.023423202335834503,-0.0,0.0,0.0,0.0,-0.012381319887936115,-0.0244170892983675,-0.0009384352597407997,12659.0,16417.0,14676.0,10919.0,0.3544851541519165,0.6144418716430664,0.48521101474761963,0.25809597969055176,0.0,0.0,0.0,0.0,12433.0,15890.0,13559.0,12383.0,1.9493114948272705,0.07614482616975243,-0.1715094225937629,0.03648423000600841,0.10999821871519089,-0.05699846148490906,0.0
276,5,-0.0010389507515355945,-0.0005153859965503216,0.0013088799314573407,-0.031462252140045166,0.017527231946587563,-0.027362491935491562,0.010888178832828999,0.002495828550308943,-0.008107424713671207,0.7902244329452515,-1.2519460916519165,0.034587204456329346,0.0,0.0,0.0,-0.017198625952005386,-0.025693899020552635,-0.0,0.0,0.0,0.0,-0.017486978322267532,-0.03337886184453964,-0.00162005634047091,12111.0,17854.0,14513.0,11328.0,0.3224954903125763,0.7325310707092285,0.4738330543041229,0.27937647700309753,0.0,0.0,0.0,0.0,12937.0,16329.0,14999.0,10258.0,1.9849777221679688,0.0806591704165231,-0.17766220182769912,0.03640670935706081,0.1228642463684082,-0.06327308714389801,0.0
281,5,-0.0012992208357900381,-0.0006242655799724162,0.0014505097642540932,-0.026233963668346405,0.011756005696952343,-0.016183167695999146,0.010888178832828999,0.002495828550308943,-0.008107424713671207,0.7902244329452515,-1.2519460916519165,0.034587204456329346,0.0,0.0,0.0,-0.017198625952005386,-0.025693899020552635,-0.0,0.0,0.0,0.0,-0.017486978322267532,-0.03337886184453964,-0.00162005634047091,12111.0,17854.0,14513.0,11328.0,0.3224954903125763,0.7325310707092285,0.4738330543041229,0.27937647700309753,0.0,0.0,0.0,0.0,12937.0,16329.0,14999.0,10258.0,1.9849777221679688,0.08817492572229826,-0.18737988413349307,0.037182902688743996,0.1228642463684082,-0.06327308714389801,0.0
286,5,-0.0014027956640347838,-0.0006642768275924027,0.0015080836601555347,-0.022922556847333908,0.009503752924501896,-0.013382133096456528,0.028869763016700745,0.027457166463136673,-0.008828701451420784,0.8041086792945862,-1.1704692840576172,0.028533166274428368,0.0,0.0,0.0,-0.013293193653225899,-0.022710353136062622,-0.0,0.0,0.0,0.0,-0.01898220367729664,-0.03806172311306,-0.0006605922826565802,13182.0,18127.0,15876.0,10436.0,0.38640204071998596,0.756197988986969,0.5726731419563293,0.2340383529663086,0.0,0.0,0.0,0.0,11742.0,18106.0,14333.0,11537.0,1.9288270473480225,0.091648585734832,-0.19095361890909765,0.037763851176111495,0.10553424060344696,-0.04752344638109207,0.0
291,5,-0.0014811009168624878,-0.0006794215296395123,0.0015330829191952944,-0.018565651029348373,0.005618861876428127,-0.008352776058018208,0.028869763016700745,0.027457166463136673,-0.008828701451420784,0.8041086792945862,-1.1704692840576172,0.028533166274428368,0.0,0.0,0.0,-0.013293193653225899,-0.022710353136062622,-0.0,0.0,0.0,0.0,-0.01898220367729664,-0.03806172311306,-0.0006605922826565802,13182.0,18127.0,15876.0,10436.0,0.38640204071998596,0.756197988986969,0.5726731419563293,0.2340383529663086,0.0,0.0,0.0,0.0,11742.0,18106.0,14333.0,11537.0,1.9288270473480225,0.09366745446085721,-0.1924043222613101,0.03819458570333124,0.10553424060344696,-0.04752344638109207,0.0
296,5,-0.001539551536552608,-0.0006779762916266918,0.0015332081820815802,-0.014440340921282768,0.0020741159096360207,-0.0033561415039002895,0.028869763016700745,0.027457166463136673,-0.008828701451420784,0.8041086792945862,-1.1704692840576172,0.028533166274428368,0.0,0.0,0.0,-0.013293193653225899,-0.022710353136062622,-0.0,0.0,0.0,0.0,-0.019149916246533394,-0.03152650594711304,0.00043585497769527137,14305.0,17412.0,15943.0,10808.0,0.4596228301525116,0.6951539516448975,0.5777481198310852,0.2524528503417969,0.0,0.0,0.0,0.0,13390.0,17959.0,15795.0,10593.0,1.9288270473480225,0.09397275484579998,-0.1941704618566222,0.03921267157127248,0.10553424060344696,-0.04752344638109207,0.0
301,5,-0.0015630393754690886,-0.0006360161351040006,0.0015524392947554588,-0.008594672195613384,-0.004205572418868542,-0.003650182392448187,0.028869763016700745,0.027457166463136673,-0.008828701451420784,0.8041086792945862,-1.1704692840576172,0.028533166274428368,0.0,0.0,0.0,-0.0034600032959133387,-0.014478959143161774,-0.0,0.0,0.0,0.0,-0.019149916246533394,-0.03152650594711304,0.00043585497769527137,14305.0,17412.0,15943.0,10808.0,0.4596228301525116,0.6951539516448975,0.5777481198310852,0.2524528503417969,0.0,0.0,0.0,0.0,13390.0,17959.0,15795.0,10593.0,1.7953457832336426,0.09315551683215764,-0.19214324405690036,0.03859910197764603,0.06263536214828491,-0.011514142155647278,0.0
306,5,-0.0015509092481806874,-0.0005807076813653111,0.0015477766282856464,-0.0019822639878839254,-0.008319239132106304,-0.0009005606407299638,0.035104069858789444,0.03493613377213478,-0.00879129208624363,0.5741786360740662,-0.5959407091140747,0.0810696929693222,0.0,0.0,0.0,-0.0034600032959133387,-0.014478959143161774,-0.0,0.0,0.0,0.0,-0.012301060371100903,-0.023650769144296646,0.0008428568835370243,14233.0,16298.0,15643.0,11959.0,0.454729288816452,0.6050929427146912,0.555109977722168,0.31389492750167847,0.0,0.0,0.0,0.0,14252.0,17249.0,15946.0,11138.0,1.7953457832336426,0.09144571096257484,-0.19009112067174913,0.038889458287772266,0.06263536214828491,-0.011514142155647278,0.0
311,5,-0.0015168343670666218,-0.0005033473717048764,0.0015467386692762375,0.0032960905227810144,-0.01261093933135271,-0.00023567119205836207,0.035104069858789444,0.03493613377213478,-0.00879129208624363,0.5741786360740662,-0.5959407091140747,0.0810696929693222,0.0,0.0,0.0,0.00881934817880392,-0.003874031128361821,-0.0,0.0,0.0,0.0,-0.012301060371100903,-0.023650769144296646,0.0008428568835370243,14233.0,16298.0,15643.0,11959.0,0.454729288816452,0.6050929427146912,0.555109977722168,0.31389492750167847,0.0,0.0,0.0,0.0,14252.0,17249.0,15946.0,11138.0,1.7124911546707153,0.0885611319784959,-0.18700357433993597,0.039424394858425374,0.01598546840250492,0.027993883937597275,0.0
316,5,-0.0014669684460386634,-0.00041007593972608447,0.0014997615944594145,0.007302341982722282,-0.016236944124102592,0.005542986560612917,0.03747011721134186,0.03787451237440109,-0.007413872517645359,-0.40686148405075073,0.5467329025268555,0.07273463904857635,0.0,0.0,0.0,0.00881934817880392,-0.003874031128361821,-0.0,0.0,0.0,0.0,-0.005649575963616371,-0.00844499934464693,0.0010119909420609474,14392.0,14265.0,14677.0,13203.0,0.46551313996315,0.4568674862384796,0.4852582514286041,0.3877069056034088,0.0,0.0,0.0,0.0,14455.0,15932.0,15479.0,12400.0,1.7124911546707153,0.08386294045374952,-0.18237946374122754,0.03974988915357629,0.01598546840250492,0.027993883937597275,0.0
321,5,-0.0014146077446639538,-0.0002922641288023442,0.0014303296338766813,0.00920422188937664,-0.020632194355130196,0.010549036785960197,0.03747011721134186,0.03787451237440109,-0.007413872517645359,-0.40686148405075073,0.5467329025268555,0.07273463904857635,0.0,0.0,0.0,0.017667163163423538,0.00447181286290288,-0.0,0.0,0.0,0.0,-0.005649575963616371,-0.00844499934464693,0.0010119909420609474,14392.0,14265.0,14677.0,13203.0,0.46551313996315,0.4568674862384796,0.4852582514286041,0.3877069056034088,0.0,0.0,0.0,0.0,14455.0,15932.0,15479.0,12400.0,1.7903116941452026,0.07860639326941327,-0.17725454211054856,0.03994911243875389,-0.01928834430873394,0.058622315526008606,-0.0
327,5,-0.001389996032230556,-0.00015933912072796375,0.0013702277792617679,0.006635099649429321,-0.02420387975871563,0.011431829072535038,0.029333006590604782,0.029042411595582962,-0.005880965851247311,-0.8667371869087219,0.9187080264091492,0.11514626443386078,0.0,0.0,0.0,0.025969775393605232,0.0038245669566094875,-0.0,0.0,0.0,0.0,0.003998898435384035,0.0033802581019699574,0.002263823291286826,14759.0,11749.0,14602.0,14003.0,0.4910253882408142,0.3021554946899414,0.48002326488494873,0.439287006855011,0.0,0.0,0.0,0.0,14569.0,13723.0,14772.0,13474.0,1.8674958944320679,0.07274729461989494,-0.17211109269942643,0.03944559549584595,-0.01720466837286949,0.08987682312726974,-0.0
332,5,-0.0013461483176797628,-3.263070902903564e-05,0.0013086197432130575,0.007915757596492767,-0.024886561557650566,0.01196569949388504,0.029333006590604782,0.029042411595582962,-0.005880965851247311,-0.8667371869087219,0.9187080264091492,0.11514626443386078,0.0,0.0,0.0,0.025969775393605232,0.0038245669566094875,-0.0,0.0,0.0,0.0,0.003998898435384035,0.0033802581019699574,0.002263823291286826,14759.0,11749.0,14602.0,14003.0,0.4910253882408142,0.3021554946899414,0.48002326488494873,0.439287006855011,0.0,0.0,0.0,0.0,14569.0,13723.0,14772.0,13474.0,1.8674958944320679,0.0661434815603627,-0.1679416564267737,0.03935189149173548,-0.01720466837286949,0.08987682312726974,-0.0
337,5,-0.001294662244617939,9.792624769033864e-05,0.0012378861429169774,0.009344632737338543,-0.025621458888053894,0.01327431295067072,0.021312721073627472,0.020682813599705696,-0.0053138709627091885,-1.136624813079834,1.0266170501708984,-0.0421292670071125,0.0,0.0,0.0,0.02757418528199196,0.006123335100710392,-0.0,0.0,0.0,0.0,0.01158839464187622,0.01415639091283083,-0.00040655248449184,13588.0,12465.0,13222.0,15965.0,0.39645934104919434,0.35598284006118774,0.38063913583755493,0.5794098377227783,0.0,0.0,0.0,0.0,14710.0,11601.0,14432.0,14348.0,1.8906103372573853,0.060151868840071454,-0.16348598115207721,0.03904928275085871,-0.02788522280752659,0.09660804271697998,-0.0
342,5,-0.0012425713939592242,0.00019759635324589908,0.0011895190691575408,0.009988763369619846,-0.02220899611711502,0.011113767512142658,0.021312721073627472,0.020682813599705696,-0.0053138709627091885,-1.136624813079834,1.0266170501708984,-0.0421292670071125,0.0,0.0,0.0,0.02757418528199196,0.006123335100710392,-0.0,0.0,0.0,0.0,0.01158839464187622,0.01415639091283083,-0.00040655248449184,13588.0,12465.0,13222.0,15965.0,0.39645934104919434,0.35598284006118774,0.38063913583755493,0.5794098377227783,0.0,0.0,0.0,0.0,14710.0,11601.0,14432.0,14348.0,1.8906103372573853,0.055688767798660395,-0.1600289823405951,0.03903985197080656,-0.02788522280752659,0.09660804271697998,-0.0
347,5,-0.0012138159945607185,0.00029300543246790767,0.0011332947760820389,0.0074461414478719234,-0.020332688465714455,0.01119242887943983,0.007916218601167202,0.009092082269489765,-0.005258522927761078,-1.00602126121521,0.9530699253082275,0.03454937785863876,0.0,0.0,0.0,0.02757418528199196,0.006123335100710392,-0.0,0.0,0.0,0.0,0.015371089801192284,0.016516033560037613,-0.00011431044549681246,14338.0,11835.0,13991.0,16012.0,0.46183598041534424,0.30693507194519043,0.4385003447532654,0.5830402970314026,0.0,0.0,0.0,0.0,14737.0,11830.0,14614.0,16110.0,1.8906103372573853,0.051443230304207964,-0.15715073976667782,0.03876056196000491,-0.02788522280752659,0.09660804271697998,-0.0
352,5,-0.0012207530671730638,0.0003595286689233035,0.0011203692993149161,0.0021460107527673244,-0.016115862876176834,0.0060280305333435535,0.007916218601167202,0.009092082269489765,-0.005258522927761078,-1.00602126121521,0.9530699253082275,0.03454937785863876,0.0,0.0,0.0,0.022834094241261482,0.0047851731069386005,-0.0,0.0,0.0,0.0,0.015371089801192284,0.016516033560037613,-0.00011431044549681246,14338.0,11835.0,13991.0,16012.0,0.46183598041534424,0.30693507194519043,0.4385003447532654,0.5830402970314026,0.0,0.0,0.0,0.0,14737.0,11830.0,14614.0,16110.0,1.8396276235580444,0.04854127007842748,-0.154748972200715,0.03891778318531753,-0.021206285804510117,0.0778491199016571,-0.0
357,5,-0.0012600094778463244,0.0004277715925127268,0.0011554865632206202,-0.0038523655384778976,-0.014635497704148293,-0.001802860526368022,0.001054802443832159,0.0031013726256787777,-0.004865238908678293,-0.7819082736968994,0.5827043056488037,0.03250471502542496,0.0,0.0,0.0,0.022834094241261482,0.0047851731069386005,-0.0,0.0,0.0,0.0,0.015504388138651848,0.013118154369294643,0.0005551942158490419,14437.0,12309.0,14698.0,15950.0,0.4686320722103119,0.33383235335350037,0.4867282509803772,0.578303337097168,0.0,0.0,0.0,0.0,14124.0,12663.0,14693.0,15960.0,1.8396276235580444,0.04621625928680088,-0.15386764321801266,0.039407428348125086,-0.021206285804510117,0.0778491199016571,-0.0
362,5,-0.0013447756646201015,0.0004811060498468578,0.0012155566364526749,-0.011712880805134773,-0.01225433312356472,-0.00792955607175827,0.001054802443832159,0.0031013726256787777,-0.004865238908678293,-0.7819082736968994,0.5827043056488037,0.03250471502542496,0.0,0.0,0.0,0.017262069508433342,-0.0049707829020917416,-0.0,0.0,0.0,0.0,0.015504388138651848,0.013118154369294643,0.0005551942158490419,14437.0,12309.0,14698.0,15950.0,0.4686320722103119,0.33383235335350037,0.4867282509803772,0.578303337097168,0.0,0.0,0.0,0.0,14124.0,12663.0,14693.0,15960.0,1.788716435432434,0.04463587293874949,-0.15373432732729447,0.03888948149630047,0.021421588957309723,0.05722736194729805,0.0
367,5,-0.0014501241967082024,0.0005286506493575871,0.0012848328333348036,-0.017326978966593742,-0.010607082396745682,-0.01148496475070715,-0.006316951010376215,-0.0012720361119136214,-0.004735482856631279,-0.41805025935173035,0.1965246945619583,0.006834301166236401,0.0,0.0,0.0,0.017262069508433342,-0.0049707829020917416,-0.0,0.0,0.0,0.0,0.012867513112723827,0.006560183595865965,-0.0004586277937050909,14009.0,13412.0,14727.0,15726.0,0.43970412015914917,0.40086519718170166,0.48873600363731384,0.561305046081543,0.0,0.0,0.0,0.0,14027.0,13541.0,14814.0,15517.0,1.788716435432434,0.04445752553975596,-0.1551990818124494,0.03914823557196454,0.021421588957309723,0.05722736194729805,0.0
372,5,-0.0015606264350935817,0.0005531682400032878,0.0013670524349436164,-0.020191064104437828,-0.007184949237853289,-0.014460339210927486,-0.006316951010376215,-0.0012720361119136214,-0.004735482856631279,-0.41805025935173035,0.1965246945619583,0.006834301166236401,0.0,0.0,0.0,0.012449816800653934,-0.016382822766900063,-0.0,0.0,0.0,0.0,0.012867513112723827,0.006560183595865965,-0.0004586277937050909,14009.0,13412.0,14727.0,15726.0,0.43970412015914917,0.40086519718170166,0.48873600363731384,0.561305046081543,0.0,0.0,0.0,0.0,14027.0,13541.0,14814.0,15517.0,1.849471926689148,0.04438515321407506,-0.15705364039977193,0.0393482428522862,0.07300209254026413,0.042677491903305054,0.0
377,5,-0.0016542415833100677,0.000572391611058265,0.0014379415661096573,-0.019310245290398598,-0.0051807826384902,-0.014290832914412022,-0.00822778232395649,-0.0009584382059983909,-0.004780360963195562,-0.1875637322664261,-0.2868686020374298,-0.024711448699235916,0.0,0.0,0.0,0.012449816800653934,-0.016382822766900063,-0.0,0.0,0.0,0.0,0.008678039535880089,-0.0019702233839780092,-0.0008632990065962076,13111.0,14366.0,14660.0,15025.0,0.381958544254303,0.4637611508369446,0.4840639531612396,0.5098440051078796,0.0,0.0,0.0,0.0,12479.0,14783.0,14768.0,14319.0,1.849471926689148,0.04572471031040405,-0.15978100104696497,0.039257558640301206,0.07300209254026413,0.042677491903305054,0.0
382,5,-0.0017681231256574392,0.0005707538221031427,0.0015114718116819859,-0.021389877423644066,-0.0018757799407467246,-0.014539958909153938,-0.00822778232395649,-0.0009584382059983909,-0.004780360963195562,-0.1875637322664261,-0.2868686020374298,-0.024711448699235916,0.0,0.0,0.0,0.0065837823785841465,-0.018302876502275467,-0.0,0.0,0.0,0.0,0.008678039535880089,-0.0019702233839780092,-0.0008632990065962076,13111.0,14366.0,14660.0,15025.0,0.381958544254303,0.4637611508369446,0.4840639531612396,0.5098440051078796,0.0,0.0,0.0,0.0,12479.0,14783.0,14768.0,14319.0,1.8496136665344238,0.04642111805232635,-0.1633883978964777,0.04004476276080206,0.08156777918338776,0.022571444511413574,0.0
388,5,-0.0018875807290896773,0.000580210704356432,0.0015579832252115011,-0.022890858352184296,-0.001885132398456335,-0.011397361755371094,-0.008435581810772419,0.004065075423568487,-0.004857237450778484,0.1769656538963318,-0.4680154323577881,0.001988563686609268,0.0,0.0,0.0,0.0065837823785841465,-0.018302876502275467,-0.0,0.0,0.0,0.0,0.00414435938000679,-0.01138084102421999,-0.0006717162323184311,12841.0,14878.0,14870.0,13787.0,0.3654124140739441,0.49938714504241943,0.49885737895965576,0.4250594973564148,0.0,0.0,0.0,0.0,12866.0,14969.0,14899.0,13633.0,1.8496136665344238,0.04815436553522795,-0.16683713090695482,0.03948832745039403,0.08156777918338776,0.022571444511413574,0.0
393,5,-0.0019943879451602697,0.0005756128230132163,0.001565408892929554,-0.02197321131825447,-0.0002023129491135478,-0.005450021475553513,-0.008435581810772419,0.004065075423568487,-0.004857237450778484,0.1769656538963318,-0.4680154323577881,0.001988563686609268,0.0,0.0,0.0,0.002942353719845414,-0.021246623247861862,-0.0,0.0,0.0,0.0,0.00414435938000679,-0.01138084102421999,-0.0006717162323184311,12841.0,14878.0,14870.0,13787.0,0.3654124140739441,0.49938714504241943,0.49885737895965576,0.4250594973564148,0.0,0.0,0.0,0.0,12866.0,14969.0,14899.0,13633.0,1.8808388710021973,0.050090716872739964,-0.16920812183425224,0.03965679509048301,0.09628505259752274,0.010257791727781296,0.0
398,5,-0.002105477498844266,0.0005523462896235287,0.0015875960234552622,-0.022120030596852303,0.002711064647883177,-0.0048424662090837955,-0.00679661612957716,0.008605963550508022,-0.005054684355854988,0.23887358605861664,-0.6378756165504456,-0.055328868329524994,0.0,0.0,0.0,0.002942353719845414,-0.021246623247861862,-0.0,0.0,0.0,0.0,0.0013759108260273933,-0.01983165740966797,-0.0017581910360604525,12042.0,16190.0,15042.0,13757.0,0.3185393214225769,0.596746563911438,0.5110703706741333,0.42311567068099976,0.0,0.0,0.0,0.0,11968.0,16309.0,14902.0,13834.0,1.8808388710021973,0.052198246967931496,-0.17165436388788802,0.03965248372227188,0.09628505259752274,0.010257791727781296,0.0
403,5,-0.002195860957726836,0.0005367380217649043,0.0015889671631157398,-0.019694039598107338,0.0029574132058769464,-0.002101518213748932,-0.00679661612957716,0.008605963550508022,-0.005054684355854988,0.23887358605861664,-0.6378756165504456,-0.055328868329524994,0.0,0.0,0.0,-0.0020504218991845846,-0.02093048393726349,-0.0,0.0,0.0,0.0,0.0013759108260273933,-0.01983165740966797,-0.0017581910360604525,12042.0,16190.0,15042.0,13757.0,0.3185393214225769,0.596746563911438,0.5110703706741333,0.42311567068099976,0.0,0.0,0.0,0.0,11968.0,16309.0,14902.0,13834.0,1.8758310079574585,0.054061186549897104,-0.1726880373987729,0.039371280054439725,0.09460024535655975,-0.007129267789423466,0.0
408,5,-0.002301980508491397,0.0005270757828839123,0.001631632330827415,-0.020611949265003204,0.0023424348328262568,-0.005960424430668354,-0.0026407423429191113,0.014642701484262943,-0.00539801549166441,0.44511768221855164,-0.40796658396720886,-0.005317178089171648,0.0,0.0,0.0,-0.0020504218991845846,-0.02093048393726349,-0.0,0.0,0.0,0.0,-0.002937778364866972,-0.017911875620484352,-0.0010891243582591414,12960.0,15985.0,14951.0,13262.0,0.37266165018081665,0.5809104442596436,0.5046094655990601,0.39143216609954834,0.0,0.0,0.0,0.0,13078.0,15916.0,14905.0,13282.0,1.8758310079574585,0.058336524909348556,-0.17482141558684255,0.03999444584700266,0.09460024535655975,-0.007129267789423466,0.0
413,5,-0.00235575158149004,0.000498725101351738,0.0016094133025035262,-0.014697319827973843,0.004339057486504316,0.0002821156813297421,-0.0026407423429191113,0.014642701484262943,-0.00539801549166441,0.44511768221855164,-0.40796658396720886,-0.005317178089171648,0.0,0.0,0.0,-0.0017030711751431227,-0.020046932622790337,-0.0,0.0,0.0,0.0,-0.002937778364866972,-0.017911875620484352,-0.0010891243582591414,12960.0,15985.0,14951.0,13262.0,0.37266165018081665,0.5809104442596436,0.5046094655990601,0.39143216609954834,0.0,0.0,0.0,0.0,13078.0,15916.0,14905.0,13282.0,1.8639544248580933,0.060426735606118546,-0.17472541601793476,0.03998771057245958,0.09003376960754395,-0.005884048994630575,0.0
418,5,-0.0023900598753243685,0.00047349068336188793,0.0015706683043390512,-0.009995920583605766,0.004763753153383732,0.004762239754199982,-0.0026407423429191113,0.014642701484262943,-0.00539801549166441,0.44511768221855164,-0.40796658396720886,-0.005317178089171648,0.0,0.0,0.0,-0.0017030711751431227,-0.020046932622790337,-0.0,0.0,0.0,0.0,-0.002937778364866972,-0.017911875620484352,-0.0010891243582591414,12960.0,15985.0,14951.0,13262.0,0.37266165018081665,0.5809104442596436,0.5046094655990601,0.39143216609954834,0.0,0.0,0.0,0.0,13078.0,15916.0,14905.0,13282.0,1.8639544248580933,0.06157924454255607,-0.17360150360440763,0.04001467699387389,0.09003376960754395,-0.005884048994630575,0.0
423,5,-0.0024188922252506018,0.00046183267841115594,0.0015596442390233278,-0.0074582467786967754,0.0033044626470655203,0.0032277838326990604,0.0006023695459589362,0.01693430356681347,-0.005714974831789732,0.41173020005226135,-0.18071842193603516,-0.035538531839847565,0.0,0.0,0.0,-0.004657567944377661,-0.01190984807908535,-0.0,0.0,0.0,0.0,-0.006336759310215712,-0.009443576447665691,-0.00019433305715210736,13008.0,16310.0,14525.0,13778.0,0.3756547272205353,0.6060225963592529,0.47467079758644104,0.4244907796382904,0.0,0.0,0.0,0.0,13556.0,15872.0,14762.0,13511.0,1.7672817707061768,0.06267560873873217,-0.17217887838996504,0.03910973921911209,0.05071645975112915,-0.015257054008543491,-0.0
428,5,-0.0024184121284633875,0.00042190897511318326,0.0015038579003885388,-0.0029256981797516346,0.0061126272194087505,0.007985468953847885,0.0006023695459589362,0.01693430356681347,-0.005714974831789732,0.41173020005226135,-0.18071842193603516,-0.035538531839847565,0.0,0.0,0.0,-0.004657567944377661,-0.01190984807908535,-0.0,0.0,0.0,0.0,-0.006336759310215712,-0.009443576447665691,-0.00019433305715210736,13008.0,16310.0,14525.0,13778.0,0.3756547272205353,0.6060225963592529,0.47467079758644104,0.4244907796382904,0.0,0.0,0.0,0.0,13556.0,15872.0,14762.0,13511.0,1.7672817707061768,0.0639196938080189,-0.17039461321117635,0.03938083033894759,0.05071645975112915,-0.015257054008543491,-0.0
433,5,-0.0024339891970157623,0.0004275072133168578,0.0014939098618924618,-0.003039504634216428,0.0017732642590999603,0.004387959372252226,0.005281604826450348,0.016923170536756516,-0.005658864043653011,0.40324652194976807,0.1446796953678131,-0.0016444113571196795,0.0,0.0,0.0,-0.006492475047707558,-0.005908386316150427,-0.0,0.0,0.0,0.0,-0.006266814190894365,-0.004405733197927475,-0.0011795604368671775,14120.0,15412.0,13885.0,14124.0,0.4471369683742523,0.5379356741905212,0.4315163791179657,0.4473653733730316,0.0,0.0,0.0,0.0,14025.0,15593.0,14219.0,13861.0,1.7116003036499023,0.0638557419657569,-0.16846251219919225,0.0391255700992341,0.024367528036236763,-0.020597554743289948,-0.0
438,5,-0.002442458411678672,0.0004063000378664583,0.0014578686095774174,-0.0022321182768791914,0.003254166804254055,0.0060801380313932896,0.005281604826450348,0.016923170536756516,-0.005658864043653011,0.40324652194976807,0.1446796953678131,-0.0016444113571196795,0.0,0.0,0.0,-0.006492475047707558,-0.005908386316150427,-0.0,0.0,0.0,0.0,-0.006266814190894365,-0.004405733197927475,-0.0011795604368671775,14120.0,15412.0,13885.0,14124.0,0.4471369683742523,0.5379356741905212,0.4315163791179657,0.4473653733730316,0.0,0.0,0.0,0.0,14025.0,15593.0,14219.0,13861.0,1.7116003036499023,0.06443379610453905,-0.16662238361087903,0.038738463180216516,0.024367528036236763,-0.020597554743289948,-0.0
443,5,-0.0024611782282590866,0.0003865371982101351,0.001427664770744741,-0.003139230888336897,0.0036732079461216927,0.00605650944635272,0.008113101124763489,0.014926524832844734,-0.00584590807557106,0.2885764539241791,0.34609049558639526,-0.008366738446056843,0.0,0.0,0.0,-0.0031791911460459232,-0.005377591587603092,-0.0,0.0,0.0,0.0,-0.005883943755179644,0.0007107603596523404,-0.0014914828352630138,13905.0,14884.0,12986.0,14316.0,0.43283453583717346,0.4998285472393036,0.37427476048469543,0.4603439271450043,0.0,0.0,0.0,0.0,14329.0,15140.0,14018.0,14078.0,1.6906572580337524,0.06484578689950996,-0.16451597803501114,0.03824667137934891,0.02190740779042244,-0.00996275432407856,-0.0
448,5,-0.0024613526184111834,0.0004066993133164942,0.0013905857922509313,-0.0012766047148033977,-0.0009501714957877994,0.006872084457427263,0.008113101124763489,0.014926524832844734,-0.00584590807557106,0.2885764539241791,0.34609049558639526,-0.008366738446056843,0.0,0.0,0.0,-0.0031791911460459232,-0.005377591587603092,-0.0,0.0,0.0,0.0,-0.005883943755179644,0.0007107603596523404,-0.0014914828352630138,13905.0,14884.0,12986.0,14316.0,0.43283453583717346,0.4998285472393036,0.37427476048469543,0.4603439271450043,0.0,0.0,0.0,0.0,14329.0,15140.0,14018.0,14078.0,1.6906572580337524,0.06663907093710646,-0.16285960689531415,0.038859128556855464,0.02190740779042244,-0.00996275432407856,-0.0
454,5,-0.0024808363523334265,0.0003935697313863784,0.0013685940066352487,-0.002848704345524311,0.0011954822111874819,0.005387844052165747,0.011798257008194923,0.0071389442309737206,-0.006192155182361603,0.010554772801697254,0.36772873997688293,-0.0023667351342737675,0.0,0.0,0.0,0.0018671219004318118,-0.004559886176139116,-0.0,0.0,0.0,0.0,-0.004628907423466444,0.003372949780896306,-0.0012836081441491842,13969.0,14246.0,12899.0,14163.0,0.43703725934028625,0.455583781003952,0.36897847056388855,0.4500007927417755,0.0,0.0,0.0,0.0,13838.0,14890.0,12874.0,14475.0,1.6779577732086182,0.06684084179477853,-0.1614375254584507,0.03853418901712782,0.018436763435602188,0.005807133391499519,-0.0
459,5,-0.0025017810985445976,0.0003852248191833496,0.0013238148530945182,-0.003652851562947035,0.0014795794850215316,0.007528642192482948,0.011798257008194923,0.0071389442309737206,-0.006192155182361603,0.010554772801697254,0.36772873997688293,-0.0023667351342737675,0.0,0.0,0.0,0.0018671219004318118,-0.004559886176139116,-0.0,0.0,0.0,0.0,-0.004628907423466444,0.003372949780896306,-0.0012836081441491842,13969.0,14246.0,12899.0,14163.0,0.43703725934028625,0.455583781003952,0.36897847056388855,0.4500007927417755,0.0,0.0,0.0,0.0,13838.0,14890.0,12874.0,14475.0,1.6779577732086182,0.06571508360378298,-0.15993515828321206,0.0381194772011433,0.018436763435602188,0.005807133391499519,-0.0
464,5,-0.0025311633944511414,0.0003739251696970314,0.0012789986794814467,-0.004987016785889864,0.0019477895693853498,0.00838939193636179,0.011411421000957489,0.0037031262181699276,-0.006463951896876097,-0.06930308043956757,0.2976623475551605,-0.03485623747110367,0.0,0.0,0.0,-0.001085337484255433,-0.006730115972459316,-0.0,0.0,0.0,0.0,-0.003149476833641529,0.001942492206580937,-0.0018798512173816562,13409.0,14378.0,12706.0,14429.0,0.4007050395011902,0.4645882844924927,0.35725778341293335,0.46810615062713623,0.0,0.0,0.0,0.0,13822.0,14319.0,13020.0,14123.0,1.7006090879440308,0.0654988787923199,-0.15904812085078412,0.037613071600239065,0.027578802779316902,-0.003421194152906537,-0.0
469,5,-0.002591583179309964,0.0003880627336911857,0.0012587190140038729,-0.009245174005627632,-0.0009173906873911619,0.005789315328001976,0.011411421000957489,0.0037031262181699276,-0.006463951896876097,-0.06930308043956757,0.2976623475551605,-0.03485623747110367,0.0,0.0,0.0,-0.001085337484255433,-0.006730115972459316,-0.0,0.0,0.0,0.0,-0.003149476833641529,0.001942492206580937,-0.0018798512173816562,13409.0,14378.0,12706.0,14429.0,0.4007050395011902,0.4645882844924927,0.35725778341293335,0.46810615062713623,0.0,0.0,0.0,0.0,13822.0,14319.0,13020.0,14123.0,1.7006090879440308,0.0642486011904466,-0.15877876613645495,0.03754046514826201,0.027578802779316902,-0.003421194152906537,-0.0
