timestamp,dt,pos_x,pos_y,pos_z,vel_x,vel_y,vel_z,roll,pitch,yaw,agv_x,agv_y,agv_z,x_ref,y_ref,z_ref,roll_ref,pitch_ref,yaw_ref,x_vel_ref,y_vel_ref,z_vel_ref,x_torque,y_torque,z_torque,w0,w1,w2,w3,u0,u1,u2,u3,m0req,m1req,m2req,m3req,thrust0,thrust1,thrust2,thrust3,thrust_ref,roll_vicon,pitch_vicon,yaw_vicon,acc_x,acc_y,acc_z,roll_received,pitch_received,yaw_received
5,5,0.0,0.0,0.0,-0.00030162822804413736,0.002407273044809699,0.0009420099086128175,0.01581713557243347,-0.32050660252571106,0.010723939165472984,0.0,0.0,0.0,0.0,0.0,0.0,-0.002950935857370496,-0.0002844223927240819,-0.0,0.0,0.0,0.0,-0.003108331235125661,0.09598506987094879,0.001017484231851995,1495.0,1495.0,1495.0,1495.0,0.0,0.0,0.0,0.0,0.0,0.0,0.0,0.0,0.0,0.0,0.0,0.0,1.6504008769989014,0.010163618314780748,0.16752536594648126,-0.010242836398394389,0.001131105818785727,-0.009027274325489998,0.0,-0.0,-0.0,0.0
36,31,0.0,0.0,0.0,-0.0002514400111977011,0.0004715793766081333,-9.753421909408644e-05,0.01581713557243347,-0.32050660252571106,0.010723939165472984,0.0,0.0,0.0,0.0,0.0,0.0,-0.002950935857370496,-0.0002844223927240819,-0.0,0.0,0.0,0.0,-0.003108331235125661,0.09598506987094879,0.001017484231851995,1495.0,1495.0,1495.0,1495.0,0.0,0.0,0.0,0.0,0.0,0.0,0.0,0.0,0.0,0.0,0.0,0.0,1.6504008769989014,0.010357049351481129,0.16792519800177722,-0.010582110886804138,0.001131105818785727,-0.009027274325489998,0.0,-0.0,-0.0,0.0
41,5,0.0,0.0,0.0,0.001037784037180245,0.0007657610694877803,0.0029108733870089054,0.01581713557243347,-0.32050660252571106,0.010723939165472984,0.0,0.0,0.0,0.0,0.0,0.0,-0.0009423866285942495,0.00098242552485317,-0.0,0.0,0.0,0.0,-0.003108331235125661,0.09598506987094879,0.001017484231851995,1495.0,1495.0,1495.0,1495.0,0.0,0.0,0.0,0.0,0.0,0.0,0.0,0.0,0.0,0.0,0.0,0.0,1.6439439058303833,0.010397291866491075,0.1681220152625387,-0.010647320377953105,-0.003891690168529749,-0.0028716039378196,0.0,-0.0,-0.0,0.0
46,5,0.0,0.0,0.0,0.001037784037180245,0.0007657610694877803,0.0029108733870089054,0.015834320336580276,-0.3204725682735443,0.010760728269815445,0.0,0.0,0.0,0.0,0.0,0.0,-0.0009423866285942495,0.00098242552485317,-0.0,0.0,0.0,0.0,-0.0037952193524688482,0.09595704078674316,0.001198136480525136,1495.0,1495.0,1495.0,1495.0,0.0,0.0,0.0,0.0,0.0,0.0,0.0,0.0,0.0,0.0,0.0,0.0,1.6439439058303833,0.010397291866491075,0.1681220152625387,-0.010647320377953105,-0.003891690168529749,-0.0028716039378196,0.0,-0.002950935857370496,-0.0002844223927240819,0.0
62,16,0.0,0.0,0.0,0.000261620240053162,0.0015932823298498988,-0.0002486975281499326,0.015867626294493675,-0.3205104470252991,0.010788598097860813,0.0,0.0,0.0,0.0,0.0,0.0,-0.001959133893251419,0.00024745697737671435,-0.0,0.0,0.0,0.0,-0.0038221003487706184,0.09609794616699219,0.0011103969300165772,1495.0,1495.0,1495.0,1495.0,0.0,0.0,0.0,0.0,0.0,0.0,0.0,0.0,0.0,0.0,0.0,0.0,1.6453255414962769,0.01011574958731328,0.16757034448779246,-0.010326791428719572,-0.0009810759220272303,-0.00597480870783329,0.0,-0.002950935857370496,-0.0002844223927240819,0.0
67,5,0.0,0.0,0.0,0.000261620240053162,0.0015932823298498988,-0.0002486975281499326,0.01585693098604679,-0.32050925493240356,0.010777459479868412,0.0,0.0,0.0,0.0,0.0,0.0,-0.001959133893251419,0.00024745697737671435,-0.0,0.0,0.0,0.0,-0.0033650107216089964,0.09642352163791656,0.0010321817826479673,19588.0,1495.0,1495.0,18725.0,0.8889293670654297,-0.037939175963401794,-0.016265220940113068,0.8092188835144043,0.0,0.0,0.0,0.0,0.0,0.0,0.0,0.0,1.6453255414962769,0.01011574958731328,0.16757034448779246,-0.010326791428719572,-0.0009810759220272303,-0.00597480870783329,0.0,-0.0009423866285942495,0.00098242552485317,0.0
72,5,2.0389294149936177e-05,-1.3580992344941478e-05,-1.4078399544814602e-05,0.000261620240053162,0.0015932823298498988,-0.0002486975281499326,0.01585693098604679,-0.32050925493240356,0.010777459479868412,0.0,0.0,0.0,0.0,0.0,0.0,-0.001983928494155407,0.0002758002083282918,-0.0,0.0,0.0,0.0,-0.003339383052662015,0.09635793417692184,0.0011032995535060763,19588.0,1495.0,1495.0,18725.0,0.8889293670654297,-0.037939175963401794,-0.016265220940113068,0.8092188835144043,0.0,0.0,0.0,0.0,0.0,0.0,0.0,0.0,1.6450879573822021,0.010463013085377866,0.16741075271397826,-0.010241231343722424,-0.001093288417905569,-0.006049551535397768,0.0,-0.0009423866285942495,0.00098242552485317,0.0
79,7,1.0548743375693448e-05,-8.107581379590556e-06,-1.1054879905714188e-05,0.000261620240053162,0.0015932823298498988,-0.0002486975281499326,0.01585693098604679,-0.32050925493240356,0.010777459479868412,0.0,0.0,0.0,0.0,0.0,0.0,-0.001983928494155407,0.0002758002083282918,-0.0,0.0,0.0,0.0,-0.003339383052662015,0.09635793417692184,0.0011032995535060763,19588.0,1495.0,1495.0,18725.0,0.8889293670654297,-0.037939175963401794,-0.016265220940113068,0.8092188835144043,0.0,0.0,0.0,0.0,0.0,0.0,0.0,0.0,1.6450879573822021,0.010517078354902664,0.1675522969922618,-0.0103346558576696,-0.001093288417905569,-0.006049551535397768,0.0,-0.0009423866285942495,0.00098242552485317,0.0
84,5,1.0548743375693448e-05,-8.107581379590556e-06,-1.1054879905714188e-05,0.000261620240053162,0.0015932823298498988,-0.0002486975281499326,0.01585693098604679,-0.32050925493240356,0.010777459479868412,0.0,0.0,0.0,0.0,0.0,0.0,-0.0019740655552595854,0.00026215609977953136,-0.0,0.0,0.0,0.0,-0.003339383052662015,0.09635793417692184,0.0011032995535060763,19588.0,1495.0,1495.0,18725.0,0.8889293670654297,-0.037939175963401794,-0.016265220940113068,0.8092188835144043,0.0,0.0,0.0,0.0,0.0,0.0,0.0,0.0,1.6450878381729126,0.010517078354902664,0.1675522969922618,-0.0103346558576696,-0.0010392023250460625,-0.00601947633549571,0.0,-0.0009423866285942495,0.00098242552485317,0.0
89,5,1.31654305732809e-05,5.26290932612028e-06,-3.4458509617252275e-05,0.00041865056846290827,-0.0009671459556557238,0.0027089568320661783,0.015855135396122932,-0.32048487663269043,0.010810784995555878,0.0,0.0,0.0,0.0,0.0,0.0,-0.0019740655552595854,0.00026215609977953136,-0.0,0.0,0.0,0.0,-0.0035748558584600687,0.09642225503921509,0.0009625354432500899,19629.0,1495.0,1495.0,18683.0,0.8927814960479736,-0.03913649544119835,-0.013750489801168442,0.805431067943573,0.0,0.0,0.0,0.0,0.0,0.0,0.0,0.0,1.6450878381729126,0.010483399659439183,0.16737820753469404,-0.010218275832370623,-0.0010392023250460625,-0.00601947633549571,0.0,-0.001983928494155407,0.0002758002083282918,0.0
94,5,1.31654305732809e-05,5.26290932612028e-06,-3.4458509617252275e-05,0.00041865056846290827,-0.0009671459556557238,0.0027089568320661783,0.015855135396122932,-0.32048487663269043,0.010810784995555878,0.0,0.0,0.0,0.0,0.0,0.0,0.0011983514996245503,0.0004141699173487723,-0.0,0.0,0.0,0.0,-0.0035748558584600687,0.09642225503921509,0.0009625354432500899,19629.0,1495.0,1495.0,18683.0,0.8927814960479736,-0.03913649544119835,-0.013750489801168442,0.805431067943573,0.0,0.0,0.0,0.0,0.0,0.0,0.0,0.0,1.6457970142364502,0.010483399659439183,0.16737820753469404,-0.010218275832370623,-0.0016425038920715451,0.0036556858103722334,0.0,-0.001983928494155407,0.0002758002083282918,0.0
99,5,2.484587184881093e-06,1.1069501852034591e-05,-7.028030722722178e-06,-0.0011142409639433026,-0.0010836494620889425,-0.0022080750204622746,0.015845784917473793,-0.3205021023750305,0.01079059299081564,0.0,0.0,0.0,0.0,0.0,0.0,0.0011983514996245503,0.0004141699173487723,-0.0,0.0,0.0,0.0,-0.003574538277462125,0.09629255533218384,0.0009860044810920954,19600.0,1495.0,1495.0,18725.0,0.8900299072265625,-0.03657772019505501,-0.017516518011689186,0.8091522455215454,0.0,0.0,0.0,0.0,0.0,0.0,0.0,0.0,1.6457970142364502,0.010550431053716794,0.16757844969850216,-0.0104517678314997,-0.0016425038920715451,0.0036556858103722334,0.0,-0.0019740655552595854,0.00026215609977953136,0.0
104,5,2.484587184881093e-06,1.1069501852034591e-05,-7.028030722722178e-06,-0.0011142409639433026,-0.0010836494620889425,-0.0022080750204622746,0.015845784917473793,-0.3205021023750305,0.01079059299081564,0.0,0.0,0.0,0.0,0.0,0.0,0.0011983514996245503,0.0004141699173487723,-0.0,0.0,0.0,0.0,-0.003574538277462125,0.09629255533218384,0.0009860044810920954,19600.0,1495.0,1495.0,18725.0,0.8900299072265625,-0.03657772019505501,-0.017516518011689186,0.8091522455215454,0.0,0.0,0.0,0.0,0.0,0.0,0.0,0.0,1.6457970142364502,0.010550431053716794,0.16757844969850216,-0.0104517678314997,0.004164575133472681,0.004124549217522144,0.0,-0.0019740655552595854,0.00026215609977953136,0.0
109,5,2.484587184881093e-06,1.1069501852034591e-05,-7.028030722722178e-06,-0.0011142409639433026,-0.0010836494620889425,-0.0022080750204622746,0.015845784917473793,-0.3205021023750305,0.01079059299081564,0.0,0.0,0.0,0.0,0.0,0.0,0.0013524005189538002,-0.0010504041565582156,-0.0,0.0,0.0,0.0,-0.003574538277462125,0.09629255533218384,0.0009860044810920954,19600.0,1495.0,1495.0,18725.0,0.8900299072265625,-0.03657772019505501,-0.017516518011689186,0.8091522455215454,0.0,0.0,0.0,0.0,0.0,0.0,0.0,0.0,1.6453672647476196,0.010550431053716794,0.16757844969850216,-0.0104517678314997,0.004164575133472681,0.004124549217522144,0.0,-0.0019740655552595854,0.00026215609977953136,0.0
115,5,-3.4462109397281893e-06,-2.786967115753214e-06,1.0437849596200977e-05,-0.0011142409639433026,-0.0010836494620889425,-0.0022080750204622746,0.015845784917473793,-0.3205021023750305,0.01079059299081564,0.0,0.0,0.0,0.0,0.0,0.0,0.0013524005189538002,-0.0010504041565582156,-0.0,0.0,0.0,0.0,-0.003574538277462125,0.09629255533218384,0.0009860044810920954,19600.0,1495.0,1495.0,18725.0,0.8900299072265625,-0.03657772019505501,-0.017516518011689186,0.8091522455215454,0.0,0.0,0.0,0.0,0.0,0.0,0.0,0.0,1.6453672647476196,0.010686001981728855,0.16787195211257014,-0.01053762314547963,0.004164575133472681,0.004124549217522144,0.0,-0.0019740655552595854,0.00026215609977953136,0.0
120,5,-6.791016403440153e-06,-7.110377282515401e-06,6.872729159113078e-07,-0.0008470730390399694,8.534940570825711e-05,0.0002868392621167004,0.01583649031817913,-0.3204546570777893,0.010778834111988544,0.0,0.0,0.0,0.0,0.0,0.0,0.0013274085940793157,-0.001058634603396058,-0.0,0.0,0.0,0.0,-0.002956391777843237,0.09656888991594315,0.0010285386815667152,19582.0,1495.0,1495.0,18732.0,0.8882865905761719,-0.03496643900871277,-0.0180177241563797,0.8097854256629944,0.0,0.0,0.0,0.0,0.0,0.0,0.0,0.0,1.6453672647476196,0.0105406447112179,0.1676157186950909,-0.010500543492648711,0.004197206813842058,0.004048328846693039,0.0,0.0011983514996245503,0.0004141699173487723,0.0
125,5,-6.791016403440153e-06,-7.110377282515401e-06,6.872729159113078e-07,-0.0008470730390399694,8.534940570825711e-05,0.0002868392621167004,0.01583649031817913,-0.3204546570777893,0.010778834111988544,0.0,0.0,0.0,0.0,0.0,0.0,0.0013274085940793157,-0.001058634603396058,-0.0,0.0,0.0,0.0,-0.002956391777843237,0.09656888991594315,0.0010285386815667152,19582.0,1495.0,1495.0,18732.0,0.8882865905761719,-0.03496643900871277,-0.0180177241563797,0.8097854256629944,0.0,0.0,0.0,0.0,0.0,0.0,0.0,0.0,1.6453672647476196,0.0105406447112179,0.1676157186950909,-0.010500543492648711,0.004197206813842058,0.004048328846693039,0.0,0.0011983514996245503,0.0004141699173487723,0.0
130,5,4.777434696734417e-06,-5.70721022086218e-06,-1.4539687072101515e-05,-0.0008470730390399694,8.534940570825711e-05,0.0002868392621167004,0.015866613015532494,-0.3204911947250366,0.01079255249351263,0.0,0.0,0.0,0.0,0.0,0.0,-0.00011780309432651848,-0.0008107066387310624,-0.0,0.0,0.0,0.0,-0.002997665898874402,0.09666692465543747,0.0011405646800994873,19619.0,1495.0,1495.0,18735.0,0.8918434381484985,-0.043206699192523956,-0.012947402894496918,0.8101077079772949,0.0,0.0,0.0,0.0,0.0,0.0,0.0,0.0,1.645114541053772,0.010217675588036155,0.16754136262514438,-0.010531995506679211,0.0032137471716850996,-0.0003592207212932408,0.0,0.0011983514996245503,0.0004141699173487723,0.0
135,5,4.777434696734417e-06,-5.70721022086218e-06,-1.4539687072101515e-05,-0.0008470730390399694,8.534940570825711e-05,0.0002868392621167004,0.015866613015532494,-0.3204911947250366,0.01079255249351263,0.0,0.0,0.0,0.0,0.0,0.0,-0.00011780309432651848,-0.0008107066387310624,-0.0,0.0,0.0,0.0,-0.002997665898874402,0.09666692465543747,0.0011405646800994873,19619.0,1495.0,1495.0,18735.0,0.8918434381484985,-0.043206699192523956,-0.012947402894496918,0.8101077079772949,0.0,0.0,0.0,0.0,0.0,0.0,0.0,0.0,1.645114541053772,0.010217675588036155,0.16754136262514438,-0.010531995506679211,0.0032137471716850996,-0.0003592207212932408,0.0,0.0011983514996245503,0.0004141699173487723,0.0
140,5,-1.57609556481475e-05,3.244155664106074e-07,9.347109880764037e-06,-0.0008470730390399694,8.534940570825711e-05,0.0002868392621167004,0.015872403979301453,-0.3205050826072693,0.01080314815044403,0.0,0.0,0.0,0.0,0.0,0.0,-0.00011525828449521214,-0.0007945105317048728,-0.0,0.0,0.0,0.0,-0.002965196268633008,0.09619612991809845,0.001146917580626905,19592.0,1495.0,1495.0,18708.0,0.8892174363136292,-0.041046202182769775,-0.010430864989757538,0.8076268434524536,0.0,0.0,0.0,0.0,0.0,0.0,0.0,0.0,1.6454071998596191,0.010101294085428853,0.16842910393096555,-0.010690545899854454,0.0031501040793955326,-0.00035152328200638294,0.0,0.0013524005189538002,-0.0010504041565582156,0.0
151,11,4.150234872213332e-06,5.114273790240986e-06,-9.32845341594657e-06,0.0020505136344581842,-0.0005406432319432497,0.002355803269892931,0.01584676094353199,-0.3204459547996521,0.010781235061585903,0.0,0.0,0.0,0.0,0.0,0.0,0.0006731500616297126,0.0019428739324212074,-0.0,0.0,0.0,0.0,-0.003203660948202014,0.09627754986286163,0.0010648220777511597,19604.0,1495.0,1495.0,18707.0,0.890434741973877,-0.04017404094338417,-0.012700114399194717,0.8075538873672485,0.0,0.0,0.0,0.0,0.0,0.0,0.0,0.0,1.6473808288574219,0.010137056068084193,0.1676758817818138,-0.010308545825712593,-0.0077124107629060745,0.0020554852671921253,0.0,-0.00011780309432651848,-0.0008107066387310624,0.0
158,8,4.150234872213332e-06,5.114273790240986e-06,-9.32845341594657e-06,0.0020505136344581842,-0.0005406432319432497,0.002355803269892931,0.01584676094353199,-0.3204459547996521,0.010781235061585903,0.0,0.0,0.0,0.0,0.0,0.0,0.0006731500616297126,0.0019428739324212074,-0.0,0.0,0.0,0.0,-0.003203660948202014,0.09627754986286163,0.0010648220777511597,19604.0,1495.0,1495.0,18707.0,0.890434741973877,-0.04017404094338417,-0.012700114399194717,0.8075538873672485,0.0,0.0,0.0,0.0,0.0,0.0,0.0,0.0,1.6473808288574219,0.010137056068084193,0.1676758817818138,-0.010308545825712593,-0.0077124107629060745,0.0020554852671921253,0.0,-0.00011780309432651848,-0.0008107066387310624,0.0
164,5,2.1907071641180664e-05,-3.385579930181848e-06,-2.156304799427744e-05,0.00295102596282959,0.0008037251536734402,0.002410472836345434,0.01584676094353199,-0.3204459547996521,0.010781235061585903,0.0,0.0,0.0,0.0,0.0,0.0,0.000673155824188143,0.001942877541296184,-0.0,0.0,0.0,0.0,-0.003203660948202014,0.09627754986286163,0.0010648220777511597,19604.0,1495.0,1495.0,18707.0,0.890434741973877,-0.04017404094338417,-0.012700114399194717,0.8075538873672485,0.0,0.0,0.0,0.0,0.0,0.0,0.0,0.0,1.6473808288574219,0.010371118103697624,0.16717235318486723,-0.010340425714824467,-0.007712425198405981,0.002055502962321043,0.0,-0.00011780309432651848,-0.0008107066387310624,0.0
169,5,2.1907071641180664e-05,-3.385579930181848e-06,-2.156304799427744e-05,0.00295102596282959,0.0008037251536734402,0.002410472836345434,0.015855059027671814,-0.32049641013145447,0.010801402851939201,0.0,0.0,0.0,0.0,0.0,0.0,-0.0009873153176158667,0.002801621099933982,-0.0,0.0,0.0,0.0,-0.0032466331031173468,0.09651799499988556,0.0010393199045211077,19601.0,1495.0,1495.0,18732.0,0.8901239633560181,-0.03965548798441887,-0.015188734978437424,0.8098347187042236,0.0,0.0,0.0,0.0,0.0,0.0,0.0,0.0,1.6571295261383057,0.010371118103697624,0.16717235318486723,-0.010340425714824467,-0.011187085881829262,-0.00303263938985765,0.0,-0.00011780309432651848,-0.0008107066387310624,0.0
174,5,0.0004223836003802717,-0.00019146678096149117,-0.00028725407901220024,0.00295102596282959,0.0008037251536734402,0.002410472836345434,0.015855059027671814,-0.32049641013145447,0.010801402851939201,0.0,0.0,0.0,0.0,0.0,0.0,-0.0009873153176158667,0.002801621099933982,-0.0,0.0,0.0,0.0,-0.0032466331031173468,0.09651799499988556,0.0010393199045211077,19601.0,1495.0,1495.0,18732.0,0.8901239633560181,-0.03965548798441887,-0.015188734978437424,0.8098347187042236,0.0,0.0,0.0,0.0,0.0,0.0,0.0,0.0,1.6571295261383057,0.03451781088869307,0.17285525911048216,-0.020673726292180176,-0.011187085881829262,-0.00303263938985765,0.0,-0.00011780309432651848,-0.0008107066387310624,0.0
179,5,0.0004223836003802717,-0.00019146678096149117,-0.00028725407901220024,0.00295102596282959,0.0008037251536734402,0.002410472836345434,0.015855059027671814,-0.32049641013145447,0.010801402851939201,0.0,0.0,0.0,0.0,0.0,0.0,-0.0009873153176158667,0.002801621099933982,-0.0,0.0,0.0,0.0,-0.0032466331031173468,0.09651799499988556,0.0010393199045211077,19601.0,1495.0,1495.0,18732.0,0.8901239633560181,-0.03965548798441887,-0.015188734978437424,0.8098347187042236,0.0,0.0,0.0,0.0,0.0,0.0,0.0,0.0,1.6571295261383057,0.03451781088869307,0.17285525911048216,-0.020673726292180176,-0.011187085881829262,-0.00303263938985765,0.0,-0.00011780309432651848,-0.0008107066387310624,0.0
184,5,0.00034309449256397784,-0.00011397253547329456,-0.00010702441795729101,-0.008334280923008919,-0.008977820165455341,-0.020663369446992874,0.01576780341565609,-0.32050177454948425,0.0107445502653718,0.0,0.0,0.0,0.0,0.0,0.0,-0.0013191511388868093,0.00334053672850132,-0.0,0.0,0.0,0.0,-0.0031482058111578226,0.0972498431801796,-0.00100950978230685,19731.0,1495.0,1495.0,18682.0,0.9024890661239624,-0.053281720727682114,-0.007111649960279465,0.8052851557731628,0.0,0.0,0.0,0.0,0.0,0.0,0.0,0.0,1.6636120080947876,0.03714314294335041,0.17093891793540822,-0.019133488544426185,-0.01339118555188179,-0.004067756235599518,0.0,0.0006731500616297126,0.0019428739324212074,0.0
189,5,0.00034309449256397784,-0.00011397253547329456,-0.00010702441795729101,-0.008334280923008919,-0.008977820165455341,-0.020663369446992874,0.01576780341565609,-0.32050177454948425,0.0107445502653718,0.0,0.0,0.0,0.0,0.0,0.0,-0.0013191511388868093,0.00334053672850132,-0.0,0.0,0.0,0.0,-0.0031482058111578226,0.0972498431801796,-0.00100950978230685,19731.0,1495.0,1495.0,18682.0,0.9024890661239624,-0.053281720727682114,-0.007111649960279465,0.8052851557731628,0.0,0.0,0.0,0.0,0.0,0.0,0.0,0.0,1.6636120080947876,0.03714314294335041,0.17093891793540822,-0.019133488544426185,-0.01339118555188179,-0.004067756235599518,0.0,0.0006731500616297126,0.0019428739324212074,0.0
194,5,0.0003885604382958263,-0.00015863796579651535,-0.00022478144092019647,-0.008334280923008919,-0.008977820165455341,-0.020663369446992874,0.015694759786128998,-0.3203078508377075,0.010535860434174538,0.0,0.0,0.0,0.0,0.0,0.0,0.010219397023320198,-0.006986806634813547,-0.0,0.0,0.0,0.0,-0.00335939833894372,0.09725452959537506,0.003606365993618965,20226.0,1495.0,4635.0,18140.0,0.9501543045043945,-0.09658242762088776,0.036509159952402115,0.7572998404502869,0.0,0.0,0.0,0.0,0.0,0.0,0.0,0.0,1.7442348003387451,0.035309013448681884,0.17318397804094196,-0.020862739700229827,0.0293636042624712,0.03303885832428932,0.0,0.000673155824188143,0.001942877541296184,0.0
199,5,0.0005108448676764965,-0.0001330782106379047,-9.128680540015921e-05,-0.008334280923008919,-0.008977820165455341,-0.020663369446992874,0.015694759786128998,-0.3203078508377075,0.010535860434174538,0.0,0.0,0.0,0.0,0.0,0.0,0.010219397023320198,-0.006986806634813547,-0.0,0.0,0.0,0.0,-0.00335939833894372,0.09725452959537506,0.003606365993618965,20226.0,1495.0,4635.0,18140.0,0.9501543045043945,-0.09658242762088776,0.036509159952402115,0.7572998404502869,0.0,0.0,0.0,0.0,0.0,0.0,0.0,0.0,1.7442348003387451,0.048752147398290084,0.17281245275757015,-0.024650233916216752,0.0293636042624712,0.03303885832428932,0.0,0.000673155824188143,0.001942877541296184,0.0
204,5,0.0005108448676764965,-0.0001330782106379047,-9.128680540015921e-05,-0.008334280923008919,-0.008977820165455341,-0.020663369446992874,0.01567983441054821,-0.32038551568984985,0.010545183904469013,0.0,0.0,0.0,0.0,0.0,0.0,0.010197386145591736,-0.006773912813514471,-0.0,0.0,0.0,0.0,-0.003088132245466113,0.09830716997385025,-0.000984469661489129,19270.0,1495.0,1495.0,19321.0,0.8590987920761108,-0.005502200685441494,-0.06029164791107178,0.8638245463371277,0.0,0.0,0.0,0.0,0.0,0.0,0.0,0.0,1.7424150705337524,0.048752147398290084,0.17281245275757015,-0.024650233916216752,0.028439190238714218,0.032933309674263,0.0,-0.0009873153176158667,0.002801621099933982,0.0
209,5,0.0004899189225398004,-0.00015686344704590738,-0.00011366915714461356,-0.005844824481755495,-0.0007369008380919695,-0.005579466000199318,0.01567983441054821,-0.32038551568984985,0.010545183904469013,0.0,0.0,0.0,0.0,0.0,0.0,0.010197386145591736,-0.006773912813514471,-0.0,0.0,0.0,0.0,-0.003088132245466113,0.09830716997385025,-0.000984469661489129,19270.0,1495.0,1495.0,19321.0,0.8590987920761108,-0.005502200685441494,-0.06029164791107178,0.8638245463371277,0.0,0.0,0.0,0.0,0.0,0.0,0.0,0.0,1.7424150705337524,0.04567775530894699,0.1725941936251855,-0.02387308468810954,0.028439190238714218,0.032933309674263,0.0,-0.0009873153176158667,0.002801621099933982,0.0
214,5,0.0004899189225398004,-0.00015686344704590738,-0.00011366915714461356,-0.005844824481755495,-0.0007369008380919695,-0.005579466000199318,0.016117263585329056,-0.32039883732795715,0.010851309634745121,0.0,0.0,0.0,0.0,0.0,0.0,0.000610426883213222,-0.004753026645630598,-0.0,0.0,0.0,0.0,-0.004620079882442951,0.0980023741722107,0.001525731524452567,19728.0,1495.0,1495.0,18859.0,0.9021540284156799,-0.032021038234233856,-0.0278555229306221,0.8213344812393188,0.0,0.0,0.0,0.0,0.0,0.0,0.0,0.0,1.6779056787490845,0.04567775530894699,0.1725941936251855,-0.02387308468810954,0.019217105582356453,0.0018984959460794926,0.0,-0.0013191511388868093,0.00334053672850132,0.0
220,5,0.0004623199056368321,-0.00014395469042938203,-0.00013551596202887595,-0.005649813916534185,-0.00184380984865129,0.00038983067497611046,0.016117263585329056,-0.32039883732795715,0.010851309634745121,0.0,0.0,0.0,0.0,0.0,0.0,0.000610426883213222,-0.004753026645630598,-0.0,0.0,0.0,0.0,-0.004620079882442951,0.0980023741722107,0.001525731524452567,19728.0,1495.0,1495.0,18859.0,0.9021540284156799,-0.032021038234233856,-0.0278555229306221,0.8213344812393188,0.0,0.0,0.0,0.0,0.0,0.0,0.0,0.0,1.6779056787490845,0.034142884034087786,0.16968997466756913,-0.019519996944694005,0.019217105582356453,0.0018984959460794926,0.0,-0.0013191511388868093,0.00334053672850132,0.0
225,5,0.0004623199056368321,-0.00014395469042938203,-0.00013551596202887595,-0.005649813916534185,-0.00184380984865129,0.00038983067497611046,0.015866482630372047,-0.32000628113746643,0.01067427359521389,0.0,0.0,0.0,0.0,0.0,0.0,0.000610426883213222,-0.004753026645630598,-0.0,0.0,0.0,0.0,-0.0007855246658436954,0.09411825984716415,0.0019160761730745435,19974.0,1495.0,5848.0,18626.0,0.9257104992866516,-0.045586973428726196,0.06384319067001343,0.8002680540084839,0.0,0.0,0.0,0.0,0.0,0.0,0.0,0.0,1.6779056787490845,0.034142884034087786,0.16968997466756913,-0.019519996944694005,0.019217105582356453,0.0018984959460794926,0.0,0.010219397023320198,-0.006986806634813547,0.0
230,5,0.0004930617287755013,-0.00016619327652733773,-1.9751791114686057e-05,-0.005649813916534185,-0.00184380984865129,0.00038983067497611046,0.015866482630372047,-0.32000628113746643,0.01067427359521389,0.0,0.0,0.0,0.0,0.0,0.0,0.001966784941032529,-0.004607058130204678,-0.0,0.0,0.0,0.0,-0.0007855246658436954,0.09411825984716415,0.0019160761730745435,19974.0,1495.0,5848.0,18626.0,0.9257104992866516,-0.045586973428726196,0.06384319067001343,0.8002680540084839,0.0,0.0,0.0,0.0,0.0,0.0,0.0,0.0,1.6787241697311401,0.046886723667529835,0.16960514243953081,-0.024200640119138077,0.01863599382340908,0.006119898986071348,0.0,0.010219397023320198,-0.006986806634813547,0.0
235,5,0.0004930617287755013,-0.00016619327652733773,-1.9751791114686057e-05,-0.005649813916534185,-0.00184380984865129,0.00038983067497611046,0.016164977103471756,-0.31930944323539734,0.010360240936279297,0.0,0.0,0.0,0.0,0.0,0.0,0.0019279079278931022,-0.004566296003758907,-0.0,0.0,0.0,0.0,-0.001403328264132142,0.09253975749015808,-0.0006334463832899928,19082.0,4664.0,1495.0,19354.0,0.8417060971260071,0.03708260506391525,-0.0033191684633493423,0.8669455051422119,0.0,0.0,0.0,0.0,0.0,0.0,0.0,0.0,1.6781858205795288,0.046886723667529835,0.16960514243953081,-0.024200640119138077,0.018465187400579453,0.005997004918754101,0.0,0.010197386145591736,-0.006773912813514471,0.0
241,6,0.0004571136669255793,-0.0001638229441596195,1.8576529328129254e-05,-0.006573691498488188,-0.001021964242681861,-0.004443466197699308,0.016164977103471756,-0.31930944323539734,0.010360240936279297,0.0,0.0,0.0,0.0,0.0,0.0,0.0019279079278931022,-0.004566296003758907,-0.0,0.0,0.0,0.0,-0.001403328264132142,0.09253975749015808,-0.0006334463832899928,19082.0,4664.0,1495.0,19354.0,0.8417060971260071,0.03708260506391525,-0.0033191684633493423,0.8669455051422119,0.0,0.0,0.0,0.0,0.0,0.0,0.0,0.0,1.6781858205795288,0.044383511859393016,0.166109629837528,-0.02410079175108323,0.018465187400579453,0.005997004918754101,0.0,0.010197386145591736,-0.006773912813514471,0.0
246,5,0.0004571136669255793,-0.0001638229441596195,1.8576529328129254e-05,-0.006573691498488188,-0.001021964242681861,-0.004443466197699308,0.015522221103310585,-0.31500089168548584,0.010383251123130322,0.0,0.0,0.0,0.0,0.0,0.0,0.0019279079278931022,-0.004566296003758907,-0.0,0.0,0.0,0.0,-0.0026258460711687803,0.08574369549751282,0.0017449079314246774,19158.0,3464.0,5324.0,18182.0,0.8487046957015991,0.017114296555519104,0.051132477819919586,0.7609542012214661,0.0,0.0,0.0,0.0,0.0,0.0,0.0,0.0,1.6781858205795288,0.044383511859393016,0.166109629837528,-0.02410079175108323,0.018465187400579453,0.005997004918754101,0.0,0.000610426883213222,-0.004753026645630598,0.0
251,5,0.00037284320569597185,-0.000197686706087552,0.0002557317784521729,-0.012741932645440102,0.003654866013675928,-0.0302360150963068,0.015522221103310585,-0.31500089168548584,0.010383251123130322,0.0,0.0,0.0,0.0,0.0,0.0,0.0009367953753098845,-0.00544627383351326,-0.0,0.0,0.0,0.0,-0.0026258460711687803,0.08574369549751282,0.0017449079314246774,19158.0,3464.0,5324.0,18182.0,0.8487046957015991,0.017114296555519104,0.051132477819919586,0.7609542012214661,0.0,0.0,0.0,0.0,0.0,0.0,0.0,0.0,1.6859736442565918,0.04504187033345711,0.15383105387693122,-0.023597687108217177,0.022125842049717903,0.0029275475535541773,0.0,0.000610426883213222,-0.004753026645630598,0.0
256,5,0.00037284320569597185,-0.000197686706087552,0.0002557317784521729,-0.012741932645440102,0.003654866013675928,-0.0302360150963068,0.015522221103310585,-0.31500089168548584,0.010383251123130322,0.0,0.0,0.0,0.0,0.0,0.0,-0.004550527315586805,-0.010815237648785114,-0.0,0.0,0.0,0.0,-0.003732145531103015,0.06821882724761963,0.0011198358843103051,18254.0,7195.0,8148.0,17140.0,0.7673121094703674,0.1028713583946228,0.1359649896621704,0.6725757122039795,0.0,0.0,0.0,0.0,0.0,0.0,0.0,0.0,1.7543694972991943,0.04504187033345711,0.15383105387693122,-0.023597687108217177,0.045718930661678314,-0.014797508716583252,0.0,0.001966784941032529,-0.004607058130204678,0.0
261,5,0.00019655580399557948,-0.0001792290568118915,0.000716721173375845,-0.026251260191202164,-0.0007529716822318733,-0.06741313636302948,0.015522221103310585,-0.31500089168548584,0.010383251123130322,0.0,0.0,0.0,0.0,0.0,0.0,-0.004550527315586805,-0.010815237648785114,-0.0,0.0,0.0,0.0,-0.003732145531103015,0.06821882724761963,0.0011198358843103051,18254.0,7195.0,8148.0,17140.0,0.7673121094703674,0.1028713583946228,0.1359649896621704,0.6725757122039795,0.0,0.0,0.0,0.0,0.0,0.0,0.0,0.0,1.7543694972991943,0.04591790740935948,0.1295938946391057,-0.021825342934498504,0.045718930661678314,-0.014797508716583252,0.0,0.001966784941032529,-0.004607058130204678,0.0
266,5,0.00019655580399557948,-0.0001792290568118915,0.000716721173375845,-0.026251260191202164,-0.0007529716822318733,-0.06741313636302948,0.01614399440586567,-0.2817651331424713,0.010196009650826454,0.0,0.0,0.0,0.0,0.0,0.0,-0.004550527315586805,-0.010815237648785114,-0.0,0.0,0.0,0.0,-0.0032494403421878815,0.03890775516629219,0.00208180770277977,16914.0,10068.0,11571.0,15099.0,0.6541323661804199,0.2164720892906189,0.2924100160598755,0.5151712894439697,0.0,0.0,0.0,0.0,0.0,0.0,0.0,0.0,1.7543694972991943,0.04591790740935948,0.1295938946391057,-0.021825342934498504,0.045718930661678314,-0.014797508716583252,0.0,0.0019279079278931022,-0.004566296003758907,0.0
272,5,-6.450930231949314e-05,-0.0001504297397332266,0.001527230953797698,-0.04182831570506096,-0.0037571063730865717,-0.12422642111778259,0.01614399440586567,-0.2817651331424713,0.010196009650826454,0.0,0.0,0.0,0.0,0.0,0.0,0.000525332463439554,-0.021465539932250977,-0.0,0.0,0.0,0.0,-0.0032494403421878815,0.03890775516629219,0.00208180770277977,16914.0,10068.0,11571.0,15099.0,0.6541323661804199,0.2164720892906189,0.2924100160598755,0.5151712894439697,0.0,0.0,0.0,0.0,0.0,0.0,0.0,0.0,1.8822002410888672,0.0498084490370727,0.09042962077501251,-0.019334511136734372,0.09734780341386795,0.0018327726284042,0.0,0.0019279079278931022,-0.004566296003758907,0.0
277,5,-6.450930231949314e-05,-0.0001504297397332266,0.001527230953797698,-0.04182831570506096,-0.0037571063730865717,-0.12422642111778259,0.016121625900268555,-0.2535829544067383,0.010276438668370247,0.0,0.0,0.0,0.0,0.0,0.0,0.000525332463439554,-0.021465539932250977,-0.0,0.0,0.0,0.0,-0.0057897549122571945,-0.04550926014780998,0.003012891625985503,14697.0,13223.0,14842.0,11952.0,0.4866577088832855,0.3889661133289337,0.4968735873699188,0.31347623467445374,0.0,0.0,0.0,0.0,0.0,0.0,0.0,0.0,1.8822002410888672,0.0498084490370727,0.09042962077501251,-0.019334511136734372,0.09734780341386795,0.0018327726284042,0.0,-0.004550527315586805,-0.010815237648785114,0.0
282,5,-0.00025647616712376475,-0.00029906388954259455,0.002317662350833416,-0.04182831570506096,-0.0037571063730865717,-0.12422642111778259,0.016121625900268555,-0.2535829544067383,0.010276438668370247,0.0,0.0,0.0,0.0,0.0,0.0,0.003517825622111559,-0.032094888389110565,-0.0,0.0,0.0,0.0,-0.0057897549122571945,-0.04550926014780998,0.003012891625985503,14697.0,13223.0,14842.0,11952.0,0.4866577088832855,0.3889661133289337,0.4968735873699188,0.31347623467445374,0.0,0.0,0.0,0.0,0.0,0.0,0.0,0.0,2.032994031906128,0.044311425260069974,0.034541079139567984,-0.016039995688968023,0.15719784796237946,0.013256147503852844,0.0,-0.004550527315586805,-0.010815237648785114,0.0
287,5,-0.00025647616712376475,-0.00029906388954259455,0.002317662350833416,-0.04182831570506096,-0.0037571063730865717,-0.12422642111778259,0.016549495980143547,-0.19326399266719818,0.01014172937721014,0.0,0.0,0.0,0.0,0.0,0.0,0.003517825622111559,-0.032094888389110565,-0.0,0.0,0.0,0.0,-0.0045398809015750885,-0.0976036936044693,0.0032632574439048767,11992.0,16361.0,17576.0,7696.0,0.3157144784927368,0.6100626587867737,0.70887291431427,0.11971946060657501,0.0,0.0,0.0,0.0,0.0,0.0,0.0,0.0,2.032994031906128,0.044311425260069974,0.034541079139567984,-0.016039995688968023,0.15719784796237946,0.013256147503852844,0.0,0.000525332463439554,-0.021465539932250977,0.0
292,5,-0.000660568184684962,-0.00035673865932039917,0.0036356414202600718,-0.04182831570506096,-0.0037571063730865717,-0.12422642111778259,0.016549495980143547,-0.19326399266719818,0.01014172937721014,0.0,0.0,0.0,0.0,0.0,0.0,0.0032966986764222383,-0.03227241337299347,-0.0,0.0,0.0,0.0,-0.0045398809015750885,-0.0976036936044693,0.0032632574439048767,11992.0,16361.0,17576.0,7696.0,0.3157144784927368,0.6100626587867737,0.70887291431427,0.11971946060657501,0.0,0.0,0.0,0.0,0.0,0.0,0.0,0.0,2.0354042053222656,0.05317991770692217,-0.036035444389792885,-0.012294981309286544,0.15825456380844116,0.012437612749636173,0.0,0.000525332463439554,-0.021465539932250977,0.0
297,5,-0.000660568184684962,-0.00035673865932039917,0.0036356414202600718,-0.04182831570506096,-0.0037571063730865717,-0.12422642111778259,0.016549495980143547,-0.19326399266719818,0.01014172937721014,0.0,0.0,0.0,0.0,0.0,0.0,0.0032966986764222383,-0.03227241337299347,-0.0,0.0,0.0,0.0,-0.0045398809015750885,-0.0976036936044693,0.0032632574439048767,11992.0,16361.0,17576.0,7696.0,0.3157144784927368,0.6100626587867737,0.70887291431427,0.11971946060657501,0.0,0.0,0.0,0.0,0.0,0.0,0.0,0.0,2.0354042053222656,0.05317991770692217,-0.036035444389792885,-0.012294981309286544,0.15825456380844116,0.012437612749636173,0.0,0.000525332463439554,-0.021465539932250977,0.0
302,5,-0.0013559929793700576,-0.0003986140072811395,0.005149130243808031,-0.04182831570506096,-0.0037571063730865717,-0.12422642111778259,0.016410106793045998,-0.1416662484407425,0.009873311035335064,0.0,0.0,0.0,0.0,0.0,0.0,0.0032038611825555563,-0.03264038637280464,-0.0,0.0,0.0,0.0,-0.0043817018158733845,-0.13993117213249207,0.0031153003219515085,1495.0,21580.0,22778.0,1495.0,-0.03278406709432602,1.0870851278305054,1.2158973217010498,-0.23720428347587585,0.0,0.0,0.0,0.0,0.0,0.0,0.0,0.0,2.040757417678833,0.04442850281718299,-0.1128371229753089,-0.009640048751304803,0.1604793816804886,0.012119153514504433,0.0,0.003517825622111559,-0.032094888389110565,0.0
307,5,-0.0013559929793700576,-0.0003986140072811395,0.005149130243808031,-0.04182831570506096,-0.0037571063730865717,-0.12422642111778259,0.016410106793045998,-0.1416662484407425,0.009873311035335064,0.0,0.0,0.0,0.0,0.0,0.0,0.0032038611825555563,-0.03264038637280464,-0.0,0.0,0.0,0.0,-0.0043817018158733845,-0.13993117213249207,0.0031153003219515085,1495.0,21580.0,22778.0,1495.0,-0.03278406709432602,1.0870851278305054,1.2158973217010498,-0.23720428347587585,0.0,0.0,0.0,0.0,0.0,0.0,0.0,0.0,2.040757417678833,0.04442850281718299,-0.1128371229753089,-0.009640048751304803,0.1604793816804886,0.012119153514504433,0.0,0.003517825622111559,-0.032094888389110565,0.0
313,5,-0.003213368821889162,-0.0014327163808047771,0.006402953993529081,-0.04182831570506096,-0.0037571063730865717,-0.12422642111778259,0.016430996358394623,-0.05090733617544174,0.009403142146766186,0.0,0.0,0.0,0.0,0.0,0.0,0.00312841241247952,-0.03326859325170517,-0.0,0.0,0.0,0.0,-0.005496523343026638,-0.18336783349514008,0.00446475250646472,1495.0,23193.0,24649.0,1495.0,-0.19694079458713531,1.2622026205062866,1.4314247369766235,-0.46128225326538086,0.0,0.0,0.0,0.0,0.0,0.0,0.0,0.0,2.050015687942505,-0.04196750815148262,-0.23124723254866242,-0.006364738052948616,0.16430896520614624,0.011887443251907825,0.0,0.0032966986764222383,-0.03227241337299347,0.0
318,5,-0.003213368821889162,-0.0014327163808047771,0.006402953993529081,-0.04182831570506096,-0.0037571063730865717,-0.12422642111778259,0.016430996358394623,-0.05090733617544174,0.009403142146766186,0.0,0.0,0.0,0.0,0.0,0.0,0.00312841241247952,-0.03326859325170517,-0.0,0.0,0.0,0.0,-0.005496523343026638,-0.18336783349514008,0.00446475250646472,1495.0,23193.0,24649.0,1495.0,-0.19694079458713531,1.2622026205062866,1.4314247369766235,-0.46128225326538086,0.0,0.0,0.0,0.0,0.0,0.0,0.0,0.0,2.050015687942505,-0.04196750815148262,-0.23124723254866242,-0.006364738052948616,0.16430896520614624,0.011887443251907825,0.0,0.0032966986764222383,-0.03227241337299347,0.0
323,5,-0.0038023851811885834,-0.0018744192784652114,0.007577687036246061,-0.04182831570506096,-0.0037571063730865717,-0.12422642111778259,0.016273941844701767,0.016018403694033623,0.009344777092337608,0.0,0.0,0.0,0.0,0.0,0.0,0.001611428684554994,-0.03493082523345947,-0.0,0.0,0.0,0.0,-0.006004605442285538,-0.20000000298023224,0.004858154803514481,1495.0,23731.0,25337.0,1495.0,-0.25222763419151306,1.3234736919403076,1.5150866508483887,-0.5455754995346069,0.0,0.0,0.0,0.0,0.0,0.0,0.0,0.0,2.0740182399749756,-0.03522343355692334,-0.3196136311596254,0.0026147415752725616,0.17453576624393463,0.006194865796715021,0.0,0.0032038611825555563,-0.03264038637280464,0.0
328,5,-0.0038023851811885834,-0.0018744192784652114,0.007577687036246061,-0.04182831570506096,-0.0037571063730865717,-0.12422642111778259,0.016273941844701767,0.016018403694033623,0.009344777092337608,0.0,0.0,0.0,0.0,0.0,0.0,0.001611428684554994,-0.03493082523345947,-0.0,0.0,0.0,0.0,-0.006004605442285538,-0.20000000298023224,0.004858154803514481,1495.0,23731.0,25337.0,1495.0,-0.25222763419151306,1.3234736919403076,1.5150866508483887,-0.5455754995346069,0.0,0.0,0.0,0.0,0.0,0.0,0.0,0.0,2.0740182399749756,-0.03522343355692334,-0.3196136311596254,0.0026147415752725616,0.17453576624393463,0.006194865796715021,0.0,0.0032038611825555563,-0.03264038637280464,0.0
333,5,-0.005011455621570349,-0.0011735414154827595,0.008572857826948166,-0.04182831570506096,-0.0037571063730865717,-0.12422642111778259,0.015763401985168457,0.19653423130512238,0.008929869160056114,0.0,0.0,0.0,0.0,0.0,0.0,0.0009741823887452483,-0.035450853407382965,-0.0,0.0,0.0,0.0,-0.0033089425414800644,-0.20000000298023224,0.0030759384389966726,1495.0,24081.0,25043.0,1495.0,-0.31008201837539673,1.364180326461792,1.4790092706680298,-0.48309195041656494,0.0,0.0,0.0,0.0,0.0,0.0,0.0,0.0,2.081692934036255,-0.0404439403883455,-0.4277241573670142,-0.030323551350709806,0.17778867483139038,0.0037589396815747023,0.0,0.00312841241247952,-0.03326859325170517,0.0
338,5,-0.005011455621570349,-0.0011735414154827595,0.008572857826948166,-0.04182831570506096,-0.0037571063730865717,-0.12422642111778259,0.015763401985168457,0.19653423130512238,0.008929869160056114,0.0,0.0,0.0,0.0,0.0,0.0,0.0009741823887452483,-0.035450853407382965,-0.0,0.0,0.0,0.0,-0.0033089425414800644,-0.20000000298023224,0.0030759384389966726,1495.0,24081.0,25043.0,1495.0,-0.31008201837539673,1.364180326461792,1.4790092706680298,-0.48309195041656494,0.0,0.0,0.0,0.0,0.0,0.0,0.0,0.0,2.081692934036255,-0.0404439403883455,-0.4277241573670142,-0.030323551350709806,0.17778867483139038,0.0037589396815747023,0.0,0.00312841241247952,-0.03326859325170517,0.0
343,5,-0.006225269287824631,-0.0015095622511580586,0.009494290687143803,-0.04182831570506096,-0.0037571063730865717,-0.12422642111778259,0.014997284859418869,0.3116142451763153,0.009424947202205658,0.0,0.0,0.0,0.0,0.0,0.0,0.0019568277057260275,-0.03649502620100975,-0.0,0.0,0.0,0.0,-0.007858116179704666,-0.20000000298023224,0.0074055432341992855,1495.0,23338.0,25831.0,1495.0,-0.17344419658184052,1.2785874605178833,1.5766034126281738,-0.6077285408973694,0.0,0.0,0.0,0.0,0.0,0.0,0.0,0.0,2.0979959964752197,-0.04359423177364794,-0.5315043296053923,-0.03246498705266404,0.18445609509944916,0.007609660271555185,0.0,0.001611428684554994,-0.03493082523345947,0.0
348,5,-0.006225269287824631,-0.0015095622511580586,0.009494290687143803,-0.04182831570506096,-0.0037571063730865717,-0.12422642111778259,0.014997284859418869,0.3116142451763153,0.009424947202205658,0.0,0.0,0.0,0.0,0.0,0.0,0.0019568277057260275,-0.03649502620100975,-0.0,0.0,0.0,0.0,-0.007858116179704666,-0.20000000298023224,0.0074055432341992855,1495.0,23338.0,25831.0,1495.0,-0.17344419658184052,1.2785874605178833,1.5766034126281738,-0.6077285408973694,0.0,0.0,0.0,0.0,0.0,0.0,0.0,0.0,2.0979959964752197,-0.04359423177364794,-0.5315043296053923,-0.03246498705266404,0.18445609509944916,0.007609660271555185,0.0,0.001611428684554994,-0.03493082523345947,0.0
353,5,-0.0076471664942801,-0.0008181986631825566,0.010380399413406849,-0.04182831570506096,-0.0037571063730865717,-0.12422642111778259,0.01530483178794384,0.39067381620407104,0.008222066797316074,0.0,0.0,0.0,0.0,0.0,0.0,0.0014691288815811276,-0.03753714635968208,-0.0,0.0,0.0,0.0,-0.0014428483555093408,-0.20000000298023224,-0.000753326341509819,1495.0,24864.0,24400.0,1495.0,-0.4021320044994354,1.45734441280365,1.4016839265823364,-0.37520334124565125,0.0,0.0,0.0,0.0,0.0,0.0,0.0,0.0,2.1138415336608887,-0.06394119621185898,-0.6366065054464741,-0.07807387067753847,0.1911538690328598,0.005756262224167585,0.0,0.0009741823887452483,-0.035450853407382965,0.0
358,5,-0.0076471664942801,-0.0008181986631825566,0.010380399413406849,-0.04182831570506096,-0.0037571063730865717,-0.12422642111778259,0.01530483178794384,0.39067381620407104,0.008222066797316074,0.0,0.0,0.0,0.0,0.0,0.0,0.0014691288815811276,-0.03753714635968208,-0.0,0.0,0.0,0.0,-0.0014428483555093408,-0.20000000298023224,-0.000753326341509819,1495.0,24864.0,24400.0,1495.0,-0.4021320044994354,1.45734441280365,1.4016839265823364,-0.37520334124565125,0.0,0.0,0.0,0.0,0.0,0.0,0.0,0.0,2.1138415336608887,-0.06394119621185898,-0.6366065054464741,-0.07807387067753847,0.1911538690328598,0.005756262224167585,0.0,0.0009741823887452483,-0.035450853407382965,0.0
363,5,-0.009207936003804207,-0.0012574110878631473,0.011403393000364304,-0.04182831570506096,-0.0037571063730865717,-0.12422642111778259,0.014687743037939072,0.5109549164772034,0.007621007040143013,0.0,0.0,0.0,0.0,0.0,0.0,0.0024171562399715185,-0.03873060643672943,-0.0,0.0,0.0,0.0,-0.005883771926164627,-0.20000000298023224,0.005521116312593222,1495.0,23754.0,25547.0,1495.0,-0.22680316865444183,1.3260735273361206,1.5411062240600586,-0.5423806309700012,0.0,0.0,0.0,0.0,0.0,0.0,0.0,0.0,2.1328437328338623,-0.05801299079896034,-0.721204146624925,-0.07211728183994448,0.19900105893611908,0.009555898606777191,0.0,0.0019568277057260275,-0.03649502620100975,0.0
369,5,-0.009207936003804207,-0.0012574110878631473,0.011403393000364304,-0.04182831570506096,-0.0037571063730865717,-0.12422642111778259,0.014687743037939072,0.5109549164772034,0.007621007040143013,0.0,0.0,0.0,0.0,0.0,0.0,0.0024171562399715185,-0.03873060643672943,-0.0,0.0,0.0,0.0,-0.005883771926164627,-0.20000000298023224,0.005521116312593222,1495.0,23754.0,25547.0,1495.0,-0.22680316865444183,1.3260735273361206,1.5411062240600586,-0.5423806309700012,0.0,0.0,0.0,0.0,0.0,0.0,0.0,0.0,2.1328437328338623,-0.05801299079896034,-0.721204146624925,-0.07211728183994448,0.19900105893611908,0.009555898606777191,0.0,0.0019568277057260275,-0.03649502620100975,0.0
374,5,-0.010793850757181644,-0.001693804981186986,0.012010793201625347,-0.04182831570506096,-0.0037571063730865717,-0.12422642111778259,0.015132742002606392,0.5891140699386597,0.007303612772375345,0.0,0.0,0.0,0.0,0.0,0.0,0.0017881384119391441,-0.040030740201473236,-0.0,0.0,0.0,0.0,-0.0065153371542692184,-0.20000000298023224,0.003992276266217232,1495.0,24008.0,25449.0,1495.0,-0.2309958040714264,1.355623722076416,1.528980016708374,-0.5207641124725342,0.0,0.0,0.0,0.0,0.0,0.0,0.0,0.0,2.152956008911133,-0.046667053144409464,-0.8070136021614975,-0.06453946073004548,0.20761752128601074,0.007135828956961632,0.0,0.0019568277057260275,-0.03649502620100975,0.0
379,5,-0.010793850757181644,-0.001693804981186986,0.012010793201625347,-0.04182831570506096,-0.0037571063730865717,-0.12422642111778259,0.015132742002606392,0.5891140699386597,0.007303612772375345,0.0,0.0,0.0,0.0,0.0,0.0,0.001174076460301876,-0.0413287989795208,-0.0,0.0,0.0,0.0,-0.0065153371542692184,-0.20000000298023224,0.003992276266217232,1495.0,24008.0,25449.0,1495.0,-0.2309958040714264,1.355623722076416,1.528980016708374,-0.5207641124725342,0.0,0.0,0.0,0.0,0.0,0.0,0.0,0.0,2.1733615398406982,-0.046667053144409464,-0.8070136021614975,-0.06453946073004548,0.21637782454490662,0.004729734268039465,0.0,0.0019568277057260275,-0.03649502620100975,0.0
384,5,-0.01237323135137558,-0.0019186179852113128,0.012356419116258621,-0.04182831570506096,-0.0037571063730865717,-0.12422642111778259,0.014208480715751648,0.6969909071922302,0.008288804441690445,0.0,0.0,0.0,0.0,0.0,0.0,0.001174076460301876,-0.0413287989795208,-0.0,0.0,0.0,0.0,-0.005959179252386093,-0.20000000298023224,0.005316626280546188,1495.0,23874.0,25575.0,1495.0,-0.22328807413578033,1.3400579690933228,1.5445457696914673,-0.5284718871116638,0.0,0.0,0.0,0.0,0.0,0.0,0.0,0.0,2.1733615398406982,-0.08754707263648208,-0.9075485747717807,-0.09380547219458701,0.21637782454490662,0.004729734268039465,0.0,0.0024171562399715185,-0.03873060643672943,0.0
389,5,-0.01237323135137558,-0.0019186179852113128,0.012356419116258621,-0.04182831570506096,-0.0037571063730865717,-0.12422642111778259,0.014208480715751648,0.6969909071922302,0.008288804441690445,0.0,0.0,0.0,0.0,0.0,0.0,0.001174076460301876,-0.0413287989795208,-0.0,0.0,0.0,0.0,-0.005959179252386093,-0.20000000298023224,0.005316626280546188,1495.0,23874.0,25575.0,1495.0,-0.22328807413578033,1.3400579690933228,1.5445457696914673,-0.5284718871116638,0.0,0.0,0.0,0.0,0.0,0.0,0.0,0.0,2.1733615398406982,-0.08754707263648208,-0.9075485747717807,-0.09380547219458701,0.21637782454490662,0.004729734268039465,0.0,0.0024171562399715185,-0.03873060643672943,0.0
394,5,-0.014066243544220924,-0.0013894480653107166,0.012601170688867569,-0.04182831570506096,-0.0037571063730865717,-0.12422642111778259,0.013770008459687233,0.7597150802612305,0.009911837056279182,0.0,0.0,0.0,0.0,0.0,0.0,0.0008574633975513279,-0.042598906904459,-0.0,0.0,0.0,0.0,-0.010236605070531368,-0.20000000298023224,0.008460444398224354,1495.0,23323.0,26156.0,1495.0,-0.11472746729850769,1.2768783569335938,1.617781400680542,-0.6269763708114624,0.0,0.0,0.0,0.0,0.0,0.0,0.0,0.0,2.193671226501465,-0.14780422413812577,-0.9907587951018939,-0.1614748337487335,0.22510772943496704,0.0034865476191043854,0.0,0.0017881384119391441,-0.040030740201473236,0.0
399,5,-0.015516644343733788,-0.0015224982053041458,0.01251661591231823,-0.19077946245670319,0.014463183470070362,-0.03954407572746277,0.013770008459687233,0.7597150802612305,0.009911837056279182,0.0,0.0,0.0,0.0,0.0,0.0,0.0008574633975513279,-0.042598906904459,-0.0,0.0,0.0,0.0,-0.010236605070531368,-0.20000000298023224,0.008460444398224354,1495.0,23323.0,26156.0,1495.0,-0.11472746729850769,1.2768783569335938,1.617781400680542,-0.6269763708114624,0.0,0.0,0.0,0.0,0.0,0.0,0.0,0.0,2.193671226501465,-0.12586244298367458,-1.044073082669893,-0.1580881928961261,0.22510772943496704,0.0034865476191043854,0.0,0.0017881384119391441,-0.040030740201473236,0.0
404,5,-0.015516644343733788,-0.0015224982053041458,0.01251661591231823,-0.19077946245670319,0.014463183470070362,-0.03954407572746277,0.013770008459687233,0.7597150802612305,0.009911837056279182,0.0,0.0,0.0,0.0,0.0,0.0,-0.010429278016090393,-0.10272898524999619,-0.0,0.0,0.0,0.0,-0.010236605070531368,-0.20000000298023224,0.008460444398224354,1495.0,23323.0,26156.0,1495.0,-0.11472746729850769,1.2768783569335938,1.617781400680542,-0.6269763708114624,0.0,0.0,0.0,0.0,0.0,0.0,0.0,0.0,3.241790294647217,-0.12586244298367458,-1.044073082669893,-0.1580881928961261,0.8010175824165344,-0.06266620755195618,0.0,0.0017881384119391441,-0.040030740201473236,0.0
409,5,-0.016985176131129265,-0.002025118563324213,0.01282300241291523,-0.19077946245670319,0.014463183470070362,-0.03954407572746277,0.010946589522063732,0.837085485458374,0.014474638737738132,0.0,0.0,0.0,0.0,0.0,0.0,-0.010429278016090393,-0.10272898524999619,-0.0,0.0,0.0,0.0,-0.00876982044428587,-0.20000000298023224,0.010493304580450058,1495.0,22938.0,26572.0,1495.0,-0.07180684804916382,1.2336732149124146,1.6711894273757935,-0.6596941947937012,0.0,0.0,0.0,0.0,0.0,0.0,0.0,0.0,3.241790294647217,-0.08907261022516424,-1.0767213321614841,-0.10993133070144966,0.8010175824165344,-0.06266620755195618,0.0,0.001174076460301876,-0.0413287989795208,0.0
414,5,-0.016985176131129265,-0.002025118563324213,0.01282300241291523,-0.19077946245670319,0.014463183470070362,-0.03954407572746277,0.00944707915186882,0.8742925524711609,0.016837045550346375,0.0,0.0,0.0,0.0,0.0,0.0,-0.010854538530111313,-0.10343221575021744,-0.0,0.0,0.0,0.0,-0.004213049542158842,-0.20000000298023224,0.00673882057890296,1495.0,23735.0,25946.0,1495.0,-0.1920205056667328,1.3239314556121826,1.5910859107971191,-0.5293257236480713,0.0,0.0,0.0,0.0,0.0,0.0,0.0,0.0,3.2525477409362793,-0.08907261022516424,-1.0767213321614841,-0.10993133070144966,0.8091539740562439,-0.06543771177530289,0.0,0.0008574633975513279,-0.042598906904459,0.0
419,5,-0.016985176131129265,-0.002025118563324213,0.01282300241291523,-0.19077946245670319,0.014463183470070362,-0.03954407572746277,0.00944707915186882,0.8742925524711609,0.016837045550346375,0.0,0.0,0.0,0.0,0.0,0.0,-0.010854538530111313,-0.10343221575021744,-0.0,0.0,0.0,0.0,-0.004213049542158842,-0.20000000298023224,0.00673882057890296,1495.0,23735.0,25946.0,1495.0,-0.1920205056667328,1.3239314556121826,1.5910859107971191,-0.5293257236480713,0.0,0.0,0.0,0.0,0.0,0.0,0.0,0.0,3.2525477409362793,-0.08907261022516424,-1.0767213321614841,-0.10993133070144966,0.8091539740562439,-0.06543771177530289,0.0,0.0008574633975513279,-0.042598906904459,0.0
425,5,-0.018241440877318382,-0.0017420080257579684,0.01262691430747509,-0.19077946245670319,0.014463183470070362,-0.03954407572746277,0.009694762527942657,0.9030007719993591,0.019012823700904846,0.0,0.0,0.0,0.0,0.0,0.0,-0.010855457745492458,-0.1034373939037323,-0.0,0.0,0.0,0.0,-0.007226165849715471,-0.20000000298023224,0.005975289270281792,6517.0,26041.0,27813.0,1495.0,0.0820879265666008,1.6032121181488037,1.8358649015426636,-0.2793745994567871,0.0,0.0,0.0,0.0,0.0,0.0,0.0,0.0,3.25262451171875,-0.13266289255134336,-1.0934327359794604,-0.15774852706049552,0.8092134594917297,-0.06544479727745056,0.0,-0.010429278016090393,-0.10272898524999619,0.0
430,5,-0.018241440877318382,-0.0017420080257579684,0.01262691430747509,-0.19077946245670319,0.014463183470070362,-0.03954407572746277,0.009694762527942657,0.9030007719993591,0.019012823700904846,0.0,0.0,0.0,0.0,0.0,0.0,-0.010855457745492458,-0.1034373939037323,-0.0,0.0,0.0,0.0,-0.007226165849715471,-0.20000000298023224,0.005975289270281792,6517.0,26041.0,27813.0,1495.0,0.0820879265666008,1.6032121181488037,1.8358649015426636,-0.2793745994567871,0.0,0.0,0.0,0.0,0.0,0.0,0.0,0.0,3.25262451171875,-0.13266289255134336,-1.0934327359794604,-0.15774852706049552,0.8092134594917297,-0.06544479727745056,0.0,-0.010429278016090393,-0.10272898524999619,0.0
435,5,-0.01911601796746254,-0.0018986647482961416,0.012670001946389675,-0.19077946245670319,0.014463183470070362,-0.03954407572746277,0.01036946102976799,0.9028291702270508,0.02025092951953411,0.0,0.0,0.0,0.0,0.0,0.0,-0.010569845326244831,-0.10405182838439941,-0.0,0.0,0.0,0.0,-0.006383683066815138,-0.20000000298023224,0.004600969143211842,5136.0,26258.0,27649.0,1495.0,0.04690558463335037,1.6308246850967407,1.8136310577392578,-0.23881354928016663,0.0,0.0,0.0,0.0,0.0,0.0,0.0,0.0,3.261340379714966,-0.11270762726090151,-1.0834020172237437,-0.1328006719517571,0.8161867260932922,-0.06389378756284714,0.0,-0.010854538530111313,-0.10343221575021744,0.0
440,5,-0.019893888384103775,-0.00212625483982265,0.012871334329247475,-0.16965627670288086,0.033096082508563995,-0.039977505803108215,0.01036946102976799,0.9028291702270508,0.02025092951953411,0.0,0.0,0.0,0.0,0.0,0.0,-0.010569845326244831,-0.10405182838439941,-0.0,0.0,0.0,0.0,-0.006383683066815138,-0.20000000298023224,0.004600969143211842,5136.0,26258.0,27649.0,1495.0,0.04690558463335037,1.6308246850967407,1.8136310577392578,-0.23881354928016663,0.0,0.0,0.0,0.0,0.0,0.0,0.0,0.0,3.261340379714966,-0.087414146603312,-1.0408218948401229,-0.09510756829872734,0.8161867260932922,-0.06389378756284714,0.0,-0.010854538530111313,-0.10343221575021744,0.0
445,5,-0.019893888384103775,-0.00212625483982265,0.012871334329247475,-0.16965627670288086,0.033096082508563995,-0.039977505803108215,0.010008947923779488,0.8712939620018005,0.02290961891412735,0.0,0.0,0.0,0.0,0.0,0.0,-0.023044809699058533,-0.09749868512153625,-0.0,0.0,0.0,0.0,-0.0053492346778512,-0.20000000298023224,0.005118516273796558,5206.0,26196.0,27708.0,1495.0,0.04847133159637451,1.6229000091552734,1.8215941190719604,-0.24034090340137482,0.0,0.0,0.0,0.0,0.0,0.0,0.0,0.0,3.181772470474243,-0.087414146603312,-1.0408218948401229,-0.09510756829872734,0.7461328506469727,-0.13588795065879822,0.0,-0.010855457745492458,-0.1034373939037323,0.0
450,5,-0.018374573439359665,-0.002255705650895834,0.010546725243330002,-0.16965627670288086,0.033096082508563995,-0.039977505803108215,0.010008947923779488,0.8712939620018005,0.02290961891412735,0.0,0.0,0.0,0.0,0.0,0.0,-0.023044809699058533,-0.09749868512153625,-0.0,0.0,0.0,0.0,-0.0053492346778512,-0.20000000298023224,0.005118516273796558,5206.0,26196.0,27708.0,1495.0,0.04847133159637451,1.6229000091552734,1.8215941190719604,-0.24034090340137482,0.0,0.0,0.0,0.0,0.0,0.0,0.0,0.0,3.181772470474243,-0.09989747890764311,-1.08541349136763,-0.10281160003662283,0.7461328506469727,-0.13588795065879822,0.0,-0.010855457745492458,-0.1034373939037323,0.0
455,5,-0.018374573439359665,-0.002255705650895834,0.010546725243330002,-0.16965627670288086,0.033096082508563995,-0.039977505803108215,0.011001731269061565,0.827853798866272,0.023924486711621284,0.0,0.0,0.0,0.0,0.0,0.0,-0.023248150944709778,-0.09675118327140808,-0.0,0.0,0.0,0.0,-0.009488716721534729,-0.08029267936944962,0.0037133044097572565,16117.0,21532.0,22514.0,12098.0,0.5910838842391968,1.0820589065551758,1.1868950128555298,0.3217345178127289,0.0,0.0,0.0,0.0,0.0,0.0,0.0,0.0,3.1706602573394775,-0.09989747890764311,-1.08541349136763,-0.10281160003662283,0.7378409504890442,-0.136607825756073,0.0,-0.023044809699058533,-0.09749868512153625,0.0
460,5,-0.017110345885157585,-0.002088165609166026,0.008323571644723415,0.08384481817483902,-0.006866352632641792,0.2507874071598053,0.011001731269061565,0.827853798866272,0.023924486711621284,0.0,0.0,0.0,0.0,0.0,0.0,-0.023248150944709778,-0.09675118327140808,-0.0,0.0,0.0,0.0,-0.009488716721534729,-0.08029267936944962,0.0037133044097572565,16117.0,21532.0,22514.0,12098.0,0.5910838842391968,1.0820589065551758,1.1868950128555298,0.3217345178127289,0.0,0.0,0.0,0.0,0.0,0.0,0.0,0.0,3.1706602573394775,-0.11923434207942965,-1.0826593968044107,-0.11385513833008612,0.7378409504890442,-0.136607825756073,0.0,-0.023044809699058533,-0.09749868512153625,0.0
465,5,-0.017110345885157585,-0.002088165609166026,0.008323571644723415,0.08384481817483902,-0.006866352632641792,0.2507874071598053,0.01213247049599886,0.7277196645736694,0.026547415181994438,0.0,0.0,0.0,0.0,0.0,0.0,0.0035023714881390333,0.04179353639483452,-0.0,0.0,0.0,0.0,-0.010680783540010452,0.01405510026961565,0.003042413154616952,20565.0,17491.0,17601.0,18334.0,0.9836059212684631,0.7017074227333069,0.7109835743904114,0.7743633389472961,0.0,0.0,0.0,0.0,0.0,0.0,0.0,0.0,2.182034492492676,-0.11923434207942965,-1.0826593968044107,-0.11385513833008612,-0.219681516289711,0.014165461994707584,-0.0,-0.023248150944709778,-0.09675118327140808,0.0
470,5,-0.01529573742300272,-0.0016885715303942561,0.004639322869479656,0.08384481817483902,-0.006866352632641792,0.2507874071598053,0.01213247049599886,0.7277196645736694,0.026547415181994438,0.0,0.0,0.0,0.0,0.0,0.0,0.0035023714881390333,0.04179353639483452,-0.0,0.0,0.0,0.0,-0.010680783540010452,0.01405510026961565,0.003042413154616952,20565.0,17491.0,17601.0,18334.0,0.9836059212684631,0.7017074227333069,0.7109835743904114,0.7743633389472961,0.0,0.0,0.0,0.0,0.0,0.0,0.0,0.0,2.182034492492676,-0.10943583026673977,-1.0877724054551043,-0.11283202937093798,-0.219681516289711,0.014165461994707584,-0.0,-0.023248150944709778,-0.09675118327140808,0.0
476,5,-0.01529573742300272,-0.0016885715303942561,0.004639322869479656,0.08384481817483902,-0.006866352632641792,0.2507874071598053,0.012907092459499836,0.6383827924728394,0.028555138036608696,0.0,0.0,0.0,0.0,0.0,0.0,0.004001437220722437,0.043219998478889465,-0.0,0.0,0.0,0.0,-0.004074597265571356,0.13082587718963623,0.003050495870411396,23066.0,1495.0,1495.0,21355.0,1.2478723526000977,-0.12552966177463531,-0.004050679504871368,1.0637425184249878,0.0,0.0,0.0,0.0,0.0,0.0,0.0,0.0,2.205411672592163,-0.10943583026673977,-1.0877724054551043,-0.11283202937093798,-0.22960832715034485,0.016357319429516792,-0.0,0.0035023714881390333,0.04179353639483452,0.0
481,5,-0.01686488837003708,-0.0012875684769824147,0.0029297054279595613,0.08384481817483902,-0.006866352632641792,0.2507874071598053,0.012907092459499836,0.6383827924728394,0.028555138036608696,0.0,0.0,0.0,0.0,0.0,0.0,0.004001437220722437,0.043219998478889465,-0.0,0.0,0.0,0.0,-0.004074597265571356,0.13082587718963623,0.003050495870411396,23066.0,1495.0,1495.0,21355.0,1.2478723526000977,-0.12552966177463531,-0.004050679504871368,1.0637425184249878,0.0,0.0,0.0,0.0,0.0,0.0,0.0,0.0,2.205411672592163,-0.090620899573591,-0.9331221828797858,-0.0985586937145691,-0.22960832715034485,0.016357319429516792,-0.0,0.0035023714881390333,0.04179353639483452,0.0
486,5,-0.01686488837003708,-0.0012875684769824147,0.0029297054279595613,0.08384481817483902,-0.006866352632641792,0.2507874071598053,0.012907092459499836,0.6383827924728394,0.028555138036608696,0.0,0.0,0.0,0.0,0.0,0.0,0.004580863285809755,0.041959211230278015,-0.0,0.0,0.0,0.0,-0.004074597265571356,0.13082587718963623,0.003050495870411396,23066.0,1495.0,1495.0,21355.0,1.2478723526000977,-0.12552966177463531,-0.004050679504871368,1.0637425184249878,0.0,0.0,0.0,0.0,0.0,0.0,0.0,0.0,2.185676097869873,-0.090620899573591,-0.9331221828797858,-0.0985586937145691,-0.22091896831989288,0.018558330833911896,-0.0,0.0035023714881390333,0.04179353639483452,0.0
491,5,-0.021052176132798195,-0.0017679675947874784,0.00853743590414524,0.08384481817483902,-0.006866352632641792,0.2507874071598053,0.013636719435453415,0.47678476572036743,0.03085361048579216,0.0,0.0,0.0,0.0,0.0,0.0,0.004580863285809755,0.041959211230278015,-0.0,0.0,0.0,0.0,-0.006489356514066458,0.20000000298023224,0.0002682839403860271,25184.0,1495.0,1495.0,24592.0,1.4962855577468872,-0.3363170027732849,-0.37915897369384766,1.4246021509170532,0.0,0.0,0.0,0.0,0.0,0.0,0.0,0.0,2.185676097869873,-0.02116636958739448,-0.4844036837231611,-0.011971122584193599,-0.22091896831989288,0.018558330833911896,-0.0,0.004001437220722437,0.043219998478889465,0.0
496,5,-0.021052176132798195,-0.0017679675947874784,0.00853743590414524,0.08384481817483902,-0.006866352632641792,0.2507874071598053,0.013636719435453415,0.47678476572036743,0.03085361048579216,0.0,0.0,0.0,0.0,0.0,0.0,0.004027888644486666,0.03853309899568558,-0.0,0.0,0.0,0.0,-0.006489356514066458,0.20000000298023224,0.0002682839403860271,25184.0,1495.0,1495.0,24592.0,1.4962855577468872,-0.3363170027732849,-0.37915897369384766,1.4246021509170532,0.0,0.0,0.0,0.0,0.0,0.0,0.0,0.0,2.131006956100464,-0.02116636958739448,-0.4844036837231611,-0.011971122584193599,-0.1978152096271515,0.015909947454929352,-0.0,0.004001437220722437,0.043219998478889465,0.0
501,5,-0.02183246612548828,-0.0019425791688263416,0.006407406646758318,0.08384481817483902,-0.006866352632641792,0.2507874071598053,0.013280182145535946,0.3576129376888275,0.031826891005039215,0.0,0.0,0.0,0.0,0.0,0.0,0.004027888644486666,0.03853309899568558,-0.0,0.0,0.0,0.0,-0.008044842630624771,0.20000000298023224,0.00040531851118430495,25248.0,1495.0,1495.0,24444.0,1.5041191577911377,-0.3467036187648773,-0.37864014506340027,1.4069006443023682,0.0,0.0,0.0,0.0,0.0,0.0,0.0,0.0,2.131006956100464,-0.010865344513534554,-0.3496237048549859,-0.0007774546637148978,-0.1978152096271515,0.015909947454929352,-0.0,0.004580863285809755,0.041959211230278015,0.0
506,5,-0.02183246612548828,-0.0019425791688263416,0.006407406646758318,0.08384481817483902,-0.006866352632641792,0.2507874071598053,0.013280182145535946,0.3576129376888275,0.031826891005039215,0.0,0.0,0.0,0.0,0.0,0.0,0.004027888644486666,0.03853309899568558,-0.0,0.0,0.0,0.0,-0.008044842630624771,0.20000000298023224,0.00040531851118430495,25248.0,1495.0,1495.0,24444.0,1.5041191577911377,-0.3467036187648773,-0.37864014506340027,1.4069006443023682,0.0,0.0,0.0,0.0,0.0,0.0,0.0,0.0,2.131006956100464,-0.010865344513534554,-0.3496237048549859,-0.0007774546637148978,-0.19344720244407654,0.014942783862352371,-0.0,0.004580863285809755,0.041959211230278015,0.0
511,5,-0.02280202880501747,-0.0023480532690882683,0.004483527038246393,0.08384481817483902,-0.006866352632641792,0.2507874071598053,0.014091022312641144,0.17999695241451263,0.03311849758028984,0.0,0.0,0.0,0.0,0.0,0.0,0.0038018166087567806,0.03786899521946907,-0.0,0.0,0.0,0.0,-0.006300213746726513,0.20000000298023224,0.0008293827995657921,25124.0,1495.0,1495.0,24341.0,1.4889891147613525,-0.37002187967300415,-0.382656455039978,1.3946962356567383,0.0,0.0,0.0,0.0,0.0,0.0,0.0,0.0,2.1204776763916016,0.0049173258781968,-0.22487925327878625,0.015137955680719482,-0.19344720244407654,0.014942783862352371,-0.0,0.004027888644486666,0.03853309899568558,0.0
