timestamp,dt,pos_x,pos_y,pos_z,vel_x,vel_y,vel_z,roll,pitch,yaw,agv_x,agv_y,agv_z,x_ref,y_ref,z_ref,roll_ref,pitch_ref,yaw_ref,x_vel_ref,y_vel_ref,z_vel_ref,x_torque,y_torque,z_torque,w0,w1,w2,w3,u0,u1,u2,u3,m0req,m1req,m2req,m3req,thrust0,thrust1,thrust2,thrust3,thrust_ref,roll_vicon,pitch_vicon,yaw_vicon,acc_x,acc_y,acc_z
5,5,0.0,0.0,0.0,0.00151571084279567,0.0005925677251070738,0.0002090768830385059,-0.008471351116895676,-0.12284490466117859,-0.009905852377414703,-0.0013111254666000605,0.005165747832506895,-0.000451824686024338,0.0,0.0,0.0,-0.0007299766293726861,0.0014362967340275645,-0.0,0.0,0.0,0.0,0.0015208913246169686,0.03719969093799591,-0.0009857658296823502,1495.0,1495.0,1495.0,1495.0,0.0,0.0,0.0,0.0,0.0,0.0,0.0,0.0,1495.0,1495.0,1495.0,1495.0,1.642297387123108,0.03560409283190365,-0.015471957805580795,0.009286803544845847,-0.005683915689587593,-0.0022221289109438658,0.0
32,26,0.0,0.0,0.0,-0.002618957543745637,-0.00041820440674200654,-0.0020532975904643536,-0.008471351116895676,-0.12284490466117859,-0.009905852377414703,-0.0013111254666000605,0.005165747832506895,-0.000451824686024338,0.0,0.0,0.0,-0.0007299766293726861,0.0014362967340275645,-0.0,0.0,0.0,0.0,0.0015208913246169686,0.03719969093799591,-0.0009857658296823502,1495.0,1495.0,1495.0,1495.0,0.0,0.0,0.0,0.0,0.0,0.0,0.0,0.0,1495.0,1495.0,1495.0,1495.0,1.642297387123108,0.03513629161220597,-0.015407039262451749,0.009288575827016806,-0.005683915689587593,-0.0022221289109438658,0.0
37,5,0.0,0.0,0.0,0.0005504910368472338,-0.0012321181129664183,-0.0008461663383059204,-0.008468150161206722,-0.12284225970506668,-0.009923448786139488,0.0056161172688007355,-0.00774998776614666,0.0001370671670883894,0.0,0.0,0.0,0.000511941674631089,-0.0024661384522914886,-0.0,0.0,0.0,0.0,0.0015399415278807282,0.037277933210134506,-0.0010104294633492827,1495.0,1495.0,1495.0,1495.0,0.0,0.0,0.0,0.0,0.0,0.0,0.0,0.0,1495.0,1495.0,1495.0,1495.0,1.6526880264282227,0.03569701323379299,-0.015983515341597605,0.009527875360575781,0.0098210908472538,0.0015682665398344398,0.0
42,5,0.0,0.0,0.0,0.0005216752761043608,0.0005850440356880426,0.0016417116858065128,-0.008468150161206722,-0.12284225970506668,-0.009923448786139488,0.0056161172688007355,-0.00774998776614666,0.0001370671670883894,0.0,0.0,0.0,0.000511941674631089,-0.0024661384522914886,-0.0,0.0,0.0,0.0,0.0015399415278807282,0.037277933210134506,-0.0010104294633492827,1495.0,1495.0,1495.0,1495.0,0.0,0.0,0.0,0.0,0.0,0.0,0.0,0.0,1495.0,1495.0,1495.0,1495.0,1.6526880264282227,0.03615056427739722,-0.016981268597649757,0.009788508622424117,0.0098210908472538,0.0015682665398344398,0.0
47,5,0.0,0.0,0.0,-0.001073962077498436,0.0007592240581288934,-0.0010322938906028867,-0.008461651392281055,-0.12281360477209091,-0.00992840901017189,-0.00142948841676116,0.0007241902640089393,0.0022494837176054716,0.0,0.0,0.0,-0.0007244902080856264,0.000496936496347189,-0.0,0.0,0.0,0.0,0.0017864481778815389,0.0361982136964798,-0.0011313108261674643,15449.0,11155.0,10289.0,16421.0,0.5407074689865112,0.2702818512916565,0.2269458770751953,0.6147528290748596,0.0,0.0,0.0,0.0,1495.0,1495.0,1495.0,1495.0,1.633724570274353,0.03551228666030249,-0.015567945726228823,0.00924894344663251,-0.0019562821835279465,-0.002193915192037821,0.0
52,5,2.5929864932550117e-05,-2.307552222191589e-06,-9.902877536660526e-06,0.0026819990016520023,0.0005805958644486964,0.0007754276739433408,-0.008461651392281055,-0.12281360477209091,-0.00992840901017189,-0.00142948841676116,0.0007241902640089393,0.0022494837176054716,0.0,0.0,0.0,-0.0007244902080856264,0.000496936496347189,-0.0,0.0,0.0,0.0,0.0017864481778815389,0.0361982136964798,-0.0011313108261674643,15449.0,11155.0,10289.0,16421.0,0.5407074689865112,0.2702818512916565,0.2269458770751953,0.6147528290748596,0.0,0.0,0.0,0.0,1495.0,1495.0,1495.0,1495.0,1.633724570274353,0.03647377035085478,-0.01631560237780607,0.009670401678263205,-0.0019562821835279465,-0.002193915192037821,0.0
57,5,1.1990757229796145e-05,5.899234452044766e-07,7.238091711769812e-06,-0.0005998933338560164,-0.00011545872257556766,-0.00174674519803375,-0.008461651392281055,-0.12281360477209091,-0.00992840901017189,-0.00142948841676116,0.0007241902640089393,0.0022494837176054716,0.0,0.0,0.0,-0.0007143090479075909,0.0025592991150915623,-0.0,0.0,0.0,0.0,0.0017864481778815389,0.0361982136964798,-0.0011313108261674643,15449.0,11155.0,10289.0,16421.0,0.5407074689865112,0.2702818512916565,0.2269458770751953,0.6147528290748596,0.0,0.0,0.0,0.0,1495.0,1495.0,1495.0,1495.0,1.654003381729126,0.03515359770888894,-0.015570387854629891,0.009391376198866689,-0.010200201533734798,-0.0021899340208619833,0.0
62,5,1.4996229765529279e-05,2.166251078961068e-06,5.935107310506282e-06,0.00012069934018654749,-0.0002353427989874035,-0.0005423399852588773,-0.008479665964841843,-0.12284693866968155,-0.009953811764717102,0.0016218018718063831,0.003953565377742052,-0.009142141789197922,0.0,0.0,0.0,0.00029630528297275305,0.00013639328244607896,-0.0,0.0,0.0,0.0,0.0017864481778815389,0.0361982136964798,-0.0011313108261674643,15449.0,11155.0,10289.0,16421.0,0.5407074689865112,0.2702818512916565,0.2269458770751953,0.6147528290748596,0.0,0.0,0.0,0.0,1495.0,1495.0,1495.0,1495.0,1.6285752058029175,0.035617422854994356,-0.015269287443744077,0.009291213574587141,-0.0005352450534701347,0.0008944493602029979,0.0
67,5,1.966205491044093e-05,-3.656315925582021e-07,-5.4905526667425875e-06,0.0006081787869334221,0.00020968879107385874,0.0011541432468220592,-0.008479665964841843,-0.12284693866968155,-0.009953811764717102,0.0016218018718063831,0.003953565377742052,-0.009142141789197922,0.0,0.0,0.0,0.00029630528297275305,0.00013639328244607896,-0.0,0.0,0.0,0.0,0.0017864481778815389,0.0361982136964798,-0.0011313108261674643,15449.0,11155.0,10289.0,16421.0,0.5407074689865112,0.2702818512916565,0.2269458770751953,0.6147528290748596,0.0,0.0,0.0,0.0,1495.0,1495.0,1495.0,1495.0,1.6285752058029175,0.035460066883825664,-0.015326584722972467,0.009227859941105256,-0.0005352450534701347,0.0008944493602029979,0.0
72,5,1.9691155102918856e-05,5.80062578592333e-06,-1.7833048332249746e-05,0.0002467634913045913,-0.0006560753681696951,0.0019427567021921277,-0.00846005231142044,-0.12283828109502792,-0.009964480996131897,-0.000689422944560647,0.006094082724303007,0.00120699149556458,0.0,0.0,0.0,0.0008233237895183265,0.000262731482507661,-0.0,0.0,0.0,0.0,0.0017911570612341166,0.0361759215593338,-0.0009894210379570723,15522.0,11048.0,10400.0,16355.0,0.546104371547699,0.264701247215271,0.2323068380355835,0.6095755100250244,0.0,0.0,0.0,0.0,15449.0,11160.0,10293.0,16415.0,1.6330699920654297,0.035891548164830346,-0.01636856443626433,0.009783918808645275,-0.0010338765569031239,0.0024922059383243322,0.0
77,5,5.29452518094331e-06,6.793519787606783e-06,-1.632711610000115e-05,-0.0016288901679217815,-0.0003815774107351899,0.0005963908624835312,-0.008459789678454399,-0.12283758074045181,-0.00999857485294342,-0.0012766598956659436,-0.0052824467420578,0.00032286980422213674,0.0,0.0,0.0,0.0008233237895183265,0.000262731482507661,-0.0,0.0,0.0,0.0,0.0015076115960255265,0.037671156227588654,-0.0010307945776730776,15501.0,10935.0,10193.0,16334.0,0.5445420145988464,0.2589036524295807,0.22237107157707214,0.607907772064209,0.0,0.0,0.0,0.0,15624.0,10954.0,10230.0,16441.0,1.6330699920654297,0.03521125215406508,-0.015165561495306911,0.009180472326173287,-0.0010338765569031239,0.0024922059383243322,0.0
82,5,2.3995753508643247e-05,4.494525455811527e-06,-3.8555146602448076e-05,0.0015925912884995341,0.00012324836279731244,0.0029059199150651693,-0.008459789678454399,-0.12283758074045181,-0.00999857485294342,-0.0012766598956659436,-0.0052824467420578,0.00032286980422213674,0.0,0.0,0.0,0.0008233237895183265,0.000262731482507661,-0.0,0.0,0.0,0.0,0.0015076115960255265,0.037671156227588654,-0.0010307945776730776,15501.0,10935.0,10193.0,16334.0,0.5445420145988464,0.2589036524295807,0.22237107157707214,0.607907772064209,0.0,0.0,0.0,0.0,15624.0,10954.0,10230.0,16441.0,1.6330699920654297,0.03582880067091185,-0.01653629746980008,0.009735511649064993,-0.0010338765569031239,0.0024922059383243322,0.0
87,5,1.5170511687756516e-05,-1.1760566849261522e-06,-3.72892536688596e-05,-0.0004219924157951027,0.0007297691772691905,0.0010104607790708542,-0.008459789678454399,-0.12283758074045181,-0.00999857485294342,-0.0012766598956659436,-0.0052824467420578,0.00032286980422213674,0.0,0.0,0.0,-0.00014369175187312067,0.0015425296733155847,-0.0,0.0,0.0,0.0,0.0015076115960255265,0.037671156227588654,-0.0010307945776730776,15501.0,10935.0,10193.0,16334.0,0.5445420145988464,0.2589036524295807,0.22237107157707214,0.607907772064209,0.0,0.0,0.0,0.0,15624.0,10954.0,10230.0,16441.0,1.6423441171646118,0.03580338992654706,-0.016802371098776435,0.009935392228589201,-0.006104490254074335,-0.00043742594425566494,0.0
92,5,-3.955632564611733e-06,5.939743005001219e-06,-3.599787305574864e-06,-0.0024639342445880175,-0.0005619882722385228,-0.003638551337644458,-0.008439446799457073,-0.12285416573286057,-0.010010271333158016,0.0008479687385261059,-0.002857153071090579,0.00040802755393087864,0.0,0.0,0.0,-0.00014369175187312067,0.0015425296733155847,-0.0,0.0,0.0,0.0,0.0017450388986617327,0.03715147078037262,-0.0010412692790850997,15489.0,10873.0,10167.0,16336.0,0.5436350107192993,0.25574591755867004,0.22112327814102173,0.608070969581604,0.0,0.0,0.0,0.0,15449.0,10924.0,10138.0,16358.0,1.6423441171646118,0.03519513123659969,-0.016034751454919845,0.00961956372344602,-0.006104490254074335,-0.00043742594425566494,0.0
97,5,3.323034206914599e-06,-3.2118059607455507e-06,-6.465433216362726e-06,-0.00011213369725737721,0.0008733905269764364,-0.0011115430388599634,-0.008439446799457073,-0.12285416573286057,-0.010010271333158016,0.0008479687385261059,-0.002857153071090579,0.00040802755393087864,0.0,0.0,0.0,0.0006991392583586276,-0.0023272274993360043,-0.0,0.0,0.0,0.0,0.0017450388986617327,0.03715147078037262,-0.0010412692790850997,15489.0,10873.0,10167.0,16336.0,0.5436350107192993,0.25574591755867004,0.22112327814102173,0.608070969581604,0.0,0.0,0.0,0.0,15449.0,10924.0,10138.0,16358.0,1.6514990329742432,0.035288949379882424,-0.016122922870758657,0.009467480805482788,0.00926122721284628,0.002140180906280875,0.0
106,9,7.56600957174669e-06,-2.2839896018922445e-07,-9.26161101233447e-06,7.145611016312614e-05,-0.001080885180272162,0.0005093270447105169,-0.008448805660009384,-0.12288928031921387,-0.01006038673222065,-0.001442694221623242,0.00464136665686965,-0.005370263941586018,0.0,0.0,0.0,0.0013356265844777226,7.85699303378351e-05,-0.0,0.0,0.0,0.0,0.001866298378445208,0.0371457040309906,-0.0011552772484719753,15446.0,10954.0,10117.0,16411.0,0.5404964089393616,0.2598709166049957,0.21878096461296082,0.6139217615127563,0.0,0.0,0.0,0.0,15501.0,10880.0,10228.0,16340.0,1.6367744207382202,0.03557136817570774,-0.014901305381825228,0.009382384213300973,-0.0003098822489846498,0.004052118863910437,0.0
111,5,2.126689287251793e-05,-1.952857473952463e-06,-1.0009547622757964e-05,0.00167268852237612,-0.0002254190476378426,0.00029348317184485495,-0.00847913883626461,-0.1229313388466835,-0.01009418349713087,-0.0011728600366041064,0.0056494856253266335,-0.001582861179485917,0.0,0.0,0.0,0.0013356265844777226,7.85699303378351e-05,-0.0,0.0,0.0,0.0,0.00169504270888865,0.03758704289793968,-0.0010830513201653957,15543.0,10936.0,10151.0,16429.0,0.5476199984550476,0.25895997881889343,0.22037175297737122,0.6153923869132996,0.0,0.0,0.0,0.0,15501.0,11058.0,10336.0,16393.0,1.6367744207382202,0.0357821790924178,-0.015473215302058993,0.00942770735365675,-0.0003098822489846498,0.004052118863910437,0.0
116,5,2.1024805391789414e-05,-6.717038104397943e-06,4.795405743607262e-07,0.0006400248385034502,0.00048153407988138497,-0.0011412972817197442,-0.008493521250784397,-0.12295626103878021,-0.010127415880560875,-0.0018658065237104893,-0.002681684447452426,-0.0003215614124201238,0.0,0.0,0.0,-0.0006083166226744652,0.0006389548070728779,-0.0,0.0,0.0,0.0,0.001875758869573474,0.03640419617295265,-0.0011391586158424616,15485.0,11076.0,10331.0,16398.0,0.5433825850486755,0.2661694288253784,0.22898009419441223,0.6129668951034546,0.0,0.0,0.0,0.0,15501.0,11058.0,10336.0,16393.0,1.6342107057571411,0.03532593166989322,-0.01542772023977492,0.009320443976112223,-0.002516112057492137,-0.0018426644382998347,0.0
123,7,1.7723285054671578e-05,-1.4021235074324068e-05,-2.8208351068315096e-05,-0.0007067061378620565,0.00042307478724978864,0.0012757141375914216,-0.008493521250784397,-0.12295626103878021,-0.010127415880560875,-0.0018658065237104893,-0.002681684447452426,-0.0003215614124201238,0.0,0.0,0.0,-0.0006083166226744652,0.0006389548070728779,-0.0,0.0,0.0,0.0,0.001875758869573474,0.03640419617295265,-0.0011391586158424616,15485.0,11076.0,10331.0,16398.0,0.5433825850486755,0.2661694288253784,0.22898009419441223,0.6129668951034546,0.0,0.0,0.0,0.0,15501.0,11058.0,10336.0,16393.0,1.6342107057571411,0.035617390262833025,-0.015437134251889946,0.009291634429662375,-0.002516112057492137,-0.0018426644382998347,0.0
128,5,2.0640887669287622e-05,-2.9781338071188657e-06,-2.1848361939191818e-05,6.742979894625023e-05,-0.0011559422127902508,-0.0002529129560571164,-0.008493521250784397,-0.12295626103878021,-0.010127415880560875,-0.0018658065237104893,-0.002681684447452426,-0.0003215614124201238,0.0,0.0,0.0,-0.0005492892814800143,-0.0006482031894847751,-0.0,0.0,0.0,0.0,0.001875758869573474,0.03640419617295265,-0.0011391586158424616,15485.0,11076.0,10331.0,16398.0,0.5433825850486755,0.2661694288253784,0.22898009419441223,0.6129668951034546,0.0,0.0,0.0,0.0,15501.0,11058.0,10336.0,16393.0,1.6340150833129883,0.03575137310220535,-0.01662881030743186,0.00996155269945195,0.002552225487306714,-0.0016636643558740616,0.0
135,6,-3.6095445921091596e-06,-4.297838131606113e-06,-6.370154892465507e-07,-0.0028830799274146557,-0.000304012413835153,-0.002646526787430048,-0.008493383415043354,-0.12290114164352417,-0.010129985399544239,-0.0001644441654207185,-9.51723923208192e-05,-0.0030642070341855288,0.0,0.0,0.0,-0.0005492892814800143,-0.0006482031894847751,-0.0,0.0,0.0,0.0,0.0019647604785859585,0.036973703652620316,-0.0010459133191034198,15470.0,10939.0,10198.0,16396.0,0.5422607064247131,0.2591198682785034,0.22260937094688416,0.6127844452857971,0.0,0.0,0.0,0.0,15505.0,10928.0,10124.0,16383.0,1.6340150833129883,0.03540064571268661,-0.015535119683763036,0.009196814690662605,0.002552225487306714,-0.0016636643558740616,0.0
140,5,1.1493023521325085e-05,-1.5537130821030587e-05,-2.5213423214154318e-05,0.000659076205920428,0.0012271101586520672,0.0018905582837760448,-0.008493383415043354,-0.12290114164352417,-0.010129985399544239,-0.0001644441654207185,-9.51723923208192e-05,-0.0030642070341855288,0.0,0.0,0.0,0.0003638671478256583,-0.0027155433781445026,-0.0,0.0,0.0,0.0,0.0019647604785859585,0.036973703652620316,-0.0010459133191034198,15470.0,10939.0,10198.0,16396.0,0.5422607064247131,0.2591198682785034,0.22260937094688416,0.6127844452857971,0.0,0.0,0.0,0.0,15505.0,10928.0,10124.0,16383.0,1.6552335023880005,0.035667479226311805,-0.016706944971216525,0.009625225728571609,0.010830970481038094,0.001116376370191574,0.0
145,5,9.083477380045224e-06,-1.4510648043142282e-06,-1.543113830848597e-05,-2.5515024390188046e-05,-0.001199483871459961,-0.00041765099740587175,-0.008487490937113762,-0.1229064092040062,-0.010130148380994797,-0.00017860217485576868,-0.00012123294436605647,0.0017231365200132132,0.0,0.0,0.0,0.0003638671478256583,-0.0027155433781445026,-0.0,0.0,0.0,0.0,0.0015747484285384417,0.037296589463949203,-0.0009983557974919677,15534.0,10887.0,10176.0,16350.0,0.5469720363616943,0.2564786374568939,0.2215701937675476,0.6091898679733276,0.0,0.0,0.0,0.0,15519.0,10910.0,10153.0,16364.0,1.6552335023880005,0.03548852605998762,-0.016080869901329634,0.009461507962991542,0.010830970481038094,0.001116376370191574,0.0
150,5,1.6409945601481013e-05,-5.121069534652634e-06,-3.0541275918949395e-05,0.0008689701789990067,-3.939293310395442e-05,0.0016461563063785434,-0.008487490937113762,-0.1229064092040062,-0.010130148380994797,-0.00017860217485576868,-0.00012123294436605647,0.0017231365200132132,0.0,0.0,0.0,0.0014789286069571972,-1.1467133845144417e-05,-0.0,0.0,0.0,0.0,0.0015747484285384417,0.037296589463949203,-0.0009983557974919677,15534.0,10887.0,10176.0,16350.0,0.5469720363616943,0.2564786374568939,0.2215701937675476,0.6091898679733276,0.0,0.0,0.0,0.0,15519.0,10910.0,10153.0,16364.0,1.6379300355911255,0.035362330891816104,-0.01654791627014918,0.00990751049086949,4.52586573373992e-05,0.0044900462962687016,0.0
155,5,1.742208405630663e-05,-7.231572908494854e-06,-8.788375453150366e-06,0.00046904466580599546,0.0002375032054260373,-0.0019518857588991523,-0.008469679392874241,-0.12289254367351532,-0.010157540440559387,-0.00023444037651643157,-0.00405149208381772,-0.005097646731883287,0.0,0.0,0.0,0.0014789286069571972,-1.1467133845144417e-05,-0.0,0.0,0.0,0.0,0.00156397745013237,0.03693888336420059,-0.0011124141747131944,15456.0,10998.0,10132.0,16376.0,0.5412086248397827,0.26211684942245483,0.2194758653640747,0.611213743686676,0.0,0.0,0.0,0.0,15519.0,10910.0,10153.0,16364.0,1.6379300355911255,0.035846637347465404,-0.01651801170017953,0.009507837426644426,4.52586573373992e-05,0.0044900462962687016,0.0
160,5,1.816477015381679e-05,5.292368314258056e-06,4.631917818187503e-06,0.0002767402329482138,-0.0014078717213124037,-0.002391189569607377,-0.008469679392874241,-0.12289254367351532,-0.010157540440559387,-0.00023444037651643157,-0.00405149208381772,-0.005097646731883287,0.0,0.0,0.0,0.0014789286069571972,-1.1467133845144417e-05,-0.0,0.0,0.0,0.0,0.00156397745013237,0.03693888336420059,-0.0011124141747131944,15456.0,10998.0,10132.0,16376.0,0.5412086248397827,0.26211684942245483,0.2194758653640747,0.611213743686676,0.0,0.0,0.0,0.0,15519.0,10910.0,10153.0,16364.0,1.6379300355911255,0.035751473208326126,-0.015838024190050284,0.009379758426456147,4.52586573373992e-05,0.0044900462962687016,0.0
165,5,1.5702522432547994e-05,-1.4984821063990239e-05,-3.109545286861248e-05,-0.0001847736566560343,0.0018701141234487295,0.0033308088313788176,-0.008486603386700153,-0.12284930050373077,-0.010165455751121044,-0.0013242802815511823,-0.008242612704634666,-0.008673206903040409,0.0,0.0,0.0,0.0017458347138017416,0.00028793964884243906,-0.0,0.0,0.0,0.0,0.00182134669739753,0.03620988503098488,-0.0010007863165810704,15488.0,11118.0,10360.0,16398.0,0.5435979962348938,0.2683495283126831,0.2303394079208374,0.6129465699195862,0.0,0.0,0.0,0.0,15436.0,11020.0,10121.0,16386.0,1.6404743194580078,0.03530634465370398,-0.015180898614622075,0.009083831078669337,-0.001138209248892963,0.005308608524501324,0.0
170,5,1.2425043678376824e-05,-4.6779773583693895e-06,-2.981545912916772e-05,-0.00046720693353563547,-0.000488775665871799,0.0011787242256104946,-0.008486603386700153,-0.12284930050373077,-0.010165455751121044,-0.0013242802815511823,-0.008242612704634666,-0.008673206903040409,0.0,0.0,0.0,0.0017458347138017416,0.00028793964884243906,-0.0,0.0,0.0,0.0,0.00182134669739753,0.03620988503098488,-0.0010007863165810704,15488.0,11118.0,10360.0,16398.0,0.5435979962348938,0.2683495283126831,0.2303394079208374,0.6129465699195862,0.0,0.0,0.0,0.0,15436.0,11020.0,10121.0,16386.0,1.6404743194580078,0.03501848054655969,-0.015542044992887728,0.009282066643363427,0.001683117588981986,0.0018071448430418968,0.0
176,5,1.1375816029612906e-05,4.112324404559331e-06,-8.605693437857553e-06,-0.00031279007089324296,-0.0012503465404734015,-0.0020736821461468935,-0.008502746932208538,-0.12280460447072983,-0.009972666390240192,0.0007508414564654231,0.0004052777076140046,0.059282295405864716,0.0,0.0,0.0,0.0005972341750748456,-0.00042788084829226136,-0.0,0.0,0.0,0.0,0.0020922571420669556,0.0371214859187603,0.0005114746163599193,16053.0,10039.0,11077.0,15847.0,0.5861541032791138,0.2151404172182083,0.26622119545936584,0.5704143047332764,0.0,0.0,0.0,0.0,15266.0,11428.0,10023.0,16599.0,1.6324496269226074,0.03542119066752822,-0.015492293556032996,0.009177372243717912,0.001683117588981986,0.0018071448430418968,0.0
181,5,2.8041813493473455e-05,9.260994374926668e-06,-2.8793661840609275e-05,0.001874803565442562,-0.0011179789435118437,0.0015930832596495748,-0.008502746932208538,-0.12280460447072983,-0.009972666390240192,0.0007508414564654231,0.0004052777076140046,0.059282295405864716,0.0,0.0,0.0,0.0005972341750748456,-0.00042788084829226136,-0.0,0.0,0.0,0.0,0.0020922571420669556,0.0371214859187603,0.0005114746163599193,16053.0,10039.0,11077.0,15847.0,0.5861541032791138,0.2151404172182083,0.26622119545936584,0.5704143047332764,0.0,0.0,0.0,0.0,15266.0,11428.0,10023.0,16599.0,1.6483633518218994,0.03560704733831889,-0.01640258322509486,0.009786424513162997,-0.0071854121051728725,0.004243353847414255,0.0
186,5,1.429357234883355e-05,-4.217708465148462e-06,-2.6116083972738124e-05,-0.0008998674456961453,0.0011702527990564704,0.00031592397135682404,-0.008505734615027905,-0.12287652492523193,-0.01043225172907114,0.005713585298508406,0.008491935208439827,-0.036754585802555084,0.0,0.0,0.0,0.0013888265239074826,0.0018090371740981936,-0.0,0.0,0.0,0.0,0.001979506341740489,0.03749241679906845,-0.0028647349681705236,15018.0,11596.0,9389.0,16881.0,0.5093461275100708,0.29377785325050354,0.18589332699775696,0.6514570116996765,0.0,0.0,0.0,0.0,15665.0,10673.0,10445.0,16278.0,1.6483633518218994,0.03537640167710875,-0.015854080457260073,0.009259081595372934,-0.0071854121051728725,0.004243353847414255,0.0
191,5,4.101042122783838e-06,-7.606723556818906e-06,-1.3018214303883724e-05,-0.0015830505872145295,0.0008747829124331474,-0.001445374684408307,-0.008505734615027905,-0.12287652492523193,-0.01043225172907114,0.005713585298508406,0.008491935208439827,-0.036754585802555084,0.0,0.0,0.0,0.0013888265239074826,0.0018090371740981936,-0.0,0.0,0.0,0.0,0.001979506341740489,0.03749241679906845,-0.0028647349681705236,15018.0,11596.0,9389.0,16881.0,0.5093461275100708,0.29377785325050354,0.18589332699775696,0.6514570116996765,0.0,0.0,0.0,0.0,15665.0,10673.0,10445.0,16278.0,1.6483633518218994,0.03572812068687095,-0.015443651233121624,0.008879276330427092,-0.0071854121051728725,0.004243353847414255,0.0
196,5,6.964247404539492e-06,2.4902697077777702e-06,1.546374915051274e-05,-0.0002896356163546443,-0.000861726060975343,-0.003995985258370638,-0.008452448062598705,-0.12288093566894531,-0.009978504851460457,0.003277400741353631,-0.00027769754524342716,0.007312882225960493,0.0,0.0,0.0,-0.001090165926143527,-0.0014925641007721424,-0.0,0.0,0.0,0.0,0.0018512827809900045,0.03701081871986389,0.0006291515892371535,15821.0,10395.0,10709.0,16030.0,0.5685017704963684,0.23206496238708496,0.2474806010723114,0.584402322769165,0.0,0.0,0.0,0.0,14891.0,11719.0,9188.0,16916.0,1.6441375017166138,0.03530762302326819,-0.0151758838981056,0.009302251865831928,0.005913200788199902,-0.0033223021309822798,0.0
201,5,3.347875099279918e-05,-2.4091743853205116e-06,-1.1644231108220993e-06,0.003065885975956917,0.0002432428882457316,0.0003969864046666771,-0.008452448062598705,-0.12288093566894531,-0.009978504851460457,0.003277400741353631,-0.00027769754524342716,0.007312882225960493,0.0,0.0,0.0,-0.001090165926143527,-0.0014925641007721424,-0.0,0.0,0.0,0.0,0.0018512827809900045,0.03701081871986389,0.0006291515892371535,15821.0,10395.0,10709.0,16030.0,0.5685017704963684,0.23206496238708496,0.2474806010723114,0.584402322769165,0.0,0.0,0.0,0.0,14891.0,11719.0,9188.0,16916.0,1.6441375017166138,0.03602529550372274,-0.016489277163435775,0.009639622240796033,0.005913200788199902,-0.0033223021309822798,0.0
206,5,2.15929867408704e-05,-1.2826091733586509e-05,1.5580893887090497e-05,-0.00019993717432953417,0.0013473272556439042,-0.001850643428042531,-0.008479929529130459,-0.12287143617868423,-0.010654979385435581,0.0066688829101622105,-0.011862673796713352,0.03810487687587738,0.0,0.0,0.0,-0.00030122933094389737,0.0029249568469822407,-0.0,0.0,0.0,0.0,0.0013458187459036708,0.03678125515580177,-0.0026053357869386673,14528.0,12340.0,8555.0,17256.0,0.4749040901660919,0.3356386721134186,0.15148776769638062,0.6821069717407227,0.0,0.0,0.0,0.0,16309.0,9752.0,11358.0,15701.0,1.6574738025665283,0.03630748534287387,-0.015556455743485952,0.008376747466214765,-0.011682005599141121,-0.0009254489559680223,0.0
211,5,7.065330464683939e-06,-1.227702341566328e-05,1.9169634470017627e-05,-0.0018232936272397637,0.0004730427172034979,-0.001170906238257885,-0.008479929529130459,-0.12287143617868423,-0.010654979385435581,0.0066688829101622105,-0.011862673796713352,0.03810487687587738,0.0,0.0,0.0,-0.00030122933094389737,0.0029249568469822407,-0.0,0.0,0.0,0.0,0.0013458187459036708,0.03678125515580177,-0.0026053357869386673,14528.0,12340.0,8555.0,17256.0,0.4749040901660919,0.3356386721134186,0.15148776769638062,0.6821069717407227,0.0,0.0,0.0,0.0,16309.0,9752.0,11358.0,15701.0,1.6574738025665283,0.035638246751625406,-0.015304187462345718,0.008844726908485076,-0.011682005599141121,-0.0009254489559680223,0.0
216,5,1.3678017239726614e-05,-1.075999352906365e-05,1.8967222786159255e-05,6.420501449611038e-05,7.173408448579721e-06,-0.00044407317182049155,-0.008380076847970486,-0.12278944253921509,-0.010730980895459652,0.011974946595728397,0.0029909624718129635,-0.15424615144729614,0.0,0.0,0.0,-0.0006040080334059894,-0.0017150797648355365,-0.0,0.0,0.0,0.0,0.001107325660996139,0.037278544157743454,0.001573861693032086,16398.0,9850.0,11404.0,15637.0,0.6129724383354187,0.2064308077096939,0.28344422578811646,0.5546263456344604,0.0,0.0,0.0,0.0,14124.0,12813.0,7844.0,17567.0,1.6448410749435425,0.03613190280062569,-0.01568369340545654,0.00885806438171417,0.006797666661441326,-0.0018415144877508283,0.0
221,5,1.3669833606400061e-05,-2.0437079001567326e-05,1.8285849364474416e-05,2.4699949790374376e-05,0.0011641195742413402,-9.586442320141941e-05,-0.008380076847970486,-0.12278944253921509,-0.010730980895459652,0.011974946595728397,0.0029909624718129635,-0.15424615144729614,0.0,0.0,0.0,-0.0006040080334059894,-0.0017150797648355365,-0.0,0.0,0.0,0.0,0.001107325660996139,0.037278544157743454,0.001573861693032086,16398.0,9850.0,11404.0,15637.0,0.6129724383354187,0.2064308077096939,0.28344422578811646,0.5546263456344604,0.0,0.0,0.0,0.0,14124.0,12813.0,7844.0,17567.0,1.6448410749435425,0.03582477231927521,-0.016628602095798584,0.008452711280446182,0.006797666661441326,-0.0018415144877508283,0.0
226,5,-1.1191652447450906e-05,-1.3192594451538753e-05,5.4944299336057156e-05,-0.002973498310893774,-0.00040369018097408116,-0.004437359515577555,-0.00810456182807684,-0.1225806474685669,-0.01053700502961874,0.04069248586893082,-0.039149973541498184,0.07033571600914001,0.0,0.0,0.0,-0.0014694319106638432,4.257846012478694e-05,-0.0,0.0,0.0,0.0,0.0011009735753759742,0.03565835952758789,-0.004410846624523401,14638.0,12242.0,9066.0,16988.0,0.4825574457645416,0.3299630582332611,0.1721697747707367,0.6601508259773254,0.0,0.0,0.0,0.0,15459.0,11316.0,9920.0,16584.0,1.644094467163086,0.03591436373693467,-0.0166437887278703,0.008376479515541031,-0.0001686817704467103,-0.004478004295378923,0.0
232,5,-2.4598644813522696e-05,-1.954918661795091e-05,8.751684072194621e-05,-0.0027982385363429785,0.000601314939558506,-0.005683648865669966,-0.00810456182807684,-0.1225806474685669,-0.01053700502961874,0.04069248586893082,-0.039149973541498184,0.07033571600914001,0.0,0.0,0.0,-0.0014694319106638432,4.257846012478694e-05,-0.0,0.0,0.0,0.0,0.0011009735753759742,0.03565835952758789,-0.004410846624523401,14638.0,12242.0,9066.0,16988.0,0.4825574457645416,0.3299630582332611,0.1721697747707367,0.6601508259773254,0.0,0.0,0.0,0.0,15459.0,11316.0,9920.0,16584.0,1.644094467163086,0.035978517688499766,-0.019137864523228344,0.009424517452737027,-0.0001686817704467103,-0.004478004295378923,0.0
237,5,-7.625087891938165e-05,-3.4371762012597173e-05,0.00020296621369197965,-0.007317563518881798,0.0020192349329590797,-0.016127383336424828,-0.007543193642050028,-0.12035169452428818,-0.010853983461856842,0.03293894603848457,-0.3291192352771759,-0.1301802396774292,0.0,0.0,0.0,-0.0007700810092501342,-0.002664634259417653,-0.0,0.0,0.0,0.0,0.0009899120777845383,0.031322870403528214,-0.0013033064315095544,14461.0,12469.0,9698.0,16628.0,0.47025054693222046,0.3431962728500366,0.19951574504375458,0.6311318874359131,0.0,0.0,0.0,0.0,15871.0,10547.0,11279.0,15660.0,1.65523099899292,0.03650554468519702,-0.02046149893436982,0.007941086390289355,0.010627900250256062,-0.0023626722395420074,0.0
242,5,-0.000143238648888655,-3.2580581319052726e-05,0.0003433754318393767,-0.010965556837618351,0.0005927523598074913,-0.023300059139728546,-0.007543193642050028,-0.12035169452428818,-0.010853983461856842,0.03293894603848457,-0.3291192352771759,-0.1301802396774292,0.0,0.0,0.0,-0.0007700810092501342,-0.002664634259417653,-0.0,0.0,0.0,0.0,0.0009899120777845383,0.031322870403528214,-0.0013033064315095544,14461.0,12469.0,9698.0,16628.0,0.47025054693222046,0.3431962728500366,0.19951574504375458,0.6311318874359131,0.0,0.0,0.0,0.0,15871.0,10547.0,11279.0,15660.0,1.65523099899292,0.03628968825936075,-0.023597613747808534,0.00832248008059014,0.010627900250256062,-0.0023626722395420074,0.0
247,5,-0.00020951719488948584,-2.3809152480680496e-05,0.0005013396730646491,-0.01233964879065752,-0.0008154704119078815,-0.028275730088353157,-0.006666369270533323,-0.1131720319390297,-0.010894868522882462,0.0868944600224495,-0.8636917471885681,0.12534165382385254,0.0,0.0,0.0,-0.0007455877494066954,-0.010005234740674496,-0.0,0.0,0.0,0.0,5.151926598045975e-05,0.02076389454305172,0.0007250182679854333,15409.0,11521.0,12877.0,14313.0,0.5377441644668579,0.2897407114505768,0.36760208010673523,0.4601440131664276,0.0,0.0,0.0,0.0,13615.0,13450.0,8877.0,17017.0,1.7383166551589966,0.037299964135041684,-0.028913743054605433,0.009370312631249163,0.04190836474299431,-0.002402349142357707,0.0
252,5,-0.0003348784812260419,-3.116380685241893e-05,0.0007093707099556923,-0.019979212433099747,0.0005563701852224767,-0.0362740196287632,-0.006666369270533323,-0.1131720319390297,-0.010894868522882462,0.0868944600224495,-0.8636917471885681,0.12534165382385254,0.0,0.0,0.0,-0.0007455877494066954,-0.010005234740674496,-0.0,0.0,0.0,0.0,5.151926598045975e-05,0.02076389454305172,0.0007250182679854333,15409.0,11521.0,12877.0,14313.0,0.5377441644668579,0.2897407114505768,0.36760208010673523,0.4601440131664276,0.0,0.0,0.0,0.0,13615.0,13450.0,8877.0,17017.0,1.7383166551589966,0.0389330966319729,-0.03506268121021193,0.008721438899189225,0.04190836474299431,-0.002402349142357707,0.0
257,5,-0.0004635035584215075,2.1581965938821668e-06,0.0009079790324904025,-0.02342669665813446,-0.003776092315092683,-0.03834260627627373,-0.006666369270533323,-0.1131720319390297,-0.010894868522882462,0.0868944600224495,-0.8636917471885681,0.12534165382385254,0.0,0.0,0.0,-0.0006659675273112953,-0.017415057867765427,-0.0,0.0,0.0,0.0,5.151926598045975e-05,0.02076389454305172,0.0007250182679854333,15409.0,11521.0,12877.0,14313.0,0.5377441644668579,0.2897407114505768,0.36760208010673523,0.4601440131664276,0.0,0.0,0.0,0.0,13615.0,13450.0,8877.0,17017.0,1.8293936252593994,0.04020721199587413,-0.043209982631920864,0.009080662507037464,0.07676476240158081,-0.002258232794702053,0.0
262,5,-0.0006323806010186672,5.460850661620498e-05,0.0011458647204563022,-0.029635922983288765,-0.007804474327713251,-0.04388333112001419,-0.005888992454856634,-0.10381737351417542,-0.011335652321577072,0.08667252212762833,-1.4821698665618896,-0.09853153675794601,0.0,0.0,0.0,-0.0006659675273112953,-0.017415057867765427,-0.0,0.0,0.0,0.0,0.00028346781618893147,0.001766107976436615,-0.0042694369331002235,12248.0,15378.0,12224.0,15488.0,0.3303382098674774,0.5354481935501099,0.3289584815502167,0.5435717105865479,0.0,0.0,0.0,0.0,14972.0,12112.0,12994.0,14190.0,1.8293936252593994,0.04018651871839993,-0.05341985499482919,0.010513551692891653,0.07676476240158081,-0.002258232794702053,0.0
267,5,-0.0008378027123399079,9.664584649726748e-05,0.0014008318539708853,-0.036505021154880524,-0.008166270330548286,-0.04814938083291054,-0.005888992454856634,-0.10381737351417542,-0.011335652321577072,0.08667252212762833,-1.4821698665618896,-0.09853153675794601,0.0,0.0,0.0,0.008242078125476837,-0.024580029770731926,-0.0,0.0,0.0,0.0,0.00028346781618893147,0.001766107976436615,-0.0042694369331002235,12248.0,15378.0,12224.0,15488.0,0.3303382098674774,0.5354481935501099,0.3289584815502167,0.5435717105865479,0.0,0.0,0.0,0.0,14972.0,12112.0,12994.0,14190.0,1.9353924989700317,0.04129161357754404,-0.06369245070044793,0.011276407249842262,0.11461590230464935,0.029566872864961624,0.0
272,5,-0.0013160898815840483,0.0001820870238589123,0.0019778809510171413,-0.04674145206809044,-0.00915985181927681,-0.05686376616358757,-0.005101967602968216,-0.08201877772808075,-0.010879074223339558,0.008767140097916126,-2.0965631008148193,0.035150375217199326,0.0,0.0,0.0,0.008242078125476837,-0.024580029770731926,-0.0,0.0,0.0,0.0,0.00027466329629532993,-0.015346162021160126,0.0004764542100019753,12817.0,14898.0,15123.0,12694.0,0.3639739155769348,0.5008524656295776,0.5169162154197693,0.35657399892807007,0.0,0.0,0.0,0.0,12929.0,14881.0,13737.0,14105.0,1.9353924989700317,0.04124105543152006,-0.08807616140460492,0.01179891515796231,0.11461590230464935,0.029566872864961624,0.0
277,5,-0.0013160898815840483,0.0001820870238589123,0.0019778809510171413,-0.04674145206809044,-0.00915985181927681,-0.05686376616358757,-0.005101967602968216,-0.08201877772808075,-0.010879074223339558,0.008767140097916126,-2.0965631008148193,0.035150375217199326,0.0,0.0,0.0,0.009077143855392933,-0.03606017678976059,-0.0,0.0,0.0,0.0,0.00027466329629532993,-0.015346162021160126,0.0004764542100019753,12817.0,14898.0,15123.0,12694.0,0.3639739155769348,0.5008524656295776,0.5169162154197693,0.35657399892807007,0.0,0.0,0.0,0.0,12929.0,14881.0,13737.0,14105.0,2.1011571884155273,0.04124105543152006,-0.08807616140460492,0.01179891515796231,0.18252664804458618,0.035351306200027466,0.0
283,5,-0.001555543509311974,0.00021748317521996796,0.002247076015919447,-0.04743102565407753,-0.00791147816926241,-0.05504892021417618,-0.004979047458618879,-0.06368543207645416,-0.011058873496949673,-0.03128645196557045,-2.46456241607666,0.03440379723906517,0.0,0.0,0.0,0.009077143855392933,-0.03606017678976059,-0.0,0.0,0.0,0.0,0.0010849341051653028,-0.03341449797153473,-0.001268167281523347,11559.0,16893.0,16781.0,12547.0,0.2917543053627014,0.6524484753608704,0.6434088945388794,0.3477807641029358,0.0,0.0,0.0,0.0,11875.0,16236.0,15217.0,13339.0,2.1011571884155273,0.04076017136724503,-0.10137087254159455,0.012782151953458394,0.18252664804458618,0.035351306200027466,0.0
288,5,-0.0020581241697072983,0.00030286965193226933,0.0027033514343202114,-0.048885878175497055,-0.008791184052824974,-0.04605334997177124,-0.004979047458618879,-0.06368543207645416,-0.011058873496949673,-0.03128645196557045,-2.46456241607666,0.03440379723906517,0.0,0.0,0.0,0.007897811010479927,-0.03670476749539375,-0.0,0.0,0.0,0.0,0.0010849341051653028,-0.03341449797153473,-0.001268167281523347,11559.0,16893.0,16781.0,12547.0,0.2917543053627014,0.6524484753608704,0.6434088945388794,0.3477807641029358,0.0,0.0,0.0,0.0,11875.0,16236.0,15217.0,13339.0,2.1084537506103516,0.04057725531326395,-0.12624394839401318,0.013954139422048225,0.18643498420715332,0.030865347012877464,0.0
293,5,-0.002293695230036974,0.0003782695857807994,0.002924546832218766,-0.04782289266586304,-0.012564468197524548,-0.04496477171778679,-0.005718387197703123,-0.033229559659957886,-0.010678734630346298,-0.0539160780608654,-2.570157527923584,-0.040477998554706573,0.0,0.0,0.0,0.007897811010479927,-0.03670476749539375,-0.0,0.0,0.0,0.0,0.004013353958725929,-0.04482584074139595,-0.0016778602730482817,10552.0,18349.0,17634.0,12949.0,0.23969003558158875,0.7756341099739075,0.7138280272483826,0.37200501561164856,0.0,0.0,0.0,0.0,9933.0,18672.0,17616.0,12985.0,2.1084537506103516,0.040716673423085194,-0.13645509784973672,0.01435392872016227,0.18643498420715332,0.030865347012877464,0.0
298,5,-0.0024604687932878733,0.00043560093035921454,0.0031488745007663965,-0.039141979068517685,-0.01190554816275835,-0.04490525275468826,-0.005718387197703123,-0.033229559659957886,-0.010678734630346298,-0.0539160780608654,-2.570157527923584,-0.040477998554706573,0.0,0.0,0.0,0.012459807097911835,-0.03740750253200531,-0.0,0.0,0.0,0.0,0.004013353958725929,-0.04482584074139595,-0.0016778602730482817,10552.0,18349.0,17634.0,12949.0,0.23969003558158875,0.7756341099739075,0.7138280272483826,0.37200501561164856,0.0,0.0,0.0,0.0,9933.0,18672.0,17616.0,12985.0,2.1304094791412354,0.04143917896622252,-0.14664946817808056,0.015032765900116679,0.19197234511375427,0.04919970780611038,0.0
303,5,-0.0026195787359029055,0.0004785643832292408,0.0033461162820458412,-0.03474998474121094,-0.009917832911014557,-0.04163109511137009,-0.006450495682656765,-0.013225285336375237,-0.010436915792524815,-0.11324471980333328,-2.3511712551116943,0.07192928344011307,0.0,0.0,0.0,0.010667483322322369,-0.029827918857336044,-0.0,0.0,0.0,0.0,0.0039837234653532505,-0.05456378683447838,0.0005370609578676522,11319.0,17888.0,18676.0,11377.0,0.27892929315567017,0.7354934215545654,0.8047664165496826,0.28196799755096436,0.0,0.0,0.0,0.0,11334.0,17965.0,18629.0,11454.0,2.0143468379974365,0.040812880991791214,-0.1556873670412148,0.01613275295533307,0.1447504758834839,0.03982812166213989,0.0
308,5,-0.002741303527727723,0.0005326711107045412,0.0035071007441729307,-0.02850695140659809,-0.010459941811859608,-0.03597057983279228,-0.006450495682656765,-0.013225285336375237,-0.010436915792524815,-0.11324471980333328,-2.3511712551116943,0.07192928344011307,0.0,0.0,0.0,0.010667483322322369,-0.029827918857336044,-0.0,0.0,0.0,0.0,0.0039837234653532505,-0.05456378683447838,0.0005370609578676522,11319.0,17888.0,18676.0,11377.0,0.27892929315567017,0.7354934215545654,0.8047664165496826,0.28196799755096436,0.0,0.0,0.0,0.0,11334.0,17965.0,18629.0,11454.0,2.0143468379974365,0.03970150499127354,-0.16284354733794074,0.017043177659405058,0.1447504758834839,0.03982812166213989,0.0
313,5,-0.002803612733259797,0.0005809675785712898,0.0036094454117119312,-0.01887989230453968,-0.0099795525893569,-0.026669606566429138,-0.0074068354442715645,0.011358683928847313,-0.010114636272192001,-0.08414347469806671,-1.7850871086120605,-0.0023808847181499004,0.0,0.0,0.0,0.011676494032144547,-0.019073184579610825,-0.0,0.0,0.0,0.0,0.003889631014317274,-0.0491672083735466,-0.001660449430346489,10890.0,18199.0,17820.0,12746.0,0.2566296458244324,0.7624911069869995,0.7296344041824341,0.35969865322113037,0.0,0.0,0.0,0.0,11490.0,17896.0,18104.0,12618.0,1.8771042823791504,0.03966173631515995,-0.1671933185309069,0.017391419860208087,0.086259625852108,0.04062482342123985,0.0
318,5,-0.0028364600148051977,0.0006264870753511786,0.003676644992083311,-0.011493639089167118,-0.009454161860048771,-0.018731778487563133,-0.0074068354442715645,0.011358683928847313,-0.010114636272192001,-0.08414347469806671,-1.7850871086120605,-0.0023808847181499004,0.0,0.0,0.0,0.011676494032144547,-0.019073184579610825,-0.0,0.0,0.0,0.0,0.003889631014317274,-0.0491672083735466,-0.001660449430346489,10890.0,18199.0,17820.0,12746.0,0.2566296458244324,0.7624911069869995,0.7296344041824341,0.35969865322113037,0.0,0.0,0.0,0.0,11490.0,17896.0,18104.0,12618.0,1.8771042823791504,0.03896433068320109,-0.16972374188235226,0.017658828405105815,0.086259625852108,0.04062482342123985,0.0
323,5,-0.0028378614224493504,0.0006654110038653016,0.003711388912051916,-0.004765617661178112,-0.008452530950307846,-0.011661989614367485,-0.008152175694704056,0.022795850411057472,-0.009501972235739231,-0.07068116217851639,-1.1124480962753296,0.014707360416650772,0.0,0.0,0.0,0.011676494032144547,-0.019073184579610825,-0.0,0.0,0.0,0.0,0.0053166793659329414,-0.04218973591923714,0.00031912626582197845,12040.0,17483.0,17913.0,12969.0,0.3184254765510559,0.7011006474494934,0.7376587986946106,0.37322455644607544,0.0,0.0,0.0,0.0,11854.0,17668.0,17280.0,13734.0,1.8771042823791504,0.03794688078311305,-0.16994721099313462,0.01804229456228884,0.086259625852108,0.04062482342123985,0.0
328,5,-0.0028237358201295137,0.0007164591806940734,0.0037517452146857977,-0.00021118554286658764,-0.009506798349320889,-0.009507539682090282,-0.008152175694704056,0.022795850411057472,-0.009501972235739231,-0.07068116217851639,-1.1124480962753296,0.014707360416650772,0.0,0.0,0.0,0.010864540934562683,-0.007923765107989311,-0.0,0.0,0.0,0.0,0.0053166793659329414,-0.04218973591923714,0.00031912626582197845,12040.0,17483.0,17913.0,12969.0,0.3184254765510559,0.7011006474494934,0.7376587986946106,0.37322455644607544,0.0,0.0,0.0,0.0,11854.0,17668.0,17280.0,13734.0,1.75619375705719,0.03753191427313978,-0.16943386717315642,0.018168608748137017,0.03352939710021019,0.035365257412195206,0.0
333,5,-0.0027313544414937496,0.0007153871702030301,0.003697233507409692,0.01100129447877407,-0.003674077335745096,0.002738375449553132,-0.008898027241230011,0.029932010918855667,-0.009347892366349697,-0.0788765698671341,-0.1703105866909027,0.06104244291782379,0.0,0.0,0.0,0.010864540934562683,-0.007923765107989311,-0.0,0.0,0.0,0.0,0.004852781072258949,-0.023469263687729836,-0.00022707004973199219,13167.0,15958.0,16604.0,13721.0,0.3854714334011078,0.5788917541503906,0.6292266845703125,0.42075690627098083,0.0,0.0,0.0,0.0,13686.0,14556.0,16117.0,13251.0,1.75619375705719,0.038471823519684346,-0.16580588660292034,0.017555622993901218,0.03352939710021019,0.035365257412195206,0.0
338,5,-0.00259683420881629,0.0007348690996877849,0.0036389289889484644,0.020542962476611137,-0.0038074639160186052,0.008091897703707218,-0.008898027241230011,0.029932010918855667,-0.009347892366349697,-0.0788765698671341,-0.1703105866909027,0.06104244291782379,0.0,0.0,0.0,0.005589115433394909,0.006349023897200823,-0.0,0.0,0.0,0.0,0.004852781072258949,-0.023469263687729836,-0.00022707004973199219,13167.0,15958.0,16604.0,13721.0,0.3854714334011078,0.5788917541503906,0.6292266845703125,0.42075690627098083,0.0,0.0,0.0,0.0,13686.0,14556.0,16117.0,13251.0,1.7108039855957031,0.03792355413545972,-0.16149863959376093,0.01833778574039385,-0.026172753423452377,0.017723429948091507,-0.0
343,5,-0.002441081451252103,0.0007446552626788616,0.003568862797692418,0.026907501742243767,-0.0026973201893270016,0.011644706130027771,-0.00918033067137003,0.028251199051737785,-0.009009345434606075,0.0511966347694397,0.5916494131088257,-0.026868801563978195,0.0,0.0,0.0,0.005589115433394909,0.006349023897200823,-0.0,0.0,0.0,0.0,0.003223273903131485,0.01200413890182972,0.0006000263965688646,13422.0,14953.0,14405.0,14947.0,0.4015447795391083,0.5047597885131836,0.4664649963378906,0.5043347477912903,0.0,0.0,0.0,0.0,13604.0,14807.0,13922.0,15380.0,1.7108039855957031,0.037763339572589,-0.1553481711293791,0.017728009375668093,-0.026172753423452377,0.017723429948091507,-0.0
348,5,-0.002257905201986432,0.0007221083506010473,0.003428149502724409,0.032744150608778,0.001626701676286757,0.021543478593230247,-0.00918033067137003,0.028251199051737785,-0.009009345434606075,0.0511966347694397,0.5916494131088257,-0.026868801563978195,0.0,0.0,0.0,0.004126491490751505,0.019507236778736115,-0.0,0.0,0.0,0.0,0.003223273903131485,0.01200413890182972,0.0006000263965688646,13422.0,14953.0,14405.0,14947.0,0.4015447795391083,0.5047597885131836,0.4664649963378906,0.5043347477912903,0.0,0.0,0.0,0.0,13604.0,14807.0,13922.0,15380.0,1.859686255455017,0.038201267460043827,-0.14882759174677895,0.017249282826457994,-0.08740898966789246,0.01422417163848877,-0.0
353,5,-0.0021120612509548664,0.0007108025602065027,0.0033249466214329004,0.030598927289247513,0.002007375005632639,0.021001730114221573,-0.00868495088070631,0.017603468149900436,-0.008771691471338272,0.05429794639348984,1.12290620803833,0.07118137925863266,0.0,0.0,0.0,0.004126491490751505,0.019507236778736115,-0.0,0.0,0.0,0.0,0.003223273903131485,0.01200413890182972,0.0006000263965688646,14922.0,12533.0,13596.0,14802.0,0.5024954080581665,0.34698837995529175,0.4126850962638855,0.4940248727798462,0.0,0.0,0.0,0.0,15071.0,12329.0,13334.0,15056.0,1.859686255455017,0.03789263252063634,-0.1423578633590018,0.016524236837691022,-0.08740898966789246,0.01422417163848877,-0.0
358,5,-0.0019446322694420815,0.0006903453613631427,0.003151803044602275,0.03233105316758156,0.0032578089740127325,0.029177917167544365,-0.00868495088070631,0.017603468149900436,-0.008771691471338272,0.05429794639348984,1.12290620803833,0.07118137925863266,0.0,0.0,0.0,-0.0010245231678709388,0.022548630833625793,-0.0,0.0,0.0,0.0,0.003223273903131485,0.01200413890182972,0.0006000263965688646,14922.0,12533.0,13596.0,14802.0,0.5024954080581665,0.34698837995529175,0.4126850962638855,0.4940248727798462,0.0,0.0,0.0,0.0,15071.0,12329.0,13334.0,15056.0,1.8968371152877808,0.03816638578140678,-0.1353255160808953,0.01597920569756295,-0.10305405408143997,-0.00360213709063828,-0.0
363,5,-0.0017878967337310314,0.0006857750122435391,0.003024792531505227,0.031740687787532806,0.0018515699775889516,0.026912439614534378,-0.008065697737038136,0.0074740140698850155,-0.008621012791991234,0.09423980861902237,1.3356306552886963,0.0024685680400580168,0.0,0.0,0.0,-0.0010245231678709388,0.022548630833625793,-0.0,0.0,0.0,0.0,0.0002701220801100135,0.03227584809064865,0.00017989950720220804,15205.0,12058.0,11588.0,15909.0,0.522831380367279,0.3194889724254608,0.2933516800403595,0.5751319527626038,0.0,0.0,0.0,0.0,15448.0,11839.0,11406.0,15966.0,1.8968371152877808,0.039629931675855844,-0.1293004348322095,0.01586161466843075,-0.10305405408143997,-0.00360213709063828,-0.0
369,5,-0.0016727291513234377,0.0006641853833571076,0.0028914776630699635,0.026516392827033997,0.003331380430608988,0.026762746274471283,-0.008065697737038136,0.0074740140698850155,-0.008621012791991234,0.09423980861902237,1.3356306552886963,0.0024685680400580168,0.0,0.0,0.0,-0.0008896327926777303,0.023683255538344383,-0.0,0.0,0.0,0.0,0.0002701220801100135,0.03227584809064865,0.00017989950720220804,15205.0,12058.0,11588.0,15909.0,0.522831380367279,0.3194889724254608,0.2933516800403595,0.5751319527626038,0.0,0.0,0.0,0.0,15448.0,11839.0,11406.0,15966.0,1.9121465682983398,0.039454568028410034,-0.12480898334628156,0.015513355501580794,-0.10911229997873306,-0.003153119469061494,-0.0
374,5,-0.0015704557299613953,0.0006378336693160236,0.0027835057117044926,0.02287936396896839,0.004494757857173681,0.023661743849515915,-0.006315588019788265,-0.007887881249189377,-0.008390619419515133,0.16557568311691284,1.1379797458648682,0.03309633955359459,0.0,0.0,0.0,-0.0008896327926777303,0.023683255538344383,-0.0,0.0,0.0,0.0,-0.00043479882879182696,0.029476599767804146,-0.0013751318911090493,16333.0,12070.0,12192.0,16292.0,0.6078205704689026,0.3201221227645874,0.32711124420166016,0.6046323180198669,0.0,0.0,0.0,0.0,16120.0,12449.0,11876.0,16452.0,1.9121465682983398,0.039550733759234076,-0.12129709036432632,0.0154951938846127,-0.10911229997873306,-0.003153119469061494,-0.0
379,5,-0.0015106871724128723,0.0006327883456833661,0.002723741577938199,0.01632397621870041,0.00240334402769804,0.016636384651064873,-0.006315588019788265,-0.007887881249189377,-0.008390619419515133,0.16557568311691284,1.1379797458648682,0.03309633955359459,0.0,0.0,0.0,-0.003922224044799805,0.01745004951953888,-0.0,0.0,0.0,0.0,-0.00043479882879182696,0.029476599767804146,-0.0013751318911090493,16333.0,12070.0,12192.0,16292.0,0.6078205704689026,0.3201221227645874,0.32711124420166016,0.6046323180198669,0.0,0.0,0.0,0.0,16120.0,12449.0,11876.0,16452.0,1.8330646753311157,0.04072653680580616,-0.11904353010526444,0.015204267905274009,-0.07707276940345764,-0.013326519168913364,-0.0
384,5,-0.0014973023207858205,0.0006220357026904821,0.0027453836519271135,0.008135762065649033,0.002251656958833337,0.004057502839714289,-0.006315588019788265,-0.007887881249189377,-0.008390619419515133,0.16557568311691284,1.1379797458648682,0.03309633955359459,0.0,0.0,0.0,-0.003922224044799805,0.01745004951953888,-0.0,0.0,0.0,0.0,-0.00043479882879182696,0.029476599767804146,-0.0013751318911090493,16333.0,12070.0,12192.0,16292.0,0.6078205704689026,0.3201221227645874,0.32711124420166016,0.6046323180198669,0.0,0.0,0.0,0.0,16120.0,12449.0,11876.0,16452.0,1.8330646753311157,0.04064324493941942,-0.11932668967707635,0.015125946932390524,-0.07707276940345764,-0.013326519168913364,-0.0
389,5,-0.0015184052754193544,0.0005946948076598346,0.0027862254064530134,0.0007219572435133159,0.004181568510830402,-0.0032780105248093605,-0.0053133354522287846,-0.01576485112309456,-0.008539896458387375,0.09435242414474487,0.7492092251777649,-0.009040309116244316,0.0,0.0,0.0,-0.0015987742226570845,0.005456308368593454,-0.0,0.0,0.0,0.0,-0.0006228434504009783,0.0194260124117136,-0.0004978862125426531,15443.0,13733.0,12923.0,15971.0,0.5402796864509583,0.42156216502189636,0.3704346716403961,0.5798700451850891,0.0,0.0,0.0,0.0,16054.0,12877.0,12484.0,16218.0,1.687097191810608,0.04061609274081049,-0.12091168733139104,0.0156364863495419,-0.02218136191368103,-0.00499960221350193,-0.0
394,5,-0.0015677715418860316,0.0005871000466868281,0.0028470170218497515,-0.005635168869048357,0.002583999652415514,-0.00860618520528078,-0.0053133354522287846,-0.01576485112309456,-0.008539896458387375,0.09435242414474487,0.7492092251777649,-0.009040309116244316,0.0,0.0,0.0,-0.0015987742226570845,0.005456308368593454,-0.0,0.0,0.0,0.0,-0.0006228434504009783,0.0194260124117136,-0.0004978862125426531,15443.0,13733.0,12923.0,15971.0,0.5402796864509583,0.42156216502189636,0.3704346716403961,0.5798700451850891,0.0,0.0,0.0,0.0,16054.0,12877.0,12484.0,16218.0,1.687097191810608,0.040910035021586307,-0.12326476452025682,0.01584149515483692,-0.02218136191368103,-0.00499960221350193,-0.0
399,5,-0.0016523866215720773,0.0005678158486261964,0.002962841186672449,-0.012407880276441574,0.0033476981334388256,-0.017341384664177895,-0.004116902593523264,-0.02120770514011383,-0.00845246110111475,0.09330934286117554,0.15177501738071442,-0.019144998863339424,0.0,0.0,0.0,-0.002032981486991048,-0.007253760471940041,-0.0,0.0,0.0,0.0,-0.00021912585361860693,0.0046565718948841095,-0.00010909611592069268,14572.0,13989.0,14129.0,14443.0,0.4779340326786041,0.43840232491493225,0.44769617915153503,0.4690321385860443,0.0,0.0,0.0,0.0,15015.0,14152.0,12975.0,15975.0,1.707942247390747,0.04082788555319107,-0.12780194619373003,0.01603232808445457,0.029852697625756264,-0.006435978692024946,0.0
404,5,-0.0017529812175780535,0.0005651217652484775,0.0030789535958319902,-0.01703450083732605,0.0016623748233541846,-0.0208700280636549,-0.004116902593523264,-0.02120770514011383,-0.00845246110111475,0.09330934286117554,0.15177501738071442,-0.019144998863339424,0.0,0.0,0.0,-0.002032981486991048,-0.007253760471940041,-0.0,0.0,0.0,0.0,-0.00021912585361860693,0.0046565718948841095,-0.00010909611592069268,14572.0,13989.0,14129.0,14443.0,0.4779340326786041,0.43840232491493225,0.44769617915153503,0.4690321385860443,0.0,0.0,0.0,0.0,15015.0,14152.0,12975.0,15975.0,1.707942247390747,0.040583309212179126,-0.13283427283573557,0.016319355901453017,0.029852697625756264,-0.006435978692024946,0.0
409,5,-0.0018971121171489358,0.0005539151025004685,0.0032175621017813683,-0.024109510704874992,0.002009744057431817,-0.024981042370200157,-0.0036536308471113443,-0.019891025498509407,-0.008373457938432693,-0.01668659597635269,-0.4643001854419708,0.04479477182030678,0.0,0.0,0.0,-0.0009178885375149548,-0.01677646115422249,-0.0,0.0,0.0,0.0,0.001395761501044035,-0.010325178503990173,-0.001807304797694087,12141.0,14990.0,13864.0,13794.0,0.3241785764694214,0.5073375701904297,0.4300763010978699,0.42550474405288696,0.0,0.0,0.0,0.0,14311.0,14219.0,14355.0,14256.0,1.821350336074829,0.040518500691410046,-0.13818300926137592,0.016846580069003057,0.07362498342990875,-0.0030987882055342197,0.0
414,5,-0.0020380981732159853,0.0005583306192420423,0.0033613659907132387,-0.026562120765447617,0.0002740383497439325,-0.027248868718743324,-0.0036536308471113443,-0.019891025498509407,-0.008373457938432693,-0.01668659597635269,-0.4643001854419708,0.04479477182030678,0.0,0.0,0.0,-0.0009178885375149548,-0.01677646115422249,-0.0,0.0,0.0,0.0,0.001395761501044035,-0.010325178503990173,-0.001807304797694087,12141.0,14990.0,13864.0,13794.0,0.3241785764694214,0.5073375701904297,0.4300763010978699,0.42550474405288696,0.0,0.0,0.0,0.0,14311.0,14219.0,14355.0,14256.0,1.821350336074829,0.04082236457147501,-0.1444078978732717,0.01759869582883999,0.07362498342990875,-0.0030987882055342197,0.0
419,5,-0.002180243143811822,0.000569232739508152,0.00344922230578959,-0.027682263404130936,-0.0011986413737758994,-0.02144232764840126,-0.005068064667284489,-0.00301162526011467,-0.008173082023859024,-0.12318696826696396,-1.1973795890808105,0.02548697590827942,0.0,0.0,0.0,0.000583243032451719,-0.024020757526159286,-0.0,0.0,0.0,0.0,0.0015088110230863094,-0.02325662411749363,2.5429564630030654e-05,11986.0,15242.0,15437.0,12193.0,0.31539833545684814,0.5255658030509949,0.5398291349411011,0.3271489143371582,0.0,0.0,0.0,0.0,12051.0,15058.0,14332.0,13308.0,1.9166715145111084,0.04010254968437112,-0.15071044467280345,0.017821053992173163,0.11092883348464966,0.0020720763131976128,0.0
424,5,-0.002315767575055361,0.0005849450244568288,0.0035671768710017204,-0.027335816994309425,-0.0023649316281080246,-0.022731460630893707,-0.005068064667284489,-0.00301162526011467,-0.008173082023859024,-0.12318696826696396,-1.1973795890808105,0.02548697590827942,0.0,0.0,0.0,0.000583243032451719,-0.024020757526159286,-0.0,0.0,0.0,0.0,0.0015088110230863094,-0.02325662411749363,2.5429564630030654e-05,11986.0,15242.0,15437.0,12193.0,0.31539833545684814,0.5255658030509949,0.5398291349411011,0.3271489143371582,0.0,0.0,0.0,0.0,12051.0,15058.0,14332.0,13308.0,1.9166715145111084,0.03984701856583406,-0.15730764263311983,0.0185828965350104,0.11092883348464966,0.0020720763131976128,0.0
429,5,-0.002455603564158082,0.0005770676652900875,0.0036161819007247686,-0.027714651077985764,-6.87898079831939e-07,-0.014973183162510395,-0.0057610576041042805,0.006716239266097546,-0.00797869823873043,-0.13064157962799072,-1.222151517868042,0.015713917091488838,0.0,0.0,0.0,0.003388049080967903,-0.024816786870360374,-0.0,0.0,0.0,0.0,0.002077874494716525,-0.028196118772029877,-0.0004689442866947502,11616.0,16175.0,16176.0,12335.0,0.2948564887046814,0.5955191254615784,0.5955908894538879,0.3353838324546814,0.0,0.0,0.0,0.0,11702.0,15402.0,15473.0,12219.0,1.9294143915176392,0.03954912382537925,-0.16181556039781608,0.018924991647229047,0.11536548286676407,0.01211664080619812,0.0
434,5,-0.0025702014099806547,0.0005994683597236872,0.0036485237069427967,-0.02483760379254818,-0.002688357140868902,-0.009870311245322227,-0.0057610576041042805,0.006716239266097546,-0.00797869823873043,-0.13064157962799072,-1.222151517868042,0.015713917091488838,0.0,0.0,0.0,0.003388049080967903,-0.024816786870360374,-0.0,0.0,0.0,0.0,0.002077874494716525,-0.028196118772029877,-0.0004689442866947502,11616.0,16175.0,16176.0,12335.0,0.2948564887046814,0.5955191254615784,0.5955908894538879,0.3353838324546814,0.0,0.0,0.0,0.0,11702.0,15402.0,15473.0,12219.0,1.9294143915176392,0.03938655514771561,-0.16666588394398776,0.018957177730220067,0.11536548286676407,0.01211664080619812,0.0
439,5,-0.0026565855368971825,0.000596490572206676,0.003626975230872631,-0.020301131531596184,-0.0007180058164522052,-0.0013623106060549617,-0.007304208818823099,0.020229605957865715,-0.007666582241654396,-0.1121300682425499,-0.9771521091461182,0.020368702709674835,0.0,0.0,0.0,0.0037885671481490135,-0.023341186344623566,-0.0,0.0,0.0,0.0,0.0029101758264005184,-0.030517827719449997,-0.0006172878202050924,11576.0,16158.0,16181.0,12386.0,0.2927235960960388,0.5942713618278503,0.5960283875465393,0.33832699060440063,0.0,0.0,0.0,0.0,11402.0,16248.0,16270.0,12310.0,1.909829020500183,0.038111023427325766,-0.1698451283854412,0.01903737887090284,0.10740555822849274,0.013411462306976318,0.0
444,5,-0.0027244500815868378,0.0006357447127811611,0.003651943290606141,-0.01626419648528099,-0.004997704643756151,-0.0035410718992352486,-0.007304208818823099,0.020229605957865715,-0.007666582241654396,-0.1121300682425499,-0.9771521091461182,0.020368702709674835,0.0,0.0,0.0,0.0037885671481490135,-0.023341186344623566,-0.0,0.0,0.0,0.0,0.0029101758264005184,-0.030517827719449997,-0.0006172878202050924,11576.0,16158.0,16181.0,12386.0,0.2927235960960388,0.5942713618278503,0.5960283875465393,0.33832699060440063,0.0,0.0,0.0,0.0,11402.0,16248.0,16270.0,12310.0,1.909829020500183,0.03788317120553065,-0.17248889158038996,0.019581269498015405,0.10740555822849274,0.013411462306976318,0.0
450,5,-0.0027584650088101625,0.0006275654886849225,0.003626305842772126,-0.010587476193904877,-0.001017571659758687,0.0016600699163973331,-0.00835715513676405,0.02717384696006775,-0.007544103544205427,-0.09989465773105621,-0.6170000433921814,0.01449839398264885,0.0,0.0,0.0,0.00654538394883275,-0.01720651611685753,-0.0,0.0,0.0,0.0,0.003601574804633856,-0.029382841661572456,-0.000678640732076019,12070.0,16354.0,16298.0,13109.0,0.3201715648174286,0.6095148921012878,0.6051352024078369,0.38184985518455505,0.0,0.0,0.0,0.0,11787.0,16536.0,16515.0,12857.0,1.8358862400054932,0.03738873924283943,-0.17321501918110446,0.019601049850849726,0.07611318677663803,0.022273261100053787,0.0
455,5,-0.002751579973846674,0.0006166507955640554,0.0036448766477406025,-0.0034088040702044964,0.0009027320775203407,-0.0015644906088709831,-0.00835715513676405,0.02717384696006775,-0.007544103544205427,-0.09989465773105621,-0.6170000433921814,0.01449839398264885,0.0,0.0,0.0,0.00654538394883275,-0.01720651611685753,-0.0,0.0,0.0,0.0,0.003601574804633856,-0.029382841661572456,-0.000678640732076019,12070.0,16354.0,16298.0,13109.0,0.3201715648174286,0.6095148921012878,0.6051352024078369,0.38184985518455505,0.0,0.0,0.0,0.0,11787.0,16536.0,16515.0,12857.0,1.8358862400054932,0.03711036325072322,-0.17357166087803494,0.01973501825904096,0.07611318677663803,0.022273261100053787,0.0
460,5,-0.0027390478644520044,0.0006206226535141468,0.003683120710775256,0.0001403411733917892,-0.00011552849173313007,-0.005215078126639128,-0.00835715513676405,0.02717384696006775,-0.007544103544205427,-0.09989465773105621,-0.6170000433921814,0.01449839398264885,0.0,0.0,0.0,1.3877923265681602e-05,-0.006845648400485516,-0.0,0.0,0.0,0.0,0.003601574804633856,-0.029382841661572456,-0.000678640732076019,12070.0,16354.0,16298.0,13109.0,0.3201715648174286,0.6095148921012878,0.6051352024078369,0.38184985518455505,0.0,0.0,0.0,0.0,11787.0,16536.0,16515.0,12857.0,1.701340675354004,0.036218666802393135,-0.17211682912050627,0.019801780509599413,0.028064310550689697,4.3764735892182216e-05,0.0
465,5,-0.0026966857258230448,0.0006147879757918417,0.0037080480251461267,0.005139593500643969,0.000653948518447578,-0.0050773159600794315,-0.009921131655573845,0.03185185790061951,-0.0072431438602507114,-0.14436981081962585,-0.08317035436630249,0.011048455722630024,0.0,0.0,0.0,1.3877923265681602e-05,-0.006845648400485516,-0.0,0.0,0.0,0.0,0.004663299303501844,-0.019441045820713043,-9.641172073315829e-05,12860.0,15549.0,15898.0,13723.0,0.36654889583587646,0.5481163263320923,0.5742758512496948,0.42088788747787476,0.0,0.0,0.0,0.0,12327.0,16029.0,16271.0,13225.0,1.701340675354004,0.03686876871916089,-0.17022248951230504,0.019711346315044072,0.028064310550689697,4.3764735892182216e-05,0.0
470,5,-0.0026431637816131115,0.0006061752792447805,0.0037271848414093256,0.008478461764752865,0.0012951024109497666,-0.004327340051531792,-0.009921131655573845,0.03185185790061951,-0.0072431438602507114,-0.14436981081962585,-0.08317035436630249,0.011048455722630024,0.0,0.0,0.0,0.00031909134122543037,0.001085774041712284,-0.0,0.0,0.0,0.0,0.004663299303501844,-0.019441045820713043,-9.641172073315829e-05,12860.0,15549.0,15898.0,13723.0,0.36654889583587646,0.5481163263320923,0.5742758512496948,0.42088788747787476,0.0,0.0,0.0,0.0,12327.0,16029.0,16271.0,13225.0,1.6376651525497437,0.035772598824818785,-0.16753586698547074,0.01990851448181638,-0.004284659866243601,0.0009686093544587493,0.0
