timestamp,dt,pos_x,pos_y,pos_z,vel_x,vel_y,vel_z,roll,pitch,yaw,agv_x,agv_y,agv_z,x_ref,y_ref,z_ref,roll_ref,pitch_ref,yaw_ref,x_vel_ref,y_vel_ref,z_vel_ref,x_torque,y_torque,z_torque,w0,w1,w2,w3,u0,u1,u2,u3,m0req,m1req,m2req,m3req,thrust0,thrust1,thrust2,thrust3,thrust_ref,roll_vicon,pitch_vicon,yaw_vicon,acc_x,acc_y,acc_z
5,5,0.0,0.0,0.0,-0.0011385329999029636,1.7254600606975146e-05,0.0018311316380277276,-0.0037246712017804384,-0.05426708608865738,0.00758166192099452,0.0029100009705871344,-0.0021629438269883394,-0.0020297684241086245,0.0,0.0,0.0,-2.1320176529115997e-05,-0.0010821520118042827,-0.0,0.0,0.0,0.0,0.0007176555227488279,0.015914661809802055,0.0007246190798468888,1495.0,1495.0,1495.0,1495.0,0.0,0.0,0.0,0.0,0.0,0.0,0.0,0.0,1495.0,1495.0,1495.0,1495.0,1.6373323202133179,0.058018638128455584,-0.09291336015293608,0.07831868528529738,0.0042694988660514355,-6.470474909292534e-05,0.0
31,26,0.0,0.0,0.0,0.0016284891171380877,0.000305513123748824,-0.001008052029646933,-0.0037246712017804384,-0.05426708608865738,0.00758166192099452,0.0029100009705871344,-0.0021629438269883394,-0.0020297684241086245,0.0,0.0,0.0,-2.1320176529115997e-05,-0.0010821520118042827,-0.0,0.0,0.0,0.0,0.0007176555227488279,0.015914661809802055,0.0007246190798468888,1495.0,1495.0,1495.0,1495.0,0.0,0.0,0.0,0.0,0.0,0.0,0.0,0.0,1495.0,1495.0,1495.0,1495.0,1.6373323202133179,0.057511145204168265,-0.09282122776389926,0.07828517446197947,0.0042694988660514355,-6.470474909292534e-05,0.0
36,5,0.0,0.0,0.0,0.0014842529781162739,-5.35078979737591e-05,-0.0016434520948678255,-0.003690105862915516,-0.054266251623630524,0.007607487961649895,0.0010434669675305486,0.0011476814979687333,0.003909536171704531,0.0,0.0,0.0,-0.0003762891865335405,0.0015428849728778005,-0.0,0.0,0.0,0.0,0.0007081938674673438,0.016006307676434517,0.0008566531469114125,1495.0,1495.0,1495.0,1495.0,0.0,0.0,0.0,0.0,0.0,0.0,0.0,0.0,1495.0,1495.0,1495.0,1495.0,1.6425964832305908,0.05828765567884073,-0.09261950590162263,0.07821398519638799,-0.006106834392994642,-0.0011456742649897933,0.0
42,5,0.0,0.0,0.0,0.0011093169450759888,0.000829078140668571,0.0010315357940271497,-0.003690105862915516,-0.054266251623630524,0.007607487961649895,0.0010434669675305486,0.0011476814979687333,0.003909536171704531,0.0,0.0,0.0,-0.0003762891865335405,0.0015428849728778005,-0.0,0.0,0.0,0.0,0.0007081938674673438,0.016006307676434517,0.0008566531469114125,1495.0,1495.0,1495.0,1495.0,0.0,0.0,0.0,0.0,0.0,0.0,0.0,0.0,1495.0,1495.0,1495.0,1495.0,1.6425964832305908,0.057958439350616266,-0.09276219857124128,0.0784197156786589,-0.006106834392994642,-0.0011456742649897933,0.0
47,5,4.845197736358386e-07,4.200728199066361e-06,2.7839366794069065e-06,0.000501869129948318,-0.00017245612980332226,7.854193245293573e-05,-0.003690105862915516,-0.054266251623630524,0.007607487961649895,0.0010434669675305486,0.0011476814979687333,0.003909536171704531,0.0,0.0,0.0,-0.001022864831611514,0.0010527742560952902,-0.0,0.0,0.0,0.0,0.0007398386369459331,0.015868546441197395,0.000893029966391623,1495.0,1495.0,1495.0,1495.0,0.0,0.0,0.0,0.0,0.0,0.0,0.0,0.0,1495.0,1495.0,1495.0,1495.0,1.6398346424102783,0.0581355754692633,-0.09276382563344109,0.07831140333453789,-0.004159938544034958,-0.0031090429984033108,0.0
52,5,-1.3319613572093658e-05,1.0073114026454277e-05,1.941846676345449e-06,-0.0014557483373209834,-0.0007736686966381967,0.00013246758317109197,-0.0037042773328721523,-0.05426142364740372,0.007651877589523792,0.00030320239602588117,-0.0059606898576021194,0.003624018281698227,0.0,0.0,0.0,0.0009710118756629527,-0.001397607964463532,-0.0,0.0,0.0,0.0,0.0007226656307466328,0.016710452735424042,0.0008288787212222815,14942.0,11910.0,12723.0,14446.0,0.5039670467376709,0.3111013174057007,0.3582836985588074,0.46924442052841187,0.0,0.0,0.0,0.0,14931.0,11932.0,12717.0,14444.0,1.6427578926086426,0.05835789421347164,-0.09265119642214996,0.07820205177593448,0.005532360635697842,0.0029566949233412743,-0.0
57,5,-1.4854765140626114e-05,3.275369181210408e-06,3.9664687392360065e-06,-0.0007665175362490118,0.0005062618292868137,-0.00018996759899891913,-0.0037042773328721523,-0.05426142364740372,0.007651877589523792,0.00030320239602588117,-0.0059606898576021194,0.003624018281698227,0.0,0.0,0.0,0.0009710118756629527,-0.001397607964463532,-0.0,0.0,0.0,0.0,0.0007226656307466328,0.016710452735424042,0.0008288787212222815,14942.0,11910.0,12723.0,14446.0,0.5039670467376709,0.3111013174057007,0.3582836985588074,0.46924442052841187,0.0,0.0,0.0,0.0,14931.0,11932.0,12717.0,14444.0,1.6427578926086426,0.057601418485403434,-0.09296074658625288,0.07815725036886051,0.005532360635697842,0.0029566949233412743,-0.0
62,5,-2.3176784452516586e-05,1.2027355751342839e-06,-1.5605113503625034e-06,-0.001305249403230846,0.0004512207815423608,0.0005872505716979504,-0.0037042773328721523,-0.05426142364740372,0.007651877589523792,0.00030320239602588117,-0.0059606898576021194,0.003624018281698227,0.0,0.0,0.0,0.0009710118756629527,-0.001397607964463532,-0.0,0.0,0.0,0.0,0.0007226656307466328,0.016710452735424042,0.0008288787212222815,14942.0,11910.0,12723.0,14446.0,0.5039670467376709,0.3111013174057007,0.3582836985588074,0.46924442052841187,0.0,0.0,0.0,0.0,14931.0,11932.0,12717.0,14444.0,1.6427578926086426,0.05771232999049345,-0.09296613841441104,0.07834500199936781,0.005532360635697842,0.0029566949233412743,-0.0
67,5,-3.661926893983036e-05,6.823331204941496e-06,1.1643774996628053e-05,-0.0021351976320147514,-0.0004939831560477614,-0.0013496141182258725,-0.0037345325108617544,-0.05421379208564758,0.007676717825233936,0.001179776038043201,-0.0012079891748726368,-0.0023933653719723225,0.0,0.0,0.0,-0.0005544032901525497,-0.001270793378353119,-0.0,0.0,0.0,0.0,0.0005491012707352638,0.01660698466002941,0.0007289974018931389,14902.0,11963.0,12665.0,14454.0,0.5010870099067688,0.31409671902656555,0.3548479974269867,0.46980294585227966,0.0,0.0,0.0,0.0,14923.0,11943.0,12693.0,14464.0,1.640116572380066,0.05765838030977287,-0.09297601416885092,0.0782918941705095,0.005022285506129265,-0.0016854234272614121,0.0
72,5,-2.490814949851483e-05,5.545790827454766e-06,1.3527259397960734e-05,0.0005512550706043839,-4.428839383763261e-05,-0.0007658637478016317,-0.0037345325108617544,-0.05421379208564758,0.007676717825233936,0.001179776038043201,-0.0012079891748726368,-0.0023933653719723225,0.0,0.0,0.0,-0.0005544032901525497,-0.001270793378353119,-0.0,0.0,0.0,0.0,0.0005491012707352638,0.01660698466002941,0.0007289974018931389,14902.0,11963.0,12665.0,14454.0,0.5010870099067688,0.31409671902656555,0.3548479974269867,0.46980294585227966,0.0,0.0,0.0,0.0,14923.0,11943.0,12693.0,14464.0,1.640116572380066,0.057752278586981974,-0.09315529220235781,0.0783716825067594,0.005022285506129265,-0.0016854234272614121,0.0
77,5,-3.1190280424198136e-05,5.282237452775007e-06,1.7451522580813617e-05,-0.0005333535955287516,1.391101523040561e-05,-0.0007772570243105292,-0.0037158511113375425,-0.05425919592380524,0.007676633540540934,0.0022196967620402575,0.0010211769258603454,0.004944971762597561,0.0,0.0,0.0,6.504455086542293e-05,0.0004910745774395764,-0.0,0.0,0.0,0.0,0.000901277584489435,0.01598171703517437,0.000891851494088769,14907.0,11928.0,12817.0,14387.0,0.501480758190155,0.31212857365608215,0.3639620244503021,0.46518656611442566,0.0,0.0,0.0,0.0,14837.0,12015.0,12757.0,14440.0,1.6310123205184937,0.05756524929477585,-0.09291298401307214,0.07832076043317623,-0.0019299967680126429,0.0001966421987162903,0.0
82,5,-3.1190280424198136e-05,5.282237452775007e-06,1.7451522580813617e-05,-0.0005333535955287516,1.391101523040561e-05,-0.0007772570243105292,-0.0037158511113375425,-0.05425919592380524,0.007676633540540934,0.0022196967620402575,0.0010211769258603454,0.004944971762597561,0.0,0.0,0.0,6.504455086542293e-05,0.0004910745774395764,-0.0,0.0,0.0,0.0,0.000901277584489435,0.01598171703517437,0.000891851494088769,14907.0,11928.0,12817.0,14387.0,0.501480758190155,0.31212857365608215,0.3639620244503021,0.46518656611442566,0.0,0.0,0.0,0.0,14837.0,12015.0,12757.0,14440.0,1.6310123205184937,0.05756524929477585,-0.09291298401307214,0.07832076043317623,-0.0019299967680126429,0.0001966421987162903,0.0
87,5,3.642610181486816e-06,2.9241998618090292e-06,9.948319529939909e-06,0.0025682977866381407,0.00035859597846865654,-0.0005592446541413665,-0.0037207328714430332,-0.05422476679086685,0.007683323230594397,-0.0038256985135376453,-0.0025199847295880318,-0.0023212344385683537,0.0,0.0,0.0,-7.617028586537344e-06,-0.0005524237640202045,-0.0,0.0,0.0,0.0,0.0006841420545242727,0.015871193259954453,0.0007456556777469814,14853.0,12006.0,12739.0,14409.0,0.4976423978805542,0.3165181279182434,0.3592565655708313,0.466699481010437,0.0,0.0,0.0,0.0,14887.0,11974.0,12771.0,14372.0,1.63164222240448,0.05758470013317328,-0.0934782729296808,0.07857172928327179,0.0021719466894865036,-2.3036636775941588e-05,0.0
92,5,4.099082161701517e-06,-1.9528265511326026e-06,5.6283633966813795e-06,0.0010820957832038403,0.0007286815671250224,0.0002946968888863921,-0.0037207328714430332,-0.05422476679086685,0.007683323230594397,-0.0038256985135376453,-0.0025199847295880318,-0.0023212344385683537,0.0,0.0,0.0,-7.617028586537344e-06,-0.0005524237640202045,-0.0,0.0,0.0,0.0,0.0006841420545242727,0.015871193259954453,0.0007456556777469814,14853.0,12006.0,12739.0,14409.0,0.4976423978805542,0.3165181279182434,0.3592565655708313,0.466699481010437,0.0,0.0,0.0,0.0,14887.0,11974.0,12771.0,14372.0,1.63164222240448,0.05787159371081609,-0.09281788931425639,0.07842739473525116,0.0021719466894865036,-2.3036636775941588e-05,0.0
97,5,1.8807630794981378e-06,1.8817625004885485e-06,4.273769320661813e-07,0.00016664003487676382,-0.00016867805970832705,0.0007419971516355872,-0.003705965355038643,-0.05421154201030731,0.007685008458793163,0.002041105180978775,-0.004694914445281029,0.0029666961636394262,0.0,0.0,0.0,-0.0009029251523315907,0.0010330401128157973,-0.0,0.0,0.0,0.0,0.0005853129550814629,0.015852494165301323,0.0008290293044410646,14887.0,11979.0,12767.0,14371.0,0.5000429749488831,0.3149694502353668,0.3609752357006073,0.46412888169288635,0.0,0.0,0.0,0.0,14860.0,12001.0,12734.0,14410.0,1.6390846967697144,0.057939886421490304,-0.0926795776515622,0.07839091217473564,-0.004080094397068024,-0.002743226010352373,-0.0
103,5,-5.32993681190419e-06,7.073899269016692e-06,-4.456295755517203e-06,-0.0007986279670149088,-0.0006905276095494628,0.0008828395511955023,-0.003705965355038643,-0.05421154201030731,0.007685008458793163,0.002041105180978775,-0.004694914445281029,0.0029666961636394262,0.0,0.0,0.0,-0.0009029251523315907,0.0010330401128157973,-0.0,0.0,0.0,0.0,0.0005853129550814629,0.015852494165301323,0.0008290293044410646,14887.0,11979.0,12767.0,14371.0,0.5000429749488831,0.3149694502353668,0.3609752357006073,0.46412888169288635,0.0,0.0,0.0,0.0,14860.0,12001.0,12734.0,14410.0,1.6390846967697144,0.05779662193224104,-0.09247237973797175,0.07838398953907265,-0.004080094397068024,-0.002743226010352373,-0.0
108,5,-1.9186252757208422e-05,4.534326308203163e-06,-3.8902831533960125e-07,-0.001982209039852023,2.8537711841636337e-05,-0.00013493627193383873,-0.003710841992869973,-0.054208043962717056,0.007700316607952118,0.0005352970911189914,-0.006263211835175753,0.005986764095723629,0.0,0.0,0.0,0.0008664599154144526,-0.0007669266196899116,-0.0,0.0,0.0,0.0,0.0007355908746831119,0.016069356352090836,0.0009629058185964823,14909.0,11853.0,12782.0,14316.0,0.5015696287155151,0.30791017413139343,0.3618258535861969,0.4603365361690521,0.0,0.0,0.0,0.0,14863.0,11913.0,12733.0,14357.0,1.6366198062896729,0.05812661770488808,-0.09284814701741582,0.07838834217255593,0.003024498000741005,0.00262848031707108,0.0
113,5,-2.539381239330396e-05,1.2009024430881254e-05,9.80770983005641e-06,-0.0015377907548099756,-0.0008855487103573978,-0.0012775830691680312,-0.0036956784315407276,-0.05417777597904205,0.007715882267802954,0.0009665148681961,-0.002117888070642948,-0.001122662448324263,0.0,0.0,0.0,0.001111345598474145,-0.001490883412770927,-0.0,0.0,0.0,0.0,0.0007333624525927007,0.016153642907738686,0.0007576600182801485,14843.0,11937.0,12691.0,14395.0,0.4968920648097992,0.31260696053504944,0.35636284947395325,0.4657803475856781,0.0,0.0,0.0,0.0,14840.0,11939.0,12698.0,14389.0,1.6442089080810547,0.05775194486104352,-0.09301378675482426,0.07835501475765395,0.0059067984111607075,0.0033869945909827948,0.0
119,6,-3.3886797609739006e-05,2.1180148905841634e-05,1.20763006634661e-05,-0.0006323555135168135,-0.0007651537307538092,-0.000836334191262722,-0.0036956784315407276,-0.05417777597904205,0.007715882267802954,0.0009665148681961,-0.002117888070642948,-0.001122662448324263,0.0,0.0,0.0,0.001111345598474145,-0.001490883412770927,-0.0,0.0,0.0,0.0,0.0007333624525927007,0.016153642907738686,0.0007576600182801485,14843.0,11937.0,12691.0,14395.0,0.4968920648097992,0.31260696053504944,0.35636284947395325,0.4657803475856781,0.0,0.0,0.0,0.0,14840.0,11939.0,12698.0,14389.0,1.6442089080810547,0.057661502385846636,-0.0930568351331139,0.078613685642304,0.0059067984111607075,0.0033869945909827948,0.0
124,5,-2.2779904611525126e-05,1.3627461157739162e-05,1.83275988092646e-05,0.001079884939827025,0.0006002610316500068,-0.0010846895165741444,-0.0036956784315407276,-0.05417777597904205,0.007715882267802954,0.0009665148681961,-0.002117888070642948,-0.001122662448324263,0.0,0.0,0.0,0.001111345598474145,-0.001490883412770927,-0.0,0.0,0.0,0.0,0.0007333624525927007,0.016153642907738686,0.0007576600182801485,14843.0,11937.0,12691.0,14395.0,0.4968920648097992,0.31260696053504944,0.35636284947395325,0.4657803475856781,0.0,0.0,0.0,0.0,14840.0,11939.0,12698.0,14389.0,1.6442089080810547,0.057462885494247835,-0.09325412307969722,0.07844982829887628,0.0059067984111607075,0.0033869945909827948,0.0
129,5,-1.5826488379389048e-05,2.8213521545694675e-06,1.4460237252933439e-05,0.0012663638917729259,0.0015368374297395349,3.0207569579943083e-05,-0.0037083097267895937,-0.054183851927518845,0.007719347719103098,-0.0014260598691180348,0.003988048993051052,-0.0005681317416019738,0.0,0.0,0.0,-0.0007166818832047284,0.0009941697353497148,-0.0,0.0,0.0,0.0,0.0006007888587191701,0.016714639961719513,0.000777832290623337,14920.0,11926.0,12678.0,14444.0,0.5023723840713501,0.3119907081127167,0.35560038685798645,0.46912118792533875,0.0,0.0,0.0,0.0,14840.0,11939.0,12698.0,14389.0,1.6379197835922241,0.05737908194893643,-0.09303779648491867,0.07829032277671316,-0.003923782147467136,-0.0021758428774774075,0.0
134,5,-7.100617494870676e-06,4.667552275350317e-06,2.3865663024480455e-05,0.001553650014102459,0.0003931909741368145,-0.001116568106226623,-0.0037083097267895937,-0.054183851927518845,0.007719347719103098,-0.0014260598691180348,0.003988048993051052,-0.0005681317416019738,0.0,0.0,0.0,-0.0007166818832047284,0.0009941697353497148,-0.0,0.0,0.0,0.0,0.0006007888587191701,0.016714639961719513,0.000777832290623337,14920.0,11926.0,12678.0,14444.0,0.5023723840713501,0.3119907081127167,0.35560038685798645,0.46912118792533875,0.0,0.0,0.0,0.0,14840.0,11939.0,12698.0,14389.0,1.6379197835922241,0.057653948022917276,-0.09325168199791949,0.078457143742581,-0.003923782147467136,-0.0021758428774774075,0.0
139,5,-2.782536057566176e-06,2.6095713110407814e-06,1.3565435438067652e-05,0.0011396297486498952,0.00040423410246148705,0.000789400190114975,-0.0037078876048326492,-0.054214850068092346,0.007714598905295134,-0.0031727233435958624,0.002194037428125739,-0.0008476886432617903,0.0,0.0,0.0,-0.00047597562661394477,0.0014625794719904661,-0.0,0.0,0.0,0.0,0.0009874585084617138,0.01596026122570038,0.0007622647099196911,14861.0,11986.0,12778.0,14443.0,0.49817323684692383,0.31541866064071655,0.36159253120422363,0.4690244793891907,0.0,0.0,0.0,0.0,14929.0,11919.0,12680.0,14438.0,1.6419246196746826,0.05768898599084188,-0.09294710755280643,0.07826588405089999,-0.005786612164229155,-0.0014485932188108563,0.0
144,5,-5.044159024691908e-06,-3.1371771456178976e-06,-3.4328877518419176e-07,0.00018445712339598686,0.0008513034554198384,0.001984806964173913,-0.0037078876048326492,-0.054214850068092346,0.007714598905295134,-0.0031727233435958624,0.002194037428125739,-0.0008476886432617903,0.0,0.0,0.0,-0.00047597562661394477,0.0014625794719904661,-0.0,0.0,0.0,0.0,0.0009874585084617138,0.01596026122570038,0.0007622647099196911,14861.0,11986.0,12778.0,14443.0,0.49817323684692383,0.31541866064071655,0.36159253120422363,0.4690244793891907,0.0,0.0,0.0,0.0,14929.0,11919.0,12680.0,14438.0,1.6419246196746826,0.05789612826216138,-0.09302385287791347,0.07838159406481354,-0.005786612164229155,-0.0014485932188108563,0.0
149,5,-4.19840353060863e-06,8.130697096930817e-06,7.789536766722449e-07,0.00017527355521451682,-0.0010116235353052616,0.0006592536810785532,-0.003685563802719116,-0.05422908812761307,0.007704709190875292,-0.0004727281630039215,0.0034361013676971197,-0.0029025538824498653,0.0,0.0,0.0,-0.0010592538164928555,0.00016843107005115598,-0.0,0.0,0.0,0.0,0.0006856592372059822,0.016767853870987892,0.000709664891473949,14884.0,11965.0,12627.0,14476.0,0.49981898069381714,0.31421566009521484,0.3525391221046448,0.47134602069854736,0.0,0.0,0.0,0.0,14925.0,11902.0,12687.0,14433.0,1.634641170501709,0.05823038841013735,-0.0931669921208168,0.07859318589147986,-0.0006634318269789219,-0.0032094521448016167,0.0
155,5,-1.94450967683224e-05,6.9863103817624506e-06,1.4683116205560509e-05,-0.0017594937235116959,-0.00026732299011200666,-0.0014047980075702071,-0.003685563802719116,-0.05422908812761307,0.007704709190875292,-0.0004727281630039215,0.0034361013676971197,-0.0029025538824498653,0.0,0.0,0.0,-0.0010592538164928555,0.00016843107005115598,-0.0,0.0,0.0,0.0,0.0006856592372059822,0.016767853870987892,0.000709664891473949,14884.0,11965.0,12627.0,14476.0,0.49981898069381714,0.31421566009521484,0.3525391221046448,0.47134602069854736,0.0,0.0,0.0,0.0,14925.0,11902.0,12687.0,14433.0,1.634641170501709,0.057606154502722925,-0.09277255625033826,0.07820187636586942,-0.0006634318269789219,-0.0032094521448016167,0.0
160,5,-2.240438698208891e-05,1.9564011381589808e-05,1.5313630683522206e-06,-0.0010589123703539371,-0.0016162532847374678,0.0010162912076339126,-0.003685563802719116,-0.05422908812761307,0.007704709190875292,-0.0004727281630039215,0.0034361013676971197,-0.0029025538824498653,0.0,0.0,0.0,0.0003416203544475138,-0.0016925799427554011,-0.0,0.0,0.0,0.0,0.0006856592372059822,0.016767853870987892,0.000709664891473949,14884.0,11965.0,12627.0,14476.0,0.49981898069381714,0.31421566009521484,0.3525391221046448,0.47134602069854736,0.0,0.0,0.0,0.0,14925.0,11902.0,12687.0,14433.0,1.6441463232040405,0.05796880598348859,-0.09279810682862814,0.07829644544446619,0.006705657113343477,0.0010411007096990943,0.0
165,5,-3.6806377465836704e-05,1.864323712652549e-05,4.578619609674206e-06,-0.00215180404484272,-0.0005360084469430149,4.084569445694797e-05,-0.0037119414191693068,-0.05422596260905266,0.007708960212767124,-0.0024450677447021008,-0.002061472972854972,-0.002705981722101569,0.0,0.0,0.0,0.0003416203544475138,-0.0016925799427554011,-0.0,0.0,0.0,0.0,0.00023824955860618502,0.01659291610121727,0.00023457482166122645,14904.0,11957.0,12664.0,14488.0,0.5012744665145874,0.31377696990966797,0.3547503352165222,0.47212284803390503,0.0,0.0,0.0,0.0,14947.0,11917.0,12682.0,14461.0,1.6441463232040405,0.05731707374178896,-0.09301075343373277,0.078648592776365,0.006705657113343477,0.0010411007096990943,0.0
170,5,-4.003750655101612e-05,1.9086703559878515e-06,1.2577130291901994e-05,-0.0012484570033848286,0.0017937446245923638,-0.0009434829698875546,-0.0037119414191693068,-0.05422596260905266,0.007708960212767124,-0.0024450677447021008,-0.002061472972854972,-0.002705981722101569,0.0,0.0,0.0,0.0006913050310686231,-0.002082051942124963,-0.0,0.0,0.0,0.0,0.00023824955860618502,0.01659291610121727,0.00023457482166122645,14904.0,11957.0,12664.0,14488.0,0.5012744665145874,0.31377696990966797,0.3547503352165222,0.47212284803390503,0.0,0.0,0.0,0.0,14947.0,11917.0,12682.0,14461.0,1.6488850116729736,0.05752644306001437,-0.0929599177491711,0.07798540039358866,0.008272436447441578,0.0021128496155142784,-0.0
175,5,-1.7447853679186665e-05,1.5273226381395943e-05,8.138825251080561e-06,0.0022113758604973555,-0.000886248832102865,0.00015520339366048574,-0.003580081043764949,-0.054315611720085144,0.007583413273096085,0.015553995966911316,0.0005292134592309594,-0.0006024291506037116,0.0,0.0,0.0,0.0006913050310686231,-0.002082051942124963,-0.0,0.0,0.0,0.0,0.0008193020476028323,0.015918608754873276,-0.0007663687574677169,14728.0,12180.0,12415.0,14592.0,0.48885053396224976,0.3264161944389343,0.34005969762802124,0.47931474447250366,0.0,0.0,0.0,0.0,15380.0,11300.0,13247.0,13872.0,1.6488850116729736,0.057566892713142574,-0.09298861913690226,0.07846714023053337,0.008272436447441578,0.0021128496155142784,-0.0
180,5,-2.2191006792127155e-05,1.9947177861467935e-05,2.4459644919261336e-05,0.00031537195900455117,-0.0009153736755251884,-0.001896417117677629,-0.003580081043764949,-0.054315611720085144,0.007583413273096085,0.015553995966911316,0.0005292134592309594,-0.0006024291506037116,0.0,0.0,0.0,0.0011684226337820292,0.00026887209969572723,-0.0,0.0,0.0,0.0,0.0008193020476028323,0.015918608754873276,-0.0007663687574677169,14728.0,12180.0,12415.0,14592.0,0.48885053396224976,0.3264161944389343,0.34005969762802124,0.47931474447250366,0.0,0.0,0.0,0.0,15380.0,11300.0,13247.0,13872.0,1.6357816457748413,0.05737483314116154,-0.09278571874095458,0.0789408875248122,-0.0010597968939691782,0.0035426942631602287,0.0
185,5,-2.3194856112240814e-05,1.0568395509835682e-06,3.5677163396030664e-05,5.686806616722606e-06,0.0019006910733878613,-0.0021046691108494997,-0.0035378942266106606,-0.05430539324879646,0.007768705021589994,-0.0011921734549105167,0.0012334196362644434,-0.09871184825897217,0.0,0.0,0.0,0.0011684226337820292,0.00026887209969572723,-0.0,0.0,0.0,0.0,0.0009355902438983321,0.015623915940523148,0.005235135555267334,16530.0,9551.0,14726.0,12480.0,0.6233474016189575,0.19297952950000763,0.4887118339538574,0.34384626150131226,0.0,0.0,0.0,0.0,13724.0,13309.0,11378.0,15531.0,1.6357816457748413,0.05736268866988161,-0.09327623268449811,0.07771850351575336,-0.0010597968939691782,0.0035426942631602287,0.0
190,5,-8.339452506334055e-06,1.7228585420525633e-05,3.857365663861856e-05,0.0017849230207502842,-0.0011803332017734647,-0.0011894467752426863,-0.0035378942266106606,-0.05430539324879646,0.007768705021589994,-0.0011921734549105167,0.0012334196362644434,-0.09871184825897217,0.0,0.0,0.0,0.0011684226337820292,0.00026887209969572723,-0.0,0.0,0.0,0.0,0.0009355902438983321,0.015623915940523148,0.005235135555267334,16530.0,9551.0,14726.0,12480.0,0.6233474016189575,0.19297952950000763,0.4887118339538574,0.34384626150131226,0.0,0.0,0.0,0.0,13724.0,13309.0,11378.0,15531.0,1.6357816457748413,0.0575142768561083,-0.09258081182412799,0.07830365616306223,-0.0010597968939691782,0.0035426942631602287,0.0
195,5,4.454041118151508e-06,2.159671021217946e-05,1.9824476112262346e-05,0.0022491884883493185,-0.0009963081683963537,0.0017741230549290776,-0.0036423036362975836,-0.054394569247961044,0.0075100744143128395,-0.012747708708047867,0.019585076719522476,0.03538930416107178,0.0,0.0,0.0,0.0014805729733780026,0.0016742656007409096,-0.0,0.0,0.0,0.0,0.0011444560950621963,0.016841653734445572,-0.0004286275652702898,14457.0,12381.0,12185.0,14901.0,0.4699767529964447,0.3380480706691742,0.32673683762550354,0.5010200142860413,0.0,0.0,0.0,0.0,15434.0,11287.0,13439.0,13855.0,1.647536039352417,0.05744571293909368,-0.09285093725056882,0.07857239440646765,-0.006646767724305391,0.0045214006677269936,0.0
200,5,-8.760443051869515e-06,-2.104199893437908e-06,1.7881755411508493e-05,-0.0006860627327114344,0.0024455860257148743,0.0009427755721844733,-0.0036423036362975836,-0.054394569247961044,0.0075100744143128395,-0.012747708708047867,0.019585076719522476,0.03538930416107178,0.0,0.0,0.0,0.0014805729733780026,0.0016742656007409096,-0.0,0.0,0.0,0.0,0.0011444560950621963,0.016841653734445572,-0.0004286275652702898,14457.0,12381.0,12185.0,14901.0,0.4699767529964447,0.3380480706691742,0.32673683762550354,0.5010200142860413,0.0,0.0,0.0,0.0,15434.0,11287.0,13439.0,13855.0,1.647536039352417,0.05719132629755398,-0.09311644866035791,0.07824086236702958,0.0026217750273644924,-0.00918213464319706,-0.0
205,5,-1.4183679013513029e-05,5.048888851888478e-06,-3.8980513750175305e-07,-0.0009252133313566446,0.00011986373283434659,0.0025696975644677877,-0.0035959116648882627,-0.05432109162211418,0.008262328803539276,0.0028899910394102335,0.03496059030294418,-0.12679226696491241,0.0,0.0,0.0,-0.002999342745169997,-0.0006587723037227988,-0.0,0.0,0.0,0.0,0.0009735891362652183,0.016763295978307724,-0.000463835516711697,14098.0,12904.0,11632.0,15397.0,0.44563257694244385,0.3692571520805359,0.2957492470741272,0.5368970632553101,0.0,0.0,0.0,0.0,16214.0,9933.0,14258.0,12925.0,1.6516201496124268,0.05741290688938799,-0.09269987870965253,0.07858080484833146,0.0026217750273644924,-0.00918213464319706,-0.0
210,5,-2.1815010768477805e-05,1.1263659871474374e-05,2.3380047423415817e-05,-0.0012858452973887324,-0.0006978269666433334,-0.0018245032988488674,-0.0035959116648882627,-0.05432109162211418,0.008262328803539276,0.0028899910394102335,0.03496059030294418,-0.12679226696491241,0.0,0.0,0.0,0.00088082579895854,-0.0012500133598223329,-0.0,0.0,0.0,0.0,0.0009735891362652183,0.016763295978307724,-0.000463835516711697,14098.0,12904.0,11632.0,15397.0,0.44563257694244385,0.3692571520805359,0.2957492470741272,0.5368970632553101,0.0,0.0,0.0,0.0,16214.0,9933.0,14258.0,12925.0,1.6409960985183716,0.057467706241120846,-0.09270261221114802,0.07883380337386549,0.004942809231579304,0.002679205499589443,0.0
215,5,-1.3864590073353611e-05,9.012060218083207e-06,1.7893864423967898e-05,0.00043971245759166777,-8.93888409336796e-06,-7.145936251617968e-05,-0.003431411460042,-0.05451563000679016,0.008285091258585453,0.007859011180698872,0.01587592624127865,0.08291001617908478,0.0,0.0,0.0,0.00088082579895854,-0.0012500133598223329,-0.0,0.0,0.0,0.0,0.0009649334824644029,0.017035506665706635,0.0035906904377043247,15892.0,10590.0,13821.0,13473.0,0.5738617777824402,0.24158787727355957,0.42731189727783203,0.4047744870185852,0.0,0.0,0.0,0.0,14006.0,13036.0,11418.0,15528.0,1.6409960985183716,0.057824192935926624,-0.09294308448130102,0.07850371612454991,0.004942809231579304,0.002679205499589443,0.0
220,5,-1.0123012543772347e-05,1.4037550499779172e-05,4.361691389931366e-05,0.0006248743738979101,-0.000606634421274066,-0.003115349914878607,-0.003431411460042,-0.05451563000679016,0.008285091258585453,0.007859011180698872,0.01587592624127865,0.08291001617908478,0.0,0.0,0.0,0.0007764262845739722,0.0005805270629934967,-0.0,0.0,0.0,0.0,0.0009649334824644029,0.017035506665706635,0.0035906904377043247,15892.0,10590.0,13821.0,13473.0,0.5738617777824402,0.24158787727355957,0.42731189727783203,0.4047744870185852,0.0,0.0,0.0,0.0,14006.0,13036.0,11418.0,15528.0,1.6346502304077148,0.057390261355109835,-0.09248143321447028,0.07843718973703771,-0.0022866467479616404,0.002352521289139986,0.0
226,5,1.1137818546558265e-05,1.459761642763624e-05,7.98159817350097e-05,0.0028012495022267103,-0.0003098615852650255,-0.005590027663856745,-0.0035724847111850977,-0.05474000796675682,0.007882533594965935,-0.03663450479507446,-0.021133963018655777,0.016852980479598045,0.0,0.0,0.0,0.0007764262845739722,0.0005805270629934967,-0.0,0.0,0.0,0.0,0.0006669489084742963,0.01601725071668625,-0.00029690266819670796,14537.0,12492.0,12340.0,14829.0,0.4755013585090637,0.3445591330528259,0.3356395959854126,0.4959200620651245,0.0,0.0,0.0,0.0,15113.0,11888.0,12719.0,14420.0,1.6346502304077148,0.057372725257552416,-0.0919157365962062,0.07838398268676236,-0.0022866467479616404,0.002352521289139986,0.0
231,5,1.545236045785714e-05,1.608530328667257e-05,0.0001398330059600994,0.0016382448375225067,-0.0003024670295417309,-0.009438053704798222,-0.0035724847111850977,-0.05474000796675682,0.007882533594965935,-0.03663450479507446,-0.021133963018655777,0.016852980479598045,0.0,0.0,0.0,0.0004016663006041199,0.0015730233862996101,-0.0,0.0,0.0,0.0,0.0006669489084742963,0.01601725071668625,-0.00029690266819670796,14537.0,12492.0,12340.0,14829.0,0.4755013585090637,0.3445591330528259,0.3356395959854126,0.4959200620651245,0.0,0.0,0.0,0.0,15113.0,11888.0,12719.0,14420.0,1.6429568529129028,0.05792300325089402,-0.0918238691055103,0.07810739037145314,-0.006227489560842514,0.0012232073349878192,0.0
236,5,3.45244407071732e-05,6.979560112085892e-06,0.0002030380564974621,0.0029439476784318686,0.0009717022767290473,-0.011359828524291515,-0.0035724847111850977,-0.05474000796675682,0.007882533594965935,-0.03663450479507446,-0.021133963018655777,0.016852980479598045,0.0,0.0,0.0,0.0004016663006041199,0.0015730233862996101,-0.0,0.0,0.0,0.0,0.0006367433816194534,0.016449231654405594,-0.0009114660788327456,14307.0,12672.0,11992.0,15031.0,0.4597572088241577,0.355251669883728,0.3157079219818115,0.5102792978286743,0.0,0.0,0.0,0.0,15453.0,11151.0,13358.0,13900.0,1.6429568529129028,0.05762020754102606,-0.09235612729084504,0.0783129213888448,-0.006227489560842514,0.0012232073349878192,0.0
241,5,3.929983722628094e-05,1.140003132604761e-05,0.00027861050330102444,0.00175062648486346,-0.00014177561388351023,-0.013612623326480389,-0.0035724847111850977,-0.05474000796675682,0.007882533594965935,-0.03663450479507446,-0.021133963018655777,0.016852980479598045,0.0,0.0,0.0,-0.0011732630664482713,0.0028111643623560667,-0.0,0.0,0.0,0.0,0.0006367433816194534,0.016449231654405594,-0.0009114660788327456,14307.0,12672.0,11992.0,15031.0,0.4597572088241577,0.355251669883728,0.3157079219818115,0.5102792978286743,0.0,0.0,0.0,0.0,15453.0,11151.0,13358.0,13900.0,1.6576759815216064,0.05804322089416257,-0.09335441547700687,0.07870847135993402,-0.01122889295220375,-0.0036049848422408104,0.0
246,5,4.047712081955979e-06,-3.828917670034571e-06,0.00037160617648623884,-0.0035300045274198055,0.0017707636579871178,-0.016604533419013023,-0.0035724847111850977,-0.05474000796675682,0.007882533594965935,0.0033989972434937954,-0.1311684548854828,0.06582462042570114,0.0,0.0,0.0,-0.0011732630664482713,0.0028111643623560667,-0.0,0.0,0.0,0.0,0.000678274838719517,0.014746587723493576,0.0023709614761173725,15322.0,11342.0,13447.0,13710.0,0.5313400626182556,0.2801378071308136,0.40312740206718445,0.4200449287891388,0.0,0.0,0.0,0.0,14208.0,12707.0,11967.0,15026.0,1.6576759815216064,0.056746289900759854,-0.09473778319704156,0.07829208128329725,-0.01122889295220375,-0.0036049848422408104,0.0
251,5,-1.7953614587895572e-05,-6.958871381357312e-06,0.0004340455343481153,-0.004052160773426294,0.0010838998714461923,-0.014134534634649754,-0.003504050662741065,-0.0545530840754509,0.007889948785305023,0.0033989972434937954,-0.1311684548854828,0.06582462042570114,0.0,0.0,0.0,-0.00215729302726686,-0.003292559878900647,-0.0,0.0,0.0,0.0,0.000678274838719517,0.014746587723493576,0.0023709614761173725,15322.0,11342.0,13447.0,13710.0,0.5313400626182556,0.2801378071308136,0.40312740206718445,0.4200449287891388,0.0,0.0,0.0,0.0,14208.0,12707.0,11967.0,15026.0,1.6657792329788208,0.05742971167905614,-0.09622480031204972,0.07810552068822027,0.01321603637188673,-0.006660924758762121,0.0
256,5,-3.0583592888433486e-05,-4.034301582578337e-06,0.0005057209637016058,-0.003136462066322565,8.261155016953126e-05,-0.014254867099225521,-0.003504050662741065,-0.0545530840754509,0.007889948785305023,0.0033989972434937954,-0.1311684548854828,0.06582462042570114,0.0,0.0,0.0,-0.00215729302726686,-0.003292559878900647,-0.0,0.0,0.0,0.0,0.000678274838719517,0.014746587723493576,0.0023709614761173725,15322.0,11342.0,13447.0,13710.0,0.5313400626182556,0.2801378071308136,0.40312740206718445,0.4200449287891388,0.0,0.0,0.0,0.0,14208.0,12707.0,11967.0,15026.0,1.6657792329788208,0.056875874063620206,-0.09774415937970904,0.07840040969115748,0.01321603637188673,-0.006660924758762121,0.0
261,5,-0.00010262888827128336,9.536005336485687e-07,0.0006153369322419167,-0.009900020435452461,-0.0005655036075040698,-0.0188558641821146,-0.0039487057365477085,-0.05225206911563873,0.007454159669578075,-0.05735264718532562,-0.26844552159309387,-0.0676281526684761,0.0,0.0,0.0,-0.00010786308848764747,-0.002986204344779253,-0.0,0.0,0.0,0.0,0.0017828823765739799,0.011354424990713596,-0.001446650712750852,13693.0,13194.0,12261.0,14968.0,0.41892799735069275,0.38718077540397644,0.3310755789279938,0.5057724714279175,0.0,0.0,0.0,0.0,14853.0,11982.0,13080.0,14164.0,1.658058762550354,0.0561170410778502,-0.10053390381553723,0.07820478385386351,0.011930830776691437,-0.00033149830414913595,0.0
266,5,-0.0001530531735625118,-2.816170763253467e-07,0.0007191845797933638,-0.010010922327637672,-7.797533180564642e-05,-0.020004061982035637,-0.0039487057365477085,-0.05225206911563873,0.007454159669578075,-0.05735264718532562,-0.26844552159309387,-0.0676281526684761,0.0,0.0,0.0,-0.00010786308848764747,-0.002986204344779253,-0.0,0.0,0.0,0.0,0.0017828823765739799,0.011354424990713596,-0.001446650712750852,13693.0,13194.0,12261.0,14968.0,0.41892799735069275,0.38718077540397644,0.3310755789279938,0.5057724714279175,0.0,0.0,0.0,0.0,14853.0,11982.0,13080.0,14164.0,1.658058762550354,0.05593254221732988,-0.10267982627904162,0.07715325248726937,0.011930830776691437,-0.00033149830414913595,0.0
271,5,-0.00018614777945913374,2.7386622605263256e-06,0.0008116920362226665,-0.00797572173178196,-0.00039362366078421474,-0.019102513790130615,-0.004604690242558718,-0.049445368349552155,0.0076596299186348915,-0.127469003200531,-0.45758476853370667,-0.025450019165873528,0.0,0.0,0.0,-0.00010786308848764747,-0.002986204344779253,-0.0,0.0,0.0,0.0,0.002025919733569026,0.00764470687136054,0.0015382383717224002,14579.0,12293.0,13808.0,13708.0,0.478435218334198,0.33293795585632324,0.4264026880264282,0.419900119304657,0.0,0.0,0.0,0.0,13226.0,13755.0,12927.0,14645.0,1.658058762550354,0.05632375052589278,-0.10548135916374071,0.07729854681118584,0.011930830776691437,-0.00033149830414913595,0.0
276,5,-0.00018628715770319104,6.068282800697489e-06,0.0008647714857943356,-0.0032070144079625607,-0.0005570038920268416,-0.014010543935000896,-0.004604690242558718,-0.049445368349552155,0.0076596299186348915,-0.127469003200531,-0.45758476853370667,-0.025450019165873528,0.0,0.0,0.0,0.0004708597844000906,-0.007511512842029333,-0.0,0.0,0.0,0.0,0.002025919733569026,0.00764470687136054,0.0015382383717224002,14579.0,12293.0,13808.0,13708.0,0.478435218334198,0.33293795585632324,0.4264026880264282,0.419900119304657,0.0,0.0,0.0,0.0,13226.0,13755.0,12927.0,14645.0,1.7090911865234375,0.05657981001268473,-0.10641054872948467,0.07781204286422058,0.03093430958688259,0.0014916446525603533,0.0
281,5,-0.0001688355259830132,-1.3180929272493813e-05,0.0008633344550617039,0.000811389705631882,0.0020871039014309645,-0.005431775934994221,-0.006194026675075293,-0.04379991069436073,0.006295147817581892,-0.10118786245584488,-0.45326656103134155,-0.09658029675483704,0.0,0.0,0.0,0.0004708597844000906,-0.007511512842029333,-0.0,0.0,0.0,0.0,0.002418088261038065,0.0032389068510383368,-0.0026879359502345324,12657.0,14277.0,12512.0,14999.0,0.3543427586555481,0.45770126581192017,0.34574371576309204,0.5079914927482605,0.0,0.0,0.0,0.0,13832.0,13215.0,13535.0,14022.0,1.7090911865234375,0.056576515984089935,-0.10706994683986908,0.07734034993288082,0.03093430958688259,0.0014916446525603533,0.0
287,5,-0.00015791240730322897,-3.177196049364284e-05,0.0008320954511873424,0.0016353303799405694,0.0030657651368528605,0.0015759740490466356,-0.006194026675075293,-0.04379991069436073,0.006295147817581892,-0.10118786245584488,-0.45326656103134155,-0.09658029675483704,0.0,0.0,0.0,-0.0025859137531369925,0.000531872094143182,-0.0,0.0,0.0,0.0,0.002418088261038065,0.0032389068510383368,-0.0026879359502345324,12657.0,14277.0,12512.0,14999.0,0.3543427586555481,0.45770126581192017,0.34574371576309204,0.5079914927482605,0.0,0.0,0.0,0.0,13832.0,13215.0,13535.0,14022.0,1.6479089260101318,0.05604492029627993,-0.10570358450543693,0.0769384641501446,-0.0021119851153343916,-0.00789868738502264,0.0
292,5,-0.00012677378254011273,-1.9670116671477444e-05,0.0008083390421234071,0.0043907673098146915,-0.00022591502056457102,0.00348115642555058,-0.006611647550016642,-0.04094668850302696,0.006634301505982876,0.04447012022137642,-0.11523425579071045,-0.04397967830300331,0.0,0.0,0.0,-0.0025859137531369925,0.000531872094143182,-0.0,0.0,0.0,0.0,0.0013870656257495284,0.00716465013101697,0.0014878467191010714,14571.0,12401.0,13781.0,13653.0,0.47785764932632446,0.3392142653465271,0.42468196153640747,0.41630488634109497,0.0,0.0,0.0,0.0,13759.0,13410.0,12329.0,14873.0,1.6479089260101318,0.056667513835817584,-0.10487847574260177,0.07690675512621331,-0.0021119851153343916,-0.00789868738502264,0.0
297,5,-0.00011075272050220519,-1.863171382865403e-05,0.0007633724599145353,0.003678835229948163,-0.0002149744104826823,0.0067884535528719425,-0.006611647550016642,-0.04094668850302696,0.006634301505982876,0.04447012022137642,-0.11523425579071045,-0.04397967830300331,0.0,0.0,0.0,0.00023908328148536384,0.003921497147530317,-0.0,0.0,0.0,0.0,0.0013870656257495284,0.00716465013101697,0.0014878467191010714,14571.0,12401.0,13781.0,13653.0,0.47785764932632446,0.3392142653465271,0.42468196153640747,0.41630488634109497,0.0,0.0,0.0,0.0,13759.0,13410.0,12329.0,14873.0,1.6684238910675049,0.05675460111596913,-0.10391636767413012,0.07654072903431583,-0.01576554775238037,0.0007393739651888609,-0.0
302,5,-0.00012246014375705272,-2.984702769026626e-05,0.0007440309855155647,6.664291868219152e-05,0.0012598480097949505,0.0050363559275865555,-0.006144207902252674,-0.04149289056658745,0.005516523029655218,0.03846956416964531,0.21268337965011597,-0.01834755949676037,0.0,0.0,0.0,0.00023908328148536384,0.003921497147530317,-0.0,0.0,0.0,0.0,0.000433547975262627,0.017923628911376,-0.00034890277311205864,14487.0,12992.0,12575.0,15067.0,0.4720765948295593,0.3746199607849121,0.34949010610580444,0.5129045248031616,0.0,0.0,0.0,0.0,15099.0,12285.0,13162.0,14548.0,1.6684238910675049,0.05631449086449724,-0.10315946904702754,0.07577685147676246,-0.01576554775238037,0.0007393739651888609,-0.0
307,5,-0.00013330808724276721,-1.4623896277043968e-05,0.0007179456879384816,-0.0012750966707244515,-0.0013228367315605283,0.00514477863907814,-0.006144207902252674,-0.04149289056658745,0.005516523029655218,0.03846956416964531,0.21268337965011597,-0.01834755949676037,0.0,0.0,0.0,-0.001609001075848937,-0.00010801857570186257,-0.0,0.0,0.0,0.0,0.000433547975262627,0.017923628911376,-0.00034890277311205864,14487.0,12992.0,12575.0,15067.0,0.4720765948295593,0.3746199607849121,0.34949010610580444,0.5129045248031616,0.0,0.0,0.0,0.0,15099.0,12285.0,13162.0,14548.0,1.639059066772461,0.05650208900514642,-0.10322192881846579,0.0759420593128389,0.0004266231262590736,-0.004888314753770828,-0.0
312,5,-0.0001368405792163685,-1.8939980463983375e-06,0.0007059884374029934,-0.0009339362732134759,-0.0020567222964018583,0.0034927839878946543,-0.00590958446264267,-0.04340294003486633,0.005622202530503273,0.03018442541360855,0.20811380445957184,-0.09104637801647186,0.0,0.0,0.0,-0.001609001075848937,-0.00010801857570186257,-0.0,0.0,0.0,0.0,0.0010426620719954371,0.013915142975747585,0.0012215564493089914,14644.0,12367.0,12133.0,14942.0,0.48296037316322327,0.3372565805912018,0.32375583052635193,0.5039361715316772,0.0,0.0,0.0,0.0,13958.0,13170.0,11450.0,15441.0,1.639059066772461,0.05660388190710664,-0.10417085336354995,0.07670536641328186,0.0004266231262590736,-0.004888314753770828,-0.0
317,5,-0.0001674334635026753,1.0364071385993157e-05,0.0007160186069086194,-0.004044721368700266,-0.0022936572786420584,0.00019349488138686866,-0.00590958446264267,-0.04340294003486633,0.005622202530503273,0.03018442541360855,0.20811380445957184,-0.09104637801647186,0.0,0.0,0.0,0.0025191206950694323,-0.0010713078081607819,-0.0,0.0,0.0,0.0,0.0010426620719954371,0.013915142975747585,0.0012215564493089914,14644.0,12367.0,12133.0,14942.0,0.48296037316322327,0.3372565805912018,0.32375583052635193,0.5039361715316772,0.0,0.0,0.0,0.0,13958.0,13170.0,11450.0,15441.0,1.6495987176895142,0.05701873681937103,-0.10503311905655846,0.07663737339969795,0.004258366301655769,0.007702558767050505,-0.0
322,5,-0.00024190953990910202,1.1420607734180521e-05,0.0008124731830321252,-0.010555018670856953,-0.0010442472994327545,-0.011497152969241142,-0.0056855385191738605,-0.04445415362715721,0.005147228017449379,0.0011361485812813044,-0.07344899326562881,0.051157835870981216,0.0,0.0,0.0,0.0025191206950694323,-0.0010713078081607819,-0.0,0.0,0.0,0.0,0.0006515347049571574,0.007885762490332127,-3.922652467736043e-05,14041.0,12950.0,13010.0,14154.0,0.4418317973613739,0.37208107113838196,0.37575969099998474,0.44938650727272034,0.0,0.0,0.0,0.0,15302.0,11630.0,13798.0,13664.0,1.6495987176895142,0.05690154310606542,-0.10637738510569536,0.0764734704106993,0.004258366301655769,0.007702558767050505,-0.0
327,5,-0.0002850901219062507,3.004032805620227e-05,0.0009005994070321321,-0.009403678588569164,-0.0026520651299506426,-0.01517400797456503,-0.0056855385191738605,-0.04445415362715721,0.005147228017449379,0.0011361485812813044,-0.07344899326562881,0.051157835870981216,0.0,0.0,0.0,0.001236562617123127,-0.009781274013221264,-0.0,0.0,0.0,0.0,0.0006515347049571574,0.007885762490332127,-3.922652467736043e-05,14041.0,12950.0,13010.0,14154.0,0.4418317973613739,0.37208107113838196,0.37575969099998474,0.44938650727272034,0.0,0.0,0.0,0.0,15302.0,11630.0,13798.0,13664.0,1.7360199689865112,0.05698129577543622,-0.1073682549324269,0.07684761891537738,0.04091615229845047,0.0039790477603673935,0.0
332,5,-0.00029977361555211246,4.027792238048278e-05,0.0009276731871068478,-0.005523489788174629,-0.0022893373388797045,-0.0093184569850564,-0.005481841508299112,-0.04297330975532532,0.005367276258766651,0.007241638842970133,-0.2823542356491089,-0.03657307103276253,0.0,0.0,0.0,0.001236562617123127,-0.009781274013221264,-0.0,0.0,0.0,0.0,0.0011126400204375386,0.009317316114902496,0.00208879797719419,14908.0,11955.0,13808.0,13523.0,0.5015559792518616,0.3136516511440277,0.4264448583126068,0.4079461991786957,0.0,0.0,0.0,0.0,13873.0,13123.0,12927.0,14236.0,1.7360199689865112,0.05763621323667534,-0.10792182514803121,0.07659111332398187,0.04091615229845047,0.0039790477603673935,0.0
338,5,-0.0002995883405674249,4.206153244012967e-05,0.0009224340901710093,-0.002187160775065422,-0.0011297684395685792,-0.0030986887868493795,-0.005481841508299112,-0.04297330975532532,0.005367276258766651,0.007241638842970133,-0.2823542356491089,-0.03657307103276253,0.0,0.0,0.0,0.0028105012606829405,-0.005490700248628855,-0.0,0.0,0.0,0.0,0.0011126400204375386,0.009317316114902496,0.00208879797719419,14908.0,11955.0,13808.0,13523.0,0.5015559792518616,0.3136516511440277,0.4264448583126068,0.4079461991786957,0.0,0.0,0.0,0.0,13873.0,13123.0,12927.0,14236.0,1.6905821561813354,0.057567661443037696,-0.10800902016397702,0.07623118394190007,0.022367220371961594,0.008806991390883923,0.0
343,5,-0.0002758200280368328,5.997775951982476e-05,0.0009096284047700465,0.001977331005036831,-0.0026018545031547546,0.0002972017682623118,-0.005277099087834358,-0.040404051542282104,0.005548696964979172,0.03441602736711502,-0.13435949385166168,0.055529091507196426,0.0,0.0,0.0,0.0028105012606829405,-0.005490700248628855,-0.0,0.0,0.0,0.0,0.0012871919898316264,0.010942313820123672,-0.0010587392607703805,14193.0,13475.0,12812.0,15103.0,0.452039897441864,0.4048736095428467,0.3636608123779297,0.5154456496238708,0.0,0.0,0.0,0.0,14517.0,12415.0,13300.0,14038.0,1.6905821561813354,0.057194513228266415,-0.10745642046662915,0.075989483231595,0.022367220371961594,0.008806991390883923,0.0
348,5,-0.00025356237892992795,6.746988219674677e-05,0.0008531394996680319,0.0034618498757481575,-0.0019397968426346779,0.006897551007568836,-0.005277099087834358,-0.040404051542282104,0.005548696964979172,0.03441602736711502,-0.13435949385166168,0.055529091507196426,0.0,0.0,0.0,0.0032836301252245903,0.0014752474380657077,-0.0,0.0,0.0,0.0,0.0012871919898316264,0.010942313820123672,-0.0010587392607703805,14193.0,13475.0,12812.0,15103.0,0.452039897441864,0.4048736095428467,0.3636608123779297,0.5154456496238708,0.0,0.0,0.0,0.0,14517.0,12415.0,13300.0,14038.0,1.6573786735534668,0.05672233411976992,-0.10677253745309412,0.076321536386725,-0.005891637410968542,0.01008749008178711,-0.0
353,5,-0.00027064289315603673,6.808850594097748e-05,0.0008422837127000093,-0.0006649193819612265,-0.0008501530974172056,0.0040617166087031364,-0.005277099087834358,-0.040404051542282104,0.005548696964979172,0.03441602736711502,-0.13435949385166168,0.055529091507196426,0.0,0.0,0.0,0.0032836301252245903,0.0014752474380657077,-0.0,0.0,0.0,0.0,0.0012871919898316264,0.010942313820123672,-0.0010587392607703805,14193.0,13475.0,12812.0,15103.0,0.452039897441864,0.4048736095428467,0.3636608123779297,0.5154456496238708,0.0,0.0,0.0,0.0,14517.0,12415.0,13300.0,14038.0,1.6573786735534668,0.056743381689804966,-0.10605748992222791,0.0761767440784722,-0.005891637410968542,0.01008749008178711,-0.0
358,5,-0.00030463418806903064,8.542786235921085e-05,0.0008477416122332215,-0.004344924818724394,-0.002420784207060933,0.0009697390487417579,-0.0052389889024198055,-0.04166349023580551,0.005090236198157072,-0.01050405390560627,0.09313006699085236,-0.012385141104459763,0.0,0.0,0.0,0.0011720642214640975,-0.0010093239834532142,-0.0,0.0,0.0,0.0,0.0014738884055987,0.011936486698687077,0.0003980044857598841,14770.0,12810.0,13334.0,14670.0,0.4917409121990204,0.3635631501674652,0.3959333002567291,0.4847826063632965,0.0,0.0,0.0,0.0,14622.0,12972.0,13175.0,14818.0,1.6402565240859985,0.056773587422381006,-0.1063043597357823,0.0760811299809784,0.003989274147897959,0.003563457168638706,-0.0
363,5,-0.00035322472103871405,0.00011065020953537896,0.0008687073132023215,-0.007568834815174341,-0.003994995262473822,-0.0021279919892549515,-0.0052389889024198055,-0.04166349023580551,0.005090236198157072,-0.01050405390560627,0.09313006699085236,-0.012385141104459763,0.0,0.0,0.0,0.0011720642214640975,-0.0010093239834532142,-0.0,0.0,0.0,0.0,0.0014738884055987,0.011936486698687077,0.0003980044857598841,14770.0,12810.0,13334.0,14670.0,0.4917409121990204,0.3635631501674652,0.3959333002567291,0.4847826063632965,0.0,0.0,0.0,0.0,14622.0,12972.0,13175.0,14818.0,1.6402565240859985,0.05645388986897966,-0.10719972686318296,0.07646952034757934,0.003989274147897959,0.003563457168638706,-0.0
368,5,-0.00039737604674883187,0.00011445383279351518,0.0008964237640611827,-0.008325692266225815,-0.0020544331055134535,-0.004177167546004057,-0.005219310987740755,-0.04192916676402092,0.004911528900265694,0.006011520978063345,-0.06460726261138916,0.01731053926050663,0.0,0.0,0.0,0.002616903744637966,-0.008070447482168674,-0.0,0.0,0.0,0.0,0.0016176265198737383,0.010570036247372627,0.0006874468526802957,14612.0,12595.0,13375.0,14321.0,0.4807009994983673,0.3506450355052948,0.39855483174324036,0.460681289434433,0.0,0.0,0.0,0.0,14421.0,12789.0,12866.0,14799.0,1.718327283859253,0.056771478333862306,-0.10780001436468065,0.07595834779931551,0.033415596932172775,0.008334917016327381,0.0
373,5,-0.0004360188322607428,0.0001391073310514912,0.0009205521200783551,-0.0038534917403012514,-0.0028152517043054104,-0.002175833797082305,-0.005219310987740755,-0.04192916676402092,0.004911528900265694,0.006011520978063345,-0.06460726261138916,0.01731053926050663,0.0,0.0,0.0,0.002616903744637966,-0.008070447482168674,-0.0,0.0,0.0,0.0,0.0016176265198737383,0.010570036247372627,0.0006874468526802957,14612.0,12595.0,13375.0,14321.0,0.4807009994983673,0.3506450355052948,0.39855483174324036,0.460681289434433,0.0,0.0,0.0,0.0,14421.0,12789.0,12866.0,14799.0,1.718327283859253,0.05678299527871372,-0.10894499717026171,0.07688296217103135,0.033415596932172775,0.008334917016327381,0.0
378,5,-0.0004360188322607428,0.0001391073310514912,0.0009205521200783551,-0.0038534917403012514,-0.0028152517043054104,-0.002175833797082305,-0.005178415682166815,-0.040540389716625214,0.004872113931924105,0.013733685947954655,-0.141842320561409,-0.033768970519304276,0.0,0.0,0.0,0.002616903744637966,-0.008070447482168674,-0.0,0.0,0.0,0.0,0.0016518553020432591,0.01009424403309822,-0.0004668778565246612,14037.0,12963.0,12818.0,14585.0,0.44157397747039795,0.3728752136230469,0.3640482425689697,0.47888123989105225,0.0,0.0,0.0,0.0,14709.0,12157.0,13428.0,14057.0,1.6805895566940308,0.05678299527871372,-0.10894499717026171,0.07688296217103135,0.01685890555381775,0.01132406760007143,0.0
383,5,-0.0004379805759526789,0.00014808570267632604,0.0009160044137388468,-0.0017768061952665448,-0.0022035043220967054,-0.00032461038790643215,-0.005178415682166815,-0.040540389716625214,0.004872113931924105,0.013733685947954655,-0.141842320561409,-0.033768970519304276,0.0,0.0,0.0,0.0036352474708110094,-0.004163129720836878,-0.0,0.0,0.0,0.0,0.0016518553020432591,0.01009424403309822,-0.0004668778565246612,14037.0,12963.0,12818.0,14585.0,0.44157397747039795,0.3728752136230469,0.3640482425689697,0.47888123989105225,0.0,0.0,0.0,0.0,14709.0,12157.0,13428.0,14057.0,1.6805895566940308,0.05728900479630695,-0.108932577262119,0.0765523166011134,0.01685890555381775,0.01132406760007143,0.0
388,5,-0.0004553839680738747,0.00014731856936123222,0.0009230098221451044,-0.0027991272509098053,-0.0007893461151979864,-0.000970491673797369,-0.005337737966328859,-0.03968155384063721,0.005236419849097729,-0.021103303879499435,-0.06179054453969002,0.059010233730077744,0.0,0.0,0.0,0.0036352474708110094,-0.004163129720836878,-0.0,0.0,0.0,0.0,0.0016166288405656815,0.010197185911238194,0.0022422554902732372,14955.0,11734.0,13803.0,13523.0,0.5048384070396423,0.3013533651828766,0.42607322335243225,0.407991498708725,0.0,0.0,0.0,0.0,14236.0,12639.0,13088.0,14185.0,1.6805895566940308,0.05732915126013542,-0.10815394366317654,0.07618214873803798,0.01685890555381775,0.01132406760007143,0.0
393,5,-0.0005014124908484519,0.00017109321197494864,0.0009345992584712803,-0.004157195333391428,-0.0013796387938782573,0.0002457275695633143,-0.005337737966328859,-0.03968155384063721,0.005236419849097729,-0.021103303879499435,-0.06179054453969002,0.059010233730077744,0.0,0.0,0.0,0.0012243185192346573,-0.003248578403145075,-0.0,0.0,0.0,0.0,0.0016166288405656815,0.010197185911238194,0.0022422554902732372,14955.0,11734.0,13803.0,13523.0,0.5048384070396423,0.3013533651828766,0.42607322335243225,0.407991498708725,0.0,0.0,0.0,0.0,14236.0,12639.0,13088.0,14185.0,1.6624091863632202,0.05756595613933493,-0.10715227252174725,0.07691323987322025,0.013013140298426151,0.003772599622607231,0.0
398,5,-0.0005255915457382798,0.0001736809645080939,0.0009304353734478354,-0.0045643639750778675,-0.0008623864268884063,0.000597959675360471,-0.005505464971065521,-0.04015060141682625,0.005324065685272217,-0.013618022203445435,0.08682078868150711,3.8770089304307476e-05,0.0,0.0,0.0,0.0012243185192346573,-0.003248578403145075,-0.0,0.0,0.0,0.0,0.0018313665641471744,0.011592009104788303,0.0003729384334292263,14653.0,12748.0,13303.0,14615.0,0.48359185457229614,0.3597841262817383,0.3939976096153259,0.4809536933898926,0.0,0.0,0.0,0.0,14936.0,12402.0,13927.0,14032.0,1.6624091863632202,0.05711734133084431,-0.10734226628067801,0.07657718340625105,0.013013140298426151,0.003772599622607231,0.0
404,5,-0.0005433060578070581,0.00018966326024383307,0.0009335817885585129,-0.003951487597078085,-0.0022628309670835733,-0.0001383888884447515,-0.005505464971065521,-0.04015060141682625,0.005324065685272217,-0.013618022203445435,0.08682078868150711,3.8770089304307476e-05,0.0,0.0,0.0,0.0013454318977892399,-0.004942754283547401,-0.0,0.0,0.0,0.0,0.0018313665641471744,0.011592009104788303,0.0003729384334292263,14653.0,12748.0,13303.0,14615.0,0.48359185457229614,0.3597841262817383,0.3939976096153259,0.4809536933898926,0.0,0.0,0.0,0.0,14936.0,12402.0,13927.0,14032.0,1.6809771060943604,0.05724573396286525,-0.10824481623629065,0.07672986405207402,0.020020758733153343,0.0041921017691493034,-0.0
409,5,-0.0005540304118767381,0.0002004417183343321,0.0009021936566568911,-0.002867518225684762,-0.0021985466592013836,0.00371122220531106,-0.005387966521084309,-0.040932293981313705,0.005505234003067017,0.0071510495617985725,0.0555666983127594,-0.020109331235289574,0.0,0.0,0.0,0.0013454318977892399,-0.004942754283547401,-0.0,0.0,0.0,0.0,0.0015764239942654967,0.012962252832949162,0.0004210180777590722,14640.0,12483.0,13053.0,14536.0,0.48267245292663574,0.3440324664115906,0.37842363119125366,0.4754610061645508,0.0,0.0,0.0,0.0,14308.0,12745.0,12828.0,14577.0,1.6809771060943604,0.05749351799460071,-0.10850473143733878,0.07712291221260213,0.020020758733153343,0.0041921017691493034,-0.0
414,5,-0.0005827153800055385,0.00021267289412207901,0.0009081581956706941,-0.004589200485497713,-0.0023471603635698557,0.0007687414763495326,-0.005387966521084309,-0.040932293981313705,0.005505234003067017,0.0071510495617985725,0.0555666983127594,-0.020109331235289574,0.0,0.0,0.0,0.0030192199628800154,-0.0034315832890570164,-0.0,0.0,0.0,0.0,0.0015764239942654967,0.012962252832949162,0.0004210180777590722,14640.0,12483.0,13053.0,14536.0,0.48267245292663574,0.3440324664115906,0.37842363119125366,0.4754610061645508,0.0,0.0,0.0,0.0,14308.0,12745.0,12828.0,14577.0,1.6708475351333618,0.057106196817372834,-0.10882783013126383,0.07687501053792722,0.013815940357744694,0.009350588545203209,-0.0
419,5,-0.0006159900804050267,0.00021546441712416708,0.0009281117236241698,-0.005828642752021551,-0.001273846602998674,-0.002086922526359558,-0.005583947990089655,-0.04046393185853958,0.005488985683768988,-0.019605323672294617,-0.09693500399589539,0.03402773663401604,0.0,0.0,0.0,0.0030192199628800154,-0.0034315832890570164,-0.0,0.0,0.0,0.0,0.001665417687036097,0.009898039512336254,0.0014344879891723394,14728.0,12207.0,13605.0,13898.0,0.4888518154621124,0.32799574732780457,0.4132266938686371,0.43233492970466614,0.0,0.0,0.0,0.0,14807.0,12136.0,13782.0,13700.0,1.6708475351333618,0.05755036443795346,-0.10918828028332121,0.07676555626569982,0.013815940357744694,0.009350588545203209,-0.0
424,5,-0.0006595185259357095,0.00023266562493517995,0.0009630300919525325,-0.007554870564490557,-0.0025736833922564983,-0.005024976097047329,-0.005583947990089655,-0.04046393185853958,0.005488985683768988,-0.019605323672294617,-0.09693500399589539,0.03402773663401604,0.0,0.0,0.0,0.0018982228357344866,-0.006182800978422165,-0.0,0.0,0.0,0.0,0.001665417687036097,0.009898039512336254,0.0014344879891723394,14728.0,12207.0,13605.0,13898.0,0.4888518154621124,0.32799574732780457,0.4132266938686371,0.43233492970466614,0.0,0.0,0.0,0.0,14807.0,12136.0,13782.0,13700.0,1.695715069770813,0.0573095310753553,-0.11011048600652137,0.07703236275326057,0.025263091549277306,0.005966342054307461,0.0
429,5,-0.0006871178047731519,0.00024286469852086157,0.0009952881373465061,-0.006333864759653807,-0.002253362676128745,-0.005880947224795818,-0.005667514633387327,-0.03943962976336479,0.005577759817242622,-0.010150178335607052,-0.12939146161079407,-0.018695950508117676,0.0,0.0,0.0,0.0018982228357344866,-0.006182800978422165,-0.0,0.0,0.0,0.0,0.0016489728586748242,0.00785976555198431,0.0003076140710618347,14259.0,12913.0,13386.0,14244.0,0.456462025642395,0.3698112368583679,0.3992248773574829,0.4554789662361145,0.0,0.0,0.0,0.0,14807.0,12136.0,13782.0,13700.0,1.695715069770813,0.05741011493056422,-0.10935865327771747,0.07654673585606832,0.025263091549277306,0.005966342054307461,0.0
434,5,-0.0007090599392540753,0.0002436530776321888,0.0009858084376901388,-0.005166599527001381,-0.0009959498420357704,-0.001214822637848556,-0.005667514633387327,-0.03943962976336479,0.005577759817242622,-0.010150178335607052,-0.12939146161079407,-0.018695950508117676,0.0,0.0,0.0,0.0030990703962743282,-0.006708160508424044,-0.0,0.0,0.0,0.0,0.0016489728586748242,0.00785976555198431,0.0003076140710618347,14259.0,12913.0,13386.0,14244.0,0.456462025642395,0.3698112368583679,0.3992248773574829,0.4554789662361145,0.0,0.0,0.0,0.0,14807.0,12136.0,13782.0,13700.0,1.7044795751571655,0.057436507457012384,-0.10920847479634413,0.07686506254385682,0.027551282197237015,0.009791078977286816,0.0
439,5,-0.0007092008017934859,0.0002654075506143272,0.0009825211018323898,-0.0020835460163652897,-0.003008915577083826,-9.144405339611694e-05,-0.0055838036350905895,-0.03886380419135094,0.005528794601559639,-0.004422165919095278,-0.00744351651519537,-0.0016647846205160022,0.0,0.0,0.0,0.0030990703962743282,-0.006708160508424044,-0.0,0.0,0.0,0.0,0.001745361601933837,0.010605917312204838,0.0006915753474459052,14536.0,12498.0,13305.0,14257.0,0.4754818379878998,0.34489569067955017,0.39411064982414246,0.4563593566417694,0.0,0.0,0.0,0.0,14277.0,12951.0,13235.0,14331.0,1.7044795751571655,0.057244225937852056,-0.10885718096154332,0.07691373584293694,0.027551282197237015,0.009791078977286816,0.0
444,5,-0.0007015423616394401,0.0002897088706959039,0.0009674526518210769,8.559710840927437e-05,-0.004119725897908211,0.0017716335132718086,-0.0055838036350905895,-0.03886380419135094,0.005528794601559639,-0.004422165919095278,-0.00744351651519537,-0.0016647846205160022,0.0,0.0,0.0,0.004112365655601025,-0.002912078285589814,-0.0,0.0,0.0,0.0,0.001745361601933837,0.010605917312204838,0.0006915753474459052,14536.0,12498.0,13305.0,14257.0,0.4754818379878998,0.34489569067955017,0.39411064982414246,0.4563593566417694,0.0,0.0,0.0,0.0,14277.0,12951.0,13235.0,14331.0,1.672587513923645,0.05685177427728017,-0.1091034677050464,0.07680209790377486,0.011736525222659111,0.012749317102134228,0.0
449,5,-0.0007314637186937034,0.00029686998459510505,0.0009664984536357224,-0.003556326264515519,-0.0025072223506867886,0.0008231583051383495,-0.005493823904544115,-0.03924761712551117,0.005387175362557173,0.005232261493802071,0.05947256460785866,0.0075377775356173515,0.0,0.0,0.0,0.004112365655601025,-0.002912078285589814,-0.0,0.0,0.0,0.0,0.0012492035748437047,0.011533212848007679,0.0006024714093655348,14686.0,12605.0,13268.0,14411.0,0.48585113883018494,0.35123738646507263,0.3917727768421173,0.4668537676334381,0.0,0.0,0.0,0.0,14797.0,12429.0,13443.0,14286.0,1.672587513923645,0.05620363391307887,-0.10969925452723961,0.07678885044738848,0.011736525222659111,0.012749317102134228,0.0
454,5,-0.0007709090714342892,0.0002954060328193009,0.0009865713072940707,-0.006155974697321653,-0.0008272162522189319,-0.002079485449939966,-0.005493823904544115,-0.03924761712551117,0.005387175362557173,0.005232261493802071,0.05947256460785866,0.0075377775356173515,0.0,0.0,0.0,0.003543097758665681,-0.004290951415896416,-0.0,0.0,0.0,0.0,0.0012492035748437047,0.011533212848007679,0.0006024714093655348,14686.0,12605.0,13268.0,14411.0,0.48585113883018494,0.35123738646507263,0.3917727768421173,0.4668537676334381,0.0,0.0,0.0,0.0,14797.0,12429.0,13443.0,14286.0,1.6813559532165527,0.056058372049123534,-0.11014689659722018,0.07688094620541003,0.01738445647060871,0.011042050085961819,-0.0
459,5,-0.0008147790795192122,0.000295633653877303,0.001003837096504867,-0.007726787123829126,-0.0003581995260901749,-0.0029036840423941612,-0.005555968731641769,-0.03949257358908653,0.005309730302542448,0.007384405937045813,-0.016729071736335754,-0.022581428289413452,0.0,0.0,0.0,0.003543097758665681,-0.004290951415896416,-0.0,0.0,0.0,0.0,0.001680999994277954,0.01023139338940382,0.00017406737606506795,14452.0,12885.0,13258.0,14538.0,0.46968063712120056,0.36806777119636536,0.391159325838089,0.4755718410015106,0.0,0.0,0.0,0.0,14328.0,12988.0,13302.0,14530.0,1.6813559532165527,0.05687456560113594,-0.1105278549894586,0.07653554476175019,0.01738445647060871,0.011042050085961819,-0.0
464,5,-0.000847568444442004,0.0003036519337911159,0.001003340119495988,-0.0070254383608698845,-0.0011054748902097344,-0.0011018337681889534,-0.005555968731641769,-0.03949257358908653,0.005309730302542448,0.007384405937045813,-0.016729071736335754,-0.022581428289413452,0.0,0.0,0.0,0.0009360170224681497,-0.008097449317574501,-0.0,0.0,0.0,0.0,0.001680999994277954,0.01023139338940382,0.00017406737606506795,14452.0,12885.0,13258.0,14538.0,0.46968063712120056,0.36806777119636536,0.391159325838089,0.4755718410015106,0.0,0.0,0.0,0.0,14328.0,12988.0,13302.0,14530.0,1.7161377668380737,0.0562274547139085,-0.11079351086391419,0.07666233692047762,0.033484771847724915,0.002977448981255293,0.0
