timestamp,dt,pos_x,pos_y,pos_z,vel_x,vel_y,vel_z,roll,pitch,yaw,agv_x,agv_y,agv_z,x_ref,y_ref,z_ref,roll_ref,pitch_ref,yaw_ref,x_vel_ref,y_vel_ref,z_vel_ref,x_torque,y_torque,z_torque,w0,w1,w2,w3,u0,u1,u2,u3,m0req,m1req,m2req,m3req,thrust0,thrust1,thrust2,thrust3,thrust_ref,roll_vicon,pitch_vicon,yaw_vicon,acc_x,acc_y,acc_z
5,5,0.0,0.0,0.0,-0.001148275681771338,0.00014425997505895793,-0.000576336751691997,-0.004133563954383135,-0.04123929142951965,0.0064949397929012775,0.0005401402013376355,-0.0014848941937088966,-0.0010420855833217502,0.0,0.0,0.0,-0.00017823028611019254,-0.001091285957954824,-0.0,0.0,0.0,0.0,0.0008898254600353539,0.01244310475885868,0.0006379008409567177,1495.0,1495.0,1495.0,1495.0,0.0,0.0,0.0,0.0,0.0,0.0,0.0,0.0,1495.0,1495.0,1495.0,1495.0,1.637521743774414,0.03363941439172161,-0.10992927847070746,-0.10022882317894444,0.004306033719331026,-0.0005409748991951346,0.0
35,30,0.0,0.0,0.0,-0.0006778027163818479,-0.0011246243957430124,-0.002388318767771125,-0.004133563954383135,-0.04123929142951965,0.0064949397929012775,0.0005401402013376355,-0.0014848941937088966,-0.0010420855833217502,0.0,0.0,0.0,-0.00017823028611019254,-0.001091285957954824,-0.0,0.0,0.0,0.0,0.0008898254600353539,0.01244310475885868,0.0006379008409567177,1495.0,1495.0,1495.0,1495.0,0.0,0.0,0.0,0.0,0.0,0.0,0.0,0.0,1495.0,1495.0,1495.0,1495.0,1.637521743774414,0.03394292927446159,-0.10986474125688071,-0.10005048381533681,0.004306033719331026,-0.0005409748991951346,0.0
40,5,0.0,0.0,0.0,-0.0005234394920989871,0.00023036585480440408,-0.0001680789137026295,-0.004133563954383135,-0.04123929142951965,0.0064949397929012775,0.0005401402013376355,-0.0014848941937088966,-0.0010420855833217502,0.0,0.0,0.0,-0.00017823028611019254,-0.001091285957954824,-0.0,0.0,0.0,0.0,0.0008898254600353539,0.01244310475885868,0.0006379008409567177,1495.0,1495.0,1495.0,1495.0,0.0,0.0,0.0,0.0,0.0,0.0,0.0,0.0,1495.0,1495.0,1495.0,1495.0,1.637521743774414,0.03389970225216083,-0.10964415217879245,-0.10027878860234189,0.004306033719331026,-0.0005409748991951346,0.0
46,5,0.0,0.0,0.0,-0.0006658419733867049,-0.0008011926547624171,0.0007114505860954523,-0.0041426317766308784,-0.041263431310653687,0.00646052835509181,-0.004987188149243593,0.002455064095556736,-0.0006021018489263952,0.0,0.0,0.0,-0.00028565098182298243,-0.0004992760950699449,-0.0,0.0,0.0,0.0,0.0008219503797590733,0.012127072550356388,0.0005266613443382084,1495.0,1495.0,1495.0,1495.0,0.0,0.0,0.0,0.0,0.0,0.0,0.0,0.0,1495.0,1495.0,1495.0,1495.0,1.6315677165985107,0.03458585519744006,-0.10923236442600746,-0.10057785083504611,0.001962898066267371,-0.0008638719446025789,0.0
57,12,0.0,0.0,0.0,-0.000734110304620117,-0.0005843079998157918,-0.0012919849250465631,-0.0041426317766308784,-0.041263431310653687,0.00646052835509181,-0.004987188149243593,0.002455064095556736,-0.0006021018489263952,0.0,0.0,0.0,-0.00028565098182298243,-0.0004992760950699449,-0.0,0.0,0.0,0.0,0.0007724698516540229,0.012064824812114239,0.0005764276720583439,1495.0,1495.0,1495.0,1495.0,0.0,0.0,0.0,0.0,0.0,0.0,0.0,0.0,1495.0,1495.0,1495.0,1495.0,1.6315677165985107,0.033975241125883265,-0.10959596036972785,-0.10018789721224383,0.001962898066267371,-0.0008638719446025789,0.0
62,5,-9.292089657719771e-07,-5.504003183887107e-06,2.7288067485642387e-06,-0.00040514921420253813,0.00042675717850215733,-0.0008442507823929191,-0.0041426317766308784,-0.041263431310653687,0.00646052835509181,-0.004987188149243593,0.002455064095556736,-0.0006021018489263952,0.0,0.0,0.0,0.0007228837930597365,-0.0006986259249970317,-0.0,0.0,0.0,0.0,0.0007724698516540229,0.012064824812114239,0.0005764276720583439,1495.0,1495.0,1495.0,1495.0,0.0,0.0,0.0,0.0,0.0,0.0,0.0,0.0,1495.0,1495.0,1495.0,1495.0,1.635295033454895,0.03398745068203566,-0.1095486091571801,-0.10014396110470893,0.0027529136277735233,0.002191154984757304,0.0
67,5,-8.394874384975992e-06,-5.752899232902564e-05,-2.0634897737181745e-05,-0.0010579394875094295,0.006413701456040144,0.0024659442715346813,-0.004145819693803787,-0.04125785455107689,0.006437447387725115,0.0011846267152577639,-0.002680858364328742,0.0006108919042162597,0.0,0.0,0.0,0.0007228837930597365,-0.0006986259249970317,-0.0,0.0,0.0,0.0,0.0007724698516540229,0.012064824812114239,0.0005764276720583439,1495.0,1495.0,1495.0,1495.0,0.0,0.0,0.0,0.0,0.0,0.0,0.0,0.0,1495.0,1495.0,1495.0,1495.0,1.635295033454895,0.035050149809003714,-0.10941428552644986,-0.10108599616540948,0.0027529136277735233,0.002191154984757304,0.0
73,5,-9.402187970408704e-06,-6.404249143088236e-05,-2.1771411411464214e-05,-0.000544053444173187,0.0033471009228378534,0.001122759422287345,-0.004145819693803787,-0.04125785455107689,0.006437447387725115,0.0011846267152577639,-0.002680858364328742,0.0006108919042162597,0.0,0.0,0.0,-0.007768305949866772,-0.0009842126164585352,-0.0,0.0,0.0,0.0,0.000793744926340878,0.012073095887899399,0.0006551647675223649,14565.0,12318.0,12991.0,14180.0,0.47743308544158936,0.33438438177108765,0.37455129623413086,0.4511529803276062,0.0,0.0,0.0,0.0,1495.0,1495.0,1495.0,1495.0,1.692360281944275,0.03498363177438821,-0.10952431548086106,-0.10101599352822958,0.004013474099338055,-0.02436799183487892,0.0
79,6,-9.008876986627001e-06,-6.12060830462724e-05,-1.6150794181157835e-05,-0.00017042408580891788,0.0009984709322452545,-0.00022537048789672554,-0.004145819693803787,-0.04125785455107689,0.006437447387725115,0.0011846267152577639,-0.002680858364328742,0.0006108919042162597,0.0,0.0,0.0,-0.007768305949866772,-0.0009842126164585352,-0.0,0.0,0.0,0.0,0.000793744926340878,0.012073095887899399,0.0006551647675223649,14565.0,12318.0,12991.0,14180.0,0.47743308544158936,0.33438438177108765,0.37455129623413086,0.4511529803276062,0.0,0.0,0.0,0.0,1495.0,1495.0,1495.0,1495.0,1.692360281944275,0.034738899845985355,-0.10949934646682564,-0.10092842425106942,0.004013474099338055,-0.02436799183487892,0.0
84,5,-1.8274713511345908e-05,-5.305482045514509e-05,-2.2603931938647293e-05,-0.001180069986730814,-0.0005787628469988704,0.0006842283182777464,-0.004145819693803787,-0.04125785455107689,0.006437447387725115,0.0011846267152577639,-0.002680858364328742,0.0006108919042162597,0.0,0.0,0.0,-0.001345082651823759,-0.00017459661467000842,-0.0,0.0,0.0,0.0,0.000793744926340878,0.012073095887899399,0.0006551647675223649,14565.0,12318.0,12991.0,14180.0,0.47743308544158936,0.33438438177108765,0.37455129623413086,0.4511529803276062,0.0,0.0,0.0,0.0,1495.0,1495.0,1495.0,1495.0,1.6369779109954834,0.035069699830796004,-0.109341655230949,-0.10116861596625787,0.0006887000636197627,-0.004081314895302057,0.0
89,5,-1.641271956032142e-05,-4.238395922584459e-05,-1.4366588402481284e-05,-0.0002485888253431767,-0.0015120086027309299,-0.0007147897267714143,-0.004159170668572187,-0.04128987714648247,0.00643971236422658,0.00013555650366470218,0.0028708891477435827,-0.00030600730678997934,0.0,0.0,0.0,-0.001345082651823759,-0.00017459661467000842,-0.0,0.0,0.0,0.0,0.00078790687257424,0.012065245769917965,0.0005891888285987079,14536.0,12356.0,12957.0,14207.0,0.47547292709350586,0.33658546209335327,0.3725188970565796,0.45294445753097534,0.0,0.0,0.0,0.0,14568.0,12315.0,12980.0,14189.0,1.6369779109954834,0.03490422516642387,-0.1094034316369711,-0.10096477750632268,0.0006887000636197627,-0.004081314895302057,0.0
94,5,-3.934581400244497e-06,-4.890668787993491e-05,-3.0530554795404896e-05,0.0013979411451146007,0.0001779238082235679,0.0016537599731236696,-0.004159170668572187,-0.04128987714648247,0.00643971236422658,0.00013555650366470218,0.0028708891477435827,-0.00030600730678997934,0.0,0.0,0.0,0.0017875448102131486,-0.00025864862254820764,-0.0,0.0,0.0,0.0,0.00078790687257424,0.012065245769917965,0.0005891888285987079,14536.0,12356.0,12957.0,14207.0,0.47547292709350586,0.33658546209335327,0.3725188970565796,0.45294445753097534,0.0,0.0,0.0,0.0,14568.0,12315.0,12980.0,14189.0,1.6407517194747925,0.035234819453865064,-0.10946506012199607,-0.10107466763786974,0.0010225963778793812,0.005436356645077467,0.0
99,5,-1.1254956007178407e-05,-5.526966924662702e-05,-4.402456397656351e-05,-0.00031926846713759005,0.000834727194160223,0.002280785236507654,-0.004138213582336903,-0.04130000248551369,0.0064347111620008945,0.0006047183996997774,-0.0004415732400957495,-0.0008379884529858828,0.0,0.0,0.0,0.0017875448102131486,-0.00025864862254820764,-0.0,0.0,0.0,0.0,-0.0007231131894513965,0.012061680667102337,0.0006466877530328929,14541.0,12306.0,12965.0,14205.0,0.4757874011993408,0.33368587493896484,0.37298786640167236,0.452833890914917,0.0,0.0,0.0,0.0,14547.0,12294.0,12984.0,14192.0,1.6407517194747925,0.03522777006808439,-0.10947693355626992,-0.10127288518874449,0.0010225963778793812,0.005436356645077467,0.0
104,5,-5.550394689635141e-06,-5.121330468682572e-05,-2.8522801585495472e-05,0.0005568399210460484,-0.00015287271526176482,-0.0009478974970988929,-0.004138213582336903,-0.04130000248551369,0.0064347111620008945,0.0006047183996997774,-0.0004415732400957495,-0.0008379884529858828,0.0,0.0,0.0,-0.0011329668341204524,-0.0003195113968104124,-0.0,0.0,0.0,0.0,-0.0007231131894513965,0.012061680667102337,0.0006466877530328929,14541.0,12306.0,12965.0,14205.0,0.4757874011993408,0.33368587493896484,0.37298786640167236,0.452833890914917,0.0,0.0,0.0,0.0,14547.0,12294.0,12984.0,14192.0,1.635675072669983,0.03523743828386827,-0.10949546778189713,-0.10083375469130612,0.0012593168066814542,-0.0034349674824625254,0.0
109,5,-1.9085693736542453e-07,-5.936449088039808e-05,-4.1529001464368775e-05,0.0008658805163577199,0.0009169932454824448,0.0011815851321443915,-0.004162791650742292,-0.04129224270582199,0.00641762837767601,-0.003722964785993099,-0.0022047001402825117,-0.00034916214644908905,0.0,0.0,0.0,-0.0011329668341204524,-0.0003195113968104124,-0.0,0.0,0.0,0.0,0.0006189828854985535,0.012447248212993145,0.0005851700552739203,14564.0,12341.0,12916.0,14221.0,0.4773609936237335,0.3357459604740143,0.3699614107608795,0.4539095461368561,0.0,0.0,0.0,0.0,14824.0,12698.0,13071.0,14317.0,1.635675072669983,0.035180945479815214,-0.1091245948174674,-0.1008772459099611,0.0012593168066814542,-0.0034349674824625254,0.0
114,5,-1.0394587945938838e-07,-4.699662167695351e-05,-1.6615378626738675e-05,0.00035678152926266193,-0.001117347041144967,-0.0025170007720589638,-0.004162791650742292,-0.04129224270582199,0.00641762837767601,-0.003722964785993099,-0.0022047001402825117,-0.00034916214644908905,0.0,0.0,0.0,-0.0012395191006362438,0.0008217409485951066,-0.0,0.0,0.0,0.0,0.0006189828854985535,0.012447248212993145,0.0005851700552739203,14564.0,12341.0,12916.0,14221.0,0.4773609936237335,0.3357459604740143,0.3699614107608795,0.4539095461368561,0.0,0.0,0.0,0.0,14824.0,12698.0,13071.0,14317.0,1.6392347812652588,0.03474062118057715,-0.10954971014002496,-0.10085098832173527,-0.00324584380723536,-0.003766194451600313,0.0
119,5,-4.7324697334261145e-06,-4.6989509428385645e-05,-1.7382649275532458e-06,-0.00041271024383604527,-0.0004477923212107271,-0.0027920540887862444,-0.00415586493909359,-0.04130149632692337,0.006415929179638624,0.003830110188573599,0.0006327196606434882,-0.0015457338886335492,0.0,0.0,0.0,-0.0012395191006362438,0.0008217409485951066,-0.0,0.0,0.0,0.0,0.0011657841969281435,0.012432711198925972,0.0006335057551041245,14566.0,12293.0,12989.0,14249.0,0.4775044620037079,0.3329540193080902,0.3744647800922394,0.455828458070755,0.0,0.0,0.0,0.0,14538.0,12322.0,12974.0,14267.0,1.6392347812652588,0.03471633074593423,-0.10975412144781946,-0.10075421189155723,-0.00324584380723536,-0.003766194451600313,0.0
125,5,-6.284944447543239e-06,-3.5996166843688115e-05,3.847327661787858e-06,-0.00035138108069077134,-0.0014983180444687605,-0.0017870926531031728,-0.00415586493909359,-0.04130149632692337,0.006415929179638624,0.003830110188573599,0.0006327196606434882,-0.0015457338886335492,0.0,0.0,0.0,0.000469445891212672,-0.00040034015546552837,-0.0,0.0,0.0,0.0,0.0011657841969281435,0.012432711198925972,0.0006335057551041245,14566.0,12293.0,12989.0,14249.0,0.4775044620037079,0.3329540193080902,0.3744647800922394,0.455828458070755,0.0,0.0,0.0,0.0,14538.0,12322.0,12974.0,14267.0,1.6314997673034668,0.03464957568964271,-0.10939556433358423,-0.10071096032832676,0.001573866931721568,0.0014196493430063128,0.0
130,5,6.556360403919825e-06,-3.575320079107769e-05,-1.4348848935696878e-06,0.0014004041440784931,-0.0006284830160439014,-8.097157842712477e-05,-0.004164348356425762,-0.04130667820572853,0.006407634820789099,0.0020832603331655264,-0.002307469490915537,-0.0012928311480209231,0.0,0.0,0.0,0.000469445891212672,-0.00040034015546552837,-0.0,0.0,0.0,0.0,0.0006711589521728456,0.012355993501842022,0.0007785244379192591,14572.0,12322.0,12933.0,14195.0,0.4779179096221924,0.33459949493408203,0.37100642919540405,0.45215123891830444,0.0,0.0,0.0,0.0,14589.0,12310.0,12951.0,14170.0,1.6314997673034668,0.03429811482708019,-0.10937346506452253,-0.10062042850909818,0.001573866931721568,0.0014196493430063128,0.0
135,5,2.237497710666503e-06,-1.883284858195111e-05,-5.4000925047148485e-06,4.189812170807272e-05,-0.002281835535541177,0.0004434362635947764,-0.004164348356425762,-0.04130667820572853,0.006407634820789099,0.0020832603331655264,-0.002307469490915537,-0.0012928311480209231,0.0,0.0,0.0,0.002765835728496313,4.2605475755408406e-05,-0.0,0.0,0.0,0.0,0.0006711589521728456,0.012355993501842022,0.0007785244379192591,14572.0,12322.0,12933.0,14195.0,0.4779179096221924,0.33459949493408203,0.37100642919540405,0.45215123891830444,0.0,0.0,0.0,0.0,14589.0,12310.0,12951.0,14170.0,1.6486598253250122,0.03451169583543226,-0.1095169060506004,-0.1007731734973885,-0.0001692570367595181,0.008452107198536396,0.0
140,5,2.9860577797080623e-06,-1.2749526831612457e-05,-6.010190531924309e-07,0.00010658647079253569,-0.0016427328810095787,-0.0003985142975579947,-0.004187564831227064,-0.0413469523191452,0.006433421745896339,-0.002239737892523408,0.006121411453932524,0.0027284249663352966,0.0,0.0,0.0,0.002765835728496313,4.2605475755408406e-05,-0.0,0.0,0.0,0.0,0.0006079151062294841,0.012837342917919159,0.000640241545625031,14643.0,12267.0,12936.0,14218.0,0.4829128086566925,0.3314101994037628,0.3712215721607208,0.45369020104408264,0.0,0.0,0.0,0.0,14617.0,12297.0,12925.0,14229.0,1.6486598253250122,0.03422070602338704,-0.1095001475802789,-0.10041566623140648,-0.0001692570367595181,0.008452107198536396,0.0
145,5,-5.852355116076069e-06,-8.684920430823695e-06,-8.680800419824664e-06,-0.0010179749224334955,-0.0011448458535596728,0.000810168101452291,-0.004187564831227064,-0.0413469523191452,0.006433421745896339,-0.002239737892523408,0.006121411453932524,0.0027284249663352966,0.0,0.0,0.0,0.0020002189557999372,0.00010511250729905441,-0.0,0.0,0.0,0.0,0.0006079151062294841,0.012837342917919159,0.000640241545625031,14643.0,12267.0,12936.0,14218.0,0.4829128086566925,0.3314101994037628,0.3712215721607208,0.45369020104408264,0.0,0.0,0.0,0.0,14617.0,12297.0,12925.0,14229.0,1.6422991752624512,0.03390275246882274,-0.10947103141797429,-0.1006355968723906,-0.00041596588562242687,0.006088885944336653,0.0
150,5,7.871497018641094e-07,-1.236558637174312e-05,-2.7456748284748755e-05,0.00038955057971179485,-1.625846380193252e-05,0.0025771809741854668,-0.004209422506392002,-0.04135625809431076,0.00641418294981122,-0.0040565053932368755,0.0017989103216677904,-0.0004549273871816695,0.0,0.0,0.0,0.0020002189557999372,0.00010511250729905441,-0.0,0.0,0.0,0.0,0.0009331261971965432,0.012310350313782692,0.0006531235994771123,14546.0,12266.0,12953.0,14188.0,0.47612544894218445,0.33139511942863464,0.3722662031650543,0.4517129957675934,0.0,0.0,0.0,0.0,14596.0,12283.0,13045.0,14293.0,1.6422991752624512,0.03417745601533873,-0.10961825937041245,-0.10048653296096967,-0.00041596588562242687,0.006088885944336653,0.0
155,5,7.949255632411223e-06,8.704337801646034e-07,-2.4319047952303663e-05,0.0010152729228138924,-0.0015948257641866803,0.0006543483468703926,-0.004209422506392002,-0.04135625809431076,0.00641418294981122,-0.0040565053932368755,0.0017989103216677904,-0.0004549273871816695,0.0,0.0,0.0,0.0020002189557999372,0.00010511250729905441,-0.0,0.0,0.0,0.0,0.0009331261971965432,0.012310350313782692,0.0006531235994771123,14546.0,12266.0,12953.0,14188.0,0.47612544894218445,0.33139511942863464,0.3722662031650543,0.4517129957675934,0.0,0.0,0.0,0.0,14596.0,12283.0,13045.0,14293.0,1.6422991752624512,0.03410503688223911,-0.10948878832732359,-0.10045353533400703,-0.00041596588562242687,0.006088885944336653,0.0
160,5,1.3181474969314877e-05,-7.608012765558669e-06,-3.596007081796415e-05,0.0010339755099266768,0.00037948324461467564,0.0016586622223258018,-0.004209422506392002,-0.04135625809431076,0.00641418294981122,-0.0040565053932368755,0.0017989103216677904,-0.0004549273871816695,0.0,0.0,0.0,0.001962535548955202,0.0009714728221297264,-0.0,0.0,0.0,0.0,0.0009331261971965432,0.012310350313782692,0.0006531235994771123,14546.0,12266.0,12953.0,14188.0,0.47612544894218445,0.33139511942863464,0.3722662031650543,0.4517129957675934,0.0,0.0,0.0,0.0,14596.0,12283.0,13045.0,14293.0,1.6450408697128296,0.03336143916305372,-0.10966767260413278,-0.10040975167474517,-0.0038508654106408358,0.0059841470792889595,0.0
165,5,9.057112038135529e-06,-8.69335690367734e-06,-1.3736071196035482e-05,-8.133333903970197e-05,0.00028203462716192007,-0.0020034152548760176,-0.0042113750241696835,-0.041341595351696014,0.006409805733710527,-0.0005500689730979502,-0.0006339825922623277,0.0009325421997345984,0.0,0.0,0.0,0.001962535548955202,0.0009714728221297264,-0.0,0.0,0.0,0.0,0.001399972359649837,0.012420485727488995,0.0005847244756296277,14565.0,12324.0,13022.0,14310.0,0.47745978832244873,0.3347288966178894,0.3765046000480652,0.4599665403366089,0.0,0.0,0.0,0.0,14587.0,12266.0,13013.0,14252.0,1.6450408697128296,0.03444312050952111,-0.10928451590960754,-0.10057093242965623,-0.0038508654106408358,0.0059841470792889595,0.0
170,5,5.051186690252507e-06,-2.569336174929049e-06,1.0772001814984833e-06,-0.0005132443620823324,-0.0006220686482265592,-0.002578958636149764,-0.0042113750241696835,-0.041341595351696014,0.006409805733710527,-0.0005500689730979502,-0.0006339825922623277,0.0009325421997345984,0.0,0.0,0.0,-0.00036656431620940566,-6.50421206955798e-05,-0.0,0.0,0.0,0.0,0.001399972359649837,0.012420485727488995,0.0005847244756296277,14565.0,12324.0,13022.0,14310.0,0.47745978832244873,0.3347288966178894,0.3765046000480652,0.4599665403366089,0.0,0.0,0.0,0.0,14587.0,12266.0,13013.0,14252.0,1.6288288831710815,0.03438851129551622,-0.10989112442104819,-0.10019906593609695,0.0002552830846980214,-0.001106710871681571,0.0
175,5,2.1260380890453234e-05,-2.284360925841611e-05,1.2122342923248652e-05,0.0013774574035778642,0.003004792146384716,-0.0003687437856569886,-0.004186191130429506,-0.041327960789203644,0.006389351096004248,0.007904840633273125,0.0003729363379534334,-0.004179764073342085,0.0,0.0,0.0,-0.00036656431620940566,-6.50421206955798e-05,-0.0,0.0,0.0,0.0,0.0012748130830004811,0.012417509220540524,0.0005365837132558227,14506.0,12363.0,12936.0,14321.0,0.47339507937431335,0.33702418208122253,0.37119409441947937,0.4606858193874359,0.0,0.0,0.0,0.0,14699.0,12176.0,13070.0,14202.0,1.6288288831710815,0.033982069893297454,-0.10969933956497452,-0.100727456803521,0.0002552830846980214,-0.001106710871681571,0.0
180,5,1.9577333659981377e-05,-1.1721380360540934e-05,1.3209305507189129e-05,0.0003490172093734145,-0.0001327506179222837,-0.00027793299523182213,-0.004186191130429506,-0.041327960789203644,0.006389351096004248,0.007904840633273125,0.0003729363379534334,-0.004179764073342085,0.0,0.0,0.0,-0.0037039408925920725,0.0013208042364567518,-0.0,0.0,0.0,0.0,0.0012748130830004811,0.012417509220540524,0.0005365837132558227,14506.0,12363.0,12936.0,14321.0,0.47339507937431335,0.33702418208122253,0.37119409441947937,0.4606858193874359,0.0,0.0,0.0,0.0,14699.0,12176.0,13070.0,14202.0,1.6597471237182617,0.03392329430838888,-0.10947090301956726,-0.1003423828658622,-0.005282374564558268,-0.011394958011806011,0.0
186,5,3.11828225676436e-05,2.6365387384430505e-06,-1.8455883036949672e-05,0.0015322655672207475,-0.0017760505434125662,0.0036886492744088173,-0.004091828595846891,-0.041308969259262085,0.006632957607507706,0.013882365077733994,0.004372475203126669,0.012949151918292046,0.0,0.0,0.0,-0.0037039408925920725,0.0013208042364567518,-0.0,0.0,0.0,0.0,0.0008996635442599654,0.012769436463713646,-0.0011466240976005793,14947.0,11868.0,13376.0,13914.0,0.5042827725410461,0.3087726831436157,0.39860719442367554,0.4333782196044922,0.0,0.0,0.0,0.0,14168.0,12798.0,12440.0,14750.0,1.6597471237182617,0.03385302528629651,-0.10948732495230705,-0.09972194084044396,-0.005282374564558268,-0.011394958011806011,0.0
191,5,2.8007325454382226e-05,1.9262674868514296e-06,-5.3273515732144006e-06,0.000231846614042297,-0.0006251876475289464,-9.996395237976685e-05,-0.004091828595846891,-0.041308969259262085,0.006632957607507706,0.013882365077733994,0.004372475203126669,0.012949151918292046,0.0,0.0,0.0,0.0021820974070578814,0.0014884421834722161,-0.0,0.0,0.0,0.0,0.0008996635442599654,0.012769436463713646,-0.0011466240976005793,14947.0,11868.0,13376.0,13914.0,0.5042827725410461,0.3087726831436157,0.39860719442367554,0.4333782196044922,0.0,0.0,0.0,0.0,14168.0,12798.0,12440.0,14750.0,1.649916648864746,0.03411293994412144,-0.10940976962025316,-0.09988217896736508,-0.005917587783187628,0.00667335232719779,0.0
196,5,7.853576789784711e-06,-8.1941452663159e-06,-5.989021701680031e-06,-0.0023257113061845303,0.00096437445608899,3.9414855564245954e-05,-0.004121025558561087,-0.041476815938949585,0.006421166937798262,-0.016054576262831688,0.011347319930791855,0.10270628333091736,0.0,0.0,0.0,0.0021820974070578814,0.0014884421834722161,-0.0,0.0,0.0,0.0,0.0008996635442599654,0.012769436463713646,-0.0011466240976005793,14401.0,12421.0,12716.0,14375.0,0.46619468927383423,0.340379536151886,0.3578713536262512,0.4643833041191101,0.0,0.0,0.0,0.0,16061.0,10119.0,14622.0,12444.0,1.649916648864746,0.03364627599586701,-0.10934578413057207,-0.10059913040268686,-0.005917587783187628,0.00667335232719779,0.0
201,5,7.602819550811546e-06,7.4851932367892005e-06,-2.973822302010376e-05,-0.0009603753569535911,-0.0014957707608118653,0.0028656700160354376,-0.004121025558561087,-0.041476815938949585,0.006421166937798262,-0.016054576262831688,0.011347319930791855,0.10270628333091736,0.0,0.0,0.0,-0.0011967186583206058,-0.002181003801524639,-0.0,0.0,0.0,0.0,0.0008996635442599654,0.012769436463713646,-0.0011466240976005793,14401.0,12421.0,12716.0,14375.0,0.46619468927383423,0.340379536151886,0.3578713536262512,0.4643833041191101,0.0,0.0,0.0,0.0,16061.0,10119.0,14622.0,12444.0,1.651267409324646,0.03380699797058273,-0.1095526566547519,-0.10019198758243913,0.00867810845375061,-0.0036628388334065676,0.0
206,5,8.199327567126602e-06,3.429685420996975e-06,-2.759478593361564e-05,-0.0003125691437162459,-0.00011164740863023326,0.0008890555473044515,-0.0041512432508170605,-0.0414699912071228,0.0068904622457921505,0.0316428616642952,0.027825448662042618,-0.15038423240184784,0.0,0.0,0.0,-0.0011967186583206058,-0.002181003801524639,-0.0,0.0,0.0,0.0,0.0001561266981298104,0.012846214696764946,0.0011392426677048206,14328.0,12902.0,12450.0,14707.0,0.4612022340297699,0.36910751461982727,0.34207096695899963,0.4873664081096649,0.0,0.0,0.0,0.0,13289.0,13995.0,11079.0,15729.0,1.651267409324646,0.03384752867597328,-0.108968349416392,-0.10051920346961894,0.00867810845375061,-0.0036628388334065676,0.0
211,5,1.3869180293113459e-05,8.161310688592494e-06,-7.275629286596086e-06,0.0005553546361625195,-0.0006124539650045335,-0.0020826763939112425,-0.0041512432508170605,-0.0414699912071228,0.0068904622457921505,0.0316428616642952,0.027825448662042618,-0.15038423240184784,0.0,0.0,0.0,0.00014445590204559267,-0.0002870805037673563,-0.0,0.0,0.0,0.0,0.0001561266981298104,0.012846214696764946,0.0011392426677048206,14328.0,12902.0,12450.0,14707.0,0.4612022340297699,0.36910751461982727,0.34207096695899963,0.4873664081096649,0.0,0.0,0.0,0.0,13289.0,13995.0,11079.0,15729.0,1.629025936126709,0.03290855981311864,-0.10971333172903522,-0.10031079297357758,0.0011268954258412123,0.0004361861210782081,0.0
216,5,2.8477605155785568e-05,1.203484089273843e-06,1.1111246749351267e-05,0.0019751526415348053,0.0005899575771763921,-0.003039495786651969,-0.00435519777238369,-0.041707053780555725,0.0067829848267138,-0.050703439861536026,-0.004445753991603851,0.09957914799451828,0.0,0.0,0.0,0.00014445590204559267,-0.0002870805037673563,-0.0,0.0,0.0,0.0,0.0011421863455325365,0.01200465951114893,-0.0014737482415512204,15521.0,10996.0,14043.0,13397.0,0.5460141897201538,0.26202118396759033,0.44195079803466797,0.399930477142334,0.0,0.0,0.0,0.0,14919.0,11839.0,13414.0,14005.0,1.629025936126709,0.03331419517543751,-0.10959639622285483,-0.1000441303043921,0.0011268954258412123,0.0004361861210782081,0.0
221,5,2.900240542658139e-05,1.0020912668551318e-06,3.5473680327413604e-05,0.000853037228807807,0.0002601501764729619,-0.004139290191233158,-0.00435519777238369,-0.041707053780555725,0.0067829848267138,-0.050703439861536026,-0.004445753991603851,0.09957914799451828,0.0,0.0,0.0,-0.0007229149341583252,0.0019057299941778183,-0.0,0.0,0.0,0.0,0.0011421863455325365,0.01200465951114893,-0.0014737482415512204,15521.0,10996.0,14043.0,13397.0,0.5460141897201538,0.26202118396759033,0.44195079803466797,0.399930477142334,0.0,0.0,0.0,0.0,14919.0,11839.0,13414.0,14005.0,1.6471036672592163,0.033100556872608114,-0.10919403541131986,-0.10028012405245909,-0.007563691586256027,-0.002207072451710701,0.0
226,5,3.0411723855650052e-05,-6.450330147345085e-06,5.732665158575401e-05,0.0005103329895064235,0.0009983506752178073,-0.0042780726216733456,-0.004645614419132471,-0.0416693389415741,0.00632206117734313,-0.05023983493447304,-0.0038340685423463583,-0.02457215078175068,0.0,0.0,0.0,-0.0007229149341583252,0.0019057299941778183,-0.0,0.0,0.0,0.0,0.0011841424275189638,0.013398293405771255,0.0011327860411256552,13893.0,13125.0,12316.0,14917.0,0.4320075511932373,0.3828469514846802,0.3342477083206177,0.5021651983261108,0.0,0.0,0.0,0.0,14863.0,12001.0,13389.0,13974.0,1.6471036672592163,0.032615572474373654,-0.10885370350118742,-0.10049738827442352,-0.007563691586256027,-0.002207072451710701,0.0
231,5,6.0655551351374015e-05,1.6034500731620938e-05,9.340017277281731e-05,0.0038333924021571875,-0.0022988393902778625,-0.00604005204513669,-0.004645614419132471,-0.0416693389415741,0.00632206117734313,-0.05023983493447304,-0.0038340685423463583,-0.02457215078175068,0.0,0.0,0.0,-0.0012456327676773071,0.0005275045405142009,-0.0,0.0,0.0,0.0,0.0011841424275189638,0.013398293405771255,0.0011327860411256552,13893.0,13125.0,12316.0,14917.0,0.4320075511932373,0.3828469514846802,0.3342477083206177,0.5021651983261108,0.0,0.0,0.0,0.0,14863.0,12001.0,13389.0,13974.0,1.6374567747116089,0.032275499091208436,-0.10869139785041583,-0.09988239185972261,-0.0020813618320971727,-0.003780665108934045,0.0
236,5,7.056876347633079e-05,3.556893716449849e-05,0.00015670282300561666,0.0027229429688304663,-0.003263668389990926,-0.010012337937951088,-0.004912312608212233,-0.042091526091098785,0.006271985359489918,-0.012750227935612202,0.050736576318740845,-0.08723952621221542,0.0,0.0,0.0,-0.0012456327676773071,0.0005275045405142009,-0.0,0.0,0.0,0.0,0.0024539160076528788,0.013828006573021412,0.0025044139474630356,14469.0,12309.0,12713.0,14407.0,0.47084739804267883,0.33388957381248474,0.3577022850513458,0.4665866792201996,0.0,0.0,0.0,0.0,13373.0,13450.0,11478.0,15439.0,1.6374567747116089,0.0315361401305398,-0.108709521081536,-0.09977027728411139,-0.0020813618320971727,-0.003780665108934045,0.0
241,5,5.7102879509329796e-05,2.6491254175198264e-05,0.00020700928871519864,-0.0005267293890938163,-0.00021614515571855009,-0.01004171185195446,-0.004912312608212233,-0.042091526091098785,0.006271985359489918,-0.012750227935612202,0.050736576318740845,-0.08723952621221542,0.0,0.0,0.0,0.0040167770348489285,0.0026342172641307116,-0.0,0.0,0.0,0.0,0.0024539160076528788,0.013828006573021412,0.0025044139474630356,14469.0,12309.0,12713.0,14407.0,0.47084739804267883,0.33388957381248474,0.3577022850513458,0.4665866792201996,0.0,0.0,0.0,0.0,13373.0,13450.0,11478.0,15439.0,1.6699234247207642,0.02996378196878293,-0.1087769856556587,-0.10033724211788846,-0.010599760338664055,0.012433136813342571,0.0
246,5,4.3464708141982555e-05,6.890018266858533e-05,0.0002947446773760021,-0.0018472722731530666,-0.0051755295135080814,-0.014544932171702385,-0.005646721459925175,-0.04234971106052399,0.006388450041413307,-0.15143457055091858,0.029224369674921036,0.14927074313163757,0.0,0.0,0.0,0.0040167770348489285,0.0026342172641307116,-0.0,0.0,0.0,0.0,0.004825088661164045,0.012522184289991856,-0.0024264983367174864,13088.0,13380.0,11803.0,15614.0,0.3805365264415741,0.39883217215538025,0.3051479756832123,0.5529400706291199,0.0,0.0,0.0,0.0,15215.0,11072.0,13907.0,13781.0,1.6699234247207642,0.028207284127540005,-0.10878698651491174,-0.09960988166270685,-0.010599760338664055,0.012433136813342571,0.0
252,5,6.15734898019582e-05,6.943723565200344e-05,0.0003591779968701303,0.0014341447968035936,-0.0021346586290746927,-0.013549968600273132,-0.005646721459925175,-0.04234971106052399,0.006388450041413307,-0.15143457055091858,0.029224369674921036,0.14927074313163757,0.0,0.0,0.0,0.006345926318317652,-0.0016498903278261423,-0.0,0.0,0.0,0.0,0.004825088661164045,0.012522184289991856,-0.0024264983367174864,13088.0,13380.0,11803.0,15614.0,0.3805365264415741,0.39883217215538025,0.3051479756832123,0.5529400706291199,0.0,0.0,0.0,0.0,15215.0,11072.0,13907.0,13781.0,1.6821458339691162,0.0269089376181284,-0.1099194724650034,-0.09865724088859999,0.006687467452138662,0.019786179065704346,0.0
257,5,3.62863065674901e-05,8.481834083795547e-05,0.0004965434200130403,-0.002460803836584091,-0.0026995958760380745,-0.021903838962316513,-0.008582928217947483,-0.04225630313158035,0.005970056168735027,-0.24580132961273193,-0.021170219406485558,-0.0885695144534111,0.0,0.0,0.0,0.006345926318317652,-0.0016498903278261423,-0.0,0.0,0.0,0.0,0.007246879395097494,0.009750483557581902,0.002984315389767289,14751.0,11304.0,14520.0,13817.0,0.49042952060699463,0.27809351682662964,0.47435814142227173,0.42704224586486816,0.0,0.0,0.0,0.0,14424.0,11854.0,13394.0,14340.0,1.6821458339691162,0.025526755955766745,-0.11080865064551776,-0.09938566894632452,0.006687467452138662,0.019786179065704346,0.0
262,5,2.036297883023508e-05,8.982003782875836e-05,0.0006117878947407007,-0.002895120996981859,-0.001680041546933353,-0.022590871900320053,-0.008582928217947483,-0.04225630313158035,0.005970056168735027,-0.24580132961273193,-0.021170219406485558,-0.0885695144534111,0.0,0.0,0.0,0.0034344936721026897,-0.002252294449135661,-0.0,0.0,0.0,0.0,0.007246879395097494,0.009750483557581902,0.002984315389767289,14751.0,11304.0,14520.0,13817.0,0.49042952060699463,0.27809351682662964,0.47435814142227173,0.42704224586486816,0.0,0.0,0.0,0.0,14424.0,11854.0,13394.0,14340.0,1.66339910030365,0.02371768764065015,-0.11199179836999937,-0.09918705650852443,0.009027564898133278,0.01058927457779646,0.0
267,5,-1.8759876184049062e-05,0.00011044165876228362,0.0007771091186441481,-0.005852791015058756,-0.0031466118525713682,-0.028874892741441727,-0.015013134106993675,-0.03792141005396843,0.006283538416028023,-0.3139442801475525,-0.35238462686538696,0.02888118475675583,0.0,0.0,0.0,0.0034344936721026897,-0.002252294449135661,-0.0,0.0,0.0,0.0,0.007716299965977669,0.006250967737287283,-0.0006124882493168116,13611.0,12755.0,13840.0,14599.0,0.41359516978263855,0.3602322041988373,0.4285137951374054,0.479804664850235,0.0,0.0,0.0,0.0,13398.0,12885.0,13252.0,15041.0,1.66339910030365,0.021948618719859078,-0.11413475109430125,-0.09905085578052543,0.009027564898133278,0.01058927457779646,0.0
272,5,-3.234765972592868e-05,0.0001150286479969509,0.0009062554454430938,-0.003971650265157223,-0.0018090828089043498,-0.027047518640756607,-0.015013134106993675,-0.03792141005396843,0.006283538416028023,-0.3139442801475525,-0.35238462686538696,0.02888118475675583,0.0,0.0,0.0,0.0039514172822237015,-0.005402129143476486,-0.0,0.0,0.0,0.0,0.007716299965977669,0.006250967737287283,-0.0006124882493168116,13611.0,12755.0,13840.0,14599.0,0.41359516978263855,0.3602322041988373,0.4285137951374054,0.479804664850235,0.0,0.0,0.0,0.0,13398.0,12885.0,13252.0,15041.0,1.6939626932144165,0.020756271701892284,-0.11649212021591132,-0.09873297594893497,0.022050336003303528,0.012406899593770504,0.0
277,5,-8.298545435536653e-05,0.0001062243027263321,0.0010511375730857253,-0.007665195036679506,0.00033288833219558,-0.028204871341586113,-0.01771215721964836,-0.03437788039445877,0.006444310303777456,-0.2634581923484802,-0.4930610954761505,-0.03975402191281319,0.0,0.0,0.0,0.0039514172822237015,-0.005402129143476486,-0.0,0.0,0.0,0.0,0.008270174264907837,0.0005696165608242154,0.000658998207654804,13114.0,13054.0,14183.0,14185.0,0.38216516375541687,0.37843194603919983,0.4513169825077057,0.4514850080013275,0.0,0.0,0.0,0.0,14110.0,12077.0,14746.0,13787.0,1.6939626932144165,0.018175189673018743,-0.11919633464231404,-0.09911088651815113,0.022050336003303528,0.012406899593770504,0.0
282,5,-0.00012315971252974123,8.957467798609287e-05,0.0011532183270901442,-0.007886989042162895,0.0021311098244041204,-0.023531634360551834,-0.01771215721964836,-0.03437788039445877,0.006444310303777456,-0.2634581923484802,-0.4930610954761505,-0.03975402191281319,0.0,0.0,0.0,-0.00021019512496422976,-0.007110017817467451,-0.0,0.0,0.0,0.0,0.008270174264907837,0.0005696165608242154,0.000658998207654804,13114.0,13054.0,14183.0,14185.0,0.38216516375541687,0.37843194603919983,0.4513169825077057,0.4514850080013275,0.0,0.0,0.0,0.0,14110.0,12077.0,14746.0,13787.0,1.7043925523757935,0.017054498351740457,-0.12169974388151363,-0.09873383024806587,0.02920038253068924,-0.0006640500505454838,0.0
287,5,-0.00013083573139738292,4.592690311255865e-05,0.0011978817638009787,-0.004075918346643448,0.006090177223086357,-0.014772257767617702,-0.01771215721964836,-0.03437788039445877,0.006444310303777456,-0.2634581923484802,-0.4930610954761505,-0.03975402191281319,0.0,0.0,0.0,-0.00021019512496422976,-0.007110017817467451,-0.0,0.0,0.0,0.0,0.008270174264907837,0.0005696165608242154,0.000658998207654804,13114.0,13054.0,14183.0,14185.0,0.38216516375541687,0.37843194603919983,0.4513169825077057,0.4514850080013275,0.0,0.0,0.0,0.0,14110.0,12077.0,14746.0,13787.0,1.7043925523757935,0.01667684115139438,-0.1235433194707202,-0.09832821257405894,0.02920038253068924,-0.0006640500505454838,0.0
292,5,-0.00016517803305760026,5.999352651997469e-06,0.001222674734890461,-0.005751443561166525,0.007227376569062471,-0.008884059265255928,-0.0207184050232172,-0.027979591861367226,0.006614969577640295,-0.21035976707935333,-0.5114660263061523,0.047435179352760315,0.0,0.0,0.0,-0.007166230119764805,-0.003906255587935448,-0.0,0.0,0.0,0.0,0.008010385558009148,-0.003736532758921385,0.0013179240049794316,13575.0,12866.0,15086.0,13421.0,0.41130197048187256,0.3669677972793579,0.5142586827278137,0.4014342427253723,0.0,0.0,0.0,0.0,12903.0,13333.0,14121.0,14180.0,1.7003347873687744,0.015494102695068948,-0.12508990294634617,-0.09832320258333621,0.016004228964447975,-0.02258535847067833,0.0
297,5,-0.0001955358311533928,-3.712142279255204e-05,0.0012037811102345586,-0.0059435125440359116,0.008065443485975266,-0.001286388491280377,-0.0207184050232172,-0.027979591861367226,0.006614969577640295,-0.21035976707935333,-0.5114660263061523,0.047435179352760315,0.0,0.0,0.0,-0.007166230119764805,-0.003906255587935448,-0.0,0.0,0.0,0.0,0.004478820133954287,0.0010890832636505365,0.0007183338748291135,13763.0,13386.0,14173.0,13877.0,0.42346566915512085,0.39922916889190674,0.45071011781692505,0.4309875965118408,0.0,0.0,0.0,0.0,14126.0,12470.0,15167.0,13128.0,1.7003347873687744,0.015063419121922415,-0.12616729813506392,-0.09836323550476891,0.016004228964447975,-0.02258535847067833,0.0
302,5,-0.00020199164282530546,-7.507347618229687e-05,0.001161640859209001,-0.003152102930471301,0.007780423853546381,0.004542273469269276,-0.020803455263376236,-0.02534528821706772,0.006802837830036879,0.059426479041576385,-0.26496660709381104,-0.04576997831463814,0.0,0.0,0.0,-0.009502401575446129,-0.005608820356428623,-0.0,0.0,0.0,0.0,0.004478820133954287,0.0010890832636505365,0.0007183338748291135,13763.0,13386.0,14173.0,13877.0,0.42346566915512085,0.39922916889190674,0.45071011781692505,0.4309875965118408,0.0,0.0,0.0,0.0,14126.0,12470.0,15167.0,13128.0,1.7288213968276978,0.015340627951404782,-0.1266561088300998,-0.09813789421108382,0.023364242166280746,-0.030449502170085907,0.0
307,5,-0.00018486128828953952,-0.00013695968664251268,0.001076137414202094,0.0007948020938783884,0.010538515634834766,0.012077316641807556,-0.020803455263376236,-0.02534528821706772,0.006802837830036879,0.059426479041576385,-0.26496660709381104,-0.04576997831463814,0.0,0.0,0.0,-0.009502401575446129,-0.005608820356428623,-0.0,0.0,0.0,0.0,0.004478820133954287,0.0010890832636505365,0.0007183338748291135,13763.0,13386.0,14173.0,13877.0,0.42346566915512085,0.39922916889190674,0.45071011781692505,0.4309875965118408,0.0,0.0,0.0,0.0,14126.0,12470.0,15167.0,13128.0,1.7288213968276978,0.015619515033852782,-0.1269922999414326,-0.09808033699740981,0.023364242166280746,-0.030449502170085907,0.0
312,5,-0.0001858080504462123,-0.00017182249575853348,0.0010580974631011486,0.00020430784206837416,0.008398941718041897,0.006995725445449352,-0.019999539479613304,-0.023036453872919083,0.006558858323842287,0.08993495255708694,-0.13658924400806427,0.022676438093185425,0.0,0.0,0.0,-0.012530870735645294,0.00046972741256468,-0.0,0.0,0.0,0.0,0.0017710303654894233,0.002907001879066229,5.441795292426832e-05,14118.0,13205.0,13925.0,13883.0,0.44698846340179443,0.3878580927848816,0.4341443181037903,0.4313439130783081,0.0,0.0,0.0,0.0,13374.0,13771.0,13761.0,14289.0,1.7339876890182495,0.01628713160586239,-0.12701416608270377,-0.09791407522868002,-0.0019625001586973667,-0.04027311131358147,-0.0
318,5,-0.00020573301299009472,-0.0002656113065313548,0.0010342365130782127,-0.002309270901605487,0.014614234678447247,0.005661598406732082,-0.019999539479613304,-0.023036453872919083,0.006558858323842287,0.08993495255708694,-0.13658924400806427,0.022676438093185425,0.0,0.0,0.0,-0.012530870735645294,0.00046972741256468,-0.0,0.0,0.0,0.0,0.0017710303654894233,0.002907001879066229,5.441795292426832e-05,14118.0,13205.0,13925.0,13883.0,0.44698846340179443,0.3878580927848816,0.4341443181037903,0.4313439130783081,0.0,0.0,0.0,0.0,13374.0,13771.0,13761.0,14289.0,1.7339876890182495,0.016880196841708963,-0.12679793128392483,-0.09868315963690392,-0.0019625001586973667,-0.04027311131358147,-0.0
323,5,-0.0002002029650611803,-0.0002903421700466424,0.0010559918591752648,-0.0002601040177978575,0.008813397958874702,-0.00034599826904013753,-0.018968718126416206,-0.022706491872668266,0.0070570711977779865,0.13035550713539124,-0.016460824757814407,0.03195587918162346,0.0,0.0,0.0,-0.017071668058633804,-0.002285829046741128,-0.0,0.0,0.0,0.0,0.000758684822358191,0.005426922347396612,0.0020121540874242783,14839.0,12533.0,14195.0,13470.0,0.49664226174354553,0.34696391224861145,0.4521426260471344,0.40458598732948303,0.0,0.0,0.0,0.0,14682.0,12640.0,14283.0,13451.0,1.778265357017517,0.017526468466834734,-0.12704100530564819,-0.09854442905390924,0.009793288074433804,-0.05626557394862175,-0.0
328,5,-0.0001905496756080538,-0.00031238931114785373,0.0011005077976733446,0.0010543533135205507,0.006171016488224268,-0.005480318795889616,-0.018968718126416206,-0.022706491872668266,0.0070570711977779865,0.13035550713539124,-0.016460824757814407,0.03195587918162346,0.0,0.0,0.0,-0.017071668058633804,-0.002285829046741128,-0.0,0.0,0.0,0.0,0.000758684822358191,0.005426922347396612,0.0020121540874242783,14839.0,12533.0,14195.0,13470.0,0.49664226174354553,0.34696391224861145,0.4521426260471344,0.40458598732948303,0.0,0.0,0.0,0.0,14682.0,12640.0,14283.0,13451.0,1.778265357017517,0.017864744741366574,-0.12724737924764756,-0.09800662161272361,0.009793288074433804,-0.05626557394862175,-0.0
333,5,-0.00015476308180950582,-0.0003428612253628671,0.0011492916382849216,0.0047161332331597805,0.00612503569573164,-0.008046185597777367,-0.01752617582678795,-0.022618982940912247,0.007470311596989632,0.08573076874017715,-0.02502569556236267,0.07455436885356903,0.0,0.0,0.0,-0.00792156532406807,0.0007115537882782519,-0.0,0.0,0.0,0.0,0.0004079796781297773,0.005169622600078583,0.001435995101928711,14875.0,12754.0,14268.0,13591.0,0.49922341108322144,0.36019235849380493,0.4570733308792114,0.41233229637145996,0.0,0.0,0.0,0.0,14579.0,13151.0,13900.0,13914.0,1.69325590133667,0.019365048578525886,-0.12715324018410257,-0.09798478002720136,-0.002903144108131528,-0.024861877784132957,0.0
338,5,-0.00012546904326882213,-0.0003633049491327256,0.0011938803363591433,0.005401737056672573,0.004903261084109545,-0.008569120429456234,-0.01752617582678795,-0.022618982940912247,0.007470311596989632,0.08573076874017715,-0.02502569556236267,0.07455436885356903,0.0,0.0,0.0,-0.00792156532406807,0.0007115537882782519,-0.0,0.0,0.0,0.0,0.0004079796781297773,0.005169622600078583,0.001435995101928711,14875.0,12754.0,14268.0,13591.0,0.49922341108322144,0.36019235849380493,0.4570733308792114,0.41233229637145996,0.0,0.0,0.0,0.0,14579.0,13151.0,13900.0,13914.0,1.69325590133667,0.020039364193022182,-0.1278173504630493,-0.09785367406790645,-0.002903144108131528,-0.024861877784132957,0.0
343,5,-0.00011570744391065091,-0.0003726327558979392,0.0012445803731679916,0.0033320870716124773,0.0030806397553533316,-0.009511648677289486,-0.016375886276364326,-0.022474711760878563,0.008064872585237026,0.14330999553203583,-0.020116545259952545,0.0262716356664896,0.0,0.0,0.0,-0.0064635188318789005,0.0047706300392746925,-0.0,0.0,0.0,0.0,-0.0010779070435091853,0.006922911386936903,0.002386311534792185,15214.0,12649.0,14155.0,13510.0,0.5234782099723816,0.35389575362205505,0.44949790835380554,0.40711578726768494,0.0,0.0,0.0,0.0,15421.0,12273.0,14537.0,13209.0,1.7018685340881348,0.02023414684910698,-0.1281303842243232,-0.0977090697989713,-0.0195633377879858,-0.020389102399349213,0.0
348,5,-0.00011524480942171067,-0.0003584484220482409,0.0012901537120342255,0.0013883509673178196,-0.0004698641423601657,-0.009273458272218704,-0.015192457474768162,-0.021525945514440536,0.00826194602996111,0.03030598722398281,-0.12179809808731079,0.04230410233139992,0.0,0.0,0.0,-0.0064635188318789005,0.0047706300392746925,-0.0,0.0,0.0,0.0,-0.0012009955244138837,0.004213635344058275,0.001006165286526084,14916.0,13332.0,14240.0,13788.0,0.5021092891693115,0.3958318531513214,0.4552169144153595,0.42510727047920227,0.0,0.0,0.0,0.0,14834.0,12419.0,14433.0,13214.0,1.7018685340881348,0.01980936439359276,-0.12912369692716197,-0.09701712349344242,-0.0195633377879858,-0.020389102399349213,0.0
353,5,-0.00010833863780135289,-0.00035221996949985623,0.0012946889037266374,0.0013840814353898168,-0.0009353599743917584,-0.004253602586686611,-0.015192457474768162,-0.021525945514440536,0.00826194602996111,0.03030598722398281,-0.12179809808731079,0.04230410233139992,0.0,0.0,0.0,-0.0064635188318789005,0.0047706300392746925,-0.0,0.0,0.0,0.0,-0.0012009955244138837,0.004213635344058275,0.001006165286526084,14916.0,13332.0,14240.0,13788.0,0.5021092891693115,0.3958318531513214,0.4552169144153595,0.42510727047920227,0.0,0.0,0.0,0.0,14834.0,12419.0,14433.0,13214.0,1.7018685340881348,0.019310720971178186,-0.1298634168445543,-0.09666325846046989,-0.0195633377879858,-0.020389102399349213,0.0
358,5,-0.00012867708574049175,-0.00033697986509650946,0.0012970763491466641,-0.001886981539428234,-0.0022029553074389696,-0.0019879464525729418,-0.015192457474768162,-0.021525945514440536,0.00826194602996111,0.03030598722398281,-0.12179809808731079,0.04230410233139992,0.0,0.0,0.0,0.0005153235979378223,0.001162514672614634,-0.0,0.0,0.0,0.0,-0.0012009955244138837,0.004213635344058275,0.001006165286526084,14916.0,13332.0,14240.0,13788.0,0.5021092891693115,0.3958318531513214,0.4552169144153595,0.42510727047920227,0.0,0.0,0.0,0.0,14834.0,12419.0,14433.0,13214.0,1.638905644416809,0.019587660994024755,-0.1304303351062893,-0.09666939575609386,-0.004590966738760471,0.0015654617454856634,0.0
363,5,-0.0001437941682524979,-0.00031189160654321313,0.0012633414007723331,-0.002568842377513647,-0.0038917711935937405,0.0032530282624065876,-0.015065334737300873,-0.020485401153564453,0.00886540673673153,-0.014933867380023003,-0.1104879379272461,0.03864555433392525,0.0,0.0,0.0,0.0005153235979378223,0.001162514672614634,-0.0,0.0,0.0,0.0,0.001570784137584269,0.0037684631533920765,0.0025699541438370943,14819.0,12376.0,14499.0,13197.0,0.4952166676521301,0.33776938915252686,0.47290921211242676,0.3873606324195862,0.0,0.0,0.0,0.0,14489.0,12765.0,14030.0,13827.0,1.638905644416809,0.018429641775129603,-0.13113257815715743,-0.096407179992151,-0.004590966738760471,0.0015654617454856634,0.0
368,5,-0.0001305621408391744,-0.0002909105096478015,0.0012278639478608966,0.0005603062454611063,-0.004074441734701395,0.00555850425735116,-0.015065334737300873,-0.020485401153564453,0.00886540673673153,-0.014933867380023003,-0.1104879379272461,0.03864555433392525,0.0,0.0,0.0,0.004157264716923237,-0.0025905815418809652,-0.0,0.0,0.0,0.0,0.001570784137584269,0.0037684631533920765,0.0025699541438370943,14819.0,12376.0,14499.0,13197.0,0.4952166676521301,0.33776938915252686,0.47290921211242676,0.3873606324195862,0.0,0.0,0.0,0.0,14489.0,12765.0,14030.0,13827.0,1.6705378293991089,0.018190376972366595,-0.13144270576000133,-0.09643459264891915,0.010428005829453468,0.012872718274593353,-0.0
373,5,-0.000123939651530236,-0.00024709844728931785,0.0012305323034524918,0.0010188205633312464,-0.0068872226402163506,0.001903195632621646,-0.01615891419351101,-0.018781151622533798,0.009313135407865047,-0.17699605226516724,-0.14878325164318085,0.06898662447929382,0.0,0.0,0.0,0.004157264716923237,-0.0025905815418809652,-0.0,0.0,0.0,0.0,0.0035656564868986607,0.0037862085737288,0.0016606852877885103,14556.0,12450.0,14514.0,13539.0,0.476845383644104,0.34210240840911865,0.4739394783973694,0.4089812636375427,0.0,0.0,0.0,0.0,14509.0,11730.0,14715.0,13018.0,1.6705378293991089,0.017753019080923447,-0.13226570391459583,-0.09578507931336644,0.010428005829453468,0.012872718274593353,-0.0
379,5,-0.00011608796921791509,-0.00022001170145813376,0.0012254000175744295,0.001349730766378343,-0.006005299277603626,0.001377151464112103,-0.01615891419351101,-0.018781151622533798,0.009313135407865047,-0.17699605226516724,-0.14878325164318085,0.06898662447929382,0.0,0.0,0.0,0.007798440288752317,0.0007687061442993581,-0.0,0.0,0.0,0.0,0.0035656564868986607,0.0037862085737288,0.0016606852877885103,14556.0,12450.0,14514.0,13539.0,0.476845383644104,0.34210240840911865,0.4739394783973694,0.4089812636375427,0.0,0.0,0.0,0.0,14509.0,11730.0,14715.0,13018.0,1.6922664642333984,0.01676491834876084,-0.13269113416802733,-0.09529653842360547,-0.003134496044367552,0.024461159482598305,-0.0
384,5,-9.147636592388153e-05,-0.00019918377802241594,0.0012175944866612554,0.00349328457377851,-0.0049014706164598465,0.0014875194756314158,-0.01684502884745598,-0.017867954447865486,0.00995964091271162,-0.1411132663488388,-0.0971728190779686,0.06239621713757515,0.0,0.0,0.0,0.007798440288752317,0.0007687061442993581,-0.0,0.0,0.0,0.0,0.004726580809801817,0.003973577171564102,0.002884148620069027,14529.0,11786.0,14637.0,13033.0,0.47499945759773254,0.3042345941066742,0.4824967682361603,0.37717482447624207,0.0,0.0,0.0,0.0,14329.0,12117.0,14739.0,13350.0,1.6922664642333984,0.016995817984522484,-0.1329753756140503,-0.0951190583448201,-0.003134496044367552,0.024461159482598305,-0.0
389,5,-6.726207357132807e-05,-0.00016300631978083402,0.0012497116113081574,0.004303028807044029,-0.006301883142441511,-0.0032590460032224655,-0.01684502884745598,-0.017867954447865486,0.00995964091271162,-0.1411132663488388,-0.0971728190779686,0.06239621713757515,0.0,0.0,0.0,0.005536944605410099,0.003104164032265544,-0.0,0.0,0.0,0.0,0.004726580809801817,0.003973577171564102,0.002884148620069027,14529.0,11786.0,14637.0,13033.0,0.47499945759773254,0.3042345941066742,0.4824967682361603,0.37717482447624207,0.0,0.0,0.0,0.0,14329.0,12117.0,14739.0,13350.0,1.683465600013733,0.016272405002589828,-0.13367212906219977,-0.09424040041426537,-0.01259196363389492,0.017277421429753304,-0.0
394,5,-4.6087909140624106e-05,-0.0001472815201850608,0.0012688861461356282,0.0042621116153895855,-0.0044077299535274506,-0.0036045650485903025,-0.017842883244156837,-0.016971101984381676,0.010725523345172405,-0.03821876272559166,-0.07685375958681107,0.07987779378890991,0.0,0.0,0.0,0.005536944605410099,0.003104164032265544,-0.0,0.0,0.0,0.0,0.005278215743601322,0.003071294166147709,0.0026024035178124905,14586.0,11978.0,14821.0,13100.0,0.4789019525051117,0.3149508535861969,0.4954011142253876,0.3812839090824127,0.0,0.0,0.0,0.0,14631.0,11927.0,14852.0,13060.0,1.683465600013733,0.01652187966173319,-0.13364643453176236,-0.09432519307781406,-0.01259196363389492,0.017277421429753304,-0.0
399,5,-3.09360257233493e-05,-0.00011513546633068472,0.0013128123246133327,0.003523070365190506,-0.005620618816465139,-0.006712963338941336,-0.017842883244156837,-0.016971101984381676,0.010725523345172405,-0.03821876272559166,-0.07685375958681107,0.07987779378890991,0.0,0.0,0.0,0.005028098355978727,0.003871169174090028,-0.0,0.0,0.0,0.0,0.005278215743601322,0.003071294166147709,0.0026024035178124905,14586.0,11978.0,14821.0,13100.0,0.4789019525051117,0.3149508535861969,0.4954011142253876,0.3812839090824127,0.0,0.0,0.0,0.0,14631.0,11927.0,14852.0,13060.0,1.685739517211914,0.016712615246707332,-0.1343757461860554,-0.09351932550427727,-0.015724539756774902,0.015710841864347458,0.0
404,5,-3.75975614588242e-05,-9.10969392862171e-05,0.0013371414970606565,0.0006098438752815127,-0.0051328702829778194,-0.005604682490229607,-0.01747126132249832,-0.016077116131782532,0.01122436486184597,0.11555077135562897,-0.055526476353406906,0.05967314913868904,0.0,0.0,0.0,0.005028098355978727,0.003871169174090028,-0.0,0.0,0.0,0.0,0.0035771802067756653,0.0026329357642680407,0.0031865104101598263,14603.0,12276.0,14654.0,13344.0,0.48007655143737793,0.3319571614265442,0.4836769104003906,0.3965558409690857,0.0,0.0,0.0,0.0,14733.0,12189.0,14646.0,13289.0,1.685739517211914,0.01677232563872052,-0.13508723504928558,-0.0932949245050194,-0.015724539756774902,0.015710841864347458,0.0
409,5,-3.117151209153235e-05,-7.902193465270102e-05,0.0013620281824842095,0.0010150636080652475,-0.0035021489020437002,-0.005228270776569843,-0.01747126132249832,-0.016077116131782532,0.01122436486184597,0.11555077135562897,-0.055526476353406906,0.05967314913868904,0.0,0.0,0.0,0.0060295588336884975,0.0005136208492331207,-0.0,0.0,0.0,0.0,0.0035771802067756653,0.0026329357642680407,0.0031865104101598263,14603.0,12276.0,14654.0,13344.0,0.48007655143737793,0.3319571614265442,0.4836769104003906,0.3965558409690857,0.0,0.0,0.0,0.0,14733.0,12189.0,14646.0,13289.0,1.6766901016235352,0.017414474834927997,-0.1356869664577572,-0.09302515336489248,-0.002075101947411895,0.01873881369829178,0.0
414,5,-3.4060409234371036e-05,-5.965637319604866e-05,0.00137789745349437,5.9358018916100264e-05,-0.003724726615473628,-0.003995629958808422,-0.016528349369764328,-0.014518151991069317,0.01207613106817007,0.05321453511714935,-0.17815037071704865,0.07571360468864441,0.0,0.0,0.0,0.0060295588336884975,0.0005136208492331207,-0.0,0.0,0.0,0.0,0.002163744531571865,0.004846533760428429,0.0029586434829980135,14675.0,12163.0,14882.0,12968.0,0.48514726758003235,0.32543787360191345,0.49968793988227844,0.37319251894950867,0.0,0.0,0.0,0.0,14776.0,12117.0,14782.0,13011.0,1.6766901016235352,0.017820951721070916,-0.13617077441080658,-0.09223408683536373,-0.002075101947411895,0.01873881369829178,0.0
419,5,-2.1685213141608983e-05,-2.795201726257801e-05,0.001381935435347259,0.0015087666688486934,-0.005294413771480322,-0.0020828077103942633,-0.016528349369764328,-0.014518151991069317,0.01207613106817007,0.05321453511714935,-0.17815037071704865,0.07571360468864441,0.0,0.0,0.0,0.004396412987262011,7.4715831033245195e-06,-0.0,0.0,0.0,0.0,0.002163744531571865,0.004846533760428429,0.0029586434829980135,14675.0,12163.0,14882.0,12968.0,0.48514726758003235,0.32543787360191345,0.49968793988227844,0.37319251894950867,0.0,0.0,0.0,0.0,14776.0,12117.0,14782.0,13011.0,1.6727186441421509,0.017996930995070794,-0.13719749944015816,-0.09164215203486352,-3.011502485605888e-05,0.01363098993897438,0.0
424,5,-1.9248762328061275e-05,-1.551414970890619e-05,0.001379899913445115,0.0008958805701695383,-0.0036103094462305307,-0.0005888625746592879,-0.015363176353275776,-0.01403866894543171,0.012589792720973492,0.06120257452130318,-0.11743351817131042,0.06813167780637741,0.0,0.0,0.0,0.004396412987262011,7.4715831033245195e-06,-0.0,0.0,0.0,0.0,0.0054232836700975895,7.051930151646957e-05,0.0035896473564207554,14960.0,12052.0,14659.0,13038.0,0.5052098035812378,0.3191060423851013,0.483967661857605,0.37745600938796997,0.0,0.0,0.0,0.0,14748.0,12022.0,15028.0,12883.0,1.6727186441421509,0.017429087337633806,-0.13727699920375266,-0.09134671959544007,-3.011502485605888e-05,0.01363098993897438,0.0
429,5,-1.735058322083205e-05,1.982788489840459e-06,0.001393986283801496,0.0005861337995156646,-0.0035437564365565777,-0.0019259132677689195,-0.015363176353275776,-0.01403866894543171,0.012589792720973492,0.06120257452130318,-0.11743351817131042,0.06813167780637741,0.0,0.0,0.0,0.00430831266567111,0.0008007463184185326,-0.0,0.0,0.0,0.0,0.0054232836700975895,7.051930151646957e-05,0.0035896473564207554,14960.0,12052.0,14659.0,13038.0,0.5052098035812378,0.3191060423851013,0.483967661857605,0.37745600938796997,0.0,0.0,0.0,0.0,14748.0,12022.0,15028.0,12883.0,1.6835896968841553,0.017223164300501793,-0.13789397989404903,-0.09103820668946272,-0.003248471301048994,0.013444652780890465,0.0
434,5,1.3828353075950872e-05,-1.0041984751296695e-05,0.0013558926293626428,0.003975925967097282,2.547018084442243e-05,0.0038008817937225103,-0.015363176353275776,-0.01403866894543171,0.012589792720973492,0.06120257452130318,-0.11743351817131042,0.06813167780637741,0.0,0.0,0.0,0.00430831266567111,0.0008007463184185326,-0.0,0.0,0.0,0.0,0.0054232836700975895,7.051930151646957e-05,0.0035896473564207554,14960.0,12052.0,14659.0,13038.0,0.5052098035812378,0.3191060423851013,0.483967661857605,0.37745600938796997,0.0,0.0,0.0,0.0,14748.0,12022.0,15028.0,12883.0,1.6835896968841553,0.017142689480919505,-0.13825449181921023,-0.09049665695601064,-0.003248471301048994,0.013444652780890465,0.0
440,5,4.386945420264965e-06,6.5829390223370865e-06,0.0013841340551152825,0.00045740147470496595,-0.0019848027732223272,-0.0018686257535591722,-0.015954514965415,-0.011897695250809193,0.013588481582701206,-0.0529620498418808,-0.16081120073795319,0.08173549175262451,0.0,0.0,0.0,-5.0467027904232964e-05,0.0036470945924520493,-0.0,0.0,0.0,0.0,0.0031163229141384363,0.0021100903395563364,0.003004031954333186,14722.0,11822.0,15287.0,12639.0,0.48838329315185547,0.3062400221824646,0.5287803411483765,0.3532864451408386,0.0,0.0,0.0,0.0,14671.0,12016.0,15035.0,12821.0,1.7046359777450562,0.01683671903141572,-0.13919071512202671,-0.08975584115269529,-0.014980614185333252,-0.00015945859195198864,-0.0
445,5,2.9697966965613887e-05,-2.168188257201109e-05,0.001343554351478815,0.0032202829606831074,0.0025978574994951487,0.004122113808989525,-0.015954514965415,-0.011897695250809193,0.013588481582701206,-0.0529620498418808,-0.16081120073795319,0.08173549175262451,0.0,0.0,0.0,-5.0467027904232964e-05,0.0036470945924520493,-0.0,0.0,0.0,0.0,0.0031163229141384363,0.0021100903395563364,0.003004031954333186,14722.0,11822.0,15287.0,12639.0,0.48838329315185547,0.3062400221824646,0.5287803411483765,0.3532864451408386,0.0,0.0,0.0,0.0,14671.0,12016.0,15035.0,12821.0,1.7046359777450562,0.017326480314839184,-0.13931111619497158,-0.08940391194370408,-0.014980614185333252,-0.00015945859195198864,-0.0
450,5,4.4023334339726716e-05,-3.604561788961291e-05,0.001331173349171877,0.0030071574728935957,0.0027627910021692514,0.0031345754396170378,-0.015606834553182125,-0.010329456999897957,0.015200545080006123,0.06793783605098724,0.0289597325026989,0.07885916531085968,0.0,0.0,0.0,-0.0030631243716925383,0.0029206920880824327,-0.0,0.0,0.0,0.0,0.0045300982892513275,0.0017231116071343422,0.003912961110472679,15038.0,11761.0,15092.0,12673.0,0.5108015537261963,0.30284029245376587,0.5146517753601074,0.3552960753440857,0.0,0.0,0.0,0.0,14723.0,11835.0,15289.0,12557.0,1.738383173942566,0.017750324056041183,-0.1395278160013099,-0.0890960243698917,-0.012234339490532875,-0.009870006702840328,-0.0
455,5,4.399741010274738e-05,-3.645117612904869e-05,0.0013481449568644166,0.0011997518595308065,0.0011537837563082576,-0.0007827647496014833,-0.015606834553182125,-0.010329456999897957,0.015200545080006123,0.06793783605098724,0.0289597325026989,0.07885916531085968,0.0,0.0,0.0,-0.0030631243716925383,0.0029206920880824327,-0.0,0.0,0.0,0.0,0.0045300982892513275,0.0017231116071343422,0.003912961110472679,15038.0,11761.0,15092.0,12673.0,0.5108015537261963,0.30284029245376587,0.5146517753601074,0.3552960753440857,0.0,0.0,0.0,0.0,14723.0,11835.0,15289.0,12557.0,1.738383173942566,0.016950327010547217,-0.13955794826247825,-0.08862902676399473,-0.012234339490532875,-0.009870006702840328,-0.0
460,5,7.303414167836308e-05,-5.1583079766714945e-05,0.0013423641212284565,0.003964308649301529,0.0022773416712880135,0.0003805918386206031,-0.01558499876409769,-0.009835786186158657,0.01590573601424694,-0.0087239695712924,-0.10311119258403778,0.10244715958833694,0.0,0.0,0.0,-0.0013959879288449883,0.001121198176406324,-0.0,0.0,0.0,0.0,0.0032660437282174826,0.0022905864752829075,0.0037658459041267633,15170.0,11760.0,15331.0,12575.0,0.520332932472229,0.3027585446834564,0.5320571660995483,0.3494873344898224,0.0,0.0,0.0,0.0,15017.0,11837.0,14885.0,12872.0,1.753039002418518,0.017814451967159903,-0.13925281945826024,-0.08830422223291028,-0.004736148752272129,-0.004536088556051254,0.0
465,5,6.598162144655362e-05,-5.816966586280614e-05,0.0013720521237701178,0.0007394207641482353,0.0017013272736221552,-0.0034103195648640394,-0.01558499876409769,-0.009835786186158657,0.01590573601424694,-0.0087239695712924,-0.10311119258403778,0.10244715958833694,0.0,0.0,0.0,-0.0013959879288449883,0.001121198176406324,-0.0,0.0,0.0,0.0,0.0032660437282174826,0.0022905864752829075,0.0037658459041267633,15170.0,11760.0,15331.0,12575.0,0.520332932472229,0.3027585446834564,0.5320571660995483,0.3494873344898224,0.0,0.0,0.0,0.0,15017.0,11837.0,14885.0,12872.0,1.753039002418518,0.01755316165351658,-0.1396491489499502,-0.08742501271675188,-0.004736148752272129,-0.004536088556051254,0.0
470,5,6.404931627912447e-05,-6.827608740422875e-05,0.0014229384250938892,6.389160262187943e-05,0.0018933016108348966,-0.007470487616956234,-0.014832362532615662,-0.009460411965847015,0.01706683821976185,0.011018244549632072,-0.08741038292646408,0.0824437215924263,0.0,0.0,0.0,-0.0020367950201034546,0.0007311974768526852,-0.0,0.0,0.0,0.0,0.0014199690194800496,0.004541065543889999,0.004305661655962467,15491.0,11908.0,15198.0,12772.0,0.5437618494033813,0.3110130727291107,0.5223727822303772,0.3612354099750519,0.0,0.0,0.0,0.0,15435.0,11561.0,15284.0,12492.0,1.7770700454711914,0.01785711415342136,-0.1400628720357689,-0.08756965040406006,-0.003131051314994693,-0.006709032226353884,0.0
475,5,8.339253690792248e-05,-6.931190000614151e-05,0.0014454451156780124,0.002346743829548359,0.0008816175977699459,-0.005688998848199844,-0.014832362532615662,-0.009460411965847015,0.01706683821976185,0.011018244549632072,-0.08741038292646408,0.0824437215924263,0.0,0.0,0.0,-0.0020367950201034546,0.0007311974768526852,-0.0,0.0,0.0,0.0,0.0014199690194800496,0.004541065543889999,0.004305661655962467,15491.0,11908.0,15198.0,12772.0,0.5437618494033813,0.3110130727291107,0.5223727822303772,0.3612354099750519,0.0,0.0,0.0,0.0,15435.0,11561.0,15284.0,12492.0,1.7770700454711914,0.01810863705884281,-0.1406890268997057,-0.0867104901855076,-0.003131051314994693,-0.006709032226353884,0.0
