timestamp,dt,pos_x,pos_y,pos_z,vel_x,vel_y,vel_z,roll,pitch,yaw,agv_x,agv_y,agv_z,x_ref,y_ref,z_ref,roll_ref,pitch_ref,yaw_ref,x_vel_ref,y_vel_ref,z_vel_ref,x_torque,y_torque,z_torque,w0,w1,w2,w3,u0,u1,u2,u3,m0req,m1req,m2req,m3req,thrust0,thrust1,thrust2,thrust3,thrust_ref,roll_vicon,pitch_vicon,yaw_vicon,acc_x,acc_y,acc_z,roll_received,pitch_received,yaw_received
5,5,0.0,0.0,0.0,0.001987605122849345,0.00021771974570583552,-0.001141251064836979,-0.00580095499753952,-0.13558319211006165,-0.006297805812209845,0.0004009017429780215,-0.002502857707440853,3.61688835255336e-05,0.0,0.0,0.0,-0.00026759097818285227,0.0018791466718539596,-0.0,0.0,0.0,0.0,0.001114086713641882,0.04121897742152214,-0.0006809579790569842,0.0,0.0,0.0,0.0,0.0,0.0,0.0,0.0,0.0,0.0,0.0,0.0,0.0,0.0,0.0,0.0,1.6460729837417603,0.038184920588529236,-0.019294052206992346,0.02831850526473568,-0.007453519385308027,-0.0008164490573108196,0.0,-0.00026759097818285227,0.0018791466718539596,0.0
34,28,0.0,0.0,0.0,-0.002312562894076109,0.0004108963767066598,0.001262584002688527,-0.00580095499753952,-0.13558319211006165,-0.006297805812209845,0.0004009017429780215,-0.002502857707440853,3.61688835255336e-05,0.0,0.0,0.0,-0.00026759097818285227,0.0018791466718539596,-0.0,0.0,0.0,0.0,0.001114086713641882,0.04121897742152214,-0.0006809579790569842,0.0,0.0,0.0,0.0,0.0,0.0,0.0,0.0,0.0,0.0,0.0,0.0,0.0,0.0,0.0,0.0,1.6460729837417603,0.03806761095551999,-0.019014872240581977,0.028605732660997724,0.008672110736370087,-0.0015408614417538047,0.0,-0.00026759097818285227,0.0018791466718539596,0.0
39,5,0.0,0.0,0.0,-0.001019217655993998,0.0007373442640528083,0.0025149944704025984,-0.005796699319034815,-0.13556912541389465,-0.006288525182753801,0.003663924289867282,-0.0027793247718364,0.0024696909822523594,0.0,0.0,0.0,-0.0005039327661506832,-0.0021816787775605917,-0.0,0.0,0.0,0.0,0.0010841202456504107,0.041222892701625824,-0.0005494601791724563,0.0,0.0,0.0,0.0,0.0,0.0,0.0,0.0,0.0,0.0,0.0,0.0,0.0,0.0,0.0,0.0,1.6496145725250244,0.037968394634229054,-0.019455658703961647,0.028579819360733654,0.008672110736370087,-0.0015408614417538047,0.0,-0.00026759097818285227,0.0018791466718539596,0.0
44,5,0.0,0.0,0.0,-0.001019217655993998,0.0007373442640528083,0.0025149944704025984,-0.005796699319034815,-0.13556912541389465,-0.006288525182753801,0.003663924289867282,-0.0027793247718364,0.0024696909822523594,0.0,0.0,0.0,-0.0005039327661506832,-0.0021816787775605917,-0.0,0.0,0.0,0.0,0.0010841202456504107,0.041222892701625824,-0.0005494601791724563,0.0,0.0,0.0,0.0,0.0,0.0,0.0,0.0,0.0,0.0,0.0,0.0,0.0,0.0,0.0,0.0,1.6496145725250244,0.037968394634229054,-0.019455658703961647,0.028579819360733654,0.008672110736370087,-0.0015408614417538047,0.0,-0.00026759097818285227,0.0018791466718539596,0.0
49,5,0.0,0.0,0.0,-0.001019217655993998,0.0007373442640528083,0.0025149944704025984,-0.005796699319034815,-0.13556912541389465,-0.006288525182753801,0.003663924289867282,-0.0027793247718364,0.0024696909822523594,0.0,0.0,0.0,-0.0009104053024202585,-0.0009680285584181547,-0.0,0.0,0.0,0.0,0.0010812031105160713,0.04002220928668976,-0.0005692472914233804,0.0,0.0,0.0,0.0,0.0,0.0,0.0,0.0,0.0,0.0,0.0,0.0,0.0,0.0,0.0,0.0,1.638545036315918,0.03807625352292315,-0.019165699278475876,0.02835690255004407,0.0038220661226660013,-0.0027650410775095224,0.0,-0.0005039327661506832,-0.0021816787775605917,0.0
54,5,1.8535576600697823e-05,-1.3947607158115716e-06,1.3333238712220918e-05,0.0011664802441373467,0.00017626209591981024,-0.000623278901912272,-0.005796699319034815,-0.13556912541389465,-0.006288525182753801,0.003663924289867282,-0.0027793247718364,0.0024696909822523594,0.0,0.0,0.0,-0.0009104053024202585,-0.0009680285584181547,-0.0,0.0,0.0,0.0,0.0010812031105160713,0.04002220928668976,-0.0005692472914233804,0.0,0.0,0.0,0.0,0.0,0.0,0.0,0.0,0.0,0.0,0.0,0.0,0.0,0.0,0.0,0.0,1.638545036315918,0.037826726645829735,-0.01979606982066558,0.02876159827630983,0.0038220661226660013,-0.0027650410775095224,0.0,-0.0005039327661506832,-0.0021816787775605917,0.0
59,5,2.1998353986418806e-05,-5.323597633832833e-06,2.7922187655349262e-05,0.0011664802441373467,0.00017626209591981024,-0.000623278901912272,-0.0058161430060863495,-0.13555988669395447,-0.0062757027335464954,0.0015139994211494923,-0.0013754403917118907,-0.00031124730594456196,0.0,0.0,0.0,-0.00022022939810995013,0.001134090474806726,-0.0,0.0,0.0,0.0,0.0009822029387578368,0.04041149839758873,-0.0006001549190841615,0.0,0.0,0.0,0.0,0.0,0.0,0.0,0.0,0.0,0.0,0.0,0.0,0.0,0.0,0.0,0.0,1.6380261182785034,0.037814829737970915,-0.019426294271121303,0.028555574400148647,-0.00447631161659956,-0.0006686589331366122,0.0,-0.0009104053024202585,-0.0009680285584181547,0.0
64,5,2.2336094843922183e-05,-7.449315489793662e-06,4.4005486415699124e-05,0.0005071209743618965,0.0003255909832660109,-0.0021793076302856207,-0.0058161430060863495,-0.13555988669395447,-0.0062757027335464954,0.0015139994211494923,-0.0013754403917118907,-0.00031124730594456196,0.0,0.0,0.0,-0.00022022939810995013,0.001134090474806726,-0.0,0.0,0.0,0.0,0.0009822029387578368,0.04041149839758873,-0.0006001549190841615,0.0,0.0,0.0,0.0,0.0,0.0,0.0,0.0,0.0,0.0,0.0,0.0,0.0,0.0,0.0,0.0,1.6380261182785034,0.03782491970915971,-0.01952801857394309,0.028430325795113495,-0.00447631161659956,-0.0006686589331366122,0.0,-0.0009104053024202585,-0.0009680285584181547,0.0
69,5,1.8822862330125645e-05,-1.2056736522936262e-05,2.2959337002248503e-05,-0.00021873950026929379,0.0006831269129179418,0.001653814921155572,-0.005783278960734606,-0.13551296293735504,-0.006296532228589058,-0.0016371209640055895,0.0011538523249328136,0.00021591568656731397,0.0,0.0,0.0,-0.00041711964877322316,0.0005147881456650794,-0.0,0.0,0.0,0.0,0.0011276010191068053,0.0410461500287056,-0.0006696932832710445,0.0,0.0,0.0,0.0,0.0,0.0,0.0,0.0,0.0,0.0,0.0,0.0,0.0,0.0,0.0,0.0,1.632222294807434,0.03760834837880349,-0.019547959767438713,0.02863345136063195,-0.0020246952772140503,-0.0012619683984667063,0.0,-0.00022022939810995013,0.001134090474806726,0.0
74,5,1.7296582882408984e-05,-5.825266725878464e-06,1.3446612683765125e-05,-0.00021873950026929379,0.0006831269129179418,0.001653814921155572,-0.005783278960734606,-0.13551296293735504,-0.006296532228589058,-0.0016371209640055895,0.0011538523249328136,0.00021591568656731397,0.0,0.0,0.0,-0.00041711964877322316,0.0005147881456650794,-0.0,0.0,0.0,0.0,0.0011276010191068053,0.0410461500287056,-0.0006696932832710445,0.0,0.0,0.0,0.0,0.0,0.0,0.0,0.0,0.0,0.0,0.0,0.0,0.0,0.0,0.0,0.0,1.632222294807434,0.037949523188986846,-0.019760403473335807,0.028781506827161994,-0.0020246952772140503,-0.0012619683984667063,0.0,-0.00022022939810995013,0.001134090474806726,0.0
79,5,9.361021511722356e-06,-1.596158108441159e-05,1.5999145034584217e-05,-0.0010397630976513028,0.0014896084321662784,0.00035522214602679014,-0.005785228218883276,-0.13553757965564728,-0.00629750732332468,-0.002227399032562971,0.000518792134243995,-0.00413059676066041,0.0,0.0,0.0,-0.0008568987250328064,-0.00018422478751745075,-0.0,0.0,0.0,0.0,0.0010934266028925776,0.04091598838567734,-0.0007321618613786995,0.0,0.0,0.0,0.0,0.0,0.0,0.0,0.0,0.0,0.0,0.0,0.0,0.0,0.0,0.0,0.0,1.633056640625,0.03764346122895688,-0.019966067868318164,0.028858695199119187,0.0007249383488669991,-0.0025938162580132484,-0.0,-0.00041711964877322316,0.0005147881456650794,0.0
85,6,-9.095677341974806e-06,-3.407347094253055e-06,3.994389044237323e-05,-0.0026307092048227787,-0.0009106646757572889,-0.0027312806341797113,-0.005785228218883276,-0.13553757965564728,-0.00629750732332468,-0.002227399032562971,0.000518792134243995,-0.00413059676066041,0.0,0.0,0.0,0.0011076766531914473,-0.002487549325451255,-0.0,0.0,0.0,0.0,0.0010934266028925776,0.04091598838567734,-0.0007321618613786995,0.0,0.0,0.0,0.0,0.0,0.0,0.0,0.0,0.0,0.0,0.0,0.0,0.0,0.0,0.0,0.0,1.6541329622268677,0.0374720747177372,-0.01994986662591838,0.02857717706223502,0.009915013797581196,0.0033961888402700424,0.0,-0.00041711964877322316,0.0005147881456650794,0.0
90,5,1.1330401321174577e-05,-7.243285836011637e-06,1.0960450708807912e-05,-0.0026307092048227787,-0.0009106646757572889,-0.0027312806341797113,-0.005785228218883276,-0.13553757965564728,-0.00629750732332468,-0.002227399032562971,0.000518792134243995,-0.00413059676066041,0.0,0.0,0.0,0.0011076766531914473,-0.002487549325451255,-0.0,0.0,0.0,0.0,0.0010934266028925776,0.04091598838567734,-0.0007321618613786995,0.0,0.0,0.0,0.0,0.0,0.0,0.0,0.0,0.0,0.0,0.0,0.0,0.0,0.0,0.0,0.0,1.6541329622268677,0.037758971649146746,-0.019940616796748547,0.028580210006541117,0.009915013797581196,0.0033961888402700424,0.0,-0.00041711964877322316,0.0005147881456650794,0.0
95,5,1.1674452252918854e-05,-1.0012081474997103e-05,2.1510939404834062e-05,-0.0010109975701197982,-3.201042636646889e-05,-0.0023585709277540445,-0.005804343149065971,-0.13553644716739655,-0.006326231639832258,-0.0018897391855716705,0.005713919177651405,-0.001184716820716858,0.0,0.0,0.0,2.1395277144620195e-05,-0.000945453008171171,-0.0,0.0,0.0,0.0,0.0010924732778221369,0.04096200689673424,-0.0006811064667999744,0.0,0.0,0.0,0.0,0.0,0.0,0.0,0.0,0.0,0.0,0.0,0.0,0.0,0.0,0.0,0.0,1.6358612775802612,0.03743715999390112,-0.020416294026494544,0.02874045353621945,0.0037268188316375017,6.487433711299673e-05,0.0,-0.00041711964877322316,0.0005147881456650794,0.0
100,5,1.6381387467845343e-05,-3.059364871660364e-06,3.099598325206898e-05,0.00016043317737057805,-0.0008471301407553256,-0.002081633545458317,-0.005804343149065971,-0.13553644716739655,-0.006326231639832258,-0.0018897391855716705,0.005713919177651405,-0.001184716820716858,0.0,0.0,0.0,2.1395277144620195e-05,-0.000945453008171171,-0.0,0.0,0.0,0.0,0.0010924732778221369,0.04096200689673424,-0.0006811064667999744,0.0,0.0,0.0,0.0,0.0,0.0,0.0,0.0,0.0,0.0,0.0,0.0,0.0,0.0,0.0,0.0,1.6358612775802612,0.03761969847841466,-0.020041933434455518,0.028367578385529564,0.0037268188316375017,6.487433711299673e-05,0.0,-0.00041711964877322316,0.0005147881456650794,0.0
105,5,2.0133733414695598e-05,-1.459163013350917e-05,4.0474456909578294e-05,0.00016043317737057805,-0.0008471301407553256,-0.002081633545458317,-0.005822335835546255,-0.1355649083852768,-0.006323179695755243,-0.0007575499475933611,-6.86376733938232e-05,-0.0014400595100596547,0.0,0.0,0.0,2.1395277144620195e-05,-0.000945453008171171,-0.0,0.0,0.0,0.0,0.0010081708896905184,0.04074326902627945,-0.000647996028419584,0.0,0.0,0.0,0.0,0.0,0.0,0.0,0.0,0.0,0.0,0.0,0.0,0.0,0.0,0.0,0.0,1.6358612775802612,0.036631819275972546,-0.020517897394658573,0.028720204290351672,0.0037268188316375017,6.487433711299673e-05,0.0,-0.0008568987250328064,-0.00018422478751745075,0.0
110,5,2.4643337383167818e-05,-8.804544449958485e-06,3.875541005982086e-05,0.0006053258548490703,-0.0010333023965358734,-0.0006263676914386451,-0.005822315346449614,-0.1355762481689453,-0.006357784848660231,-0.0016358487773686647,0.0005584661266766489,-0.0016497173346579075,0.0,0.0,0.0,0.0012602355564013124,0.0006095450953580439,-0.0,0.0,0.0,0.0,0.0014068188611418009,0.04010211303830147,-0.0006803691503591835,0.0,0.0,0.0,0.0,0.0,0.0,0.0,0.0,0.0,0.0,0.0,0.0,0.0,0.0,0.0,0.0,1.6380099058151245,0.03707580941903396,-0.02040071183968032,0.0287071710702766,-0.0024058795534074306,0.0038262787275016308,0.0,0.0011076766531914473,-0.002487549325451255,0.0
118,8,1.1774694939958863e-05,-8.58641851664288e-06,5.606761988019571e-05,-0.0013021067716181278,-0.0004394959833007306,-0.002328012604266405,-0.005822315346449614,-0.1355762481689453,-0.006357784848660231,-0.0016358487773686647,0.0005584661266766489,-0.0016497173346579075,0.0,0.0,0.0,0.0012602355564013124,0.0006095450953580439,-0.0,0.0,0.0,0.0,0.0014068188611418009,0.04010211303830147,-0.0006803691503591835,0.0,0.0,0.0,0.0,0.0,0.0,0.0,0.0,0.0,0.0,0.0,0.0,0.0,0.0,0.0,0.0,1.6380099058151245,0.03604808704327273,-0.02070916885448207,0.02844789641530692,-0.0024058795534074306,0.0038262787275016308,0.0,0.0011076766531914473,-0.002487549325451255,0.0
123,5,1.5004948181740474e-05,-2.8589594876393676e-05,3.589044717955403e-05,-0.0001332123065367341,0.002224582713097334,0.0014900556998327374,-0.00583500973880291,-0.13559935986995697,-0.006380668841302395,-0.002198980888351798,0.003076722612604499,-0.003119000932201743,0.0,0.0,0.0,-0.0027811566833406687,-0.00010485640814295039,-0.0,0.0,0.0,0.0,0.0011990009807050228,0.040632445365190506,-0.0007285929750651121,0.0,0.0,0.0,0.0,0.0,0.0,0.0,0.0,0.0,0.0,0.0,0.0,0.0,0.0,0.0,0.0,1.6488115787506104,0.03607068844782327,-0.020779231862157237,0.028459644008329718,0.0004165970894973725,-0.008499708026647568,-0.0,2.1395277144620195e-05,-0.000945453008171171,0.0
129,6,9.305854291596916e-06,-3.1061252229847014e-05,2.6050665837829e-05,0.000694024667609483,0.0006701904349029064,0.0029500850941985846,-0.00583500973880291,-0.13559935986995697,-0.006380668841302395,-0.002198980888351798,0.003076722612604499,-0.003119000932201743,0.0,0.0,0.0,-0.0027811566833406687,-0.00010485640814295039,-0.0,0.0,0.0,0.0,0.0011990009807050228,0.040632445365190506,-0.0007285929750651121,0.0,0.0,0.0,0.0,0.0,0.0,0.0,0.0,0.0,0.0,0.0,0.0,0.0,0.0,0.0,0.0,1.6488115787506104,0.036268637854159805,-0.020838284693377285,0.028337964851196388,0.0004165970894973725,-0.008499708026647568,-0.0,2.1395277144620195e-05,-0.000945453008171171,0.0
134,5,8.64556113810977e-06,-1.9627435904112644e-05,2.7836274966830388e-05,0.00019837464787997305,-0.001103981863707304,0.000965760787948966,-0.005845578853040934,-0.1356395184993744,-0.006396799348294735,-0.002640026155859232,0.006614090409129858,-0.0028747224714607,0.0,0.0,0.0,-0.0027811566833406687,-0.00010485640814295039,-0.0,0.0,0.0,0.0,0.0013997814385220408,0.04102890565991402,-0.0007063954835757613,0.0,0.0,0.0,0.0,0.0,0.0,0.0,0.0,0.0,0.0,0.0,0.0,0.0,0.0,0.0,0.0,1.6488115787506104,0.03730668911485991,-0.020248945476237998,0.028264136651228358,0.0004165970894973725,-0.008499708026647568,-0.0,0.001022089971229434,0.0001809547538869083,0.0
139,5,1.2025564501527697e-05,-2.5852708859019913e-05,4.26868828071747e-05,0.00019837464787997305,-0.001103981863707304,0.000965760787948966,-0.005845578853040934,-0.1356395184993744,-0.006396799348294735,-0.002640026155859232,0.006614090409129858,-0.0028747224714607,0.0,0.0,0.0,0.0013287754263728857,0.00020077147928532213,-0.0,0.0,0.0,0.0,0.0013997814385220408,0.04102890565991402,-0.0007063954835757613,0.0,0.0,0.0,0.0,0.0,0.0,0.0,0.0,0.0,0.0,0.0,0.0,0.0,0.0,0.0,0.0,1.6368955373764038,0.03724300817855254,-0.02054382295948778,0.028686446091968586,-0.0007919076015241444,0.004031632095575333,-0.0,0.001022089971229434,0.0001809547538869083,0.0
144,5,1.6578811482759193e-05,-2.5020039174705744e-05,4.941149745718576e-05,0.000625739514362067,-0.0005415129708126187,-0.0004206493613310158,-0.005842730402946472,-0.135665625333786,-0.00639917841181159,-0.0004945903201587498,0.0012704768450930715,-0.0016286917962133884,0.0,0.0,0.0,0.0013287754263728857,0.00020077147928532213,-0.0,0.0,0.0,0.0,0.0014351519057527184,0.04114391654729843,-0.0007058264454826713,0.0,0.0,0.0,0.0,0.0,0.0,0.0,0.0,0.0,0.0,0.0,0.0,0.0,0.0,0.0,0.0,1.6368955373764038,0.03609498032734046,-0.02086788433164126,0.028716782107678283,-0.0007919076015241444,0.004031632095575333,-0.0,0.0012602355564013124,0.0006095450953580439,0.0
149,5,1.5880952560110018e-05,-2.331280666112434e-05,6.834863597759977e-05,0.00016655275248922408,-0.00042147314525209367,-0.0024407163728028536,-0.005842730402946472,-0.135665625333786,-0.00639917841181159,-0.0004945903201587498,0.0012704768450930715,-0.0016286917962133884,0.0,0.0,0.0,0.0013287754263728857,0.00020077147928532213,-0.0,0.0,0.0,0.0,0.0014351519057527184,0.04114391654729843,-0.0007058264454826713,0.0,0.0,0.0,0.0,0.0,0.0,0.0,0.0,0.0,0.0,0.0,0.0,0.0,0.0,0.0,0.0,1.6368955373764038,0.03560309925354933,-0.02085802840686636,0.028436193724669784,-0.0007919076015241444,0.004031632095575333,-0.0,0.0012602355564013124,0.0006095450953580439,0.0
155,5,2.0910707462462597e-05,-2.029085226240568e-05,6.482791650341824e-05,0.00016655275248922408,-0.00042147314525209367,-0.0024407163728028536,-0.0058314199559390545,-0.13567358255386353,-0.006417017430067062,-2.2613294277107343e-05,0.003133597783744335,-0.002390653360635042,0.0,0.0,0.0,0.00048050322220660746,0.00018136932339984924,-0.0,0.0,0.0,0.0,0.0006154820439405739,0.04096956551074982,-0.000714336521923542,0.0,0.0,0.0,0.0,0.0,0.0,0.0,0.0,0.0,0.0,0.0,0.0,0.0,0.0,0.0,0.0,1.630136251449585,0.03594228328011003,-0.021625380262841675,0.028707929743857562,-0.0007124257390387356,0.001451873336918652,0.0,-0.0027811566833406687,-0.00010485640814295039,0.0
160,5,2.4916591428336687e-05,-1.5745154087198898e-05,4.9345118895871565e-05,0.000547327334061265,-0.0007140730740502477,0.0008816490881145,-0.0058314199559390545,-0.13567358255386353,-0.006417017430067062,-2.2613294277107343e-05,0.003133597783744335,-0.002390653360635042,0.0,0.0,0.0,0.00048050322220660746,0.00018136932339984924,-0.0,0.0,0.0,0.0,0.0006154820439405739,0.04096956551074982,-0.000714336521923542,0.0,0.0,0.0,0.0,0.0,0.0,0.0,0.0,0.0,0.0,0.0,0.0,0.0,0.0,0.0,0.0,1.630136251449585,0.03648098778188047,-0.020933403457378312,0.028383945668605155,-0.0007124257390387356,0.001451873336918652,0.0,-0.0027811566833406687,-0.00010485640814295039,0.0
165,5,2.6191515644313768e-05,-9.972099178412464e-06,1.146640170190949e-05,0.0003719217493198812,-0.0009783958084881306,0.004898105747997761,-0.0058314199559390545,-0.13567358255386353,-0.006417017430067062,-2.2613294277107343e-05,0.003133597783744335,-0.002390653360635042,0.0,0.0,0.0,0.0008548731566406786,0.0005559165729209781,-0.0,0.0,0.0,0.0,0.0006154820439405739,0.04096956551074982,-0.000714336521923542,0.0,0.0,0.0,0.0,0.0,0.0,0.0,0.0,0.0,0.0,0.0,0.0,0.0,0.0,0.0,0.0,1.6349531412124634,0.03733996202999728,-0.020101145948877307,0.0290971551818188,-0.002190113766118884,0.002590690040960908,-0.0,-0.0027811566833406687,-0.00010485640814295039,0.0
170,5,9.983688869397156e-06,-3.7071506085339934e-05,5.922070340602659e-05,0.0003719217493198812,-0.0009783958084881306,0.004898105747997761,-0.005862947553396225,-0.13569039106369019,-0.0064233713783323765,-0.00564353633671999,-0.014035342261195183,-0.004377273842692375,0.0,0.0,0.0,0.0011425154516473413,0.00036789444857276976,-0.0,0.0,0.0,0.0,0.0013339580036699772,0.041072241961956024,0.0020969032775610685,0.0,0.0,0.0,0.0,0.0,0.0,0.0,0.0,0.0,0.0,0.0,0.0,0.0,0.0,0.0,0.0,1.6359387636184692,0.0355527583896405,-0.021090445322454677,0.027690531369604417,-0.0014502466656267643,0.003464475506916642,-0.0,0.00048050322220660746,0.00018136932339984924,0.0
175,5,-4.24719530656148e-07,-2.7760899683926255e-05,4.8459642130183056e-05,-0.0011002402752637863,-0.0015086309285834432,0.0032505695708096027,-0.0058757225051522255,-0.13566328585147858,-0.005996293388307095,-0.008522646501660347,1.2305426935199648e-05,0.10697385668754578,0.0,0.0,0.0,0.0011425154516473413,0.00036789444857276976,-0.0,0.0,0.0,0.0,0.0013216646621003747,0.04129231348633766,-0.005865412764251232,0.0,0.0,0.0,0.0,0.0,0.0,0.0,0.0,0.0,0.0,0.0,0.0,0.0,0.0,0.0,0.0,1.6359387636184692,0.03711868827158964,-0.020588590506731386,0.027808495731929075,-0.0014502466656267643,0.003464475506916642,-0.0,0.0008548731566406786,0.0005559165729209781,0.0
180,5,4.302301476855064e-06,-4.9483528528071474e-06,3.6487719626165926e-05,0.00012714642798528075,-0.0033409581519663334,0.0027368587907403708,-0.0058757225051522255,-0.13566328585147858,-0.005996293388307095,-0.008522646501660347,1.2305426935199648e-05,0.10697385668754578,0.0,0.0,0.0,0.0011425154516473413,0.00036789444857276976,-0.0,0.0,0.0,0.0,0.0013216646621003747,0.04129231348633766,-0.005865412764251232,0.0,0.0,0.0,0.0,0.0,0.0,0.0,0.0,0.0,0.0,0.0,0.0,0.0,0.0,0.0,0.0,1.6359387636184692,0.03627413118674832,-0.020792937870603594,0.029943717404508977,-0.0014502466656267643,0.003464475506916642,-0.0,0.0008548731566406786,0.0005559165729209781,0.0
185,5,-5.675894954038085e-06,-1.0254083463223651e-05,4.118641300010495e-05,0.00012714642798528075,-0.0033409581519663334,0.0027368587907403708,-0.006051056552678347,-0.13573621213436127,-0.007230910938233137,0.0085370521992445,-0.0049463678151369095,-0.11045998334884644,0.0,0.0,0.0,0.004063702188432217,0.00012530668755061924,-0.0,0.0,0.0,0.0,0.0013216646621003747,0.04129231348633766,-0.005865412764251232,0.0,0.0,0.0,0.0,0.0,0.0,0.0,0.0,0.0,0.0,0.0,0.0,0.0,0.0,0.0,0.0,1.6596159934997559,0.0367959591054318,-0.02076069525562758,0.029201384459916515,-0.0005011066677980125,0.012500744313001633,-0.0,0.0008548731566406786,0.0005559165729209781,0.0
190,5,3.9326478145085275e-06,-5.397727727540769e-05,4.4332533434499055e-05,0.0012038836721330881,0.003910399973392487,0.0007172092446126044,-0.006051056552678347,-0.13573621213436127,-0.007230910938233137,0.0085370521992445,-0.0049463678151369095,-0.11045998334884644,0.0,0.0,0.0,-0.004839170258492231,0.0011287645902484655,-0.0,0.0,0.0,0.0,0.0013216646621003747,0.04129231348633766,-0.005865412764251232,0.0,0.0,0.0,0.0,0.0,0.0,0.0,0.0,0.0,0.0,0.0,0.0,0.0,0.0,0.0,0.0,1.6680324077606201,0.03559771713957719,-0.020779554353264118,0.026888537025834554,-0.004536851774901152,-0.014961696229875088,-0.0,0.0008548731566406786,0.0005559165729209781,0.0
196,6,1.1663307304843329e-05,-4.4593332859221846e-05,4.998220538254827e-05,0.0014092326164245605,0.0004380868631415069,-0.00039107698830775917,-0.005617036484181881,-0.13551734387874603,-0.005054699722677469,0.019157521426677704,0.012766859494149685,-0.0037992135621607304,0.0,0.0,0.0,-0.004839170258492231,0.0011287645902484655,-0.0,0.0,0.0,0.0,0.0012600572081282735,0.041149578988552094,0.003129915101453662,0.0,0.0,0.0,0.0,0.0,0.0,0.0,0.0,0.0,0.0,0.0,0.0,0.0,0.0,0.0,0.0,1.6680324077606201,0.03536884443832261,-0.021306745786546025,0.027553933270000212,-0.004536851774901152,-0.014961696229875088,-0.0,0.0011425154516473413,0.00036789444857276976,0.0
201,5,3.7088768294779584e-05,-1.747415808495134e-05,5.571458314079791e-05,0.0014092326164245605,0.0004380868631415069,-0.00039107698830775917,-0.005617036484181881,-0.13551734387874603,-0.005054699722677469,0.019157521426677704,0.012766859494149685,-0.0037992135621607304,0.0,0.0,0.0,-0.004839170258492231,0.0011287645902484655,-0.0,0.0,0.0,0.0,0.0012600572081282735,0.041149578988552094,0.003129915101453662,0.0,0.0,0.0,0.0,0.0,0.0,0.0,0.0,0.0,0.0,0.0,0.0,0.0,0.0,0.0,0.0,1.6680324077606201,0.035784256541633426,-0.021140143625847492,0.029309263147825466,-0.004536851774901152,-0.014961696229875088,-0.0,0.0011425154516473413,0.00036789444857276976,0.0
206,5,3.815714080701582e-05,-2.539843444537837e-05,5.476580554386601e-05,0.000691897701472044,0.0011261479230597615,-4.2577517888275906e-05,-0.005975429434329271,-0.13556911051273346,-0.008045872673392296,-0.02127709425985813,-0.07016129046678543,0.06829943507909775,0.0,0.0,0.0,-0.0005718600004911423,0.0013879311736673117,-0.0,0.0,0.0,0.0,0.00015862539294175804,0.04092777520418167,0.0006414650706574321,0.0,0.0,0.0,0.0,0.0,0.0,0.0,0.0,0.0,0.0,0.0,0.0,0.0,0.0,0.0,0.0,1.6413650512695312,0.036491651264925436,-0.020518590938759077,0.028310718403718155,-0.005489399190992117,-0.0017398163909092546,0.0,-0.004839170258492231,0.0011287645902484655,0.0
211,5,1.4526763152389321e-05,-5.199369115871377e-05,9.201190550811589e-05,-0.0025588860735297203,0.0036418901290744543,-0.00448656314983964,-0.005975429434329271,-0.13556911051273346,-0.008045872673392296,-0.02127709425985813,-0.07016129046678543,0.06829943507909775,0.0,0.0,0.0,-0.0005718600004911423,0.0013879311736673117,-0.0,0.0,0.0,0.0,0.00015862539294175804,0.04092777520418167,0.0006414650706574321,0.0,0.0,0.0,0.0,0.0,0.0,0.0,0.0,0.0,0.0,0.0,0.0,0.0,0.0,0.0,0.0,1.6413650512695312,0.03581912362172047,-0.022034731350451364,0.027489503628047567,-0.005489399190992117,-0.0017398163909092546,0.0,-0.004839170258492231,0.0011287645902484655,0.0
216,5,-1.7470420061727054e-05,-4.885946327704005e-05,0.00010746395128080621,-0.0025588860735297203,0.0036418901290744543,-0.00448656314983964,-0.006020679604262114,-0.13454703986644745,-0.007345015648752451,0.0022162124514579773,-0.12484599649906158,0.05813073366880417,0.0,0.0,0.0,-0.004500996321439743,-0.0023625940084457397,-0.0,0.0,0.0,0.0,0.0011366276303306222,0.040177855640649796,-0.0010022135684266686,0.0,0.0,0.0,0.0,0.0,0.0,0.0,0.0,0.0,0.0,0.0,0.0,0.0,0.0,0.0,0.0,1.6713850498199463,0.03622656380861611,-0.02208468104834699,0.027885010654237045,0.009515086188912392,-0.013944118283689022,0.0,-0.0005718600004911423,0.0013879311736673117,0.0
222,5,-3.439088322920725e-05,-5.195186531636864e-05,0.00013798389409203082,-0.0030540102161467075,0.0018278441857546568,-0.005457017570734024,-0.006020679604262114,-0.13454703986644745,-0.007345015648752451,0.0022162124514579773,-0.12484599649906158,0.05813073366880417,0.0,0.0,0.0,-0.004500996321439743,-0.0023625940084457397,-0.0,0.0,0.0,0.0,0.0011366276303306222,0.040177855640649796,-0.0010022135684266686,0.0,0.0,0.0,0.0,0.0,0.0,0.0,0.0,0.0,0.0,0.0,0.0,0.0,0.0,0.0,0.0,1.6713850498199463,0.03627692675704085,-0.02369846214617311,0.028997364485098966,0.009515086188912392,-0.013944118283689022,0.0,-0.0005718600004911423,0.0013879311736673117,0.0
227,5,-6.583435606444255e-05,-6.84965489199385e-05,0.00018432723300065845,-0.004994820337742567,0.0027164998464286327,-0.007744008209556341,-0.006020679604262114,-0.13454703986644745,-0.007345015648752451,0.0022162124514579773,-0.12484599649906158,0.05813073366880417,0.0,0.0,0.0,-0.0023171871434897184,-0.002905525965616107,-0.0,0.0,0.0,0.0,0.0011366276303306222,0.040177855640649796,-0.0010022135684266686,0.0,0.0,0.0,0.0,0.0,0.0,0.0,0.0,0.0,0.0,0.0,0.0,0.0,0.0,0.0,0.0,1.6627014875411987,0.036097734746877705,-0.024778097850471283,0.02741898499965296,0.011640969663858414,-0.007141397800296545,0.0,-0.0005718600004911423,0.0013879311736673117,0.0
232,5,-9.343458077637479e-05,-6.126423249952495e-05,0.00023641783627681434,-0.004994820337742567,0.0027164998464286327,-0.007744008209556341,-0.005447586998343468,-0.13251329958438873,-0.006258649285882711,0.06341852992773056,-0.2021990567445755,-0.17517493665218353,0.0,0.0,0.0,-0.0023171871434897184,-0.002905525965616107,-0.0,0.0,0.0,0.0,-0.00013461449998430908,0.03770742192864418,-0.002520566573366523,0.0,0.0,0.0,0.0,0.0,0.0,0.0,0.0,0.0,0.0,0.0,0.0,0.0,0.0,0.0,0.0,1.6627014875411987,0.03736249669891513,-0.026074414560006143,0.027256321634682546,0.011640969663858414,-0.007141397800296545,0.0,-0.004500996321439743,-0.0023625940084457397,0.0
237,5,-0.00014979181287344545,-4.3428270146250725e-05,0.0003669446741696447,-0.008760795928537846,-0.0010537153575569391,-0.018760820850729942,-0.005080395378172398,-0.12927919626235962,-0.007409306243062019,0.03777768835425377,-0.7153845429420471,0.1977090984582901,0.0,0.0,0.0,-0.0033700834028422832,-0.004739831201732159,-0.0,0.0,0.0,0.0,0.00015332980547100306,0.03182879462838173,0.0030905308667570353,0.0,0.0,0.0,0.0,0.0,0.0,0.0,0.0,0.0,0.0,0.0,0.0,0.0,0.0,0.0,0.0,1.6849473714828491,0.03769296325218559,-0.029950524797197536,0.02874175596649239,0.019244074821472168,-0.010525288991630077,0.0,-0.0023171871434897184,-0.002905525965616107,0.0
242,5,-0.0002521292772144079,-5.9161087847314775e-05,0.0005083806463517249,-0.015784814953804016,0.001466452027671039,-0.02447664551436901,-0.005080395378172398,-0.12927919626235962,-0.007409306243062019,0.03777768835425377,-0.7153845429420471,0.1977090984582901,0.0,0.0,0.0,-0.0033700834028422832,-0.004739831201732159,-0.0,0.0,0.0,0.0,0.00015332980547100306,0.03182879462838173,0.0030905308667570353,0.0,0.0,0.0,0.0,0.0,0.0,0.0,0.0,0.0,0.0,0.0,0.0,0.0,0.0,0.0,0.0,1.6849473714828491,0.03833390185135513,-0.03420398724027551,0.028774982668281147,0.019244074821472168,-0.010525288991630077,0.0,-0.0023171871434897184,-0.002905525965616107,0.0
247,5,-0.0003722051624208689,-4.946642729919404e-05,0.000664527527987957,-0.02072303183376789,-0.0005767783732153475,-0.028528288006782532,-0.005080395378172398,-0.12927919626235962,-0.007409306243062019,0.03777768835425377,-0.7153845429420471,0.1977090984582901,0.0,0.0,0.0,-0.0017580100102350116,-0.014061596244573593,-0.0,0.0,0.0,0.0,0.00015332980547100306,0.03182879462838173,0.0030905308667570353,0.0,0.0,0.0,0.0,0.0,0.0,0.0,0.0,0.0,0.0,0.0,0.0,0.0,0.0,0.0,0.0,1.787967324256897,0.04064686015759729,-0.03936206805432969,0.028679697340142665,0.06058025732636452,-0.005826249253004789,0.0,-0.0023171871434897184,-0.002905525965616107,0.0
252,5,-0.000281099317362532,-0.0001617951929802075,0.00037770686321891844,-0.02072303183376789,-0.0005767783732153475,-0.028528288006782532,-0.003990736324340105,-0.11859282106161118,-0.006652539130300283,0.10232381522655487,-1.192840337753296,-0.1558016687631607,0.0,0.0,0.0,-0.0017580100102350116,-0.014061596244573593,-0.0,0.0,0.0,0.0,-0.0001371132821077481,0.02496108040213585,-0.0035732174292206764,0.0,0.0,0.0,0.0,0.0,0.0,0.0,0.0,0.0,0.0,0.0,0.0,0.0,0.0,0.0,0.0,1.787967324256897,0.04812449943706425,-0.04133183426712771,0.028756486524689203,0.06058025732636452,-0.005826249253004789,0.0,-0.0033700834028422832,-0.004739831201732159,0.0
257,5,-0.00048200550372712314,-0.00014315916632767767,0.0006738169468007982,-0.032397955656051636,-0.002467033453285694,-0.046944521367549896,-0.003990736324340105,-0.11859282106161118,-0.006652539130300283,0.10232381522655487,-1.192840337753296,-0.1558016687631607,0.0,0.0,0.0,0.0003734672209247947,-0.017918407917022705,-0.0,0.0,0.0,0.0,-0.0001371132821077481,0.02496108040213585,-0.0035732174292206764,0.0,0.0,0.0,0.0,0.0,0.0,0.0,0.0,0.0,0.0,0.0,0.0,0.0,0.0,0.0,0.0,1.8357770442962646,0.04870409842420366,-0.05152231657156159,0.030209493210417066,0.07925888895988464,0.0012708109570667148,0.0,-0.0033700834028422832,-0.004739831201732159,0.0
262,5,-0.0007237521931529045,-0.000155629197251983,0.0009878405835479498,-0.041968781501054764,0.0005095899687148631,-0.05646064877510071,-0.003251452697440982,-0.10565546154975891,-0.006869030185043812,0.05749442055821419,-2.016125202178955,0.18136967718601227,0.0,0.0,0.0,0.0003734672209247947,-0.017918407917022705,-0.0,0.0,0.0,0.0,-0.0010478439508005977,0.011555963195860386,0.0028372297529131174,0.0,0.0,0.0,0.0,0.0,0.0,0.0,0.0,0.0,0.0,0.0,0.0,0.0,0.0,0.0,0.0,1.8357770442962646,0.050057899165419695,-0.06355056568312102,0.030355060118915,0.07925888895988464,0.0012708109570667148,0.0,-0.0033700834028422832,-0.004739831201732159,0.0
267,5,-0.0010179082164540887,-0.0001599194365553558,0.0013416912406682968,-0.041968781501054764,0.0005095899687148631,-0.05646064877510071,-0.003251452697440982,-0.10565546154975891,-0.006869030185043812,0.05749442055821419,-2.016125202178955,0.18136967718601227,0.0,0.0,0.0,-0.0007318094721995294,-0.03280317038297653,-0.0,0.0,0.0,0.0,-0.0010478439508005977,0.011555963195860386,0.0028372297529131174,0.0,0.0,0.0,0.0,0.0,0.0,0.0,0.0,0.0,0.0,0.0,0.0,0.0,0.0,0.0,0.0,2.041862726211548,0.0504160054720751,-0.07794886213292619,0.03114926470865049,0.16136758029460907,-0.0027697021141648293,0.0,-0.0033700834028422832,-0.004739831201732159,0.0
272,5,-0.001330678816884756,-0.00013732702063862234,0.0017062071710824966,-0.05431997776031494,-0.002507254248484969,-0.06632617861032486,-0.0024898715782910585,-0.07696860283613205,-0.006549632176756859,0.022465676069259644,-2.7696027755737305,-0.09631375968456268,0.0,0.0,0.0,-0.0007318094721995294,-0.03280317038297653,-0.0,0.0,0.0,0.0,0.0006916132406331599,-0.0039279647171497345,-0.0032618397381156683,0.0,0.0,0.0,0.0,0.0,0.0,0.0,0.0,0.0,0.0,0.0,0.0,0.0,0.0,0.0,0.0,2.041862726211548,0.05202697306732411,-0.09295121455550318,0.03240024817731546,0.16136758029460907,-0.0027697021141648293,0.0,-0.0017580100102350116,-0.014061596244573593,0.0
277,5,-0.0017045866698026657,-0.00011198449647054076,0.0020939582027494907,-0.06659693270921707,-0.004044003784656525,-0.07306060194969177,-0.0024898715782910585,-0.07696860283613205,-0.006549632176756859,0.022465676069259644,-2.7696027755737305,-0.09631375968456268,0.0,0.0,0.0,0.0021578066516667604,-0.040535006672143936,-0.0,0.0,0.0,0.0,0.0006916132406331599,-0.0039279647171497345,-0.0032618397381156683,0.0,0.0,0.0,0.0,0.0,0.0,0.0,0.0,0.0,0.0,0.0,0.0,0.0,0.0,0.0,0.0,2.1611080169677734,0.05323049154240226,-0.10871189773695283,0.03220441679384918,0.21102730929851532,0.008643644861876965,0.0,-0.0017580100102350116,-0.014061596244573593,0.0
282,5,-0.0021351163741201162,-9.115118155023083e-05,0.0024686779361218214,-0.06659693270921707,-0.004044003784656525,-0.07306060194969177,-0.002501659095287323,-0.05215403065085411,-0.00585427600890398,-0.03652482107281685,-3.3518009185791016,0.07452795654535294,0.0,0.0,0.0,0.0021578066516667604,-0.040535006672143936,-0.0,0.0,0.0,0.0,-7.062886288622394e-05,-0.022023094817996025,0.0022004912607371807,0.0,0.0,0.0,0.0,0.0,0.0,0.0,0.0,0.0,0.0,0.0,0.0,0.0,0.0,0.0,0.0,2.1611080169677734,0.05447266769083522,-0.12623511468153242,0.032503030244427605,0.21102730929851532,0.008643644861876965,0.0,0.0003734672209247947,-0.017918407917022705,0.0
287,5,-0.0025733900256454945,-8.235967834480107e-05,0.00279017211869359,-0.0792316123843193,-0.0026725821662694216,-0.06780355423688889,-0.002501659095287323,-0.05215403065085411,-0.00585427600890398,-0.03652482107281685,-3.3518009185791016,0.07452795654535294,0.0,0.0,0.0,0.0021612890996038914,-0.05412927642464638,-0.0,0.0,0.0,0.0,-7.062886288622394e-05,-0.022023094817996025,0.0022004912607371807,0.0,0.0,0.0,0.0,0.0,0.0,0.0,0.0,0.0,0.0,0.0,0.0,0.0,0.0,0.0,0.0,2.3877782821655273,0.05334464610277659,-0.14469641736902664,0.0345950573189237,0.31128987669944763,0.009565657004714012,0.0,0.0003734672209247947,-0.017918407917022705,0.0
292,5,-0.0030283876694738865,-5.6054999731713906e-05,0.0031286864541471004,-0.0862923413515091,-0.004225594457238913,-0.06774313747882843,-0.002884145826101303,-0.010721436701714993,-0.006166038569062948,-0.05221867933869362,-3.6293601989746094,0.0037392275407910347,0.0,0.0,0.0,0.0021612890996038914,-0.05412927642464638,-0.0,0.0,0.0,0.0,0.0010423026978969574,-0.037504490464925766,-0.0015754431951791048,0.0,0.0,0.0,0.0,0.0,0.0,0.0,0.0,0.0,0.0,0.0,0.0,0.0,0.0,0.0,0.0,2.3877782821655273,0.053826693944466916,-0.16324810894423772,0.03601196456201483,0.31128987669944763,0.009565657004714012,0.0,-0.0007318094721995294,-0.03280317038297653,0.0
298,5,-0.0034395919647067785,-2.5741181161720306e-05,0.0034584328532218933,-0.0862923413515091,-0.004225594457238913,-0.06774313747882843,-0.002884145826101303,-0.010721436701714993,-0.006166038569062948,-0.05221867933869362,-3.6293601989746094,0.0037392275407910347,0.0,0.0,0.0,0.003449958749115467,-0.057930830866098404,-0.0,0.0,0.0,0.0,0.0010423026978969574,-0.037504490464925766,-0.0015754431951791048,0.0,0.0,0.0,0.0,0.0,0.0,0.0,0.0,0.0,0.0,0.0,0.0,0.0,0.0,0.0,0.0,2.4552736282348633,0.05469755097539891,-0.18073057522281974,0.036462026337651936,0.34254375100135803,0.01570076495409012,0.0,-0.0007318094721995294,-0.03280317038297653,0.0
303,5,-0.0038539632223546505,4.766252004628768e-06,0.00375353847630322,-0.08424149453639984,-0.005351129919290543,-0.0625099316239357,-0.003549009095877409,0.01872517168521881,-0.005403746850788593,-0.09954588115215302,-3.6230974197387695,-0.04568297788500786,0.0,0.0,0.0,0.003449958749115467,-0.057930830866098404,-0.0,0.0,0.0,0.0,0.0017968546599149704,-0.05350141599774361,-0.0005857269279658794,0.0,0.0,0.0,0.0,0.0,0.0,0.0,0.0,0.0,0.0,0.0,0.0,0.0,0.0,0.0,0.0,2.4552736282348633,0.054191374811053114,-0.19711354903222378,0.037353222903365506,0.34254375100135803,0.01570076495409012,0.0,0.0021578066516667604,-0.040535006672143936,0.0
308,5,-0.004473845940083265,-4.862048081122339e-05,0.0038591178599745035,-0.10808254778385162,0.004265956114977598,-0.03767349570989609,-0.003549009095877409,0.01872517168521881,-0.005403746850788593,-0.09954588115215302,-3.6230974197387695,-0.04568297788500786,0.0,0.0,0.0,0.003449958749115467,-0.057930830866098404,-0.0,0.0,0.0,0.0,0.0017968546599149704,-0.05350141599774361,-0.0005857269279658794,0.0,0.0,0.0,0.0,0.0,0.0,0.0,0.0,0.0,0.0,0.0,0.0,0.0,0.0,0.0,0.0,2.4552736282348633,0.0574929704912839,-0.2240815880925063,0.03829141035865073,0.34254375100135803,0.01570076495409012,0.0,0.0021578066516667604,-0.040535006672143936,0.0
313,5,-0.004869464319199324,5.165421498531941e-06,0.004148909356445074,-0.10808254778385162,0.004265956114977598,-0.03767349570989609,-0.0047378684394061565,0.06066475436091423,-0.005344902630895376,-0.13483937084674835,-3.332257032394409,0.1426282823085785,0.0,0.0,0.0,-0.003332859603688121,-0.06780903786420822,-0.0,0.0,0.0,0.0,0.0012347622541710734,-0.06363225728273392,0.0020857530180364847,0.0,0.0,0.0,0.0,0.0,0.0,0.0,0.0,0.0,0.0,0.0,0.0,0.0,0.0,0.0,0.0,2.633449077606201,0.05574732756605905,-0.23707639113881496,0.03849454483823239,0.42996108531951904,-0.01626855693757534,0.0,0.0021612890996038914,-0.05412927642464638,0.0
318,5,-0.00525012519210577,6.39599675196223e-05,0.004397260490804911,-0.08891230821609497,-0.0053489631973207,-0.04487153887748718,-0.0047378684394061565,0.06066475436091423,-0.005344902630895376,-0.13483937084674835,-3.332257032394409,0.1426282823085785,0.0,0.0,0.0,-0.003332859603688121,-0.06780903786420822,-0.0,0.0,0.0,0.0,0.0012347622541710734,-0.06363225728273392,0.0020857530180364847,0.0,0.0,0.0,0.0,0.0,0.0,0.0,0.0,0.0,0.0,0.0,0.0,0.0,0.0,0.0,0.0,2.633449077606201,0.054631973315504546,-0.24921700316771325,0.03872347636926448,0.42996108531951904,-0.01626855693757534,0.0,0.0021612890996038914,-0.05412927642464638,0.0
323,5,-0.005610933061689138,0.00016584638797212392,0.004621683619916439,-0.07886184751987457,-0.014365955255925655,-0.04487939178943634,-0.005943048745393753,0.08439764380455017,-0.004845168441534042,-0.1712578982114792,-2.611093521118164,-0.08045757561922073,0.0,0.0,0.0,0.004408527631312609,-0.060253266245126724,-0.0,0.0,0.0,0.0,0.003383051371201873,-0.06885979324579239,-0.0019253650680184364,0.0,0.0,0.0,0.0,0.0,0.0,0.0,0.0,0.0,0.0,0.0,0.0,0.0,0.0,0.0,0.0,2.4973275661468506,0.05247447054844158,-0.26074412879334313,0.040031891000815584,0.3623605966567993,0.020406806841492653,0.0,0.003449958749115467,-0.057930830866098404,0.0
328,5,-0.0058880820870399475,0.0002788683050312102,0.004793837666511536,-0.07886184751987457,-0.014365955255925655,-0.04487939178943634,-0.005943048745393753,0.08439764380455017,-0.004845168441534042,-0.1712578982114792,-2.611093521118164,-0.08045757561922073,0.0,0.0,0.0,0.004408527631312609,-0.060253266245126724,-0.0,0.0,0.0,0.0,0.003383051371201873,-0.06885979324579239,-0.0019253650680184364,0.0,0.0,0.0,0.0,0.0,0.0,0.0,0.0,0.0,0.0,0.0,0.0,0.0,0.0,0.0,0.0,2.4973275661468506,0.04878226675616845,-0.268755764243496,0.041123818486134445,0.3623605966567993,0.020406806841492653,0.0,0.003449958749115467,-0.057930830866098404,0.0
333,5,-0.0063160490244627,0.0004332454700488597,0.0050389147363603115,-0.046546176075935364,-0.016153499484062195,-0.026886437088251114,-0.0083003556355834,0.10989739745855331,-0.004566974472254515,-0.2533915638923645,-1.6940182447433472,0.09326504915952682,0.0,0.0,0.0,0.012281048111617565,-0.05599306896328926,-0.0,0.0,0.0,0.0,0.002006311435252428,-0.0686483085155487,0.0018972493708133698,0.0,0.0,0.0,0.0,0.0,0.0,0.0,0.0,0.0,0.0,0.0,0.0,0.0,0.0,0.0,0.0,2.433957815170288,0.045347636854945673,-0.27696616031194,0.038886801778419106,0.32820072770118713,0.05540350079536438,0.0,-0.003332859603688121,-0.06780903786420822,0.0
338,5,-0.0063160490244627,0.0004332454700488597,0.0050389147363603115,-0.046546176075935364,-0.016153499484062195,-0.026886437088251114,-0.0083003556355834,0.10989739745855331,-0.004566974472254515,-0.2533915638923645,-1.6940182447433472,0.09326504915952682,0.0,0.0,0.0,0.012281048111617565,-0.05599306896328926,-0.0,0.0,0.0,0.0,0.002006311435252428,-0.0686483085155487,0.0018972493708133698,0.0,0.0,0.0,0.0,0.0,0.0,0.0,0.0,0.0,0.0,0.0,0.0,0.0,0.0,0.0,0.0,2.433957815170288,0.045347636854945673,-0.27696616031194,0.038886801778419106,0.32820072770118713,0.05540350079536438,0.0,-0.003332859603688121,-0.06780903786420822,0.0
343,5,-0.006437608040869236,0.0005349919083528221,0.005118662025779486,-0.046546176075935364,-0.016153499484062195,-0.026886437088251114,-0.010249326936900616,0.11835555732250214,-0.0049417512491345406,-0.30491164326667786,-0.5179097056388855,-0.07958801090717316,0.0,0.0,0.0,0.015591176226735115,-0.039901282638311386,-0.0,0.0,0.0,0.0,0.004984383936971426,-0.05944215506315231,-0.003025573445484042,0.0,0.0,0.0,0.0,0.0,0.0,0.0,0.0,0.0,0.0,0.0,0.0,0.0,0.0,0.0,0.0,2.178668737411499,0.0439713470062408,-0.2774683331232768,0.03743375350884581,0.20939289033412933,0.06295738369226456,0.0,0.004408527631312609,-0.060253266245126724,0.0
348,5,-0.006418342236429453,0.0008461944526061416,0.005121040157973766,-0.003889563027769327,-0.028151486068964005,-0.002831142395734787,-0.010249326936900616,0.11835555732250214,-0.0049417512491345406,-0.30491164326667786,-0.5179097056388855,-0.07958801090717316,0.0,0.0,0.0,0.015591176226735115,-0.039901282638311386,-0.0,0.0,0.0,0.0,0.004984383936971426,-0.05944215506315231,-0.003025573445484042,0.0,0.0,0.0,0.0,0.0,0.0,0.0,0.0,0.0,0.0,0.0,0.0,0.0,0.0,0.0,0.0,2.178668737411499,0.03554914937514529,-0.26750417768633034,0.03774543170794438,0.20939289033412933,0.06295738369226456,0.0,0.004408527631312609,-0.060253266245126724,0.0
354,5,-0.006418342236429453,0.0008461944526061416,0.005121040157973766,-0.003889563027769327,-0.028151486068964005,-0.002831142395734787,-0.013877840712666512,0.11725770682096481,-0.004923130385577679,-0.32349857687950134,0.6614329218864441,0.07236932963132858,0.0,0.0,0.0,0.030622564256191254,-0.010690959170460701,-0.0,0.0,0.0,0.0,0.007137430366128683,-0.04681164771318436,0.0010497153270989656,0.0,0.0,0.0,0.0,0.0,0.0,0.0,0.0,0.0,0.0,0.0,0.0,0.0,0.0,0.0,0.0,1.9424480199813843,0.03554914937514529,-0.26750417768633034,0.03774543170794438,0.05001566559076309,0.11022400856018066,0.0,0.012281048111617565,-0.05599306896328926,0.0
359,5,-0.006275857333093882,0.0010133599862456322,0.004898246377706528,0.009888707660138607,-0.022488456219434738,0.015418150462210178,-0.013877840712666512,0.11725770682096481,-0.004923130385577679,-0.32349857687950134,0.6614329218864441,0.07236932963132858,0.0,0.0,0.0,0.030622564256191254,-0.010690959170460701,-0.0,0.0,0.0,0.0,0.007137430366128683,-0.04681164771318436,0.0010497153270989656,0.0,0.0,0.0,0.0,0.0,0.0,0.0,0.0,0.0,0.0,0.0,0.0,0.0,0.0,0.0,0.0,1.9424480199813843,0.034474543580191475,-0.24902222947699448,0.03410852526008585,0.05001566559076309,0.11022400856018066,0.0,0.012281048111617565,-0.05599306896328926,0.0
364,5,-0.006075100973248482,0.0011317705502733588,0.00469284038990736,0.0280462559312582,-0.023204639554023743,0.030815934762358665,-0.01631883904337883,0.10696271061897278,-0.004913023207336664,-0.3236548602581024,1.8228191137313843,-0.07656525820493698,0.0,0.0,0.0,0.026035457849502563,0.0005379045614972711,-0.0,0.0,0.0,0.0,0.008353150449693203,-0.026640772819519043,-0.0017347580287605524,0.0,0.0,0.0,0.0,0.0,0.0,0.0,0.0,0.0,0.0,0.0,0.0,0.0,0.0,0.0,0.0,1.863486647605896,0.029929295423567946,-0.23426049582746966,0.03241028493243504,-0.002414549933746457,0.0899106040596962,-0.0,0.015591176226735115,-0.039901282638311386,0.0
369,5,-0.005842846818268299,0.0012266408884897828,0.0044377329759299755,0.03908897936344147,-0.020666297525167465,0.042939309030771255,-0.01631883904337883,0.10696271061897278,-0.004913023207336664,-0.3236548602581024,1.8228191137313843,-0.07656525820493698,0.0,0.0,0.0,0.026035457849502563,0.0005379045614972711,-0.0,0.0,0.0,0.0,0.008353150449693203,-0.026640772819519043,-0.0017347580287605524,0.0,0.0,0.0,0.0,0.0,0.0,0.0,0.0,0.0,0.0,0.0,0.0,0.0,0.0,0.0,0.0,1.863486647605896,0.02675762072005265,-0.21842324655445405,0.032803456430505355,-0.002414549933746457,0.0899106040596962,-0.0,0.015591176226735115,-0.039901282638311386,0.0
374,5,-0.005614365451037884,0.0012876917608082294,0.004196454305201769,0.03908897936344147,-0.020666297525167465,0.042939309030771255,-0.01631883904337883,0.10696271061897278,-0.004913023207336664,-0.3236548602581024,1.8228191137313843,-0.07656525820493698,0.0,0.0,0.0,0.022794879972934723,0.023787131533026695,-0.0,0.0,0.0,0.0,0.008353150449693203,-0.026640772819519043,-0.0017347580287605524,0.0,0.0,0.0,0.0,0.0,0.0,0.0,0.0,0.0,0.0,0.0,0.0,0.0,0.0,0.0,0.0,1.9944236278533936,0.02690515274118484,-0.2024762376979679,0.032340516829317226,-0.11427667737007141,0.08425485342741013,-0.0,0.015591176226735115,-0.039901282638311386,0.0
379,5,-0.005352191627025604,0.0013590187299996614,0.003911606967449188,0.047096461057662964,-0.016825759783387184,0.05135740339756012,-0.019210074096918106,0.07900691032409668,-0.007319885306060314,-0.25832846760749817,2.795790672302246,-0.10545729845762253,0.0,0.0,0.0,0.022794879972934723,0.023787131533026695,-0.0,0.0,0.0,0.0,0.010663573630154133,-0.0027145345229655504,-0.004032779950648546,0.0,0.0,0.0,0.0,0.0,0.0,0.0,0.0,0.0,0.0,0.0,0.0,0.0,0.0,0.0,0.0,1.9944236278533936,0.027472392960456237,-0.18467599524249456,0.031945197924769964,-0.11427667737007141,0.08425485342741013,-0.0,0.030622564256191254,-0.010690959170460701,0.0
384,5,-0.005029827821999788,0.0014225433114916086,0.0035507322754710913,0.05752222239971161,-0.0143532520160079,0.06384789198637009,-0.019210074096918106,0.07900691032409668,-0.007319885306060314,-0.25832846760749817,2.795790672302246,-0.10545729845762253,0.0,0.0,0.0,0.018667131662368774,0.030119653791189194,-0.0,0.0,0.0,0.0,0.010663573630154133,-0.0027145345229655504,-0.004032779950648546,0.0,0.0,0.0,0.0,0.0,0.0,0.0,0.0,0.0,0.0,0.0,0.0,0.0,0.0,0.0,0.0,2.050321578979492,0.025229680143745707,-0.1662459787452901,0.030707530006085906,-0.14875873923301697,0.07093527913093567,-0.0,0.030622564256191254,-0.010690959170460701,0.0
389,5,-0.004697299096733332,0.0014851136365905404,0.0031903653871268034,0.05752222239971161,-0.0143532520160079,0.06384789198637009,-0.020938381552696228,0.05367766320705414,-0.007150114513933659,-0.174562007188797,3.4876251220703125,0.11582383513450623,0.0,0.0,0.0,0.018667131662368774,0.030119653791189194,-0.0,0.0,0.0,0.0,0.00945243053138256,0.03706315904855728,0.0002932395145762712,0.0,0.0,0.0,0.0,0.0,0.0,0.0,0.0,0.0,0.0,0.0,0.0,0.0,0.0,0.0,0.0,2.050321578979492,0.025540494214139235,-0.14774426471095425,0.031117154872139435,-0.14875873923301697,0.07093527913093567,-0.0,0.022794879972934723,0.023787131533026695,0.0
394,5,-0.004401991609483957,0.0015397361712530255,0.002825894858688116,0.05844581499695778,-0.012295994907617569,0.0692756175994873,-0.020938381552696228,0.05367766320705414,-0.007150114513933659,-0.174562007188797,3.4876251220703125,0.11582383513450623,0.0,0.0,0.0,0.018667131662368774,0.030119653791189194,-0.0,0.0,0.0,0.0,0.00945243053138256,0.03706315904855728,0.0002932395145762712,0.0,0.0,0.0,0.0,0.0,0.0,0.0,0.0,0.0,0.0,0.0,0.0,0.0,0.0,0.0,0.0,2.050321578979492,0.027214924451959013,-0.13079784854182055,0.03190278444218096,-0.19475650787353516,0.0545986071228981,-0.0,0.022794879972934723,0.023787131533026695,0.0
399,5,-0.0041587138548493385,0.001602696836926043,0.002509648445993662,0.0525716207921505,-0.012473685666918755,0.06565979868173599,-0.021770182996988297,0.010622495785355568,-0.007259172387421131,0.005829712841659784,3.7436070442199707,0.06930660456418991,0.0,0.0,0.0,0.013764536939561367,0.03777880594134331,-0.0,0.0,0.0,0.0,0.00945243053138256,0.03706315904855728,0.0002932395145762712,0.0,0.0,0.0,0.0,0.0,0.0,0.0,0.0,0.0,0.0,0.0,0.0,0.0,0.0,0.0,0.0,2.140111207962036,0.028062958813541084,-0.115057933748299,0.032335040054677404,-0.19475650787353516,0.0545986071228981,-0.0,0.022794879972934723,0.023787131533026695,0.0
404,5,-0.003945271484553814,0.0016264829318970442,0.0021816412918269634,0.0525716207921505,-0.012473685666918755,0.06565979868173599,-0.021770182996988297,0.010622495785355568,-0.007259172387421131,0.005829712841659784,3.7436070442199707,0.06930660456418991,0.0,0.0,0.0,0.014347851276397705,0.03469928726553917,-0.0,0.0,0.0,0.0,0.00945243053138256,0.03706315904855728,0.0002932395145762712,0.0,0.0,0.0,0.0,0.0,0.0,0.0,0.0,0.0,0.0,0.0,0.0,0.0,0.0,0.0,0.0,2.0963268280029297,0.03000695203023529,-0.10016558288207447,0.03238550314788888,-0.17522642016410828,0.05574774742126465,-0.0,0.022794879972934723,0.023787131533026695,0.0
409,5,-0.003771683666855097,0.0016588913276791573,0.001875107060186565,0.04185919463634491,-0.008878477849066257,0.06304803490638733,-0.021011654287576675,-0.01859377883374691,-0.0063669560477137566,0.1788063496351242,3.5918123722076416,0.24873070418834686,0.0,0.0,0.0,0.014347851276397705,0.03469928726553917,-0.0,0.0,0.0,0.0,0.006197356153279543,0.05681328848004341,0.006171778775751591,0.0,0.0,0.0,0.0,0.0,0.0,0.0,0.0,0.0,0.0,0.0,0.0,0.0,0.0,0.0,0.0,2.0963268280029297,0.03259909221138712,-0.08757370999220344,0.03312384231150927,-0.17522642016410828,0.05574774742126465,-0.0,0.013764536939561367,0.03777880594134331,0.0
415,5,-0.003669659374281764,0.0016524654347449541,0.0016267448663711548,0.02898658625781536,-0.002780292648822069,0.05502266809344292,-0.021011654287576675,-0.01859377883374691,-0.0063669560477137566,0.1788063496351242,3.5918123722076416,0.24873070418834686,0.0,0.0,0.0,0.014347851276397705,0.03469928726553917,-0.0,0.0,0.0,0.0,0.006197356153279543,0.05681328848004341,0.006171778775751591,0.0,0.0,0.0,0.0,0.0,0.0,0.0,0.0,0.0,0.0,0.0,0.0,0.0,0.0,0.0,0.0,2.0963268280029297,0.03600348797432537,-0.07656734532509311,0.03228109155629844,-0.08828557282686234,0.019546210765838623,-0.0,0.013764536939561367,0.03777880594134331,0.0
420,5,-0.0035891802981495857,0.0016585435951128602,0.0014461495447903872,0.02898658625781536,-0.002780292648822069,0.05502266809344292,-0.012911276891827583,-0.07936131954193115,-0.0030466564930975437,0.7039195895195007,2.164773941040039,0.04477492347359657,0.0,0.0,0.0,0.005655908957123756,0.019652459770441055,-0.0,0.0,0.0,0.0,0.0015406927559524775,0.05724543333053589,0.0012685711262747645,0.0,0.0,0.0,0.0,0.0,0.0,0.0,0.0,0.0,0.0,0.0,0.0,0.0,0.0,0.0,0.0,1.8644717931747437,0.03851929135860885,-0.06821361012207576,0.03156651885677011,-0.08828557282686234,0.019546210765838623,-0.0,0.014347851276397705,0.03469928726553917,0.0
425,5,-0.003596847178414464,0.0016172382747754455,0.0013367346255108714,0.010674618184566498,0.0038445242680609226,0.03513886034488678,-0.012911276891827583,-0.07936131954193115,-0.0030466564930975437,0.7039195895195007,2.164773941040039,0.04477492347359657,0.0,0.0,0.0,-0.0017595560057088733,0.004936251323670149,-0.0,0.0,0.0,0.0,0.0015406927559524775,0.05724543333053589,0.0012685711262747645,0.0,0.0,0.0,0.0,0.0,0.0,0.0,0.0,0.0,0.0,0.0,0.0,0.0,0.0,0.0,0.0,1.681747317314148,0.044566023636789166,-0.06281260472266656,0.031138531338850573,-0.02000356838107109,-0.00548494141548872,-0.0,0.014347851276397705,0.03469928726553917,0.0
430,5,-0.0036585740745067596,0.0016006126534193754,0.0013158249203115702,-0.0031373926904052496,0.003532881150022149,0.016564708203077316,-0.00359945185482502,-0.09849813580513,-0.0034243168774992228,0.8419018983840942,1.0476007461547852,0.05240883305668831,0.0,0.0,0.0,-0.0017595560057088733,0.004936251323670149,-0.0,0.0,0.0,0.0,-0.0027682508807629347,0.046284180134534836,0.00028724136063829064,0.0,0.0,0.0,0.0,0.0,0.0,0.0,0.0,0.0,0.0,0.0,0.0,0.0,0.0,0.0,0.0,1.681747317314148,0.048923091585088486,-0.06017529601098355,0.031032260055878877,-0.02000356838107109,-0.00548494141548872,-0.0,0.005655908957123756,0.019652459770441055,0.0
435,5,-0.0037878351286053658,0.001610639737918973,0.0013885335065424442,-0.0031373926904052496,0.003532881150022149,0.016564708203077316,-0.00359945185482502,-0.09849813580513,-0.0034243168774992228,0.8419018983840942,1.0476007461547852,0.05240883305668831,0.0,0.0,0.0,-0.0013675483642145991,-0.00795105379074812,-0.0,0.0,0.0,0.0,-0.0027682508807629347,0.046284180134534836,0.00028724136063829064,0.0,0.0,0.0,0.0,0.0,0.0,0.0,0.0,0.0,0.0,0.0,0.0,0.0,0.0,0.0,0.0,1.7148733139038086,0.052695359675769576,-0.059831821742487704,0.030722002325103206,0.032855164259672165,-0.004346934147179127,-0.0,0.005655908957123756,0.019652459770441055,0.0
440,5,-0.003956702537834644,0.0015952595276758075,0.0015112676192075014,-0.021519022062420845,0.003258773125708103,-0.00810219906270504,0.0032848925329744816,-0.10138580203056335,-0.002711733803153038,0.8588300943374634,-0.15931570529937744,0.005345939192920923,0.0,0.0,0.0,-0.0013675483642145991,-0.00795105379074812,-0.0,0.0,0.0,0.0,-0.006443051155656576,0.03196200728416443,0.0008102408610284328,0.0,0.0,0.0,0.0,0.0,0.0,0.0,0.0,0.0,0.0,0.0,0.0,0.0,0.0,0.0,0.0,1.7148733139038086,0.05493416421205768,-0.06280632890569994,0.030586338129540404,0.032855164259672165,-0.004346934147179127,-0.0,-0.0017595560057088733,0.004936251323670149,0.0
445,5,-0.004165019374340773,0.0016047826502472162,0.0016733058728277683,-0.03360564261674881,0.00016074281302280724,-0.02268548309803009,0.0032848925329744816,-0.10138580203056335,-0.002711733803153038,0.8588300943374634,-0.15931570529937744,0.005345939192920923,0.0,0.0,0.0,0.0022174243349581957,-0.030770452693104744,-0.0,0.0,0.0,0.0,-0.006443051155656576,0.03196200728416443,0.0008102408610284328,0.0,0.0,0.0,0.0,0.0,0.0,0.0,0.0,0.0,0.0,0.0,0.0,0.0,0.0,0.0,0.0,2.012580156326294,0.0588633511340055,-0.06791131446532707,0.031603816186785316,0.1492001861333847,0.008271987549960613,0.0,-0.0017595560057088733,0.004936251323670149,0.0
450,5,-0.00441962294280529,0.0016132101882249117,0.0019078204641118646,-0.03360564261674881,0.00016074281302280724,-0.02268548309803009,0.013973163440823555,-0.09198299795389175,-0.003610168118029833,0.885680079460144,-1.3384523391723633,-0.046061545610427856,0.0,0.0,0.0,0.0022174243349581957,-0.030770452693104744,-0.0,0.0,0.0,0.0,-0.0077731492929160595,0.015064670704305172,-0.0022979972418397665,0.0,0.0,0.0,0.0,0.0,0.0,0.0,0.0,0.0,0.0,0.0,0.0,0.0,0.0,0.0,0.0,2.012580156326294,0.06333748885398927,-0.07625228887053401,0.031947027229337066,0.1492001861333847,0.008271987549960613,0.0,-0.0013675483642145991,-0.00795105379074812,0.0
455,5,-0.004721600096672773,0.00160247425083071,0.0022231964394450188,-0.04967956244945526,0.0013526167022064328,-0.04691930487751961,0.013973163440823555,-0.09198299795389175,-0.003610168118029833,0.885680079460144,-1.3384523391723633,-0.046061545610427856,0.0,0.0,0.0,0.0009460558649152517,-0.04076720401644707,-0.0,0.0,0.0,0.0,-0.0077731492929160595,0.015064670704305172,-0.0022979972418397665,0.0,0.0,0.0,0.0,0.0,0.0,0.0,0.0,0.0,0.0,0.0,0.0,0.0,0.0,0.0,0.0,2.164358615875244,0.06551623869620779,-0.08760233069301229,0.031042958000925498,0.21255511045455933,0.003795372787863016,0.0,-0.0013675483642145991,-0.00795105379074812,0.0
460,5,-0.00479585025459528,0.0014490339672192931,0.0019569003488868475,-0.028781834989786148,0.018953876569867134,0.013187797740101814,0.020344430580735207,-0.07741323858499527,-0.0035508908331394196,0.6626929640769958,-2.231637716293335,0.03575356677174568,0.0,0.0,0.0,0.0009460558649152517,-0.04076720401644707,-0.0,0.0,0.0,0.0,-0.008204967714846134,-0.006965174339711666,0.0006301823304966092,0.0,0.0,0.0,0.0,0.0,0.0,0.0,0.0,0.0,0.0,0.0,0.0,0.0,0.0,0.0,0.0,2.164358615875244,0.077432187901059,-0.09198086843631778,0.030367138933538686,0.21255511045455933,0.003795372787863016,0.0,0.0022174243349581957,-0.030770452693104744,0.0
465,5,-0.005206256173551083,0.001423910609446466,0.0022886665537953377,-0.028781834989786148,0.018953876569867134,0.013187797740101814,0.020344430580735207,-0.07741323858499527,-0.0035508908331394196,0.6626929640769958,-2.231637716293335,0.03575356677174568,0.0,0.0,0.0,-0.016911160200834274,-0.02818409539759159,-0.0,0.0,0.0,0.0,-0.008204967714846134,-0.006965174339711666,0.0006301823304966092,0.0,0.0,0.0,0.0,0.0,0.0,0.0,0.0,0.0,0.0,0.0,0.0,0.0,0.0,0.0,0.0,2.0159497261047363,0.07878597388697495,-0.10775628747266267,0.031098350653834907,0.13687247037887573,-0.06318646669387817,-0.0,0.0022174243349581957,-0.030770452693104744,0.0
470,5,-0.005644158460199833,0.0014455394120886922,0.002561186905950308,-0.06406101584434509,0.004986091051250696,-0.0274273119866848,0.026424171403050423,-0.04700859263539314,-0.004635855555534363,0.39075717329978943,-2.901719570159912,-0.016159024089574814,0.0,0.0,0.0,-0.016911160200834274,-0.02818409539759159,-0.0,0.0,0.0,0.0,-0.007006992120295763,-0.019684672355651855,-0.001065800548531115,0.0,0.0,0.0,0.0,0.0,0.0,0.0,0.0,0.0,0.0,0.0,0.0,0.0,0.0,0.0,0.0,2.0159497261047363,0.08210699461003394,-0.12063417206627189,0.03208301402544151,0.13687247037887573,-0.06318646669387817,-0.0,0.0022174243349581957,-0.030770452693104744,0.0
476,5,-0.006056410726159811,0.0014779214980080724,0.002835523569956422,-0.07509464770555496,-0.0018914162646979094,-0.04389133304357529,0.026424171403050423,-0.04700859263539314,-0.004635855555534363,0.39075717329978943,-2.901719570159912,-0.016159024089574814,0.0,0.0,0.0,-0.016911160200834274,-0.02818409539759159,-0.0,0.0,0.0,0.0,-0.007006992120295763,-0.019684672355651855,-0.001065800548531115,0.0,0.0,0.0,0.0,0.0,0.0,0.0,0.0,0.0,0.0,0.0,0.0,0.0,0.0,0.0,0.0,2.0159497261047363,0.08228731770670959,-0.1360548465213469,0.034311029379162604,0.13687247037887573,-0.06318646669387817,-0.0,0.0022174243349581957,-0.030770452693104744,0.0
481,5,-0.00651033828034997,0.001500491052865982,0.0031519571784883738,-0.07509464770555496,-0.0018914162646979094,-0.04389133304357529,0.028359271585941315,-0.022408971562981606,-0.0047592767514288425,0.13459542393684387,-3.2319998741149902,0.11283009499311447,0.0,0.0,0.0,0.003440620843321085,-0.05461002141237259,-0.0,0.0,0.0,0.0,-0.007390753831714392,-0.03697896748781204,0.0024529837537556887,0.0,0.0,0.0,0.0,0.0,0.0,0.0,0.0,0.0,0.0,0.0,0.0,0.0,0.0,0.0,0.0,2.3968398571014404,0.08381624198484783,-0.1525084248690537,0.036103910372669974,0.31524255871772766,0.015285613015294075,0.0,0.0009460558649152517,-0.04076720401644707,0.0
486,5,-0.0069331820122897625,0.0015300221275538206,0.0034146080724895,-0.08077913522720337,-0.004300296772271395,-0.04907464608550072,0.028359271585941315,-0.022408971562981606,-0.0047592767514288425,0.13459542393684387,-3.2319998741149902,0.11283009499311447,0.0,0.0,0.0,0.003440620843321085,-0.05461002141237259,-0.0,0.0,0.0,0.0,-0.007390753831714392,-0.03697896748781204,0.0024529837537556887,0.0,0.0,0.0,0.0,0.0,0.0,0.0,0.0,0.0,0.0,0.0,0.0,0.0,0.0,0.0,0.0,2.3968398571014404,0.08285789525639257,-0.16800646719463624,0.03731607782413961,0.31524255871772766,0.015285613015294075,0.0,0.0009460558649152517,-0.04076720401644707,0.0
491,5,-0.0073651401326060295,0.0016096110921353102,0.0037071083206683397,-0.08414661139249802,-0.011270798742771149,-0.054729875177145004,0.027814768254756927,0.016302404925227165,-0.00449740095064044,-0.19205452501773834,-3.2114741802215576,0.11266977339982986,0.0,0.0,0.0,0.005410646088421345,-0.057768985629081726,-0.0,0.0,0.0,0.0,-0.008936988189816475,-0.04108123853802681,0.0024555716663599014,0.0,0.0,0.0,0.0,0.0,0.0,0.0,0.0,0.0,0.0,0.0,0.0,0.0,0.0,0.0,0.0,2.4539873600006104,0.08075586156757668,-0.18234324349036357,0.03917437614898288,0.3414058983325958,0.024610823020339012,0.0,-0.016911160200834274,-0.02818409539759159,0.0
496,5,-0.007821217179298401,0.0016616814536973834,0.003978476393967867,-0.08838784694671631,-0.010756758973002434,-0.05445610359311104,0.027814768254756927,0.016302404925227165,-0.00449740095064044,-0.19205452501773834,-3.2114741802215576,0.11266977339982986,0.0,0.0,0.0,0.005410646088421345,-0.057768985629081726,-0.0,0.0,0.0,0.0,-0.008936988189816475,-0.04108123853802681,0.0024555716663599014,0.0,0.0,0.0,0.0,0.0,0.0,0.0,0.0,0.0,0.0,0.0,0.0,0.0,0.0,0.0,0.0,2.4539873600006104,0.07928678043680294,-0.19568506231797922,0.03994827748694863,0.3414058983325958,0.024610823020339012,0.0,-0.016911160200834274,-0.02818409539759159,0.0
501,5,-0.008237122558057308,0.0017359639750793576,0.0041861627250909805,-0.08838784694671631,-0.010756758973002434,-0.05445610359311104,0.02473534643650055,0.04089413210749626,-0.004240380134433508,-0.5576883554458618,-2.927542209625244,0.08631107956171036,0.0,0.0,0.0,0.010572170838713646,-0.06155974417924881,-0.0,0.0,0.0,0.0,-0.0015036369441077113,-0.05782317370176315,0.0018076826818287373,0.0,0.0,0.0,0.0,0.0,0.0,0.0,0.0,0.0,0.0,0.0,0.0,0.0,0.0,0.0,0.0,2.528759717941284,0.07613511696211171,-0.20804575548123092,0.04112198016042397,0.3748501241207123,0.04955250024795532,0.0,0.003440620843321085,-0.05461002141237259,0.0
