timestamp,dt,pos_x,pos_y,pos_z,vel_x,vel_y,vel_z,roll,pitch,yaw,agv_x,agv_y,agv_z,x_ref,y_ref,z_ref,roll_ref,pitch_ref,yaw_ref,x_vel_ref,y_vel_ref,z_vel_ref,x_torque,y_torque,z_torque,w0,w1,w2,w3,u0,u1,u2,u3,m0req,m1req,m2req,m3req,thrust0,thrust1,thrust2,thrust3,thrust_ref,roll_vicon,pitch_vicon,yaw_vicon,acc_x,acc_y,acc_z
5,5,0.0,0.0,0.0,7.801568244758528e-06,7.281455327756703e-05,-0.0011676590656861663,-0.00715245446190238,-0.10486479848623276,0.0062439278699457645,-0.0021606460213661194,0.001075509237125516,-0.0010571592720225453,0.0,0.0,0.0,-6.958577432669699e-05,7.455627383023966e-06,-0.0,0.0,0.0,0.0,0.0014504384016618133,0.03145228326320648,0.0007055426831357181,1495.0,1495.0,1495.0,1495.0,0.0,0.0,0.0,0.0,0.0,0.0,0.0,0.0,1495.0,1495.0,1495.0,1495.0,1.6284600496292114,0.04256910014249552,-0.04859625777617961,0.08236436065968536,-2.9255881599965505e-05,-0.000273054582066834,0.0
30,25,0.0,0.0,0.0,-0.00016940332716330886,-4.3256357457721606e-05,0.00039150172960944474,-0.00715245446190238,-0.10486479848623276,0.0062439278699457645,-0.0021606460213661194,0.001075509237125516,-0.0010571592720225453,0.0,0.0,0.0,-6.958577432669699e-05,7.455627383023966e-06,-0.0,0.0,0.0,0.0,0.0014504384016618133,0.03145228326320648,0.0007055426831357181,1495.0,1495.0,1495.0,1495.0,0.0,0.0,0.0,0.0,0.0,0.0,0.0,0.0,1495.0,1495.0,1495.0,1495.0,1.6284600496292114,0.04281019589556862,-0.04813518160217414,0.08219776823030878,-2.9255881599965505e-05,-0.000273054582066834,0.0
35,5,0.0,0.0,0.0,-0.00091980752767995,-0.0005235523567534983,-0.003394544357433915,-0.007170182187110186,-0.10486731678247452,0.00623807217925787,-0.0014056309591978788,-0.002978861564770341,0.002968644490465522,0.0,0.0,0.0,4.133825859753415e-05,-0.00016189155576284975,-0.0,0.0,0.0,0.0,0.0014369157142937183,0.031466010957956314,0.0004935943870805204,1495.0,1495.0,1495.0,1495.0,0.0,0.0,0.0,0.0,0.0,0.0,0.0,0.0,1495.0,1495.0,1495.0,1495.0,1.6284600496292114,0.04182332177569453,-0.048491320474971164,0.08237762036740075,0.000635262462310493,0.0001622113340999931,0.0
40,5,0.0,0.0,0.0,0.0008937583188526332,0.001542544225230813,-0.0013269501505419612,-0.007170182187110186,-0.10486731678247452,0.00623807217925787,-0.0014056309591978788,-0.002978861564770341,0.002968644490465522,0.0,0.0,0.0,4.133825859753415e-05,-0.00016189155576284975,-0.0,0.0,0.0,0.0,0.0014369157142937183,0.031466010957956314,0.0004935943870805204,1495.0,1495.0,1495.0,1495.0,0.0,0.0,0.0,0.0,0.0,0.0,0.0,0.0,1495.0,1495.0,1495.0,1495.0,1.6284600496292114,0.0426504706047759,-0.0483569058576297,0.08251386174802813,0.000635262462310493,0.0001622113340999931,0.0
45,5,0.0,0.0,0.0,0.002559287939220667,5.06150427099783e-05,-0.0002448258164804429,-0.007187549490481615,-0.10485213249921799,0.00622799014672637,-0.001202774583362043,-0.003121028421446681,0.0007765779737383127,0.0,0.0,0.0,-6.199509516591206e-05,0.0024113149847835302,-0.0,0.0,0.0,0.0,0.0014369157142937183,0.031466010957956314,0.0004935943870805204,1495.0,1495.0,1495.0,1495.0,0.0,0.0,0.0,0.0,0.0,0.0,0.0,0.0,1495.0,1495.0,1495.0,1495.0,1.6517524719238281,0.0421969085032315,-0.04842783147394539,0.0823262272241655,-0.009597329422831535,-0.0001898064074339345,0.0
53,8,-1.1469600394775625e-05,4.890382570010843e-06,-2.9023979095654795e-06,-7.39476308808662e-05,-0.0009697273490019143,0.0013467769604176283,-0.007187549490481615,-0.10485213249921799,0.00622799014672637,-0.001202774583362043,-0.003121028421446681,0.0007765779737383127,0.0,0.0,0.0,-6.199509516591206e-05,0.0024113149847835302,-0.0,0.0,0.0,0.0,0.0014369157142937183,0.031466010957956314,0.0004935943870805204,1495.0,1495.0,1495.0,1495.0,0.0,0.0,0.0,0.0,0.0,0.0,0.0,0.0,1495.0,1495.0,1495.0,1495.0,1.6517524719238281,0.04278080889949538,-0.04839543199359942,0.08263119796994954,-0.009597329422831535,-0.0001898064074339345,0.0
58,5,-4.585135229717707e-06,1.4254142115532886e-05,-1.2625038834812585e-05,0.0007965568220242858,-0.0015115421265363693,0.0017054277705028653,-0.007187549490481615,-0.10485213249921799,0.00622799014672637,-0.001202774583362043,-0.003121028421446681,0.0007765779737383127,0.0,0.0,0.0,0.001208267523907125,-8.636940765427426e-05,-0.0,0.0,0.0,0.0,0.001433810219168663,0.031405191868543625,0.0005663455231115222,15673.0,10651.0,11417.0,15473.0,0.5573347210884094,0.24458102881908417,0.2841047942638397,0.5424394607543945,0.0,0.0,0.0,0.0,1495.0,1495.0,1495.0,1495.0,1.6357311010360718,0.0425652718606922,-0.04824911545798446,0.08201246464717822,0.0003404265735298395,0.0036633918061852455,0.0
64,5,-1.918672933243215e-05,7.427465334330918e-06,-2.9951017495477572e-05,-0.0014335686573758721,0.00021458437549881637,0.002761288546025753,-0.007187549490481615,-0.10485213249921799,0.00622799014672637,-0.001202774583362043,-0.003121028421446681,0.0007765779737383127,0.0,0.0,0.0,0.001208267523907125,-8.636940765427426e-05,-0.0,0.0,0.0,0.0,0.001433810219168663,0.031405191868543625,0.0005663455231115222,15673.0,10651.0,11417.0,15473.0,0.5573347210884094,0.24458102881908417,0.2841047942638397,0.5424394607543945,0.0,0.0,0.0,0.0,1495.0,1495.0,1495.0,1495.0,1.6357311010360718,0.04230378837544459,-0.04822874513910858,0.08221564086289679,0.0003404265735298395,0.0036633918061852455,0.0
69,5,-2.2932012143428437e-05,8.399118087254465e-06,-4.0243601688416675e-05,-0.0010228614555671811,-3.0764538678340614e-05,0.0023396252654492855,-0.0071869827806949615,-0.10482271760702133,0.006270445417612791,0.002164269797503948,-0.0005220330785959959,0.001194287440739572,0.0,0.0,0.0,-0.0002511452476028353,-0.0013864506036043167,-0.0,0.0,0.0,0.0,0.0014257030561566353,0.031447768211364746,0.0006540540489368141,15715.0,10590.0,11466.0,15435.0,0.5604485273361206,0.24156801402568817,0.28677424788475037,0.5396692752838135,0.0,0.0,0.0,0.0,15722.0,10578.0,11478.0,15426.0,1.6407582759857178,0.04261529217896949,-0.048301545802635494,0.08260615423323014,0.005481516942381859,-0.0007637972594238818,0.0
75,6,-3.3480806450825185e-05,6.324958576442441e-06,-3.626165198511444e-05,-0.001674999832175672,0.00023659327416680753,0.00045801649685017765,-0.0071869827806949615,-0.10482271760702133,0.006270445417612791,0.002164269797503948,-0.0005220330785959959,0.001194287440739572,0.0,0.0,0.0,-0.0002511452476028353,-0.0013864506036043167,-0.0,0.0,0.0,0.0,0.0014257030561566353,0.031447768211364746,0.0006540540489368141,15715.0,10590.0,11466.0,15435.0,0.5604485273361206,0.24156801402568817,0.28677424788475037,0.5396692752838135,0.0,0.0,0.0,0.0,15722.0,10578.0,11478.0,15426.0,1.6407582759857178,0.04168410945743289,-0.04841625898751193,0.0826156376499618,0.005481516942381859,-0.0007637972594238818,0.0
80,5,-2.8458993256208487e-05,4.733590230898699e-06,-2.068707544822246e-05,-6.738225056324154e-05,0.0002856015635188669,-0.0016857428709045053,-0.007193269673734903,-0.10476358979940414,0.00626422930508852,0.0006638154736720026,-0.0026625844184309244,0.006160120014101267,0.0,0.0,0.0,-0.0002798139466904104,-0.0016327021876350045,-0.0,0.0,0.0,0.0,0.0016717794351279736,0.03145835921168327,0.0006854675593785942,15848.0,10620.0,11545.0,15536.0,0.5705462098121643,0.24304157495498657,0.29103296995162964,0.5471317172050476,0.0,0.0,0.0,0.0,15745.0,10572.0,11559.0,15447.0,1.6434307098388672,0.042424630385166986,-0.04853639599354797,0.08236981109135962,0.006465618498623371,-0.0008523722644895315,0.0
85,5,-2.149668216588907e-05,9.44300427363487e-06,-1.6105332178995013e-05,0.0008085243753157556,-0.0004508890851866454,-0.0012241062941029668,-0.007193269673734903,-0.10476358979940414,0.00626422930508852,0.0006638154736720026,-0.0026625844184309244,0.006160120014101267,0.0,0.0,0.0,-0.0002798139466904104,-0.0016327021876350045,-0.0,0.0,0.0,0.0,0.0016717794351279736,0.03145835921168327,0.0006854675593785942,15848.0,10620.0,11545.0,15536.0,0.5705462098121643,0.24304157495498657,0.29103296995162964,0.5471317172050476,0.0,0.0,0.0,0.0,15745.0,10572.0,11559.0,15447.0,1.6434307098388672,0.0424455276552668,-0.048204968482001745,0.08212609488271715,0.006465618498623371,-0.0008523722644895315,0.0
90,5,-2.4795672288746573e-05,1.7962964449225183e-10,1.2249395695107523e-05,-7.246915629366413e-05,0.0009527833317406476,-0.0038922098465263844,-0.007180585991591215,-0.1047646626830101,0.006305455230176449,0.002119579818099737,0.0005056594964116812,0.0025178471114486456,0.0,0.0,0.0,0.0005751075805164874,0.0007395140128210187,-0.0,0.0,0.0,0.0,0.0013918646145612001,0.031068969517946243,0.0006822422728873789,15738.0,10583.0,11538.0,15462.0,0.5621953010559082,0.2412317395210266,0.2906411290168762,0.5416628122329712,0.0,0.0,0.0,0.0,15714.0,10723.0,11528.0,15468.0,1.6349599361419678,0.04219159428563969,-0.04852981922484509,0.08258583598294056,-0.0029134349897503853,0.0017428689170628786,0.0
95,5,-3.4360805329924915e-06,7.872074093029369e-06,3.893044777214527e-06,0.0025341634172946215,-0.0005635139532387257,-0.0005541217979043722,-0.007174881640821695,-0.10475672036409378,0.00630469573661685,0.002974647795781493,0.0025525998789817095,0.003011278575286269,0.0,0.0,0.0,0.000704248552210629,0.0023823229130357504,-0.0,0.0,0.0,0.0,0.0014099874533712864,0.031003080308437347,0.0006285267882049084,15723.0,10730.0,11548.0,15476.0,0.5610610246658325,0.2485317438840866,0.29118645191192627,0.5426514744758606,0.0,0.0,0.0,0.0,15757.0,10685.0,11592.0,15438.0,1.6520951986312866,0.04197189941883665,-0.04844812987626808,0.08241647645053385,-0.009483902715146542,0.002156599657610059,0.0
101,6,-5.202337433729554e-06,8.33350441098446e-06,2.3071728719514795e-05,0.0008017144864425063,-0.00028077722527086735,-0.002523090923205018,-0.007174881640821695,-0.10475672036409378,0.00630469573661685,0.002974647795781493,0.0025525998789817095,0.003011278575286269,0.0,0.0,0.0,0.000704248552210629,0.0023823229130357504,-0.0,0.0,0.0,0.0,0.0014099874533712864,0.031003080308437347,0.0006285267882049084,15723.0,10730.0,11548.0,15476.0,0.5610610246658325,0.2485317438840866,0.29118645191192627,0.5426514744758606,0.0,0.0,0.0,0.0,15757.0,10685.0,11592.0,15438.0,1.6520951986312866,0.0418871317713909,-0.048383014658257235,0.08231596400234643,-0.009483902715146542,0.002156599657610059,0.0
106,5,3.080691385548562e-06,6.0994611885689665e-06,-2.2163922039908357e-06,0.0010545278200879693,0.00019470974802970886,0.0018256761832162738,-0.007174881640821695,-0.10475672036409378,0.00630469573661685,0.002974647795781493,0.0025525998789817095,0.003011278575286269,0.0,0.0,0.0,0.000704248552210629,0.0023823229130357504,-0.0,0.0,0.0,0.0,0.0014099874533712864,0.031003080308437347,0.0006285267882049084,15723.0,10730.0,11548.0,15476.0,0.5610610246658325,0.2485317438840866,0.29118645191192627,0.5426514744758606,0.0,0.0,0.0,0.0,15757.0,10685.0,11592.0,15438.0,1.6520951986312866,0.04234976908723005,-0.04815513699089522,0.08247831515802134,-0.009483902715146542,0.002156599657610059,0.0
111,5,-8.462229743599892e-06,4.6895652303646784e-06,-1.0140176527784206e-05,-0.0009633394074626267,0.000247071438934654,0.001681124558672309,-0.007188512943685055,-0.1047150269150734,0.006337068974971771,0.003104905132204294,-0.005433737765997648,0.0018924858886748552,0.0,0.0,0.0,-0.00022957610781304538,0.0010069222189486027,-0.0,0.0,0.0,0.0,0.0015550459502264857,0.03167765215039253,0.0007010828703641891,15748.0,10581.0,11495.0,15474.0,0.5629578828811646,0.24114176630973816,0.2883220613002777,0.5425382256507874,0.0,0.0,0.0,0.0,15820.0,10640.0,11518.0,15576.0,1.6366864442825317,0.04282971479057068,-0.04810929111246645,0.08231162520759237,-0.003971122205257416,-0.0006964672938920557,0.0
116,5,-1.5801479094079696e-05,-4.050435109093087e-06,-2.7616497391136363e-05,-0.001266045612283051,0.0011476286454126239,0.0027696085162460804,-0.007188512943685055,-0.1047150269150734,0.006337068974971771,0.003104905132204294,-0.005433737765997648,0.0018924858886748552,0.0,0.0,0.0,-0.00022957610781304538,0.0010069222189486027,-0.0,0.0,0.0,0.0,0.0015550459502264857,0.03167765215039253,0.0007010828703641891,15748.0,10581.0,11495.0,15474.0,0.5629578828811646,0.24114176630973816,0.2883220613002777,0.5425382256507874,0.0,0.0,0.0,0.0,15820.0,10640.0,11518.0,15576.0,1.6366864442825317,0.042716838278693305,-0.048133640559891964,0.08243310692560346,-0.003971122205257416,-0.0006964672938920557,0.0
121,5,-2.2946329409023747e-05,6.700784524582559e-06,-1.5026873370516114e-05,-0.0013638002565130591,-0.0008310949197039008,-0.0004029115370940417,-0.007180915679782629,-0.10469631105661392,0.006326757371425629,0.0009008204797282815,0.002592960372567177,-0.0026134748477488756,0.0,0.0,0.0,-0.0014201232697814703,-0.0012209898559376597,-0.0,0.0,0.0,0.0,0.0015765001298859715,0.03224674239754677,0.000620007689576596,15823.0,10635.0,11508.0,15583.0,0.568630039691925,0.2437976449728012,0.2890162467956543,0.5506513118743896,0.0,0.0,0.0,0.0,15719.0,10673.0,11397.0,15537.0,1.6433393955230713,0.04262907483402106,-0.04818543626833625,0.08227507682410626,0.004834935534745455,-0.004325751680880785,0.0
126,5,-2.7939184292335995e-05,1.4958806787035428e-05,-2.4878911062842235e-05,-0.001144662732258439,-0.001323400647379458,0.0010210798354819417,-0.007180915679782629,-0.10469631105661392,0.006326757371425629,0.0009008204797282815,0.002592960372567177,-0.0026134748477488756,0.0,0.0,0.0,-0.0014201232697814703,-0.0012209898559376597,-0.0,0.0,0.0,0.0,0.0015765001298859715,0.03224674239754677,0.000620007689576596,15823.0,10635.0,11508.0,15583.0,0.568630039691925,0.2437976449728012,0.2890162467956543,0.5506513118743896,0.0,0.0,0.0,0.0,15719.0,10673.0,11397.0,15537.0,1.6433393955230713,0.042633706436780945,-0.048051919743713374,0.0821830795628146,0.004834935534745455,-0.004325751680880785,0.0
131,5,-3.426986586418934e-05,1.5202321264951024e-05,-1.854422407632228e-05,-0.0012175467563793063,-0.0005585820181295276,-0.0003517304139677435,-0.007155967876315117,-0.10469871759414673,0.00631906371563673,-0.0014360090717673302,-0.00010848369856830686,0.0036171837709844112,0.0,0.0,0.0,0.0016556709306314588,-0.0011224839836359024,-0.0,0.0,0.0,0.0,0.001380298170261085,0.03183475509285927,0.0006856312975287437,15779.0,10579.0,11486.0,15474.0,0.5653004050254822,0.24105307459831238,0.2878331243991852,0.5424998998641968,0.0,0.0,0.0,0.0,15780.0,10575.0,11486.0,15475.0,1.6439824104309082,0.041939682889264335,-0.0484938632826851,0.08211932561260477,0.0044466047547757626,0.005045211408287287,0.0
136,5,-2.5510282284813002e-05,1.4730203474755399e-05,-3.6957114843971794e-06,0.0005641311872750521,-0.0001667786273173988,-0.0019225137075409293,-0.007155967876315117,-0.10469871759414673,0.00631906371563673,-0.0014360090717673302,-0.00010848369856830686,0.0036171837709844112,0.0,0.0,0.0,0.0016556709306314588,-0.0011224839836359024,-0.0,0.0,0.0,0.0,0.001380298170261085,0.03183475509285927,0.0006856312975287437,15779.0,10579.0,11486.0,15474.0,0.5653004050254822,0.24105307459831238,0.2878331243991852,0.5424998998641968,0.0,0.0,0.0,0.0,15780.0,10575.0,11486.0,15475.0,1.6439824104309082,0.04185021945269762,-0.04837405227524351,0.08191831795776035,0.0044466047547757626,0.005045211408287287,0.0
141,5,-1.2210562999825925e-05,1.4267294318415225e-05,-5.728485120926052e-06,0.0018216187600046396,-1.1162364899064414e-05,-0.0005250726826488972,-0.007155967876315117,-0.10469871759414673,0.00631906371563673,-0.0014360090717673302,-0.00010848369856830686,0.0036171837709844112,0.0,0.0,0.0,0.00023368938127532601,0.0005023027770221233,-0.0,0.0,0.0,0.0,0.001380298170261085,0.03183475509285927,0.0006856312975287437,15779.0,10579.0,11486.0,15474.0,0.5653004050254822,0.24105307459831238,0.2878331243991852,0.5424998998641968,0.0,0.0,0.0,0.0,15780.0,10575.0,11486.0,15475.0,1.6314393281936646,0.04244901018158537,-0.048509661198705104,0.08253528015563592,-0.0019746420439332724,0.0007066729012876749,0.0
146,5,-1.0569759069767315e-05,2.0257670257706195e-05,1.0766928426164668e-05,0.0009255439508706331,-0.0007233100477606058,-0.0021894786041229963,-0.007185149937868118,-0.10471772402524948,0.006322147324681282,-0.0015694370958954096,0.0035939135123044252,0.0011261728359386325,0.0,0.0,0.0,0.00023368938127532601,0.0005023027770221233,-0.0,0.0,0.0,0.0,0.001789954025298357,0.03125843405723572,0.0006534823914989829,15737.0,10745.0,11498.0,15486.0,0.5621339678764343,0.2493131011724472,0.28847089409828186,0.5434213876724243,0.0,0.0,0.0,0.0,15772.0,10697.0,11539.0,15453.0,1.6314393281936646,0.042157707200664765,-0.04838592828893642,0.082385046330156,-0.0019746420439332724,0.0007066729012876749,0.0
152,5,1.1648355666693533e-06,9.799393410503399e-06,-4.23857591158594e-06,0.0017783689545467496,0.0009656692272983491,0.0009248690330423415,-0.007185149937868118,-0.10471772402524948,0.006322147324681282,-0.0015694370958954096,0.0035939135123044252,0.0011261728359386325,0.0,0.0,0.0,0.0009303065598942339,0.0008646008209325373,-0.0,0.0,0.0,0.0,0.001789954025298357,0.03125843405723572,0.0006534823914989829,15737.0,10745.0,11498.0,15486.0,0.5621339678764343,0.2493131011724472,0.28847089409828186,0.5434213876724243,0.0,0.0,0.0,0.0,15772.0,10697.0,11539.0,15453.0,1.6377640962600708,0.04228851799706612,-0.04803655355663291,0.08233244282304658,-0.0034120758064091206,0.0028241376858204603,0.0
157,5,2.414029438568832e-07,3.90390096072224e-06,1.535258888907265e-06,0.0006005356553941965,0.0010937267215922475,-0.0003229125577490777,-0.00718497671186924,-0.10473523288965225,0.006323841400444508,2.7186997613171116e-05,-0.0003969135577790439,0.0021534000989049673,0.0,0.0,0.0,0.0009303065598942339,0.0008646008209325373,-0.0,0.0,0.0,0.0,0.0015143785858526826,0.031776152551174164,0.0007662393036298454,15794.0,10482.0,11534.0,15417.0,0.5664289593696594,0.23626787960529327,0.29044079780578613,0.5383017063140869,0.0,0.0,0.0,0.0,15759.0,10621.0,11613.0,15472.0,1.6377640962600708,0.042057102515188245,-0.04824762577415337,0.08218195721518756,-0.0034120758064091206,0.0028241376858204603,0.0
162,5,4.308471943659242e-07,1.4497231859422754e-06,-8.230559615185484e-06,0.00026294757844880223,0.000731992011424154,0.0010427332017570734,-0.00718497671186924,-0.10473523288965225,0.006323841400444508,2.7186997613171116e-05,-0.0003969135577790439,0.0021534000989049673,0.0,0.0,0.0,-0.0013433852000162005,0.0005706178490072489,-0.0,0.0,0.0,0.0,0.0015143785858526826,0.031776152551174164,0.0007662393036298454,15794.0,10482.0,11534.0,15417.0,0.5664289593696594,0.23626787960529327,0.29044079780578613,0.5383017063140869,0.0,0.0,0.0,0.0,15759.0,10621.0,11613.0,15472.0,1.6383907794952393,0.042700007388696344,-0.04805112369252368,0.08191162963497711,-0.0022527568507939577,-0.004079682286828756,0.0
167,5,5.065746154286899e-05,0.0001441295025870204,-1.1148551493533887e-05,0.006132372654974461,-0.01682877540588379,0.0007672522333450615,-0.0071740769781172276,-0.1047644093632698,0.006384869571775198,0.00044106505811214447,0.005226845387369394,0.012005998753011227,0.0,0.0,0.0,-0.0013433852000162005,0.0005706178490072489,-0.0,0.0,0.0,0.0,0.001592793851159513,0.03193679451942444,-0.0007457624888047576,15196.0,11401.0,10659.0,16068.0,0.5221830606460571,0.28327202796936035,0.24498988687992096,0.5873190760612488,0.0,0.0,0.0,0.0,15814.0,10453.0,11560.0,15396.0,1.6383907794952393,0.04126256932885131,-0.048472263514515605,0.0851343147002595,-0.0022527568507939577,-0.004079682286828756,0.0
172,5,-1.648623037908692e-05,8.880027053237427e-06,-3.441572698648088e-05,-0.005604294128715992,0.009498425759375095,0.003098962130025029,-0.0071740769781172276,-0.1047644093632698,0.006384869571775198,0.00044106505811214447,0.005226845387369394,0.012005998753011227,0.0,0.0,0.0,-0.011052907444536686,-0.004957161378115416,-0.0,0.0,0.0,0.0,0.001592793851159513,0.03193679451942444,-0.0007457624888047576,15196.0,11401.0,10659.0,16068.0,0.5221830606460571,0.28327202796936035,0.24498988687992096,0.5873190760612488,0.0,0.0,0.0,0.0,15814.0,10453.0,11560.0,15396.0,1.7362325191497803,0.0422529888778391,-0.0482797667065174,0.08236510078933747,0.020737888291478157,-0.03556942939758301,0.0
177,5,-1.813404196582269e-05,1.963250724656973e-06,-3.030653897440061e-05,-0.002439454896375537,0.0046293833293020725,0.0007464820519089699,-0.007166404742747545,-0.10476589947938919,0.006180910859256983,0.01236780360341072,0.005003110971301794,-0.052916787564754486,0.0,0.0,0.0,-0.011052907444536686,-0.004957161378115416,-0.0,0.0,0.0,0.0,0.0012069257209077477,0.03174494951963425,0.004294171929359436,16666.0,9120.0,12680.0,14516.0,0.6341747045516968,0.1744239330291748,0.35574042797088623,0.47405171394348145,0.0,0.0,0.0,0.0,15820.0,10492.0,11568.0,15444.0,1.7362325191497803,0.04281243745891295,-0.0478501314721891,0.08140549544283085,0.020737888291478157,-0.03556942939758301,0.0
182,5,-2.1362331608543172e-05,2.817037602653727e-05,-1.4124970221018884e-05,-0.001363176736049354,-0.001293101697228849,-0.0016431952826678753,-0.007166404742747545,-0.10476589947938919,0.006180910859256983,0.01236780360341072,0.005003110971301794,-0.052916787564754486,0.0,0.0,0.0,0.0015940862940624356,-0.0013148569269105792,-0.0,0.0,0.0,0.0,0.0012069257209077477,0.03174494951963425,0.004294171929359436,16666.0,9120.0,12680.0,14516.0,0.6341747045516968,0.1744239330291748,0.35574042797088623,0.47405171394348145,0.0,0.0,0.0,0.0,15820.0,10492.0,11568.0,15444.0,1.6450697183609009,0.04268714186969287,-0.04793153794414531,0.08257308066492293,0.005212115589529276,0.004860762041062117,0.0
187,5,-1.5474828614969738e-05,3.426301555009559e-05,-2.642249637574423e-05,0.00016122966189868748,-0.0012483572354540229,0.0008184249163605273,-0.007075252942740917,-0.10471837222576141,0.006809085141867399,-0.011841220781207085,0.00666750269010663,-0.0233689583837986,0.0,0.0,0.0,0.0015940862940624356,-0.0013148569269105792,-0.0,0.0,0.0,0.0,-0.0008130244677886367,0.030159346759319305,-0.0013746122131124139,16133.0,11391.0,11918.0,15569.0,0.592328667640686,0.2827385365962982,0.31157544255256653,0.5495899319648743,0.0,0.0,0.0,0.0,14341.0,12530.0,9290.0,16837.0,1.6450697183609009,0.04298013227356402,-0.047933952283468355,0.08312926053285624,0.005212115589529276,0.004860762041062117,0.0
192,5,2.8001009923173115e-05,0.00012669306306634098,1.3238437531981617e-05,0.005281592253595591,-0.011590948328375816,-0.0044319420121610165,-0.007075252942740917,-0.10471837222576141,0.006809085141867399,-0.011841220781207085,0.00666750269010663,-0.0233689583837986,0.0,0.0,0.0,0.0015940862940624356,-0.0013148569269105792,-0.0,0.0,0.0,0.0,-0.0008130244677886367,0.030159346759319305,-0.0013746122131124139,16133.0,11391.0,11918.0,15569.0,0.592328667640686,0.2827385365962982,0.31157544255256653,0.5495899319648743,0.0,0.0,0.0,0.0,14341.0,12530.0,9290.0,16837.0,1.6450697183609009,0.04128290748174653,-0.04847724390788872,0.08439919228600487,0.005212115589529276,0.004860762041062117,0.0
197,5,-1.160064584837528e-05,1.5023608284536749e-05,6.549929366883589e-06,-0.0026395616587251425,0.008763954974710941,-0.0009701558155938983,-0.007160691544413567,-0.10478018969297409,0.005659961141645908,0.0009847203036770225,-0.01607661508023739,0.16538551449775696,0.0,0.0,0.0,0.013573190197348595,0.004718871787190437,-0.0,0.0,0.0,0.0,0.001656213542446494,0.0319666862487793,0.000912835355848074,15175.0,11486.0,10625.0,16146.0,0.5206464529037476,0.28782427310943604,0.24329815804958344,0.5933008790016174,0.0,0.0,0.0,0.0,18063.0,7814.0,14473.0,13251.0,1.7555110454559326,0.04309587608443191,-0.04774997918573296,0.08227566504908165,-0.01995960809290409,0.04416414350271225,0.0
202,5,9.398944712302182e-06,2.664358908077702e-05,1.3494880477082916e-05,0.0014641261659562588,0.0021111841779202223,-0.001221456564962864,-0.007160691544413567,-0.10478018969297409,0.005659961141645908,0.0009847203036770225,-0.01607661508023739,0.16538551449775696,0.0,0.0,0.0,0.013573190197348595,0.004718871787190437,-0.0,0.0,0.0,0.0,0.001656213542446494,0.0319666862487793,0.000912835355848074,15175.0,11486.0,10625.0,16146.0,0.5206464529037476,0.28782427310943604,0.24329815804958344,0.5933008790016174,0.0,0.0,0.0,0.0,18063.0,7814.0,14473.0,13251.0,1.7555110454559326,0.04243316151251263,-0.0481819130339955,0.08302360571474361,-0.005541832651942968,-0.007769031450152397,0.0
208,5,7.381300383713096e-05,0.00014072118210606277,3.471972740953788e-05,0.00831533782184124,-0.012844838201999664,-0.0030355642084032297,-0.007042804732918739,-0.10508769005537033,0.006635614670813084,0.009064711630344391,0.04995795339345932,-0.19269134104251862,0.0,0.0,0.0,-0.002537777414545417,0.0013925069943070412,-0.0,0.0,0.0,0.0,0.004245918244123459,0.032828982919454575,0.005382200237363577,17710.0,7736.0,14248.0,14287.0,0.7202872633934021,0.12110252678394318,0.45572346448898315,0.4583978056907654,0.0,0.0,0.0,0.0,14156.0,12717.0,9245.0,16960.0,1.6516029834747314,0.04127819254302482,-0.048052501330172054,0.08498958634097613,-0.005541832651942968,-0.007769031450152397,0.0
213,5,2.2684158466290683e-05,2.2341106159728952e-05,6.15635968870265e-08,-0.0028093266300857067,0.009067675098776817,0.002944753970950842,-0.007042804732918739,-0.10508769005537033,0.006635614670813084,0.009064711630344391,0.04995795339345932,-0.19269134104251862,0.0,0.0,0.0,-0.002537777414545417,0.0013925069943070412,-0.0,0.0,0.0,0.0,0.004245918244123459,0.032828982919454575,0.005382200237363577,17710.0,7736.0,14248.0,14287.0,0.7202872633934021,0.12110252678394318,0.45572346448898315,0.4583978056907654,0.0,0.0,0.0,0.0,14156.0,12717.0,9245.0,16960.0,1.6516029834747314,0.042907271591988226,-0.047524231111417674,0.0831448180186946,-0.005541832651942968,-0.007769031450152397,0.0
218,5,2.2618354705628008e-05,2.46893941948656e-05,1.3197495718486607e-05,-0.001131627126596868,0.0033452752977609634,-0.0003984102513641119,-0.007007075473666191,-0.10500476509332657,0.006869362201541662,0.033220142126083374,0.0038800081238150597,0.05228047072887421,0.0,0.0,0.0,-0.010620718821883202,-0.0025104666128754616,-0.0,0.0,0.0,0.0,0.0008481914410367608,0.03229968622326851,-0.0012751034228131175,15544.0,11175.0,10982.0,15858.0,0.5476834774017334,0.2713037133216858,0.26133954524993896,0.5712763071060181,0.0,0.0,0.0,0.0,16321.0,10444.0,12376.0,15925.0,1.7210315465927124,0.04286631176010085,-0.04704708058014076,0.08312086728040208,0.01041046716272831,-0.03387945890426636,0.0
223,5,3.069278318434954e-05,1.018198690871941e-05,4.492257630772656e-06,0.0005162807065062225,0.0030789989978075027,0.0008852644823491573,-0.007007075473666191,-0.10500476509332657,0.006869362201541662,0.033220142126083374,0.0038800081238150597,0.05228047072887421,0.0,0.0,0.0,-0.010620718821883202,-0.0025104666128754616,-0.0,0.0,0.0,0.0,0.0008481914410367608,0.03229968622326851,-0.0012751034228131175,15544.0,11175.0,10982.0,15858.0,0.5476834774017334,0.2713037133216858,0.26133954524993896,0.5712763071060181,0.0,0.0,0.0,0.0,16321.0,10444.0,12376.0,15925.0,1.7210315465927124,0.04292408165300429,-0.0465027115215484,0.08270341553532483,-0.0021047149784862995,-0.011488761752843857,0.0
228,5,1.3781991583527997e-05,-3.938242514323065e-07,2.7866592063219287e-05,-0.0018227827968075871,0.0025006968062371016,-0.002450814237818122,-0.006602512206882238,-0.10561500489711761,0.007585578598082066,0.015108554624021053,0.09547951072454453,-0.07093017548322678,0.0,0.0,0.0,-0.0037397786509245634,0.0005270160618238151,-0.0,0.0,0.0,0.0,0.0005656672874465585,0.033549219369888306,0.0019249471370130777,16035.0,10469.0,11439.0,15520.0,0.5847574472427368,0.23562894761562347,0.28528347611427307,0.5459331274032593,0.0,0.0,0.0,0.0,16875.0,8983.0,12771.0,14468.0,1.6573742628097534,0.0429270241882743,-0.046720794600150224,0.0832724797606692,-0.0021047149784862995,-0.011488761752843857,0.0
233,5,4.35723050031811e-05,-1.0944406312773935e-05,5.83236433158163e-05,0.002845724578946829,0.002266348572447896,-0.004635171499103308,-0.006602512206882238,-0.10561500489711761,0.007585578598082066,0.015108554624021053,0.09547951072454453,-0.07093017548322678,0.0,0.0,0.0,-0.0037397786509245634,0.0005270160618238151,-0.0,0.0,0.0,0.0,0.0005656672874465585,0.033549219369888306,0.0019249471370130777,16035.0,10469.0,11439.0,15520.0,0.5847574472427368,0.23562894761562347,0.28528347611427307,0.5459331274032593,0.0,0.0,0.0,0.0,16875.0,8983.0,12771.0,14468.0,1.6573742628097534,0.044513783569293905,-0.046035338099254815,0.08340327080310561,-0.010911119170486927,-0.008557556197047234,0.0
238,5,5.571151996264234e-05,-5.056194277130999e-05,0.00012166711530881003,0.0025949955452233553,0.0056606438010931015,-0.009455285035073757,-0.005466562230139971,-0.10631658136844635,0.007773274555802345,0.19957970082759857,0.0961109921336174,0.11513025313615799,0.0,0.0,0.0,-0.002775748958811164,0.002722435165196657,-0.0,0.0,0.0,0.0,-0.001843481557443738,0.03192223235964775,0.003495501819998026,17310.0,9502.0,13039.0,14399.0,0.6866369247436523,0.19083794951438904,0.3775303065776825,0.4660264253616333,0.0,0.0,0.0,0.0,15405.0,12263.0,10519.0,16416.0,1.6632672548294067,0.04580717046522052,-0.0466730528958713,0.08278510445242332,-0.010911119170486927,-0.008557556197047234,0.0
243,5,8.395651821047068e-05,-9.314420458395034e-05,0.00017114508955273777,0.00442739762365818,0.007374128792434931,-0.009719470515847206,-0.005466562230139971,-0.10631658136844635,0.007773274555802345,0.19957970082759857,0.0961109921336174,0.11513025313615799,0.0,0.0,0.0,-0.00886342953890562,0.004131149034947157,-0.0,0.0,0.0,0.0,-0.001843481557443738,0.03192223235964775,0.003495501819998026,17310.0,9502.0,13039.0,14399.0,0.6866369247436523,0.19083794951438904,0.3775303065776825,0.4660264253616333,0.0,0.0,0.0,0.0,15405.0,12263.0,10519.0,16416.0,1.7143391370773315,0.04799350453600876,-0.04614935982933645,0.08230732308896312,-0.01706480048596859,-0.028164157643914223,0.0
248,5,0.00013077326002530754,-0.00015161908231675625,0.00024370707978960127,0.007388968952000141,0.009966636076569557,-0.012595227919518948,-0.0034565874375402927,-0.10668786615133286,0.007271657232195139,0.3622775673866272,-0.024712644517421722,-0.06868931651115417,0.0,0.0,0.0,-0.00886342953890562,0.004131149034947157,-0.0,0.0,0.0,0.0,-0.0019849585369229317,0.03274604305624962,-0.002463593613356352,15025.0,12362.0,9607.0,16425.0,0.5098961591720581,0.33692723512649536,0.19547027349472046,0.6150805950164795,0.0,0.0,0.0,0.0,16461.0,10146.0,11812.0,15078.0,1.7143391370773315,0.0505825606254099,-0.04653035678370615,0.08257784686689304,-0.01706480048596859,-0.028164157643914223,0.0
253,5,0.00012714852346107364,-0.00023489896557293832,0.0003292057663202286,0.0025206180289387703,0.013980240561068058,-0.015297934412956238,-0.0034565874375402927,-0.10668786615133286,0.007271657232195139,0.3622775673866272,-0.024712644517421722,-0.06868931651115417,0.0,0.0,0.0,-0.01635744608938694,0.0023781927302479744,-0.0,0.0,0.0,0.0,-0.0019849585369229317,0.03274604305624962,-0.002463593613356352,15025.0,12362.0,9607.0,16425.0,0.5098961591720581,0.33692723512649536,0.19547027349472046,0.6150805950164795,0.0,0.0,0.0,0.0,16461.0,10146.0,11812.0,15078.0,1.771851658821106,0.05218484543357347,-0.04774328995235634,0.08191874550455205,-0.010152378119528294,-0.05371754989027977,0.0
258,5,0.0001400481996824965,-0.0003325307334307581,0.0004344533372204751,0.002556209685280919,0.017307909205555916,-0.018748881295323372,-0.0034565874375402927,-0.10668786615133286,0.007271657232195139,0.3622775673866272,-0.024712644517421722,-0.06868931651115417,0.0,0.0,0.0,-0.01635744608938694,0.0023781927302479744,-0.0,0.0,0.0,0.0,-0.0019849585369229317,0.03274604305624962,-0.002463593613356352,15025.0,12362.0,9607.0,16425.0,0.5098961591720581,0.33692723512649536,0.19547027349472046,0.6150805950164795,0.0,0.0,0.0,0.0,16461.0,10146.0,11812.0,15078.0,1.771851658821106,0.05592411132525524,-0.049122689030072636,0.08092058357590251,-0.010152378119528294,-0.05371754989027977,0.0
264,5,0.0001105150586226955,-0.00041185322334058583,0.0005701145273633301,-0.0025214937049895525,0.016441861167550087,-0.023778894916176796,0.0018739934312179685,-0.10556139051914215,0.007370569743216038,0.5386923551559448,-0.20428518950939178,-0.07088015228509903,0.0,0.0,0.0,-0.01635744608938694,0.0023781927302479744,-0.0,0.0,0.0,0.0,-0.0037753756623715162,0.03201533481478691,0.0022301189601421356,16306.0,10934.0,11420.0,15088.0,0.6057131290435791,0.25883644819259644,0.284296452999115,0.5144212245941162,0.0,0.0,0.0,0.0,16291.0,10773.0,11430.0,15210.0,1.771851658821106,0.058938172497512334,-0.05176570704750794,0.08100770890355188,-0.010152378119528294,-0.05371754989027977,0.0
269,5,5.140432404004969e-05,-0.0005042595439590514,0.0007052069413475692,-0.00810188613831997,0.017665501683950424,-0.025722647085785866,0.0018739934312179685,-0.10556139051914215,0.007370569743216038,0.5386923551559448,-0.20428518950939178,-0.07088015228509903,0.0,0.0,0.0,-0.019186029210686684,-0.002042643493041396,-0.0,0.0,0.0,0.0,-0.0037753756623715162,0.03201533481478691,0.0022301189601421356,16306.0,10934.0,11420.0,15088.0,0.6057131290435791,0.25883644819259644,0.284296452999115,0.5144212245941162,0.0,0.0,0.0,0.0,16291.0,10773.0,11430.0,15210.0,1.7976868152618408,0.0631191012541287,-0.054731048004349726,0.08044770295014898,0.008846638724207878,-0.06392331421375275,0.0
274,5,-3.8558962842216715e-05,-0.0005967382458038628,0.0008674589917063713,-0.014036349020898342,0.01816364750266075,-0.029759304597973824,0.006460459902882576,-0.10272252559661865,0.006691094022244215,0.6482670903205872,-0.5830092430114746,0.030734499916434288,0.0,0.0,0.0,-0.019186029210686684,-0.002042643493041396,-0.0,0.0,0.0,0.0,-0.006912282668054104,0.02765774354338646,-0.0006920319865457714,16076.0,12240.0,11318.0,15134.0,0.5879065990447998,0.3298623561859131,0.2788683772087097,0.5177018046379089,0.0,0.0,0.0,0.0,16728.0,12222.0,12270.0,14491.0,1.7976868152618408,0.06606286963126794,-0.059979347434997436,0.07982016575704774,0.008846638724207878,-0.06392331421375275,0.0
279,5,-0.00014152585936244577,-0.0006889859214425087,0.0010580015368759632,-0.01797056756913662,0.01833517663180828,-0.034768834710121155,0.006460459902882576,-0.10272252559661865,0.006691094022244215,0.6482670903205872,-0.5830092430114746,0.030734499916434288,0.0,0.0,0.0,-0.020706254988908768,-0.011790617369115353,-0.0,0.0,0.0,0.0,-0.006912282668054104,0.02765774354338646,-0.0006920319865457714,16076.0,12240.0,11318.0,15134.0,0.5879065990447998,0.3298623561859131,0.2788683772087097,0.5177018046379089,0.0,0.0,0.0,0.0,16728.0,12222.0,12270.0,14491.0,1.8605366945266724,0.06973170188202511,-0.06623844690658277,0.07951224255633497,0.05284738913178444,-0.07139897346496582,0.0
284,5,-0.00026097468798980117,-0.0007504347595386207,0.0012475004186853766,-0.02152208425104618,0.014707934111356735,-0.03664739802479744,0.014231263659894466,-0.09361725300550461,0.006246834062039852,0.6275524497032166,-1.0407984256744385,-0.12942864000797272,0.0,0.0,0.0,-0.020706254988908768,-0.011790617369115353,-0.0,0.0,0.0,0.0,-0.009649998508393764,0.021339425817131996,-0.0007669951301068068,15489.0,13777.0,11183.0,15331.0,0.5436762571334839,0.42439964413642883,0.2717382609844208,0.5320374965667725,0.0,0.0,0.0,0.0,14908.0,14681.0,11068.0,15506.0,1.8605366945266724,0.0722633708126105,-0.07374917594086393,0.07998718344409797,0.05284738913178444,-0.07139897346496582,0.0
289,5,-0.000398281030356884,-0.0008017837535589933,0.0013946477556601167,-0.02508559636771679,0.012045055627822876,-0.03231664001941681,0.014231263659894466,-0.09361725300550461,0.006246834062039852,0.6275524497032166,-1.0407984256744385,-0.12942864000797272,0.0,0.0,0.0,-0.016904274001717567,-0.018017951399087906,-0.0,0.0,0.0,0.0,-0.009649998508393764,0.021339425817131996,-0.0007669951301068068,15489.0,13777.0,11183.0,15331.0,0.5436762571334839,0.42439964413642883,0.2717382609844208,0.5320374965667725,0.0,0.0,0.0,0.0,14908.0,14681.0,11068.0,15506.0,1.8923406600952148,0.07447582903086589,-0.08242665152114607,0.0803403909807152,0.08214309811592102,-0.05928800255060196,0.0
294,5,-0.0005538931582123041,-0.0008529286715202034,0.001533925300464034,-0.02870769239962101,0.01095541287213564,-0.029639957472682,0.018625006079673767,-0.08355892449617386,0.0052282740361988544,0.41520702838897705,-1.4781216382980347,-0.03738715499639511,0.0,0.0,0.0,-0.016904274001717567,-0.018017951399087906,-0.0,0.0,0.0,0.0,-0.010036895051598549,0.0012328819138929248,0.0012001184513792396,15093.0,14506.0,12207.0,14624.0,0.5147709250450134,0.473386287689209,0.32796281576156616,0.481566846370697,0.0,0.0,0.0,0.0,15436.0,14144.0,13086.0,13845.0,1.8923406600952148,0.07503394901181538,-0.09158503761801966,0.08083224443019668,0.08214309811592102,-0.05928800255060196,0.0
299,5,-0.0007556073251180351,-0.0008883512928150594,0.0017013659235090017,-0.03568877652287483,0.00863287877291441,-0.03194885700941086,0.018625006079673767,-0.08355892449617386,0.0052282740361988544,0.41520702838897705,-1.4781216382980347,-0.03738715499639511,0.0,0.0,0.0,-0.012738942168653011,-0.02369728311896324,-0.0,0.0,0.0,0.0,-0.010036895051598549,0.0012328819138929248,0.0012001184513792396,15093.0,14506.0,12207.0,14624.0,0.5147709250450134,0.473386287689209,0.32796281576156616,0.481566846370697,0.0,0.0,0.0,0.0,15436.0,14144.0,13086.0,13845.0,1.9390157461166382,0.07530216654341514,-0.10119465643046638,0.08110936072173075,0.11070211231708527,-0.045782752335071564,0.0
304,5,-0.0009651508298702538,-0.0008991219219751656,0.001863310462795198,-0.039420727640390396,0.004745625425130129,-0.03221288323402405,0.022305848076939583,-0.06440504640340805,0.004794112406671047,0.10221507400274277,-1.7957032918930054,-0.010486498475074768,0.0,0.0,0.0,-0.012738942168653011,-0.02369728311896324,-0.0,0.0,0.0,0.0,-0.0070864432491362095,-0.00949698593467474,0.0007441005436703563,15452.0,14512.0,14132.0,13365.0,0.5408902168273926,0.4738015830516815,0.44794005155563354,0.39790481328964233,0.0,0.0,0.0,0.0,14981.0,14878.0,14154.0,13478.0,1.9390157461166382,0.0753196125729425,-0.11075113465654561,0.0822280655664963,0.11070211231708527,-0.045782752335071564,0.0
309,5,-0.0011716886656358838,-0.0009025893523357809,0.0020129478070884943,-0.040552835911512375,0.0023143405560404062,-0.030841626226902008,0.022305848076939583,-0.06440504640340805,0.004794112406671047,0.10221507400274277,-1.7957032918930054,-0.010486498475074768,0.0,0.0,0.0,-0.006059509236365557,-0.03137741982936859,-0.0,0.0,0.0,0.0,-0.0070864432491362095,-0.00949698593467474,0.0007441005436703563,15452.0,14512.0,14132.0,13365.0,0.5408902168273926,0.4738015830516815,0.44794005155563354,0.39790481328964233,0.0,0.0,0.0,0.0,14981.0,14878.0,14154.0,13478.0,2.025827169418335,0.07439547893777637,-0.12074906314294213,0.08322209316309401,0.15314128994941711,-0.022753257304430008,0.0
314,5,-0.0014089011820033193,-0.0008788758423179388,0.00222036219201982,-0.04468663036823273,-0.0019198855152353644,-0.037226397544145584,0.022034233435988426,-0.049567192792892456,0.00455230800434947,-0.22725997865200043,-2.0160017013549805,0.04547666758298874,0.0,0.0,0.0,-0.006059509236365557,-0.03137741982936859,-0.0,0.0,0.0,0.0,-0.0041536991484463215,-0.017650453373789787,0.0011869724839925766,14780.0,15074.0,15188.0,12831.0,0.49251312017440796,0.5134044289588928,0.5215962529182434,0.36482685804367065,0.0,0.0,0.0,0.0,14655.0,15098.0,15549.0,12507.0,2.025827169418335,0.0731232689828455,-0.13132758745833126,0.08449099439083312,0.15314128994941711,-0.022753257304430008,0.0
319,5,-0.0016188777517527342,-0.0008429752779193223,0.002447296865284443,-0.043071847409009933,-0.0050760237500071526,-0.042122699320316315,0.022034233435988426,-0.049567192792892456,0.00455230800434947,-0.22725997865200043,-2.0160017013549805,0.04547666758298874,0.0,0.0,0.0,0.0006109672831371427,-0.035061877220869064,-0.0,0.0,0.0,0.0,-0.0041536991484463215,-0.017650453373789787,0.0011869724839925766,14780.0,15074.0,15188.0,12831.0,0.49251312017440796,0.5134044289588928,0.5215962529182434,0.36482685804367065,0.0,0.0,0.0,0.0,14655.0,15098.0,15549.0,12507.0,2.075716733932495,0.07044743637095842,-0.1421658302394727,0.08500686692624303,0.17533399164676666,0.002350685652345419,0.0
324,5,-0.0018354966305196285,-0.0008036891813389957,0.0026548481546342373,-0.043223004788160324,-0.006744741927832365,-0.04175524041056633,0.01804758794605732,-0.024688001722097397,0.004574866965413094,-0.5004268884658813,-2.1543540954589844,0.02166208066046238,0.0,0.0,0.0,0.0006109672831371427,-0.035061877220869064,-0.0,0.0,0.0,0.0,0.0003209362621419132,-0.027701769024133682,0.0012283079558983445,13645.0,16150.0,17118.0,12511.0,0.41581615805625916,0.5936285853385925,0.670732319355011,0.34565016627311707,0.0,0.0,0.0,0.0,13645.0,15928.0,15985.0,12844.0,2.075716733932495,0.06742285378261426,-0.15231117775233996,0.08576513032002361,0.17533399164676666,0.002350685652345419,0.0
329,5,-0.0020590180065482855,-0.0007673132349736989,0.0028686041478067636,-0.04411177337169647,-0.007063006516546011,-0.0423528254032135,0.01804758794605732,-0.024688001722097397,0.004574866965413094,-0.5004268884658813,-2.1543540954589844,0.02166208066046238,0.0,0.0,0.0,0.0054323081858456135,-0.03451088070869446,-0.0,0.0,0.0,0.0,0.0003209362621419132,-0.027701769024133682,0.0012283079558983445,13645.0,16150.0,17118.0,12511.0,0.41581615805625916,0.5936285853385925,0.670732319355011,0.34565016627311707,0.0,0.0,0.0,0.0,13645.0,15928.0,15985.0,12844.0,2.0711569786071777,0.06384172531664055,-0.16254359209791558,0.08652377492470227,0.172198086977005,0.020854610949754715,0.0
334,5,-0.0022837817668914795,-0.0007197336526587605,0.003076364053413272,-0.04461635649204254,-0.008534755557775497,-0.0418723039329052,0.013176549226045609,-0.0075141009874641895,0.004490215796977282,-0.7430400252342224,-2.0912351608276367,0.05847293138504028,0.0,0.0,0.0,0.0054323081858456135,-0.03451088070869446,-0.0,0.0,0.0,0.0,0.0034391654189676046,-0.03112434409558773,0.000667011656332761,13073.0,16601.0,17331.0,13058.0,0.3796297609806061,0.6289875507354736,0.6883816719055176,0.3787178099155426,0.0,0.0,0.0,0.0,13404.0,16231.0,17251.0,12481.0,2.0711569786071777,0.06050426999167365,-0.1718273459341252,0.0873400881291844,0.172198086977005,0.020854610949754715,0.0
340,5,-0.0025020844768732786,-0.0006654254975728691,0.003276524133980274,-0.04404284805059433,-0.009930877946317196,-0.04076814278960228,0.013176549226045609,-0.0075141009874641895,0.004490215796977282,-0.7430400252342224,-2.0912351608276367,0.05847293138504028,0.0,0.0,0.0,0.007228080648928881,-0.035697050392627716,-0.0,0.0,0.0,0.0,0.0034391654189676046,-0.03112434409558773,0.000667011656332761,13073.0,16601.0,17331.0,13058.0,0.3796297609806061,0.6289875507354736,0.6883816719055176,0.3787178099155426,0.0,0.0,0.0,0.0,13404.0,16231.0,17251.0,12481.0,2.0919082164764404,0.05723879667460174,-0.18005441917386547,0.08818758082533347,0.17989672720432281,0.02802639827132225,0.0
345,5,-0.0026989413890987635,-0.000607276160735637,0.003471032017841935,-0.041239988058805466,-0.010950272902846336,-0.039648205041885376,0.004236118867993355,0.015736065804958344,0.004675236996263266,-0.7392311096191406,-1.7542277574539185,0.027006909251213074,0.0,0.0,0.0,0.007228080648928881,-0.035697050392627716,-0.0,0.0,0.0,0.0,0.0057685901410877705,-0.03281639143824577,0.002337034558877349,13527.0,15947.0,18074.0,12300.0,0.4082031846046448,0.578048586845398,0.7515798807144165,0.3333253860473633,0.0,0.0,0.0,0.0,13202.0,16441.0,17532.0,12859.0,2.0919082164764404,0.054237061230222726,-0.18661666805943325,0.08913061428906825,0.17989672720432281,0.02802639827132225,0.0
350,5,-0.0028678150847554207,-0.000545379298273474,0.003625268815085292,-0.0367608368396759,-0.011807728558778763,-0.03436771035194397,0.004236118867993355,0.015736065804958344,0.004675236996263266,-0.7392311096191406,-1.7542277574539185,0.027006909251213074,0.0,0.0,0.0,0.009818151593208313,-0.033967792987823486,-0.0,0.0,0.0,0.0,0.0057685901410877705,-0.03281639143824577,0.002337034558877349,13527.0,15947.0,18074.0,12300.0,0.4082031846046448,0.578048586845398,0.7515798807144165,0.3333253860473633,0.0,0.0,0.0,0.0,13202.0,16441.0,17532.0,12859.0,2.0717008113861084,0.05081456519743047,-0.19209205211368946,0.08986916132273404,0.16952815651893616,0.03770098090171814,0.0
355,5,-0.0030059374403208494,-0.0004856763989664614,0.003759512910619378,-0.03127901628613472,-0.011887443251907825,-0.029856355860829353,-0.010377890430390835,0.04113224893808365,0.0063367364928126335,-0.7569534182548523,-0.7430355548858643,0.045000217854976654,0.0,0.0,0.0,0.009818151593208313,-0.033967792987823486,-0.0,0.0,0.0,0.0,0.007536976598203182,-0.03094036877155304,0.0024153112899512053,13520.0,15876.0,18042.0,12797.0,0.40778496861457825,0.5726136565208435,0.7487565875053406,0.36275309324264526,0.0,0.0,0.0,0.0,13827.0,15626.0,18305.0,12030.0,2.0717008113861084,0.04779111927587181,-0.19575416610683546,0.08985009805320901,0.16952815651893616,0.03770098090171814,0.0
360,5,-0.0031006017234176397,-0.0004212817584630102,0.003813738701865077,-0.023871315643191338,-0.01248233299702406,-0.01844964735209942,-0.010377890430390835,0.04113224893808365,0.0063367364928126335,-0.7569534182548523,-0.7430355548858643,0.045000217854976654,0.0,0.0,0.0,0.01135476678609848,-0.02792317420244217,-0.0,0.0,0.0,0.0,0.007536976598203182,-0.03094036877155304,0.0024153112899512053,13520.0,15876.0,18042.0,12797.0,0.40778496861457825,0.5726136565208435,0.7487565875053406,0.36275309324264526,0.0,0.0,0.0,0.0,13827.0,15626.0,18305.0,12030.0,1.9900429248809814,0.04445639561701116,-0.19821284449689738,0.08948650549473547,0.13387352228164673,0.0418824665248394,0.0
365,5,-0.003165453439578414,-0.00036679752520285547,0.0038251590449362993,-0.01733074150979519,-0.011531040072441101,-0.008750286884605885,-0.010377890430390835,0.04113224893808365,0.0063367364928126335,-0.7569534182548523,-0.7430355548858643,0.045000217854976654,0.0,0.0,0.0,0.01135476678609848,-0.02792317420244217,-0.0,0.0,0.0,0.0,0.01010535191744566,-0.025825057178735733,0.0005269206594675779,13262.0,15678.0,17554.0,13640.0,0.3914303779602051,0.5577110052108765,0.7070403099060059,0.415519118309021,0.0,0.0,0.0,0.0,12960.0,16243.0,17531.0,13605.0,1.9900429248809814,0.04078007364358321,-0.19892464156837295,0.08929183895644655,0.13387352228164673,0.0418824665248394,0.0
370,5,-0.0032109026797115803,-0.0002847771975211799,0.0038073663599789143,-0.012386203743517399,-0.014454856514930725,-0.001364994328469038,-0.010377890430390835,0.04113224893808365,0.0063367364928126335,-0.7569534182548523,-0.7430355548858643,0.045000217854976654,0.0,0.0,0.0,0.011892754584550858,-0.018311157822608948,-0.0,0.0,0.0,0.0,0.01010535191744566,-0.025825057178735733,0.0005269206594675779,13262.0,15678.0,17554.0,13640.0,0.3914303779602051,0.5577110052108765,0.7070403099060059,0.415519118309021,0.0,0.0,0.0,0.0,12960.0,16243.0,17531.0,13605.0,1.8689987659454346,0.03696039656613503,-0.19841062846662977,0.08933174980358359,0.08245590329170227,0.041198503226041794,0.0
375,5,-0.0032390428241342306,-0.00021682173246517777,0.00375900836661458,-0.008331279270350933,-0.013936597853899002,0.00525695038959384,-0.024830374866724014,0.041804634034633636,0.006625918671488762,-0.676554262638092,0.6112210154533386,0.0029716333374381065,0.0,0.0,0.0,0.011892754584550858,-0.018311157822608948,-0.0,0.0,0.0,0.0,0.011267404071986675,-0.017276104539632797,0.0022998875938355923,13722.0,14566.0,17087.0,13763.0,0.4207863211631775,0.47756490111351013,0.6681749820709229,0.4235166609287262,0.0,0.0,0.0,0.0,13649.0,15289.0,17607.0,13635.0,1.8689987659454346,0.03303580660482537,-0.19550622689782304,0.08934565464906097,0.08245590329170227,0.041198503226041794,0.0
380,5,-0.0032152479980140924,-0.0001522217644378543,0.003675402607768774,-0.0004771399835590273,-0.013326634652912617,0.012135463766753674,-0.024830374866724014,0.041804634034633636,0.006625918671488762,-0.676554262638092,0.6112210154533386,0.0029716333374381065,0.0,0.0,0.0,0.01518142968416214,-0.01123962551355362,-0.0,0.0,0.0,0.0,0.011267404071986675,-0.017276104539632797,0.0022998875938355923,13722.0,14566.0,17087.0,13763.0,0.4207863211631775,0.47756490111351013,0.6681749820709229,0.4235166609287262,0.0,0.0,0.0,0.0,13649.0,15289.0,17607.0,13635.0,1.814049482345581,0.02909011315701302,-0.19180789734353862,0.08965936916833335,0.04912399873137474,0.05104345455765724,-0.0
385,5,-0.003173545002937317,-0.00010352064418839291,0.0035775303840637207,0.004813485778868198,-0.011174788698554039,0.01659885048866272,-0.0296766459941864,0.03506164252758026,0.0065514082089066505,-0.5265560150146484,1.0878773927688599,0.042988769710063934,0.0,0.0,0.0,0.01518142968416214,-0.01123962551355362,-0.0,0.0,0.0,0.0,0.011999636888504028,-0.009052379056811333,0.001420778688043356,13587.0,13694.0,15809.0,14462.0,0.41204819083213806,0.4190020263195038,0.5675714015960693,0.4703770875930786,0.0,0.0,0.0,0.0,13703.0,14547.0,16758.0,14204.0,1.814049482345581,0.024854613876699346,-0.18655063306917374,0.0890720880041964,0.04912399873137474,0.05104345455765724,-0.0
390,5,-0.003116888925433159,-5.0531223678262904e-05,0.003483158303424716,0.008724143728613853,-0.010828645899891853,0.01796419359743595,-0.0296766459941864,0.03506164252758026,0.0065514082089066505,-0.5265560150146484,1.0878773927688599,0.042988769710063934,0.0,0.0,0.0,0.01283390261232853,0.00012379699910525233,-0.0,0.0,0.0,0.0,0.011999636888504028,-0.009052379056811333,0.001420778688043356,13587.0,13694.0,15809.0,14462.0,0.41204819083213806,0.4190020263195038,0.5675714015960693,0.4703770875930786,0.0,0.0,0.0,0.0,13703.0,14547.0,16758.0,14204.0,1.7366164922714233,0.02336250852962235,-0.18058157432286281,0.08806259629896347,-0.0005180005100555718,0.04130946472287178,-0.0
395,5,-0.0030353087931871414,-1.797965342120733e-05,0.003390182740986347,0.013279269449412823,-0.008237646892666817,0.01834273710846901,-0.03440312296152115,0.020167646929621696,0.007005731109529734,-0.28810009360313416,1.3603150844573975,0.08527432382106781,0.0,0.0,0.0,0.01283390261232853,0.00012379699910525233,-0.0,0.0,0.0,0.0,0.011551251634955406,7.702686707489192e-05,0.0028668453451246023,14663.0,12621.0,15970.0,14204.0,0.48424670100212097,0.3522004187107086,0.5797808170318604,0.45277082920074463,0.0,0.0,0.0,0.0,14296.0,12997.0,16021.0,14203.0,1.7366164922714233,0.02228433337640741,-0.17340669687611662,0.08690834937158734,-0.0005180005100555718,0.04130946472287178,-0.0
401,5,-0.0029528678860515356,8.891435754776467e-06,0.003289401065558195,0.01520460844039917,-0.006519589573144913,0.019430920481681824,-0.03440312296152115,0.020167646929621696,0.007005731109529734,-0.28810009360313416,1.3603150844573975,0.08527432382106781,0.0,0.0,0.0,0.009502911940217018,0.007844462059438229,-0.0,0.0,0.0,0.0,0.011551251634955406,7.702686707489192e-05,0.0028668453451246023,14663.0,12621.0,15970.0,14204.0,0.48424670100212097,0.3522004187107086,0.5797808170318604,0.45277082920074463,0.0,0.0,0.0,0.0,14296.0,12997.0,16021.0,14203.0,1.7466742992401123,0.021982176919139708,-0.1666238358044783,0.08636219844943649,-0.033014364540576935,0.03076559491455555,-0.0
406,5,-0.0028719299007207155,3.840837234747596e-05,0.0031744486186653376,0.015794401988387108,-0.0061498680151999,0.021566638723015785,-0.034999120980501175,0.008773714303970337,0.0066110217012465,0.07776609063148499,1.4430139064788818,-0.04609131067991257,0.0,0.0,0.0,0.009502911940217018,0.007844462059438229,-0.0,0.0,0.0,0.0,0.010088966228067875,0.00695624016225338,-0.00019813775725197047,14112.0,13008.0,14200.0,15430.0,0.44660305976867676,0.37561094760894775,0.4525154232978821,0.5393200516700745,0.0,0.0,0.0,0.0,14522.0,12314.0,15275.0,14565.0,1.7466742992401123,0.021147234664690578,-0.15962978748758921,0.08580096155795054,-0.033014364540576935,0.03076559491455555,-0.0
411,5,-0.0027909819036722183,3.238431963836774e-05,0.0030353174079209566,0.016031518578529358,-0.0017370609566569328,0.025322411209344864,-0.034999120980501175,0.008773714303970337,0.0066110217012465,0.07776609063148499,1.4430139064788818,-0.04609131067991257,0.0,0.0,0.0,0.007136814296245575,0.010234038345515728,-0.0,0.0,0.0,0.0,0.010088966228067875,0.00695624016225338,-0.00019813775725197047,14112.0,13008.0,14200.0,15430.0,0.44660305976867676,0.37561094760894775,0.4525154232978821,0.5393200516700745,0.0,0.0,0.0,0.0,14522.0,12314.0,15275.0,14565.0,1.7573364973068237,0.020668749075675,-0.15335527607466706,0.08596269225915368,-0.04333464428782463,0.02324669249355793,-0.0
416,5,-0.0027190404944121838,3.40374099323526e-05,0.00289737107232213,0.015045586973428726,-0.0008931952179409564,0.026682527735829353,-0.03168842941522598,-0.008493434637784958,0.006430856883525848,0.443009614944458,1.4100691080093384,0.10831233114004135,0.0,0.0,0.0,0.007136814296245575,0.010234038345515728,-0.0,0.0,0.0,0.0,0.0073148212395608425,0.015653863549232483,0.0026506255380809307,15760.0,10612.0,14649.0,14115.0,0.5638502836227417,0.24267873167991638,0.4832788407802582,0.4468086063861847,0.0,0.0,0.0,0.0,14177.0,12504.0,13380.0,15460.0,1.7573364973068237,0.022549445804547333,-0.1468458423525211,0.08675034559988999,-0.04333464428782463,0.02324669249355793,-0.0
421,5,-0.0026481475215405226,2.7146235879627056e-05,0.002750834682956338,0.014525393955409527,0.0004696627438534051,0.028257379308342934,-0.03168842941522598,-0.008493434637784958,0.006430856883525848,0.443009614944458,1.4100691080093384,0.10831233114004135,0.0,0.0,0.0,0.001090213656425476,0.009880905970931053,-0.0,0.0,0.0,0.0,0.0073148212395608425,0.015653863549232483,0.0026506255380809307,15760.0,10612.0,14649.0,14115.0,0.5638502836227417,0.24267873167991638,0.4832788407802582,0.4468086063861847,0.0,0.0,0.0,0.0,14177.0,12504.0,13380.0,15460.0,1.7370718717575073,0.024106719360257607,-0.14105859682504385,0.08668476665476302,-0.041357964277267456,0.0035102481488138437,-0.0
426,5,-0.0025221549440175295,-4.607574373949319e-05,0.002471381798386574,0.011845980770885944,0.006410601083189249,0.028531795367598534,-0.03168842941522598,-0.008493434637784958,0.006430856883525848,0.443009614944458,1.4100691080093384,0.10831233114004135,0.0,0.0,0.0,0.001090213656425476,0.009880905970931053,-0.0,0.0,0.0,0.0,0.0073148212395608425,0.015653863549232483,0.0026506255380809307,15760.0,10612.0,14649.0,14115.0,0.5638502836227417,0.24267873167991638,0.4832788407802582,0.4468086063861847,0.0,0.0,0.0,0.0,14177.0,12504.0,13380.0,15460.0,1.7370718717575073,0.03181654654311073,-0.13004436183548282,0.08661682508476752,-0.041357964277267456,0.0035102481488138437,-0.0
431,5,-0.0025056859012693167,-9.089292143471539e-05,0.002350357361137867,0.006714693270623684,0.007942302152514458,0.02593565545976162,-0.027031181380152702,-0.018668901175260544,0.006700235418975353,0.7019739151000977,1.1538594961166382,0.005806653294712305,0.0,0.0,0.0,0.001090213656425476,0.009880905970931053,-0.0,0.0,0.0,0.0,0.004029151517897844,0.019289162009954453,0.002363472944125533,15735.0,11408.0,13439.0,14865.0,0.5619539022445679,0.2836267352104187,0.4026070833206177,0.49848657846450806,0.0,0.0,0.0,0.0,15718.0,11739.0,13196.0,14995.0,1.7370718717575073,0.035181870648039695,-0.12644869312797233,0.08651443868466754,-0.01128179207444191,-0.03031030111014843,-0.0
436,5,-0.0025056859012693167,-9.089292143471539e-05,0.002350357361137867,0.006714693270623684,0.007942302152514458,0.02593565545976162,-0.027031181380152702,-0.018668901175260544,0.006700235418975353,0.7019739151000977,1.1538594961166382,0.005806653294712305,0.0,0.0,0.0,-0.009547575376927853,0.0027336690109223127,-0.0,0.0,0.0,0.0,0.004029151517897844,0.019289162009954453,0.002363472944125533,15735.0,11408.0,13439.0,14865.0,0.5619539022445679,0.2836267352104187,0.4026070833206177,0.49848657846450806,0.0,0.0,0.0,0.0,15718.0,11739.0,13196.0,14995.0,1.7127761840820312,0.035181870648039695,-0.12644869312797233,0.08651443868466754,-0.01128179207444191,-0.03031030111014843,-0.0
441,5,-0.002539008390158415,-0.00018561867182143033,0.0021803698036819696,-0.0027367877773940563,0.009275263175368309,0.018345730379223824,-0.018340375274419785,-0.029614966362714767,0.007281054742634296,0.771903932094574,0.7788326740264893,0.10860861837863922,0.0,0.0,0.0,-0.009547575376927853,0.0027336690109223127,-0.0,0.0,0.0,0.0,0.0010114748729392886,0.02024226076900959,0.002849614480510354,16190.0,11228.0,13742.0,14376.0,0.5966944694519043,0.2740955054759979,0.4221210181713104,0.4644254744052887,0.0,0.0,0.0,0.0,16512.0,10810.0,14051.0,13711.0,1.7127761840820312,0.043219344161409684,-0.12305217937639289,0.08699931660107144,0.024353422224521637,-0.0358305461704731,-0.0
446,5,-0.002539008390158415,-0.00018561867182143033,0.0021803698036819696,-0.0027367877773940563,0.009275263175368309,0.018345730379223824,-0.018340375274419785,-0.029614966362714767,0.007281054742634296,0.771903932094574,0.7788326740264893,0.10860861837863922,0.0,0.0,0.0,-0.01109769381582737,-0.0058024171739816666,-0.0,0.0,0.0,0.0,0.0010114748729392886,0.02024226076900959,0.002849614480510354,16190.0,11228.0,13742.0,14376.0,0.5966944694519043,0.2740955054759979,0.4221210181713104,0.4644254744052887,0.0,0.0,0.0,0.0,16512.0,10810.0,14051.0,13711.0,1.7419204711914062,0.043219344161409684,-0.12305217937639289,0.08699931660107144,0.024353422224521637,-0.0358305461704731,-0.0
451,5,-0.002733873901888728,-0.00024347665021196008,0.0021810722537338734,-0.01809133216738701,0.007296980824321508,0.0006677339551970363,-0.012223279103636742,-0.033599603921175,0.007694353349506855,0.746185839176178,0.2518603801727295,-0.03531620651483536,0.0,0.0,0.0,-0.01109769381582737,-0.0058024171739816666,-0.0,0.0,0.0,0.0,-0.0014012862229719758,0.016940515488386154,0.0021614457946270704,15639.0,12282.0,13114.0,14425.0,0.5548087954521179,0.3322763442993164,0.3821892738342285,0.46779754757881165,0.0,0.0,0.0,0.0,14842.0,13394.0,12414.0,14547.0,1.7419204711914062,0.05349365325593393,-0.12272672264489808,0.08647548156702221,0.024353422224521637,-0.0358305461704731,-0.0
456,5,-0.0028378013521432877,-0.00029497762443497777,0.0022296879906207323,-0.019707834348082542,0.009098908863961697,-0.00556678744032979,-0.012223279103636742,-0.033599603921175,0.007694353349506855,0.746185839176178,0.2518603801727295,-0.03531620651483536,0.0,0.0,0.0,-0.008343253284692764,-0.018544886261224747,-0.0,0.0,0.0,0.0,-0.0014012862229719758,0.016940515488386154,0.0021614457946270704,15639.0,12282.0,13114.0,14425.0,0.5548087954521179,0.3322763442993164,0.3821892738342285,0.46779754757881165,0.0,0.0,0.0,0.0,14842.0,13394.0,12414.0,14547.0,1.8578764200210571,0.055922291657201625,-0.12570409427104545,0.0863414140785058,0.08301429450511932,-0.028731059283018112,-0.0
461,5,-0.0029742191545665264,-0.00035597060923464596,0.0022808187641203403,-0.024253269657492638,0.010958722792565823,-0.008362393826246262,-0.003646056866273284,-0.03297862410545349,0.00737342145293951,0.7055888772010803,-0.2967454791069031,0.013204065151512623,0.0,0.0,0.0,-0.008343253284692764,-0.018544886261224747,-0.0,0.0,0.0,0.0,-0.005157593637704849,0.010007268749177456,0.00018414236546959728,15035.0,13250.0,13059.0,13905.0,0.5105657577514648,0.3906579315662384,0.37874361872673035,0.43280890583992004,0.0,0.0,0.0,0.0,15104.0,13493.0,13748.0,13363.0,1.8578764200210571,0.05950023715666695,-0.12944593560224488,0.08613906705474898,0.08301429450511932,-0.028731059283018112,-0.0
467,5,-0.0031319228000938892,-0.0004079180071130395,0.0023891765158623457,-0.028625736013054848,0.010617177002131939,-0.016347888857126236,-0.003646056866273284,-0.03297862410545349,0.00737342145293951,0.7055888772010803,-0.2967454791069031,0.013204065151512623,0.0,0.0,0.0,-0.012050515040755272,-0.023122457787394524,-0.0,0.0,0.0,0.0,-0.005157593637704849,0.010007268749177456,0.00018414236546959728,15035.0,13250.0,13059.0,13905.0,0.5105657577514648,0.3906579315662384,0.37874361872673035,0.43280890583992004,0.0,0.0,0.0,0.0,15104.0,13493.0,13748.0,13363.0,1.9288852214813232,0.06334212337790625,-0.13450788699877933,0.08627707639382563,0.10745386779308319,-0.04308255389332771,0.0
472,5,-0.003315439447760582,-0.00045587593922391534,0.002479761140421033,-0.03347228094935417,0.01000182330608368,-0.01740930788218975,0.0016930849524214864,-0.028598526492714882,0.007348221261054277,0.6442038416862488,-0.7543293833732605,-0.03829732909798622,0.0,0.0,0.0,-0.012050515040755272,-0.023122457787394524,-0.0,0.0,0.0,0.0,-0.0062376647256314754,0.0016656896332278848,0.00036884276778437197,14459.0,14293.0,13518.0,13482.0,0.4701702892780304,0.4587844908237457,0.4076506197452545,0.4053150713443756,0.0,0.0,0.0,0.0,13942.0,14843.0,13302.0,13645.0,1.9288852214813232,0.06592231484162968,-0.13910759208652507,0.08681680571451317,0.10745386779308319,-0.04308255389332771,0.0
