timestamp,dt,pos_x,pos_y,pos_z,vel_x,vel_y,vel_z,roll,pitch,yaw,agv_x,agv_y,agv_z,x_ref,y_ref,z_ref,roll_ref,pitch_ref,yaw_ref,x_vel_ref,y_vel_ref,z_vel_ref,x_torque,y_torque,z_torque,w0,w1,w2,w3,u0,u1,u2,u3,m0req,m1req,m2req,m3req,thrust0,thrust1,thrust2,thrust3,thrust_ref,roll_vicon,pitch_vicon,yaw_vicon,acc_x,acc_y,acc_z
5,5,0.0,0.0,0.0,-0.005578033626079559,-0.0019368280190974474,0.02489498071372509,0.0,0.0,0.0,0.0,0.0,0.0,0.0,0.0,0.0,0.0023247955832630396,-0.005150316283106804,-0.0,0.0,0.0,0.0,0.0,0.0,0.0,0.0,0.0,0.0,0.0,0.0,0.0,0.0,0.0,0.0,0.0,0.0,0.0,0.0,0.0,0.0,0.0,1.6855037212371826,-0.023141945050045052,0.07176315194130874,0.09673968905698133,0.020917626097798347,0.007263104896992445,0.0
30,25,0.0,0.0,0.0,-0.00617189472541213,0.001268510241061449,0.004301116801798344,0.0,0.0,0.0,0.0,0.0,0.0,0.0,0.0,0.0,0.0023247955832630396,-0.005150316283106804,-0.0,0.0,0.0,0.0,0.0,0.0,0.0,0.0,0.0,0.0,0.0,0.0,0.0,0.0,0.0,0.0,0.0,0.0,0.0,0.0,0.0,0.0,0.0,1.6855037212371826,-0.023631159661311775,0.07257950238272995,0.09659710206846955,0.020917626097798347,0.007263104896992445,0.0
35,5,0.0,0.0,0.0,-0.005005597602576017,0.0016924794763326645,0.008984863758087158,0.0,0.0,0.0,0.0,0.0,0.0,0.0,0.0,0.0,-0.0020390532445162535,-0.004638949874788523,-0.0,0.0,0.0,0.0,0.0,0.0,0.0,0.0,0.0,0.0,0.0,0.0,0.0,0.0,0.0,0.0,0.0,0.0,0.0,0.0,0.0,0.0,0.0,1.6792606115341187,-0.02255997222512833,0.07356303731092242,0.09651394555561436,0.018770990893244743,-0.006346798036247492,0.0
46,11,0.0,0.0,0.0,-0.005005597602576017,0.0016924794763326645,0.008984863758087158,0.0,0.0,0.0,0.0,0.0,0.0,0.0,0.0,0.0,-0.0020390532445162535,-0.004638949874788523,-0.0,0.0,0.0,0.0,0.0,0.0,0.0,0.0,0.0,0.0,0.0,0.0,0.0,0.0,0.0,0.0,0.0,0.0,0.0,0.0,0.0,0.0,0.0,1.6792606115341187,-0.02255997222512833,0.07356303731092242,0.09651394555561436,0.018770990893244743,-0.006346798036247492,0.0
51,5,0.0,0.0,0.0,-0.004948977846652269,0.002060228493064642,0.007151289843022823,0.0,0.0,0.0,0.0,0.0,0.0,0.0,0.0,0.0,-0.0020390532445162535,-0.004638949874788523,-0.0,0.0,0.0,0.0,0.0,0.0,0.0,0.0,0.0,0.0,0.0,0.0,0.0,0.0,0.0,0.0,0.0,0.0,0.0,0.0,0.0,0.0,0.0,1.6792606115341187,-0.023138896634458,0.07421674078164513,0.09562247205747167,0.018770990893244743,-0.006346798036247492,0.0
56,5,0.0,0.0,0.0,-0.004805413074791431,0.004378386307507753,0.004284315276890993,0.0,0.0,0.0,0.0,0.0,0.0,0.0,0.0,0.0,-0.0024809674359858036,-0.004584372043609619,-0.0,0.0,0.0,0.0,0.0,0.0,0.0,0.0,0.0,0.0,0.0,0.0,0.0,0.0,0.0,0.0,0.0,0.0,0.0,0.0,0.0,0.0,0.0,1.6800330877304077,-0.022122489874896255,0.0749875834360609,0.09510332340124165,0.018558666110038757,-0.0077258567325770855,0.0
61,6,0.0,0.0,0.0,-0.004766525700688362,0.00354170729406178,0.00040513931890018284,0.0,0.0,0.0,0.0,0.0,0.0,0.0,0.0,0.0,-0.0024809674359858036,-0.004584372043609619,-0.0,0.0,0.0,0.0,0.0,0.0,0.0,0.0,0.0,0.0,0.0,0.0,0.0,0.0,0.0,0.0,0.0,0.0,0.0,0.0,0.0,0.0,0.0,1.6800330877304077,-0.02359167115873505,0.07420368262346208,0.09530639253825751,0.018558666110038757,-0.0077258567325770855,0.0
67,5,-1.3202820809965488e-05,-1.6042497009038925e-05,-3.905950507032685e-05,-0.0034909488167613745,0.003341782372444868,0.004849195946007967,0.0,0.0,0.0,0.0,0.0,0.0,0.0,0.0,0.0,-0.004250303842127323,-0.004400163888931274,-0.0,0.0,0.0,0.0,0.0,0.0,0.0,0.0,0.0,0.0,0.0,0.0,0.0,0.0,0.0,0.0,0.0,0.0,0.0,0.0,0.0,0.0,0.0,1.6858454942703247,-0.02342189807914694,0.07443248309133074,0.09491157547686879,0.017874471843242645,-0.013281402178108692,0.0
74,7,-5.507916648639366e-05,-4.32236774940975e-05,9.079164556169417e-06,-0.00642154086381197,0.004598455037921667,-0.0038369616959244013,0.0,0.0,0.0,0.0,0.0,0.0,0.0,0.0,0.0,-0.004250303842127323,-0.004400163888931274,-0.0,0.0,0.0,0.0,0.0,0.0,0.0,0.0,0.0,0.0,0.0,0.0,0.0,0.0,0.0,0.0,0.0,0.0,0.0,0.0,0.0,0.0,0.0,1.6858454942703247,-0.023549871847204026,0.07455517659667833,0.09427670745380581,0.017874471843242645,-0.013281402178108692,0.0
79,5,-6.956921424716711e-05,-6.490806845249608e-05,-6.966512955841608e-06,-0.0043074218556284904,0.004441508557647467,0.00039069660124368966,0.0,0.0,0.0,0.0,0.0,0.0,0.0,0.0,0.0,-0.005526831839233637,-0.005929909180849791,-0.0,0.0,0.0,0.0,0.0,0.0,0.0,0.0,0.0,0.0,0.0,0.0,0.0,0.0,0.0,0.0,0.0,0.0,0.0,0.0,0.0,0.0,0.0,1.70652437210083,-0.0231181552891916,0.074878415354669,0.0942113989823038,0.02438390627503395,-0.017482087016105652,0.0
84,5,-0.00010086630209116265,-6.506514182547107e-05,-1.0462273166922387e-05,-0.005478620063513517,0.0017954523209482431,0.0005757698672823608,0.0,0.0,0.0,0.0,0.0,0.0,0.0,0.0,0.0,-0.005526831839233637,-0.005929909180849791,-0.0,0.0,0.0,0.0,0.0,0.0,0.0,0.0,0.0,0.0,0.0,0.0,0.0,0.0,0.0,0.0,0.0,0.0,0.0,0.0,0.0,0.0,0.0,1.70652437210083,-0.022927067561545455,0.07466496063565128,0.09375542255618001,0.02438390627503395,-0.017482087016105652,0.0
89,5,-0.00011919296230189502,-8.420975063927472e-05,-1.24374973893282e-05,-0.004390646703541279,0.0030155344866216183,0.00046733487397432327,0.0,0.0,0.0,0.0,0.0,0.0,0.0,0.0,0.0,-0.002269343938678503,-0.00519428588449955,-0.0,0.0,0.0,0.0,0.0,0.0,0.0,0.0,0.0,0.0,0.0,0.0,0.0,0.0,0.0,0.0,0.0,0.0,0.0,0.0,0.0,0.0,0.0,1.6858174800872803,-0.023321932587294675,0.07480162682770729,0.093391303897731,0.021100135520100594,-0.007091183681041002,0.0
94,5,-0.0001386919611832127,-9.297819633502513e-05,-2.9388029361143708e-05,-0.004096139222383499,0.0022584267426282167,0.0022209975868463516,0.0,0.0,0.0,0.0,0.0,0.0,0.0,0.0,0.0,-0.002269343938678503,-0.00519428588449955,-0.0,0.0,0.0,0.0,0.0,0.0,0.0,0.0,0.0,0.0,0.0,0.0,0.0,0.0,0.0,0.0,0.0,0.0,0.0,0.0,0.0,0.0,0.0,1.6858174800872803,-0.02327284488776693,0.0740329061488017,0.09297241703176334,0.021100135520100594,-0.007091183681041002,0.0
99,5,-0.0001768850052030757,-0.00012286908167880028,-1.0859362191695254e-05,-0.006221619434654713,0.004490276798605919,-0.0013350408989936113,0.0,0.0,0.0,0.0,0.0,0.0,0.0,0.0,0.0,-0.002891690470278263,-0.003993549849838018,-0.0,0.0,0.0,0.0,0.0,0.0,0.0,0.0,0.0,0.0,0.0,0.0,0.0,0.0,0.0,0.0,0.0,0.0,0.0,0.0,0.0,0.0,0.0,1.675615668296814,-0.023310268775466988,0.07465168978316063,0.09232335188767174,0.016124358400702477,-0.008981185033917427,0.0
104,5,-0.0001466141256969422,-0.00010981239756802097,-4.889328920398839e-05,0.001143856206908822,0.00022930919658392668,0.004030054900795221,0.0,0.0,0.0,0.0,0.0,0.0,0.0,0.0,0.0,-0.002891690470278263,-0.003993549849838018,-0.0,0.0,0.0,0.0,0.0,0.0,0.0,0.0,0.0,0.0,0.0,0.0,0.0,0.0,0.0,0.0,0.0,0.0,0.0,0.0,0.0,0.0,0.0,1.675615668296814,-0.023507620477734165,0.07460807484212585,0.09202097029866706,0.016124358400702477,-0.008981185033917427,0.0
109,5,-0.00015607327804900706,-0.00010772638052003458,-3.634654785855673e-05,-0.0006775543442927301,-0.00015859829727560282,0.00010641307017067447,0.0,0.0,0.0,0.0,0.0,0.0,0.0,0.0,0.0,3.850948928629805e-07,-0.000863215303979814,-0.0,0.0,0.0,0.0,0.0,0.0,0.0,0.0,0.0,0.0,0.0,0.0,0.0,0.0,0.0,0.0,0.0,0.0,0.0,0.0,0.0,0.0,0.0,1.634975790977478,-0.024138653695613223,0.0744652565535568,0.09177523370858356,0.0034008093643933535,1.1670450703604729e-06,0.0
116,7,-0.00015894662647042423,-0.00014273400302045047,-4.052613803651184e-05,-0.0003998750471509993,0.0018793917261064053,0.0010535173350945115,0.0,0.0,0.0,0.0,0.0,0.0,0.0,0.0,0.0,3.850948928629805e-07,-0.000863215303979814,-0.0,0.0,0.0,0.0,0.0,0.0,0.0,0.0,0.0,0.0,0.0,0.0,0.0,0.0,0.0,0.0,0.0,0.0,0.0,0.0,0.0,0.0,0.0,1.634975790977478,-0.023141300248602576,0.07584632436177205,0.0907146528941562,0.0034008093643933535,1.1670450703604729e-06,0.0
121,5,-0.00015494560648221523,-0.0001376311556668952,-5.91295502090361e-05,0.00032017152989283204,0.00013941504585091025,0.002653816482052207,0.0,0.0,0.0,0.0,0.0,0.0,0.0,0.0,0.0,-0.0025648020673543215,-0.0005983177106827497,-0.0,0.0,0.0,0.0,0.0,0.0,0.0,0.0,0.0,0.0,0.0,0.0,0.0,0.0,0.0,0.0,0.0,0.0,0.0,0.0,0.0,0.0,0.0,1.647937297821045,-0.023210841759198894,0.07596050570202924,0.09056332722026426,0.002375871641561389,-0.007834336720407009,0.0
126,5,-0.0001675650419201702,-0.0001462237851228565,-7.309794455068186e-05,-0.0013862643390893936,0.0010868798708543181,0.0027377335354685783,0.0,0.0,0.0,0.0,0.0,0.0,0.0,0.0,0.0,-0.0025648020673543215,-0.0005983177106827497,-0.0,0.0,0.0,0.0,0.0,0.0,0.0,0.0,0.0,0.0,0.0,0.0,0.0,0.0,0.0,0.0,0.0,0.0,0.0,0.0,0.0,0.0,0.0,1.647937297821045,-0.023115178961652594,0.07637767682260722,0.09030722599758215,0.002375871641561389,-0.007834336720407009,0.0
131,5,-0.00019200460519641638,-0.0001460777857573703,-9.066163329407573e-05,-0.0034872523974627256,0.00041723361937329173,0.003202736610546708,0.0,0.0,0.0,0.0,0.0,0.0,0.0,0.0,0.0,-0.0015992404660210013,-0.0015428137267008424,-0.0,0.0,0.0,0.0,0.0,0.0,0.0,0.0,0.0,0.0,0.0,0.0,0.0,0.0,0.0,0.0,0.0,0.0,0.0,0.0,0.0,0.0,0.0,1.6469740867614746,-0.022994412767337595,0.07745599829071727,0.09014020717414695,0.006122819148004055,-0.0048821233212947845,0.0
136,5,-0.00021565472707152367,-0.00016124214744195342,-9.417082037543878e-05,-0.0042329151183366776,0.001986616523936391,0.0017021968960762024,0.0,0.0,0.0,0.0,0.0,0.0,0.0,0.0,0.0,-0.0015992404660210013,-0.0015428137267008424,-0.0,0.0,0.0,0.0,0.0,0.0,0.0,0.0,0.0,0.0,0.0,0.0,0.0,0.0,0.0,0.0,0.0,0.0,0.0,0.0,0.0,0.0,0.0,1.6469740867614746,-0.022796735918796003,0.07840505834263763,0.08962858869845473,0.006122819148004055,-0.0048821233212947845,0.0
142,5,-0.00022506398090627044,-0.00015639726188965142,-8.59724823385477e-05,-0.002822276670485735,0.00021325999114196748,-0.00030292183510027826,0.0,0.0,0.0,0.0,0.0,0.0,0.0,0.0,0.0,-0.002682721009477973,-0.004222406540066004,-0.0,0.0,0.0,0.0,0.0,0.0,0.0,0.0,0.0,0.0,0.0,0.0,0.0,0.0,0.0,0.0,0.0,0.0,0.0,0.0,0.0,0.0,0.0,1.6770520210266113,-0.02335949339538715,0.0785152648419749,0.08968430799305709,0.01706300862133503,-0.008339300751686096,0.0
147,5,-0.0001988270814763382,-0.0001502672239439562,-0.00011046582221752033,0.0020195161923766136,-0.0006503002950921655,0.0028180319350212812,0.0,0.0,0.0,0.0,0.0,0.0,0.0,0.0,0.0,-0.002682721009477973,-0.004222406540066004,-0.0,0.0,0.0,0.0,0.0,0.0,0.0,0.0,0.0,0.0,0.0,0.0,0.0,0.0,0.0,0.0,0.0,0.0,0.0,0.0,0.0,0.0,0.0,1.6770520210266113,-0.023999816815042548,0.0785553244395645,0.08997465567401457,0.01706300862133503,-0.008339300751686096,0.0
152,5,-0.00022166593407746404,-0.0001629316247999668,-0.00010076139005832374,-0.0019328558119013906,0.0012596076121553779,-3.731952529051341e-05,0.0,0.0,0.0,0.0,0.0,0.0,0.0,0.0,0.0,0.0005280572804622352,0.0016347829950973392,-0.0,0.0,0.0,0.0,0.0,0.0,0.0,0.0,0.0,0.0,0.0,0.0,0.0,0.0,0.0,0.0,0.0,0.0,0.0,0.0,0.0,0.0,0.0,1.643838882446289,-0.024208912108358065,0.07897242946238842,0.09030796239375066,-0.006475465837866068,0.0016089732525870204,0.0
157,5,-0.00023863602837081999,-0.00016881150077097118,-7.61139381211251e-05,-0.0028095527086406946,0.0012094280682504177,-0.002972621936351061,0.0,0.0,0.0,0.0,0.0,0.0,0.0,0.0,0.0,0.0005280572804622352,0.0016347829950973392,-0.0,0.0,0.0,0.0,0.0,0.0,0.0,0.0,0.0,0.0,0.0,0.0,0.0,0.0,0.0,0.0,0.0,0.0,0.0,0.0,0.0,0.0,0.0,1.643838882446289,-0.02405884153494428,0.07947773748617615,0.08989265492913447,-0.006475465837866068,0.0016089732525870204,0.0
162,5,-0.0002472380001563579,-0.00015361065743491054,-9.525130008114502e-05,-0.0021560597233474255,-0.0013403295306488872,0.0011074349749833345,0.0,0.0,0.0,0.0,0.0,0.0,0.0,0.0,0.0,-0.0017758194589987397,-0.0029614234808832407,-0.0,0.0,0.0,0.0,0.0,0.0,0.0,0.0,0.0,0.0,0.0,0.0,0.0,0.0,0.0,0.0,0.0,0.0,0.0,0.0,0.0,0.0,0.0,1.6610747575759888,-0.023431555965770613,0.07905028958926029,0.08993369923808656,0.011853327043354511,-0.0054675922729074955,0.0
167,5,-0.00028052195557393134,-0.00014568275946658105,-9.096365829464048e-05,-0.004856497514992952,-0.0014874798944219947,-7.154313061619177e-05,0.0,0.0,0.0,0.0,0.0,0.0,0.0,0.0,0.0,-0.0017758194589987397,-0.0029614234808832407,-0.0,0.0,0.0,0.0,0.0,0.0,0.0,0.0,0.0,0.0,0.0,0.0,0.0,0.0,0.0,0.0,0.0,0.0,0.0,0.0,0.0,0.0,0.0,1.6610747575759888,-0.023123032130224652,0.07896501621099855,0.0897966363391574,0.011853327043354511,-0.0054675922729074955,0.0
172,5,-0.00034642405807971954,-0.0001329187653027475,-0.0001051702129188925,-0.009850849397480488,-0.0021266709081828594,0.0016761694569140673,0.0,0.0,0.0,0.0,0.0,0.0,0.0,0.0,0.0,0.0015320191159844398,-0.004879538435488939,-0.0,0.0,0.0,0.0,0.0,0.0,0.0,0.0,0.0,0.0,0.0,0.0,0.0,0.0,0.0,0.0,0.0,0.0,0.0,0.0,0.0,0.0,0.0,1.6806390285491943,-0.022934935590380002,0.07901607972388226,0.08913584274131908,0.019760724157094955,0.004772510379552841,0.0
177,5,-0.0003982036141678691,-0.00012395101657602936,-0.00011663734767353162,-0.010153887793421745,-0.0019267984898760915,0.002046523615717888,0.0,0.0,0.0,0.0,0.0,0.0,0.0,0.0,0.0,0.0015320191159844398,-0.004879538435488939,-0.0,0.0,0.0,0.0,0.0,0.0,0.0,0.0,0.0,0.0,0.0,0.0,0.0,0.0,0.0,0.0,0.0,0.0,0.0,0.0,0.0,0.0,0.0,1.6806390285491943,-0.022970024774688486,0.07822854540547136,0.08933863223446728,0.019760724157094955,0.004772510379552841,0.0
182,5,-0.0004332871176302433,-0.00011668185470625758,-0.00012379922554828227,-0.008271574974060059,-0.0016430187970399857,0.0016780346632003784,0.0,0.0,0.0,0.0,0.0,0.0,0.0,0.0,0.0,0.0015320191159844398,-0.004879538435488939,-0.0,0.0,0.0,0.0,0.0,0.0,0.0,0.0,0.0,0.0,0.0,0.0,0.0,0.0,0.0,0.0,0.0,0.0,0.0,0.0,0.0,0.0,0.0,1.6806390285491943,-0.023391994839530958,0.0775897812532932,0.08951982454400711,0.03321590647101402,0.005474872421473265,0.0
187,5,-0.0004897607723250985,-0.00011385841207811609,-9.267838322557509e-05,-0.010085470043122768,-0.0009960202733054757,-0.0030632868874818087,0.0,0.0,0.0,0.0,0.0,0.0,0.0,0.0,0.0,0.0017210034420713782,-0.008031846955418587,-0.0,0.0,0.0,0.0,0.0,0.0,0.0,0.0,0.0,0.0,0.0,0.0,0.0,0.0,0.0,0.0,0.0,0.0,0.0,0.0,0.0,0.0,0.0,1.7162641286849976,-0.022796946316376823,0.07738706126349709,0.08863463378326689,0.03321590647101402,0.005474872421473265,0.0
192,5,-0.000499492627568543,-9.857035183813423e-05,-9.79205287876539e-05,-0.005202011205255985,-0.002232975559309125,-0.0005962575669400394,0.0,0.0,0.0,0.0,0.0,0.0,0.0,0.0,0.0,0.0017210034420713782,-0.008031846955418587,-0.0,0.0,0.0,0.0,0.0,0.0,0.0,0.0,0.0,0.0,0.0,0.0,0.0,0.0,0.0,0.0,0.0,0.0,0.0,0.0,0.0,0.0,0.0,1.7162641286849976,-0.022319723308566877,0.07714282955232254,0.08909874355803493,0.03321590647101402,0.005474872421473265,0.0
197,5,-0.0005385949625633657,-0.00010200420365436003,-3.9484180888393894e-05,-0.0067730857990682125,-0.00048112840158864856,-0.007250864524394274,0.0,0.0,0.0,0.0,0.0,0.0,0.0,0.0,0.0,0.002499329624697566,-0.0054691326804459095,-0.0,0.0,0.0,0.0,0.0,0.0,0.0,0.0,0.0,0.0,0.0,0.0,0.0,0.0,0.0,0.0,0.0,0.0,0.0,0.0,0.0,0.0,0.0,1.689405918121338,-0.022104215076393183,0.0771500912362468,0.0885352576841525,0.02226388081908226,0.007826458662748337,0.0
202,5,-0.0005523121799342334,-8.367936970898882e-05,-3.257346907048486e-05,-0.00435529975220561,-0.0023914307821542025,-0.003729630960151553,0.0,0.0,0.0,0.0,0.0,0.0,0.0,0.0,0.0,0.002499329624697566,-0.0054691326804459095,-0.0,0.0,0.0,0.0,0.0,0.0,0.0,0.0,0.0,0.0,0.0,0.0,0.0,0.0,0.0,0.0,0.0,0.0,0.0,0.0,0.0,0.0,0.0,1.689405918121338,-0.02206347223380683,0.07702486297160797,0.0887341826250534,0.02226388081908226,0.007826458662748337,0.0
207,5,-0.0005672181723639369,-7.947426638565958e-05,-3.712187026394531e-05,-0.0035308371298015118,-0.0014611852820962667,-0.000946044223383069,0.0,0.0,0.0,0.0,0.0,0.0,0.0,0.0,0.0,0.0027256752364337444,-0.00477944640442729,-0.0,0.0,0.0,0.0,0.0,0.0,0.0,0.0,0.0,0.0,0.0,0.0,0.0,0.0,0.0,0.0,0.0,0.0,0.0,0.0,0.0,0.0,0.0,1.6828809976577759,-0.021803001293610864,0.07706675274769603,0.08871937786066945,0.01938115432858467,0.008502273820340633,0.0
212,5,-0.0005925432196818292,-7.555842603323981e-05,-5.387875353335403e-05,-0.00445134099572897,-0.0010543743846938014,0.0016324080061167479,0.0,0.0,0.0,0.0,0.0,0.0,0.0,0.0,0.0,0.0027256752364337444,-0.00477944640442729,-0.0,0.0,0.0,0.0,0.0,0.0,0.0,0.0,0.0,0.0,0.0,0.0,0.0,0.0,0.0,0.0,0.0,0.0,0.0,0.0,0.0,0.0,0.0,1.6828809976577759,-0.02186239692055153,0.07726470307809045,0.08866265201132725,0.01938115432858467,0.008502273820340633,0.0
218,5,-0.0006229872815310955,-5.2606905228458345e-05,-3.423430825932883e-05,-0.005433821585029364,-0.0031759324483573437,-0.0017043702537193894,0.0,0.0,0.0,0.0,0.0,0.0,0.0,0.0,0.0,0.0011341306380927563,-0.004930319730192423,-0.0,0.0,0.0,0.0,0.0,0.0,0.0,0.0,0.0,0.0,0.0,0.0,0.0,0.0,0.0,0.0,0.0,0.0,0.0,0.0,0.0,0.0,0.0,1.6804935932159424,-0.021938535396853146,0.07679506267612039,0.08874680920039359,0.019964653998613358,0.0035327125806361437,0.0
223,5,-0.0006596720777451992,-4.256230386090465e-05,-5.3834963182453066e-05,-0.006575704086571932,-0.0024757252540439367,0.0016703306464478374,0.0,0.0,0.0,0.0,0.0,0.0,0.0,0.0,0.0,0.0011341306380927563,-0.004930319730192423,-0.0,0.0,0.0,0.0,0.0,0.0,0.0,0.0,0.0,0.0,0.0,0.0,0.0,0.0,0.0,0.0,0.0,0.0,0.0,0.0,0.0,0.0,0.0,1.6804935932159424,-0.02181944942792351,0.07742479578815314,0.08863084042003114,0.019964653998613358,0.0035327125806361437,0.0
228,5,-0.000693550449796021,-3.852699228445999e-05,-5.706066804123111e-05,-0.006695687770843506,-0.0014745276421308517,0.0010552169987931848,0.0,0.0,0.0,0.0,0.0,0.0,0.0,0.0,0.0,0.002860521199181676,-0.006885976064950228,-0.0,0.0,0.0,0.0,0.0,0.0,0.0,0.0,0.0,0.0,0.0,0.0,0.0,0.0,0.0,0.0,0.0,0.0,0.0,0.0,0.0,0.0,0.0,1.705741047859192,-0.022109927716389807,0.07700108225880932,0.08871354481636036,0.02830253168940544,0.009044107981026173,0.0
233,5,-0.0007028435938991606,-2.7946873160544783e-05,-8.126787724904716e-05,-0.0037934500724077225,-0.0018594253342598677,0.003326951526105404,0.0,0.0,0.0,0.0,0.0,0.0,0.0,0.0,0.0,0.002860521199181676,-0.006885976064950228,-0.0,0.0,0.0,0.0,0.0,0.0,0.0,0.0,0.0,0.0,0.0,0.0,0.0,0.0,0.0,0.0,0.0,0.0,0.0,0.0,0.0,0.0,0.0,1.705741047859192,-0.022273504222127007,0.07705894463983856,0.08883242960290999,0.02830253168940544,0.009044107981026173,0.0
238,5,-0.0007354749250225723,-3.0306822736747563e-05,-6.390669295797125e-05,-0.005433142185211182,-0.00046057612053118646,-0.0007525616092607379,0.0,0.0,0.0,0.0,0.0,0.0,0.0,0.0,0.0,0.002190552419051528,-0.004478685557842255,-0.0,0.0,0.0,0.0,0.0,0.0,0.0,0.0,0.0,0.0,0.0,0.0,0.0,0.0,0.0,0.0,0.0,0.0,0.0,0.0,0.0,0.0,0.0,1.6780081987380981,-0.021608787479040763,0.07782356993335696,0.08831430400673257,0.01810898259282112,0.006813270505517721,0.0
243,5,-0.0007322755409404635,-2.9928447474958375e-05,-7.84907242632471e-05,-0.0017893321346491575,-0.00022963540686760098,0.0014490592293441296,0.0,0.0,0.0,0.0,0.0,0.0,0.0,0.0,0.0,0.002190552419051528,-0.004478685557842255,-0.0,0.0,0.0,0.0,0.0,0.0,0.0,0.0,0.0,0.0,0.0,0.0,0.0,0.0,0.0,0.0,0.0,0.0,0.0,0.0,0.0,0.0,0.0,1.6780081987380981,-0.021525410836819078,0.07836429211293644,0.08821867296004966,0.01810898259282112,0.006813270505517721,0.0
248,5,-0.0007335728732869029,-2.7325495466357097e-05,-8.521710697095841e-05,-0.0008714096620678902,-0.00040420846198685467,0.001386789488606155,0.0,0.0,0.0,0.0,0.0,0.0,0.0,0.0,0.0,0.00022511632414534688,-0.0026977192610502243,-0.0,0.0,0.0,0.0,0.0,0.0,0.0,0.0,0.0,0.0,0.0,0.0,0.0,0.0,0.0,0.0,0.0,0.0,0.0,0.0,0.0,0.0,0.0,1.6549413204193115,-0.0214121000063238,0.07836245978747003,0.08848157570011357,0.010757979936897755,0.0006905547925271094,0.0
253,5,-0.0007407038356177509,-1.9805336705758236e-05,-6.950106762815267e-05,-0.0012042836751788855,-0.0010641023982316256,-0.0013312083901837468,0.0,0.0,0.0,0.0,0.0,0.0,0.0,0.0,0.0,0.00022511632414534688,-0.0026977192610502243,-0.0,0.0,0.0,0.0,0.0,0.0,0.0,0.0,0.0,0.0,0.0,0.0,0.0,0.0,0.0,0.0,0.0,0.0,0.0,0.0,0.0,0.0,0.0,1.6549413204193115,-0.021948554437135285,0.07803096216871726,0.08844169223456305,0.010757979936897755,0.0006905547925271094,0.0
258,5,-0.000747191603295505,-3.772772470256314e-05,-6.163531361380592e-05,-0.0012602421920746565,0.0017250454984605312,-0.0014763743383809924,0.0,0.0,0.0,0.0,0.0,0.0,0.0,0.0,0.0,0.0012661184882745147,-0.0021645501255989075,-0.0,0.0,0.0,0.0,0.0,0.0,0.0,0.0,0.0,0.0,0.0,0.0,0.0,0.0,0.0,0.0,0.0,0.0,0.0,0.0,0.0,0.0,0.0,1.6513357162475586,-0.021777226936710473,0.07852051106710815,0.08847959981349629,0.008612995967268944,0.003875413676723838,0.0
263,5,-0.000762761221267283,-2.7373052944312803e-05,-4.7294703108491376e-05,-0.002372449729591608,-0.0005525423330254853,-0.0023114224895834923,0.0,0.0,0.0,0.0,0.0,0.0,0.0,0.0,0.0,0.0012661184882745147,-0.0021645501255989075,-0.0,0.0,0.0,0.0,0.0,0.0,0.0,0.0,0.0,0.0,0.0,0.0,0.0,0.0,0.0,0.0,0.0,0.0,0.0,0.0,0.0,0.0,0.0,1.6513357162475586,-0.02138701268427205,0.0779571101993196,0.0887034592237996,0.008612995967268944,0.003875413676723838,0.0
268,5,-0.000769806036259979,-3.694144106702879e-05,-5.146262628841214e-05,-0.0017943624407052994,0.0009271897142753005,-0.00042441851110197604,0.0,0.0,0.0,0.0,0.0,0.0,0.0,0.0,0.0,0.0006218799389898777,-0.0032762077171355486,-0.0,0.0,0.0,0.0,0.0,0.0,0.0,0.0,0.0,0.0,0.0,0.0,0.0,0.0,0.0,0.0,0.0,0.0,0.0,0.0,0.0,0.0,0.0,1.6616212129592896,-0.02175261606043557,0.07745354355156356,0.0889384613306399,0.013117603957653046,0.001915345317684114,0.0
273,5,-0.0007992389146238565,-4.041618012706749e-05,-4.3927568185608834e-05,-0.00424968870356679,0.0007878444157540798,-0.0010739743011072278,0.0,0.0,0.0,0.0,0.0,0.0,0.0,0.0,0.0,0.0006218799389898777,-0.0032762077171355486,-0.0,0.0,0.0,0.0,0.0,0.0,0.0,0.0,0.0,0.0,0.0,0.0,0.0,0.0,0.0,0.0,0.0,0.0,0.0,0.0,0.0,0.0,0.0,1.6616212129592896,-0.021434192409665733,0.07762803084386508,0.0885099701448895,0.013117603957653046,0.001915345317684114,0.0
278,5,-0.0008071159245446324,-3.987562013207935e-05,-3.3767948480090126e-05,-0.002645117463544011,0.0002502707939129323,-0.0016487442189827561,0.0,0.0,0.0,0.0,0.0,0.0,0.0,0.0,0.0,-0.0010213115019723773,-0.005025445483624935,-0.0,0.0,0.0,0.0,0.0,0.0,0.0,0.0,0.0,0.0,0.0,0.0,0.0,0.0,0.0,0.0,0.0,0.0,0.0,0.0,0.0,0.0,0.0,1.6813873052597046,-0.02149289405630284,0.07722897025472719,0.08821660700224442,0.02036067470908165,-0.003182983724400401,0.0
283,5,-0.0008196086855605245,-4.309864016249776e-05,-6.632356235058978e-05,-0.0025571780279278755,0.00048687076196074486,0.003247175831347704,0.0,0.0,0.0,0.0,0.0,0.0,0.0,0.0,0.0,-0.0010213115019723773,-0.005025445483624935,-0.0,0.0,0.0,0.0,0.0,0.0,0.0,0.0,0.0,0.0,0.0,0.0,0.0,0.0,0.0,0.0,0.0,0.0,0.0,0.0,0.0,0.0,0.0,1.6813873052597046,-0.02188252108209928,0.07670717987328542,0.08834838897625454,0.02036067470908165,-0.003182983724400401,0.0
289,5,-0.0008111451170407236,-4.497414920479059e-05,-7.536819612141699e-05,-7.2404122875013854e-06,0.00041980930836871266,0.002384226769208908,0.0,0.0,0.0,0.0,0.0,0.0,0.0,0.0,0.0,-0.0006707336870022118,-0.0035228857304900885,-0.0,0.0,0.0,0.0,0.0,0.0,0.0,0.0,0.0,0.0,0.0,0.0,0.0,0.0,0.0,0.0,0.0,0.0,0.0,0.0,0.0,0.0,0.0,1.6643766164779663,-0.02167472065049319,0.07695056563309513,0.08852152320559786,0.014128662645816803,-0.002069236943498254,0.0
294,5,-0.0008150759967975318,-6.087566362111829e-05,-6.360607221722603e-05,-0.00047460250789299607,0.0020761052146553993,-0.0004577640793286264,0.0,0.0,0.0,0.0,0.0,0.0,0.0,0.0,0.0,-0.0006707336870022118,-0.0035228857304900885,-0.0,0.0,0.0,0.0,0.0,0.0,0.0,0.0,0.0,0.0,0.0,0.0,0.0,0.0,0.0,0.0,0.0,0.0,0.0,0.0,0.0,0.0,0.0,1.6643766164779663,-0.022071088096353424,0.07671345201863539,0.08833225925801394,0.014128662645816803,-0.002069236943498254,0.0
299,5,-0.0008061239495873451,-7.380612078122795e-05,-6.376274541253224e-05,0.000884403707459569,0.00238209730014205,-0.0001643048453843221,0.0,0.0,0.0,0.0,0.0,0.0,0.0,0.0,0.0,-0.0026514618657529354,-0.0015803346177563071,-0.0,0.0,0.0,0.0,0.0,0.0,0.0,0.0,0.0,0.0,0.0,0.0,0.0,0.0,0.0,0.0,0.0,0.0,0.0,0.0,0.0,0.0,0.0,1.6535959243774414,-0.021155274356890023,0.07764778362162668,0.08804884991584164,0.006296927109360695,-0.008126853033900261,0.0
304,5,-0.0007657764363102615,-7.788644143147394e-05,-5.1640898163896054e-05,0.005195463541895151,0.0014424773398786783,-0.0015203439397737384,0.0,0.0,0.0,0.0,0.0,0.0,0.0,0.0,0.0,-0.0026514618657529354,-0.0015803346177563071,-0.0,0.0,0.0,0.0,0.0,0.0,0.0,0.0,0.0,0.0,0.0,0.0,0.0,0.0,0.0,0.0,0.0,0.0,0.0,0.0,0.0,0.0,0.0,1.6535959243774414,-0.022173430254307798,0.0768333817747122,0.08819519593642777,0.006296927109360695,-0.008126853033900261,0.0
309,5,-0.000726396800018847,-0.00010444650251884013,-6.023595778970048e-05,0.006803743541240692,0.0037641979288309813,0.0004232696956023574,0.0,0.0,0.0,0.0,0.0,0.0,0.0,0.0,0.0,-0.0026514618657529354,-0.0015803346177563071,-0.0,0.0,0.0,0.0,0.0,0.0,0.0,0.0,0.0,0.0,0.0,0.0,0.0,0.0,0.0,0.0,0.0,0.0,0.0,0.0,0.0,0.0,0.0,1.6535959243774414,-0.022246676740172434,0.077352628590646,0.08820938929926621,0.006296927109360695,-0.008126853033900261,0.0
314,5,-0.00070215854793787,-0.0001082633389160037,-4.782392716151662e-05,0.005630088038742542,0.0019637001678347588,-0.0013201357796788216,0.0,0.0,0.0,0.0,0.0,0.0,0.0,0.0,0.0,-0.004675481002777815,0.005256880074739456,-0.0,0.0,0.0,0.0,0.0,0.0,0.0,0.0,0.0,0.0,0.0,0.0,0.0,0.0,0.0,0.0,0.0,0.0,0.0,0.0,0.0,0.0,0.0,1.695909857749939,-0.022205847706380576,0.077943979471323,0.0881067647209578,-0.021482063457369804,-0.014697205275297165,0.0
319,5,-0.0006483456818386912,-0.00011569913476705551,-7.094236207194626e-05,0.008709575049579144,0.001677775289863348,0.002246157731860876,0.0,0.0,0.0,0.0,0.0,0.0,0.0,0.0,0.0,-0.004675481002777815,0.005256880074739456,-0.0,0.0,0.0,0.0,0.0,0.0,0.0,0.0,0.0,0.0,0.0,0.0,0.0,0.0,0.0,0.0,0.0,0.0,0.0,0.0,0.0,0.0,0.0,1.695909857749939,-0.021914251169821937,0.07886548966453624,0.0883157685172172,-0.021482063457369804,-0.014697205275297165,0.0
324,5,-0.0006350090261548758,-0.00011965538578806445,-6.206125544849783e-05,0.00508422777056694,0.0011458597145974636,-0.0001672698272159323,0.0,0.0,0.0,0.0,0.0,0.0,0.0,0.0,0.0,-0.00219302368350327,0.007067511323839426,-0.0,0.0,0.0,0.0,0.0,0.0,0.0,0.0,0.0,0.0,0.0,0.0,0.0,0.0,0.0,0.0,0.0,0.0,0.0,0.0,0.0,0.0,0.0,1.7061657905578613,-0.022418314650357728,0.07875436919146793,0.08798055378871773,-0.029055943712592125,-0.00693541532382369,0.0
329,5,-0.0006257279310375452,-0.00013377744471654296,-8.181470184354112e-05,0.003147425362840295,0.0021529914811253548,0.002303506014868617,0.0,0.0,0.0,0.0,0.0,0.0,0.0,0.0,0.0,-0.00219302368350327,0.007067511323839426,-0.0,0.0,0.0,0.0,0.0,0.0,0.0,0.0,0.0,0.0,0.0,0.0,0.0,0.0,0.0,0.0,0.0,0.0,0.0,0.0,0.0,0.0,0.0,1.7061657905578613,-0.022277718733920333,0.08002762885374194,0.08846937856078887,-0.029055943712592125,-0.00693541532382369,0.0
334,5,-0.0006068230723030865,-0.00012833434448111802,-9.755701466929168e-05,0.003527553752064705,0.0002080238627968356,0.002810479374602437,0.0,0.0,0.0,0.0,0.0,0.0,0.0,0.0,0.0,-0.002868128474801779,0.0020818288903683424,-0.0,0.0,0.0,0.0,0.0,0.0,0.0,0.0,0.0,0.0,0.0,0.0,0.0,0.0,0.0,0.0,0.0,0.0,0.0,0.0,0.0,0.0,0.0,1.6585677862167358,-0.02281453479402292,0.07965220377507466,0.08826337681326643,-0.008320090360939503,-0.00881737470626831,0.0
339,5,-0.0005850830930285156,-0.0001539324875921011,-0.0001121425666497089,0.0018977660220116377,0.00161101168487221,0.001070191035978496,0.0,0.0,0.0,0.0,0.0,0.0,0.0,0.0,0.0,-0.002868128474801779,0.0020818288903683424,-0.0,0.0,0.0,0.0,0.0,0.0,0.0,0.0,0.0,0.0,0.0,0.0,0.0,0.0,0.0,0.0,0.0,0.0,0.0,0.0,0.0,0.0,0.0,1.6585677862167358,-0.022958773674673177,0.08064435649145588,0.08854021623238471,-0.008320090360939503,-0.00881737470626831,0.0
344,5,-0.0005433771293610334,-0.00014655185805168003,-0.00013790176308248192,0.005763827823102474,-0.0002412703906884417,0.003519180230796337,0.0,0.0,0.0,0.0,0.0,0.0,0.0,0.0,0.0,-0.0022587808780372143,0.0009713553008623421,-0.0,0.0,0.0,0.0,0.0,0.0,0.0,0.0,0.0,0.0,0.0,0.0,0.0,0.0,0.0,0.0,0.0,0.0,0.0,0.0,0.0,0.0,0.0,1.6471638679504395,-0.023018479688745055,0.08072795875096142,0.08850293944334992,-0.0038553664926439524,-0.006896342150866985,0.0
350,5,-0.0005433771293610334,-0.00014655185805168003,-0.00013790176308248192,0.005763827823102474,-0.0002412703906884417,0.003519180230796337,0.0,0.0,0.0,0.0,0.0,0.0,0.0,0.0,0.0,-0.0022587808780372143,0.0009713553008623421,-0.0,0.0,0.0,0.0,0.0,0.0,0.0,0.0,0.0,0.0,0.0,0.0,0.0,0.0,0.0,0.0,0.0,0.0,0.0,0.0,0.0,0.0,0.0,1.6471638679504395,-0.023018479688745055,0.08072795875096142,0.08850293944334992,-0.0038553664926439524,-0.006896342150866985,0.0
355,5,-0.0005261420737951994,-0.00014400902728084475,-0.00011590236681513488,0.004373732954263687,-0.0004016484890598804,-0.001232254900969565,0.0,0.0,0.0,0.0,0.0,0.0,0.0,0.0,0.0,2.8906129955430515e-05,0.004600965417921543,-0.0,0.0,0.0,0.0,0.0,0.0,0.0,0.0,0.0,0.0,0.0,0.0,0.0,0.0,0.0,0.0,0.0,0.0,0.0,0.0,0.0,0.0,0.0,1.6759456396102905,-0.02390576136445682,0.08041531300208167,0.08891195811416824,-0.01858058013021946,8.979629637906328e-05,0.0
360,5,-0.00045866292202845216,-0.0001407351956004277,-0.00010935488535324112,0.005083652213215828,-0.00018614187138155103,-0.0023630764335393906,0.0,0.0,0.0,0.0,0.0,0.0,0.0,0.0,0.0,2.8906129955430515e-05,0.004600965417921543,-0.0,0.0,0.0,0.0,0.0,0.0,0.0,0.0,0.0,0.0,0.0,0.0,0.0,0.0,0.0,0.0,0.0,0.0,0.0,0.0,0.0,0.0,0.0,1.6759456396102905,-0.02357434978306804,0.08079557535243813,0.08913785100654485,-0.01858058013021946,8.979629637906328e-05,0.0
365,5,-0.0004185196303296834,-0.0001398716849507764,-0.00013039165060035884,0.006850655190646648,-0.00017807696713134646,0.001579181058332324,0.0,0.0,0.0,0.0,0.0,0.0,0.0,0.0,0.0,-2.759503149718512e-05,0.004098050761967897,-0.0,0.0,0.0,0.0,0.0,0.0,0.0,0.0,0.0,0.0,0.0,0.0,0.0,0.0,0.0,0.0,0.0,0.0,0.0,0.0,0.0,0.0,0.0,1.6703381538391113,-0.023096980014840594,0.08051067391905299,0.08933432472229354,-0.01649424433708191,-8.543657895643264e-05,0.0
370,5,-0.0004452285065781325,-0.00014321861090138555,-0.00013009191025048494,-0.00046480377204716206,0.00033040024572983384,0.0005957043613307178,0.0,0.0,0.0,0.0,0.0,0.0,0.0,0.0,0.0,-2.759503149718512e-05,0.004098050761967897,-0.0,0.0,0.0,0.0,0.0,0.0,0.0,0.0,0.0,0.0,0.0,0.0,0.0,0.0,0.0,0.0,0.0,0.0,0.0,0.0,0.0,0.0,0.0,1.6703381538391113,-0.023478207968226524,0.08046589207466166,0.08916366673656476,-0.01649424433708191,-8.543657895643264e-05,0.0
375,5,-0.00044044919195584953,-0.00013378365838434547,-0.00014607062621507794,0.00038759552990086377,-0.001000033924356103,0.002155727706849575,0.0,0.0,0.0,0.0,0.0,0.0,0.0,0.0,0.0,-2.759503149718512e-05,0.004098050761967897,-0.0,0.0,0.0,0.0,0.0,0.0,0.0,0.0,0.0,0.0,0.0,0.0,0.0,0.0,0.0,0.0,0.0,0.0,0.0,0.0,0.0,0.0,0.0,1.6703381538391113,-0.023349924350572617,0.08050949073879984,0.0894383912537347,-0.01649424433708191,-8.543657895643264e-05,0.0
380,5,-0.0004533934115897864,-0.00014755636220797896,-0.0001417389721609652,-0.0013982680393382907,0.0012527110520750284,0.0003424924216233194,0.0,0.0,0.0,0.0,0.0,0.0,0.0,0.0,0.0,0.0009917592396959662,-0.0002583246387075633,-0.0,0.0,0.0,0.0,0.0,0.0,0.0,0.0,0.0,0.0,0.0,0.0,0.0,0.0,0.0,0.0,0.0,0.0,0.0,0.0,0.0,0.0,0.0,1.6343555450439453,-0.022724996627867148,0.08038138039606356,0.08931515419310822,0.0010173351038247347,0.0030044238083064556,0.0
385,5,-0.0004654144577216357,-0.00015219977649394423,-0.0001498264609836042,-0.002001831540837884,0.001058292924426496,0.0011074942303821445,0.0,0.0,0.0,0.0,0.0,0.0,0.0,0.0,0.0,0.0009917592396959662,-0.0002583246387075633,-0.0,0.0,0.0,0.0,0.0,0.0,0.0,0.0,0.0,0.0,0.0,0.0,0.0,0.0,0.0,0.0,0.0,0.0,0.0,0.0,0.0,0.0,0.0,1.6343555450439453,-0.023905258006458464,0.08015565945629805,0.08999635446973742,0.0010173351038247347,0.0030044238083064556,0.0
390,5,-0.0004742804158013314,-0.00015026012260932475,-0.0001350293605355546,-0.001864649006165564,0.0001905584504129365,-0.00133265380281955,0.0,0.0,0.0,0.0,0.0,0.0,0.0,0.0,0.0,-0.001568939071148634,-0.002535137115046382,-0.0,0.0,0.0,0.0,0.0,0.0,0.0,0.0,0.0,0.0,0.0,0.0,0.0,0.0,0.0,0.0,0.0,0.0,0.0,0.0,0.0,0.0,0.0,1.6560875177383423,-0.023682105478711246,0.07983194008020987,0.08984307810943974,0.010116624645888805,-0.004816123284399509,0.0
395,5,-0.0004636803932953626,-0.00016559918003622442,-0.00014397231279872358,0.0005261431797407568,0.0019169104052707553,0.0005400922382250428,0.0,0.0,0.0,0.0,0.0,0.0,0.0,0.0,0.0,-0.001568939071148634,-0.002535137115046382,-0.0,0.0,0.0,0.0,0.0,0.0,0.0,0.0,0.0,0.0,0.0,0.0,0.0,0.0,0.0,0.0,0.0,0.0,0.0,0.0,0.0,0.0,0.0,1.6560875177383423,-0.02386605739366193,0.08016720893943459,0.09021441890255412,0.010116624645888805,-0.004816123284399509,0.0
400,5,-0.00046030283556319773,-0.00016812668764032423,-0.00011127301695523784,0.000615765166003257,0.0010700655402615666,-0.0037078778259456158,0.0,0.0,0.0,0.0,0.0,0.0,0.0,0.0,0.0,-0.002655346179381013,-0.00015836597594898194,-0.0,0.0,0.0,0.0,0.0,0.0,0.0,0.0,0.0,0.0,0.0,0.0,0.0,0.0,0.0,0.0,0.0,0.0,0.0,0.0,0.0,0.0,0.0,1.6477965116500854,-0.024082782159613042,0.0796044522164974,0.09047187902493888,0.0006288047879934311,-0.008110214956104755,0.0
405,5,-0.0004358931037131697,-0.00018534042465034872,-0.00011115412053186446,0.003175474004819989,0.0024936755653470755,-0.001497418386861682,0.0,0.0,0.0,0.0,0.0,0.0,0.0,0.0,0.0,-0.002655346179381013,-0.00015836597594898194,-0.0,0.0,0.0,0.0,0.0,0.0,0.0,0.0,0.0,0.0,0.0,0.0,0.0,0.0,0.0,0.0,0.0,0.0,0.0,0.0,0.0,0.0,0.0,1.6477965116500854,-0.023249538284318683,0.07993768683585982,0.09068931635211495,0.0006288047879934311,-0.008110214956104755,0.0
411,5,-0.0004314816615078598,-0.00018818065291270614,-9.768309246283025e-05,0.0017995638772845268,0.001338296220637858,-0.0022154906764626503,0.0,0.0,0.0,0.0,0.0,0.0,0.0,0.0,0.0,-0.003366663819178939,0.0023590640630573034,-0.0,0.0,0.0,0.0,0.0,0.0,0.0,0.0,0.0,0.0,0.0,0.0,0.0,0.0,0.0,0.0,0.0,0.0,0.0,0.0,0.0,0.0,0.0,1.6637464761734009,-0.023561850883431105,0.07937326176849734,0.09061460053771321,-0.009457490406930447,-0.010382309556007385,0.0
416,5,-0.00043790266499854624,-0.00019486673409119248,-0.0001044662349158898,-5.069583494332619e-05,0.0013376495335251093,-7.22194672562182e-05,0.0,0.0,0.0,0.0,0.0,0.0,0.0,0.0,0.0,-0.003366663819178939,0.0023590640630573034,-0.0,0.0,0.0,0.0,0.0,0.0,0.0,0.0,0.0,0.0,0.0,0.0,0.0,0.0,0.0,0.0,0.0,0.0,0.0,0.0,0.0,0.0,0.0,1.6637464761734009,-0.023278304924438522,0.07980740935966686,0.09055926284845434,-0.009457490406930447,-0.010382309556007385,0.0
421,5,-0.00041083397809416056,-0.00017807388212531805,-0.00014452588220592588,0.0032279659062623978,-0.001480082399211824,0.004778269212692976,0.0,0.0,0.0,0.0,0.0,0.0,0.0,0.0,0.0,-0.002002152381464839,-0.0006698521319776773,-0.0,0.0,0.0,0.0,0.0,0.0,0.0,0.0,0.0,0.0,0.0,0.0,0.0,0.0,0.0,0.0,0.0,0.0,0.0,0.0,0.0,0.0,0.0,1.643785834312439,-0.023145147717675858,0.0797844684686202,0.09074032589640264,0.002653231844305992,-0.006100289057940245,0.0
426,5,-0.00041292025707662106,-0.0001751372474245727,-0.00012708875874523073,0.0010408300440758467,-0.0009444290772080421,-0.0001811470719985664,0.0,0.0,0.0,0.0,0.0,0.0,0.0,0.0,0.0,-0.002002152381464839,-0.0006698521319776773,-0.0,0.0,0.0,0.0,0.0,0.0,0.0,0.0,0.0,0.0,0.0,0.0,0.0,0.0,0.0,0.0,0.0,0.0,0.0,0.0,0.0,0.0,0.0,1.643785834312439,-0.023659362335097925,0.07943146447248274,0.09106178007506696,0.002653231844305992,-0.006100289057940245,0.0
431,5,-0.0004096092889085412,-0.00017755827866494656,-0.00014134924276731908,0.0008136497926898301,-8.724885992705822e-05,0.0016388003714382648,0.0,0.0,0.0,0.0,0.0,0.0,0.0,0.0,0.0,0.0008470658212900162,0.0004002763016615063,-0.0,0.0,0.0,0.0,0.0,0.0,0.0,0.0,0.0,0.0,0.0,0.0,0.0,0.0,0.0,0.0,0.0,0.0,0.0,0.0,0.0,0.0,0.0,1.6339181661605835,-0.024078668335917305,0.07939544190561848,0.09154734907787891,-0.00157594820484519,0.0025654048658907413,0.0
436,5,-0.0003954365383833647,-0.00017550511984154582,-0.00012735686323139817,0.00202618888579309,-0.00028127836412750185,-0.0010235654190182686,0.0,0.0,0.0,0.0,0.0,0.0,0.0,0.0,0.0,0.0008470658212900162,0.0004002763016615063,-0.0,0.0,0.0,0.0,0.0,0.0,0.0,0.0,0.0,0.0,0.0,0.0,0.0,0.0,0.0,0.0,0.0,0.0,0.0,0.0,0.0,0.0,0.0,1.6339181661605835,-0.023704728944125786,0.0796461361942116,0.09126435395793334,-0.00157594820484519,0.0025654048658907413,0.0
441,5,-0.00036945182364434004,-0.00016768989735282958,-0.00013147010758984834,0.003928643651306629,-0.0010503387311473489,8.416282798862085e-05,0.0,0.0,0.0,0.0,0.0,0.0,0.0,0.0,0.0,2.4980872694868594e-05,0.0013575638877227902,-0.0,0.0,0.0,0.0,0.0,0.0,0.0,0.0,0.0,0.0,0.0,0.0,0.0,0.0,0.0,0.0,0.0,0.0,0.0,0.0,0.0,0.0,0.0,1.6403028964996338,-0.023634749356485962,0.0793216273418162,0.09118825255014845,-0.00536582013592124,7.595217175548896e-05,0.0
446,5,-0.00036116299452260137,-0.00015455835091415793,-8.547095785615966e-05,0.002566116861999035,-0.001995919505134225,-0.005486233159899712,0.0,0.0,0.0,0.0,0.0,0.0,0.0,0.0,0.0,2.4980872694868594e-05,0.0013575638877227902,-0.0,0.0,0.0,0.0,0.0,0.0,0.0,0.0,0.0,0.0,0.0,0.0,0.0,0.0,0.0,0.0,0.0,0.0,0.0,0.0,0.0,0.0,0.0,1.6403028964996338,-0.023236507929987556,0.08015882651514569,0.09129868072704296,-0.00536582013592124,7.595217175548896e-05,0.0
451,5,-0.00032659751013852656,-0.00015870120842009783,-9.612772555556148e-05,0.005174304358661175,-0.0003012252564076334,-0.0009156806045211852,0.0,0.0,0.0,0.0,0.0,0.0,0.0,0.0,0.0,0.002160777570679784,0.0019024694338440895,-0.0,0.0,0.0,0.0,0.0,0.0,0.0,0.0,0.0,0.0,0.0,0.0,0.0,0.0,0.0,0.0,0.0,0.0,0.0,0.0,0.0,0.0,0.0,1.6530054807662964,-0.02341015155036229,0.07977863681096517,0.09137391117395954,-0.007577790413051844,0.00662052258849144,0.0
456,5,-0.0002843445399776101,-0.00013229531759861857,-9.78683092398569e-05,0.0071400790475308895,-0.003289198037236929,-0.0001574025664012879,0.0,0.0,0.0,0.0,0.0,0.0,0.0,0.0,0.0,0.002160777570679784,0.0019024694338440895,-0.0,0.0,0.0,0.0,0.0,0.0,0.0,0.0,0.0,0.0,0.0,0.0,0.0,0.0,0.0,0.0,0.0,0.0,0.0,0.0,0.0,0.0,0.0,1.6530054807662964,-0.023100630418788622,0.08043315642659675,0.09129429166509907,-0.007577790413051844,0.00662052258849144,0.0
461,5,-0.0002588725183159113,-0.00013057475734967738,-0.00010734300303738564,0.005912673193961382,-0.0015221466310322285,0.00107400247361511,0.0,0.0,0.0,0.0,0.0,0.0,0.0,0.0,0.0,0.003678091336041689,0.006138750351965427,-0.0,0.0,0.0,0.0,0.0,0.0,0.0,0.0,0.0,0.0,0.0,0.0,0.0,0.0,0.0,0.0,0.0,0.0,0.0,0.0,0.0,0.0,0.0,1.7003579139709473,-0.023104014210588733,0.0801092839564629,0.09182276855066385,-0.025151655077934265,0.011592300608754158,0.0
466,5,-0.000249862321652472,-0.00011117022222606465,-0.00010412526899017394,0.003446290735155344,-0.002937402343377471,4.347289723227732e-05,0.0,0.0,0.0,0.0,0.0,0.0,0.0,0.0,0.0,0.003678091336041689,0.006138750351965427,-0.0,0.0,0.0,0.0,0.0,0.0,0.0,0.0,0.0,0.0,0.0,0.0,0.0,0.0,0.0,0.0,0.0,0.0,0.0,0.0,0.0,0.0,0.0,1.7003579139709473,-0.023010951378700295,0.08075189590116726,0.09149508214600921,-0.025151655077934265,0.011592300608754158,0.0
472,5,-0.0002424494450679049,-0.00010697959805838764,-0.00011841551895486191,0.0022680633701384068,-0.0016778354765847325,0.0017322192434221506,0.0,0.0,0.0,0.0,0.0,0.0,0.0,0.0,0.0,0.003360929200425744,0.0028590471483767033,-0.0,0.0,0.0,0.0,0.0,0.0,0.0,0.0,0.0,0.0,0.0,0.0,0.0,0.0,0.0,0.0,0.0,0.0,0.0,0.0,0.0,0.0,0.0,1.667637825012207,-0.023846529975063986,0.07989217718342788,0.09203060534636197,-0.011488726362586021,0.010388866066932678,0.0
477,5,-0.0002468826714903116,-0.00010858360474230722,-0.00012640819477383047,0.0003752384218387306,-0.00047865358646959066,0.0016520083881914616,0.0,0.0,0.0,0.0,0.0,0.0,0.0,0.0,0.0,0.003360929200425744,0.0028590471483767033,-0.0,0.0,0.0,0.0,0.0,0.0,0.0,0.0,0.0,0.0,0.0,0.0,0.0,0.0,0.0,0.0,0.0,0.0,0.0,0.0,0.0,0.0,0.0,1.667637825012207,-0.02354676084747349,0.08043512913172211,0.09202862575914877,-0.011488726362586021,0.010388866066932678,0.0
482,5,-0.000234390317928046,-0.00011577326949918643,-0.0001340372982667759,0.0016491771675646305,0.0006712983013130724,0.0015762962866574526,0.0,0.0,0.0,0.0,0.0,0.0,0.0,0.0,0.0,0.00039160504820756614,-3.1070026125235017e-06,-0.0,0.0,0.0,0.0,0.0,0.0,0.0,0.0,0.0,0.0,0.0,0.0,0.0,0.0,0.0,0.0,0.0,0.0,0.0,0.0,0.0,0.0,0.0,1.628955602645874,-0.02355387773206332,0.08081028333059598,0.09206579355020733,1.2195588169561233e-05,0.0011824044631794095,0.0
487,5,-0.0002253496932098642,-0.00010959383507724851,-0.00012977526057511568,0.0017445452976971865,-0.0004730127693619579,0.00011907312000403181,0.0,0.0,0.0,0.0,0.0,0.0,0.0,0.0,0.0,0.00039160504820756614,-3.1070026125235017e-06,-0.0,0.0,0.0,0.0,0.0,0.0,0.0,0.0,0.0,0.0,0.0,0.0,0.0,0.0,0.0,0.0,0.0,0.0,0.0,0.0,0.0,0.0,0.0,1.628955602645874,-0.023618244651755594,0.08036349639994131,0.09183554327877597,1.2195588169561233e-05,0.0011824044631794095,0.0
492,5,-0.0002173351967940107,-0.00011034748604288325,-0.00011900500976480544,0.0016595582710579038,-9.876682452159002e-05,-0.0012448006309568882,0.0,0.0,0.0,0.0,0.0,0.0,0.0,0.0,0.0,0.00037998516927473247,0.001325819524936378,-0.0,0.0,0.0,0.0,0.0,0.0,0.0,0.0,0.0,0.0,0.0,0.0,0.0,0.0,0.0,0.0,0.0,0.0,0.0,0.0,0.0,0.0,0.0,1.6403024196624756,-0.023917222531304613,0.08064313552607924,0.0919169338927641,-0.0052403477020561695,0.0011553115909919143,0.0
497,5,-0.00017551641212776303,-0.0001262476434931159,-0.00014284216740634292,0.005682077258825302,0.0018685127142816782,0.0023625383619219065,0.0,0.0,0.0,0.0,0.0,0.0,0.0,0.0,0.0,0.00037998516927473247,0.001325819524936378,-0.0,0.0,0.0,0.0,0.0,0.0,0.0,0.0,0.0,0.0,0.0,0.0,0.0,0.0,0.0,0.0,0.0,0.0,0.0,0.0,0.0,0.0,0.0,1.6403024196624756,-0.02382444055453273,0.08097049522556098,0.09203519471109689,-0.0052403477020561695,0.0011553115909919143,0.0
502,5,-0.00013256834063213319,-0.000111012501292862,-0.00014121686399448663,0.007426599506288767,-0.0010808124206960201,0.0007499793427996337,0.0,0.0,0.0,0.0,0.0,0.0,0.0,0.0,0.0,-0.002471969462931156,0.004996743053197861,-0.0,0.0,0.0,0.0,0.0,0.0,0.0,0.0,0.0,0.0,0.0,0.0,0.0,0.0,0.0,0.0,0.0,0.0,0.0,0.0,0.0,0.0,0.0,1.6843130588531494,-0.02397253830023793,0.0810767185091675,0.09200822016232948,-0.02027956210076809,-0.007717446889728308,0.0
507,5,-6.324493006104603e-05,-9.940029121935368e-05,-0.00015313203039113432,0.011289448477327824,-0.0018257906194776297,0.0017298110760748386,0.0,0.0,0.0,0.0,0.0,0.0,0.0,0.0,0.0,-0.002471969462931156,0.004996743053197861,-0.0,0.0,0.0,0.0,0.0,0.0,0.0,0.0,0.0,0.0,0.0,0.0,0.0,0.0,0.0,0.0,0.0,0.0,0.0,0.0,0.0,0.0,0.0,1.6843130588531494,-0.023615911042864604,0.08167769520598153,0.09189058212196483,-0.02027956210076809,-0.007717446889728308,0.0
512,5,-9.170308658212889e-06,-0.00010311663208995014,-0.00013273688091430813,0.0110047347843647,-0.00028435522108338773,-0.0017554924124851823,0.0,0.0,0.0,0.0,0.0,0.0,0.0,0.0,0.0,0.0019489021506160498,0.010002764873206615,-0.0,0.0,0.0,0.0,0.0,0.0,0.0,0.0,0.0,0.0,0.0,0.0,0.0,0.0,0.0,0.0,0.0,0.0,0.0,0.0,0.0,0.0,0.0,1.7394171953201294,-0.024379104106559912,0.08174304935455876,0.09171958490054846,-0.041924476623535156,0.006283503025770187,0.0
517,5,4.485490717343055e-05,-0.00011149092460982502,-0.00015081556921359152,0.010884920135140419,0.0008911730838008225,0.0014672446995973587,0.0,0.0,0.0,0.0,0.0,0.0,0.0,0.0,0.0,0.0019489021506160498,0.010002764873206615,-0.0,0.0,0.0,0.0,0.0,0.0,0.0,0.0,0.0,0.0,0.0,0.0,0.0,0.0,0.0,0.0,0.0,0.0,0.0,0.0,0.0,0.0,0.0,1.7394171953201294,-0.02385698779669501,0.08238741110660791,0.09137225342930189,-0.041924476623535156,0.006283503025770187,0.0
522,5,-0.0005840612575411797,-0.0008098356192931533,0.0014915113570168614,-0.07111597061157227,0.08415783196687698,-0.19649232923984528,0.0,0.0,0.0,0.0,0.0,0.0,0.0,0.0,0.0,-0.001234212308190763,0.009800574742257595,-0.0,0.0,0.0,0.0,0.0,0.0,0.0,0.0,0.0,0.0,0.0,0.0,0.0,0.0,0.0,0.0,0.0,0.0,0.0,0.0,0.0,0.0,0.0,1.736244797706604,-0.023922347221148103,0.08231721755794603,0.08623484658152192,-0.04100219905376434,-0.0039719995111227036,0.0
528,5,-0.0005028497544117272,-0.0008014867780730128,0.0014329361729323864,-0.018701007589697838,0.03266127407550812,-0.07156790792942047,0.0,0.0,0.0,0.0,0.0,0.0,0.0,0.0,0.0,-0.001234212308190763,0.009800574742257595,-0.0,0.0,0.0,0.0,0.0,0.0,0.0,0.0,0.0,0.0,0.0,0.0,0.0,0.0,0.0,0.0,0.0,0.0,0.0,0.0,0.0,0.0,0.0,1.736244797706604,-0.02426068976426705,0.08271429821458087,0.08588547866448888,-0.04100219905376434,-0.0039719995111227036,0.0
533,5,-0.0004558718646876514,-0.0008011613390408456,0.0014243741752579808,-0.0018430594354867935,0.013025454245507717,-0.02759973146021366,0.0,0.0,0.0,0.0,0.0,0.0,0.0,0.0,0.0,-0.034150443971157074,-0.015106416307389736,-0.0,0.0,0.0,0.0,0.0,0.0,0.0,0.0,0.0,0.0,0.0,0.0,0.0,0.0,0.0,0.0,0.0,0.0,0.0,0.0,0.0,0.0,0.0,2.0055630207061768,-0.02349345549901817,0.08373117055760902,0.085570001803142,0.07295916229486465,-0.12690766155719757,0.0
538,5,-0.0003864383324980736,-0.000789828656706959,0.001368488883599639,0.007594801019877195,0.003850260516628623,-0.004333656281232834,0.0,0.0,0.0,0.0,0.0,0.0,0.0,0.0,0.0,-0.034150443971157074,-0.015106416307389736,-0.0,0.0,0.0,0.0,0.0,0.0,0.0,0.0,0.0,0.0,0.0,0.0,0.0,0.0,0.0,0.0,0.0,0.0,0.0,0.0,0.0,0.0,0.0,2.0055630207061768,-0.025008210175920354,0.08405272346474804,0.0859299729992641,0.07295916229486465,-0.12690766155719757,0.0
543,5,-0.0003516395518090576,-0.0007955202017910779,0.0013766417978331447,0.0072137750685215,0.002223090035840869,-0.0027118048164993525,0.0,0.0,0.0,0.0,0.0,0.0,0.0,0.0,0.0,-0.034150443971157074,-0.015106416307389736,-0.0,0.0,0.0,0.0,0.0,0.0,0.0,0.0,0.0,0.0,0.0,0.0,0.0,0.0,0.0,0.0,0.0,0.0,0.0,0.0,0.0,0.0,0.0,2.0055630207061768,-0.02359787688378461,0.08507666512192821,0.08551229145050095,0.07295916229486465,-0.12690766155719757,0.0
548,5,-0.00026011746376752853,-0.0007940081995911896,0.0012902801390737295,0.013868161477148533,0.0007077964837662876,0.009278669022023678,0.0,0.0,0.0,0.0,0.0,0.0,0.0,0.0,0.0,-0.004037891514599323,0.006110443267971277,-0.0,0.0,0.0,0.0,0.0,0.0,0.0,0.0,0.0,0.0,0.0,0.0,0.0,0.0,0.0,0.0,0.0,0.0,0.0,0.0,0.0,0.0,0.0,1.7014483213424683,-0.02419349959693239,0.08511450521619345,0.08592697504369817,-0.025051696226000786,-0.012734438292682171,0.0
553,5,-6.51840164209716e-05,-0.0007488215924240649,0.001108519732952118,0.028939276933670044,-0.005139275453984737,0.025522714480757713,0.0,0.0,0.0,0.0,0.0,0.0,0.0,0.0,0.0,-0.004037891514599323,0.006110443267971277,-0.0,0.0,0.0,0.0,0.0,0.0,0.0,0.0,0.0,0.0,0.0,0.0,0.0,0.0,0.0,0.0,0.0,0.0,0.0,0.0,0.0,0.0,0.0,1.7014483213424683,-0.02399121014985312,0.08592900020713436,0.0854023850909903,-0.025051696226000786,-0.012734438292682171,0.0
558,5,0.00010943115194095299,-0.0007091970182955265,0.0009186153765767813,0.03252952918410301,-0.0068106562830507755,0.03299761191010475,0.0,0.0,0.0,0.0,0.0,0.0,0.0,0.0,0.0,0.004268499556928873,0.023463299497961998,-0.0,0.0,0.0,0.0,0.0,0.0,0.0,0.0,0.0,0.0,0.0,0.0,0.0,0.0,0.0,0.0,0.0,0.0,0.0,0.0,0.0,0.0,0.0,1.912136435508728,-0.02529210468111206,0.08478627137398666,0.08611343692748434,-0.108097605407238,0.01512865349650383,-0.0
563,5,0.0003395398089196533,-0.000647246022708714,0.000640037702396512,0.04062485322356224,-0.010158385150134563,0.04662836343050003,0.0,0.0,0.0,0.0,0.0,0.0,0.0,0.0,0.0,0.004268499556928873,0.023463299497961998,-0.0,0.0,0.0,0.0,0.0,0.0,0.0,0.0,0.0,0.0,0.0,0.0,0.0,0.0,0.0,0.0,0.0,0.0,0.0,0.0,0.0,0.0,0.0,1.912136435508728,-0.02438913047404716,0.08636149357762209,0.08605277998884997,-0.108097605407238,0.01512865349650383,-0.0
568,5,0.0004724256868939847,-0.0005741672357544303,0.0004642914282158017,0.03219624608755112,-0.012832806445658207,0.039740901440382004,0.0,0.0,0.0,0.0,0.0,0.0,0.0,0.0,0.0,0.009154964238405228,0.031464431434869766,-0.0,0.0,0.0,0.0,0.0,0.0,0.0,0.0,0.0,0.0,0.0,0.0,0.0,0.0,0.0,0.0,0.0,0.0,0.0,0.0,0.0,0.0,0.0,2.033524513244629,-0.02540300497280508,0.08599095219147516,0.0864104185186584,-0.15414568781852722,0.03450671583414078,-0.0
573,5,0.0006436306866817176,-0.0004905426176264882,0.00019453975255601108,0.03342309966683388,-0.015168076381087303,0.04826655983924866,0.0,0.0,0.0,0.0,0.0,0.0,0.0,0.0,0.0,0.009154964238405228,0.031464431434869766,-0.0,0.0,0.0,0.0,0.0,0.0,0.0,0.0,0.0,0.0,0.0,0.0,0.0,0.0,0.0,0.0,0.0,0.0,0.0,0.0,0.0,0.0,0.0,2.033524513244629,-0.023995453705477402,0.08744965250782451,0.08677086324582321,-0.15414568781852722,0.03450671583414078,-0.0
578,5,0.0007681286078877747,-0.00039990292862057686,-5.027988208894385e-06,0.028308993205428123,-0.016943996772170067,0.043254751712083817,0.0,0.0,0.0,0.0,0.0,0.0,0.0,0.0,0.0,0.014691449701786041,0.026886267587542534,-0.0,0.0,0.0,0.0,0.0,0.0,0.0,0.0,0.0,0.0,0.0,0.0,0.0,0.0,0.0,0.0,0.0,0.0,0.0,0.0,0.0,0.0,0.0,1.9887462854385376,-0.024816022417327485,0.08679236154960701,0.08836303054519166,-0.12881386280059814,0.0541532076895237,-0.0
584,5,0.0008456085924990475,-0.0003550926048774272,-9.686615521786734e-05,0.02062119171023369,-0.012154834344983101,0.028322480618953705,0.0,0.0,0.0,0.0,0.0,0.0,0.0,0.0,0.0,0.014691449701786041,0.026886267587542534,-0.0,0.0,0.0,0.0,0.0,0.0,0.0,0.0,0.0,0.0,0.0,0.0,0.0,0.0,0.0,0.0,0.0,0.0,0.0,0.0,0.0,0.0,0.0,1.9887462854385376,-0.02335843727314233,0.08811185034231965,0.08830205627211989,-0.12881386280059814,0.0541532076895237,-0.0
589,5,0.0009249103022739291,-0.0003051085222978145,-0.00018772004113998264,0.017764681950211525,-0.010860024951398373,0.022231459617614746,0.0,0.0,0.0,0.0,0.0,0.0,0.0,0.0,0.0,0.012574492022395134,0.01817682385444641,-0.0,0.0,0.0,0.0,0.0,0.0,0.0,0.0,0.0,0.0,0.0,0.0,0.0,0.0,0.0,0.0,0.0,0.0,0.0,0.0,0.0,0.0,0.0,1.8706012964248657,-0.023337009662095967,0.0891552179307087,0.08914763655945332,-0.0819205492734909,0.04359728470444679,0.0
594,5,0.0010910704731941223,-0.0002578172425273806,-0.00027838032110594213,0.016534583643078804,-0.0051414500921964645,0.010122563689947128,0.0,0.0,0.0,0.0,0.0,0.0,0.0,0.0,0.0,0.012574492022395134,0.01817682385444641,-0.0,0.0,0.0,0.0,0.0,0.0,0.0,0.0,0.0,0.0,0.0,0.0,0.0,0.0,0.0,0.0,0.0,0.0,0.0,0.0,0.0,0.0,0.0,1.8706012964248657,-0.023316651076076927,0.08939597342343522,0.0896930097088463,-0.0819205492734909,0.04359728470444679,0.0
599,5,0.0010910704731941223,-0.0002578172425273806,-0.00027838032110594213,0.016534583643078804,-0.0051414500921964645,0.010122563689947128,0.0,0.0,0.0,0.0,0.0,0.0,0.0,0.0,0.0,0.005307776853442192,0.015559498220682144,-0.0,0.0,0.0,0.0,0.0,0.0,0.0,0.0,0.0,0.0,0.0,0.0,0.0,0.0,0.0,0.0,0.0,0.0,0.0,0.0,0.0,0.0,0.0,1.8124381303787231,-0.023316651076076927,0.08939597342343522,0.0896930097088463,-0.06794962286949158,0.01783120445907116,0.0
604,5,0.0011877644574269652,-0.00024160320754162967,-0.00031016729190014303,0.01821710914373398,-0.004002264700829983,0.00786346010863781,0.0,0.0,0.0,0.0,0.0,0.0,0.0,0.0,0.0,0.005307776853442192,0.015559498220682144,-0.0,0.0,0.0,0.0,0.0,0.0,0.0,0.0,0.0,0.0,0.0,0.0,0.0,0.0,0.0,0.0,0.0,0.0,0.0,0.0,0.0,0.0,0.0,1.8124381303787231,-0.022421272467126142,0.09045172625207014,0.08961526287534177,-0.06794962286949158,0.01783120445907116,0.0
609,5,0.0012893496314063668,-0.0002461198309902102,-0.00028585284599103034,0.01947707124054432,-0.0010589106241241097,0.00022765313042327762,0.0,0.0,0.0,0.0,0.0,0.0,0.0,0.0,0.0,0.004029144067317247,0.01698668673634529,-0.0,0.0,0.0,0.0,0.0,0.0,0.0,0.0,0.0,0.0,0.0,0.0,0.0,0.0,0.0,0.0,0.0,0.0,0.0,0.0,0.0,0.0,0.0,1.8274134397506714,-0.022677180854802224,0.09098345450744484,0.08997771479297131,-0.07479506731033325,0.013647591695189476,0.0
614,5,0.0014083362184464931,-0.00024148599186446518,-0.00028112094150856137,0.022069210186600685,-0.000979624455794692,-0.000476768531370908,0.0,0.0,0.0,0.0,0.0,0.0,0.0,0.0,0.0,0.004029144067317247,0.01698668673634529,-0.0,0.0,0.0,0.0,0.0,0.0,0.0,0.0,0.0,0.0,0.0,0.0,0.0,0.0,0.0,0.0,0.0,0.0,0.0,0.0,0.0,0.0,0.0,1.8274134397506714,-0.023488266702714273,0.09123527484287346,0.09008939413123418,-0.07479506731033325,0.013647591695189476,0.0
619,5,0.0015090365195646882,-0.0002288666000822559,-0.00028924026992172003,0.020911721512675285,-0.0019061764469370246,0.0007836123113520443,0.0,0.0,0.0,0.0,0.0,0.0,0.0,0.0,0.0,0.0006690826267004013,0.020134247839450836,-0.0,0.0,0.0,0.0,0.0,0.0,0.0,0.0,0.0,0.0,0.0,0.0,0.0,0.0,0.0,0.0,0.0,0.0,0.0,0.0,0.0,0.0,0.0,1.864625334739685,-0.02410238231441234,0.09122372367948897,0.0903117759590522,-0.09045851975679398,0.0023124897852540016,0.0
624,5,0.0017024677945300937,-0.0002266570518258959,-0.000359396159183234,0.0198077205568552,-0.001526856329292059,0.004212443716824055,0.0,0.0,0.0,0.0,0.0,0.0,0.0,0.0,0.0,0.0006690826267004013,0.020134247839450836,-0.0,0.0,0.0,0.0,0.0,0.0,0.0,0.0,0.0,0.0,0.0,0.0,0.0,0.0,0.0,0.0,0.0,0.0,0.0,0.0,0.0,0.0,0.0,1.864625334739685,-0.025502697742434615,0.09204040525258549,0.09053029041389166,-0.09045851975679398,0.0023124897852540016,0.0
629,5,0.0017024677945300937,-0.0002266570518258959,-0.000359396159183234,0.0198077205568552,-0.001526856329292059,0.004212443716824055,0.0,0.0,0.0,0.0,0.0,0.0,0.0,0.0,0.0,0.0012982995249330997,0.018782934173941612,-0.0,0.0,0.0,0.0,0.0,0.0,0.0,0.0,0.0,0.0,0.0,0.0,0.0,0.0,0.0,0.0,0.0,0.0,0.0,0.0,0.0,0.0,0.0,1.8472480773925781,-0.025502697742434615,0.09204040525258549,0.09053029041389166,-0.08360161632299423,0.00444537540897727,0.0
634,5,0.0018678205087780952,-0.00020312915148679167,-0.00044135094503872097,0.017340663820505142,-0.0023833392187952995,0.00618407316505909,0.0,0.0,0.0,0.0,0.0,0.0,0.0,0.0,0.0,0.0012982995249330997,0.018782934173941612,-0.0,0.0,0.0,0.0,0.0,0.0,0.0,0.0,0.0,0.0,0.0,0.0,0.0,0.0,0.0,0.0,0.0,0.0,0.0,0.0,0.0,0.0,0.0,1.8472480773925781,-0.025600127526131566,0.094304612960409,0.09056216590445501,-0.08360161632299423,0.00444537540897727,0.0
639,5,0.0019808143842965364,-0.00017044678679667413,-0.00048797871568240225,0.020495528355240822,-0.004875218030065298,0.008068963885307312,0.0,0.0,0.0,0.0,0.0,0.0,0.0,0.0,0.0,0.002299782121554017,0.017102394253015518,-0.0,0.0,0.0,0.0,0.0,0.0,0.0,0.0,0.0,0.0,0.0,0.0,0.0,0.0,0.0,0.0,0.0,0.0,0.0,0.0,0.0,0.0,0.0,1.8264721632003784,-0.025018722881075237,0.09537006873619384,0.09063482365954716,-0.07526613026857376,0.007785878609865904,0.0
645,5,0.002128158463165164,-0.0001382130867568776,-0.0005514828371815383,0.02587948925793171,-0.005818131845444441,0.010848081670701504,0.0,0.0,0.0,0.0,0.0,0.0,0.0,0.0,0.0,0.002299782121554017,0.017102394253015518,-0.0,0.0,0.0,0.0,0.0,0.0,0.0,0.0,0.0,0.0,0.0,0.0,0.0,0.0,0.0,0.0,0.0,0.0,0.0,0.0,0.0,0.0,0.0,1.8264721632003784,-0.0241510937101823,0.09646222909947039,0.09102558638228377,-0.07526613026857376,0.007785878609865904,0.0
650,5,0.0022517696488648653,-0.0001057230110745877,-0.0005672134575434029,0.025185147300362587,-0.0062260618433356285,0.006226903293281794,0.0,0.0,0.0,0.0,0.0,0.0,0.0,0.0,0.0,0.0059191216714680195,0.023550378158688545,-0.0,0.0,0.0,0.0,0.0,0.0,0.0,0.0,0.0,0.0,0.0,0.0,0.0,0.0,0.0,0.0,0.0,0.0,0.0,0.0,0.0,0.0,0.0,1.9161587953567505,-0.024094105456811614,0.09702265364146864,0.09124487721852333,-0.10872603207826614,0.02102290466427803,0.0
655,5,0.002347511937841773,-9.820668492466211e-05,-0.0005627881619147956,0.021563135087490082,-0.0033923841547220945,0.001959729939699173,0.0,0.0,0.0,0.0,0.0,0.0,0.0,0.0,0.0,0.0059191216714680195,0.023550378158688545,-0.0,0.0,0.0,0.0,0.0,0.0,0.0,0.0,0.0,0.0,0.0,0.0,0.0,0.0,0.0,0.0,0.0,0.0,0.0,0.0,0.0,0.0,0.0,1.9161587953567505,-0.02327148520776213,0.09810658105792737,0.09103559826096592,-0.10872603207826614,0.02102290466427803,0.0
660,5,0.0024835821241140366,-6.784076686017215e-05,-0.0005840869271196425,0.02495366334915161,-0.00500086322426796,0.0033397404477000237,0.0,0.0,0.0,0.0,0.0,0.0,0.0,0.0,0.0,0.003494853852316737,0.020752698183059692,-0.0,0.0,0.0,0.0,0.0,0.0,0.0,0.0,0.0,0.0,0.0,0.0,0.0,0.0,0.0,0.0,0.0,0.0,0.0,0.0,0.0,0.0,0.0,1.874989628791809,-0.02229375155896717,0.09916006410622528,0.09158318078962593,-0.0937543660402298,0.012146043591201305,0.0
665,5,0.002561737084761262,-5.6027005484793335e-05,-0.0005978903500363231,0.01936005987226963,-0.0034179966896772385,0.0029923077672719955,0.0,0.0,0.0,0.0,0.0,0.0,0.0,0.0,0.0,0.003494853852316737,0.020752698183059692,-0.0,0.0,0.0,0.0,0.0,0.0,0.0,0.0,0.0,0.0,0.0,0.0,0.0,0.0,0.0,0.0,0.0,0.0,0.0,0.0,0.0,0.0,0.0,1.874989628791809,-0.023043626069434286,0.09909623129229243,0.09166567905356658,-0.0937543660402298,0.012146043591201305,0.0
670,5,0.002620793180540204,-6.124735227786005e-05,-0.0005947333993390203,0.014830756932497025,-0.0007407572120428085,0.0008180880104191601,0.0,0.0,0.0,0.0,0.0,0.0,0.0,0.0,0.0,0.0036236527375876904,0.01937086321413517,-0.0,0.0,0.0,0.0,0.0,0.0,0.0,0.0,0.0,0.0,0.0,0.0,0.0,0.0,0.0,0.0,0.0,0.0,0.0,0.0,0.0,0.0,0.0,1.857155442237854,-0.022805126441493233,0.09973468225596925,0.09164879055831983,-0.08668003976345062,0.012473882175981998,0.0
675,5,0.0027061665896326303,-2.578649036877323e-05,-0.0006039912113919854,0.016177130863070488,-0.004551606252789497,0.0014381755609065294,0.0,0.0,0.0,0.0,0.0,0.0,0.0,0.0,0.0,0.0036236527375876904,0.01937086321413517,-0.0,0.0,0.0,0.0,0.0,0.0,0.0,0.0,0.0,0.0,0.0,0.0,0.0,0.0,0.0,0.0,0.0,0.0,0.0,0.0,0.0,0.0,0.0,1.857155442237854,-0.02293517337429184,0.10021020034747588,0.09198641672706759,-0.08668003976345062,0.012473882175981998,0.0
680,5,0.0027870992198586464,4.2132242583647894e-07,-0.0006118578021414578,0.01618276722729206,-0.004965580068528652,0.0015192585997283459,0.0,0.0,0.0,0.0,0.0,0.0,0.0,0.0,0.0,0.004976996220648289,0.017124203965067863,-0.0,0.0,0.0,0.0,0.0,0.0,0.0,0.0,0.0,0.0,0.0,0.0,0.0,0.0,0.0,0.0,0.0,0.0,0.0,0.0,0.0,0.0,0.0,1.8309928178787231,-0.023058707453380414,0.10008269943160447,0.09292324499694438,-0.07554788887500763,0.016891151666641235,0.0
685,5,0.0028655193746089935,2.0358555048005655e-05,-0.0006454907124862075,0.01588352583348751,-0.004378700163215399,0.004643655847758055,0.0,0.0,0.0,0.0,0.0,0.0,0.0,0.0,0.0,0.004976996220648289,0.017124203965067863,-0.0,0.0,0.0,0.0,0.0,0.0,0.0,0.0,0.0,0.0,0.0,0.0,0.0,0.0,0.0,0.0,0.0,0.0,0.0,0.0,0.0,0.0,0.0,1.8309928178787231,-0.022635210409313152,0.10014562506463198,0.0931745250833857,-0.07554788887500763,0.016891151666641235,0.0
691,5,0.0029207393527030945,1.573644476593472e-05,-0.0006295655621215701,0.012979798950254917,-0.0011968266917392612,-5.3558251238428056e-05,0.0,0.0,0.0,0.0,0.0,0.0,0.0,0.0,0.0,0.004862769972532988,0.01708267070353031,-0.0,0.0,0.0,0.0,0.0,0.0,0.0,0.0,0.0,0.0,0.0,0.0,0.0,0.0,0.0,0.0,0.0,0.0,0.0,0.0,0.0,0.0,0.0,1.830230712890625,-0.022685653529260896,0.10051645166960538,0.09326260735017228,-0.07533334195613861,0.016496621072292328,0.0
696,5,0.0029729995876550674,2.907493762904778e-05,-0.0006166276289150119,0.011463142931461334,-0.002079349709674716,-0.001573973218910396,0.0,0.0,0.0,0.0,0.0,0.0,0.0,0.0,0.0,0.004862769972532988,0.01708267070353031,-0.0,0.0,0.0,0.0,0.0,0.0,0.0,0.0,0.0,0.0,0.0,0.0,0.0,0.0,0.0,0.0,0.0,0.0,0.0,0.0,0.0,0.0,0.0,1.830230712890625,-0.022597074842686738,0.10140299346494097,0.09322697366076121,-0.07533334195613861,0.016496621072292328,0.0
701,5,0.0030447840690612793,-2.0396064428496175e-06,-0.0006343434215523303,0.01319940760731697,0.002902005333453417,0.00149630440864712,0.0,0.0,0.0,0.0,0.0,0.0,0.0,0.0,0.0,0.004862769972532988,0.01708267070353031,-0.0,0.0,0.0,0.0,0.0,0.0,0.0,0.0,0.0,0.0,0.0,0.0,0.0,0.0,0.0,0.0,0.0,0.0,0.0,0.0,0.0,0.0,0.0,1.830230712890625,-0.02230057184024835,0.10179457523401768,0.0934065650224841,-0.07533334195613861,0.016496621072292328,0.0
706,5,0.0031083563808351755,1.4150097740639467e-05,-0.0006100194295868278,0.012908422388136387,-0.0007819623569957912,-0.0023203566670417786,0.0,0.0,0.0,0.0,0.0,0.0,0.0,0.0,0.0,-0.003267756663262844,0.015241085551679134,-0.0,0.0,0.0,0.0,0.0,0.0,0.0,0.0,0.0,0.0,0.0,0.0,0.0,0.0,0.0,0.0,0.0,0.0,0.0,0.0,0.0,0.0,0.0,1.8043979406356812,-0.023310469423193012,0.1019177635533456,0.09377537027723443,-0.06626451015472412,-0.010929220356047153,0.0
711,5,0.0031788612250238657,1.063164381776005e-05,-0.00059990503359586,0.013623950071632862,0.00010942952212644741,-0.002141868229955435,0.0,0.0,0.0,0.0,0.0,0.0,0.0,0.0,0.0,-0.003267756663262844,0.015241085551679134,-0.0,0.0,0.0,0.0,0.0,0.0,0.0,0.0,0.0,0.0,0.0,0.0,0.0,0.0,0.0,0.0,0.0,0.0,0.0,0.0,0.0,0.0,0.0,1.8043979406356812,-0.023521024713216522,0.10201270791053481,0.09403397367289475,-0.06626451015472412,-0.010929220356047153,0.0
716,5,0.0032653266098350286,2.702859819692094e-05,-0.0006351222400553524,0.015825437381863594,-0.0019238627282902598,0.003369315294548869,0.0,0.0,0.0,0.0,0.0,0.0,0.0,0.0,0.0,-0.00011556843674043193,0.0157465897500515,-0.0,0.0,0.0,0.0,0.0,0.0,0.0,0.0,0.0,0.0,0.0,0.0,0.0,0.0,0.0,0.0,0.0,0.0,0.0,0.0,0.0,0.0,0.0,1.8081560134887695,-0.023301387699162825,0.10251868672779033,0.0937938561735705,-0.06860509514808655,-0.0003873322857543826,0.0
721,5,0.003308671060949564,2.0390498320921324e-05,-0.0006125943618826568,0.011531518772244453,2.7026821044273674e-05,-0.0013556189369410276,0.0,0.0,0.0,0.0,0.0,0.0,0.0,0.0,0.0,-0.00011556843674043193,0.0157465897500515,-0.0,0.0,0.0,0.0,0.0,0.0,0.0,0.0,0.0,0.0,0.0,0.0,0.0,0.0,0.0,0.0,0.0,0.0,0.0,0.0,0.0,0.0,0.0,1.8081560134887695,-0.02363052750369807,0.10259309243356007,0.09381090747907851,-0.06860509514808655,-0.0003873322857543826,0.0
