timestamp,dt,pos_x,pos_y,pos_z,vel_x,vel_y,vel_z,roll,pitch,yaw,agv_x,agv_y,agv_z,x_ref,y_ref,z_ref,roll_ref,pitch_ref,yaw_ref,x_vel_ref,y_vel_ref,z_vel_ref,x_torque,y_torque,z_torque,w0,w1,w2,w3,u0,u1,u2,u3,m0req,m1req,m2req,m3req,thrust0,thrust1,thrust2,thrust3,thrust_ref,roll_vicon,pitch_vicon,yaw_vicon,acc_x,acc_y,acc_z
5,5,0.0,0.0,0.0,-0.0014564545126631856,-0.0004213668289594352,2.973313348775264e-05,-0.0037679944653064013,-0.06108056753873825,0.00030429766047745943,-0.0012091470416635275,0.0027828007005155087,-0.004625421483069658,0.0,0.0,0.0,0.0005194336990825832,-0.0013810948003083467,-0.0,0.0,0.0,0.0,0.001116119441576302,0.018563859164714813,-3.8773290725657716e-05,1495.0,1495.0,1495.0,1495.0,0.0,0.0,0.0,0.0,0.0,0.0,0.0,0.0,1495.0,1495.0,1495.0,1495.0,1.6411677598953247,-0.013396765715712728,0.0782385161821769,0.00908388934341615,0.0054617044515907764,0.0015801256522536278,0.0
31,26,0.0,0.0,0.0,-0.012507778592407703,0.017795324325561523,-0.03790806233882904,-0.0037679944653064013,-0.06108056753873825,0.00030429766047745943,-0.0012091470416635275,0.0027828007005155087,-0.004625421483069658,0.0,0.0,0.0,0.0005194336990825832,-0.0013810948003083467,-0.0,0.0,0.0,0.0,0.001116119441576302,0.018563859164714813,-3.8773290725657716e-05,1495.0,1495.0,1495.0,1495.0,0.0,0.0,0.0,0.0,0.0,0.0,0.0,0.0,1495.0,1495.0,1495.0,1495.0,1.6411677598953247,-0.02453675004821087,0.07079445360350889,0.006345367384160077,0.0054617044515907764,0.0015801256522536278,0.0
36,5,0.0,0.0,0.0,-0.005601711571216583,0.013616337440907955,-0.02844148501753807,-0.0037393986713141203,-0.061087097972631454,0.0003017651033587754,0.004849923308938742,0.004514018073678017,-0.0009544699569232762,0.0,0.0,0.0,-0.019549023360013962,-0.010570531710982323,-0.0,0.0,0.0,0.0,0.001192798255942762,0.018067356199026108,3.1230447348207235e-05,1495.0,1495.0,1495.0,1495.0,0.0,0.0,0.0,0.0,0.0,0.0,0.0,0.0,1495.0,1495.0,1495.0,1495.0,1.8418480157852173,-0.01708972041083386,0.07394590485454504,0.00421535564016804,0.04690416902303696,-0.06673246622085571,0.0
41,5,0.0,0.0,0.0,-0.004095251671969891,0.0070517100393772125,-0.01927941106259823,-0.0037393986713141203,-0.061087097972631454,0.0003017651033587754,0.004849923308938742,0.004514018073678017,-0.0009544699569232762,0.0,0.0,0.0,-0.019549023360013962,-0.010570531710982323,-0.0,0.0,0.0,0.0,0.001192798255942762,0.018067356199026108,3.1230447348207235e-05,1495.0,1495.0,1495.0,1495.0,0.0,0.0,0.0,0.0,0.0,0.0,0.0,0.0,1495.0,1495.0,1495.0,1495.0,1.8418480157852173,-0.022926011634665566,0.07259432912832565,0.004084316406819925,0.04690416902303696,-0.06673246622085571,0.0
49,8,0.0,0.0,0.0,-0.016316700726747513,0.018224675208330154,-0.0517030693590641,-0.0037393986713141203,-0.061087097972631454,0.0003017651033587754,0.004849923308938742,0.004514018073678017,-0.0009544699569232762,0.0,0.0,0.0,-0.019549023360013962,-0.010570531710982323,-0.0,0.0,0.0,0.0,0.001192798255942762,0.018067356199026108,3.1230447348207235e-05,1495.0,1495.0,1495.0,1495.0,0.0,0.0,0.0,0.0,0.0,0.0,0.0,0.0,1495.0,1495.0,1495.0,1495.0,1.8418480157852173,-0.010804543468228085,0.07655776856366901,-0.00046367098351787967,0.04690416902303696,-0.06673246622085571,0.0
54,5,-9.559009413351305e-06,1.367892309644958e-05,1.875816633400973e-05,-0.0034977837931364775,0.001601454452611506,-0.010628930293023586,-0.0037464150227606297,-0.06107908487319946,0.0002797370543703437,-0.0014458551304414868,-0.003387794364243746,-0.0007998053333722055,0.0,0.0,0.0,-0.019740896299481392,-0.013596992008388042,-0.0,0.0,0.0,0.0,0.0013183333212509751,0.01779225654900074,-3.8789090467616916e-05,1495.0,1495.0,1495.0,1495.0,0.0,0.0,0.0,0.0,0.0,0.0,0.0,0.0,1495.0,1495.0,1495.0,1495.0,1.8679571151733398,-0.010613668336880596,0.0760957171752465,-0.00012359101768372608,0.06118762865662575,-0.06834252923727036,0.0
60,6,-1.4541128621203825e-05,-1.293849095418409e-06,3.0142240575514734e-05,-0.0019969679415225983,0.002437314484268427,-0.005617661401629448,-0.0037464150227606297,-0.06107908487319946,0.0002797370543703437,-0.0014458551304414868,-0.003387794364243746,-0.0007998053333722055,0.0,0.0,0.0,-0.019740896299481392,-0.013596992008388042,-0.0,0.0,0.0,0.0,0.0013183333212509751,0.01779225654900074,-3.8789090467616916e-05,1495.0,1495.0,1495.0,1495.0,0.0,0.0,0.0,0.0,0.0,0.0,0.0,0.0,1495.0,1495.0,1495.0,1495.0,1.8679571151733398,-0.010906553657953951,0.07557124004714341,-0.00022762017979790258,0.06118762865662575,-0.06834252923727036,0.0
65,5,-1.5872039512032643e-05,-9.994585525419097e-06,6.884493359393673e-06,-0.0009584963554516435,0.002019014209508896,0.0005438652588054538,-0.0037454019766300917,-0.061031293123960495,0.00027331800083629787,0.0028826294001191854,-0.005771194584667683,0.00023655699624214321,0.0,0.0,0.0,-0.002976579824462533,-0.0018945800838992,-0.0,0.0,0.0,0.0,-0.004789683967828751,0.014949177391827106,-1.4324179574032314e-05,15568.0,13597.0,12952.0,14990.0,0.5495330691337585,0.41274550557136536,0.3722064793109894,0.5073630213737488,0.0,0.0,0.0,0.0,15556.0,13612.0,12926.0,15012.0,1.6578916311264038,-0.011347810460384768,0.07540548613806503,3.499754587110472e-05,0.00756865693256259,-0.009147049859166145,0.0
70,5,-4.870408884016797e-05,2.119036025760579e-06,3.5862671211361885e-05,-0.00432324456050992,-0.0006460289005190134,-0.003259835299104452,-0.0037454019766300917,-0.061031293123960495,0.00027331800083629787,0.0028826294001191854,-0.005771194584667683,0.00023655699624214321,0.0,0.0,0.0,-0.002976579824462533,-0.0018945800838992,-0.0,0.0,0.0,0.0,-0.004789683967828751,0.014949177391827106,-1.4324179574032314e-05,15568.0,13597.0,12952.0,14990.0,0.5495330691337585,0.41274550557136536,0.3722064793109894,0.5073630213737488,0.0,0.0,0.0,0.0,15556.0,13612.0,12926.0,15012.0,1.6578916311264038,-0.01191035805505306,0.07508707292193548,0.00036047078759161866,0.00756865693256259,-0.009147049859166145,0.0
75,5,-6.596880120923743e-05,6.840424248366617e-06,5.677849912899546e-05,-0.0038010631687939167,-0.0008249781676568091,-0.003813833463937044,-0.0037010805681347847,-0.060997046530246735,0.00023903859255369753,0.00361116835847497,0.0011367106344550848,-0.0008235627901740372,0.0,0.0,0.0,0.0007860316545702517,-0.004093492403626442,-0.0,0.0,0.0,0.0,-0.004824454430490732,0.014236642979085445,9.790043986868113e-05,15632.0,13729.0,13130.0,15016.0,0.5542908310890198,0.42129015922546387,0.3831762671470642,0.5091997981071472,0.0,0.0,0.0,0.0,15610.0,13549.0,12951.0,14990.0,1.6707810163497925,-0.010589661116138094,0.07584712362841034,-0.00023821722704846877,0.016480261459946632,0.0024342660326510668,0.0
80,5,-6.878693966427818e-05,1.926994082168676e-05,7.448587712133303e-05,-0.001858602394349873,-0.0018215333111584187,-0.003650418482720852,-0.0037010805681347847,-0.060997046530246735,0.00023903859255369753,0.00361116835847497,0.0011367106344550848,-0.0008235627901740372,0.0,0.0,0.0,0.0007860316545702517,-0.004093492403626442,-0.0,0.0,0.0,0.0,-0.004824454430490732,0.014236642979085445,9.790043986868113e-05,15632.0,13729.0,13130.0,15016.0,0.5542908310890198,0.42129015922546387,0.3831762671470642,0.5091997981071472,0.0,0.0,0.0,0.0,15610.0,13549.0,12951.0,14990.0,1.6707810163497925,-0.01103197180859194,0.0752099879009611,0.0004538366605562201,0.016480261459946632,0.0024342660326510668,0.0
85,5,-7.256854587467387e-05,2.6946605430566706e-05,0.00010418674355605617,-0.0011972334468737245,-0.0016498130280524492,-0.005024271551519632,-0.003682242939248681,-0.06101037561893463,0.00026273966068401933,0.0019872242119163275,-0.002297661965712905,-0.0007768702926114202,0.0,0.0,0.0,0.002263845643028617,-0.001844787155278027,-0.0,0.0,0.0,0.0,-0.004859609063714743,0.014273392036557198,1.0376588761573657e-05,15615.0,13755.0,13104.0,15033.0,0.5529886484146118,0.4229907691478729,0.3815425932407379,0.5104351043701172,0.0,0.0,0.0,0.0,15621.0,13738.0,13112.0,15036.0,1.6531215906143188,-0.009112790042161012,0.07564680864984655,6.078621158566271e-05,0.007348549086600542,0.006936804857105017,0.0
91,5,-0.00013929727720096707,4.9341015255777165e-05,0.0002372556773480028,-0.008486340753734112,-0.003347254591062665,-0.01797798089683056,-0.003682242939248681,-0.06101037561893463,0.00026273966068401933,0.0019872242119163275,-0.002297661965712905,-0.0007768702926114202,0.0,0.0,0.0,0.002263845643028617,-0.001844787155278027,-0.0,0.0,0.0,0.0,-0.004859609063714743,0.014273392036557198,1.0376588761573657e-05,15615.0,13755.0,13104.0,15033.0,0.5529886484146118,0.4229907691478729,0.3815425932407379,0.5104351043701172,0.0,0.0,0.0,0.0,15621.0,13738.0,13112.0,15036.0,1.6531215906143188,-0.007716260186014639,0.07589339355240915,0.0004460791292097708,0.007348549086600542,0.006936804857105017,0.0
96,5,-0.00013929727720096707,4.9341015255777165e-05,0.0002372556773480028,-0.008486340753734112,-0.003347254591062665,-0.01797798089683056,-0.003700830275192857,-0.06096028536558151,0.0002478805254213512,-0.0018710849108174443,0.006108962465077639,-0.001184910535812378,0.0,0.0,0.0,0.004022651817649603,-0.007864177227020264,-0.0,0.0,0.0,0.0,0.00025548317353241146,0.017811069265007973,-4.145647108089179e-05,14801.0,12290.0,12305.0,14852.0,0.4939455986022949,0.33277058601379395,0.33363932371139526,0.4975361227989197,0.0,0.0,0.0,0.0,14796.0,12304.0,12334.0,14821.0,1.7198820114135742,-0.007716260186014639,0.07589339355240915,0.0004460791292097708,0.03259086236357689,0.012823822908103466,0.0
101,5,-0.00013929727720096707,4.9341015255777165e-05,0.0002372556773480028,-0.008486340753734112,-0.003347254591062665,-0.01797798089683056,-0.003700830275192857,-0.06096028536558151,0.0002478805254213512,-0.0018710849108174443,0.006108962465077639,-0.001184910535812378,0.0,0.0,0.0,0.004022651817649603,-0.007864177227020264,-0.0,0.0,0.0,0.0,0.00025548317353241146,0.017811069265007973,-4.145647108089179e-05,14801.0,12290.0,12305.0,14852.0,0.4939455986022949,0.33277058601379395,0.33363932371139526,0.4975361227989197,0.0,0.0,0.0,0.0,14796.0,12304.0,12334.0,14821.0,1.7198820114135742,-0.007716260186014639,0.07589339355240915,0.0004460791292097708,0.03259086236357689,0.012823822908103466,0.0
106,5,-0.0004635546065401286,0.0001420378393959254,0.0007496961625292897,-0.024674993008375168,-0.006492276675999165,-0.03810521960258484,-0.0036726822145283222,-0.060978394001722336,0.00027010522899217904,0.0025679273530840874,0.001467701280489564,0.00434818584471941,0.0,0.0,0.0,0.004022702574729919,-0.007864288054406643,-0.0,0.0,0.0,0.0,0.0016823031473904848,0.017692966386675835,0.00016791261441539973,14756.0,12087.0,12482.0,14848.0,0.4907989501953125,0.32112401723861694,0.34394967555999756,0.49724891781806946,0.0,0.0,0.0,0.0,14722.0,12119.0,12400.0,14923.0,1.7198834419250488,-0.0002984267785558973,0.0748483884108295,0.0032695369056420344,0.03259135037660599,0.012823996134102345,0.0
113,7,-0.0006099610473029315,0.0002007924485951662,0.0009695973712950945,-0.027438772842288017,-0.009647464379668236,-0.041630230844020844,-0.0036726822145283222,-0.060978394001722336,0.00027010522899217904,0.0025679273530840874,0.001467701280489564,0.00434818584471941,0.0,0.0,0.0,0.004022702574729919,-0.007864288054406643,-0.0,0.0,0.0,0.0,0.0016823031473904848,0.017692966386675835,0.00016791261441539973,14756.0,12087.0,12482.0,14848.0,0.4907989501953125,0.32112401723861694,0.34394967555999756,0.49724891781806946,0.0,0.0,0.0,0.0,14722.0,12119.0,12400.0,14923.0,1.7198834419250488,0.0019081943869640472,0.07379254102907647,0.0046526793663411335,0.03259135037660599,0.012823996134102345,0.0
118,5,-0.000789717654697597,0.0002603067841846496,0.0012512389803305268,-0.032546304166316986,-0.011000706814229488,-0.05044908821582794,-0.0036776044871658087,-0.060993507504463196,0.0002823718241415918,-0.00024509005015715957,-0.0028813444077968597,-0.00323267700150609,0.0,0.0,0.0,0.01047172024846077,-0.022958854213356972,-0.0,0.0,0.0,0.0,0.002320678671821952,0.016030065715312958,6.733179179718718e-05,14784.0,12537.0,12873.0,15061.0,0.492768257856369,0.3472345173358917,0.36739304661750793,0.5124862194061279,0.0,0.0,0.0,0.0,14814.0,12507.0,12885.0,15048.0,1.920897364616394,0.005670292481472668,0.07340264400901719,0.00616991282959316,0.10625375807285309,0.03728346899151802,0.0
123,5,-0.0008958658436313272,0.00028698547976091504,0.0013955336762592196,-0.02575630135834217,-0.0076017240062355995,-0.03749498724937439,-0.0036776044871658087,-0.060993507504463196,0.0002823718241415918,-0.00024509005015715957,-0.0028813444077968597,-0.00323267700150609,0.0,0.0,0.0,0.01047172024846077,-0.022958854213356972,-0.0,0.0,0.0,0.0,0.002320678671821952,0.016030065715312958,6.733179179718718e-05,14784.0,12537.0,12873.0,15061.0,0.492768257856369,0.3472345173358917,0.36739304661750793,0.5124862194061279,0.0,0.0,0.0,0.0,14814.0,12507.0,12885.0,15048.0,1.920897364616394,0.006705298011080693,0.07355475894345989,0.006796133445842696,0.10625375807285309,0.03728346899151802,0.0
128,5,-0.000992313725873828,0.0003367023600731045,0.001535300281830132,-0.021876266226172447,-0.009006716310977936,-0.03176999092102051,-0.003706214716657996,-0.060926418751478195,0.00025724616716615856,0.00032277635182254016,-0.0024303668178617954,0.0009900303557515144,0.0,0.0,0.0,0.008525872603058815,-0.02213146537542343,-0.0,0.0,0.0,0.0,0.002377748489379883,0.015870291739702225,-1.0675480552890804e-05,14783.0,12535.0,12890.0,15051.0,0.49269452691078186,0.3470849096775055,0.3683893382549286,0.5117132067680359,0.0,0.0,0.0,0.0,14802.0,12518.0,12891.0,15045.0,1.9038870334625244,0.007782026124835001,0.07239392047233979,0.008154948312877185,0.1015200987458229,0.030087007209658623,0.0
133,5,-0.001327012898400426,8.108687325147912e-05,0.0022957201581448317,-0.04891440272331238,0.02707117237150669,-0.1039583832025528,-0.003706214716657996,-0.060926418751478195,0.00025724616716615856,0.00032277635182254016,-0.0024303668178617954,0.0009900303557515144,0.0,0.0,0.0,0.008525872603058815,-0.02213146537542343,-0.0,0.0,0.0,0.0,0.002377748489379883,0.015870291739702225,-1.0675480552890804e-05,14783.0,12535.0,12890.0,15051.0,0.49269452691078186,0.3470849096775055,0.3683893382549286,0.5117132067680359,0.0,0.0,0.0,0.0,14802.0,12518.0,12891.0,15045.0,1.9038870334625244,0.0077445010743286,0.0838538525926151,0.016703931125301417,0.1015200987458229,0.030087007209658623,0.0
138,5,-0.0013502961955964565,0.00010502174700377509,0.0023691991809755564,-0.022359754890203476,0.00795628409832716,-0.050400830805301666,-0.003709040116518736,-0.06090988591313362,0.00026003827224485576,0.002911335090175271,0.004123390186578035,-0.0011969332117587328,0.0,0.0,0.0,-0.025105465203523636,-0.03645848482847214,-0.0,0.0,0.0,0.0,0.002315969206392765,0.016025226563215256,1.249771230504848e-05,14789.0,12534.0,12864.0,15067.0,0.493146687746048,0.3470574915409088,0.3667995035648346,0.5128797292709351,0.0,0.0,0.0,0.0,14802.0,12518.0,12891.0,15045.0,2.1723105907440186,0.008336931451569557,0.08430930298741313,0.017017490922558307,0.19073893129825592,-0.10106851160526276,0.0
143,5,-0.001455345656722784,0.0001817536394810304,0.002375632058829069,-0.021549848839640617,-0.0060253143310546875,-0.0209322739392519,-0.003709040116518736,-0.06090988591313362,0.00026003827224485576,0.002911335090175271,0.004123390186578035,-0.0011969332117587328,0.0,0.0,0.0,-0.025105465203523636,-0.03645848482847214,-0.0,0.0,0.0,0.0,0.002315969206392765,0.016025226563215256,1.249771230504848e-05,14789.0,12534.0,12864.0,15067.0,0.493146687746048,0.3470574915409088,0.3667995035648346,0.5128797292709351,0.0,0.0,0.0,0.0,14802.0,12518.0,12891.0,15045.0,2.1723105907440186,0.010590719327319312,0.08163550046644179,0.015404890139795463,0.19073893129825592,-0.10106851160526276,0.0
149,5,-0.001463782275095582,0.00020078099623788148,0.002397863194346428,-0.009632330387830734,-0.004693407565355301,-0.01104065403342247,-0.0036965564358979464,-0.06095504015684128,0.0002550437639001757,-0.0002537985274102539,0.0053465464152395725,0.0005996775580570102,0.0,0.0,0.0,0.006814292166382074,-0.019733980298042297,-0.0,0.0,0.0,0.0,0.003692734520882368,0.011819534003734589,6.939316517673433e-05,15104.0,13472.0,14004.0,15498.0,0.5155279040336609,0.40467575192451477,0.4393869936466217,0.544296383857727,0.0,0.0,0.0,0.0,16311.0,15380.0,14616.0,15569.0,1.8682928085327148,0.009005648347885566,0.08120244645771287,0.014219584314481132,0.0888327807188034,0.02359761670231819,0.0
154,5,-0.0014321902999654412,0.00017605054017622024,0.0023340724874287844,-6.188863335410133e-05,0.0010902909561991692,0.0032386169768869877,-0.0036965564358979464,-0.06095504015684128,0.0002550437639001757,-0.0002537985274102539,0.0053465464152395725,0.0005996775580570102,0.0,0.0,0.0,0.006814292166382074,-0.019733980298042297,-0.0,0.0,0.0,0.0,0.003692734520882368,0.011819534003734589,6.939316517673433e-05,15104.0,13472.0,14004.0,15498.0,0.5155279040336609,0.40467575192451477,0.4393869936466217,0.544296383857727,0.0,0.0,0.0,0.0,16311.0,15380.0,14616.0,15569.0,1.8682928085327148,0.0121876789723439,0.08086556317338049,0.015971895711548563,0.0888327807188034,0.02359761670231819,0.0
159,5,-0.0015354874776676297,0.00016767751367297024,0.00236952374689281,-0.005848294589668512,0.00041858525946736336,0.0043950630351901054,-0.0036870604380965233,-0.06096699833869934,0.00025829320657067,0.0006336962687782943,0.000680653378367424,-0.0005551496869884431,0.0,0.0,0.0,-0.0010194574715569615,-0.0020457827486097813,-0.0,0.0,0.0,0.0,-0.006404547952115536,0.00739104812964797,2.8550544811878353e-05,16294.0,15394.0,14630.0,15560.0,0.604793131351471,0.5366539359092712,0.4819486141204834,0.5489149689674377,0.0,0.0,0.0,0.0,16311.0,15384.0,14631.0,15551.0,1.6493432521820068,0.011089927982769397,0.08023775650027846,0.01633910247271193,0.008130587637424469,-0.003116653999313712,-0.0
164,5,-0.0014046955620869994,0.00021679038763977587,0.0021577556617558002,0.013355708681046963,-0.005726112052798271,0.0271702129393816,-0.0036870604380965233,-0.06096699833869934,0.00025829320657067,0.0006336962687782943,0.000680653378367424,-0.0005551496869884431,0.0,0.0,0.0,-0.0010194574715569615,-0.0020457827486097813,-0.0,0.0,0.0,0.0,-0.006404547952115536,0.00739104812964797,2.8550544811878353e-05,16294.0,15394.0,14630.0,15560.0,0.604793131351471,0.5366539359092712,0.4819486141204834,0.5489149689674377,0.0,0.0,0.0,0.0,16311.0,15384.0,14631.0,15551.0,1.6493432521820068,0.012259757376558673,0.07351884544532411,0.015127459287248252,0.008130587637424469,-0.003116653999313712,-0.0
169,5,-0.0014062895206734538,0.00027124484768137336,0.002174265682697296,0.005151011981070042,-0.008824978955090046,0.008886887691915035,-0.0036638504825532436,-0.060921698808670044,0.0005529512418434024,-0.008183645084500313,0.0010852157138288021,0.01449753250926733,0.0,0.0,0.0,0.006971756462007761,0.010014529339969158,-0.0,0.0,0.0,0.0,0.00025597610510885715,0.0176019836217165,0.00016692074132151902,15415.0,12883.0,14218.0,15005.0,0.5381754636764526,0.3679639995098114,0.4537193477153778,0.5084339380264282,0.0,0.0,0.0,0.0,14327.0,14089.0,12984.0,16078.0,1.7542890310287476,0.011935040274868927,0.07360688918901845,0.014802089957104988,-0.04233170673251152,0.022669686004519463,-0.0
174,5,-0.0016415140125900507,0.0002313549630343914,0.0024915363173931837,-0.02616652473807335,0.0012567933881655335,-0.034517720341682434,-0.0036638504825532436,-0.060921698808670044,0.0005529512418434024,-0.008183645084500313,0.0010852157138288021,0.01449753250926733,0.0,0.0,0.0,0.006971756462007761,0.010014529339969158,-0.0,0.0,0.0,0.0,0.00025597610510885715,0.0176019836217165,0.00016692074132151902,15415.0,12883.0,14218.0,15005.0,0.5381754636764526,0.3679639995098114,0.4537193477153778,0.5084339380264282,0.0,0.0,0.0,0.0,14327.0,14089.0,12984.0,16078.0,1.7542890310287476,0.006920049522191468,0.07521163804145468,0.011516858630442973,-0.04233170673251152,0.022669686004519463,-0.0
179,5,-0.0016081208596006036,0.0002310912386747077,0.002393783535808325,-0.006459439173340797,0.0005343650700524449,-0.0020767604000866413,-0.0036363848485052586,-0.06096319854259491,-0.00016332771338056773,0.021766455844044685,-0.014800370670855045,0.10953176766633987,0.0,0.0,0.0,-0.0009717135108076036,-0.02332404814660549,-0.0,0.0,0.0,0.0,0.003340894589200616,0.021830081939697266,-0.002014298690482974,15309.0,11560.0,12984.0,14207.0,0.5304260849952698,0.291838139295578,0.3741268217563629,0.45295223593711853,0.0,0.0,0.0,0.0,15930.0,10648.0,13750.0,13485.0,1.9072929620742798,0.008560958390452095,0.07364517466122075,0.011082712176776302,0.10718491673469543,-0.00343529530800879,0.0
184,5,-0.0013682921417057514,0.00035922115785069764,0.002097867662087083,0.026195676997303963,-0.015161843970417976,0.034679193049669266,-0.0036363848485052586,-0.06096319854259491,-0.00016332771338056773,0.021766455844044685,-0.014800370670855045,0.10953176766633987,0.0,0.0,0.0,-0.0009717135108076036,-0.02332404814660549,-0.0,0.0,0.0,0.0,0.003340894589200616,0.021830081939697266,-0.002014298690482974,15309.0,11560.0,12984.0,14207.0,0.5304260849952698,0.291838139295578,0.3741268217563629,0.45295223593711853,0.0,0.0,0.0,0.0,15930.0,10648.0,13750.0,13485.0,1.9072929620742798,0.013317460401853219,0.07245699610620505,0.010401891267987514,0.10718491673469543,-0.00343529530800879,0.0
189,5,-0.001428689924068749,0.0003031145897693932,0.0022023741621524096,0.0032305291388183832,0.0006680511869490147,0.001330903498455882,-0.003587162820622325,-0.06096642091870308,0.00018812208145391196,-0.009926432743668556,0.003002934157848358,-0.10674020648002625,0.0,0.0,0.0,0.016625039279460907,0.019709458574652672,-0.0,0.0,0.0,0.0,0.0008653429104015231,0.010384473018348217,9.898321150103584e-05,14286.0,13239.0,11523.0,16440.0,0.45828771591186523,0.3899914622306824,0.2898005247116089,0.6162092685699463,0.0,0.0,0.0,0.0,14635.0,12839.0,12077.0,16053.0,1.9095509052276611,0.010403465573993359,0.06875261817611604,0.00947576260977755,-0.09067127108573914,0.058839116245508194,-0.0
194,5,-0.0014924173010513186,0.00033835513750091195,0.002282501896843314,-0.00635506771504879,-0.003961646463721991,-0.009082970209419727,-0.003587162820622325,-0.06096642091870308,0.00018812208145391196,-0.009926432743668556,0.003002934157848358,-0.10674020648002625,0.0,0.0,0.0,0.016625039279460907,0.019709458574652672,-0.0,0.0,0.0,0.0,0.0008653429104015231,0.010384473018348217,9.898321150103584e-05,14286.0,13239.0,11523.0,16440.0,0.45828771591186523,0.3899914622306824,0.2898005247116089,0.6162092685699463,0.0,0.0,0.0,0.0,14635.0,12839.0,12077.0,16053.0,1.9095509052276611,0.010125031228841907,0.07099800390082348,0.007872572203512217,-0.09067127108573914,0.058839116245508194,-0.0
199,5,-0.0013266396708786488,0.00035092196776531637,0.002118572359904647,0.017351282760500908,-0.003092677565291524,0.01603834517300129,-0.003587162820622325,-0.06096642091870308,0.00018812208145391196,-0.009926432743668556,0.003002934157848358,-0.10674020648002625,0.0,0.0,0.0,0.005236981436610222,-0.007727588526904583,-0.0,0.0,0.0,0.0,0.0008653429104015231,0.010384473018348217,9.898321150103584e-05,14286.0,13239.0,11523.0,16440.0,0.45828771591186523,0.3899914622306824,0.2898005247116089,0.6162092685699463,0.0,0.0,0.0,0.0,14635.0,12839.0,12077.0,16053.0,1.7229588031768799,0.010881685441348718,0.06921222847939776,0.00823243221875263,0.032081931829452515,0.01672479696571827,0.0
205,5,0.0003586089878808707,4.071467628818937e-06,-0.00020749797113239765,0.2091703563928604,0.040384989231824875,0.2855437994003296,-0.0036440035328269005,-0.06075397506356239,0.0002189005317632109,-0.00038743726327084005,-0.017001178115606308,-0.05681337043642998,0.0,0.0,0.0,0.005236981436610222,-0.007727588526904583,-0.0,0.0,0.0,0.0,0.005784125532954931,0.024143768474459648,0.00208142027258873,16238.0,11784.0,13861.0,15908.0,0.6004356145858765,0.3040815591812134,0.4299296438694,0.5751041769981384,0.0,0.0,0.0,0.0,14591.0,14435.0,13146.0,15912.0,1.7229588031768799,-0.013483026458240345,0.06541747771136289,-0.0014300172772411743,0.032081931829452515,0.01672479696571827,0.0
210,5,0.00038128317100927234,2.168124183299369e-06,-0.00022951359278522432,0.08638904243707657,0.01638239622116089,0.11685939133167267,-0.0036440035328269005,-0.06075397506356239,0.0002189005317632109,-0.00038743726327084005,-0.017001178115606308,-0.05681337043642998,0.0,0.0,0.0,-0.025227775797247887,0.10096310824155807,-0.0,0.0,0.0,0.0,0.005784125532954931,0.024143768474459648,0.00208142027258873,16238.0,11784.0,13861.0,15908.0,0.6004356145858765,0.3040815591812134,0.4299296438694,0.5751041769981384,0.0,0.0,0.0,0.0,14591.0,14435.0,13146.0,15912.0,3.23862886428833,-0.014049103663997788,0.06526069400304124,-0.0004386488183211967,-0.7863203287124634,-0.15141363441944122,0.0
215,5,0.0003997929161414504,-1.5368103049695492e-05,-0.00025531690334901214,0.03677678853273392,0.008657305501401424,0.04984015226364136,-0.0034843003377318382,-0.06067187339067459,0.00028825842309743166,0.004531002603471279,0.008387413807213306,0.021448448300361633,0.0,0.0,0.0,-0.025227775797247887,0.10096310824155807,-0.0,0.0,0.0,0.0,0.003098462475463748,0.017283320426940918,-0.0010278773261234164,16238.0,11784.0,13861.0,15908.0,0.6004356145858765,0.3040815591812134,0.4299296438694,0.5751041769981384,0.0,0.0,0.0,0.0,15250.0,12988.0,12621.0,16948.0,3.23862886428833,-0.013578303502187361,0.06629629500724366,-0.0006412441346257075,-0.7863203287124634,-0.15141363441944122,0.0
220,5,0.00041630127816461027,-6.7255887188366614e-06,-0.00027173603302799165,0.016691716387867928,0.00242582056671381,0.021906355395913124,-0.0034843003377318382,-0.06067187339067459,0.00028825842309743166,0.004531002603471279,0.008387413807213306,0.021448448300361633,0.0,0.0,0.0,-0.008783849887549877,0.02908843755722046,-0.0,0.0,0.0,0.0,0.003098462475463748,0.017283320426940918,-0.0010278773261234164,16238.0,11784.0,13861.0,15908.0,0.6004356145858765,0.3040815591812134,0.4299296438694,0.5751041769981384,0.0,0.0,0.0,0.0,15250.0,12988.0,12621.0,16948.0,1.9987483024597168,-0.014074579013935426,0.06640876932852112,-7.902534794931134e-05,-0.14007234573364258,-0.03254178911447525,0.0
225,5,0.0004101662489119917,1.720720683806576e-05,-0.00025363158783875406,0.0059404824860394,-0.0019016071455553174,0.006590009666979313,-0.003661969443783164,-0.06095552816987038,-0.00023783024516887963,0.0021840708795934916,0.02379031479358673,0.05621786415576935,0.0,0.0,0.0,-0.008783849887549877,0.02908843755722046,-0.0,0.0,0.0,0.0,-0.006439319346100092,0.05219019204378128,-0.0017707403749227524,21137.0,16630.0,14995.0,21303.0,1.0412567853927612,0.6312927603721619,0.507737934589386,1.0583412647247314,0.0,0.0,0.0,0.0,15402.0,11760.0,13460.0,14587.0,1.9987483024597168,-0.014740460927079261,0.06744840613735971,0.0007385419114247545,-0.14007234573364258,-0.03254178911447525,0.0
230,5,0.0004278124833945185,3.486319110379554e-05,-0.00024300944642163813,0.004493742249906063,-0.002879361156374216,0.0013613469200208783,-0.003661969443783164,-0.06095552816987038,-0.00023783024516887963,0.0021840708795934916,0.02379031479358673,0.05621786415576935,0.0,0.0,0.0,0.0035202219150960445,0.004719493445008993,-0.0,0.0,0.0,0.0,-0.006439319346100092,0.05219019204378128,-0.0017707403749227524,21137.0,16630.0,14995.0,21303.0,1.0412567853927612,0.6312927603721619,0.507737934589386,1.0583412647247314,0.0,0.0,0.0,0.0,15402.0,11760.0,13460.0,14587.0,1.6853842735290527,-0.015388487866073029,0.068539930686276,0.0009956676195366854,-0.019166460260748863,0.010997042059898376,0.0
235,5,0.000439090421423316,7.269848720170557e-05,-0.00019293100922368467,0.0031508482061326504,-0.005691979546099901,-0.005464873742312193,-0.003653762862086296,-0.061860427260398865,-0.0003231367445550859,-0.027944358065724373,0.13193264603614807,-0.03127438575029373,0.0,0.0,0.0,0.0035202219150960445,0.004719493445008993,-0.0,0.0,0.0,0.0,0.000759628601372242,0.03226136043667793,0.0008948888280428946,17083.0,12149.0,13078.0,16567.0,0.6679041981697083,0.3246210217475891,0.37996113300323486,0.6262620091438293,0.0,0.0,0.0,0.0,21531.0,16011.0,15631.0,20922.0,1.6853842735290527,-0.015405345590239384,0.06944619946220397,0.001195049922119649,-0.019166460260748863,0.010997042059898376,0.0
240,5,0.000454449764220044,0.00011689364328049123,-8.506359154125676e-05,0.00310346158221364,-0.007580210920423269,-0.015130038373172283,-0.003653762862086296,-0.061860427260398865,-0.0003231367445550859,-0.027944358065724373,0.13193264603614807,-0.03127438575029373,0.0,0.0,0.0,0.0035202219150960445,0.004719493445008993,-0.0,0.0,0.0,0.0,0.000759628601372242,0.03226136043667793,0.0008948888280428946,17083.0,12149.0,13078.0,16567.0,0.6679041981697083,0.3246210217475891,0.37996113300323486,0.6262620091438293,0.0,0.0,0.0,0.0,21531.0,16011.0,15631.0,20922.0,1.6853842735290527,-0.01582902704794723,0.07017054415125547,0.0017563505435955046,-0.014100948348641396,0.029076650738716125,0.0
245,5,0.00045129426871426404,0.00017846981063485146,-1.8001246644416824e-05,0.0008627262432128191,-0.010421224869787693,-0.014099497348070145,-0.004325671587139368,-0.06292372941970825,-7.761806773487478e-05,-0.11132484674453735,0.15649300813674927,0.034469444304704666,0.0,0.0,0.0,0.009159350767731667,0.0034169082064181566,-0.0,0.0,0.0,0.0,0.005824514199048281,0.01963818445801735,-2.178328577429056e-05,17083.0,12149.0,13078.0,16567.0,0.6679041981697083,0.3246210217475891,0.37996113300323486,0.6262620091438293,0.0,0.0,0.0,0.0,16690.0,12697.0,12586.0,16936.0,1.7127034664154053,-0.016891542450354475,0.07003212034727033,0.0024352973240373043,-0.014100948348641396,0.029076650738716125,0.0
250,5,0.0004309299401938915,0.00023707287618890405,8.562637231079862e-05,-0.0020986285526305437,-0.011200856417417526,-0.018075114116072655,-0.004325671587139368,-0.06292372941970825,-7.761806773487478e-05,-0.11132484674453735,0.15649300813674927,0.034469444304704666,0.0,0.0,0.0,0.009159350767731667,0.0034169082064181566,-0.0,0.0,0.0,0.0,0.005824514199048281,0.01963818445801735,-2.178328577429056e-05,17083.0,12149.0,13078.0,16567.0,0.6679041981697083,0.3246210217475891,0.37996113300323486,0.6262620091438293,0.0,0.0,0.0,0.0,16690.0,12697.0,12586.0,16936.0,1.7127034664154053,-0.020458765255239816,0.06866496953307326,0.0031457174952777603,0.005534740164875984,0.043315887451171875,0.0
255,5,0.00042624218622222543,0.00035501562524586916,0.00010023926733992994,-0.001401983667165041,-0.01863347366452217,-0.008983592502772808,-0.005755212623625994,-0.06334926187992096,-0.00018765736604109406,-0.17757613956928253,-0.09331730008125305,0.02812281623482704,0.0,0.0,0.0,0.01340917032212019,-0.0013180263340473175,-0.0,0.0,0.0,0.0,0.008650021627545357,0.008484099060297012,-0.001101080677472055,13125.0,13154.0,13512.0,15411.0,0.38288429379463196,0.3846403658390045,0.4072544276714325,0.5379243493080139,0.0,0.0,0.0,0.0,14761.0,11574.0,13612.0,14716.0,1.7428516149520874,-0.019005040233618712,0.06768135166510328,0.004649889083902557,0.005534740164875984,0.043315887451171875,0.0
260,5,0.0003554412687662989,0.0004468884435482323,0.00014053931226953864,-0.00905690435320139,-0.01847812719643116,-0.008429441601037979,-0.005755212623625994,-0.06334926187992096,-0.00018765736604109406,-0.17757613956928253,-0.09331730008125305,0.02812281623482704,0.0,0.0,0.0,0.01340917032212019,-0.0013180263340473175,-0.0,0.0,0.0,0.0,0.008650021627545357,0.008484099060297012,-0.001101080677472055,13125.0,13154.0,13512.0,15411.0,0.38288429379463196,0.3846403658390045,0.4072544276714325,0.5379243493080139,0.0,0.0,0.0,0.0,14761.0,11574.0,13612.0,14716.0,1.7428516149520874,-0.01858601193252647,0.06495871998172571,0.006316412560946773,0.005534740164875984,0.043315887451171875,0.0
265,5,0.00025728048058226705,0.0004956419579684734,0.0001717881386866793,-0.015402055345475674,-0.013241673819720745,-0.007121635135263205,-0.009532245807349682,-0.05397506058216095,-0.0001866581296781078,-0.08212503045797348,-0.7304397821426392,0.04999319836497307,0.0,0.0,0.0,0.02111034467816353,-0.007251482456922531,-0.0,0.0,0.0,0.0,0.008180639706552029,-0.0014056265354156494,0.0004229074402246624,13410.0,13302.0,15078.0,13930.0,0.4007481634616852,0.3939222991466522,0.5136921405792236,0.434488981962204,0.0,0.0,0.0,0.0,12721.0,13659.0,13482.0,15337.0,1.8341903686523438,-0.01869654073479371,0.06124139230196315,0.007188979961742575,0.03204221650958061,0.07176119834184647,0.0
270,5,0.00010819072485901415,0.0005429842858575284,0.0002817575295921415,-0.024051593616604805,-0.010977749712765217,-0.016044981777668,-0.009532245807349682,-0.05397506058216095,-0.0001866581296781078,-0.08212503045797348,-0.7304397821426392,0.04999319836497307,0.0,0.0,0.0,0.02111034467816353,-0.007251482456922531,-0.0,0.0,0.0,0.0,0.008180639706552029,-0.0014056265354156494,0.0004229074402246624,13410.0,13302.0,15078.0,13930.0,0.4007481634616852,0.3939222991466522,0.5136921405792236,0.434488981962204,0.0,0.0,0.0,0.0,12721.0,13659.0,13482.0,15337.0,1.8341903686523438,-0.017271984288635498,0.0572559210070028,0.007844117719727935,0.03204221650958061,0.07176119834184647,0.0
276,5,-5.318746389093576e-06,0.0005978730041533709,0.0003188387490808964,-0.02324177324771881,-0.010977741330862045,-0.010867738164961338,-0.009118636138737202,-0.047291550785303116,-0.0003341454139444977,0.13622324168682098,-0.9295492172241211,-0.06043855845928192,0.0,0.0,0.0,0.012615730054676533,-0.019696658477187157,-0.0,0.0,0.0,0.0,0.004558889660984278,-0.01248873770236969,-0.001364327734336257,12012.0,15123.0,14505.0,13950.0,0.31683290004730225,0.5169202089309692,0.47328388690948486,0.43581461906433105,0.0,0.0,0.0,0.0,13273.0,13653.0,15150.0,13641.0,1.88877534866333,-0.016333823153030523,0.05243074009082161,0.008975791865004957,0.08963180333375931,0.04416521266102791,0.0
281,5,-0.0001016026726574637,0.0006098373560234904,0.00030117813730612397,-0.020850781351327896,-0.005826820153743029,-0.002227824181318283,-0.009118636138737202,-0.047291550785303116,-0.0003341454139444977,0.13622324168682098,-0.9295492172241211,-0.06043855845928192,0.0,0.0,0.0,0.012615730054676533,-0.019696658477187157,-0.0,0.0,0.0,0.0,0.004558889660984278,-0.01248873770236969,-0.001364327734336257,12012.0,15123.0,14505.0,13950.0,0.31683290004730225,0.5169202089309692,0.47328388690948486,0.43581461906433105,0.0,0.0,0.0,0.0,13273.0,13653.0,15150.0,13641.0,1.88877534866333,-0.015612188760232576,0.04544084885823683,0.01040956876540358,0.08963180333375931,0.04416521266102791,0.0
286,5,-0.00020639821013901383,0.0005937627865932882,0.0003290123422630131,-0.02091577649116516,-0.00040178478229790926,-0.004231232218444347,-0.006630562711507082,-0.03613990917801857,-0.00038679203134961426,0.262805312871933,-0.9257274270057678,0.01119000744074583,0.0,0.0,0.0,0.007375685963779688,-0.017725154757499695,-0.0,0.0,0.0,0.0,0.0037151125725358725,-0.01835600659251213,0.0004087301786057651,12906.0,15121.0,15754.0,13153.0,0.36938098073005676,0.5168021321296692,0.5634183287620544,0.38458892703056335,0.0,0.0,0.0,0.0,12192.0,15425.0,15344.0,13940.0,1.8446968793869019,-0.014518905281470571,0.04202024430641785,0.009606372008005836,0.07878297567367554,0.025219054892659187,0.0
291,5,-0.00023862955276854336,0.0005479696555994451,0.00037382321897894144,-0.01223407220095396,0.005334464367479086,-0.007069800049066544,-0.006630562711507082,-0.03613990917801857,-0.00038679203134961426,0.262805312871933,-0.9257274270057678,0.01119000744074583,0.0,0.0,0.0,0.007375685963779688,-0.017725154757499695,-0.0,0.0,0.0,0.0,0.0037151125725358725,-0.01835600659251213,0.0004087301786057651,12906.0,15121.0,15754.0,13153.0,0.36938098073005676,0.5168021321296692,0.5634183287620544,0.38458892703056335,0.0,0.0,0.0,0.0,12192.0,15425.0,15344.0,13940.0,1.8446968793869019,-0.017246963385205268,0.034756654238276806,0.008515168333844903,0.07878297567367554,0.025219054892659187,0.0
296,5,-0.0002634137053973973,0.0006892026285640895,0.0003190179995726794,-0.007867726497352123,-0.014814173802733421,0.0037487063091248274,-0.0038421156350523233,-0.029566101729869843,-0.0005788523703813553,0.3796297311782837,-0.7032989859580994,-0.0643124207854271,0.0,0.0,0.0,-0.005203254986554384,-0.011135916225612164,-0.0,0.0,0.0,0.0,-0.0018926596967503428,-0.019549958407878876,-0.001187979942187667,12757.0,16271.0,15038.0,13625.0,0.3603571951389313,0.6030405759811401,0.5108306407928467,0.414546936750412,0.0,0.0,0.0,0.0,13118.0,15724.0,15945.0,12872.0,1.7599773406982422,-0.009210139375939596,0.03842745132760052,0.009699043049072577,0.04722479730844498,-0.01697411760687828,0.0
301,5,-0.0002442975528538227,0.0006833520601503551,0.00020851763838436455,-0.0008531521307304502,-0.005223599262535572,0.014759528450667858,-0.0038421156350523233,-0.029566101729869843,-0.0005788523703813553,0.3796297311782837,-0.7032989859580994,-0.0643124207854271,0.0,0.0,0.0,-0.005203254986554384,-0.011135916225612164,-0.0,0.0,0.0,0.0,-0.0018926596967503428,-0.019549958407878876,-0.001187979942187667,12757.0,16271.0,15038.0,13625.0,0.3603571951389313,0.6030405759811401,0.5108306407928467,0.414546936750412,0.0,0.0,0.0,0.0,13118.0,15724.0,15945.0,12872.0,1.7599773406982422,-0.006726565498281759,0.03731068115311958,0.010143085651379075,0.04722479730844498,-0.01697411760687828,0.0
306,5,-0.00022464277571998537,0.0007104935357347131,0.00024496865808032453,0.0020173117518424988,-0.005346417892724276,0.0015296897618100047,0.00040412263479083776,-0.023472705855965614,-0.0007404650095850229,0.3470818102359772,-0.3039742708206177,0.0016122040105983615,0.0,0.0,0.0,0.007459208834916353,-0.0011243167100474238,-0.0,0.0,0.0,0.0,-0.004245036281645298,-0.009427642449736595,0.0005861205863766372,14199.0,14996.0,14696.0,13365.0,0.4524082541465759,0.5077983736991882,0.4865865707397461,0.3979036808013916,0.0,0.0,0.0,0.0,13051.0,15988.0,14712.0,13359.0,1.6899864673614502,-0.004599433723366893,0.03754606491139631,0.009526108227428462,0.004578378051519394,0.02336561679840088,-0.0
311,5,-0.00021412625210359693,0.0007253415533341467,0.00029795794398523867,0.0020689070224761963,-0.003920324612408876,-0.005746840033680201,0.00040412263479083776,-0.023472705855965614,-0.0007404650095850229,0.3470818102359772,-0.3039742708206177,0.0016122040105983615,0.0,0.0,0.0,0.007459208834916353,-0.0011243167100474238,-0.0,0.0,0.0,0.0,-0.004245036281645298,-0.009427642449736595,0.0005861205863766372,14199.0,14996.0,14696.0,13365.0,0.4524082541465759,0.5077983736991882,0.4865865707397461,0.3979036808013916,0.0,0.0,0.0,0.0,13051.0,15988.0,14712.0,13359.0,1.6899864673614502,-0.0038091604682049746,0.03732447673741744,0.00957376203915363,0.004578378051519394,0.02336561679840088,-0.0
316,5,-0.00021841515263076872,0.000713932269718498,0.0003146218659821898,0.0003128958342131227,-0.00019901597988791764,-0.004298406187444925,0.0022411777172237635,-0.022528687492012978,-0.0008468281594105065,0.1270507127046585,0.03534665331244469,-0.009745791554450989,0.0,0.0,0.0,0.006011535879224539,0.0016173660987988114,-0.0,0.0,0.0,0.0,-0.005647800397127867,0.0026718589942902327,-0.0002970318018924445,14521.0,14173.0,13318.0,14013.0,0.47440508008003235,0.4506862461566925,0.3949459493160248,0.43994006514549255,0.0,0.0,0.0,0.0,14299.0,14662.0,13759.0,13292.0,1.6792939901351929,-0.00690230129438848,0.0370042229016008,0.009172369939633399,-0.0065445369109511375,0.018711816519498825,0.0
322,5,-0.00019831693498417735,0.0007098462083376944,0.0005542694125324488,0.0025369448121637106,0.00041071820305660367,-0.030477069318294525,0.0022411777172237635,-0.022528687492012978,-0.0008468281594105065,0.1270507127046585,0.03534665331244469,-0.009745791554450989,0.0,0.0,0.0,0.006011535879224539,0.0016173660987988114,-0.0,0.0,0.0,0.0,-0.005647800397127867,0.0026718589942902327,-0.0002970318018924445,14521.0,14173.0,13318.0,14013.0,0.47440508008003235,0.4506862461566925,0.3949459493160248,0.43994006514549255,0.0,0.0,0.0,0.0,14299.0,14662.0,13759.0,13292.0,1.6792939901351929,-0.013326454668934118,0.03464116571740847,0.007746925723934343,-0.0065445369109511375,0.018711816519498825,0.0
327,5,-0.00019968676497228444,0.0008534480584785342,0.00047465533134527504,0.0008503981516696513,-0.017067935317754745,-0.002637137658894062,0.0020740139298141003,-0.02416083961725235,-0.0006962344632484019,-0.12197268754243851,0.2356022596359253,-0.0019273851066827774,0.0,0.0,0.0,0.0007809906383045018,0.0021099913865327835,-0.0,0.0,0.0,0.0,0.002868826501071453,0.012837096117436886,0.0006679503130726516,14608.0,12330.0,13196.0,14704.0,0.48046430945396423,0.3350881040096283,0.3872901499271393,0.4871439039707184,0.0,0.0,0.0,0.0,14515.0,12879.0,13317.0,14213.0,1.6493749618530273,-0.005531623492673493,0.03928531669173731,0.010446450321126387,-0.008385935798287392,0.0023876666091382504,0.0
332,5,-0.00013788556680083275,0.0008970830822363496,0.0004795819113496691,0.007756302133202553,-0.012063374742865562,-0.0016460439655929804,0.0020740139298141003,-0.02416083961725235,-0.0006962344632484019,-0.12197268754243851,0.2356022596359253,-0.0019273851066827774,0.0,0.0,0.0,0.0007809906383045018,0.0021099913865327835,-0.0,0.0,0.0,0.0,0.002868826501071453,0.012837096117436886,0.0006679503130726516,14608.0,12330.0,13196.0,14704.0,0.48046430945396423,0.3350881040096283,0.3872901499271393,0.4871439039707184,0.0,0.0,0.0,0.0,14515.0,12879.0,13317.0,14213.0,1.6493749618530273,-0.007269225751450568,0.04180559417411307,0.00958456083702818,-0.008385935798287392,0.0023876666091382504,0.0
337,5,-0.00010237413516733795,0.0009656420443207026,0.0005268899258226156,0.007363893091678619,-0.013052424415946007,-0.006335378158837557,0.0004641906125470996,-0.02577323652803898,-0.0006919144652783871,-0.2331310510635376,0.13554218411445618,0.007494358811527491,0.0,0.0,0.0,0.015219309367239475,0.006598170381039381,-0.0,0.0,0.0,0.0,0.005927247926592827,0.013158611953258514,4.44199686171487e-05,14287.0,12214.0,13303.0,14866.0,0.4583699405193329,0.328398734331131,0.39399465918540955,0.49853068590164185,0.0,0.0,0.0,0.0,14274.0,12487.0,12709.0,15167.0,1.7795792818069458,-0.007301466145671674,0.043162233750483524,0.00876093924578582,-0.028290415182709694,0.05019845813512802,0.0
342,5,-9.784074791241437e-05,0.0009713551262393594,0.0005021703545935452,0.003489564172923565,-0.005906539969146252,0.00043219601502642035,0.0004641906125470996,-0.02577323652803898,-0.0006919144652783871,-0.2331310510635376,0.13554218411445618,0.007494358811527491,0.0,0.0,0.0,0.015219309367239475,0.006598170381039381,-0.0,0.0,0.0,0.0,0.005927247926592827,0.013158611953258514,4.44199686171487e-05,14287.0,12214.0,13303.0,14866.0,0.4583699405193329,0.328398734331131,0.39399465918540955,0.49853068590164185,0.0,0.0,0.0,0.0,14274.0,12487.0,12709.0,15167.0,1.7795792818069458,-0.007629330410804292,0.040126163768874686,0.009454922015190926,-0.028290415182709694,0.05019845813512802,0.0
347,5,-0.00011450402234913781,0.0010042052017524838,0.0005155787221156061,-0.0006037674029357731,-0.006304620299488306,-0.0014361285138875246,-0.0023022317327558994,-0.026027116924524307,-0.0009647655533626676,-0.21755652129650116,-0.09098435938358307,-0.042548682540655136,0.0,0.0,0.0,0.008697876706719398,0.0030412536580115557,-0.0,0.0,0.0,0.0,0.0051014618948102,0.0070265852846205235,-0.0010346362832933664,13346.0,13145.0,13091.0,14714.0,0.39668455719947815,0.38409224152565,0.38074758648872375,0.4878505766391754,0.0,0.0,0.0,0.0,13018.0,13534.0,13054.0,14687.0,1.707149863243103,-0.007907284635457666,0.03915253273972727,0.009280994579649,-0.01251005195081234,0.027522223070263863,-0.0
352,5,-0.00011759474728023633,0.001024785335175693,0.0004759583680424839,-0.0006123941275291145,-0.0049914708361029625,0.004179992247372866,-0.0023022317327558994,-0.026027116924524307,-0.0009647655533626676,-0.21755652129650116,-0.09098435938358307,-0.042548682540655136,0.0,0.0,0.0,0.008697876706719398,0.0030412536580115557,-0.0,0.0,0.0,0.0,0.0051014618948102,0.0070265852846205235,-0.0010346362832933664,13346.0,13145.0,13091.0,14714.0,0.39668455719947815,0.38409224152565,0.38074758648872375,0.4878505766391754,0.0,0.0,0.0,0.0,13018.0,13534.0,13054.0,14687.0,1.707149863243103,-0.008361830945121461,0.03682200716680819,0.009457698197608902,-0.01251005195081234,0.027522223070263863,-0.0
357,5,-0.0001564894337207079,0.001030242652632296,0.0003987686359323561,-0.004912319593131542,-0.002651460934430361,0.010934768244624138,-0.0023022317327558994,-0.026027116924524307,-0.0009647655533626676,-0.21755652129650116,-0.09098435938358307,-0.042548682540655136,0.0,0.0,0.0,0.007776293437927961,-0.000731254112906754,-0.0,0.0,0.0,0.0,0.0051014618948102,0.0070265852846205235,-0.0010346362832933664,13346.0,13145.0,13091.0,14714.0,0.39668455719947815,0.38409224152565,0.38074758648872375,0.4878505766391754,0.0,0.0,0.0,0.0,13018.0,13534.0,13054.0,14687.0,1.6920216083526611,-0.008024455850720955,0.03482650945626257,0.009364801168628421,0.0029813500586897135,0.024388166144490242,-0.0
362,5,-0.0002207318029832095,0.001065029762685299,0.00044837448513135314,-0.009674012660980225,-0.005235040094703436,-0.0015787946758791804,-0.003569108434021473,-0.024177033454179764,-0.0010120886145159602,-0.1066855862736702,-0.32039013504981995,0.0165831558406353,0.0,0.0,0.0,0.007776293437927961,-0.000731254112906754,-0.0,0.0,0.0,0.0,0.008136370219290257,0.00037206741399131715,-3.207964982721023e-05,13709.0,13409.0,14728.0,14459.0,0.4199880063533783,0.40066882967948914,0.48879268765449524,0.47012975811958313,0.0,0.0,0.0,0.0,13296.0,13945.0,14377.0,14688.0,1.6920216083526611,-0.0075089571918897915,0.03582209663334954,0.008548271023807267,0.0029813500586897135,0.024388166144490242,-0.0
367,5,-0.00029276456916704774,0.001045527751557529,0.00043729436583817005,-0.012513537891209126,0.0002462292031850666,0.0006980953039601445,-0.003569108434021473,-0.024177033454179764,-0.0010120886145159602,-0.1066855862736702,-0.32039013504981995,0.0165831558406353,0.0,0.0,0.0,0.007881554774940014,-0.008913945406675339,-0.0,0.0,0.0,0.0,0.008136370219290257,0.00037206741399131715,-3.207964982721023e-05,13709.0,13409.0,14728.0,14459.0,0.4199880063533783,0.40066882967948914,0.48879268765449524,0.47012975811958313,0.0,0.0,0.0,0.0,13296.0,13945.0,14377.0,14688.0,1.7473547458648682,-0.007363590949276772,0.031130232663206962,0.009590601931547172,0.03753044456243515,0.02552662417292595,0.0
372,5,-0.00037612870801240206,0.0010240731062367558,0.0004957125056535006,-0.015009112656116486,0.0026730429381132126,-0.006730941124260426,-0.0037860742304474115,-0.019892187789082527,-0.0012641986832022667,0.04091629013419151,-0.4263608455657959,-0.0020512042101472616,0.0,0.0,0.0,0.007881554774940014,-0.008913945406675339,-0.0,0.0,0.0,0.0,0.00047813515993766487,-0.00826295092701912,-0.0007778441649861634,12959.0,14198.0,14141.0,13918.0,0.3725907802581787,0.4523860812187195,0.4485124349594116,0.4336605668067932,0.0,0.0,0.0,0.0,13089.0,14235.0,14119.0,13780.0,1.7473547458648682,-0.0055403756903747116,0.029524043608667207,0.008779916909121563,0.03753044456243515,0.02552662417292595,0.0
377,5,-0.0004415624716784805,0.0010163942351937294,0.0005513103678822517,-0.013855695724487305,0.0019906852394342422,-0.009364115074276924,-0.0037860742304474115,-0.019892187789082527,-0.0012641986832022667,0.04091629013419151,-0.4263608455657959,-0.0020512042101472616,0.0,0.0,0.0,-0.001317117246799171,-0.013599728234112263,-0.0,0.0,0.0,0.0,0.00047813515993766487,-0.00826295092701912,-0.0007778441649861634,12959.0,14198.0,14141.0,13918.0,0.3725907802581787,0.4523860812187195,0.4485124349594116,0.4336605668067932,0.0,0.0,0.0,0.0,13089.0,14235.0,14119.0,13780.0,1.7819393873214722,-0.0037482833668258378,0.026987147352082776,0.009174963615269607,0.05839306861162186,-0.00435036513954401,0.0
382,5,-0.0005123952869325876,0.0009995941072702408,0.0005974326049908996,-0.01404221449047327,0.0028122826479375362,-0.009280318394303322,-0.0028676227666437626,-0.016433091834187508,-0.0013302615843713284,0.1448201984167099,-0.4627886414527893,-0.006815006956458092,0.0,0.0,0.0,-0.001317117246799171,-0.013599728234112263,-0.0,0.0,0.0,0.0,0.0006351516349241138,-0.010256180539727211,-0.0014401432126760483,12879.0,14509.0,14173.0,13399.0,0.36776304244995117,0.4735780954360962,0.4506481885910034,0.40003228187561035,0.0,0.0,0.0,0.0,12612.0,14836.0,13910.0,13566.0,1.7819393873214722,-0.004453576102443591,0.022920925298427087,0.009396956936550233,0.05839306861162186,-0.00435036513954401,0.0
387,5,-0.0005683220224454999,0.0009871912188827991,0.0006670329603366554,-0.012328097596764565,0.002613266697153449,-0.01206416916102171,-0.0028676227666437626,-0.016433091834187508,-0.0013302615843713284,0.1448201984167099,-0.4627886414527893,-0.006815006956458092,0.0,0.0,0.0,-0.0015211927238851786,-0.012983860448002815,-0.0,0.0,0.0,0.0,0.0006351516349241138,-0.010256180539727211,-0.0014401432126760483,12879.0,14509.0,14173.0,13399.0,0.36776304244995117,0.4735780954360962,0.4506481885910034,0.40003228187561035,0.0,0.0,0.0,0.0,12612.0,14836.0,13910.0,13566.0,1.7745752334594727,-0.0035330129105140473,0.02120396387668512,0.010075526292492793,0.055518463253974915,-0.005003649741411209,0.0
393,5,-0.0006267933640629053,0.0009756838553585112,0.0007220709812827408,-0.011947798542678356,0.002426189836114645,-0.011430231854319572,-0.0012345360592007637,-0.011243825778365135,-0.0016968819545581937,0.11045025289058685,-0.4007455110549927,-0.01877114363014698,0.0,0.0,0.0,-0.0015211927238851786,-0.012983860448002815,-0.0,0.0,0.0,0.0,-0.0015274181496351957,-0.008478650823235512,-0.0013490315759554505,13044.0,15242.0,14040.0,13966.0,0.37782782316207886,0.5255167484283447,0.44173550605773926,0.4368593096733093,0.0,0.0,0.0,0.0,12943.0,14844.0,14435.0,13558.0,1.7745752334594727,-0.003410852427903512,0.019127592086040642,0.009856002676600879,0.055518463253974915,-0.005003649741411209,0.0
398,5,-0.0007048252737149596,0.0009669138235040009,0.000882659456692636,-0.014142950065433979,0.0020228747744113207,-0.023842711001634598,-0.0012345360592007637,-0.011243825778365135,-0.0016968819545581937,0.11045025289058685,-0.4007455110549927,-0.01877114363014698,0.0,0.0,0.0,-0.0011322182836011052,-0.011418224312365055,-0.0,0.0,0.0,0.0,-0.0015274181496351957,-0.008478650823235512,-0.0013490315759554505,13044.0,15242.0,14040.0,13966.0,0.37782782316207886,0.5255167484283447,0.44173550605773926,0.4368593096733093,0.0,0.0,0.0,0.0,12943.0,14844.0,14435.0,13558.0,1.7553693056106567,-0.005330750107001766,0.02072241929858264,0.00820664248785367,0.04829578474164009,-0.0036838932428508997,0.0
403,5,-0.0006656211917288601,0.0009038076968863606,0.0007746671326458454,-0.0009526885114610195,0.008381886407732964,0.0034219950903207064,-0.0005436328938230872,-0.008755815215408802,-0.0020089393947273493,0.054696857929229736,-0.24449706077575684,-0.03575018048286438,0.0,0.0,0.0,-0.0011322182836011052,-0.011418224312365055,-0.0,0.0,0.0,0.0,-0.00021982098405715078,-0.0034937276504933834,-0.00034756073728203773,13763.0,14379.0,14150.0,13974.0,0.42346692085266113,0.4646241068840027,0.4491109848022461,0.43737322092056274,0.0,0.0,0.0,0.0,13285.0,14968.0,14258.0,13815.0,1.7553693056106567,-0.009084606135806252,0.017469507611898475,0.0074164486802668125,0.04829578474164009,-0.0036838932428508997,0.0
408,5,-0.0008109562913887203,0.0009553636773489416,0.0010526275727897882,-0.017821285873651505,-0.0028339640703052282,-0.03198644891381264,-0.0005436328938230872,-0.008755815215408802,-0.0020089393947273493,0.054696857929229736,-0.24449706077575684,-0.03575018048286438,0.0,0.0,0.0,-0.008383524604141712,-0.0017776829190552235,-0.0,0.0,0.0,0.0,-0.00021982098405715078,-0.0034937276504933834,-0.00034756073728203773,13763.0,14379.0,14150.0,13974.0,0.42346692085266113,0.4646241068840027,0.4491109848022461,0.43737322092056274,0.0,0.0,0.0,0.0,13285.0,14968.0,14258.0,13815.0,1.6995775699615479,-0.0056980206513327775,0.019892266185534836,0.007427805694756265,0.007280005142092705,-0.02640991099178791,-0.0
413,5,-0.0007214447832666337,0.0009976951405405998,0.0008050153846852481,0.0036128652282059193,-0.006213364657014608,0.016918882727622986,-0.00033943579182960093,-0.0071242814883589745,-0.0020900771487504244,-0.017588337883353233,-0.03748604655265808,0.008904964663088322,0.0,0.0,0.0,-0.008383524604141712,-0.0017776829190552235,-0.0,0.0,0.0,0.0,0.0010741745354607701,0.0018669290002435446,-0.0004484113014768809,13912.0,13936.0,13746.0,14382.0,0.4332439601421356,0.4348696768283844,0.4223705232143402,0.4648851454257965,0.0,0.0,0.0,0.0,14003.0,14113.0,14274.0,13880.0,1.6995775699615479,-0.0035279585937419092,0.02201528423080457,0.008488394653104464,0.007280005142092705,-0.02640991099178791,-0.0
418,5,-0.0007168094743974507,0.0009927083738148212,0.0007248814799822867,0.002001383574679494,-0.0018869321793317795,0.016383621841669083,-0.00033943579182960093,-0.0071242814883589745,-0.0020900771487504244,-0.017588337883353233,-0.03748604655265808,0.008904964663088322,0.0,0.0,0.0,0.009112969972193241,0.0023165785241872072,-0.0,0.0,0.0,0.0,0.0010741745354607701,0.0018669290002435446,-0.0004484113014768809,13912.0,13936.0,13746.0,14382.0,0.4332439601421356,0.4348696768283844,0.4223705232143402,0.4648851454257965,0.0,0.0,0.0,0.0,14003.0,14113.0,14274.0,13880.0,1.7075369358062744,-0.003961999417893096,0.022070573719603068,0.009110378907460888,-0.009531266056001186,0.028842153027653694,-0.0
423,5,-0.0007399366004392505,0.0010060020722448826,0.0007143226685002446,-0.001974700717255473,-0.0023500125389546156,0.00782050471752882,-0.0016256313538178802,-0.009257043711841106,-0.001965353963896632,-0.07286695390939713,0.13038696348667145,0.0038046715781092644,0.0,0.0,0.0,0.009112969972193241,0.0023165785241872072,-0.0,0.0,0.0,0.0,0.0015720698283985257,0.003819187404587865,3.546191146597266e-05,14214.0,13426.0,13242.0,14225.0,0.4534643888473511,0.4017617106437683,0.390170693397522,0.4541807770729065,0.0,0.0,0.0,0.0,14194.0,13600.0,13920.0,14260.0,1.7075369358062744,-0.004794105455007864,0.02397613394191867,0.008821956694292952,-0.009531266056001186,0.028842153027653694,-0.0
428,5,-0.0007729558274149895,0.0009916069684550166,0.0006630446878261864,-0.00475218566134572,0.0007874052389524877,0.009281555190682411,-0.0016256313538178802,-0.009257043711841106,-0.001965353963896632,-0.07286695390939713,0.13038696348667145,0.0038046715781092644,0.0,0.0,0.0,0.004637690726667643,-0.0028548131231218576,-0.0,0.0,0.0,0.0,0.0015720698283985257,0.003819187404587865,3.546191146597266e-05,14214.0,13426.0,13242.0,14225.0,0.4534643888473511,0.4017617106437683,0.390170693397522,0.4541807770729065,0.0,0.0,0.0,0.0,14194.0,13600.0,13920.0,14260.0,1.6755961179733276,-0.0049941687267147615,0.023009075633994527,0.009248839938822084,0.011526400223374367,0.014403792098164558,-0.0
433,5,-0.0007888866239227355,0.0009720727684907615,0.000598124461248517,-0.0038125726860016584,0.002659065183252096,0.011503053829073906,-0.0016256313538178802,-0.009257043711841106,-0.001965353963896632,-0.07286695390939713,0.13038696348667145,0.0038046715781092644,0.0,0.0,0.0,0.004637690726667643,-0.0028548131231218576,-0.0,0.0,0.0,0.0,0.00018548144726082683,0.004323894623667002,-0.001471064635552466,13530.0,14005.0,13045.0,14512.0,0.4083842635154724,0.43945515155792236,0.3779330849647522,0.4738050699234009,0.0,0.0,0.0,0.0,14000.0,13612.0,13081.0,14408.0,1.6755961179733276,-0.004772987759339594,0.022210191802798436,0.009193078738872727,0.011526400223374367,0.014403792098164558,-0.0
438,5,-0.0009489153744652867,0.000943644205108285,0.000734171480871737,-0.014129169285297394,0.003255303716287017,-0.010335168801248074,-0.0016256313538178802,-0.009257043711841106,-0.001965353963896632,-0.07286695390939713,0.13038696348667145,0.0038046715781092644,0.0,0.0,0.0,-0.001467464491724968,-0.00462328502908349,-0.0,0.0,0.0,0.0,0.00018548144726082683,0.004323894623667002,-0.001471064635552466,13530.0,14005.0,13045.0,14512.0,0.4083842635154724,0.43945515155792236,0.3779330849647522,0.4738050699234009,0.0,0.0,0.0,0.0,14000.0,13612.0,13081.0,14408.0,1.6777150630950928,-0.0075768421483821125,0.02176366618209136,0.008515259554577687,0.018690407276153564,-0.004563458263874054,-0.0
443,5,-0.0010263894218951464,0.0008731791167519987,0.0007522000232711434,-0.014948549680411816,0.00975793320685625,-0.006297497544437647,-0.0016256313538178802,-0.009257043711841106,-0.001965353963896632,-0.07286695390939713,0.13038696348667145,0.0038046715781092644,0.0,0.0,0.0,-0.001467464491724968,-0.00462328502908349,-0.0,0.0,0.0,0.0,0.00018548144726082683,0.004323894623667002,-0.001471064635552466,13530.0,14005.0,13045.0,14512.0,0.4083842635154724,0.43945515155792236,0.3779330849647522,0.4738050699234009,0.0,0.0,0.0,0.0,14000.0,13612.0,13081.0,14408.0,1.6777150630950928,-0.0069534353614519265,0.018328194606376656,0.008499326189696742,0.018690407276153564,-0.004563458263874054,-0.0
448,5,-0.0011239107698202133,0.0008417333592660725,0.0008311392739415169,-0.017681986093521118,0.007676661480218172,-0.011991706676781178,-0.0035689962096512318,-0.009080606512725353,-0.0025668807793408632,-0.09464164078235626,-0.1542312204837799,-0.04969196394085884,0.0,0.0,0.0,-0.009454679675400257,-0.014158966951072216,-0.0,0.0,0.0,0.0,0.005437012761831284,0.0005630239611491561,-0.0012230098946020007,12801.0,14056.0,13589.0,14738.0,0.362988144159317,0.4428006112575531,0.41221800446510315,0.48953017592430115,0.0,0.0,0.0,0.0,13623.0,13300.0,13803.0,14504.0,1.8103351593017578,-0.007486763535897413,0.015613441492418077,0.008878039224481452,0.061760179698467255,-0.031725071370601654,0.0
454,5,-0.00123886379878968,0.0007930410793051124,0.0009156212909147143,-0.020867155864834785,0.008913739584386349,-0.014934525825083256,-0.0035689962096512318,-0.009080606512725353,-0.0025668807793408632,-0.09464164078235626,-0.1542312204837799,-0.04969196394085884,0.0,0.0,0.0,-0.009454679675400257,-0.014158966951072216,-0.0,0.0,0.0,0.0,0.005437012761831284,0.0005630239611491561,-0.0012230098946020007,12801.0,14056.0,13589.0,14738.0,0.362988144159317,0.4428006112575531,0.41221800446510315,0.48953017592430115,0.0,0.0,0.0,0.0,13623.0,13300.0,13803.0,14504.0,1.8103351593017578,-0.009186887012976687,0.016765580641500723,0.007277931551485603,0.061760179698467255,-0.031725071370601654,0.0
459,5,-0.0012615123996511102,0.0007211204501800239,0.0008780790958553553,-0.011064690537750721,0.01219597365707159,-0.0014687441289424896,-0.003980816807597876,-0.007166495081037283,-0.0027316398918628693,-0.029165953397750854,-0.3042371869087219,0.00015046593034639955,0.0,0.0,0.0,-0.008396405726671219,-0.018962519243359566,-0.0,0.0,0.0,0.0,0.0034184157848358154,-0.0066102952696383,-0.00011295721196802333,12820.0,14088.0,14266.0,13548.0,0.36412325501441956,0.4449863135814667,0.4569385349750519,0.4095480144023895,0.0,0.0,0.0,0.0,12701.0,14111.0,13693.0,14209.0,1.863224983215332,-0.011842720249425958,0.012920868017966911,0.00653946920591575,0.08512789756059647,-0.028997329995036125,0.0
464,5,-0.0013957371702417731,0.0007412059349007905,0.0010632571065798402,-0.02053285948932171,0.0024681303184479475,-0.022808857262134552,-0.003980816807597876,-0.007166495081037283,-0.0027316398918628693,-0.029165953397750854,-0.3042371869087219,0.00015046593034639955,0.0,0.0,0.0,-0.008396405726671219,-0.018962519243359566,-0.0,0.0,0.0,0.0,0.0034184157848358154,-0.0066102952696383,-0.00011295721196802333,12820.0,14088.0,14266.0,13548.0,0.36412325501441956,0.4449863135814667,0.4569385349750519,0.4095480144023895,0.0,0.0,0.0,0.0,12701.0,14111.0,13693.0,14209.0,1.863224983215332,-0.011682039993091368,0.010628773911022278,0.006796708482691112,0.08512789756059647,-0.028997329995036125,0.0
469,5,-0.0014357911422848701,0.0007727454067207873,0.0009441811707802117,-0.013019612058997154,-0.002797488821670413,0.0051655699498951435,-0.003980816807597876,-0.007166495081037283,-0.0027316398918628693,-0.029165953397750854,-0.3042371869087219,0.00015046593034639955,0.0,0.0,0.0,-0.0014896155335009098,-0.01900804042816162,-0.0,0.0,0.0,0.0,-4.699024066212587e-05,-0.007404957432299852,-0.0011116936802864075,12650.0,14704.0,13678.0,13688.0,0.3539375364780426,0.4871760308742523,0.4179874360561371,0.41861405968666077,0.0,0.0,0.0,0.0,13091.0,14181.0,14330.0,13150.0,1.850273609161377,-0.006782043755007853,0.013436833361642975,0.008562390962240079,0.084741972386837,-0.005108794197440147,0.0
