timestamp,dt,pos_x,pos_y,pos_z,vel_x,vel_y,vel_z,roll,pitch,yaw,agv_x,agv_y,agv_z,x_ref,y_ref,z_ref,roll_ref,pitch_ref,yaw_ref,x_vel_ref,y_vel_ref,z_vel_ref,x_torque,y_torque,z_torque,w0,w1,w2,w3,u0,u1,u2,u3,m0req,m1req,m2req,m3req,thrust0,thrust1,thrust2,thrust3,thrust_ref,roll_vicon,pitch_vicon,yaw_vicon,acc_x,acc_y,acc_z
5,5,0.0,0.0,0.0,0.0007274531526491046,0.0021186070516705513,-0.002528772223740816,-0.003612991189584136,-0.11451549082994461,0.011386032216250896,0.0018862426513805985,-0.0004975570482201874,-0.000856455066241324,0.0,0.0,0.0,-0.002585084643214941,0.000682789133861661,-0.0,0.0,0.0,0.0,0.00019763418822549284,0.034552112221717834,0.001104721799492836,1495.0,1495.0,1495.0,1495.0,0.0,0.0,0.0,0.0,0.0,0.0,0.0,0.0,1495.0,1495.0,1495.0,1495.0,1.6580562591552734,0.026859571104231296,-0.06106366831346739,-0.01618473749866567,-0.0027279492933303118,-0.007944776676595211,0.0
46,41,0.0,0.0,0.0,0.014650668017566204,-0.0028839195147156715,-0.011224580928683281,-0.003612991189584136,-0.11451549082994461,0.011386032216250896,0.0018862426513805985,-0.0004975570482201874,-0.000856455066241324,0.0,0.0,0.0,-0.002585084643214941,0.000682789133861661,-0.0,0.0,0.0,0.0,0.00019763418822549284,0.034552112221717834,0.001104721799492836,1495.0,1495.0,1495.0,1495.0,0.0,0.0,0.0,0.0,0.0,0.0,0.0,0.0,1495.0,1495.0,1495.0,1495.0,1.6580562591552734,0.023046266400871897,-0.04417568068519035,-0.013202533057101496,-0.0027279492933303118,-0.007944776676595211,0.0
51,5,0.0,0.0,0.0,0.014497199095785618,-0.005698919761925936,-0.009050696156919003,-0.003612991189584136,-0.11451549082994461,0.011386032216250896,0.0018862426513805985,-0.0004975570482201874,-0.000856455066241324,0.0,0.0,0.0,-0.002585084643214941,0.000682789133861661,-0.0,0.0,0.0,0.0,0.00019763418822549284,0.034552112221717834,0.001104721799492836,1495.0,1495.0,1495.0,1495.0,0.0,0.0,0.0,0.0,0.0,0.0,0.0,0.0,1495.0,1495.0,1495.0,1495.0,1.6580562591552734,0.022344006850517687,-0.03980906723452476,-0.013151794294619774,-0.0027279492933303118,-0.007944776676595211,0.0
56,5,0.0,0.0,0.0,0.013749385252594948,-0.0010856878943741322,-0.003899021539837122,-0.003612991189584136,-0.11451549082994461,0.011386032216250896,0.0018862426513805985,-0.0004975570482201874,-0.000856455066241324,0.0,0.0,0.0,0.006471635308116674,0.012664190493524075,-0.0,0.0,0.0,0.0,0.00021855741215404123,0.03457971662282944,0.0011730745900422335,1495.0,1495.0,1495.0,1495.0,0.0,0.0,0.0,0.0,0.0,0.0,0.0,0.0,1495.0,1495.0,1495.0,1495.0,1.781585693359375,0.019854919433267594,-0.036862761684935325,-0.013776728240676136,-0.05436449497938156,0.02137094922363758,0.0
61,5,0.0,0.0,0.0,0.013749385252594948,-0.0010856878943741322,-0.003899021539837122,-0.003612991189584136,-0.11451549082994461,0.011386032216250896,0.0018862426513805985,-0.0004975570482201874,-0.000856455066241324,0.0,0.0,0.0,0.006471635308116674,0.012664190493524075,-0.0,0.0,0.0,0.0,0.00021855741215404123,0.03457971662282944,0.0011730745900422335,1495.0,1495.0,1495.0,1495.0,0.0,0.0,0.0,0.0,0.0,0.0,0.0,0.0,1495.0,1495.0,1495.0,1495.0,1.781585693359375,0.019854919433267594,-0.036862761684935325,-0.013776728240676136,-0.05436449497938156,0.02137094922363758,0.0
66,5,0.0,0.0,0.0,0.013749385252594948,-0.0010856878943741322,-0.003899021539837122,-0.003612991189584136,-0.11451549082994461,0.011386032216250896,0.0018862426513805985,-0.0004975570482201874,-0.000856455066241324,0.0,0.0,0.0,0.0012451624497771263,0.012130305171012878,-0.0,0.0,0.0,0.0,0.00021855741215404123,0.03457971662282944,0.0011730745900422335,1495.0,1495.0,1495.0,1495.0,0.0,0.0,0.0,0.0,0.0,0.0,0.0,0.0,1495.0,1495.0,1495.0,1495.0,1.764013409614563,0.019854919433267594,-0.036862761684935325,-0.013776728240676136,-0.05156019330024719,0.004071329720318317,0.0
75,9,-0.0004783307376783341,-0.00012011295621050522,-0.0003111007099505514,-0.028551358729600906,0.010743760503828526,0.01804952323436737,-0.003631036030128598,-0.11455169320106506,0.01137453131377697,-0.00020303386554587632,-0.006255664397031069,-0.0029285261407494545,0.0,0.0,0.0,0.0012451624497771263,0.012130305171012878,-0.0,0.0,0.0,0.0,0.00021833916252944618,0.03457297012209892,0.0010190283646807075,16179.0,10380.0,11407.0,15538.0,0.5958421230316162,0.23132285475730896,0.2835874855518341,0.5473038554191589,0.0,0.0,0.0,0.0,16218.0,10319.0,11463.0,15496.0,1.764013409614563,0.0268887510571129,-0.06229590058638257,-0.017468553230388942,-0.05156019330024719,0.004071329720318317,0.0
84,9,-0.000452588516054675,-0.0001370563404634595,-0.00032272227690555155,-0.0024844857398420572,0.004250081721693277,0.0042818025685846806,-0.003631036030128598,-0.11455169320106506,0.01137453131377697,-0.00020303386554587632,-0.006255664397031069,-0.0029285261407494545,0.0,0.0,0.0,0.0012451624497771263,0.012130305171012878,-0.0,0.0,0.0,0.0,0.00021833916252944618,0.03457297012209892,0.0010190283646807075,16179.0,10380.0,11407.0,15538.0,0.5958421230316162,0.23132285475730896,0.2835874855518341,0.5473038554191589,0.0,0.0,0.0,0.0,16218.0,10319.0,11463.0,15496.0,1.764013409614563,0.026928339169895905,-0.061664992950902775,-0.016392746466289142,-0.05156019330024719,0.004071329720318317,0.0
89,5,-0.00046545860823243856,-6.404391751857474e-05,-0.0002517829998396337,-0.0025382060557603836,-0.007061457727104425,-0.006799994967877865,-0.0036340574733912945,-0.11451879143714905,0.01135681290179491,-0.002152368426322937,-0.0014857982750982046,-0.002578489249572158,0.0,0.0,0.0,0.008275804109871387,-0.002943718573078513,-0.0,0.0,0.0,0.0,0.0009761451510712504,0.038034047931432724,0.0010307643096894026,16682.0,10520.0,11676.0,16134.0,0.6353923678398132,0.23812410235404968,0.29813632369041443,0.5923605561256409,0.0,0.0,0.0,0.0,16717.0,10463.0,11726.0,16097.0,1.70328950881958,0.028737664933445234,-0.06253794457043349,-0.01603435934152396,0.0120815085247159,0.026127520948648453,0.0
97,8,-0.0004706285835709423,-0.00010146474232897162,-0.00028356167604215443,-0.0016356778796762228,0.0016659159446135163,0.0010934447636827826,-0.0036340574733912945,-0.11451879143714905,0.01135681290179491,-0.002152368426322937,-0.0014857982750982046,-0.002578489249572158,0.0,0.0,0.0,0.008275804109871387,-0.002943718573078513,-0.0,0.0,0.0,0.0,0.0009761451510712504,0.038034047931432724,0.0010307643096894026,16682.0,10520.0,11676.0,16134.0,0.6353923678398132,0.23812410235404968,0.29813632369041443,0.5923605561256409,0.0,0.0,0.0,0.0,16717.0,10463.0,11726.0,16097.0,1.70328950881958,0.02712883302139981,-0.0617088687892635,-0.016819756951274075,0.0120815085247159,0.026127520948648453,0.0
102,5,-0.0004599075473379344,-0.0001401190529577434,-0.00029900053050369024,0.0006322542321868241,0.005304884165525436,0.002290040720254183,-0.003613777458667755,-0.114512138068676,0.011374233290553093,-0.0001406739029334858,-0.005305781029164791,0.0018357873195782304,0.0,0.0,0.0,0.008275804109871387,-0.002943718573078513,-0.0,0.0,0.0,0.0,-0.0003538081073202193,0.03354961797595024,0.0011152542429044843,16731.0,10442.0,11747.0,16081.0,0.6393442153930664,0.2343115508556366,0.30208536982536316,0.5882723331451416,0.0,0.0,0.0,0.0,16727.0,10444.0,11749.0,16082.0,1.70328950881958,0.026477574074455116,-0.061554423329490855,-0.016707454079912417,0.0120815085247159,0.026127520948648453,0.0
107,5,-0.00046165866660885513,-0.00012531428365036845,-0.00029171083588153124,4.276607432984747e-05,0.0003453809185884893,4.125106715946458e-05,-0.003613777458667755,-0.114512138068676,0.011374233290553093,-0.0001406739029334858,-0.005305781029164791,0.0018357873195782304,0.0,0.0,0.0,-0.00663016689941287,-4.0317569073522463e-05,-0.0,0.0,0.0,0.0,-0.0003538081073202193,0.03354961797595024,0.0011152542429044843,16731.0,10442.0,11747.0,16081.0,0.6393442153930664,0.2343115508556366,0.30208536982536316,0.5882723331451416,0.0,0.0,0.0,0.0,16727.0,10444.0,11749.0,16082.0,1.6815571784973145,0.027588297539937426,-0.06142779958169999,-0.016839304946379266,0.00016336097905877978,-0.020665165036916733,0.0
112,5,-0.0004395782307256013,-0.00010604897397570312,-0.0002705834631342441,0.0026667576748877764,-0.002173685235902667,-0.002518784487619996,-0.0036396048963069916,-0.11451549082994461,0.011406739242374897,-0.0012766752624884248,-0.006191012915223837,0.0009713803883641958,0.0,0.0,0.0,-0.00663016689941287,-4.0317569073522463e-05,-0.0,0.0,0.0,0.0,-0.00032793046557344496,0.03358355164527893,0.0012021261500194669,16198.0,10428.0,11943.0,15700.0,0.597344160079956,0.23363396525382996,0.3129827678203583,0.559328556060791,0.0,0.0,0.0,0.0,16295.0,10528.0,11645.0,15455.0,1.6815571784973145,0.02859888660854467,-0.062191915158852806,-0.015677672497354814,0.00016336097905877978,-0.020665165036916733,0.0
117,5,-0.0004611802869476378,-0.00013490587298292667,-0.0003176157479174435,-0.0015255421167239547,0.002593353623524308,0.004636361729353666,-0.003608608851209283,-0.11443806439638138,0.011422703042626381,0.0008498537936247885,-0.009105866774916649,0.0005661789909936488,0.0,0.0,0.0,0.002461337950080633,0.001895796274766326,-0.0,0.0,0.0,0.0,0.0023646228946745396,0.03348599746823311,0.0011720035690814257,16337.0,10516.0,11535.0,15508.0,0.6081206202507019,0.2379220873117447,0.2904556095600128,0.5450587868690491,0.0,0.0,0.0,0.0,16194.0,10438.0,11943.0,15698.0,1.658498764038086,0.026307288946977318,-0.06183322128566636,-0.017215232024510873,-0.007576299831271172,0.007566484622657299,0.0
126,9,-0.00047285345499403775,-0.00010830152314156294,-0.0003147223615087569,-0.001124497503042221,0.0014241812750697136,0.003451057244092226,-0.003608608851209283,-0.11443806439638138,0.011422703042626381,0.0008498537936247885,-0.009105866774916649,0.0005661789909936488,0.0,0.0,0.0,0.002461337950080633,0.001895796274766326,-0.0,0.0,0.0,0.0,0.0023646228946745396,0.03348599746823311,0.0011720035690814257,16337.0,10516.0,11535.0,15508.0,0.6081206202507019,0.2379220873117447,0.2904556095600128,0.5450587868690491,0.0,0.0,0.0,0.0,16194.0,10438.0,11943.0,15698.0,1.658498764038086,0.027500343372419737,-0.06223197103732755,-0.01638840738645083,-0.007576299831271172,0.007566484622657299,0.0
131,5,-0.0004667312605306506,-0.0001310644147451967,-0.0003255922347307205,0.0002848647709470242,0.0033012183848768473,0.0026848088018596172,-0.0036013901699334383,-0.11443937569856644,0.011441996321082115,0.001276244642212987,-0.0034304019063711166,0.0006073847762309015,0.0,0.0,0.0,-0.0019312985241413116,-0.0017075956566259265,-0.0,0.0,0.0,0.0,-0.0006028937641531229,0.03446366637945175,0.0011787416879087687,16343.0,10505.0,11529.0,15513.0,0.6085897088050842,0.23741449415683746,0.29014796018600464,0.5454050302505493,0.0,0.0,0.0,0.0,16345.0,10499.0,11542.0,15504.0,1.658835768699646,0.025420236482180423,-0.06220216858998772,-0.017040508451122736,0.0068255760706961155,-0.005938282702118158,0.0
137,5,-0.0004609751049429178,-5.811980372527614e-05,-0.00028977362671867013,0.0008046842995099723,-0.0074328649789094925,-0.0032243093010038137,-0.0036013901699334383,-0.11443937569856644,0.011441996321082115,0.001276244642212987,-0.0034304019063711166,0.0006073847762309015,0.0,0.0,0.0,-0.0019312985241413116,-0.0017075956566259265,-0.0,0.0,0.0,0.0,-0.0006028937641531229,0.03446366637945175,0.0011787416879087687,16343.0,10505.0,11529.0,15513.0,0.6085897088050842,0.23741449415683746,0.29014796018600464,0.5454050302505493,0.0,0.0,0.0,0.0,16345.0,10499.0,11542.0,15504.0,1.658835768699646,0.029964935309634594,-0.0630681395954228,-0.016089816099576448,0.0068255760706961155,-0.005938282702118158,0.0
142,5,-0.0004556387721095234,-7.196974183898419e-05,-0.0002807062992360443,0.0009622348006814718,-0.001311153289861977,-0.0023778011091053486,-0.0036013901699334383,-0.11443937569856644,0.011441996321082115,0.001276244642212987,-0.0034304019063711166,0.0006073847762309015,0.0,0.0,0.0,0.008743688464164734,0.00011536730744410306,-0.0,0.0,0.0,0.0,-0.0006028937641531229,0.03446366637945175,0.0011787416879087687,16343.0,10505.0,11529.0,15513.0,0.6085897088050842,0.23741449415683746,0.29014796018600464,0.5454050302505493,0.0,0.0,0.0,0.0,16345.0,10499.0,11542.0,15504.0,1.700008511543274,0.028896398185660522,-0.06381987794115443,-0.016000604998636037,-0.00047257327241823077,0.0275514367967844,0.0
147,5,-0.00045221653999760747,-0.00012687347771134228,-0.0002920511469710618,0.0007955611799843609,0.006063987500965595,0.0004102594102732837,-0.003601777134463191,-0.11447145789861679,0.011446645483374596,0.0009386001620441675,0.004967834334820509,-0.0017594055971130729,0.0,0.0,0.0,0.008743688464164734,0.00011536730744410306,-0.0,0.0,0.0,0.0,0.0012046699412167072,0.035132501274347305,0.0011745687806978822,16197.0,10176.0,11493.0,15594.0,0.5972699522972107,0.22157010436058044,0.2882154583930969,0.5514432787895203,0.0,0.0,0.0,0.0,16205.0,10161.0,11523.0,15573.0,1.700008511543274,0.027407059427422904,-0.06160062015233997,-0.016515138087798056,-0.00047257327241823077,0.0275514367967844,0.0
152,5,-0.0004464555240701884,-0.00011282420018687844,-0.0002804386313073337,0.001009548781439662,0.0007396808359771967,-0.0012293972540646791,-0.003601777134463191,-0.11447145789861679,0.011446645483374596,0.0009386001620441675,0.004967834334820509,-0.0017594055971130729,0.0,0.0,0.0,-0.007487391587346792,0.0001191586852655746,-0.0,0.0,0.0,0.0,0.0012046699412167072,0.035132501274347305,0.0011745687806978822,16197.0,10176.0,11493.0,15594.0,0.5972699522972107,0.22157010436058044,0.2882154583930969,0.5514432787895203,0.0,0.0,0.0,0.0,16205.0,10161.0,11523.0,15573.0,1.6890106201171875,0.02793804476828173,-0.060789099451409014,-0.016656846086492663,-0.0004849509277846664,-0.023440349847078323,0.0
157,5,-0.00043289054883643985,-9.274894546251744e-05,-0.0002486386219970882,0.002031613839790225,-0.002113157883286476,-0.0043077594600617886,-0.003609493374824524,-0.11444084346294403,0.011454028077423573,0.004648596979677677,-0.0017800991190597415,-0.00020976655650883913,0.0,0.0,0.0,-0.007487391587346792,0.0001191586852655746,-0.0,0.0,0.0,0.0,0.00033491067006252706,0.03397209197282791,0.001149454852566123,16182.0,10365.0,11522.0,15472.0,0.5960553288459778,0.23059360682964325,0.28979387879371643,0.5423929691314697,0.0,0.0,0.0,0.0,16188.0,10350.0,11530.0,15469.0,1.6890106201171875,0.0282754288320786,-0.06209184820584709,-0.015742614748642362,-0.0004849509277846664,-0.023440349847078323,0.0
162,5,-0.00043981923954561353,-0.00010087179543916136,-0.00024784650304354727,-1.879679984995164e-05,0.00012947857612743974,-0.0018181580817326903,-0.003609493374824524,-0.11444084346294403,0.011454028077423573,0.004648596979677677,-0.0017800991190597415,-0.00020976655650883913,0.0,0.0,0.0,0.002409400651231408,0.0013066272949799895,-0.0,0.0,0.0,0.0,0.00033491067006252706,0.03397209197282791,0.001149454852566123,16182.0,10365.0,11522.0,15472.0,0.5960553288459778,0.23059360682964325,0.28979387879371643,0.5423929691314697,0.0,0.0,0.0,0.0,16188.0,10350.0,11530.0,15469.0,1.659502625465393,0.027670939735573236,-0.06148503547733705,-0.01633180784208501,-0.005224926397204399,0.007411306258291006,0.0
167,5,-0.00043122400529682636,-7.723910675849766e-05,-0.0002451834443490952,0.0010239094262942672,-0.0027841313276439905,-0.0010468325344845653,-0.0035938341170549393,-0.11446155607700348,0.011476583778858185,-0.00021843714057467878,-0.000338915444444865,0.0014809744898229837,0.0,0.0,0.0,0.002409400651231408,0.0013066272949799895,-0.0,0.0,0.0,0.0,0.002471285406500101,0.034579742699861526,0.001242103986442089,16258.0,10284.0,11870.0,15741.0,0.6019852161407471,0.22671610116958618,0.3088589310646057,0.562448263168335,0.0,0.0,0.0,0.0,16239.0,10312.0,11842.0,15763.0,1.659502625465393,0.02799122157588725,-0.06028313624389669,-0.01560447457368806,-0.005224926397204399,0.007411306258291006,0.0
172,5,-0.00046955113066360354,-0.00012362895358819515,-0.00031286515877582133,-0.004189690109342337,0.004453128669410944,0.00770307332277298,-0.0035938341170549393,-0.11446155607700348,0.011476583778858185,-0.00021843714057467878,-0.000338915444444865,0.0014809744898229837,0.0,0.0,0.0,0.003254099516198039,0.00036342808743938804,-0.0,0.0,0.0,0.0,0.002471285406500101,0.034579742699861526,0.001242103986442089,16258.0,10284.0,11870.0,15741.0,0.6019852161407471,0.22671610116958618,0.3088589310646057,0.562448263168335,0.0,0.0,0.0,0.0,16239.0,10312.0,11842.0,15763.0,1.659984827041626,0.02696583446791913,-0.0621843218066046,-0.01634281703015915,-0.0014536913949996233,0.010012490674853325,0.0
177,5,-0.0004736725240945816,-6.842796574346721e-05,-0.0002853071200661361,-0.0021704433020204306,-0.00484286667779088,-0.00022573578462470323,-0.003595976857468486,-0.11445356905460358,0.01148215215653181,0.0015746788121759892,0.0008481952827423811,0.002833676291629672,0.0,0.0,0.0,0.003254099516198039,0.00036342808743938804,-0.0,0.0,0.0,0.0,-0.0007766947383061051,0.03461026772856712,0.0012094839476048946,16404.0,10514.0,11561.0,15519.0,0.6134200692176819,0.2378254532814026,0.29187577962875366,0.5458893179893494,0.0,0.0,0.0,0.0,16245.0,10102.0,11591.0,15533.0,1.659984827041626,0.029000729095106696,-0.06263492579602808,-0.015775122578751,-0.0014536913949996233,0.010012490674853325,0.0
182,5,-0.0004724290338344872,-7.104643736965954e-05,-0.0002852538600564003,-0.0007189594325609505,-0.0016229301691055298,-9.66830994002521e-05,-0.003595976857468486,-0.11445356905460358,0.01148215215653181,0.0015746788121759892,0.0008481952827423811,0.002833676291629672,0.0,0.0,0.0,0.005703732371330261,-0.002655132906511426,-0.0,0.0,0.0,0.0,-0.0007766947383061051,0.03461026772856712,0.0012094839476048946,16404.0,10514.0,11561.0,15519.0,0.6134200692176819,0.2378254532814026,0.29187577962875366,0.5458893179893494,0.0,0.0,0.0,0.0,16245.0,10102.0,11591.0,15533.0,1.6818684339523315,0.029047150028617297,-0.06298727860817435,-0.016059844622351497,0.010760256089270115,0.0177809689193964,0.0
187,5,-0.0004647654131986201,-7.353627006523311e-05,-0.0002723460493143648,0.0006320507964119315,-0.0003503920161165297,-0.0015876119723543525,-0.0036494641099125147,-0.11448955535888672,0.011551598086953163,-0.002057630568742752,-0.001005441416054964,-0.003854950424283743,0.0,0.0,0.0,0.005703732371330261,-0.002655132906511426,-0.0,0.0,0.0,0.0,0.0012342964764684439,0.03502440080046654,0.001468054368160665,16245.0,10105.0,11585.0,15536.0,0.6009537577629089,0.21822278201580048,0.2932124435901642,0.5471137166023254,0.0,0.0,0.0,0.0,16068.0,10387.0,11336.0,15719.0,1.6818684339523315,0.029781470336988275,-0.06218528522139745,-0.01553041697712085,0.010760256089270115,0.0177809689193964,0.0
192,5,-0.0004440420598257333,-8.070508192759007e-05,-0.0002859397791326046,0.0027396243531256914,0.0007201009429991245,0.0009962018812075257,-0.0036494641099125147,-0.11448955535888672,0.011551598086953163,-0.002057630568742752,-0.001005441416054964,-0.003854950424283743,0.0,0.0,0.0,0.0002941186830867082,-5.083708674646914e-05,-0.0,0.0,0.0,0.0,0.0012342964764684439,0.03502440080046654,0.001468054368160665,16245.0,10105.0,11585.0,15536.0,0.6009537577629089,0.21822278201580048,0.2932124435901642,0.5471137166023254,0.0,0.0,0.0,0.0,16068.0,10387.0,11336.0,15719.0,1.6615705490112305,0.02907585992732491,-0.06290353718299493,-0.016346951300685635,0.0002035407378571108,0.0009058367577381432,0.0
197,5,-0.0004436640301719308,-8.848563447827473e-05,-0.00028853226103819907,0.0011412129970267415,0.0012217065086588264,0.0007095809560269117,-0.003680482041090727,-0.11441213637590408,0.01148028764873743,0.0031369023490697145,-0.01993420720100403,-0.019345710054039955,0.0,0.0,0.0,0.0002941186830867082,-5.083708674646914e-05,-0.0,0.0,0.0,0.0,0.0014127535978332162,0.034512847661972046,0.0009834689553827047,16045.0,10403.0,11411.0,15685.0,0.5855320692062378,0.23243823647499084,0.28381386399269104,0.5582007169723511,0.0,0.0,0.0,0.0,16073.0,10502.0,11664.0,15700.0,1.6615705490112305,0.0277557217057511,-0.06295926062589807,-0.016644475039398008,0.0002035407378571108,0.0009058367577381432,0.0
202,5,-0.0004451145068742335,-8.747756510274485e-05,-0.00027435238007456064,0.0002824258408509195,0.00036771458690054715,-0.0014177561970427632,-0.003680482041090727,-0.11441213637590408,0.01148028764873743,0.0031369023490697145,-0.01993420720100403,-0.019345710054039955,0.0,0.0,0.0,-0.0016483652871102095,0.00045506551396101713,-0.0,0.0,0.0,0.0,0.0014127535978332162,0.034512847661972046,0.0009834689553827047,16045.0,10403.0,11411.0,15685.0,0.5855320692062378,0.23243823647499084,0.28381386399269104,0.5582007169723511,0.0,0.0,0.0,0.0,16073.0,10502.0,11664.0,15700.0,1.6600571870803833,0.028828830188700316,-0.06250720041684907,-0.01632423038106458,-0.001820322242565453,-0.0050720637664198875,0.0
208,5,-0.0004619556711986661,-0.00012197641626698896,-0.00029270260711200535,-0.0019079699413850904,0.004286947660148144,0.0016349260695278645,-0.0036290164571255445,-0.11432653665542603,0.011622549965977669,0.0004962473176419735,-0.002703008009120822,0.018189579248428345,0.0,0.0,0.0,-0.0016483652871102095,0.00045506551396101713,-0.0,0.0,0.0,0.0,0.0007639746181666851,0.03448840230703354,0.0005628637736663222,16393.0,9977.0,12095.0,15378.0,0.6125761866569519,0.21223600208759308,0.321565181016922,0.5354911088943481,0.0,0.0,0.0,0.0,16116.0,10427.0,11701.0,15678.0,1.6600571870803833,0.026773516501910063,-0.06141360651413907,-0.01710876291777048,-0.001820322242565453,-0.0050720637664198875,0.0
213,5,-0.00044659481500275433,-0.00013262793072499335,-0.00032049487344920635,0.0010801175376400352,0.0029929610900580883,0.0039890422485768795,-0.0036290164571255445,-0.11432653665542603,0.011622549965977669,0.0004962473176419735,-0.002703008009120822,0.018189579248428345,0.0,0.0,0.0,-0.005385634955018759,-0.0024029749911278486,-0.0,0.0,0.0,0.0,0.0007639746181666851,0.03448840230703354,0.0005628637736663222,16393.0,9977.0,12095.0,15378.0,0.6125761866569519,0.21223600208759308,0.321565181016922,0.5354911088943481,0.0,0.0,0.0,0.0,16116.0,10427.0,11701.0,15678.0,1.678062081336975,0.026497203954831332,-0.061783959858496544,-0.01676249377478373,0.009716334752738476,-0.016751345247030258,0.0
218,5,-0.000457809743238613,-8.853578037815168e-05,-0.00026225706096738577,-0.0009137471206486225,-0.004093873780220747,-0.005392922088503838,-0.0036290164571255445,-0.11432653665542603,0.011622549965977669,0.0004962473176419735,-0.002703008009120822,0.018189579248428345,0.0,0.0,0.0,-0.005385634955018759,-0.0024029749911278486,-0.0,0.0,0.0,0.0,0.0007639746181666851,0.03448840230703354,0.0005628637736663222,16393.0,9977.0,12095.0,15378.0,0.6125761866569519,0.21223600208759308,0.321565181016922,0.5354911088943481,0.0,0.0,0.0,0.0,16116.0,10427.0,11701.0,15678.0,1.678062081336975,0.028596548959605752,-0.06304494896008474,-0.015729893409692962,0.009716334752738476,-0.016751345247030258,0.0
223,5,-0.00047453551087528467,-0.00013421867333818227,-0.0002935124502982944,-0.0023725880309939384,0.003844397608190775,0.00159347802400589,-0.003621908603236079,-0.1142798364162445,0.011404740624129772,0.008375144563615322,-0.015268993563950062,-0.017107898369431496,0.0,0.0,0.0,0.0048034535720944405,-0.0014836270129308105,-0.0,0.0,0.0,0.0,0.0005216620047576725,0.03461302071809769,0.001769496127963066,16045.0,10532.0,11314.0,15691.0,0.585538923740387,0.23871596157550812,0.27865010499954224,0.5586655735969543,0.0,0.0,0.0,0.0,16059.0,10518.0,11335.0,15671.0,1.669052243232727,0.02593175789546139,-0.061353084296036635,-0.016806002122894317,0.00596679886803031,0.014860349707305431,0.0
228,5,-0.00045449024764820933,-8.630886441096663e-05,-0.0002442455443087965,0.0014563958393409848,-0.004211418330669403,-0.005274636670947075,-0.003621908603236079,-0.1142798364162445,0.011404740624129772,0.008375144563615322,-0.015268993563950062,-0.017107898369431496,0.0,0.0,0.0,0.0048034535720944405,-0.0014836270129308105,-0.0,0.0,0.0,0.0,0.0005216620047576725,0.03461302071809769,0.001769496127963066,16045.0,10532.0,11314.0,15691.0,0.585538923740387,0.23871596157550812,0.27865010499954224,0.5586655735969543,0.0,0.0,0.0,0.0,16059.0,10518.0,11335.0,15671.0,1.669052243232727,0.028269756270401653,-0.062385927183973976,-0.016224109731419977,0.00596679886803031,0.014860349707305431,0.0
233,5,-0.0004315684491302818,-9.888405475066975e-05,-0.00025707430904731154,0.003333172295242548,-0.00017554467194713652,-0.000570401200093329,-0.0036407574079930782,-0.11418221145868301,0.011475816369056702,-0.010263591073453426,-0.0006020590080879629,0.03784899413585663,0.0,0.0,0.0,0.00495315995067358,0.0007309975917451084,-0.0,0.0,0.0,0.0,-0.00012055756087647751,0.03419826552271843,-0.0004384490312077105,16495.0,9822.0,11885.0,15229.0,0.6205668449401855,0.20513534545898438,0.30974245071411133,0.524612545967102,0.0,0.0,0.0,0.0,16430.0,9942.0,11745.0,15331.0,1.6679195165634155,0.02695075647608009,-0.06222061468695482,-0.01553965879379315,-0.0029379038605839014,0.015313087962567806,0.0
238,5,-0.0003992936108261347,-0.00010544135147938505,-0.00022342702141031623,0.005206251051276922,0.0007166581926867366,-0.00426583644002676,-0.0036407574079930782,-0.11418221145868301,0.011475816369056702,-0.010263591073453426,-0.0006020590080879629,0.03784899413585663,0.0,0.0,0.0,0.00495315995067358,0.0007309975917451084,-0.0,0.0,0.0,0.0,-0.00012055756087647751,0.03419826552271843,-0.0004384490312077105,16495.0,9822.0,11885.0,15229.0,0.6205668449401855,0.20513534545898438,0.30974245071411133,0.524612545967102,0.0,0.0,0.0,0.0,16430.0,9942.0,11745.0,15331.0,1.6679195165634155,0.02524397663806383,-0.060290952145035,-0.016363075278299718,-0.0029379038605839014,0.015313087962567806,0.0
243,5,-0.0003853401867672801,-0.00011197772982995957,-0.00020777933241333812,0.0037569112610071898,0.0010710287606343627,-0.0035840575583279133,-0.0038263259921222925,-0.11433106660842896,0.011160217225551605,-0.025408973917365074,0.03195047378540039,-0.028622174635529518,0.0,0.0,0.0,-0.001055183238349855,0.004291057586669922,-0.0,0.0,0.0,0.0,0.0022262022830545902,0.034537892788648605,0.0001808396918931976,15467.0,11210.0,10723.0,16306.0,0.5420143604278564,0.27313584089279175,0.2481873631477356,0.6057145595550537,0.0,0.0,0.0,0.0,16537.0,10055.0,11885.0,15283.0,1.6733345985412598,0.023247035332463816,-0.05705453802481353,-0.017502035926804653,-0.017302045598626137,-0.003272796981036663,0.0
248,5,-0.0002461227122694254,8.706041626282968e-06,1.9066672393819317e-05,0.012808865867555141,-0.00948175135999918,-0.02015323005616665,-0.0038263259921222925,-0.11433106660842896,0.011160217225551605,-0.025408973917365074,0.03195047378540039,-0.028622174635529518,0.0,0.0,0.0,-0.001055183238349855,0.004291057586669922,-0.0,0.0,0.0,0.0,0.0022262022830545902,0.034537892788648605,0.0001808396918931976,15467.0,11210.0,10723.0,16306.0,0.5420143604278564,0.27313584089279175,0.2481873631477356,0.6057145595550537,0.0,0.0,0.0,0.0,16537.0,10055.0,11885.0,15283.0,1.6733345985412598,0.021913623313398013,-0.052292629278468804,-0.014636468686236512,-0.017302045598626137,-0.003272796981036663,0.0
253,5,-0.00017492238839622587,2.8769798518624157e-05,0.00013571469753514975,0.013667582534253597,-0.006200351286679506,-0.022059055045247078,-0.004427183419466019,-0.11471912264823914,0.010982542298734188,-0.07267078012228012,0.002337926533073187,-0.11432550847530365,0.0,0.0,0.0,0.01077605877071619,0.010863752104341984,-0.0,0.0,0.0,0.0,0.0032790349796414375,0.034437548369169235,0.003615692723542452,16871.0,8627.0,12866.0,14830.0,0.6506309509277344,0.15432941913604736,0.3669532537460327,0.4960058331489563,0.0,0.0,0.0,0.0,15104.0,11680.0,10202.0,16644.0,1.78231942653656,0.018576744855314516,-0.04919027911539848,-0.014744718526712802,-0.04665342718362808,0.035599078983068466,0.0
258,5,-0.0001237287651747465,9.798985411180183e-05,0.00031116700847633183,0.011610269546508789,-0.01078654732555151,-0.029877901077270508,-0.004427183419466019,-0.11471912264823914,0.010982542298734188,-0.07267078012228012,0.002337926533073187,-0.11432550847530365,0.0,0.0,0.0,0.01077605877071619,0.010863752104341984,-0.0,0.0,0.0,0.0,0.0032790349796414375,0.034437548369169235,0.003615692723542452,16871.0,8627.0,12866.0,14830.0,0.6506309509277344,0.15432941913604736,0.3669532537460327,0.4960058331489563,0.0,0.0,0.0,0.0,15104.0,11680.0,10202.0,16644.0,1.78231942653656,0.018575837313448463,-0.045706656932966425,-0.013280166052112687,-0.04665342718362808,0.035599078983068466,0.0
264,5,-0.00011962985445279628,0.00013931805733591318,0.0004894416779279709,0.005135976243764162,-0.009274004027247429,-0.033344123512506485,-0.00864447746425867,-0.1125134602189064,0.010648053139448166,-0.2932429313659668,-0.27778303623199463,-0.049996599555015564,0.0,0.0,0.0,0.012395142577588558,0.00996511522680521,-0.0,0.0,0.0,0.0,0.003112344304099679,0.03375473991036415,-0.0015238355845212936,15367.0,11239.0,10918.0,16309.0,0.5346735119819641,0.2746592164039612,0.25804799795150757,0.6059538722038269,0.0,0.0,0.0,0.0,16264.0,9680.0,12163.0,15458.0,1.78389310836792,0.01519242387213695,-0.044590796780181206,-0.012914632549929844,-0.0428314246237278,0.04098346829414368,0.0
269,5,-0.00011158016422996297,0.00025698047829791903,0.0007253464427776635,0.003020353615283966,-0.01782909221947193,-0.041646216064691544,-0.00864447746425867,-0.1125134602189064,0.010648053139448166,-0.2932429313659668,-0.27778303623199463,-0.049996599555015564,0.0,0.0,0.0,0.012395142577588558,0.00996511522680521,-0.0,0.0,0.0,0.0,0.003112344304099679,0.03375473991036415,-0.0015238355845212936,15367.0,11239.0,10918.0,16309.0,0.5346735119819641,0.2746592164039612,0.25804799795150757,0.6059538722038269,0.0,0.0,0.0,0.0,16264.0,9680.0,12163.0,15458.0,1.78389310836792,0.01623513592036845,-0.04577151385372693,-0.011773454450676806,-0.0428314246237278,0.04098346829414368,0.0
274,5,-0.00015339907258749008,0.00029390156851150095,0.0009257440688088536,-0.00381012842990458,-0.0115621667355299,-0.04070620238780975,-0.011005050502717495,-0.10898344963788986,0.011291367001831532,-0.3178113102912903,-0.603364109992981,-0.004566770512610674,0.0,0.0,0.0,0.020355643704533577,0.0024510922376066446,-0.0,0.0,0.0,0.0,0.004017061088234186,0.029048621654510498,0.0026326272636651993,16256.0,10436.0,13036.0,15829.0,0.6018622517585754,0.2340182065963745,0.37736546993255615,0.569073498249054,0.0,0.0,0.0,0.0,16081.0,10112.0,12171.0,15448.0,1.80959153175354,0.012253100717534403,-0.04620823287290247,-0.013170733143291641,-0.01068566832691431,0.06826835870742798,0.0
279,5,-0.000217707987758331,0.00034351201611571014,0.001133242272771895,-0.009241120889782906,-0.01057812012732029,-0.041182272136211395,-0.011005050502717495,-0.10898344963788986,0.011291367001831532,-0.3178113102912903,-0.603364109992981,-0.004566770512610674,0.0,0.0,0.0,0.020355643704533577,0.0024510922376066446,-0.0,0.0,0.0,0.0,0.004017061088234186,0.029048621654510498,0.0026326272636651993,16256.0,10436.0,13036.0,15829.0,0.6018622517585754,0.2340182065963745,0.37736546993255615,0.569073498249054,0.0,0.0,0.0,0.0,16081.0,10112.0,12171.0,15448.0,1.80959153175354,0.010662130151740314,-0.051193340586783306,-0.012132783552537892,-0.01068566832691431,0.06826835870742798,0.0
284,5,-0.000874947989359498,0.00020759005565196276,0.001026806770823896,-0.08256524801254272,0.012079386971890926,-0.0037006502971053123,-0.015057091601192951,-0.09905783087015152,0.010928358882665634,-0.3484315574169159,-1.0483280420303345,0.020051736384630203,0.0,0.0,0.0,0.012649161741137505,-0.0084016602486372,-0.0,0.0,0.0,0.0,0.007190997246652842,0.02522718533873558,0.00011153102241223678,15566.0,11344.0,13168.0,15805.0,0.5493221879005432,0.2802385985851288,0.38552793860435486,0.5672306418418884,0.0,0.0,0.0,0.0,15451.0,11553.0,12375.0,16390.0,1.772421956062317,0.017022467172852718,-0.08821283108735771,-0.015965522094786074,0.03587932512164116,0.04155433923006058,0.0
289,5,-0.001024241209961474,0.00014238656149245799,0.0012496152194216847,-0.05094128102064133,0.012656173668801785,-0.028217267245054245,-0.015057091601192951,-0.09905783087015152,0.010928358882665634,-0.3484315574169159,-1.0483280420303345,0.020051736384630203,0.0,0.0,0.0,0.012649161741137505,-0.0084016602486372,-0.0,0.0,0.0,0.0,0.007190997246652842,0.02522718533873558,0.00011153102241223678,15566.0,11344.0,13168.0,15805.0,0.5493221879005432,0.2802385985851288,0.38552793860435486,0.5672306418418884,0.0,0.0,0.0,0.0,15451.0,11553.0,12375.0,16390.0,1.772421956062317,0.009597376783709958,-0.09480740069265041,-0.018055793960896637,0.03587932512164116,0.04155433923006058,0.0
294,5,-0.0012187461834400892,0.00016134331235662103,0.0014867204008623958,-0.04371711239218712,0.0027876594103872776,-0.03973952308297157,-0.017963457852602005,-0.08831241726875305,0.011344030499458313,-0.34150394797325134,-1.5740886926651,-0.05229039117693901,0.0,0.0,0.0,0.012649161741137505,-0.0084016602486372,-0.0,0.0,0.0,0.0,0.00848248228430748,0.01538156159222126,0.0009781853295862675,14709.0,12261.0,13795.0,15436.0,0.4875061810016632,0.3310945928096771,0.4255835711956024,0.5397087335586548,0.0,0.0,0.0,0.0,15922.0,10744.0,14143.0,15024.0,1.772421956062317,0.00852263095198083,-0.10117674069609076,-0.017163476540284994,0.17067426443099976,-0.009568695910274982,0.0
299,5,-0.0014204970793798566,0.00017280712199863046,0.001683095353655517,-0.041696950793266296,-0.0002605935442261398,-0.03946080431342125,-0.017963457852602005,-0.08831241726875305,0.011344030499458313,-0.34150394797325134,-1.5740886926651,-0.05229039117693901,0.0,0.0,0.0,-0.002499832771718502,-0.034305885434150696,-0.0,0.0,0.0,0.0,0.00848248228430748,0.01538156159222126,0.0009781853295862675,14709.0,12261.0,13795.0,15436.0,0.4875061810016632,0.3310945928096771,0.4255835711956024,0.5397087335586548,0.0,0.0,0.0,0.0,15922.0,10744.0,14143.0,15024.0,2.0650665760040283,0.007764317737258361,-0.11013590317076154,-0.016381477851648122,0.17067426443099976,-0.009568695910274982,0.0
304,5,-0.0016609240556135774,0.0002451225300319493,0.0019248127937316895,-0.045530013740062714,-0.00878208503127098,-0.044790416955947876,-0.02125319465994835,-0.06619998067617416,0.011096314527094364,-0.203012615442276,-2.1015779972076416,-0.009507585316896439,0.0,0.0,0.0,-0.002499832771718502,-0.034305885434150696,-0.0,0.0,0.0,0.0,0.009912227280437946,0.0037418499123305082,-6.593552097911015e-05,13891.0,13221.0,14698.0,14917.0,0.4318682849407196,0.3888497054576874,0.486723393201828,0.5021501183509827,0.0,0.0,0.0,0.0,13654.0,13374.0,13756.0,15864.0,2.0650665760040283,0.010119998779141067,-0.12119823816826623,-0.01542504823319773,0.17067426443099976,-0.009568695910274982,0.0
309,5,-0.0017955556977540255,0.00030967421480454504,0.002030949341133237,-0.03436780348420143,-0.011259036138653755,-0.030652545392513275,-0.02125319465994835,-0.06619998067617416,0.011096314527094364,-0.203012615442276,-2.1015779972076416,-0.009507585316896439,0.0,0.0,0.0,0.008829846046864986,-0.035655826330184937,-0.0,0.0,0.0,0.0,0.009912227280437946,0.0037418499123305082,-6.593552097911015e-05,13891.0,13221.0,14698.0,14917.0,0.4318682849407196,0.3888497054576874,0.486723393201828,0.5021501183509827,0.0,0.0,0.0,0.0,13654.0,13374.0,13756.0,15864.0,2.0945122241973877,0.014591648119792841,-0.13338464230718639,-0.013459612678938863,0.17991043627262115,0.034279488027095795,0.0
314,5,-0.0020412278827279806,0.00042417761869728565,0.0023345493245869875,-0.04322778806090355,-0.018244022503495216,-0.04869302362203598,-0.02203316241502762,-0.04769938439130783,0.011532294563949108,-0.006350316107273102,-2.5102522373199463,-0.05572686716914177,0.0,0.0,0.0,0.008829846046864986,-0.035655826330184937,-0.0,0.0,0.0,0.0,0.007517984602600336,-0.011906241066753864,0.0007603854755870998,12789.0,14306.0,15414.0,13591.0,0.3622754216194153,0.4596961736679077,0.5381254553794861,0.4123249053955078,0.0,0.0,0.0,0.0,12926.0,16552.0,16556.0,14075.0,2.0945122241973877,0.020520784484415727,-0.14851511182513427,-0.010839769219971795,0.17991043627262115,0.034279488027095795,0.0
319,5,-0.002364521147683263,0.0004202905693091452,0.0025781928561627865,-0.05608631670475006,-0.006831163074821234,-0.04871444031596184,-0.02203316241502762,-0.04769938439130783,0.011532294563949108,-0.006350316107273102,-2.5102522373199463,-0.05572686716914177,0.0,0.0,0.0,0.01813877560198307,-0.03420202434062958,-0.0,0.0,0.0,0.0,0.007517984602600336,-0.011906241066753864,0.0007603854755870998,12789.0,14306.0,15414.0,13591.0,0.3622754216194153,0.4596961736679077,0.5381254553794861,0.4123249053955078,0.0,0.0,0.0,0.0,12926.0,16552.0,16556.0,14075.0,2.104462146759033,0.021416738808028198,-0.163606350074193,-0.010350586482818058,0.1733759045600891,0.07074803858995438,0.0
324,5,-0.0026483600959181786,0.00039793463656678796,0.0027953756507486105,-0.056495197117328644,-4.97533219459001e-05,-0.04554770514369011,-0.02203316241502762,-0.04769938439130783,0.011532294563949108,-0.006350316107273102,-2.5102522373199463,-0.05572686716914177,0.0,0.0,0.0,0.01813877560198307,-0.03420202434062958,-0.0,0.0,0.0,0.0,0.007517984602600336,-0.011906241066753864,0.0007603854755870998,12789.0,14306.0,15414.0,13591.0,0.3622754216194153,0.4596961736679077,0.5381254553794861,0.4123249053955078,0.0,0.0,0.0,0.0,12926.0,16552.0,16556.0,14075.0,2.104462146759033,0.022265561605090155,-0.17687034920762565,-0.010791864331101974,0.1733759045600891,0.07074803858995438,0.0
330,5,-0.0029155786614865065,0.000393263268051669,0.003062673145905137,-0.05466430261731148,0.0005406602285802364,-0.05029477924108505,-0.020919736474752426,-0.01631053537130356,0.011922195553779602,0.16581764817237854,-2.73408579826355,0.02931634895503521,0.0,0.0,0.0,0.0005836481577716768,-0.04279674217104912,-0.0,0.0,0.0,0.0,0.0030249643605202436,-0.028671182692050934,0.0013285684399306774,13624.0,16149.0,17477.0,12694.0,0.4144442677497864,0.5935580730438232,0.7005318403244019,0.35653233528137207,0.0,0.0,0.0,0.0,13655.0,16147.0,18043.0,12343.0,2.1968202590942383,0.023556461722343294,-0.18781140205209076,-0.010164763074841213,0.22647719085216522,0.00237658922560513,0.0
335,5,-0.0031581425573676825,0.0003894992405548692,0.0033356710337102413,-0.05097339302301407,0.0006679501384496689,-0.05287766829133034,-0.020919736474752426,-0.01631053537130356,0.011922195553779602,0.16581764817237854,-2.73408579826355,0.02931634895503521,0.0,0.0,0.0,0.0005836481577716768,-0.04279674217104912,-0.0,0.0,0.0,0.0,0.0030249643605202436,-0.028671182692050934,0.0013285684399306774,13624.0,16149.0,17477.0,12694.0,0.4144442677497864,0.5935580730438232,0.7005318403244019,0.35653233528137207,0.0,0.0,0.0,0.0,13655.0,16147.0,18043.0,12343.0,2.1968202590942383,0.025596796526200533,-0.19755282579801414,-0.008981603443425315,0.22647719085216522,0.00237658922560513,0.0
340,5,-0.0033791838213801384,0.00036914055817760527,0.0036267603281885386,-0.04691430181264877,0.0027102201711386442,-0.05608178675174713,-0.018805241212248802,0.0055686053819954395,0.012461571954190731,0.32223859429359436,-2.7425341606140137,-0.031172560527920723,0.0,0.0,0.0,-9.008503548102453e-05,-0.04018021002411842,-0.0,0.0,0.0,0.0,0.0036526028998196125,-0.03920212388038635,0.0011130914790555835,12570.0,17061.0,17914.0,12440.0,0.3491824269294739,0.6660802364349365,0.7377493381500244,0.3415001630783081,0.0,0.0,0.0,0.0,12258.0,17194.0,18092.0,12472.0,2.1549460887908936,0.025242812947977752,-0.2057083788306485,-0.007647083525837212,0.20858527719974518,-0.00035983018460683525,0.0
345,5,-0.0035833087749779224,0.00039852369809523225,0.00391747709363699,-0.04326071962714195,-0.0024418900720775127,-0.05731874331831932,-0.018805241212248802,0.0055686053819954395,0.012461571954190731,0.32223859429359436,-2.7425341606140137,-0.031172560527920723,0.0,0.0,0.0,-9.008503548102453e-05,-0.04018021002411842,-0.0,0.0,0.0,0.0,0.0036526028998196125,-0.03920212388038635,0.0011130914790555835,12570.0,17061.0,17914.0,12440.0,0.3491824269294739,0.6660802364349365,0.7377493381500244,0.3415001630783081,0.0,0.0,0.0,0.0,12258.0,17194.0,18092.0,12472.0,2.1549460887908936,0.0245616902198415,-0.21450102851872652,-0.006500321196721489,0.20858527719974518,-0.00035983018460683525,0.0
350,5,-0.0037562644574791193,0.0004121155652683228,0.004146688152104616,-0.038058970123529434,-0.0026077786460518837,-0.05043282359838486,-0.014722326770424843,0.03672908619046211,0.013147421181201935,0.31934642791748047,-2.4772908687591553,0.05409236252307892,0.0,0.0,0.0,0.0029269710648804903,-0.03610437735915184,-0.0,0.0,0.0,0.0,0.004330144729465246,-0.04309714213013649,0.002699099248275161,13129.0,16630.0,18728.0,11352.0,0.3830881714820862,0.6312853097915649,0.809430718421936,0.2806580066680908,0.0,0.0,0.0,0.0,12946.0,16768.0,18782.0,11262.0,2.092611312866211,0.024791374181763623,-0.22105274371158654,-0.00531131214897018,0.18201372027397156,0.011353099718689919,0.0
355,5,-0.003904997603967786,0.0004398899618536234,0.004370556678622961,-0.033071551471948624,-0.0043760379776358604,-0.047037336975336075,-0.014722326770424843,0.03672908619046211,0.013147421181201935,0.31934642791748047,-2.4772908687591553,0.05409236252307892,0.0,0.0,0.0,0.0029269710648804903,-0.03610437735915184,-0.0,0.0,0.0,0.0,0.004330144729465246,-0.04309714213013649,0.002699099248275161,13129.0,16630.0,18728.0,11352.0,0.3830881714820862,0.6312853097915649,0.809430718421936,0.2806580066680908,0.0,0.0,0.0,0.0,12946.0,16768.0,18782.0,11262.0,2.092611312866211,0.023815566302791615,-0.22568066410692203,-0.0035885352466156484,0.18201372027397156,0.011353099718689919,0.0
360,5,-0.0040211863815784454,0.00048453736235387623,0.00453421613201499,-0.02717130444943905,-0.007108103018254042,-0.03845404461026192,-0.01257893443107605,0.0543026439845562,0.013620688579976559,0.2243392914533615,-1.9667872190475464,0.023212559521198273,0.0,0.0,0.0,0.005065338220447302,-0.030122151598334312,-0.0,0.0,0.0,0.0,0.0009161447524093091,-0.0464029535651207,0.0034149971324950457,12946.0,17678.0,18886.0,11408.0,0.37181445956230164,0.7175429463386536,0.8238071799278259,0.28365573287010193,0.0,0.0,0.0,0.0,13107.0,17556.0,19082.0,11075.0,2.006119728088379,0.02373398940472958,-0.230190092474664,-0.002447291210995783,0.14558729529380798,0.01883520931005478,0.0
365,5,-0.0041379863396286964,0.0005206550704315305,0.004689433611929417,-0.024884484708309174,-0.007177366875112057,-0.0340077243745327,-0.01257893443107605,0.0543026439845562,0.013620688579976559,0.2243392914533615,-1.9667872190475464,0.023212559521198273,0.0,0.0,0.0,0.005065338220447302,-0.030122151598334312,-0.0,0.0,0.0,0.0,0.0009161447524093091,-0.0464029535651207,0.0034149971324950457,12946.0,17678.0,18886.0,11408.0,0.37181445956230164,0.7175429463386536,0.8238071799278259,0.28365573287010193,0.0,0.0,0.0,0.0,13107.0,17556.0,19082.0,11075.0,2.006119728088379,0.022824904601246598,-0.23447706913863875,-0.0017021010190202631,0.14558729529380798,0.01883520931005478,0.0
370,5,-0.0042362092062830925,0.000596778467297554,0.004818466957658529,-0.02174055203795433,-0.012005752883851528,-0.029087083414196968,-0.010328990407288074,0.07368826866149902,0.01464810874313116,0.15416839718818665,-1.3043622970581055,0.0814896672964096,0.0,0.0,0.0,0.005065338220447302,-0.030122151598334312,-0.0,0.0,0.0,0.0,0.0020051526371389627,-0.041323527693748474,0.0025893845595419407,13573.0,16965.0,19000.0,10784.0,0.41115331649780273,0.6582921743392944,0.8342278003692627,0.2512727975845337,0.0,0.0,0.0,0.0,13564.0,16952.0,18979.0,10857.0,1.9282729625701904,0.02212742897583807,-0.23768058869271014,-0.00019856378711373152,0.10493253171443939,0.048311613500118256,0.0
375,5,-0.0042836409993469715,0.0006534230778925121,0.004872479010373354,-0.014388046227395535,-0.011599653400480747,-0.018116267397999763,-0.010328990407288074,0.07368826866149902,0.01464810874313116,0.15416839718818665,-1.3043622970581055,0.0814896672964096,0.0,0.0,0.0,0.01351756602525711,-0.022587405517697334,-0.0,0.0,0.0,0.0,0.0020051526371389627,-0.041323527693748474,0.0025893845595419407,13573.0,16965.0,19000.0,10784.0,0.41115331649780273,0.6582921743392944,0.8342278003692627,0.2512727975845337,0.0,0.0,0.0,0.0,13564.0,16952.0,18979.0,10857.0,1.9282729625701904,0.02129297684267232,-0.2383079890352878,0.0007839856917586895,0.10493253171443939,0.048311613500118256,0.0
380,5,-0.004278990440070629,0.0007021462079137564,0.004877567291259766,-0.005197158548980951,-0.010486636310815811,-0.007857141084969044,-0.009490187279880047,0.08082381635904312,0.015049600042402744,0.0670958086848259,-0.523552656173706,0.025778822600841522,0.0,0.0,0.0,0.013622653670608997,-0.017273373901844025,-0.0,0.0,0.0,0.0,0.002672785660251975,-0.03200621157884598,0.003046688623726368,13220.0,16732.0,18348.0,11504.0,0.3887905180454254,0.6394644379615784,0.7755367159843445,0.2888195812702179,0.0,0.0,0.0,0.0,13299.0,16687.0,18199.0,11720.0,1.865515112876892,0.020302384895401024,-0.23670282467146714,0.001029580206293227,0.07763650268316269,0.04710257425904274,0.0
385,5,-0.004253970924764872,0.0007469013798981905,0.004878545179963112,0.0009234907920472324,-0.009565280750393867,-0.0032601640559732914,-0.009490187279880047,0.08082381635904312,0.015049600042402744,0.0670958086848259,-0.523552656173706,0.025778822600841522,0.0,0.0,0.0,0.013622653670608997,-0.017273373901844025,-0.0,0.0,0.0,0.0,0.002672785660251975,-0.03200621157884598,0.003046688623726368,13220.0,16732.0,18348.0,11504.0,0.3887905180454254,0.6394644379615784,0.7755367159843445,0.2888195812702179,0.0,0.0,0.0,0.0,13299.0,16687.0,18199.0,11720.0,1.865515112876892,0.020504172750595982,-0.2337936426711571,0.0016069652088976398,0.07763650268316269,0.04710257425904274,0.0
391,5,-0.004174221772700548,0.0007800811436027288,0.0047986567951738834,0.009939298033714294,-0.007807683665305376,0.008282541297376156,-0.008647994138300419,0.08180907368659973,0.015512228012084961,0.016310952603816986,0.30665016174316406,0.07107634842395782,0.0,0.0,0.0,0.013622653670608997,-0.017273373901844025,-0.0,0.0,0.0,0.0,0.005024407524615526,-0.02012994885444641,0.0027331653982400894,13882.0,15550.0,17922.0,11494.0,0.43126606941223145,0.5481411814689636,0.7384418845176697,0.28827065229415894,0.0,0.0,0.0,0.0,14137.0,15298.0,17846.0,11644.0,1.865515112876892,0.020126315420413078,-0.22908189196984952,0.0017370219252813251,0.07763650268316269,0.04710257425904274,0.0
396,5,-0.004052812699228525,0.0008403855608776212,0.004711941350251436,0.018544839695096016,-0.010359598323702812,0.013718838803470135,-0.008647994138300419,0.08180907368659973,0.015512228012084961,0.016310952603816986,0.30665016174316406,0.07107634842395782,0.0,0.0,0.0,0.010383093729615211,0.0033721632789820433,-0.0,0.0,0.0,0.0,0.005024407524615526,-0.02012994885444641,0.0027331653982400894,13882.0,15550.0,17922.0,11494.0,0.43126606941223145,0.5481411814689636,0.7384418845176697,0.28827065229415894,0.0,0.0,0.0,0.0,14137.0,15298.0,17846.0,11644.0,1.7449617385864258,0.019331724448027388,-0.22319569276319795,0.0020477800894761495,-0.014178235083818436,0.033582039177417755,-0.0
401,5,-0.0039158593863248825,0.0008851485908962786,0.00454063480719924,0.02385229617357254,-0.009515405632555485,0.026044314727187157,-0.008830058388411999,0.07608175277709961,0.01597251184284687,-0.0615396685898304,1.0188125371932983,0.040075670927762985,0.0,0.0,0.0,0.010383093729615211,0.0033721632789820433,-0.0,0.0,0.0,0.0,0.006081853527575731,-0.009680409915745258,0.003071652026847005,13949.0,14681.0,16944.0,12592.0,0.4357449412345886,0.4855480194091797,0.6565227508544922,0.3504573404788971,0.0,0.0,0.0,0.0,14132.0,14454.0,16782.0,12869.0,1.7449617385864258,0.017760119642853456,-0.21543077617724538,0.0022588040358629776,-0.014178235083818436,0.033582039177417755,-0.0
406,5,-0.0037584586534649134,0.0009371197666041553,0.00435445923358202,0.028429018333554268,-0.010042704641819,0.03275879845023155,-0.008830058388411999,0.07608175277709961,0.01597251184284687,-0.0615396685898304,1.0188125371932983,0.040075670927762985,0.0,0.0,0.0,0.011926964856684208,0.015325406566262245,-0.0,0.0,0.0,0.0,0.006081853527575731,-0.009680409915745258,0.003071652026847005,13949.0,14681.0,16944.0,12592.0,0.4357449412345886,0.4855480194091797,0.6565227508544922,0.3504573404788971,0.0,0.0,0.0,0.0,14132.0,14454.0,16782.0,12869.0,1.835070252418518,0.016310750677856332,-0.20728747335343342,0.0026714687909078828,-0.06775926798582077,0.04056696221232414,-0.0
411,5,-0.003637571819126606,0.001001263502985239,0.004190871026366949,0.025878041982650757,-0.011714331805706024,0.03273410350084305,-0.010516229085624218,0.059804774820804596,0.016350260004401207,-0.20076793432235718,1.6392475366592407,0.0645591989159584,0.0,0.0,0.0,0.011926964856684208,0.015325406566262245,-0.0,0.0,0.0,0.0,0.006540092173963785,0.007791953161358833,0.0021993156988173723,14583.0,13407.0,16419.0,12944.0,0.4787413775920868,0.4005393087863922,0.6145539283752441,0.37168046832084656,0.0,0.0,0.0,0.0,14916.0,12966.0,16355.0,13093.0,1.835070252418518,0.013672874536863685,-0.1967809921198973,0.002419781617310514,-0.06775926798582077,0.04056696221232414,-0.0
416,5,-0.00348295527510345,0.0010490412823855877,0.003959688823670149,0.02890518680214882,-0.010419062338769436,0.04083551466464996,-0.010516229085624218,0.059804774820804596,0.016350260004401207,-0.20076793432235718,1.6392475366592407,0.0645591989159584,0.0,0.0,0.0,0.014291287399828434,0.017089657485485077,-0.0,0.0,0.0,0.0,0.006540092173963785,0.007791953161358833,0.0021993156988173723,14583.0,13407.0,16419.0,12944.0,0.4787413775920868,0.4005393087863922,0.6145539283752441,0.37168046832084656,0.0,0.0,0.0,0.0,14916.0,12966.0,16355.0,13093.0,1.8670579195022583,0.013080605662923595,-0.1846828152577184,0.0026171895570537766,-0.07687366008758545,0.04945507273077965,-0.0
421,5,-0.003385311458259821,0.0010706650791689754,0.003698093583807349,0.023279322311282158,-0.0067624785006046295,0.04772564768791199,-0.012519503012299538,0.044685401022434235,0.016503440216183662,-0.2746056914329529,2.0953681468963623,0.01048231590539217,0.0,0.0,0.0,0.014291287399828434,0.017089657485485077,-0.0,0.0,0.0,0.0,0.007734868209809065,0.020147286355495453,0.0031361402943730354,14833.0,12072.0,14561.0,14182.0,0.4962436556816101,0.3202663064002991,0.4771554470062256,0.4512963891029358,0.0,0.0,0.0,0.0,15179.0,11554.0,14453.0,14351.0,1.8670579195022583,0.014049972142449721,-0.16568481851599193,0.0009993443619310818,-0.07687366008758545,0.04945507273077965,-0.0
426,5,-0.0032537011429667473,0.0011086135637015104,0.0035032329615205526,0.02510499209165573,-0.007258810568600893,0.04247352480888367,-0.012519503012299538,0.044685401022434235,0.016503440216183662,-0.2746056914329529,2.0953681468963623,0.01048231590539217,0.0,0.0,0.0,0.00924164429306984,0.015574144199490547,-0.0,0.0,0.0,0.0,0.007734868209809065,0.020147286355495453,0.0031361402943730354,14833.0,12072.0,14561.0,14182.0,0.4962436556816101,0.3202663064002991,0.4771554470062256,0.4512963891029358,0.0,0.0,0.0,0.0,15179.0,11554.0,14453.0,14351.0,1.8255606889724731,0.013058700870167795,-0.1533014322500541,0.0006603528862239805,-0.06850405037403107,0.0312710776925087,-0.0
431,5,-0.0031070271506905556,0.0011328253895044327,0.0033048116602003574,0.02764284983277321,-0.005808947142213583,0.040799953043460846,-0.016060998663306236,0.017517047002911568,0.016587985679507256,-0.30076104402542114,2.3598551750183105,0.04053700715303421,0.0,0.0,0.0,0.00924164429306984,0.015574144199490547,-0.0,0.0,0.0,0.0,0.008020359091460705,0.02988448552787304,0.0023753189016133547,16078.0,11024.0,14459.0,15073.0,0.5881047248840332,0.2634831666946411,0.4701427221298218,0.5133396983146667,0.0,0.0,0.0,0.0,16253.0,10736.0,14234.0,15301.0,1.8255606889724731,0.012448440778599702,-0.14046251250258376,0.0004406541718944094,-0.06850405037403107,0.0312710776925087,-0.0
436,5,-0.0029639704152941704,0.0011630470398813486,0.0031224568374454975,0.028223956003785133,-0.0059501719661056995,0.03820258006453514,-0.016060998663306236,0.017517047002911568,0.016587985679507256,-0.30076104402542114,2.3598551750183105,0.04053700715303421,0.0,0.0,0.0,0.008109585382044315,0.01921938732266426,-0.0,0.0,0.0,0.0,0.008020359091460705,0.02988448552787304,0.0023753189016133547,16078.0,11024.0,14459.0,15073.0,0.5881047248840332,0.2634831666946411,0.4701427221298218,0.5133396983146667,0.0,0.0,0.0,0.0,16253.0,10736.0,14234.0,15301.0,1.8655108213424683,0.012410356015365097,-0.1278298381984117,0.00017232823418847966,-0.08638696372509003,0.028041183948516846,-0.0
441,5,-0.0028140039648860693,0.0011942035052925348,0.0029911124147474766,0.029285574331879616,-0.00611885404214263,0.031042354181408882,-0.016060998663306236,0.017517047002911568,0.016587985679507256,-0.30076104402542114,2.3598551750183105,0.04053700715303421,0.0,0.0,0.0,0.008109585382044315,0.01921938732266426,-0.0,0.0,0.0,0.0,0.008020359091460705,0.02988448552787304,0.0023753189016133547,16078.0,11024.0,14459.0,15073.0,0.5881047248840332,0.2634831666946411,0.4701427221298218,0.5133396983146667,0.0,0.0,0.0,0.0,16253.0,10736.0,14234.0,15301.0,1.8655108213424683,0.012399903466267431,-0.11960217122232641,-0.00014300773623900868,-0.08638696372509003,0.028041183948516846,-0.0
446,5,-0.0027252240106463432,0.0012093002442270517,0.0028742747381329536,0.022367825731635094,-0.004259142559021711,0.02643744833767414,-0.017940951511263847,-0.0016304940218105912,0.01639190874993801,-0.18619391322135925,2.360619068145752,0.03597239404916763,0.0,0.0,0.0,0.008453642949461937,0.020723728463053703,-0.0,0.0,0.0,0.0,0.0071003632619977,0.033577486872673035,0.0028925396036356688,16811.0,10041.0,13389.0,15776.0,0.6457974910736084,0.2152424156665802,0.3994125425815582,0.5651081800460815,0.0,0.0,0.0,0.0,16958.0,9877.0,13923.0,15812.0,1.8855684995651245,0.013017985069792468,-0.11071230905033329,-0.0003910707656254535,-0.09414895623922348,0.029545092955231667,-0.0
451,5,-0.0026389851700514555,0.0012203129008412361,0.002705913968384266,0.019295789301395416,-0.003025176702067256,0.03077828325331211,-0.017940951511263847,-0.0016304940218105912,0.01639190874993801,-0.18619391322135925,2.360619068145752,0.03597239404916763,0.0,0.0,0.0,0.008453642949461937,0.020723728463053703,-0.0,0.0,0.0,0.0,0.0071003632619977,0.033577486872673035,0.0028925396036356688,16811.0,10041.0,13389.0,15776.0,0.6457974910736084,0.2152424156665802,0.3994125425815582,0.5651081800460815,0.0,0.0,0.0,0.0,16958.0,9877.0,13923.0,15812.0,1.8855684995651245,0.01400373495394643,-0.10235009063505061,-0.0001746571723204004,-0.09414895623922348,0.029545092955231667,-0.0
456,5,-0.002571797464042902,0.0012369200121611357,0.0025672614574432373,0.015780821442604065,-0.0032029307913035154,0.028949612751603127,-0.018109675496816635,-0.044302187860012054,0.01622461900115013,0.14695580303668976,1.7281516790390015,0.03154055029153824,0.0,0.0,0.0,0.005462555214762688,0.013388069346547127,-0.0,0.0,0.0,0.0,0.004757686983793974,0.036564406007528305,0.0022811812814325094,17162.0,10123.0,13018.0,16178.0,0.6744031310081482,0.21907122433185577,0.37624391913414,0.5957924723625183,0.0,0.0,0.0,0.0,16633.0,10466.0,12806.0,16170.0,1.7868099212646484,0.014541005783305036,-0.09649798187115025,-0.0006127037050463955,-0.05764063447713852,0.018091676756739616,-0.0
462,5,-0.0026666498742997646,0.0012290506856516004,0.0022526979446411133,-0.005069946404546499,-0.0003368407196830958,0.04932747408747673,-0.018109675496816635,-0.044302187860012054,0.01622461900115013,0.14695580303668976,1.7281516790390015,0.03154055029153824,0.0,0.0,0.0,0.005462555214762688,0.013388069346547127,-0.0,0.0,0.0,0.0,0.004757686983793974,0.036564406007528305,0.0022811812814325094,17162.0,10123.0,13018.0,16178.0,0.6744031310081482,0.21907122433185577,0.37624391913414,0.5957924723625183,0.0,0.0,0.0,0.0,16633.0,10466.0,12806.0,16170.0,1.7868099212646484,0.020717980103356785,-0.07959008131773954,-0.00303078275095115,-0.05764063447713852,0.018091676756739616,-0.0
467,5,-0.0026935969945043325,0.0012427730252966285,0.002191683277487755,-0.005261644721031189,-0.0017814291641116142,0.027052754536271095,-0.015442341566085815,-0.061378270387649536,0.016166698187589645,0.24625469744205475,1.12095046043396,-0.009318210184574127,0.0,0.0,0.0,0.0024736118502914906,-0.007998539134860039,-0.0,0.0,0.0,0.0,0.003453596029430628,0.03580429032444954,0.0018468789057806134,16974.0,10828.0,12851.0,16323.0,0.6590172052383423,0.2534640431404114,0.3660104274749756,0.60707688331604,0.0,0.0,0.0,0.0,17336.0,9898.0,13106.0,16057.0,1.7585117816925049,0.021501236956065886,-0.07662178078653235,-0.003268546100595309,0.03389236703515053,0.008062776178121567,-0.0
472,5,-0.0027293656021356583,0.0012445315951481462,0.0021193947177380323,-0.006396888289600611,-0.0009235988836735487,0.019495705142617226,-0.015442341566085815,-0.061378270387649536,0.016166698187589645,0.24625469744205475,1.12095046043396,-0.009318210184574127,0.0,0.0,0.0,0.0024736118502914906,-0.007998539134860039,-0.0,0.0,0.0,0.0,0.003453596029430628,0.03580429032444954,0.0018468789057806134,16974.0,10828.0,12851.0,16323.0,0.6590172052383423,0.2534640431404114,0.3660104274749756,0.60707688331604,0.0,0.0,0.0,0.0,17336.0,9898.0,13106.0,16057.0,1.7585117816925049,0.02212955472492298,-0.07571136785141272,-0.0032428888794070083,0.03389236703515053,0.008062776178121567,-0.0
477,5,-0.0028077594470232725,0.0012575382133945823,0.0021311102900654078,-0.011966004967689514,-0.0019302350701764226,0.006392420269548893,-0.015442341566085815,-0.061378270387649536,0.016166698187589645,0.24625469744205475,1.12095046043396,-0.009318210184574127,0.0,0.0,0.0,0.0031760854180902243,-0.009256464429199696,-0.0,0.0,0.0,0.0,0.002941364888101816,0.03228810057044029,0.0013869120739400387,16659.0,11416.0,12949.0,16179.0,0.6336122751235962,0.2840691804885864,0.37203317880630493,0.595853865146637,0.0,0.0,0.0,0.0,16742.0,11249.0,12627.0,16457.0,1.7585344314575195,0.023338934194900542,-0.0757101120085452,-0.0040974105474046296,0.03922288492321968,0.010352619923651218,-0.0
482,5,-0.0029144003055989742,0.0012722837273031473,0.002141169272363186,-0.017583325505256653,-0.0025415527634322643,0.001349886180832982,-0.015442341566085815,-0.061378270387649536,0.016166698187589645,0.24625469744205475,1.12095046043396,-0.009318210184574127,0.0,0.0,0.0,0.0031760854180902243,-0.009256464429199696,-0.0,0.0,0.0,0.0,0.002941364888101816,0.03228810057044029,0.0013869120739400387,16659.0,11416.0,12949.0,16179.0,0.6336122751235962,0.2840691804885864,0.37203317880630493,0.595853865146637,0.0,0.0,0.0,0.0,16742.0,11249.0,12627.0,16457.0,1.7585344314575195,0.02455979305637658,-0.07908560786648394,-0.004442174755381392,0.03922288492321968,0.010352619923651218,-0.0
487,5,-0.00385900866240263,0.0014839291106909513,0.0016749914502725005,-0.12038632482290268,-0.026414070278406143,0.05648130550980568,-0.011327424086630344,-0.0670119896531105,0.015462438575923443,0.1744561791419983,-0.38295993208885193,-0.05967249348759651,0.0,0.0,0.0,0.0048405262641608715,-0.018464621156454086,-0.0,0.0,0.0,0.0,0.002466765698045492,0.022759657353162766,0.0004963185056112707,15501.0,12199.0,12839.0,15568.0,0.5445322394371033,0.3274845778942108,0.3652837574481964,0.5495093464851379,0.0,0.0,0.0,0.0,16219.0,11241.0,12960.0,15445.0,1.8476037979125977,0.034241626506403215,-0.13757680527542204,-0.02674399790187625,0.08219991624355316,0.016577037051320076,-0.0
492,5,-0.004019869025796652,0.0015181070193648338,0.0017716879956424236,-0.06745778769254684,-0.0146669652312994,0.010988936759531498,-0.011327424086630344,-0.0670119896531105,0.015462438575923443,0.1744561791419983,-0.38295993208885193,-0.05967249348759651,0.0,0.0,0.0,0.0048405262641608715,-0.018464621156454086,-0.0,0.0,0.0,0.0,0.002466765698045492,0.022759657353162766,0.0004963185056112707,15501.0,12199.0,12839.0,15568.0,0.5445322394371033,0.3274845778942108,0.3652837574481964,0.5495093464851379,0.0,0.0,0.0,0.0,16219.0,11241.0,12960.0,15445.0,1.8476037979125977,0.0337578447978005,-0.14348371126983478,-0.026648336864595862,0.08219991624355316,0.016577037051320076,-0.0
497,5,-0.004216797184199095,0.0015484309988096356,0.001938823377713561,-0.05061447247862816,-0.009505673311650753,-0.01566067896783352,-0.010632803663611412,-0.06087248772382736,0.014910921454429626,0.04737432673573494,-1.072511076927185,-0.07920344918966293,0.0,0.0,0.0,0.01471781451255083,-0.049183037132024765,-0.0,0.0,0.0,0.0,0.0024752654135227203,0.006880772300064564,-0.0001916849723784253,14160.0,13514.0,13629.0,14695.0,0.4498036801815033,0.40740641951560974,0.4147680699825287,0.48653361201286316,0.0,0.0,0.0,0.0,14643.0,13054.0,13177.0,15042.0,2.3243305683135986,0.03397179002919325,-0.15074783986878346,-0.026788476351106243,0.2753233015537262,0.06340467184782028,-0.0
