timestamp,dt,pos_x,pos_y,pos_z,vel_x,vel_y,vel_z,roll,pitch,yaw,agv_x,agv_y,agv_z,x_ref,y_ref,z_ref,roll_ref,pitch_ref,yaw_ref,x_vel_ref,y_vel_ref,z_vel_ref,x_torque,y_torque,z_torque,w0,w1,w2,w3,u0,u1,u2,u3,m0req,m1req,m2req,m3req,thrust0,thrust1,thrust2,thrust3,thrust_ref,roll_vicon,pitch_vicon,yaw_vicon,acc_x,acc_y,acc_z
5,5,0.0,0.0,0.0,-0.0005395464249886572,8.677937148604542e-05,-0.002133981790393591,-0.0017870505107566714,-0.05534490570425987,0.04363822191953659,0.0033938605338335037,-0.0011381276417523623,0.00563758285716176,0.0,0.0,0.0,-7.683526928303763e-05,-0.0003674764884635806,-0.0,0.0,0.0,0.0,0.0003598986368160695,0.01651918701827526,0.004327849950641394,1495.0,1495.0,1495.0,1495.0,0.0,0.0,0.0,0.0,0.0,0.0,0.0,0.0,1495.0,1495.0,1495.0,1495.0,2.2849600315093994,0.04256524629949487,-0.10379401727063832,0.04663334086551909,0.002023298991844058,-0.00032542264671064913,0.0
32,27,0.0,0.0,0.0,0.000339718593750149,-5.357534973882139e-05,-0.0008619182044640183,-0.0017870505107566714,-0.05534490570425987,0.04363822191953659,0.0033938605338335037,-0.0011381276417523623,0.00563758285716176,0.0,0.0,0.0,-7.683526928303763e-05,-0.0003674764884635806,-0.0,0.0,0.0,0.0,0.0003598986368160695,0.01651918701827526,0.004327849950641394,1495.0,1495.0,1495.0,1495.0,0.0,0.0,0.0,0.0,0.0,0.0,0.0,0.0,1495.0,1495.0,1495.0,1495.0,2.2849600315093994,0.04273561559928235,-0.10370459549534787,0.04663032465693487,0.002023298991844058,-0.00032542264671064913,0.0
37,5,0.0,0.0,0.0,0.0002688192471396178,0.0010683601722121239,0.0018057291163131595,-0.0017870505107566714,-0.05534490570425987,0.04363822191953659,0.0033938605338335037,-0.0011381276417523623,0.00563758285716176,0.0,0.0,0.0,4.742644159705378e-05,0.00023132975911721587,-0.0,0.0,0.0,0.0,0.0003598986368160695,0.01651918701827526,0.004327849950641394,1495.0,1495.0,1495.0,1495.0,0.0,0.0,0.0,0.0,0.0,0.0,0.0,0.0,1495.0,1495.0,1495.0,1495.0,2.285426139831543,0.04307798668070826,-0.10364197163255963,0.04639837368243662,-0.001273944741114974,0.0002009075542446226,0.0
43,5,0.0,0.0,0.0,-0.0005853549228049815,-0.00023257431166712195,-0.0015815262449905276,-0.0017915938515216112,-0.055328141897916794,0.0436636358499527,-0.0011041752295568585,0.002496312139555812,-0.0020725808572024107,0.0,0.0,0.0,0.00020584110461641103,-0.00039851650944910944,-0.0,0.0,0.0,0.0,0.00035917555214837193,0.016505707055330276,0.00442762766033411,1495.0,1495.0,1495.0,1495.0,0.0,0.0,0.0,0.0,0.0,0.0,0.0,0.0,1495.0,1495.0,1495.0,1495.0,2.285874366760254,0.04273331018879602,-0.10353267092451704,0.046401509551651475,0.0021950809750705957,0.0008721536723896861,0.0
52,9,0.0,0.0,0.0,-0.0008901885594241321,-0.00037692126352339983,-0.0016073343576863408,-0.0017915938515216112,-0.055328141897916794,0.0436636358499527,-0.0011041752295568585,0.002496312139555812,-0.0020725808572024107,0.0,0.0,0.0,0.00020584110461641103,-0.00039851650944910944,-0.0,0.0,0.0,0.0,0.00035917555214837193,0.016505707055330276,0.00442762766033411,1495.0,1495.0,1495.0,1495.0,0.0,0.0,0.0,0.0,0.0,0.0,0.0,0.0,1495.0,1495.0,1495.0,1495.0,2.285874366760254,0.042951185261522175,-0.10379402447859641,0.04650883784817559,0.0021950809750705957,0.0008721536723896861,0.0
57,5,5.025123755331151e-06,1.1376911288607516e-06,-2.214843152614776e-05,0.0002469393948558718,-0.0002872914483305067,0.002014877973124385,-0.0017915938515216112,-0.055328141897916794,0.0436636358499527,-0.0011041752295568585,0.002496312139555812,-0.0020725808572024107,0.0,0.0,0.0,0.00020584110461641103,-0.00039851650944910944,-0.0,0.0,0.0,0.0,0.00035917555214837193,0.016505707055330276,0.00442762766033411,1495.0,1495.0,1495.0,1495.0,0.0,0.0,0.0,0.0,0.0,0.0,0.0,0.0,1495.0,1495.0,1495.0,1495.0,2.285874366760254,0.04317362820788953,-0.10351615239798585,0.046434008734772075,0.0021950809750705957,0.0008721536723896861,0.0
62,5,1.8882352605942287e-06,4.922701009490993e-06,-5.699072062270716e-06,-0.0002776508335955441,-0.0005691177793778479,-0.0011679718736559153,-0.0017994213849306107,-0.055360689759254456,0.04370977357029915,-0.0015343250706791878,0.011126703582704067,0.0033236336894333363,0.0,0.0,0.0,0.0002557465631980449,0.00017314014257863164,-0.0,0.0,0.0,0.0,0.0003916120622307062,0.01693137176334858,0.0044488259591162205,18135.0,13119.0,16316.0,15434.0,0.7568981647491455,0.3824550211429596,0.6065038442611694,0.5395691394805908,0.0,0.0,0.0,0.0,18103.0,13173.0,16318.0,15418.0,2.285874128341675,0.042722117188505625,-0.10395490892551193,0.04665726358023164,-0.0009536785073578358,0.0010836041765287519,0.0
70,8,-5.725771188735962e-06,1.3996291272633243e-06,-9.511489338365209e-07,-0.0008380927029065788,0.0005074493237771094,-0.0009649037383496761,-0.0017994213849306107,-0.055360689759254456,0.04370977357029915,-0.0015343250706791878,0.011126703582704067,0.0033236336894333363,0.0,0.0,0.0,-0.00044714260729961097,-0.0005760960630141199,-0.0,0.0,0.0,0.0,0.0003916120622307062,0.01693137176334858,0.0044488259591162205,18135.0,13119.0,16316.0,15434.0,0.7568981647491455,0.3824550211429596,0.6065038442611694,0.5395691394805908,0.0,0.0,0.0,0.0,18103.0,13173.0,16318.0,15418.0,2.2866880893707275,0.042909431215822365,-0.10366725034695452,0.046403063547474525,0.0031743417493999004,-0.0018952281679958105,0.0
75,5,2.820817371684825e-06,-8.535060942449491e-07,-7.609190106450114e-06,0.0006903535686433315,0.0004733559617307037,0.0004130034358240664,-0.0017917371587827802,-0.05542870983481407,0.04374898970127106,0.004095791839063168,0.008432461880147457,0.004955404903739691,0.0,0.0,0.0,-0.00044714260729961097,-0.0005760960630141199,-0.0,0.0,0.0,0.0,0.0003214845492038876,0.01690908521413803,0.004479092545807362,18153.0,13104.0,16330.0,15410.0,0.7584537267684937,0.38153672218322754,0.607621431350708,0.5378142595291138,0.0,0.0,0.0,0.0,18182.0,13063.0,16371.0,15367.0,2.2866880893707275,0.04291203513105852,-0.10360869494933606,0.046517975466461324,0.0031743417493999004,-0.0018952281679958105,0.0
80,5,5.862608304596506e-06,-8.133297910717374e-07,-1.3331576155906077e-05,0.000641156337223947,0.0001845212245825678,0.0008518877439200878,-0.0017917371587827802,-0.05542870983481407,0.04374898970127106,0.004095791839063168,0.008432461880147457,0.004955404903739691,0.0,0.0,0.0,-0.00044714260729961097,-0.0005760960630141199,-0.0,0.0,0.0,0.0,0.0003214845492038876,0.01690908521413803,0.004479092545807362,18153.0,13104.0,16330.0,15410.0,0.7584537267684937,0.38153672218322754,0.607621431350708,0.5378142595291138,0.0,0.0,0.0,0.0,18182.0,13063.0,16371.0,15367.0,2.2866880893707275,0.042906974827207164,-0.10363834911847107,0.04649836323932209,0.0031743417493999004,-0.0018952281679958105,0.0
85,5,1.2722625797323417e-06,2.309129740751814e-06,8.141131502270582e-07,-0.00029437895864248276,-0.0003008866624440998,-0.0013567276764661074,-0.0017917371587827802,-0.05542870983481407,0.04374898970127106,0.004095791839063168,0.008432461880147457,0.004955404903739691,0.0,0.0,0.0,-0.00016425771173089743,0.000442073040176183,-0.0,0.0,0.0,0.0,0.0003214845492038876,0.01690908521413803,0.004479092545807362,18153.0,13104.0,16330.0,15410.0,0.7584537267684937,0.38153672218322754,0.607621431350708,0.5378142595291138,0.0,0.0,0.0,0.0,18182.0,13063.0,16371.0,15367.0,2.2873787879943848,0.04285558662506815,-0.10370710750926511,0.04643446684780308,-0.002436598762869835,-0.0006964218919165432,0.0
90,5,9.215586942445952e-07,3.9785250010027084e-06,2.8073161502106814e-06,-0.00015983603952918202,-0.0003206820983905345,-0.0007818754529580474,-0.0017844090471044183,-0.055432602763175964,0.04379560053348541,-0.004368916153907776,0.004611893557012081,-0.0018759318627417088,0.0,0.0,0.0,-0.00016425771173089743,0.000442073040176183,-0.0,0.0,0.0,0.0,0.00038429565029218793,0.016739387065172195,0.004565926268696785,18159.0,13092.0,16359.0,15389.0,0.7589600086212158,0.38079121708869934,0.6098723411560059,0.5362505912780762,0.0,0.0,0.0,0.0,18111.0,13148.0,16330.0,15429.0,2.2873787879943848,0.04282146606297977,-0.10346486420714096,0.046388403237189624,-0.002436598762869835,-0.0006964218919165432,0.0
96,5,8.679680831846781e-06,5.7000147535291035e-06,-9.806075468077324e-06,0.0008670402457937598,-0.0003348515892866999,0.001200856757350266,-0.0017736543668434024,-0.0554329939186573,0.04382661357522011,-0.003479631384834647,0.0031143578235059977,-0.003266590414568782,0.0,0.0,0.0,0.0003033894463442266,0.0005982157890684903,-0.0,0.0,0.0,0.0,0.00031150641734711826,0.016604363918304443,0.004303384106606245,18091.0,13201.0,16297.0,15453.0,0.7530431747436523,0.38760948181152344,0.6050291061401367,0.541006326675415,0.0,0.0,0.0,0.0,18152.0,13105.0,16345.0,15401.0,2.2887465953826904,0.042916052299566,-0.10372714458411571,0.04644673272108328,-0.0032991908956319094,0.0012870834907516837,0.0
103,8,8.794058885541745e-06,1.7471313640271546e-06,-1.4086217561271042e-05,0.00036054145311936736,0.00034040535683743656,0.0009939598385244608,-0.0017736543668434024,-0.0554329939186573,0.04382661357522011,-0.003479631384834647,0.0031143578235059977,-0.003266590414568782,0.0,0.0,0.0,0.0003033894463442266,0.0005982157890684903,-0.0,0.0,0.0,0.0,0.00031150641734711826,0.016604363918304443,0.004303384106606245,18091.0,13201.0,16297.0,15453.0,0.7530431747436523,0.38760948181152344,0.6050291061401367,0.541006326675415,0.0,0.0,0.0,0.0,18152.0,13105.0,16345.0,15401.0,2.2887465953826904,0.04269595596214486,-0.10389893960602711,0.04676877674712451,-0.0032991908956319094,0.0012870834907516837,0.0
108,5,1.148490537161706e-05,-9.651862455939408e-07,-2.6842646548175253e-05,0.00046711816685274243,0.000461640243884176,0.001928355311974883,-0.0017736543668434024,-0.0554329939186573,0.04382661357522011,-0.003479631384834647,0.0031143578235059977,-0.003266590414568782,0.0,0.0,0.0,0.0003033894463442266,0.0005982157890684903,-0.0,0.0,0.0,0.0,0.00031150641734711826,0.016604363918304443,0.004303384106606245,18091.0,13201.0,16297.0,15453.0,0.7530431747436523,0.38760948181152344,0.6050291061401367,0.541006326675415,0.0,0.0,0.0,0.0,18152.0,13105.0,16345.0,15401.0,2.2887465953826904,0.04283966992137917,-0.10367151803618352,0.04660593511268633,-0.0032991908956319094,0.0012870834907516837,0.0
113,5,2.131193923560204e-06,-9.178931577480398e-06,-8.921373591874726e-06,-0.0009355981601402164,0.001170305535197258,-0.001379210501909256,-0.0018007742473855615,-0.05548296123743057,0.04385041072964668,-0.0005275554722175002,0.009626018814742565,-0.0021645117085427046,0.0,0.0,0.0,-0.0004093071329407394,0.0003290907188784331,-0.0,0.0,0.0,0.0,0.0004363618209026754,0.016790246590971947,0.00449973763898015,18127.0,13153.0,16286.0,15472.0,0.7561734318733215,0.3846166729927063,0.6041777729988098,0.5424109101295471,0.0,0.0,0.0,0.0,18131.0,13152.0,16292.0,15463.0,2.2887463569641113,0.04279473895837829,-0.10364606553687652,0.046630794383152784,-0.0018149520037695765,-0.0017364228842779994,0.0
118,5,9.03293039300479e-06,-9.118652997130994e-06,-2.8644251869991422e-05,0.000453969172667712,0.0004608888120856136,0.0018150610849261284,-0.0018007742473855615,-0.05548296123743057,0.04385041072964668,-0.0005275554722175002,0.009626018814742565,-0.0021645117085427046,0.0,0.0,0.0,-0.0004093071329407394,0.0003290907188784331,-0.0,0.0,0.0,0.0,0.0004363618209026754,0.016790246590971947,0.00449973763898015,18127.0,13153.0,16286.0,15472.0,0.7561734318733215,0.3846166729927063,0.6041777729988098,0.5424109101295471,0.0,0.0,0.0,0.0,18131.0,13152.0,16292.0,15463.0,2.2887463569641113,0.042627616328787594,-0.103777691403751,0.04649490085926472,-0.0018149520037695765,-0.0017364228842779994,0.0
124,5,-6.89731132297311e-06,5.008685548091307e-06,-1.5632997019565664e-05,-0.0017300413455814123,-0.0015109251253306866,-0.0008353260345757008,-0.0017999827396124601,-0.05551265925168991,0.04386547580361366,-0.0005162132438272238,0.004674103111028671,0.0012779657263308764,0.0,0.0,0.0,-0.0004191442858427763,0.00031765224412083626,-0.0,0.0,0.0,0.0,0.0004011582350358367,0.01693614386022091,0.0044883619993925095,18155.0,13117.0,16340.0,15431.0,0.7586255669593811,0.3823398947715759,0.6084049940109253,0.5393761992454529,0.0,0.0,0.0,0.0,18132.0,13142.0,16323.0,15447.0,2.289165496826172,0.04290950476881677,-0.10364084689225761,0.04661383803283421,-0.0017521890113130212,-0.001778481062501669,0.0
129,5,-7.892109351814725e-06,5.187676833884325e-06,2.712610694288742e-06,-0.0008113923249766231,-0.0006258490029722452,-0.0025356034748256207,-0.0017999827396124601,-0.05551265925168991,0.04386547580361366,-0.0005162132438272238,0.004674103111028671,0.0012779657263308764,0.0,0.0,0.0,-0.0004191442858427763,0.00031765224412083626,-0.0,0.0,0.0,0.0,0.0004011582350358367,0.01693614386022091,0.0044883619993925095,18155.0,13117.0,16340.0,15431.0,0.7586255669593811,0.3823398947715759,0.6084049940109253,0.5393761992454529,0.0,0.0,0.0,0.0,18132.0,13142.0,16323.0,15447.0,2.289165496826172,0.04299453140063922,-0.10369900487480906,0.046524997160474195,-0.0017521890113130212,-0.001778481062501669,0.0
134,5,-4.3408124383859104e-07,-5.01947533848579e-06,-2.692189582376159e-06,0.0005704064387828112,0.0009745186544023454,-0.0003656653279904276,-0.0017931992188096046,-0.055510375648736954,0.04387034475803375,0.002090697642415762,-0.0012805345468223095,0.0018445223104208708,0.0,0.0,0.0,-0.0004191442858427763,0.00031765224412083626,-0.0,0.0,0.0,0.0,0.00027528140344657004,0.016968296840786934,0.0044659399427473545,18149.0,13141.0,16314.0,15445.0,0.7580922245979309,0.3838767111301422,0.6063565611839294,0.5404208302497864,0.0,0.0,0.0,0.0,18166.0,13105.0,16360.0,15408.0,2.289165496826172,0.042839491646512955,-0.10352462361177273,0.046385918891785824,-0.0017521890113130212,-0.001778481062501669,0.0
139,5,1.2754125009450945e-06,-4.277448624634417e-06,-9.876581316348165e-06,0.00043330181506462395,0.0003007642226293683,0.0007158608641475439,-0.0017931992188096046,-0.055510375648736954,0.04387034475803375,0.002090697642415762,-0.0012805345468223095,0.0018445223104208708,0.0,0.0,0.0,-0.0008676390862092376,0.0003873110399581492,-0.0,0.0,0.0,0.0,0.00027528140344657004,0.016968296840786934,0.0044659399427473545,18149.0,13141.0,16314.0,15445.0,0.7580922245979309,0.3838767111301422,0.6063565611839294,0.5404208302497864,0.0,0.0,0.0,0.0,18166.0,13105.0,16360.0,15408.0,2.2895171642303467,0.042588674914797904,-0.1036274624149798,0.04655750957724171,-0.0021367587614804506,-0.0036820650566369295,0.0
144,5,-2.7402775231166743e-06,3.933783773391042e-06,3.798930947596091e-06,-0.0003085620701313019,-0.0008650421514175832,-0.0013547170674428344,-0.0017931992188096046,-0.055510375648736954,0.04387034475803375,0.002090697642415762,-0.0012805345468223095,0.0018445223104208708,0.0,0.0,0.0,-0.0008676390862092376,0.0003873110399581492,-0.0,0.0,0.0,0.0,0.00027528140344657004,0.016968296840786934,0.0044659399427473545,18149.0,13141.0,16314.0,15445.0,0.7580922245979309,0.3838767111301422,0.6063565611839294,0.5404208302497864,0.0,0.0,0.0,0.0,18166.0,13105.0,16360.0,15408.0,2.2895171642303467,0.04307882721128219,-0.10339275649293461,0.04641934074169964,-0.0021367587614804506,-0.0036820650566369295,0.0
149,5,2.312124479431077e-06,-7.3177429840143304e-06,-2.6375662855571136e-05,-3.886242484441027e-05,0.00029167861794121563,0.0023143754806369543,-0.0017762198112905025,-0.05543208122253418,0.043888483196496964,0.00430975342169404,-0.0003854059905279428,0.0043877181597054005,0.0,0.0,0.0,0.0007693832740187645,-0.0002124203892890364,-0.0,0.0,0.0,0.0,0.00021751885651610792,0.01680278778076172,0.00455080671235919,18185.0,13102.0,16362.0,15390.0,0.7612558007240295,0.38143572211265564,0.6101320385932922,0.5363419651985168,0.0,0.0,0.0,0.0,18139.0,13152.0,16313.0,15450.0,2.2898361682891846,0.04285624275098557,-0.10379239423583242,0.046776742215118516,0.0011720668990164995,0.0032655447721481323,0.0
154,5,2.312124479431077e-06,-7.3177429840143304e-06,-2.6375662855571136e-05,-3.886242484441027e-05,0.00029167861794121563,0.0023143754806369543,-0.0017762198112905025,-0.05543208122253418,0.043888483196496964,0.00430975342169404,-0.0003854059905279428,0.0043877181597054005,0.0,0.0,0.0,0.0007693832740187645,-0.0002124203892890364,-0.0,0.0,0.0,0.0,0.00021751885651610792,0.01680278778076172,0.00455080671235919,18185.0,13102.0,16362.0,15390.0,0.7612558007240295,0.38143572211265564,0.6101320385932922,0.5363419651985168,0.0,0.0,0.0,0.0,18139.0,13152.0,16313.0,15450.0,2.2898361682891846,0.04285624275098557,-0.10379239423583242,0.046776742215118516,0.0011720668990164995,0.0032655447721481323,0.0
159,5,-4.0782292671792675e-06,-4.7884000196063425e-06,-9.062484423338901e-06,-0.0002987115876749158,0.00010346486669732258,0.00036329173599369824,-0.0017781490460038185,-0.05544909089803696,0.04391590505838394,0.013269981369376183,0.007154408842325211,0.008211862295866013,0.0,0.0,0.0,-0.0002671935362741351,-2.4085673430818133e-05,-0.0,0.0,0.0,0.0,0.00015943484322633594,0.0169969629496336,0.004608579911291599,18237.0,13061.0,16376.0,15354.0,0.7657604813575745,0.37887173891067505,0.6111704707145691,0.5337144732475281,0.0,0.0,0.0,0.0,18194.0,13084.0,16368.0,15387.0,2.2898354530334473,0.04287663379642237,-0.10351629343557761,0.046120540642257325,0.00013289693742990494,-0.0011340671917423606,0.0
164,5,-4.0782292671792675e-06,-4.7884000196063425e-06,-9.062484423338901e-06,-0.0002987115876749158,0.00010346486669732258,0.00036329173599369824,-0.0017781490460038185,-0.05544909089803696,0.04391590505838394,0.013269981369376183,0.007154408842325211,0.008211862295866013,0.0,0.0,0.0,-0.0002671935362741351,-2.4085673430818133e-05,-0.0,0.0,0.0,0.0,0.00015943484322633594,0.0169969629496336,0.004608579911291599,18237.0,13061.0,16376.0,15354.0,0.7657604813575745,0.37887173891067505,0.6111704707145691,0.5337144732475281,0.0,0.0,0.0,0.0,18194.0,13084.0,16368.0,15387.0,2.2898354530334473,0.04287663379642237,-0.10351629343557761,0.046120540642257325,0.00013289693742990494,-0.0011340671917423606,0.0
169,5,6.10534300449217e-07,2.5021090550580993e-06,3.845106675726129e-06,0.00044316696585156024,-0.0008334751473739743,-0.0014035942731425166,-0.001643200870603323,-0.05555219575762749,0.04398488625884056,0.003478093771263957,0.014935159124433994,-0.05883442237973213,0.0,0.0,0.0,-9.760789544088766e-05,-0.0002070168120553717,-0.0,0.0,0.0,0.0,9.033958485815674e-05,0.017234252765774727,0.0037806187756359577,17749.0,13700.0,15844.0,15930.0,0.7235584259033203,0.41935741901397705,0.5701850652694702,0.5767345428466797,0.0,0.0,0.0,0.0,17418.0,14120.0,15492.0,16273.0,2.290318250656128,0.04232760992626479,-0.1038034493228653,0.04645767812692462,0.0011424925178289413,-0.00041437099571339786,0.0
174,5,3.525948386595701e-06,-4.3466241095302394e-07,-2.0332257918198593e-05,8.915705984691158e-05,0.0002291003766003996,0.0022058370523154736,-0.001643200870603323,-0.05555219575762749,0.04398488625884056,0.003478093771263957,0.014935159124433994,-0.05883442237973213,0.0,0.0,0.0,-9.760789544088766e-05,-0.0002070168120553717,-0.0,0.0,0.0,0.0,9.033958485815674e-05,0.017234252765774727,0.0037806187756359577,17749.0,13700.0,15844.0,15930.0,0.7235584259033203,0.41935741901397705,0.5701850652694702,0.5767345428466797,0.0,0.0,0.0,0.0,17418.0,14120.0,15492.0,16273.0,2.290318250656128,0.04306794281314543,-0.10419102067380667,0.046571385050749266,0.0011424925178289413,-0.00041437099571339786,0.0
180,5,1.645964971430658e-06,-4.332203388912603e-06,-1.3619849596580025e-05,-0.00018993517733179033,0.0005593450623564422,7.684596494073048e-05,-0.0016506214160472155,-0.05550500750541687,0.04377826675772667,0.004376642405986786,-0.008443227969110012,0.1443217396736145,0.0,0.0,0.0,-0.00020316134032327682,6.418471457436681e-05,-0.0,0.0,0.0,0.0,0.00024068460334092379,0.016606677323579788,0.007781700696796179,19157.0,11607.0,17463.0,14125.0,0.8486441373825073,0.29436373710632324,0.6994096040725708,0.4474179744720459,0.0,0.0,0.0,0.0,17418.0,14120.0,15492.0,16273.0,2.2878944873809814,0.04247519011934754,-0.10392682898152444,0.04629612549147491,-0.00035385022056289017,-0.0008615601109340787,0.0
185,5,-5.025355562793266e-07,1.5330655514844693e-05,-9.937080136523946e-08,-0.00033379413071088493,-0.0021358050871640444,-0.0015917191049084067,-0.0016506214160472155,-0.05550500750541687,0.04377826675772667,0.004376642405986786,-0.008443227969110012,0.1443217396736145,0.0,0.0,0.0,-0.00020316134032327682,6.418471457436681e-05,-0.0,0.0,0.0,0.0,0.00024068460334092379,0.016606677323579788,0.007781700696796179,19157.0,11607.0,17463.0,14125.0,0.8486441373825073,0.29436373710632324,0.6994096040725708,0.4474179744720459,0.0,0.0,0.0,0.0,17418.0,14120.0,15492.0,16273.0,2.2878944873809814,0.04320628145071206,-0.10368118034925833,0.04672609356203733,-0.00035385022056289017,-0.0008615601109340787,0.0
190,5,1.553300307932659e-06,4.230823378748028e-06,-7.6180413088877685e-06,0.00011318265023874119,0.00047765785711817443,0.00026555280783213675,-0.0016230237670242786,-0.05552954599261284,0.04362533241510391,0.0012458126293495297,-0.004814395681023598,-0.12637628614902496,0.0,0.0,0.0,0.001908520353026688,-0.0002275304723298177,-0.0,0.0,0.0,0.0,0.00022938376059755683,0.01686289720237255,0.0007703005685470998,17217.0,14366.0,15292.0,16462.0,0.6788945198059082,0.46377134323120117,0.5291966199874878,0.6179729700088501,0.0,0.0,0.0,0.0,18957.0,11933.0,17232.0,14413.0,2.287898540496826,0.0430627402502202,-0.10360231012420713,0.04672862873303664,0.0012543752091005445,0.008093598298728466,0.0
195,5,-4.991793048247928e-06,-5.977244200039422e-06,-4.695768438978121e-06,-0.0007401381735689938,0.0014160311548039317,-0.0002444515994284302,-0.0016230237670242786,-0.05552954599261284,0.04362533241510391,0.0012458126293495297,-0.004814395681023598,-0.12637628614902496,0.0,0.0,0.0,0.001908520353026688,-0.0002275304723298177,-0.0,0.0,0.0,0.0,0.00022938376059755683,0.01686289720237255,0.0007703005685470998,17217.0,14366.0,15292.0,16462.0,0.6788945198059082,0.46377134323120117,0.5291966199874878,0.6179729700088501,0.0,0.0,0.0,0.0,18957.0,11933.0,17232.0,14413.0,2.287898540496826,0.042917855113982356,-0.10404009032859103,0.04618755136576058,0.0012543752091005445,0.008093598298728466,0.0
200,5,-8.106060704449192e-06,1.5781497495481744e-05,1.5019583770481404e-05,-0.0006697673234157264,-0.0020446365233510733,-0.0024636229500174522,-0.0014408433344215155,-0.05539494380354881,0.04434775188565254,0.02244621142745018,-0.01239064708352089,0.0906241238117218,0.0,0.0,0.0,-0.0012544221244752407,-0.0005061960546299815,-0.0,0.0,0.0,0.0,2.12060367630329e-05,0.01664293371140957,0.007860449142754078,18815.0,12208.0,17076.0,14569.0,0.8173186182975769,0.3280068039894104,0.6672870516777039,0.47770577669143677,0.0,0.0,0.0,0.0,17891.0,13508.0,16095.0,15685.0,2.2979111671447754,0.042604016898131286,-0.10415121875370723,0.046723618420471284,0.0028028737287968397,-0.005343001801520586,0.0
205,5,-2.9966540751047432e-06,2.369194589846302e-06,8.971172974270303e-06,0.0003452218370512128,0.0007916217437013984,-0.000259639899013564,-0.0014408433344215155,-0.05539494380354881,0.04434775188565254,0.02244621142745018,-0.01239064708352089,0.0906241238117218,0.0,0.0,0.0,-0.0012544221244752407,-0.0005061960546299815,-0.0,0.0,0.0,0.0,2.12060367630329e-05,0.01664293371140957,0.007860449142754078,18815.0,12208.0,17076.0,14569.0,0.8173186182975769,0.3280068039894104,0.6672870516777039,0.47770577669143677,0.0,0.0,0.0,0.0,17891.0,13508.0,16095.0,15685.0,2.2979111671447754,0.04257930628241651,-0.10457976796221471,0.04701229962318902,0.0028028737287968397,-0.005343001801520586,0.0
210,5,-1.6952264559222385e-05,-4.54630844615167e-06,2.8768470656359568e-05,-0.001536584459245205,0.0011465090792626143,-0.00247953156940639,-0.0014066701987758279,-0.05481719225645065,0.043953921645879745,-0.01809295453131199,-0.0789879560470581,0.013406327925622463,0.0,0.0,0.0,-0.0006959972088225186,0.00023153706570155919,-0.0,0.0,0.0,0.0,0.0010385793866589665,0.014999853447079659,0.003844560356810689,18134.0,13070.0,16592.0,15213.0,0.7567488551139832,0.3794434070587158,0.6282504200935364,0.523455798625946,0.0,0.0,0.0,0.0,18644.0,12377.0,17076.0,14613.0,2.290987968444824,0.04288629999869297,-0.10473552369392211,0.04633146967642712,-0.0012781891273334622,-0.0029555531218647957,0.0
215,5,-2.27566524699796e-05,-1.8390730929240817e-06,6.247953569982201e-05,-0.0013111603911966085,0.00013373538968153298,-0.005037140101194382,-0.0014066701987758279,-0.05481719225645065,0.043953921645879745,-0.01809295453131199,-0.0789879560470581,0.013406327925622463,0.0,0.0,0.0,-0.0006959972088225186,0.00023153706570155919,-0.0,0.0,0.0,0.0,0.0010385793866589665,0.014999853447079659,0.003844560356810689,18134.0,13070.0,16592.0,15213.0,0.7567488551139832,0.3794434070587158,0.6282504200935364,0.523455798625946,0.0,0.0,0.0,0.0,18644.0,12377.0,17076.0,14613.0,2.290987968444824,0.0428180465446533,-0.10467876258692094,0.046879575147243356,-0.0012781891273334622,-0.0029555531218647957,0.0
220,5,-4.938065103488043e-05,1.9201884242647793e-06,0.00011752633872674778,-0.0037193438038229942,-0.0003976172301918268,-0.008620472624897957,-0.0012909844517707825,-0.05448302626609802,0.044350847601890564,-0.023572800680994987,-0.060972508043050766,-0.08267293125391006,0.0,0.0,0.0,-0.00012048292410327122,-0.0009133315761573613,-0.0,0.0,0.0,0.0,0.0008160914876498282,0.015401855111122131,0.0029018372297286987,17454.0,13968.0,15817.0,16026.0,0.6986457109451294,0.4370015859603882,0.568202018737793,0.5840492248535156,0.0,0.0,0.0,0.0,17580.0,13797.0,15977.0,15876.0,2.2909882068634033,0.04263169478620059,-0.10597409001868444,0.046541247336602594,0.005042003933340311,-0.0005116310785524547,0.0
225,5,-6.13607990089804e-05,-1.0526063306315336e-05,0.00015241910296026617,-0.002925355453044176,0.0013345032930374146,-0.007635321468114853,-0.0012909844517707825,-0.05448302626609802,0.044350847601890564,-0.023572800680994987,-0.060972508043050766,-0.08267293125391006,0.0,0.0,0.0,-0.00012048292410327122,-0.0009133315761573613,-0.0,0.0,0.0,0.0,0.0008160914876498282,0.015401855111122131,0.0029018372297286987,17454.0,13968.0,15817.0,16026.0,0.6986457109451294,0.4370015859603882,0.568202018737793,0.5840492248535156,0.0,0.0,0.0,0.0,17580.0,13797.0,15977.0,15876.0,2.2909882068634033,0.042087177368515784,-0.10660794095545527,0.045998376359371373,0.005042003933340311,-0.0005116310785524547,0.0
230,5,-0.00010968864808091894,-5.742007488152012e-06,0.00025351205840706825,-0.006969484034925699,-4.02853729610797e-05,-0.01518528163433075,-0.0015704174293205142,-0.053823377937078476,0.04445112496614456,-0.03422762081027031,-0.08830912411212921,0.030299266800284386,0.0,0.0,0.0,-0.001188495079986751,-0.002042121021077037,-0.0,0.0,0.0,0.0,0.000505276839248836,0.01474925596266985,0.006205213721841574,18293.0,12979.0,16786.0,15020.0,0.7707259654998779,0.373872309923172,0.6438030004501343,0.5095099210739136,0.0,0.0,0.0,0.0,17723.0,13765.0,16231.0,15616.0,2.2979698181152344,0.041292979264084984,-0.10849078336515909,0.046516593900802636,0.011307773180305958,-0.005062325857579708,0.0
236,5,-0.00014472712064161897,-1.7248263247893192e-05,0.0003668073914013803,-0.0069924104027450085,0.0013646365841850638,-0.019669553264975548,-0.0015704174293205142,-0.053823377937078476,0.04445112496614456,-0.03422762081027031,-0.08830912411212921,0.030299266800284386,0.0,0.0,0.0,-0.001188495079986751,-0.002042121021077037,-0.0,0.0,0.0,0.0,0.000505276839248836,0.01474925596266985,0.006205213721841574,18293.0,12979.0,16786.0,15020.0,0.7707259654998779,0.373872309923172,0.6438030004501343,0.5095099210739136,0.0,0.0,0.0,0.0,17723.0,13765.0,16231.0,15616.0,2.2979698181152344,0.04092844552721285,-0.11069085093834338,0.046550216162933734,0.011307773180305958,-0.005062325857579708,0.0
241,5,-0.00018784435815177858,-1.4309042853710707e-05,0.0005070639308542013,-0.00797103252261877,0.00019314813835080713,-0.02469860389828682,-0.0018692525336518884,-0.05241316929459572,0.04381481185555458,-0.1118171438574791,-0.32370510697364807,-0.03262617439031601,0.0,0.0,0.0,-0.001222770195454359,-0.0048755803145468235,-0.0,0.0,0.0,0.0,0.0015974580310285091,0.009754184633493423,0.00312564754858613,17456.0,13877.0,16621.0,15313.0,0.6988048553466797,0.4309349060058594,0.6305452585220337,0.5307031869888306,0.0,0.0,0.0,0.0,17757.0,13445.0,17074.0,14838.0,2.2997522354125977,0.04070782172099963,-0.11297942887379203,0.0468178026347476,0.02701825089752674,-0.005212358199059963,0.0
246,5,-0.00022955279564484954,-2.7861759008374065e-05,0.0006350378971546888,-0.00819342490285635,0.0017035851487889886,-0.02523631788790226,-0.0018692525336518884,-0.05241316929459572,0.04381481185555458,-0.1118171438574791,-0.32370510697364807,-0.03262617439031601,0.0,0.0,0.0,-0.001222770195454359,-0.0048755803145468235,-0.0,0.0,0.0,0.0,0.0015974580310285091,0.009754184633493423,0.00312564754858613,17456.0,13877.0,16621.0,15313.0,0.6988048553466797,0.4309349060058594,0.6305452585220337,0.5307031869888306,0.0,0.0,0.0,0.0,17757.0,13445.0,17074.0,14838.0,2.2997522354125977,0.040164146946044414,-0.1150748914547327,0.04688929322425936,0.02701825089752674,-0.005212358199059963,0.0
251,5,-0.00026577062089927495,-3.9640668546780944e-05,0.0007723200251348317,-0.007623508106917143,0.002094903262332082,-0.02656838297843933,-0.0033144475892186165,-0.047788333147764206,0.04381663724780083,-0.1250229924917221,-0.4793648421764374,-0.02093699388206005,0.0,0.0,0.0,-0.0015421578427776694,-0.005800843704491854,-0.0,0.0,0.0,0.0,0.0018926264019683003,0.004605297930538654,0.004217107314616442,17292.0,14103.0,17020.0,14944.0,0.6851580142974854,0.4459582269191742,0.6627506017684937,0.5041029453277588,0.0,0.0,0.0,0.0,17142.0,14258.0,16905.0,15103.0,2.2885794639587402,0.0406029045851329,-0.11783415235840264,0.04685005007924835,0.03198939934372902,-0.0065418872982263565,0.0
256,5,-0.0003179140330757946,-7.32952612452209e-05,0.0008838757057674229,-0.009306615218520164,0.004876512102782726,-0.024014033377170563,-0.0033144475892186165,-0.047788333147764206,0.04381663724780083,-0.1250229924917221,-0.4793648421764374,-0.02093699388206005,0.0,0.0,0.0,-0.0015421578427776694,-0.005800843704491854,-0.0,0.0,0.0,0.0,0.0018926264019683003,0.004605297930538654,0.004217107314616442,17292.0,14103.0,17020.0,14944.0,0.6851580142974854,0.4459582269191742,0.6627506017684937,0.5041029453277588,0.0,0.0,0.0,0.0,17142.0,14258.0,16905.0,15103.0,2.2885794639587402,0.04061404327690389,-0.12089784787198239,0.04679389805932047,0.03198939934372902,-0.0065418872982263565,0.0
261,5,-0.00036810882738791406,-0.0001147958028013818,0.0009634760790504515,-0.009746021591126919,0.0069306702353060246,-0.019157662987709045,-0.0033144475892186165,-0.047788333147764206,0.04381663724780083,-0.1250229924917221,-0.4793648421764374,-0.02093699388206005,0.0,0.0,0.0,-0.004405923653393984,-0.00664603803306818,-0.0,0.0,0.0,0.0,0.0018926264019683003,0.004605297930538654,0.004217107314616442,17292.0,14103.0,17020.0,14944.0,0.6851580142974854,0.4459582269191742,0.6627506017684937,0.5041029453277588,0.0,0.0,0.0,0.0,17142.0,14258.0,16905.0,15103.0,2.2886431217193604,0.04085673455349528,-0.12298452741638198,0.04617658870146304,0.03665096312761307,-0.018690504133701324,0.0
266,5,-0.0004110210866201669,-0.00014432042371481657,0.0010252889478579164,-0.00904787890613079,0.006315221544355154,-0.015080609358847141,-0.004400578327476978,-0.04373283311724663,0.04364043101668358,-0.10659955441951752,-0.5288856625556946,-0.009850830771028996,0.0,0.0,0.0,-0.00577775901183486,-0.006572136655449867,-0.0,0.0,0.0,0.0,0.0017303625354543328,-0.0014687966322526336,0.001786106382496655,16185.0,15372.0,16515.0,15373.0,0.596307098865509,0.534997284412384,0.6221590638160706,0.5351160168647766,0.0,0.0,0.0,0.0,17019.0,14428.0,17244.0,14716.0,2.285552501678467,0.04133033211202623,-0.12528018278631933,0.04587229053550183,0.03619422763586044,-0.024476807564496994,0.0
271,5,-0.00043005612678825855,-0.00019302268628962338,0.0010493715526536107,-0.005903357639908791,0.008370361290872097,-0.008922158740460873,-0.004400578327476978,-0.04373283311724663,0.04364043101668358,-0.10659955441951752,-0.5288856625556946,-0.009850830771028996,0.0,0.0,0.0,-0.00577775901183486,-0.006572136655449867,-0.0,0.0,0.0,0.0,0.0017303625354543328,-0.0014687966322526336,0.001786106382496655,16185.0,15372.0,16515.0,15373.0,0.596307098865509,0.534997284412384,0.6221590638160706,0.5351160168647766,0.0,0.0,0.0,0.0,17019.0,14428.0,17244.0,14716.0,2.285552501678467,0.04117385305816032,-0.12626733152472228,0.045454207255523876,0.03619422763586044,-0.024476807564496994,0.0
276,5,-0.0004557378706522286,-0.00024346148711629212,0.0010893366998061538,-0.005443151108920574,0.009400800801813602,-0.00836467556655407,-0.005530467722564936,-0.03711364418268204,0.04290665686130524,-0.041828811168670654,-0.5567163825035095,-0.11751386523246765,0.0,0.0,0.0,-0.00577775901183486,-0.006572136655449867,-0.0,0.0,0.0,0.0,-0.00021457239927258343,0.0028348967898637056,0.0024341423995792866,16863.0,14862.0,16421.0,15243.0,0.6500206589698792,0.4982600510120392,0.614729106426239,0.5256332755088806,0.0,0.0,0.0,0.0,16172.0,15381.0,16477.0,15418.0,2.285552501678467,0.042792018040647355,-0.12608155069540952,0.044819073298049426,0.03619422763586044,-0.024476807564496994,0.0
282,5,-0.0004782241303473711,-0.0002985715982504189,0.0010990267619490623,-0.00487561197951436,0.010373531840741634,-0.004508672747761011,-0.005530467722564936,-0.03711364418268204,0.04290665686130524,-0.041828811168670654,-0.5567163825035095,-0.11751386523246765,0.0,0.0,0.0,-0.008687329478561878,-0.004186331294476986,-0.0,0.0,0.0,0.0,-0.00021457239927258343,0.0028348967898637056,0.0024341423995792866,16863.0,14862.0,16421.0,15243.0,0.6500206589698792,0.4982600510120392,0.614729106426239,0.5256332755088806,0.0,0.0,0.0,0.0,16172.0,15381.0,16477.0,15418.0,2.272601366043091,0.04196583797613088,-0.12572371735578036,0.04382873954803686,0.022924037650227547,-0.036593858152627945,0.0
287,5,-0.0004754758847411722,-0.00034793189843185246,0.0010523045202717185,-0.0016204564599320292,0.010072650387883186,0.0038031935691833496,-0.005808487068861723,-0.033496465533971786,0.04206074774265289,0.06149980425834656,-0.24366119503974915,-0.07770584523677826,0.0,0.0,0.0,-0.008687329478561878,-0.004186331294476986,-0.0,0.0,0.0,0.0,-0.002368965884670615,0.009927514009177685,0.00026609806809574366,16863.0,14862.0,16421.0,15243.0,0.6500206589698792,0.4982600510120392,0.614729106426239,0.5256332755088806,0.0,0.0,0.0,0.0,16879.0,14880.0,16276.0,15364.0,2.272601366043091,0.0426625431103678,-0.12498415260787639,0.04318370623605592,0.022924037650227547,-0.036593858152627945,0.0
292,5,-0.0004977686330676079,-0.00039081621798686683,0.0010516721522435546,-0.0033233140129595995,0.009175179526209831,0.0015971605898812413,-0.005808487068861723,-0.033496465533971786,0.04206074774265289,0.06149980425834656,-0.24366119503974915,-0.07770584523677826,0.0,0.0,0.0,-0.009484896436333656,-0.0015992007683962584,-0.0,0.0,0.0,0.0,-0.002368965884670615,0.009927514009177685,0.00026609806809574366,16863.0,14862.0,16421.0,15243.0,0.6500206589698792,0.4982600510120392,0.614729106426239,0.5256332755088806,0.0,0.0,0.0,0.0,16879.0,14880.0,16276.0,15364.0,2.2575736045837402,0.04235446212761794,-0.12459184360236912,0.04243633192834012,0.008699155412614346,-0.03968909755349159,-0.0
297,5,-0.0005180943990126252,-0.00041733792750164866,0.0010304030729457736,-0.0037684172857552767,0.006852676160633564,0.0031911530531942844,-0.0038314766716212034,-0.03399817645549774,0.039321593940258026,0.024305645376443863,0.17319752275943756,-0.1439971774816513,0.0,0.0,0.0,-0.009484896436333656,-0.0015992007683962584,-0.0,0.0,0.0,0.0,-0.0015367590822279453,0.013005957938730717,0.0004339667211752385,16783.0,14946.0,15127.0,16329.0,0.6435685157775879,0.5042638778686523,0.5172209739685059,0.6075479984283447,0.0,0.0,0.0,0.0,16547.0,15403.0,15085.0,16352.0,2.2575736045837402,0.0424703932629893,-0.1246060845492749,0.042098652537885375,0.008699155412614346,-0.03968909755349159,-0.0
302,5,-0.0005757496692240238,-0.0004254652594681829,0.0010993145406246185,-0.008425992913544178,0.0037163514643907547,-0.00699291517958045,-0.0038314766716212034,-0.03399817645549774,0.039321593940258026,0.024305645376443863,0.17319752275943756,-0.1439971774816513,0.0,0.0,0.0,-0.006839951500296593,-0.003192978212609887,-0.0,0.0,0.0,0.0,-0.0015367590822279453,0.013005957938730717,0.0004339667211752385,16783.0,14946.0,15127.0,16329.0,0.6435685157775879,0.5042638778686523,0.5172209739685059,0.6075479984283447,0.0,0.0,0.0,0.0,16547.0,15403.0,15085.0,16352.0,2.2083206176757812,0.04196818066569293,-0.12525589113978736,0.04147998346028476,0.01699022389948368,-0.027997389435768127,-0.0
307,5,-0.0006335890502668917,-0.0004395494470372796,0.001131367520429194,-0.010311126708984375,0.0031766423489898443,-0.006643527653068304,-0.0038314766716212034,-0.03399817645549774,0.039321593940258026,0.024305645376443863,0.17319752275943756,-0.1439971774816513,0.0,0.0,0.0,-0.006839951500296593,-0.003192978212609887,-0.0,0.0,0.0,0.0,7.22559925634414e-05,0.008803077973425388,0.0012974016135558486,16715.0,14743.0,15677.0,15866.0,0.6380877494812012,0.4899071455001831,0.5576680898666382,0.5719106197357178,0.0,0.0,0.0,0.0,16821.0,14857.0,15305.0,16206.0,2.2083206176757812,0.04173593392020188,-0.12642186010379663,0.04123266118540792,0.01699022389948368,-0.027997389435768127,-0.0
312,5,-0.0007143054390326142,-0.00043910820386372507,0.001209328998811543,-0.013810419477522373,0.0012177082244306803,-0.012012788094580173,-0.0038314766716212034,-0.03399817645549774,0.039321593940258026,0.024305645376443863,0.17319752275943756,-0.1439971774816513,0.0,0.0,0.0,-0.0035023046657443047,-0.007923533208668232,-0.0,0.0,0.0,0.0,7.22559925634414e-05,0.008803077973425388,0.0012974016135558486,16715.0,14743.0,15677.0,15866.0,0.6380877494812012,0.4899071455001831,0.5576680898666382,0.5719106197357178,0.0,0.0,0.0,0.0,16821.0,14857.0,15305.0,16206.0,2.208340644836426,0.0400331175001354,-0.1285098655559106,0.04097817346798639,0.04216282069683075,-0.014335964806377888,0.0
317,5,-0.0007894271984696388,-0.00043942881166003644,0.0012763438280671835,-0.0145387789234519,0.0005255537107586861,-0.012846882455050945,-0.005121656693518162,-0.03341462090611458,0.03724779933691025,-0.14297616481781006,-0.3299814760684967,-0.0679231584072113,0.0,0.0,0.0,-0.0035023046657443047,-0.007923533208668232,-0.0,0.0,0.0,0.0,0.0010743073653429747,0.0036932770162820816,0.002107378328219056,16402.0,14564.0,16249.0,15116.0,0.6132532358169556,0.47740861773490906,0.6012755632400513,0.516383171081543,0.0,0.0,0.0,0.0,16757.0,14668.0,15910.0,15660.0,2.208340644836426,0.03918579734133539,-0.1302825803994564,0.040641325882496505,0.04216282069683075,-0.014335964806377888,0.0
322,5,-0.0008644230547361076,-0.00044063941459171474,0.0013386697974056005,-0.014815009199082851,0.00035549618769437075,-0.012617869302630424,-0.005121656693518162,-0.03341462090611458,0.03724779933691025,-0.14297616481781006,-0.3299814760684967,-0.0679231584072113,0.0,0.0,0.0,-0.0010924481321126223,-0.011257026344537735,-0.0,0.0,0.0,0.0,0.0010743073653429747,0.0036932770162820816,0.002107378328219056,16402.0,14564.0,16249.0,15116.0,0.6132532358169556,0.47740861773490906,0.6012755632400513,0.516383171081543,0.0,0.0,0.0,0.0,16757.0,14668.0,15910.0,15660.0,2.1705760955810547,0.038300974022539395,-0.13246525733329848,0.040668137205356135,0.058876391500234604,-0.0043952567502856255,0.0
327,5,-0.0009282600367441773,-0.00045459845568984747,0.0013927961699664593,-0.013586445711553097,0.0018172808922827244,-0.011542318388819695,-0.006912099663168192,-0.02887573651969433,0.03670894354581833,-0.15255461633205414,-0.3747585713863373,-0.03893961012363434,0.0,0.0,0.0,-0.0010924481321126223,-0.011257026344537735,-0.0,0.0,0.0,0.0,0.0021437318064272404,0.0002625492634251714,0.0028934008441865444,16344.0,14489.0,16738.0,14710.0,0.608710527420044,0.47221753001213074,0.6398788690567017,0.48753365874290466,0.0,0.0,0.0,0.0,16440.0,14504.0,16471.0,14889.0,2.1705760955810547,0.03777523480080309,-0.13393830248008884,0.04041007146603294,0.058876391500234604,-0.0043952567502856255,0.0
332,5,-0.0009784228168427944,-0.0004786755016539246,0.0014223481994122267,-0.01145410817116499,0.0036161604803055525,-0.008163166232407093,-0.006912099663168192,-0.02887573651969433,0.03670894354581833,-0.15255461633205414,-0.3747585713863373,-0.03893961012363434,0.0,0.0,0.0,-0.0023281967733055353,-0.010770024731755257,-0.0,0.0,0.0,0.0,0.0021437318064272404,0.0002625492634251714,0.0028934008441865444,16344.0,14489.0,16738.0,14710.0,0.608710527420044,0.47221753001213074,0.6398788690567017,0.48753365874290466,0.0,0.0,0.0,0.0,16440.0,14504.0,16471.0,14889.0,2.1606616973876953,0.03774116965765578,-0.134642700942564,0.03968049527424771,0.056071970611810684,-0.00932425819337368,0.0
338,5,-0.0010236589005216956,-0.0005068167229183018,0.001425746246241033,-0.01000998169183731,0.00482340669259429,-0.003673039609566331,-0.007714018691331148,-0.026117634028196335,0.0361400730907917,-0.00504247797653079,-0.24210235476493835,-0.11835431307554245,0.0,0.0,0.0,-0.0023281967733055353,-0.010770024731755257,-0.0,0.0,0.0,0.0,0.0013025220250710845,0.0005191624513827264,0.0009402543073520064,15884.0,15199.0,15885.0,15431.0,0.5732633471488953,0.5224172472953796,0.5733298659324646,0.5393301844596863,0.0,0.0,0.0,0.0,16317.0,14548.0,16676.0,14752.0,2.1606616973876953,0.03760357703478609,-0.13452037145549522,0.038992559227455245,0.056071970611810684,-0.00932425819337368,0.0
343,5,-0.0010510236024856567,-0.0005307159735821187,0.0013972485903650522,-0.0072877476923167706,0.004797276575118303,0.0019505107775330544,-0.007714018691331148,-0.026117634028196335,0.0361400730907917,-0.00504247797653079,-0.24210235476493835,-0.11835431307554245,0.0,0.0,0.0,-0.005240680184215307,-0.008336051367223263,-0.0,0.0,0.0,0.0,0.0013025220250710845,0.0005191624513827264,0.0009402543073520064,15884.0,15199.0,15885.0,15431.0,0.5732633471488953,0.5224172472953796,0.5733298659324646,0.5393301844596863,0.0,0.0,0.0,0.0,16317.0,14548.0,16676.0,14752.0,2.1501407623291016,0.03786104215474378,-0.13457372261423706,0.038361465983113296,0.04318850859999657,-0.02088620327413082,0.0
348,5,-0.0010935405734926462,-0.000552059558685869,0.0014055684441700578,-0.00801713764667511,0.004480138421058655,-0.00021818566892761737,-0.007242874708026648,-0.02452065609395504,0.034805480390787125,0.06256633996963501,-0.028958072885870934,-0.10060082376003265,0.0,0.0,0.0,-0.005240680184215307,-0.008336051367223263,-0.0,0.0,0.0,0.0,0.00035848954576067626,0.0034922168124467134,0.0010725311003625393,16060.0,14814.0,15670.0,15330.0,0.586658239364624,0.4948616921901703,0.5570882558822632,0.5319678783416748,0.0,0.0,0.0,0.0,15729.0,15098.0,15785.0,15278.0,2.1501407623291016,0.03836341682243322,-0.13392473086921644,0.037855189391730264,0.04318850859999657,-0.02088620327413082,0.0
353,5,-0.0011418876238167286,-0.0005739467451348901,0.0014142211293801665,-0.009008507244288921,0.004418519791215658,-0.001125591923482716,-0.007242874708026648,-0.02452065609395504,0.034805480390787125,0.06256633996963501,-0.028958072885870934,-0.10060082376003265,0.0,0.0,0.0,-0.005038692615926266,-0.007049778942018747,-0.0,0.0,0.0,0.0,0.00035848954576067626,0.0034922168124467134,0.0010725311003625393,16060.0,14814.0,15670.0,15330.0,0.586658239364624,0.4948616921901703,0.5570882558822632,0.5319678783416748,0.0,0.0,0.0,0.0,15729.0,15098.0,15785.0,15278.0,2.1253538131713867,0.03835020228325569,-0.13386039213319836,0.03721895496011043,0.036103516817092896,-0.019849715754389763,0.0
358,5,-0.0012045020703226328,-0.0005906868609599769,0.001418001134879887,-0.011117127723991871,0.003776219906285405,-0.0009038465213961899,-0.006721037440001965,-0.02463921345770359,0.03389463573694229,0.06236211210489273,0.019136594608426094,-0.1178390309214592,0.0,0.0,0.0,-0.005038692615926266,-0.007049778942018747,-0.0,0.0,0.0,0.0,-5.3454314183909446e-05,0.005107256583869457,0.0005382470553740859,15947.0,14910.0,15371.0,15521.0,0.5780049562454224,0.5016657114028931,0.5349888801574707,0.5460021495819092,0.0,0.0,0.0,0.0,16028.0,14819.0,15468.0,15427.0,2.1253538131713867,0.03826881807062117,-0.13359704902233896,0.03661142074561,0.036103516817092896,-0.019849715754389763,0.0
363,5,-0.0012743049301207066,-0.0006002538139000535,0.0014224254991859198,-0.012823192402720451,0.0026585219893604517,-0.0008924612775444984,-0.006721037440001965,-0.02463921345770359,0.03389463573694229,0.06236211210489273,0.019136594608426094,-0.1178390309214592,0.0,0.0,0.0,-0.004458692390471697,-0.009515784680843353,-0.0,0.0,0.0,0.0,-5.3454314183909446e-05,0.005107256583869457,0.0005382470553740859,15947.0,14910.0,15371.0,15521.0,0.5780049562454224,0.5016657114028931,0.5349888801574707,0.5460021495819092,0.0,0.0,0.0,0.0,16028.0,14819.0,15468.0,15427.0,2.108374834060669,0.03874441435656248,-0.13428471592784394,0.03596026182655497,0.0483429841697216,-0.017424538731575012,0.0
368,5,-0.0013570110313594341,-0.000610646209679544,0.001409676973707974,-0.015054014511406422,0.0023104974534362555,0.0011728416429832578,-0.006721037440001965,-0.02463921345770359,0.03389463573694229,0.06236211210489273,0.019136594608426094,-0.1178390309214592,0.0,0.0,0.0,-0.004458692390471697,-0.009515784680843353,-0.0,0.0,0.0,0.0,-5.3454314183909446e-05,0.005107256583869457,0.0005382470553740859,15947.0,14910.0,15371.0,15521.0,0.5780049562454224,0.5016657114028931,0.5349888801574707,0.5460021495819092,0.0,0.0,0.0,0.0,16028.0,14819.0,15468.0,15427.0,2.108374834060669,0.03849283278324494,-0.13522559545126675,0.03606649234265505,0.0483429841697216,-0.017424538731575012,0.0
373,5,-0.001443076296709478,-0.0006223306991159916,0.0014058254892006516,-0.0163494311273098,0.0023263355251401663,0.0009313227492384613,-0.006222336553037167,-0.024189909920096397,0.032660502940416336,0.021486889570951462,-0.10687267780303955,-0.0918419361114502,0.0,0.0,0.0,-0.0031150449067354202,-0.012727610766887665,-0.0,0.0,0.0,0.0,-0.00020157269318588078,0.003232502145692706,0.0010580138769000769,15982.0,14812.0,15626.0,15177.0,0.5807396769523621,0.4947400391101837,0.5538479685783386,0.5208130478858948,0.0,0.0,0.0,0.0,16051.0,14747.0,15697.0,15095.0,2.085233211517334,0.039012247539722114,-0.136492002356223,0.035847183834038225,0.06394986063241959,-0.012039992958307266,-0.0
378,5,-0.0015478236600756645,-0.0006139044999144971,0.0014329812256619334,-0.019109465181827545,-8.060563413891941e-05,-0.0028861588798463345,-0.006222336553037167,-0.024189909920096397,0.032660502940416336,0.021486889570951462,-0.10687267780303955,-0.0918419361114502,0.0,0.0,0.0,-0.0031150449067354202,-0.012727610766887665,-0.0,0.0,0.0,0.0,-0.00020157269318588078,0.003232502145692706,0.0010580138769000769,15982.0,14812.0,15626.0,15177.0,0.5807396769523621,0.4947400391101837,0.5538479685783386,0.5208130478858948,0.0,0.0,0.0,0.0,16051.0,14747.0,15697.0,15095.0,2.085233211517334,0.038788766617247665,-0.13749883959269835,0.03561737732805529,0.06394986063241959,-0.012039992958307266,-0.0
383,5,-0.0016295023960992694,-0.0006252657040022314,0.00144070980604738,-0.017445238307118416,0.001331100007519126,-0.0020818987395614386,-0.005895278416574001,-0.02314365655183792,0.03205412998795509,-0.00103446573484689,-0.254830002784729,-0.05537756532430649,0.0,0.0,0.0,-0.0008047337178140879,-0.016052065417170525,-0.0,0.0,0.0,0.0,0.00011539150727912784,0.000378341821487993,0.0018364823190495372,15997.0,14584.0,16017.0,14620.0,0.5818902254104614,0.4788101017475128,0.5833743810653687,0.4812791645526886,0.0,0.0,0.0,0.0,16091.0,14496.0,16142.0,14465.0,2.0738582611083984,0.03883929973664425,-0.13978039331579756,0.03564762584957407,0.08021268993616104,-0.0030934258829802275,0.0
389,5,-0.0017221919260919094,-0.0006310162134468555,0.0014839941868558526,-0.018100837245583534,0.0012225034879520535,-0.006026884540915489,-0.005895278416574001,-0.02314365655183792,0.03205412998795509,-0.00103446573484689,-0.254830002784729,-0.05537756532430649,0.0,0.0,0.0,-0.0008047337178140879,-0.016052065417170525,-0.0,0.0,0.0,0.0,0.00011539150727912784,0.000378341821487993,0.0018364823190495372,15997.0,14584.0,16017.0,14620.0,0.5818902254104614,0.4788101017475128,0.5833743810653687,0.4812791645526886,0.0,0.0,0.0,0.0,16091.0,14496.0,16142.0,14465.0,2.0738582611083984,0.03872346576461571,-0.14094884902225052,0.03527377039847324,0.08021268993616104,-0.0030934258829802275,0.0
394,5,-0.0018043415620923042,-0.0006394583033397794,0.0014972253702580929,-0.017098287120461464,0.0015020534629002213,-0.003998497035354376,-0.005985638592392206,-0.01987869292497635,0.03164088353514671,-0.030055664479732513,-0.30824050307273865,-0.029135027900338173,0.0,0.0,0.0,-0.0021090081427246332,-0.01554710790514946,-0.0,0.0,0.0,0.0,0.0006658503552898765,-0.0024701841175556183,0.002668211702257395,15953.0,14449.0,16354.0,14177.0,0.5784783363342285,0.46944865584373474,0.6094799041748047,0.4509678781032562,0.0,0.0,0.0,0.0,15848.0,14576.0,16290.0,14240.0,2.0660080909729004,0.03860968066250828,-0.14185810767765866,0.034718499741863654,0.07739538699388504,-0.008076407946646214,0.0
399,5,-0.0018947527278214693,-0.0006494536064565182,0.0015433919616043568,-0.017688652500510216,0.0018002530559897423,-0.0071393949910998344,-0.005985638592392206,-0.01987869292497635,0.03164088353514671,-0.030055664479732513,-0.30824050307273865,-0.029135027900338173,0.0,0.0,0.0,-0.0021090081427246332,-0.01554710790514946,-0.0,0.0,0.0,0.0,0.0006658503552898765,-0.0024701841175556183,0.002668211702257395,15953.0,14449.0,16354.0,14177.0,0.5784783363342285,0.46944865584373474,0.6094799041748047,0.4509678781032562,0.0,0.0,0.0,0.0,15848.0,14576.0,16290.0,14240.0,2.0660080909729004,0.03914459033649165,-0.1428280348750758,0.034570232255068535,0.07739538699388504,-0.008076407946646214,0.0
404,5,-0.0019584691617637873,-0.0006546027143485844,0.0015324908308684826,-0.014721440151333809,0.0013379976153373718,-0.0015476192347705364,-0.006120558362454176,-0.017241738736629486,0.031161895021796227,-0.018601614981889725,-0.2453313171863556,-0.07712403684854507,0.0,0.0,0.0,-0.002713805064558983,-0.01549692265689373,-0.0,0.0,0.0,0.0,0.0009866537293419242,-0.003596289549022913,0.0014243429759517312,15420.0,14835.0,15915.0,14526.0,0.5385374426841736,0.4963327944278717,0.5755899548530579,0.47477295994758606,0.0,0.0,0.0,0.0,15427.0,14855.0,15861.0,14557.0,2.056901216506958,0.039273945516635975,-0.14357786493954958,0.03434018982708572,0.07680540531873703,-0.01034664735198021,0.0
409,5,-0.0020284170750528574,-0.0006640169303864241,0.001526741194538772,-0.014282332733273506,0.0016648999880999327,7.09159139660187e-05,-0.006120558362454176,-0.017241738736629486,0.031161895021796227,-0.018601614981889725,-0.2453313171863556,-0.07712403684854507,0.0,0.0,0.0,-0.002713805064558983,-0.01549692265689373,-0.0,0.0,0.0,0.0,0.0009866537293419242,-0.003596289549022913,0.0014243429759517312,15420.0,14835.0,15915.0,14526.0,0.5385374426841736,0.4963327944278717,0.5755899548530579,0.47477295994758606,0.0,0.0,0.0,0.0,15427.0,14855.0,15861.0,14557.0,2.056901216506958,0.039444305616622294,-0.1438729476305317,0.03424008252846751,0.07680540531873703,-0.01034664735198021,0.0
414,5,-0.0020907525904476643,-0.0006701425882056355,0.0015399405965581536,-0.013193173334002495,0.0014010407030582428,-0.0015555655118077993,-0.005921970587223768,-0.015065253712236881,0.030346563085913658,0.03489121422171593,-0.12114907056093216,-0.06164127215743065,0.0,0.0,0.0,-0.002622221363708377,-0.013169292360544205,-0.0,0.0,0.0,0.0,0.0002911273913923651,-0.0007908873376436532,0.00131864077411592,15491.0,14721.0,15605.0,14625.0,0.543765664100647,0.4883476197719574,0.552247166633606,0.4816475808620453,0.0,0.0,0.0,0.0,15549.0,14626.0,15876.0,14478.0,2.0412685871124268,0.03890247439538803,-0.14445884397350905,0.03405657381690254,0.06477396190166473,-0.00992149580270052,-0.0
419,5,-0.002178876893594861,-0.0006692768656648695,0.0015535124111920595,-0.0158521868288517,0.0004565331037156284,-0.00225085043348372,-0.005921970587223768,-0.015065253712236881,0.030346563085913658,0.03489121422171593,-0.12114907056093216,-0.06164127215743065,0.0,0.0,0.0,-0.002622221363708377,-0.013169292360544205,-0.0,0.0,0.0,0.0,0.0002911273913923651,-0.0007908873376436532,0.00131864077411592,15491.0,14721.0,15605.0,14625.0,0.543765664100647,0.4883476197719574,0.552247166633606,0.4816475808620453,0.0,0.0,0.0,0.0,15549.0,14626.0,15876.0,14478.0,2.0412685871124268,0.039232106385879914,-0.14491750577089865,0.03360724754039657,0.06477396190166473,-0.00992149580270052,-0.0
424,5,-0.002263520611450076,-0.0006850964273326099,0.001549317268654704,-0.016498127952218056,0.0020809597335755825,-0.00039691803976893425,-0.005821506958454847,-0.014538210816681385,0.02977641485631466,0.0510360524058342,-0.04099559038877487,-0.0789313018321991,0.0,0.0,0.0,-0.0014405420515686274,-0.014614013954997063,-0.0,0.0,0.0,0.0,0.0007952313171699643,-0.0005683535127900541,0.0016522507648915052,15491.0,14721.0,15605.0,14625.0,0.543765664100647,0.4883476197719574,0.552247166633606,0.4816475808620453,0.0,0.0,0.0,0.0,15508.0,14693.0,15653.0,14583.0,2.03037691116333,0.03905080727685134,-0.1447464419255181,0.03319163262894739,0.07149606943130493,-0.005421392619609833,0.0
429,5,-0.0023492632899433374,-0.0006863218150101602,0.001546274172142148,-0.016888361424207687,0.0009794274810701609,0.00020640567527152598,-0.005821506958454847,-0.014538210816681385,0.02977641485631466,0.0510360524058342,-0.04099559038877487,-0.0789313018321991,0.0,0.0,0.0,-0.0014405420515686274,-0.014614013954997063,-0.0,0.0,0.0,0.0,0.0007952313171699643,-0.0005683535127900541,0.0016522507648915052,15491.0,14721.0,15605.0,14625.0,0.543765664100647,0.4883476197719574,0.552247166633606,0.4816475808620453,0.0,0.0,0.0,0.0,15508.0,14693.0,15653.0,14583.0,2.03037691116333,0.03890911989526735,-0.1453906196968261,0.033213898221758555,0.07149606943130493,-0.005421392619609833,0.0
434,5,-0.0025546210817992687,-0.0006863999296911061,0.0015720477094873786,-0.02025611698627472,-0.00045032697380520403,-0.003474539378657937,-0.005666776094585657,-0.014212468639016151,0.028965024277567863,0.007274509407579899,-0.03557879477739334,-0.06560268998146057,0.0,0.0,0.0,-0.002002483466640115,-0.015722224488854408,-0.0,0.0,0.0,0.0,0.0008683373453095555,-0.0005486543523147702,0.002665253821760416,15817.0,14094.0,15994.0,14105.0,0.5681455731391907,0.4453878700733185,0.5816417336463928,0.44609335064888,0.0,0.0,0.0,0.0,15593.0,14496.0,15766.0,14436.0,2.0147976875305176,0.038476624252099946,-0.14635129244516656,0.033418837798485396,0.07632707059383392,-0.007478395476937294,-0.0
439,5,-0.0026498176157474518,-0.0006932297837920487,0.0015657468466088176,-0.019526032730937004,0.0006394520751200616,-0.0006337013328447938,-0.005666776094585657,-0.014212468639016151,0.028965024277567863,0.007274509407579899,-0.03557879477739334,-0.06560268998146057,0.0,0.0,0.0,-0.002002483466640115,-0.015722224488854408,-0.0,0.0,0.0,0.0,0.0008683373453095555,-0.0005486543523147702,0.002665253821760416,15817.0,14094.0,15994.0,14105.0,0.5681455731391907,0.4453878700733185,0.5816417336463928,0.44609335064888,0.0,0.0,0.0,0.0,15593.0,14496.0,15766.0,14436.0,2.0147976875305176,0.038273846218667175,-0.14644948407344602,0.033116898694388816,0.07632707059383392,-0.007478395476937294,-0.0
444,5,-0.002740595256909728,-0.0007079201168380678,0.001533156493678689,-0.018703719601035118,0.0020186167676001787,0.0036573554389178753,-0.005687583237886429,-0.013919943943619728,0.02865792065858841,-0.014962210319936275,-0.06147446483373642,-0.022262368351221085,0.0,0.0,0.0,-0.0016767921624705195,-0.018155023455619812,-0.0,0.0,0.0,0.0,0.001268206862732768,-0.001485243672505021,0.0028678467497229576,15791.0,13984.0,16112.0,13945.0,0.5662227272987366,0.43803292512893677,0.5906577706336975,0.43546348810195923,0.0,0.0,0.0,0.0,15849.0,14024.0,16090.0,14029.0,2.0089497566223145,0.03855668108102851,-0.14673672469311708,0.03271520742532106,0.08788066357374191,-0.00624390784651041,0.0
450,5,-0.0028242492116987705,-0.0007044877274893224,0.001554724178276956,-0.017519965767860413,0.0003955626452807337,-0.0011251847026869655,-0.005687583237886429,-0.013919943943619728,0.02865792065858841,-0.014962210319936275,-0.06147446483373642,-0.022262368351221085,0.0,0.0,0.0,-0.0016767921624705195,-0.018155023455619812,-0.0,0.0,0.0,0.0,0.001268206862732768,-0.001485243672505021,0.0028678467497229576,15791.0,13984.0,16112.0,13945.0,0.5662227272987366,0.43803292512893677,0.5906577706336975,0.43546348810195923,0.0,0.0,0.0,0.0,15849.0,14024.0,16090.0,14029.0,2.0089497566223145,0.03839613756041949,-0.14723489148448907,0.03282830377444203,0.08788066357374191,-0.00624390784651041,0.0
455,5,-0.002908209338784218,-0.0007073883316479623,0.0015575477154925466,-0.017083212733268738,0.0005063007702119648,-0.0007888975087553263,-0.0064546819776296616,-0.012262912467122078,0.028379380702972412,-0.03666592761874199,-0.10754792392253876,-0.007504845503717661,0.0,0.0,0.0,-0.0014524003490805626,-0.016846589744091034,-0.0,0.0,0.0,0.0,0.001413948368281126,-0.003001239150762558,0.002943759085610509,15707.0,13960.0,16187.0,13740.0,0.5598841309547424,0.4364643692970276,0.596494734287262,0.4219544529914856,0.0,0.0,0.0,0.0,15723.0,14023.0,16150.0,13939.0,2.0035157203674316,0.03815815023293522,-0.14764565135678126,0.032864606027611966,0.0813271701335907,-0.0053937071934342384,0.0
460,5,-0.002908209338784218,-0.0007073883316479623,0.0015575477154925466,-0.017083212733268738,0.0005063007702119648,-0.0007888975087553263,-0.0064546819776296616,-0.012262912467122078,0.028379380702972412,-0.03666592761874199,-0.10754792392253876,-0.007504845503717661,0.0,0.0,0.0,-0.0014524003490805626,-0.016846589744091034,-0.0,0.0,0.0,0.0,0.001413948368281126,-0.003001239150762558,0.002943759085610509,15707.0,13960.0,16187.0,13740.0,0.5598841309547424,0.4364643692970276,0.596494734287262,0.4219544529914856,0.0,0.0,0.0,0.0,15723.0,14023.0,16150.0,13939.0,2.0035157203674316,0.03815815023293522,-0.14764565135678126,0.032864606027611966,0.0813271701335907,-0.0053937071934342384,0.0
465,5,-0.0030944228637963533,-0.0007236397941596806,0.0015750543680042028,-0.017897970974445343,0.0014189446810632944,-0.0012498234864324331,-0.006843026261776686,-0.011089264415204525,0.028297657147049904,0.005351794883608818,-0.0820142924785614,-0.00607855711132288,0.0,0.0,0.0,-0.001570431049913168,-0.01661825180053711,-0.0,0.0,0.0,0.0,0.001229800283908844,-0.0035484223626554012,0.0028820668812841177,15662.0,14006.0,16186.0,13656.0,0.5565326809883118,0.43947944045066833,0.5964380502700806,0.41649961471557617,0.0,0.0,0.0,0.0,15650.0,13978.0,16204.0,13767.0,2.0019261837005615,0.038478580027418864,-0.14838160211393364,0.03232466347934591,0.08016130328178406,-0.0058274040929973125,0.0
470,5,-0.0030944228637963533,-0.0007236397941596806,0.0015750543680042028,-0.017897970974445343,0.0014189446810632944,-0.0012498234864324331,-0.006843026261776686,-0.011089264415204525,0.028297657147049904,0.005351794883608818,-0.0820142924785614,-0.00607855711132288,0.0,0.0,0.0,-0.001570431049913168,-0.01661825180053711,-0.0,0.0,0.0,0.0,0.001229800283908844,-0.0035484223626554012,0.0028820668812841177,15662.0,14006.0,16186.0,13656.0,0.5565326809883118,0.43947944045066833,0.5964380502700806,0.41649961471557617,0.0,0.0,0.0,0.0,15650.0,13978.0,16204.0,13767.0,2.0019261837005615,0.038478580027418864,-0.14838160211393364,0.03232466347934591,0.08016130328178406,-0.0058274040929973125,0.0
475,5,-0.0033140985760837793,-0.0007461485802195966,0.0016220577526837587,-0.02195032685995102,0.0028992705047130585,-0.004026490729302168,-0.006843026261776686,-0.011089264415204525,0.028297657147049904,0.005351794883608818,-0.0820142924785614,-0.00607855711132288,0.0,0.0,0.0,-0.001570431049913168,-0.01661825180053711,-0.0,0.0,0.0,0.0,0.001229800283908844,-0.0035484223626554012,0.0028820668812841177,15662.0,14006.0,16186.0,13656.0,0.5565326809883118,0.43947944045066833,0.5964380502700806,0.41649961471557617,0.0,0.0,0.0,0.0,15650.0,13978.0,16204.0,13767.0,2.0019261837005615,0.04041999202752676,-0.1494554466898912,0.03220813064891618,0.08016130328178406,-0.0058274040929973125,0.0
