timestamp,dt,pos_x,pos_y,pos_z,vel_x,vel_y,vel_z,roll,pitch,yaw,agv_x,agv_y,agv_z,x_ref,y_ref,z_ref,roll_ref,pitch_ref,yaw_ref,x_vel_ref,y_vel_ref,z_vel_ref,x_torque,y_torque,z_torque,w0,w1,w2,w3,u0,u1,u2,u3,m0req,m1req,m2req,m3req,thrust0,thrust1,thrust2,thrust3,thrust_ref,roll_vicon,pitch_vicon,yaw_vicon,acc_x,acc_y,acc_z,roll_received,pitch_received,yaw_received
5,5,0.0,0.0,0.0,-0.0005410203593783081,0.001275919727049768,-0.001631743274629116,0.025959383696317673,-0.18426628410816193,-0.002982094418257475,0.0,0.0,0.0,0.0,0.0,0.0,-0.001574140740558505,-0.0005134411621838808,-0.0,0.0,0.0,0.0,-0.005485523957759142,0.0551571398973465,-0.00028231035685166717,1495.0,1495.0,1495.0,1495.0,0.0,0.0,0.0,0.0,0.0,0.0,0.0,0.0,0.0,0.0,0.0,0.0,1.6398451328277588,-0.01925768666913199,0.031232235183450828,-0.008499875838866973,0.002028826391324401,-0.004784699063748121,0.0,-0.001574140740558505,-0.0005134411621838808,0.0
34,29,0.0,0.0,0.0,-0.0020770139526575804,0.003988244570791721,0.0011923247948288918,0.025959383696317673,-0.18426628410816193,-0.002982094418257475,0.0,0.0,0.0,0.0,0.0,0.0,-0.001574140740558505,-0.0005134411621838808,-0.0,0.0,0.0,0.0,-0.005485523957759142,0.0551571398973465,-0.00028231035685166717,1495.0,1495.0,1495.0,1495.0,0.0,0.0,0.0,0.0,0.0,0.0,0.0,0.0,0.0,0.0,0.0,0.0,1.6398451328277588,-0.019725148921895457,0.030752956584087762,-0.008320765011452801,0.002028826391324401,-0.004784699063748121,0.0,-0.001574140740558505,-0.0005134411621838808,0.0
39,5,0.0,0.0,0.0,-0.0020770139526575804,0.003988244570791721,0.0011923247948288918,0.02595033124089241,-0.18426451086997986,-0.002987875137478113,0.0,0.0,0.0,0.0,0.0,0.0,-0.004827739670872688,-0.0019340174039825797,-0.0,0.0,0.0,0.0,-0.005524577107280493,0.05516132712364197,-0.0001933157618623227,1495.0,1495.0,1495.0,1495.0,0.0,0.0,0.0,0.0,0.0,0.0,0.0,0.0,0.0,0.0,0.0,0.0,1.6713358163833618,-0.019725148921895457,0.030752956584087762,-0.008320765011452801,0.007788802497088909,-0.014955917373299599,0.0,-0.001574140740558505,-0.0005134411621838808,0.0
44,5,0.0,0.0,0.0,-0.0020770139526575804,0.003988244570791721,0.0011923247948288918,0.02595033124089241,-0.18426451086997986,-0.002987875137478113,0.0,0.0,0.0,0.0,0.0,0.0,-0.004827739670872688,-0.0019340174039825797,-0.0,0.0,0.0,0.0,-0.005524577107280493,0.05516132712364197,-0.0001933157618623227,1495.0,1495.0,1495.0,1495.0,0.0,0.0,0.0,0.0,0.0,0.0,0.0,0.0,0.0,0.0,0.0,0.0,1.6713358163833618,-0.020378735600118672,0.030925023637619346,-0.008310648914297213,0.007788802497088909,-0.014955917373299599,0.0,-0.001574140740558505,-0.0005134411621838808,0.0
49,5,0.0,0.0,0.0,-0.0020770139526575804,0.003988244570791721,0.0011923247948288918,0.0259717870503664,-0.18432067334651947,-0.0029934607446193695,0.0,0.0,0.0,0.0,0.0,0.0,-0.004827739670872688,-0.0019340174039825797,-0.0,0.0,0.0,0.0,-0.006162444595247507,0.054784368723630905,-0.00035092682810500264,17314.0,9756.0,8136.0,16822.0,0.6869449019432068,0.20216675102710724,0.1355278342962265,0.6466963291168213,0.0,0.0,0.0,0.0,0.0,0.0,0.0,0.0,1.6713358163833618,-0.020378735600118672,0.030925023637619346,-0.008310648914297213,0.007788802497088909,-0.014955917373299599,0.0,-0.004827739670872688,-0.0019340174039825797,0.0
67,18,0.0,0.0,0.0,0.0006370054325088859,0.0005903972778469324,0.0001317682326771319,0.02597290277481079,-0.18434098362922668,-0.002995986957103014,0.0,0.0,0.0,0.0,0.0,0.0,-0.000730734143871814,0.0006064777844585478,-0.0,0.0,0.0,0.0,-0.006198902614414692,0.054883118718862534,-0.00036093220114707947,17278.0,9822.0,8038.0,16867.0,0.6839619874954224,0.2051289975643158,0.1319018006324768,0.6503430008888245,0.0,0.0,0.0,0.0,0.0,0.0,0.0,0.0,1.6345858573913574,-0.019774163912103956,0.030878808520071497,-0.008445988006670882,-0.0023887704592198133,-0.0022139898501336575,0.0,-0.004827739670872688,-0.0019340174039825797,0.0
75,8,0.0,0.0,0.0,0.0006370054325088859,0.0005903972778469324,0.0001317682326771319,0.02597290277481079,-0.18434098362922668,-0.002995986957103014,0.0,0.0,0.0,0.0,0.0,0.0,-0.000730734143871814,0.0006064777844585478,-0.0,0.0,0.0,0.0,-0.006198902614414692,0.054883118718862534,-0.00036093220114707947,17278.0,9822.0,8038.0,16867.0,0.6839619874954224,0.2051289975643158,0.1319018006324768,0.6503430008888245,0.0,0.0,0.0,0.0,0.0,0.0,0.0,0.0,1.6345858573913574,-0.019379215115613215,0.03084169376083545,-0.008505821680604864,-0.0023887704592198133,-0.0022139898501336575,0.0,-0.004827739670872688,-0.0019340174039825797,0.0
80,5,0.0,0.0,0.0,0.0006370054325088859,0.0005903972778469324,0.0001317682326771319,0.026003558188676834,-0.184378981590271,-0.002972920425236225,0.0,0.0,0.0,0.0,0.0,0.0,-0.000730734143871814,0.0006064777844585478,-0.0,0.0,0.0,0.0,-0.005345004610717297,0.055739063769578934,-0.0001865531667135656,17225.0,9343.0,7893.0,16795.0,0.6795510053634644,0.18391382694244385,0.12665316462516785,0.644467830657959,0.0,0.0,0.0,0.0,0.0,0.0,0.0,0.0,1.6345858573913574,-0.019379215115613215,0.03084169376083545,-0.008505821680604864,-0.0023887704592198133,-0.0022139898501336575,0.0,-0.000730734143871814,0.0006064777844585478,0.0
85,5,-4.595867721945979e-06,-2.1220546841504984e-05,2.285464461238007e-06,-0.00029670193907804787,0.0027826244477182627,-0.0002215484419139102,0.026003558188676834,-0.184378981590271,-0.002972920425236225,0.0,0.0,0.0,0.0,0.0,0.0,-0.000730734143871814,0.0006064777844585478,-0.0,0.0,0.0,0.0,-0.005345004610717297,0.055739063769578934,-0.0001865531667135656,17225.0,9343.0,7893.0,16795.0,0.6795510053634644,0.18391382694244385,0.12665316462516785,0.644467830657959,0.0,0.0,0.0,0.0,0.0,0.0,0.0,0.0,1.6345858573913574,-0.021086081945371545,0.030918267838912987,-0.008313983656594892,-0.0023887704592198133,-0.0022139898501336575,0.0,-0.000730734143871814,0.0006064777844585478,0.0
90,5,-4.595867721945979e-06,-2.1220546841504984e-05,2.285464461238007e-06,-0.00029670193907804787,0.0027826244477182627,-0.0002215484419139102,0.026003558188676834,-0.184378981590271,-0.002972920425236225,0.0,0.0,0.0,0.0,0.0,0.0,-0.000730734143871814,0.0006064777844585478,-0.0,0.0,0.0,0.0,-0.005345004610717297,0.055739063769578934,-0.0001865531667135656,17225.0,9343.0,7893.0,16795.0,0.6795510053634644,0.18391382694244385,0.12665316462516785,0.644467830657959,0.0,0.0,0.0,0.0,0.0,0.0,0.0,0.0,1.6345858573913574,-0.021086081945371545,0.030918267838912987,-0.008313983656594892,-0.0023887704592198133,-0.0022139898501336575,0.0,-0.000730734143871814,0.0006064777844585478,0.0
95,5,-4.1639432879492233e-07,-3.412719706830103e-06,-1.9366048036317807e-06,0.00038285600021481514,-0.001023889402858913,0.0004180289397481829,0.026000387966632843,-0.18438145518302917,-0.002975101349875331,0.0,0.0,0.0,0.0,0.0,0.0,-0.0034407046623528004,-0.0002854298800230026,-0.0,0.0,0.0,0.0,-0.005336720496416092,0.05561070516705513,-0.0002868408337235451,17203.0,9381.0,7886.0,16800.0,0.6777238845825195,0.18556369841098785,0.12641365826129913,0.6448845863342285,0.0,0.0,0.0,0.0,0.0,0.0,0.0,0.0,1.6544936895370483,-0.020069083513548545,0.03080473477997991,-0.008228173913755377,0.0011379256611689925,-0.010551628656685352,0.0,-0.000730734143871814,0.0006064777844585478,0.0
100,5,-4.1639432879492233e-07,-3.412719706830103e-06,-1.9366048036317807e-06,0.00038285600021481514,-0.001023889402858913,0.0004180289397481829,0.026000387966632843,-0.18438145518302917,-0.002975101349875331,0.0,0.0,0.0,0.0,0.0,0.0,-0.0034407046623528004,-0.0002854298800230026,-0.0,0.0,0.0,0.0,-0.005336720496416092,0.05561070516705513,-0.0002868408337235451,17203.0,9381.0,7886.0,16800.0,0.6777238845825195,0.18556369841098785,0.12641365826129913,0.6448845863342285,0.0,0.0,0.0,0.0,0.0,0.0,0.0,0.0,1.6544936895370483,-0.020069083513548545,0.03080473477997991,-0.008228173913755377,0.0011379256611689925,-0.010551628656685352,0.0,-0.000730734143871814,0.0006064777844585478,0.0
106,5,-9.465183211432304e-06,-6.872317953821039e-06,-2.337055411771871e-05,-0.0009327122825197875,5.596030405286001e-06,0.0027392853517085314,0.026000387966632843,-0.18438145518302917,-0.002975101349875331,0.0,0.0,0.0,0.0,0.0,0.0,0.0012593226274475455,0.00036342573002912104,-0.0,0.0,0.0,0.0,-0.005336720496416092,0.05561070516705513,-0.0002868408337235451,17203.0,9381.0,7886.0,16800.0,0.6777238845825195,0.18556369841098785,0.12641365826129913,0.6448845863342285,0.0,0.0,0.0,0.0,0.0,0.0,0.0,0.0,1.636819839477539,-0.020298053095554974,0.03088787318676325,-0.008386129386646913,-0.0014334022998809814,0.003820728976279497,0.0,-0.000730734143871814,0.0006064777844585478,0.0
111,5,-9.465183211432304e-06,-6.872317953821039e-06,-2.337055411771871e-05,-0.0009327122825197875,5.596030405286001e-06,0.0027392853517085314,0.02602526545524597,-0.1843460351228714,-0.0029716272838413715,0.0,0.0,0.0,0.0,0.0,0.0,-1.942840390256606e-05,-0.000900804705452174,-0.0,0.0,0.0,0.0,-0.0059490324929356575,0.05537783354520798,-0.0003386583412066102,17179.0,9383.0,7919.0,16834.0,0.6759767532348633,0.18563859164714813,0.1275946944952011,0.6476097702980042,0.0,0.0,0.0,0.0,0.0,0.0,0.0,0.0,1.6353811025619507,-0.020298053095554974,0.03088787318676325,-0.008386129386646913,0.0035497802309691906,-5.8893132518278435e-05,0.0,-0.0034407046623528004,-0.0002854298800230026,0.0
122,12,-1.0316578482161276e-05,1.602922384336125e-05,-1.8807308151735924e-05,-0.0009327122825197875,5.596030405286001e-06,0.0027392853517085314,0.02602526545524597,-0.1843460351228714,-0.0029716272838413715,0.0,0.0,0.0,0.0,0.0,0.0,-1.942840390256606e-05,-0.000900804705452174,-0.0,0.0,0.0,0.0,-0.0059490324929356575,0.05537783354520798,-0.0003386583412066102,17179.0,9383.0,7919.0,16834.0,0.6759767532348633,0.18563859164714813,0.1275946944952011,0.6476097702980042,0.0,0.0,0.0,0.0,0.0,0.0,0.0,0.0,1.6353811025619507,-0.018945945958990282,0.030700950595929956,-0.008409118683353834,0.0035497802309691906,-5.8893132518278435e-05,0.0,-0.0034407046623528004,-0.0002854298800230026,0.0
128,5,-2.4531545932404697e-05,-1.3052038411842659e-05,-3.252570240874775e-05,-0.0020788810215890408,0.003491989802569151,0.002741921693086624,0.026014316827058792,-0.18433259427547455,-0.002986541483551264,0.0,0.0,0.0,0.0,0.0,0.0,2.2142687157611363e-05,-0.0009019948774948716,-0.0,0.0,0.0,0.0,-0.0049964021891355515,0.05564258247613907,-0.0003422989684622735,17180.0,9387.0,7891.0,16845.0,0.6758611798286438,0.1858239620923996,0.12660200893878937,0.6485327482223511,0.0,0.0,0.0,0.0,0.0,0.0,0.0,0.0,1.6353942155838013,-0.020884094628208012,0.030865782499915333,-0.00818525420637197,0.0035544990096241236,6.712145113851875e-05,0.0,0.0012593226274475455,0.00036342573002912104,0.0
133,5,-2.4531545932404697e-05,-1.3052038411842659e-05,-3.252570240874775e-05,-0.0020788810215890408,0.003491989802569151,0.002741921693086624,0.026014316827058792,-0.18433259427547455,-0.002986541483551264,0.0,0.0,0.0,0.0,0.0,0.0,2.2142687157611363e-05,-0.0009019948774948716,-0.0,0.0,0.0,0.0,-0.0049964021891355515,0.05564258247613907,-0.0003422989684622735,17180.0,9387.0,7891.0,16845.0,0.6758611798286438,0.1858239620923996,0.12660200893878937,0.6485327482223511,0.0,0.0,0.0,0.0,0.0,0.0,0.0,0.0,1.6353942155838013,-0.020884094628208012,0.030865782499915333,-0.00818525420637197,0.0035544990096241236,6.712145113851875e-05,0.0,0.0012593226274475455,0.00036342573002912104,0.0
138,5,6.194533739289909e-07,2.987795596709475e-06,-4.277022981113987e-06,-0.0020788810215890408,0.003491989802569151,0.002741921693086624,0.026014316827058792,-0.18433259427547455,-0.002986541483551264,0.0,0.0,0.0,0.0,0.0,0.0,-0.004260458517819643,-0.0019740378484129906,-0.0,0.0,0.0,0.0,-0.0049964021891355515,0.05564258247613907,-0.0003422989684622735,17180.0,9387.0,7891.0,16845.0,0.6758611798286438,0.1858239620923996,0.12660200893878937,0.6485327482223511,0.0,0.0,0.0,0.0,0.0,0.0,0.0,0.0,1.6673214435577393,-0.0199651896609529,0.030856308238230618,-0.008312194178227874,0.00793089997023344,-0.013166847638785839,0.0,0.0012593226274475455,0.00036342573002912104,0.0
143,5,6.194533739289909e-07,2.987795596709475e-06,-4.277022981113987e-06,-0.0020788810215890408,0.003491989802569151,0.002741921693086624,0.02602398209273815,-0.1843067705631256,-0.002970681991428137,0.0,0.0,0.0,0.0,0.0,0.0,-0.004260458517819643,-0.0019740378484129906,-0.0,0.0,0.0,0.0,-0.0052926200442016125,0.055233247578144073,-0.00029139735852368176,17160.0,9463.0,7887.0,16808.0,0.6742313504219055,0.18913640081882477,0.12646685540676117,0.6455464959144592,0.0,0.0,0.0,0.0,0.0,0.0,0.0,0.0,1.6673214435577393,-0.0199651896609529,0.030856308238230618,-0.008312194178227874,0.00793089997023344,-0.013166847638785839,0.0,-1.942840390256606e-05,-0.000900804705452174,0.0
148,5,2.903884706029203e-06,-1.3167144743420067e-06,-8.657146281620953e-06,-0.0020788810215890408,0.003491989802569151,0.002741921693086624,0.02602398209273815,-0.1843067705631256,-0.002970681991428137,0.0,0.0,0.0,0.0,0.0,0.0,-0.004232912324368954,-0.0019400656456127763,-0.0,0.0,0.0,0.0,-0.0052926200442016125,0.055233247578144073,-0.00029139735852368176,17160.0,9463.0,7887.0,16808.0,0.6742313504219055,0.18913640081882477,0.12646685540676117,0.6455464959144592,0.0,0.0,0.0,0.0,0.0,0.0,0.0,0.0,1.6669262647628784,-0.020382969944659886,0.030802437645311133,-0.008226446771854223,0.007792567368596792,-0.013078617863357067,0.0,-1.942840390256606e-05,-0.000900804705452174,0.0
153,5,2.903884706029203e-06,-1.3167144743420067e-06,-8.657146281620953e-06,-0.0020788810215890408,0.003491989802569151,0.002741921693086624,0.026012495160102844,-0.18427978456020355,-0.002975582843646407,0.0,0.0,0.0,0.0,0.0,0.0,-0.004232912324368954,-0.0019400656456127763,-0.0,0.0,0.0,0.0,-0.005254451651126146,0.055198173969984055,-0.00031805672915652394,17151.0,9472.0,7884.0,16814.0,0.6734938621520996,0.18952783942222595,0.12634971737861633,0.6460227966308594,0.0,0.0,0.0,0.0,0.0,0.0,0.0,0.0,1.6669262647628784,-0.020382969944659886,0.030802437645311133,-0.008226446771854223,0.007792567368596792,-0.013078617863357067,0.0,2.2142687157611363e-05,-0.0009019948774948716,0.0
158,5,-9.744039743964095e-06,-9.13767280508182e-07,-2.086785934807267e-05,-0.0020788810215890408,0.003491989802569151,0.002741921693086624,0.026012495160102844,-0.18427978456020355,-0.002975582843646407,0.0,0.0,0.0,0.0,0.0,0.0,-0.004240480717271566,-0.001936891581863165,-0.0,0.0,0.0,0.0,-0.005254451651126146,0.055198173969984055,-0.00031805672915652394,17151.0,9472.0,7884.0,16814.0,0.6734938621520996,0.18952783942222595,0.12634971737861633,0.6460227966308594,0.0,0.0,0.0,0.0,0.0,0.0,0.0,0.0,1.666963815689087,-0.02066994107718071,0.030964488518010674,-0.00813882063472977,0.007779992651194334,-0.01310229767113924,0.0,2.2142687157611363e-05,-0.0009019948774948716,0.0
163,5,-9.744039743964095e-06,-9.13767280508182e-07,-2.086785934807267e-05,-0.0020788810215890408,0.003491989802569151,0.002741921693086624,0.02598600834608078,-0.18428528308868408,-0.003002182114869356,0.0,0.0,0.0,0.0,0.0,0.0,-0.004240480717271566,-0.001936891581863165,-0.0,0.0,0.0,0.0,-0.006075340323150158,0.055110473185777664,-0.0003379617992322892,17292.0,9727.0,8030.0,16860.0,0.6851229071617126,0.2008313685655594,0.13163165748119354,0.6497355103492737,0.0,0.0,0.0,0.0,0.0,0.0,0.0,0.0,1.666963815689087,-0.02066994107718071,0.030964488518010674,-0.00813882063472977,0.007779992651194334,-0.01310229767113924,0.0,-0.004260458517819643,-0.0019740378484129906,0.0
168,5,1.805153260647785e-05,-5.966702156001702e-05,-0.000148029052070342,0.0025039161555469036,0.008447186090052128,0.01635611243546009,0.02598600834608078,-0.18428528308868408,-0.003002182114869356,0.0,0.0,0.0,0.0,0.0,0.0,-0.0042395335622131824,-0.0019541119690984488,-0.0,0.0,0.0,0.0,-0.006075340323150158,0.055110473185777664,-0.0003379617992322892,17292.0,9727.0,8030.0,16860.0,0.6851229071617126,0.2008313685655594,0.13163165748119354,0.6497355103492737,0.0,0.0,0.0,0.0,0.0,0.0,0.0,0.0,1.6670546531677246,-0.0257972038839261,0.03127971451860823,-0.008855342275108497,0.007849590852856636,-0.013100084848701954,0.0,-0.004260458517819643,-0.0019740378484129906,0.0
173,5,1.805153260647785e-05,-5.966702156001702e-05,-0.000148029052070342,0.0025039161555469036,0.008447186090052128,0.01635611243546009,0.02604883722960949,-0.18426820635795593,-0.003007691353559494,0.0,0.0,0.0,0.0,0.0,0.0,-0.0042395335622131824,-0.0019541119690984488,-0.0,0.0,0.0,0.0,-0.006317285355180502,0.055083565413951874,-0.00038054780452512205,17289.0,9779.0,7967.0,16857.0,0.6848806738853455,0.20319005846977234,0.12934863567352295,0.6495069265365601,0.0,0.0,0.0,0.0,0.0,0.0,0.0,0.0,1.6670546531677246,-0.0257972038839261,0.03127971451860823,-0.008855342275108497,0.007849590852856636,-0.013100084848701954,0.0,-0.004232912324368954,-0.0019400656456127763,0.0
178,5,-4.282873760530492e-06,-6.792531348764896e-05,-0.0001280091528315097,0.0025039161555469036,0.008447186090052128,0.01635611243546009,0.02604883722960949,-0.18426820635795593,-0.003007691353559494,0.0,0.0,0.0,0.0,0.0,0.0,-0.010065263137221336,0.002295515965670347,-0.0,0.0,0.0,0.0,-0.006317285355180502,0.055083565413951874,-0.00038054780452512205,17289.0,9779.0,7967.0,16857.0,0.6848806738853455,0.20319005846977234,0.12934863567352295,0.6495069265365601,0.0,0.0,0.0,0.0,0.0,0.0,0.0,0.0,1.7155492305755615,-0.02533044733031199,0.03170811818580092,-0.009266134849305656,-0.009488837793469429,-0.032005421817302704,0.0,-0.004232912324368954,-0.0019400656456127763,0.0
183,5,-4.282873760530492e-06,-6.792531348764896e-05,-0.0001280091528315097,0.0025039161555469036,0.008447186090052128,0.01635611243546009,0.026093976572155952,-0.1841627061367035,-0.0030328650027513504,0.0,0.0,0.0,0.0,0.0,0.0,-0.010065263137221336,0.002295515965670347,-0.0,0.0,0.0,0.0,-0.006188631989061832,0.05479294806718826,-0.00031270296312868595,17075.0,10133.0,7566.0,17047.0,0.6672306060791016,0.2195485532283783,0.11523005366325378,0.6649545431137085,0.0,0.0,0.0,0.0,0.0,0.0,0.0,0.0,1.7155492305755615,-0.02533044733031199,0.03170811818580092,-0.009266134849305656,-0.009488837793469429,-0.032005421817302704,0.0,-0.004240480717271566,-0.001936891581863165,0.0
188,5,-8.862953109201044e-06,-6.358310201903805e-05,-6.969949754420668e-05,0.00045195690472610295,0.002857809653505683,-0.0004547144053503871,0.026093976572155952,-0.1841627061367035,-0.0030328650027513504,0.0,0.0,0.0,0.0,0.0,0.0,-0.010079479776322842,0.002265763469040394,-0.0,0.0,0.0,0.0,-0.006188631989061832,0.05479294806718826,-0.00031270296312868595,17075.0,10133.0,7566.0,17047.0,0.6672306060791016,0.2195485532283783,0.11523005366325378,0.6649545431137085,0.0,0.0,0.0,0.0,0.0,0.0,0.0,0.0,1.7155735492706299,-0.02583642168585316,0.030762220395396785,-0.008137383551384244,-0.009365983307361603,-0.03205107897520065,0.0,-0.004240480717271566,-0.001936891581863165,0.0
194,5,-8.862953109201044e-06,-6.358310201903805e-05,-6.969949754420668e-05,0.00045195690472610295,0.002857809653505683,-0.0004547144053503871,0.026152556762099266,-0.18421930074691772,-0.003014730056747794,0.0,0.0,0.0,0.0,0.0,0.0,-0.010079479776322842,0.002265763469040394,-0.0,0.0,0.0,0.0,-0.007486661896109581,0.05635066330432892,-0.0004929932183586061,17486.0,9384.0,8434.0,16654.0,0.7013552784919739,0.18566758930683136,0.1468028575181961,0.6332289576530457,0.0,0.0,0.0,0.0,0.0,0.0,0.0,0.0,1.7155735492706299,-0.02583642168585316,0.030762220395396785,-0.008137383551384244,-0.009365983307361603,-0.03205107897520065,0.0,-0.010065263137221336,0.002295515965670347,0.0
199,5,4.129077206016518e-05,-0.00010078751802211627,-0.00011671553511405364,0.00045195690472610295,0.002857809653505683,-0.0004547144053503871,0.026152556762099266,-0.18421930074691772,-0.003014730056747794,0.0,0.0,0.0,0.0,0.0,0.0,-0.0036054542288184166,0.0004124630650039762,-0.0,0.0,0.0,0.0,-0.007486661896109581,0.05635066330432892,-0.0004929932183586061,17486.0,9384.0,8434.0,16654.0,0.7013552784919739,0.18566758930683136,0.1468028575181961,0.6332289576530457,0.0,0.0,0.0,0.0,0.0,0.0,0.0,0.0,1.6560492515563965,-0.02325327562625282,0.03294190363781602,-0.007801397987761329,-0.0016459148610010743,-0.01106725912541151,0.0,-0.010065263137221336,0.002295515965670347,0.0
204,5,7.209595787571743e-05,-9.415489330422133e-05,-6.326807488221675e-05,0.0038774048443883657,0.00034720919211395085,-0.006595580838620663,0.026195405051112175,-0.18419840931892395,-0.0032150535844266415,0.0,0.0,0.0,0.0,0.0,0.0,-0.0036054542288184166,0.0004124630650039762,-0.0,0.0,0.0,0.0,-0.006886002141982317,0.05641534924507141,0.0014068393502384424,17311.0,10460.0,7399.0,17279.0,0.686689019203186,0.23520703613758087,0.10957367718219757,0.6840794682502747,0.0,0.0,0.0,0.0,0.0,0.0,0.0,0.0,1.6560492515563965,-0.016139906179251245,0.034857708667146985,-0.009847957502906032,-0.0016459148610010743,-0.01106725912541151,0.0,-0.010079479776322842,0.002265763469040394,0.0
209,5,7.209595787571743e-05,-9.415489330422133e-05,-6.326807488221675e-05,0.0038774048443883657,0.00034720919211395085,-0.006595580838620663,0.026195405051112175,-0.18419840931892395,-0.0032150535844266415,0.0,0.0,0.0,0.0,0.0,0.0,-0.00058953050756827,0.0037197854835540056,-0.0,0.0,0.0,0.0,-0.006886002141982317,0.05641534924507141,0.0014068393502384424,17311.0,10460.0,7399.0,17279.0,0.686689019203186,0.23520703613758087,0.10957367718219757,0.6840794682502747,0.0,0.0,0.0,0.0,0.0,0.0,0.0,0.0,1.6664446592330933,-0.016139906179251245,0.034857708667146985,-0.009847957502906032,-0.014936870895326138,-0.00182098220102489,0.0,-0.010079479776322842,0.002265763469040394,0.0
214,5,7.209595787571743e-05,-9.415489330422133e-05,-6.326807488221675e-05,0.0038774048443883657,0.00034720919211395085,-0.006595580838620663,0.026042068377137184,-0.1842515617609024,-0.003001946024596691,0.0,0.0,0.0,0.0,0.0,0.0,-0.00058953050756827,0.0037197854835540056,-0.0,0.0,0.0,0.0,-0.006202169694006443,0.05593813210725784,-5.615185364149511e-05,17905.0,9218.0,8929.0,16658.0,0.7369756102561951,0.17855434119701385,0.16651053726673126,0.6335330605506897,0.0,0.0,0.0,0.0,0.0,0.0,0.0,0.0,1.6664446592330933,-0.016139906179251245,0.034857708667146985,-0.009847957502906032,-0.014936870895326138,-0.00182098220102489,0.0,-0.0036054542288184166,0.0004124630650039762,0.0
219,5,3.3535845432197675e-05,-8.435642666881904e-05,-0.00013002342893742025,0.0038774048443883657,0.00034720919211395085,-0.006595580838620663,0.026042068377137184,-0.1842515617609024,-0.003001946024596691,0.0,0.0,0.0,0.0,0.0,0.0,-0.0005896369111724198,0.003719846485182643,-0.0,0.0,0.0,0.0,-0.006202169694006443,0.05593813210725784,-5.615185364149511e-05,17905.0,9218.0,8929.0,16658.0,0.7369756102561951,0.17855434119701385,0.16651053726673126,0.6335330605506897,0.0,0.0,0.0,0.0,0.0,0.0,0.0,0.0,1.6664454936981201,-0.02126354908532276,0.032537950854389285,-0.009444559248640308,-0.014937123283743858,-0.001821311772800982,0.0,-0.0036054542288184166,0.0004124630650039762,0.0
224,5,5.2846148719254415e-06,-2.622329157020431e-05,-8.136325050145388e-05,0.0038774048443883657,0.00034720919211395085,-0.006595580838620663,0.025868920609354973,-0.18424326181411743,-0.0031596566550433636,0.0,0.0,0.0,0.0,0.0,0.0,-0.0005896369111724198,0.003719846485182643,-0.0,0.0,0.0,0.0,-0.005772901698946953,0.05829163268208504,-0.0009159035980701447,17498.0,9253.0,8219.0,16677.0,0.702341616153717,0.18006637692451477,0.13861992955207825,0.6350212693214417,0.0,0.0,0.0,0.0,0.0,0.0,0.0,0.0,1.6664454936981201,-0.028492646728506547,0.031922778256579305,-0.008187331302072281,-0.014937123283743858,-0.001821311772800982,0.0,-0.00058953050756827,0.0037197854835540056,0.0
229,5,5.2846148719254415e-06,-2.622329157020431e-05,-8.136325050145388e-05,0.0038774048443883657,0.00034720919211395085,-0.006595580838620663,0.025868920609354973,-0.18424326181411743,-0.0031596566550433636,0.0,0.0,0.0,0.0,0.0,0.0,-0.00046901643509045243,0.0036307235714048147,-0.0,0.0,0.0,0.0,-0.005772901698946953,0.05829163268208504,-0.0009159035980701447,17498.0,9253.0,8219.0,16677.0,0.702341616153717,0.18006637692451477,0.13861992955207825,0.6350212693214417,0.0,0.0,0.0,0.0,0.0,0.0,0.0,0.0,1.6653515100479126,-0.028492646728506547,0.031922778256579305,-0.008187331302072281,-0.014569679275155067,-0.0014477797085419297,0.0,-0.00058953050756827,0.0037197854835540056,0.0
234,5,0.00010710071364883333,-0.00016477821918670088,-2.8575793749041623e-06,0.013768893666565418,0.016765475273132324,-0.01205891277641058,0.026017555966973305,-0.18459902703762054,-0.0032683226745575666,0.0,0.0,0.0,0.0,0.0,0.0,-0.00046901643509045243,0.0036307235714048147,-0.0,0.0,0.0,0.0,-0.005386202596127987,0.05617852881550789,-0.00024013682559598237,17232.0,9684.0,7924.0,16982.0,0.6801385283470154,0.1989058405160904,0.12778906524181366,0.6596120595932007,0.0,0.0,0.0,0.0,0.0,0.0,0.0,0.0,1.6653515100479126,-0.029957302868522693,0.03264219611456605,-0.005452148095842056,-0.014569679275155067,-0.0014477797085419297,0.0,-0.0005896369111724198,0.003719846485182643,0.0
239,5,0.00010710071364883333,-0.00016477821918670088,-2.8575793749041623e-06,0.013768893666565418,0.016765475273132324,-0.01205891277641058,0.026017555966973305,-0.18459902703762054,-0.0032683226745575666,0.0,0.0,0.0,0.0,0.0,0.0,-0.01866115815937519,0.011754953302443027,-0.0,0.0,0.0,0.0,-0.005386202596127987,0.05617852881550789,-0.00024013682559598237,17232.0,9684.0,7924.0,16982.0,0.6801385283470154,0.1989058405160904,0.12778906524181366,0.6596120595932007,0.0,0.0,0.0,0.0,0.0,0.0,0.0,0.0,1.8440628051757812,-0.029957302868522693,0.03264219611456605,-0.005452148095842056,-0.05222312733530998,-0.06377890706062317,0.0,-0.0005896369111724198,0.003719846485182643,0.0
244,5,0.0002481373376213014,-0.00018114065460395068,0.00022699478722643107,0.022431951016187668,0.00866968184709549,-0.03240584954619408,0.02621738612651825,-0.18453504145145416,-0.003135720966383815,0.0,0.0,0.0,0.0,0.0,0.0,-0.01866115815937519,0.011754953302443027,-0.0,0.0,0.0,0.0,-0.005008250940591097,0.04953547194600105,0.0005839827354066074,17103.0,9836.0,9315.0,16327.0,0.6694855093955994,0.2057933509349823,0.18271410465240479,0.6073585748672485,0.0,0.0,0.0,0.0,0.0,0.0,0.0,0.0,1.8440628051757812,-0.01754056765280106,0.03153596251374856,-0.009850786515869106,-0.05222312733530998,-0.06377890706062317,0.0,-0.00046901643509045243,0.0036307235714048147,0.0
249,5,0.0002481373376213014,-0.00018114065460395068,0.00022699478722643107,0.022431951016187668,0.00866968184709549,-0.03240584954619408,0.02621738612651825,-0.18453504145145416,-0.003135720966383815,0.0,0.0,0.0,0.0,0.0,0.0,-0.009678076021373272,0.018993159756064415,-0.0,0.0,0.0,0.0,-0.005008250940591097,0.04953547194600105,0.0005839827354066074,17103.0,9836.0,9315.0,16327.0,0.6694855093955994,0.2057933509349823,0.18271410465240479,0.6073585748672485,0.0,0.0,0.0,0.0,0.0,0.0,0.0,0.0,1.8680700063705444,-0.01754056765280106,0.03153596251374856,-0.009850786515869106,-0.08548615872859955,-0.03351030871272087,0.0,-0.00046901643509045243,0.0036307235714048147,0.0
254,5,0.00027813517954200506,-0.00017769171972759068,0.0004834029241465032,0.022431951016187668,0.00866968184709549,-0.03240584954619408,0.025989435613155365,-0.18239714205265045,-0.0030733984895050526,0.0,0.0,0.0,0.0,0.0,0.0,-0.009678076021373272,0.018993159756064415,-0.0,0.0,0.0,0.0,-0.0068528964184224606,0.04170418903231621,-0.00040810980135574937,17236.0,11742.0,10784.0,16367.0,0.6804921627044678,0.3017841577529907,0.2512725591659546,0.6105138659477234,0.0,0.0,0.0,0.0,0.0,0.0,0.0,0.0,1.8680700063705444,-0.015348292596760045,0.0200260850299125,-0.009091902440904569,-0.08548615872859955,-0.03351030871272087,0.0,-0.01866115815937519,0.011754953302443027,0.0
260,5,0.00027813517954200506,-0.00017769171972759068,0.0004834029241465032,0.022431951016187668,0.00866968184709549,-0.03240584954619408,0.025989435613155365,-0.18239714205265045,-0.0030733984895050526,0.0,0.0,0.0,0.0,0.0,0.0,-0.009670818224549294,0.01902618072926998,-0.0,0.0,0.0,0.0,-0.0068528964184224606,0.04170418903231621,-0.00040810980135574937,17236.0,11742.0,10784.0,16367.0,0.6804921627044678,0.3017841577529907,0.2512725591659546,0.6105138659477234,0.0,0.0,0.0,0.0,0.0,0.0,0.0,0.0,1.8684483766555786,-0.015348292596760045,0.0200260850299125,-0.009091902440904569,-0.08565212041139603,-0.033491961658000946,0.0,-0.01866115815937519,0.011754953302443027,0.0
265,5,0.00019728089682757854,-0.00015956412244122475,0.0008659868035465479,-0.0007297354750335217,0.0012925611808896065,-0.05887240543961525,0.02447161078453064,-0.17425231635570526,-0.0032611829228699207,0.0,0.0,0.0,0.0,0.0,0.0,-0.009670818224549294,0.01902618072926998,-0.0,0.0,0.0,0.0,-0.004473349079489708,0.02912977896630764,0.0013322117738425732,16821.0,12195.0,12570.0,15507.0,0.6465931534767151,0.3273105025291443,0.3491634130477905,0.5450029373168945,0.0,0.0,0.0,0.0,0.0,0.0,0.0,0.0,1.8684483766555786,-0.021880057915629095,0.006444658685813007,-0.0072601367337147525,-0.08565212041139603,-0.033491961658000946,0.0,-0.009678076021373272,0.018993159756064415,0.0
270,5,0.00019728089682757854,-0.00015956412244122475,0.0008659868035465479,-0.0007297354750335217,0.0012925611808896065,-0.05887240543961525,0.02447161078453064,-0.17425231635570526,-0.0032611829228699207,0.0,0.0,0.0,0.0,0.0,0.0,-0.0018823096761479974,-0.00041659193811938167,-0.0,0.0,0.0,0.0,-0.004473349079489708,0.02912977896630764,0.0013322117738425732,16821.0,12195.0,12570.0,15507.0,0.6465931534767151,0.3273105025291443,0.3491634130477905,0.5450029373168945,0.0,0.0,0.0,0.0,0.0,0.0,0.0,0.0,1.6419143676757812,-0.021880057915629095,0.006444658685813007,-0.0072601367337147525,0.0016482098726555705,-0.005728615447878838,0.0,-0.009678076021373272,0.018993159756064415,0.0
275,5,0.00016794775729067624,-0.00024547765497118235,0.001256777672097087,-0.0007297354750335217,0.0012925611808896065,-0.05887240543961525,0.0231405571103096,-0.1644601821899414,-0.003080829279497266,0.0,0.0,0.0,0.0,0.0,0.0,-0.0018823096761479974,-0.00041659193811938167,-0.0,0.0,0.0,0.0,-0.006158104632049799,0.015539605170488358,0.0017226524651050568,16342.0,13092.0,13745.0,14263.0,0.6085804104804993,0.3808233141899109,0.4222983121871948,0.4567464292049408,0.0,0.0,0.0,0.0,0.0,0.0,0.0,0.0,1.6419143676757812,-0.01878669349586908,-0.014311843010770117,-0.007692326247545455,0.0016482098726555705,-0.005728615447878838,0.0,-0.009670818224549294,0.01902618072926998,0.0
280,5,0.00016794775729067624,-0.00024547765497118235,0.001256777672097087,-0.0007297354750335217,0.0012925611808896065,-0.05887240543961525,0.0231405571103096,-0.1644601821899414,-0.003080829279497266,0.0,0.0,0.0,0.0,0.0,0.0,-0.0020361775532364845,-0.0004568446893244982,-0.0,0.0,0.0,0.0,-0.006158104632049799,0.015539605170488358,0.0017226524651050568,16342.0,13092.0,13745.0,14263.0,0.6085804104804993,0.3808233141899109,0.4222983121871948,0.4567464292049408,0.0,0.0,0.0,0.0,0.0,0.0,0.0,0.0,1.6432665586471558,-0.01878669349586908,-0.014311843010770117,-0.007692326247545455,0.0018089542863890529,-0.006201998796314001,0.0,-0.009670818224549294,0.01902618072926998,0.0
285,5,8.024917042348534e-05,-0.0003134268044959754,0.0016664136201143265,-0.010815724730491638,0.008670920506119728,-0.07270527631044388,0.021749908104538918,-0.1261892318725586,-0.0030854581855237484,0.0,0.0,0.0,0.0,0.0,0.0,-0.0020361775532364845,-0.0004568446893244982,-0.0,0.0,0.0,0.0,-0.004856359679251909,-0.008466656319797039,-0.00022797741985414177,13017.0,14687.0,13710.0,12747.0,0.37617552280426025,0.48598331212997437,0.4200250506401062,0.35973048210144043,0.0,0.0,0.0,0.0,0.0,0.0,0.0,0.0,1.6432665586471558,-0.022741882393865195,-0.03835722406463581,-0.007745883931851285,0.0018089542863890529,-0.006201998796314001,0.0,-0.0018823096761479974,-0.00041659193811938167,0.0
290,5,8.024917042348534e-05,-0.0003134268044959754,0.0016664136201143265,-0.010815724730491638,0.008670920506119728,-0.07270527631044388,0.021749908104538918,-0.1261892318725586,-0.0030854581855237484,0.0,0.0,0.0,0.0,0.0,0.0,-0.010457763448357582,-0.009423146955668926,-0.0,0.0,0.0,0.0,-0.004856359679251909,-0.008466656319797039,-0.00022797741985414177,13017.0,14687.0,13710.0,12747.0,0.37617552280426025,0.48598331212997437,0.4200250506401062,0.35973048210144043,0.0,0.0,0.0,0.0,0.0,0.0,0.0,0.0,1.766739845275879,-0.022741882393865195,-0.03835722406463581,-0.007745883931851285,0.04011347517371178,-0.03424566239118576,0.0,-0.0018823096761479974,-0.00041659193811938167,0.0
295,5,4.385969077702612e-05,-0.0003603117947932333,0.0021646602544933558,-0.010815724730491638,0.008670920506119728,-0.07270527631044388,0.02102525904774666,-0.09511996060609818,-0.0032148766331374645,0.0,0.0,0.0,0.0,0.0,0.0,-0.010457763448357582,-0.009423146955668926,-0.0,0.0,0.0,0.0,-0.004401311278343201,-0.020817909389734268,0.0015687391860410571,12806.0,14818.0,15157.0,11062.0,0.36329635977745056,0.4951764941215515,0.5193482041358948,0.26544544100761414,0.0,0.0,0.0,0.0,0.0,0.0,0.0,0.0,1.766739845275879,-0.01000782386547003,-0.06567105861306771,-0.009862074066780984,0.04011347517371178,-0.03424566239118576,0.0,-0.0020361775532364845,-0.0004568446893244982,0.0
300,5,4.385969077702612e-05,-0.0003603117947932333,0.0021646602544933558,-0.010815724730491638,0.008670920506119728,-0.07270527631044388,0.02102525904774666,-0.09511996060609818,-0.0032148766331374645,0.0,0.0,0.0,0.0,0.0,0.0,-0.010457763448357582,-0.009423146955668926,-0.0,0.0,0.0,0.0,-0.004401311278343201,-0.020817909389734268,0.0015687391860410571,12806.0,14818.0,15157.0,11062.0,0.36329635977745056,0.4951764941215515,0.5193482041358948,0.26544544100761414,0.0,0.0,0.0,0.0,0.0,0.0,0.0,0.0,1.766739845275879,-0.01000782386547003,-0.06567105861306771,-0.009862074066780984,0.040313463658094406,-0.03450479358434677,0.0,-0.0020361775532364845,-0.0004568446893244982,0.0
305,5,-0.00021174061112105846,-0.0004014204314444214,0.0026932868640869856,-0.010815724730491638,0.008670920506119728,-0.07270527631044388,0.020495353266596794,-0.07323102653026581,-0.0036583300679922104,0.0,0.0,0.0,0.0,0.0,0.0,-0.010531879961490631,-0.009465623646974564,-0.0,0.0,0.0,0.0,-0.005889874417334795,-0.03452989459037781,-0.0003589051484595984,11918.0,16536.0,15854.0,10964.0,0.3115617334842682,0.6238207221031189,0.5709497928619385,0.2604076564311981,0.0,0.0,0.0,0.0,0.0,0.0,0.0,0.0,1.7675819396972656,-0.01705859484088497,-0.09570491693741467,-0.009049317265624572,0.040313463658094406,-0.03450479358434677,0.0,-0.010457763448357582,-0.009423146955668926,0.0
310,5,-0.00021174061112105846,-0.0004014204314444214,0.0026932868640869856,-0.010815724730491638,0.008670920506119728,-0.07270527631044388,0.020495353266596794,-0.07323102653026581,-0.0036583300679922104,0.0,0.0,0.0,0.0,0.0,0.0,-0.010531879961490631,-0.009465623646974564,-0.0,0.0,0.0,0.0,-0.005889874417334795,-0.03452989459037781,-0.0003589051484595984,11918.0,16536.0,15854.0,10964.0,0.3115617334842682,0.6238207221031189,0.5709497928619385,0.2604076564311981,0.0,0.0,0.0,0.0,0.0,0.0,0.0,0.0,1.7675819396972656,-0.01705859484088497,-0.09570491693741467,-0.009049317265624572,0.040313463658094406,-0.03450479358434677,0.0,-0.010457763448357582,-0.009423146955668926,0.0
315,5,-0.0003445826005190611,-0.0003960745525546372,0.0030925069004297256,-0.010815724730491638,0.008670920506119728,-0.07270527631044388,0.020495353266596794,-0.07323102653026581,-0.0036583300679922104,0.0,0.0,0.0,0.0,0.0,0.0,-0.010582119226455688,-0.009778150357306004,-0.0,0.0,0.0,0.0,-0.005889874417334795,-0.03452989459037781,-0.0003589051484595984,11918.0,16536.0,15854.0,10964.0,0.3115617334842682,0.6238207221031189,0.5709497928619385,0.2604076564311981,0.0,0.0,0.0,0.0,0.0,0.0,0.0,0.0,1.770789623260498,-0.010833339551785762,-0.11411463936584942,-0.009830417343060706,0.04172000661492348,-0.03473229333758354,0.0,-0.010457763448357582,-0.009423146955668926,0.0
321,5,-0.0003445826005190611,-0.0003960745525546372,0.0030925069004297256,-0.010815724730491638,0.008670920506119728,-0.07270527631044388,0.020145168527960777,-0.04288097470998764,-0.004062308464199305,0.0,0.0,0.0,0.0,0.0,0.0,-0.010582119226455688,-0.009778150357306004,-0.0,0.0,0.0,0.0,-0.005859547294676304,-0.035211823880672455,-0.00040802371222525835,11698.0,16683.0,15669.0,11258.0,0.29936835169792175,0.6355205178260803,0.5570008158683777,0.27569225430488586,0.0,0.0,0.0,0.0,0.0,0.0,0.0,0.0,1.770789623260498,-0.010833339551785762,-0.11411463936584942,-0.009830417343060706,0.04172000661492348,-0.03473229333758354,0.0,-0.010531879961490631,-0.009465623646974564,0.0
326,5,-0.0004896413302049041,-0.00045432927436195314,0.0033950400538742542,-0.010815724730491638,0.008670920506119728,-0.07270527631044388,0.020145168527960777,-0.04288097470998764,-0.004062308464199305,0.0,0.0,0.0,0.0,0.0,0.0,-0.010565024800598621,-0.009941625408828259,-0.0,0.0,0.0,0.0,-0.005859547294676304,-0.035211823880672455,-0.00040802371222525835,11698.0,16683.0,15669.0,11258.0,0.29936835169792175,0.6355205178260803,0.5570008158683777,0.27569225430488586,0.0,0.0,0.0,0.0,0.0,0.0,0.0,0.0,1.7722240686416626,-0.01242108652828917,-0.13077358095351724,-0.011535991742182629,0.04245184361934662,-0.03470427915453911,0.0,-0.010531879961490631,-0.009465623646974564,0.0
331,5,-0.0004896413302049041,-0.00045432927436195314,0.0033950400538742542,-0.010815724730491638,0.008670920506119728,-0.07270527631044388,0.02008548565208912,-0.027350708842277527,-0.0043863034807145596,0.0,0.0,0.0,0.0,0.0,0.0,-0.010565024800598621,-0.009941625408828259,-0.0,0.0,0.0,0.0,-0.006061228457838297,-0.029399584978818893,-0.00019361385784577578,12350.0,16226.0,15472.0,11516.0,0.3362424075603485,0.5994939208030701,0.5424085855484009,0.2894369661808014,0.0,0.0,0.0,0.0,0.0,0.0,0.0,0.0,1.7722240686416626,-0.01242108652828917,-0.13077358095351724,-0.011535991742182629,0.04245184361934662,-0.03470427915453911,0.0,-0.010531879961490631,-0.009465623646974564,0.0
336,5,-0.000638797995634377,-0.00047447302495129406,0.003690035780891776,-0.010815724730491638,0.008670920506119728,-0.07270527631044388,0.02008548565208912,-0.027350708842277527,-0.0043863034807145596,0.0,0.0,0.0,0.0,0.0,0.0,-0.010650072246789932,-0.010116549208760262,-0.0,0.0,0.0,0.0,-0.006061228457838297,-0.029399584978818893,-0.00019361385784577578,12350.0,16226.0,15472.0,11516.0,0.3362424075603485,0.5994939208030701,0.5424085855484009,0.2894369661808014,0.0,0.0,0.0,0.0,0.0,0.0,0.0,0.0,1.7743843793869019,-0.016948756704307018,-0.13867135737569727,-0.012012502243116402,0.04325138032436371,-0.035026270896196365,0.0,-0.010531879961490631,-0.009465623646974564,0.0
341,5,-0.000638797995634377,-0.00047447302495129406,0.003690035780891776,-0.010815724730491638,0.008670920506119728,-0.07270527631044388,0.02038530819118023,-0.012340452522039413,-0.005060484632849693,0.0,0.0,0.0,0.0,0.0,0.0,-0.010650072246789932,-0.010116549208760262,-0.0,0.0,0.0,0.0,-0.006843821611255407,-0.018656106665730476,-0.0018280325457453728,12530.0,16202.0,14091.0,13120.0,0.346805214881897,0.5976617336273193,0.44518542289733887,0.3825716972351074,0.0,0.0,0.0,0.0,0.0,0.0,0.0,0.0,1.7743843793869019,-0.016948756704307018,-0.13867135737569727,-0.012012502243116402,0.04325138032436371,-0.035026270896196365,0.0,-0.010582119226455688,-0.009778150357306004,0.0
346,5,-0.0006608247640542686,-0.00045780421351082623,0.0036941540893167257,-0.006969507783651352,0.0014681083848699927,-0.02957630343735218,0.02038530819118023,-0.012340452522039413,-0.005060484632849693,0.0,0.0,0.0,0.0,0.0,0.0,-0.010673042386770248,-0.010298135690391064,-0.0,0.0,0.0,0.0,-0.006843821611255407,-0.018656106665730476,-0.0018280325457453728,12530.0,16202.0,14091.0,13120.0,0.346805214881897,0.5976617336273193,0.44518542289733887,0.3825716972351074,0.0,0.0,0.0,0.0,0.0,0.0,0.0,0.0,1.7762502431869507,-0.016086115124939016,-0.14083067904081523,-0.012250680379187454,0.04407397657632828,-0.03513872250914574,0.0,-0.010582119226455688,-0.009778150357306004,0.0
351,5,-0.0006608247640542686,-0.00045780421351082623,0.0036941540893167257,-0.006969507783651352,0.0014681083848699927,-0.02957630343735218,0.02032492123544216,-0.008321600034832954,-0.005448101554065943,0.0,0.0,0.0,0.0,0.0,0.0,-0.010673042386770248,-0.010298135690391064,-0.0,0.0,0.0,0.0,-0.006026434246450663,-0.006411634385585785,-0.0015854105586186051,13516.0,15299.0,13445.0,13893.0,0.40752139687538147,0.5297213792800903,0.40294888615608215,0.43203243613243103,0.0,0.0,0.0,0.0,0.0,0.0,0.0,0.0,1.7762502431869507,-0.016086115124939016,-0.14083067904081523,-0.012250680379187454,0.04407397657632828,-0.03513872250914574,0.0,-0.010565024800598621,-0.009941625408828259,0.0
356,5,-0.0007041929056867957,-0.0003037781279999763,0.003725524991750717,-0.007991978898644447,-0.017895886674523354,-0.015595023520290852,0.02032492123544216,-0.008321600034832954,-0.005448101554065943,0.0,0.0,0.0,0.0,0.0,0.0,-0.0025378623977303505,-0.007231270894408226,-0.0,0.0,0.0,0.0,-0.006026434246450663,-0.006411634385585785,-0.0015854105586186051,13516.0,15299.0,13445.0,13893.0,0.40752139687538147,0.5297213792800903,0.40294888615608215,0.43203243613243103,0.0,0.0,0.0,0.0,0.0,0.0,0.0,0.0,1.7087464332580566,-0.009124256254275941,-0.13895274540846364,-0.01068733162860986,0.029774123802781105,-0.008038099855184555,0.0,-0.010565024800598621,-0.009941625408828259,0.0
361,5,-0.0007041929056867957,-0.0003037781279999763,0.003725524991750717,-0.007991978898644447,-0.017895886674523354,-0.015595023520290852,0.020139142870903015,-0.009656929410994053,-0.006119322497397661,0.0,0.0,0.0,0.0,0.0,0.0,-0.0025378623977303505,-0.007231270894408226,-0.0,0.0,0.0,0.0,-0.006316641345620155,0.005291210021823645,-0.0024491013027727604,13935.0,14967.0,12230.0,14951.0,0.43479809165000916,0.5057146549224854,0.32928165793418884,0.5045899152755737,0.0,0.0,0.0,0.0,0.0,0.0,0.0,0.0,1.7087464332580566,-0.009124256254275941,-0.13895274540846364,-0.01068733162860986,0.029774123802781105,-0.008038099855184555,0.0,-0.010650072246789932,-0.010116549208760262,0.0
366,5,-0.0006503895274363458,-0.00028546786052174866,0.003580359974876046,-0.007991978898644447,-0.017895886674523354,-0.015595023520290852,0.020139142870903015,-0.009656929410994053,-0.006119322497397661,0.0,0.0,0.0,0.0,0.0,0.0,0.01938038133084774,-0.00771393533796072,-0.0,0.0,0.0,0.0,-0.006316641345620155,0.005291210021823645,-0.0024491013027727604,13935.0,14967.0,12230.0,14951.0,0.43479809165000916,0.5057146549224854,0.32928165793418884,0.5045899152755737,0.0,0.0,0.0,0.0,0.0,0.0,0.0,0.0,1.8214142322540283,-0.012504800012961354,-0.13057078570167382,-0.012521952246727518,0.033849380910396576,0.06542295962572098,0.0,-0.010650072246789932,-0.010116549208760262,0.0
371,5,-0.0006503895274363458,-0.00028546786052174866,0.003580359974876046,-0.007991978898644447,-0.017895886674523354,-0.015595023520290852,0.019418932497501373,-0.013686218298971653,-0.00641179783269763,0.0,0.0,0.0,0.0,0.0,0.0,0.01938038133084774,-0.00771393533796072,-0.0,0.0,0.0,0.0,-0.004794351756572723,0.013155474327504635,-0.0015473139937967062,14657.0,14068.0,12130.0,15238.0,0.48384183645248413,0.44362756609916687,0.3235504925251007,0.5252304077148438,0.0,0.0,0.0,0.0,0.0,0.0,0.0,0.0,1.8214142322540283,-0.012504800012961354,-0.13057078570167382,-0.012521952246727518,0.033849380910396576,0.06542295962572098,0.0,-0.010673042386770248,-0.010298135690391064,0.0
376,5,-0.0006950133829377592,-0.0002514849475119263,0.0034076727461069822,-0.00855165719985962,-0.011236303485929966,0.014484470710158348,0.019418932497501373,-0.013686218298971653,-0.00641179783269763,0.0,0.0,0.0,0.0,0.0,0.0,0.019411183893680573,-0.007647516205906868,-0.0,0.0,0.0,0.0,-0.004794351756572723,0.013155474327504635,-0.0015473139937967062,14657.0,14068.0,12130.0,15238.0,0.48384183645248413,0.44362756609916687,0.3235504925251007,0.5252304077148438,0.0,0.0,0.0,0.0,0.0,0.0,0.0,0.0,1.8212960958480835,-0.024793875574537345,-0.12513598418236493,-0.012463643482682142,0.033555738627910614,0.06552267074584961,0.0,-0.010673042386770248,-0.010298135690391064,0.0
381,5,-0.0006950133829377592,-0.0002514849475119263,0.0034076727461069822,-0.00855165719985962,-0.011236303485929966,0.014484470710158348,0.016806719824671745,-0.020794441923499107,-0.006953371688723564,0.0,0.0,0.0,0.0,0.0,0.0,0.019411183893680573,-0.007647516205906868,-0.0,0.0,0.0,0.0,0.0036232408601790667,0.013487000949680805,-0.0010328987846150994,14146.0,13611.0,11605.0,15602.0,0.44885531067848206,0.4136151075363159,0.29425495862960815,0.5520210862159729,0.0,0.0,0.0,0.0,0.0,0.0,0.0,0.0,1.8212960958480835,-0.024793875574537345,-0.12513598418236493,-0.012463643482682142,0.033555738627910614,0.06552267074584961,0.0,0.01938038133084774,-0.00771393533796072,0.0
386,5,-0.0006877502310089767,-0.00022239518875721842,0.0032553691416978836,-0.002549080876633525,-0.007985292933881283,0.024070201441645622,0.016806719824671745,-0.020794441923499107,-0.006953371688723564,0.0,0.0,0.0,0.0,0.0,0.0,0.012410888448357582,-0.008414547890424728,-0.0,0.0,0.0,0.0,0.0036232408601790667,0.013487000949680805,-0.0010328987846150994,14146.0,13611.0,11605.0,15602.0,0.44885531067848206,0.4136151075363159,0.29425495862960815,0.5520210862159729,0.0,0.0,0.0,0.0,0.0,0.0,0.0,0.0,1.7708399295806885,-0.02911315710911713,-0.12465445266474827,-0.012564382576747591,0.035902395844459534,0.040735259652137756,-0.0,0.01938038133084774,-0.00771393533796072,0.0
391,5,-0.0006877502310089767,-0.00022239518875721842,0.0032553691416978836,-0.002549080876633525,-0.007985292933881283,0.024070201441645622,0.01495332457125187,-0.02457837015390396,-0.007162866648286581,0.0,0.0,0.0,0.0,0.0,0.0,0.012410888448357582,-0.008414547890424728,-0.0,0.0,0.0,0.0,0.0032046923879534006,0.005180826410651207,-0.00018367808661423624,14524.0,13467.0,13266.0,15585.0,0.4746038019657135,0.4043608009815216,0.3916609585285187,0.5507886409759521,0.0,0.0,0.0,0.0,0.0,0.0,0.0,0.0,1.7708399295806885,-0.02911315710911713,-0.12465445266474827,-0.012564382576747591,0.035902395844459534,0.040735259652137756,-0.0,0.019411183893680573,-0.007647516205906868,0.0
397,5,-0.0007138588116504252,-9.423179290024564e-05,0.003408545395359397,-0.002549080876633525,-0.007985292933881283,0.024070201441645622,0.01495332457125187,-0.02457837015390396,-0.007162866648286581,0.0,0.0,0.0,0.0,0.0,0.0,0.00905095599591732,-0.0032395075540989637,-0.0,0.0,0.0,0.0,0.0032046923879534006,0.005180826410651207,-0.00018367808661423624,14524.0,13467.0,13266.0,15585.0,0.4746038019657135,0.4043608009815216,0.3916609585285187,0.5507886409759521,0.0,0.0,0.0,0.0,0.0,0.0,0.0,0.0,1.7109521627426147,-0.024555833827865716,-0.12764026735678324,-0.012500401254652217,0.013355194590985775,0.02870318479835987,-0.0,0.019411183893680573,-0.007647516205906868,0.0
402,5,-0.0007138588116504252,-9.423179290024564e-05,0.003408545395359397,-0.002549080876633525,-0.007985292933881283,0.024070201441645622,0.012489031068980694,-0.02499687485396862,-0.006956014782190323,0.0,0.0,0.0,0.0,0.0,0.0,0.00905095599591732,-0.0032395075540989637,-0.0,0.0,0.0,0.0,0.0012522166362032294,-0.003342551877722144,-0.0004435755545273423,14219.0,13851.0,14054.0,14824.0,0.45380163192749023,0.42923831939697266,0.4426994323730469,0.49555671215057373,0.0,0.0,0.0,0.0,0.0,0.0,0.0,0.0,1.7109521627426147,-0.024555833827865716,-0.12764026735678324,-0.012500401254652217,0.013355194590985775,0.02870318479835987,-0.0,0.012410888448357582,-0.008414547890424728,0.0
407,5,-0.0007330449880100787,-2.259632310597226e-05,0.003631790867075324,-0.0033219726756215096,-0.011790373362600803,-0.017161386087536812,0.012489031068980694,-0.02499687485396862,-0.006956014782190323,0.0,0.0,0.0,0.0,0.0,0.0,0.009263025596737862,-0.0032713806722313166,-0.0,0.0,0.0,0.0,0.0012522166362032294,-0.003342551877722144,-0.0004435755545273423,14219.0,13851.0,14054.0,14824.0,0.45380163192749023,0.42923831939697266,0.4426994323730469,0.49555671215057373,0.0,0.0,0.0,0.0,0.0,0.0,0.0,0.0,1.7128198146820068,-0.019302160661544086,-0.13073165259912037,-0.013095217596293974,0.01350129023194313,0.02940775267779827,-0.0,0.012410888448357582,-0.008414547890424728,0.0
412,5,-0.0007330449880100787,-2.259632310597226e-05,0.003631790867075324,-0.0033219726756215096,-0.011790373362600803,-0.017161386087536812,0.01141749694943428,-0.022208435460925102,-0.0069529106840491295,0.0,0.0,0.0,0.0,0.0,0.0,0.009263025596737862,-0.0032713806722313166,-0.0,0.0,0.0,0.0,-0.0007001606281846762,-0.007745847105979919,-0.00021165503130760044,13577.0,14381.0,14244.0,14001.0,0.41140609979629517,0.4648192524909973,0.45545125007629395,0.43916332721710205,0.0,0.0,0.0,0.0,0.0,0.0,0.0,0.0,1.7128198146820068,-0.019302160661544086,-0.13073165259912037,-0.013095217596293974,0.01350129023194313,0.02940775267779827,-0.0,0.00905095599591732,-0.0032395075540989637,0.0
417,5,-0.0008963775471784174,-2.4417344320681877e-05,0.003910079598426819,-0.0033219726756215096,-0.011790373362600803,-0.017161386087536812,0.01141749694943428,-0.022208435460925102,-0.0069529106840491295,0.0,0.0,0.0,0.0,0.0,0.0,0.013573091477155685,-0.003911013714969158,-0.0,0.0,0.0,0.0,-0.0007001606281846762,-0.007745847105979919,-0.00021165503130760044,13577.0,14381.0,14244.0,14001.0,0.41140609979629517,0.4648192524909973,0.45545125007629395,0.43916332721710205,0.0,0.0,0.0,0.0,0.0,0.0,0.0,0.0,1.7518101930618286,-0.02012617045216628,-0.13814361990083998,-0.013485578839084545,0.016507724300026894,0.04407072067260742,0.0,0.00905095599591732,-0.0032395075540989637,0.0
422,5,-0.0008963775471784174,-2.4417344320681877e-05,0.003910079598426819,-0.0033219726756215096,-0.011790373362600803,-0.017161386087536812,0.011023234575986862,-0.015069629065692425,-0.0067848763428628445,0.0,0.0,0.0,0.0,0.0,0.0,0.013573091477155685,-0.003911013714969158,-0.0,0.0,0.0,0.0,-0.0015880689024925232,-0.012115017510950565,-0.0005048256134614348,13131.0,14599.0,14167.0,13360.0,0.3832537829875946,0.4798279106616974,0.4502836763858795,0.39758679270744324,0.0,0.0,0.0,0.0,0.0,0.0,0.0,0.0,1.7518101930618286,-0.02012617045216628,-0.13814361990083998,-0.013485578839084545,0.016507724300026894,0.04407072067260742,0.0,0.009263025596737862,-0.0032713806722313166,0.0
427,5,-0.0010696268873289227,-1.794639138097409e-05,0.004037180915474892,-0.022118709981441498,-0.0054926639422774315,-0.022116705775260925,0.011023234575986862,-0.015069629065692425,-0.0067848763428628445,0.0,0.0,0.0,0.0,0.0,0.0,0.01356356218457222,-0.004122640006244183,-0.0,0.0,0.0,0.0,-0.0015880689024925232,-0.012115017510950565,-0.0005048256134614348,13131.0,14599.0,14167.0,13360.0,0.3832537829875946,0.4798279106616974,0.4502836763858795,0.39758679270744324,0.0,0.0,0.0,0.0,0.0,0.0,0.0,0.0,1.7526389360427856,-0.032070682231294195,-0.14466598392264357,-0.01255477457252654,0.01740919053554535,0.04406061768531799,0.0,0.009263025596737862,-0.0032713806722313166,0.0
432,5,-0.0010696268873289227,-1.794639138097409e-05,0.004037180915474892,-0.022118709981441498,-0.0054926639422774315,-0.022116705775260925,0.011363575235009193,-0.009176733903586864,-0.006863374263048172,0.0,0.0,0.0,0.0,0.0,0.0,0.01356356218457222,-0.004122640006244183,-0.0,0.0,0.0,0.0,-0.0018657440086826682,-0.00947930570691824,-0.00023803648946341127,13146.0,14983.0,14115.0,13617.0,0.3841606676578522,0.5068517923355103,0.44678547978401184,0.41401222348213196,0.0,0.0,0.0,0.0,0.0,0.0,0.0,0.0,1.7526389360427856,-0.032070682231294195,-0.14466598392264357,-0.01255477457252654,0.01740919053554535,0.04406061768531799,0.0,0.013573091477155685,-0.003911013714969158,0.0
437,5,-0.0011365615064278245,3.3823802368715405e-05,0.0041428543627262115,-0.016879642382264137,-0.008409488946199417,-0.021527545526623726,0.011363575235009193,-0.009176733903586864,-0.006863374263048172,0.0,0.0,0.0,0.0,0.0,0.0,0.005919858813285828,-0.019758308306336403,-0.0,0.0,0.0,0.0,-0.0018657440086826682,-0.00947930570691824,-0.00023803648946341127,13146.0,14983.0,14115.0,13617.0,0.3841606676578522,0.5068517923355103,0.44678547978401184,0.41401222348213196,0.0,0.0,0.0,0.0,0.0,0.0,0.0,0.0,1.866418719291687,-0.01838175115212587,-0.14838931682596665,-0.011849072461723353,0.08885356783866882,0.020479736849665642,0.0,0.013573091477155685,-0.003911013714969158,0.0
442,5,-0.0011365615064278245,3.3823802368715405e-05,0.0041428543627262115,-0.016879642382264137,-0.008409488946199417,-0.021527545526623726,0.011363575235009193,-0.009176733903586864,-0.006863374263048172,0.0,0.0,0.0,0.0,0.0,0.0,0.005919858813285828,-0.019758308306336403,-0.0,0.0,0.0,0.0,-0.0018657440086826682,-0.00947930570691824,-0.00023803648946341127,13146.0,14983.0,14115.0,13617.0,0.3841606676578522,0.5068517923355103,0.44678547978401184,0.41401222348213196,0.0,0.0,0.0,0.0,0.0,0.0,0.0,0.0,1.866418719291687,-0.01838175115212587,-0.14838931682596665,-0.011849072461723353,0.08885356783866882,0.020479736849665642,0.0,0.013573091477155685,-0.003911013714969158,0.0
447,5,-0.0011830993462353945,-2.173114353354322e-06,0.004031037446111441,-0.012336391024291515,0.0009558344027027488,0.004807016346603632,0.012938243336975574,-0.0022191712632775307,-0.006602756679058075,0.0,0.0,0.0,0.0,0.0,0.0,0.009353860281407833,-0.01579269953072071,-0.0,0.0,0.0,0.0,-0.0006422165315598249,-0.004399490542709827,0.0007600907701998949,14222.0,13827.0,14652.0,13199.0,0.45397326350212097,0.4276944100856781,0.48353812098503113,0.38743314146995544,0.0,0.0,0.0,0.0,0.0,0.0,0.0,0.0,1.8285554647445679,-0.0210674828318662,-0.15053654082340237,-0.011747628918727762,0.06957918405532837,0.031702686101198196,0.0,0.01356356218457222,-0.004122640006244183,0.0
452,5,-0.0011830993462353945,-2.173114353354322e-06,0.004031037446111441,-0.012336391024291515,0.0009558344027027488,0.004807016346603632,0.012938243336975574,-0.0022191712632775307,-0.006602756679058075,0.0,0.0,0.0,0.0,0.0,0.0,0.009353860281407833,-0.01579269953072071,-0.0,0.0,0.0,0.0,-0.0006422165315598249,-0.004399490542709827,0.0007600907701998949,14222.0,13827.0,14652.0,13199.0,0.45397326350212097,0.4276944100856781,0.48353812098503113,0.38743314146995544,0.0,0.0,0.0,0.0,0.0,0.0,0.0,0.0,1.8285554647445679,-0.0210674828318662,-0.15053654082340237,-0.011747628918727762,0.06957918405532837,0.031702686101198196,0.0,0.01356356218457222,-0.004122640006244183,0.0
457,5,-0.0013179183006286621,-6.334784848149866e-05,0.0038609481416642666,-0.012336391024291515,0.0009558344027027488,0.004807016346603632,0.013339122757315636,-0.0002692287089303136,-0.006533272098749876,0.0,0.0,0.0,0.0,0.0,0.0,-0.0011037008371204138,-0.012400233186781406,-0.0,0.0,0.0,0.0,-0.0027111561503261328,-0.0036135667469352484,-0.0002579144493211061,14079.0,15054.0,14180.0,14296.0,0.44434013962745667,0.5119280219078064,0.45118191838264465,0.4589686691761017,0.0,0.0,0.0,0.0,0.0,0.0,0.0,0.0,1.7671799659729004,-0.03181998953362155,-0.1523441065586256,-0.012819691845157246,0.05280209332704544,-0.003615268273279071,-0.0,0.005919858813285828,-0.019758308306336403,0.0
462,5,-0.0013179183006286621,-6.334784848149866e-05,0.0038609481416642666,-0.012336391024291515,0.0009558344027027488,0.004807016346603632,0.013339122757315636,-0.0002692287089303136,-0.006533272098749876,0.0,0.0,0.0,0.0,0.0,0.0,-0.0011037008371204138,-0.012400233186781406,-0.0,0.0,0.0,0.0,-0.0027111561503261328,-0.0036135667469352484,-0.0002579144493211061,14079.0,15054.0,14180.0,14296.0,0.44434013962745667,0.5119280219078064,0.45118191838264465,0.4589686691761017,0.0,0.0,0.0,0.0,0.0,0.0,0.0,0.0,1.7671799659729004,-0.03181998953362155,-0.1523441065586256,-0.012819691845157246,0.05280209332704544,-0.003615268273279071,-0.0,0.005919858813285828,-0.019758308306336403,0.0
468,5,-0.0014312100829556584,7.2780617301759776e-06,0.003877750365063548,-0.012336391024291515,0.0009558344027027488,0.004807016346603632,0.01404209341853857,-0.0004165219725109637,-0.006063305772840977,0.0,0.0,0.0,0.0,0.0,0.0,-0.001205110689625144,-0.012561124749481678,-0.0,0.0,0.0,0.0,-0.0026325355283915997,-0.0017084900755435228,-0.0018275532638654113,13790.0,15081.0,13659.0,14495.0,0.42527440190315247,0.5139048099517822,0.41675516963005066,0.4726211130619049,0.0,0.0,0.0,0.0,0.0,0.0,0.0,0.0,1.7691972255706787,-0.02037889259581629,-0.15087944191002717,-0.012270470991687469,0.05354820936918259,-0.003951950930058956,-0.0,0.009353860281407833,-0.01579269953072071,0.0
473,5,-0.0014312100829556584,7.2780617301759776e-06,0.003877750365063548,-0.012336391024291515,0.0009558344027027488,0.004807016346603632,0.01404209341853857,-0.0004165219725109637,-0.006063305772840977,0.0,0.0,0.0,0.0,0.0,0.0,-0.001205110689625144,-0.012561124749481678,-0.0,0.0,0.0,0.0,-0.0026325355283915997,-0.0017084900755435228,-0.0018275532638654113,13790.0,15081.0,13659.0,14495.0,0.42527440190315247,0.5139048099517822,0.41675516963005066,0.4726211130619049,0.0,0.0,0.0,0.0,0.0,0.0,0.0,0.0,1.7691972255706787,-0.02037889259581629,-0.15087944191002717,-0.012270470991687469,0.05354820936918259,-0.003951950930058956,-0.0,0.009353860281407833,-0.01579269953072071,0.0
478,5,-0.0015262993983924389,-7.144199480535462e-05,0.0038184758741408587,-0.012336391024291515,0.0009558344027027488,0.004807016346603632,0.014656751416623592,-0.0011476670624688268,-0.006468150764703751,0.0,0.0,0.0,0.0,0.0,0.0,-0.0010856852168217301,-0.01269717700779438,-0.0,0.0,0.0,0.0,-0.005811856593936682,9.629232954466715e-05,-0.0004640490224119276,14273.0,14548.0,13487.0,13829.0,0.457464337348938,0.47625911235809326,0.4056430459022522,0.42781347036361694,0.0,0.0,0.0,0.0,0.0,0.0,0.0,0.0,1.7707709074020386,-0.019735448776240196,-0.1491602972222109,-0.012962799565035992,0.05417632311582565,-0.0035634832456707954,-0.0,-0.0011037008371204138,-0.012400233186781406,0.0
483,5,-0.0015262993983924389,-7.144199480535462e-05,0.0038184758741408587,-0.012336391024291515,0.0009558344027027488,0.004807016346603632,0.014656751416623592,-0.0011476670624688268,-0.006468150764703751,0.0,0.0,0.0,0.0,0.0,0.0,-0.0010856852168217301,-0.01269717700779438,-0.0,0.0,0.0,0.0,-0.005811856593936682,9.629232954466715e-05,-0.0004640490224119276,14273.0,14548.0,13487.0,13829.0,0.457464337348938,0.47625911235809326,0.4056430459022522,0.42781347036361694,0.0,0.0,0.0,0.0,0.0,0.0,0.0,0.0,1.7707709074020386,-0.019735448776240196,-0.1491602972222109,-0.012962799565035992,0.05417632311582565,-0.0035634832456707954,-0.0,-0.0011037008371204138,-0.012400233186781406,0.0
488,5,-0.0015575300203636289,-0.00014964993169996887,0.0038151091430336237,-0.008682237938046455,0.009767286479473114,0.0023268188815563917,0.017947597429156303,-0.0034439582377672195,-0.006418790202587843,0.0,0.0,0.0,0.0,0.0,0.0,-0.0012166670057922602,-0.01281043328344822,-0.0,0.0,0.0,0.0,-0.006313355173915625,0.0005836504278704524,-0.0009367918828502297,14183.0,14723.0,13275.0,13970.0,0.45133402943611145,0.4884862005710602,0.392251580953598,0.43712541460990906,0.0,0.0,0.0,0.0,0.0,0.0,0.0,0.0,1.7722327709197998,-0.013917117304406366,-0.14676646310941766,-0.013912343198830201,0.05470465496182442,-0.003996693529188633,-0.0,-0.001205110689625144,-0.012561124749481678,0.0
493,5,-0.0015575300203636289,-0.00014964993169996887,0.0038151091430336237,-0.008682237938046455,0.009767286479473114,0.0023268188815563917,0.017947597429156303,-0.0034439582377672195,-0.006418790202587843,0.0,0.0,0.0,0.0,0.0,0.0,-0.0012166670057922602,-0.01281043328344822,-0.0,0.0,0.0,0.0,-0.006313355173915625,0.0005836504278704524,-0.0009367918828502297,14183.0,14723.0,13275.0,13970.0,0.45133402943611145,0.4884862005710602,0.392251580953598,0.43712541460990906,0.0,0.0,0.0,0.0,0.0,0.0,0.0,0.0,1.7722327709197998,-0.013917117304406366,-0.14676646310941766,-0.013912343198830201,0.05470465496182442,-0.003996693529188633,-0.0,-0.001205110689625144,-0.012561124749481678,0.0
498,5,-0.001710957963950932,-0.0002482497366145253,0.0037322721909731627,-0.021884245797991753,0.015738891437649727,0.010871159844100475,0.01988658495247364,-0.00495943333953619,-0.00626867450773716,0.0,0.0,0.0,0.0,0.0,0.0,-0.0012166670057922602,-0.01281043328344822,-0.0,0.0,0.0,0.0,-0.006392837502062321,0.0009197047911584377,-0.0003408517804928124,14338.0,14556.0,13439.0,13855.0,0.4618290960788727,0.47683146595954895,0.40259912610054016,0.4295112192630768,0.0,0.0,0.0,0.0,0.0,0.0,0.0,0.0,1.7722327709197998,-0.025953769111327175,-0.14740735908963654,-0.01376953712527604,0.05470465496182442,-0.003996693529188633,-0.0,-0.001205110689625144,-0.012561124749481678,0.0
