timestamp,dt,pos_x,pos_y,pos_z,vel_x,vel_y,vel_z,roll,pitch,yaw,agv_x,agv_y,agv_z,x_ref,y_ref,z_ref,roll_ref,pitch_ref,yaw_ref,x_vel_ref,y_vel_ref,z_vel_ref,x_torque,y_torque,z_torque,w0,w1,w2,w3,u0,u1,u2,u3,m0req,m1req,m2req,m3req,thrust0,thrust1,thrust2,thrust3,thrust_ref,roll_vicon,pitch_vicon,yaw_vicon,acc_x,acc_y,acc_z
5,5,0.0,0.0,0.0,-0.0033904598094522953,0.005091650877147913,-0.0057586729526519775,-0.004413051530718803,-0.19340316951274872,0.006061529740691185,0.0013844901695847511,0.0009916232666000724,-0.0023679661098867655,0.0,0.0,0.0,-0.0061038522981107235,-0.0031265439465641975,-0.0,0.0,0.0,0.0,0.0012966194190084934,0.05809596925973892,0.000559692329261452,1495.0,1495.0,1495.0,1495.0,0.0,0.0,0.0,0.0,0.0,0.0,0.0,0.0,1495.0,1495.0,1495.0,1495.0,1.6876493692398071,0.0032162251566039456,0.19015612476143318,-0.038019863682030704,0.012714223936200142,-0.019093690440058708,0.0
27,22,0.0,0.0,0.0,0.0008893189369700849,-0.0015496461419388652,0.0035709640942513943,-0.004413051530718803,-0.19340316951274872,0.006061529740691185,0.0013844901695847511,0.0009916232666000724,-0.0023679661098867655,0.0,0.0,0.0,-0.0061038522981107235,-0.0031265439465641975,-0.0,0.0,0.0,0.0,0.0012966194190084934,0.05809596925973892,0.000559692329261452,1495.0,1495.0,1495.0,1495.0,0.0,0.0,0.0,0.0,0.0,0.0,0.0,0.0,1495.0,1495.0,1495.0,1495.0,1.6876493692398071,0.002560947826198954,0.18972773969410409,-0.0376191345501035,0.012714223936200142,-0.019093690440058708,0.0
32,5,0.0,0.0,0.0,0.0020801404025405645,0.0010359969455748796,0.004671340808272362,-0.004413051530718803,-0.19340316951274872,0.006061529740691185,0.0013844901695847511,0.0009916232666000724,-0.0023679661098867655,0.0,0.0,0.0,-0.0012707653222605586,0.0019627120345830917,-0.0,0.0,0.0,0.0,0.0012966194190084934,0.05809596925973892,0.000559692329261452,1495.0,1495.0,1495.0,1495.0,0.0,0.0,0.0,0.0,0.0,0.0,0.0,0.0,1495.0,1495.0,1495.0,1495.0,1.649362325668335,0.002367485434227245,0.18971124912280343,-0.037659945122554946,-0.007800526451319456,-0.0038849886041134596,0.0
37,5,0.0,0.0,0.0,0.0020801404025405645,0.0010359969455748796,0.004671340808272362,-0.004413051530718803,-0.19340316951274872,0.006061529740691185,0.0013844901695847511,0.0009916232666000724,-0.0023679661098867655,0.0,0.0,0.0,-0.0012707653222605586,0.0019627120345830917,-0.0,0.0,0.0,0.0,0.0012966194190084934,0.05809596925973892,0.000559692329261452,1495.0,1495.0,1495.0,1495.0,0.0,0.0,0.0,0.0,0.0,0.0,0.0,0.0,1495.0,1495.0,1495.0,1495.0,1.649362325668335,0.002367485434227245,0.18971124912280343,-0.037659945122554946,-0.007800526451319456,-0.0038849886041134596,0.0
42,5,0.0,0.0,0.0,-0.0023337812162935734,0.0013224080903455615,-0.003620254108682275,-0.004413051530718803,-0.19340316951274872,0.006061529740691185,0.0013844901695847511,0.0009916232666000724,-0.0023679661098867655,0.0,0.0,0.0,-0.0016185158165171742,-0.0021971960086375475,-0.0,0.0,0.0,0.0,0.0012966194190084934,0.05809596925973892,0.000559692329261452,1495.0,1495.0,1495.0,1495.0,0.0,0.0,0.0,0.0,0.0,0.0,0.0,0.0,1495.0,1495.0,1495.0,1495.0,1.6529953479766846,0.0029923394435676805,0.19027444090836299,-0.038097704430452774,0.008751679211854935,-0.004959030542522669,0.0
47,5,0.0,0.0,0.0,0.0007170128519646823,-0.00013223169662524015,-0.002541285241022706,-0.004413051530718803,-0.19340316951274872,0.006061529740691185,0.0013844901695847511,0.0009916232666000724,-0.0023679661098867655,0.0,0.0,0.0,-0.0016185158165171742,-0.0021971960086375475,-0.0,0.0,0.0,0.0,0.0012966194190084934,0.05809596925973892,0.000559692329261452,1495.0,1495.0,1495.0,1495.0,0.0,0.0,0.0,0.0,0.0,0.0,0.0,0.0,1495.0,1495.0,1495.0,1495.0,1.6529953479766846,0.0027326175369254612,0.18977334569356347,-0.03768772759776527,0.008751679211854935,-0.004959030542522669,0.0
52,5,-1.9005521608050913e-05,-1.816002281884721e-06,1.695488390396349e-05,-0.0019938575569540262,0.0001650275953579694,-0.003051100065931678,-0.004393231123685837,-0.19339564442634583,0.00607375567778945,0.0012809160398319364,-0.003144378773868084,0.004305907059460878,0.0,0.0,0.0,-0.0016185158165171742,-0.0021971960086375475,-0.0,0.0,0.0,0.0,-0.000573482655454427,0.05702592805027962,0.0007566561689600348,1495.0,1495.0,1495.0,1495.0,0.0,0.0,0.0,0.0,0.0,0.0,0.0,0.0,17350.0,7881.0,8919.0,17073.0,1.6529953479766846,0.002847423669776093,0.18992048634504985,-0.037741842258481845,0.008751679211854935,-0.004959030542522669,0.0
57,5,1.3378942639974412e-05,-1.050057221618772e-06,-7.948570782900788e-06,0.0030885927844792604,-2.590237454569433e-05,0.0017679744632914662,-0.004393231123685837,-0.19339564442634583,0.00607375567778945,0.0012809160398319364,-0.003144378773868084,0.004305907059460878,0.0,0.0,0.0,-0.00020606764883268625,-0.0019110845169052482,-0.0,0.0,0.0,0.0,-0.000573482655454427,0.05702592805027962,0.0007566561689600348,1495.0,1495.0,1495.0,1495.0,0.0,0.0,0.0,0.0,0.0,0.0,0.0,0.0,17350.0,7881.0,8919.0,17073.0,1.6463690996170044,0.003027246542291192,0.18975082139009192,-0.037847773285694566,0.007581562735140324,-0.0006288478616625071,0.0
62,5,3.565376755432226e-05,5.6632829910086e-06,-6.461817974923179e-05,0.003908416256308556,-0.0008159617427736521,0.007507542613893747,-0.004394125193357468,-0.19337816536426544,0.006072189658880234,0.0017033470794558525,-0.003812741721048951,-0.004110777750611305,0.0,0.0,0.0,-0.00020606764883268625,-0.0019110845169052482,-0.0,0.0,0.0,0.0,0.0008909259340725839,0.058569587767124176,0.0005729219410568476,17324.0,7963.0,8849.0,17099.0,0.687754213809967,0.12918835878372192,0.16322225332260132,0.6691974997520447,0.0,0.0,0.0,0.0,17350.0,7881.0,8919.0,17073.0,1.6463690996170044,0.0026006480605562385,0.1900331334887851,-0.03758888778629666,0.007581562735140324,-0.0006288478616625071,0.0
67,5,3.37318197125569e-05,1.5549814634141512e-05,-4.74730804853607e-05,0.0013327328488230705,-0.001512768561951816,0.0009456053958274424,-0.004394125193357468,-0.19337816536426544,0.006072189658880234,0.0017033470794558525,-0.003812741721048951,-0.004110777750611305,0.0,0.0,0.0,0.0010004963260143995,0.0036980907898396254,-0.0,0.0,0.0,0.0,0.0008909259340725839,0.058569587767124176,0.0005729219410568476,17324.0,7963.0,8849.0,17099.0,0.687754213809967,0.12918835878372192,0.16322225332260132,0.6691974997520447,0.0,0.0,0.0,0.0,17350.0,7881.0,8919.0,17073.0,1.6667773723602295,0.0029145823077223764,0.18987629998938707,-0.037600325498191624,-0.014852714724838734,0.003091017948463559,0.0
72,5,3.062948599108495e-05,2.8735903470078483e-05,-9.526394569547847e-05,0.00016081308422144502,-0.002187438076362014,0.006113145966082811,-0.004401135724037886,-0.19335360825061798,0.006079407874494791,-0.00028615398332476616,0.0010793389519676566,-0.000436520844232291,0.0,0.0,0.0,0.0010004963260143995,0.0036980907898396254,-0.0,0.0,0.0,0.0,0.0008604297763668001,0.05743079259991646,0.0006431216606870294,17302.0,8073.0,9039.0,17021.0,0.6859254240989685,0.1332157403230667,0.17102749645709991,0.6628267168998718,0.0,0.0,0.0,0.0,17274.0,8145.0,9019.0,17027.0,1.6667773723602295,0.002530079981559629,0.1902162221161395,-0.03703957537378171,-0.014852714724838734,0.003091017948463559,0.0
77,5,3.237708006054163e-05,5.405819320003502e-05,-0.0001708675263216719,0.00027403634157963097,-0.003913649823516607,0.011517687700688839,-0.004401135724037886,-0.19335360825061798,0.006079407874494791,-0.00028615398332476616,0.0010793389519676566,-0.000436520844232291,0.0,0.0,0.0,0.0010004963260143995,0.0036980907898396254,-0.0,0.0,0.0,0.0,0.0008604297763668001,0.05743079259991646,0.0006431216606870294,17302.0,8073.0,9039.0,17021.0,0.6859254240989685,0.1332157403230667,0.17102749645709991,0.6628267168998718,0.0,0.0,0.0,0.0,17274.0,8145.0,9019.0,17027.0,1.6667773723602295,0.001490640012539396,0.19036778491015896,-0.03620922369271827,-0.014852714724838734,0.003091017948463559,0.0
82,5,5.89486699027475e-05,8.436212374363095e-05,-0.0002699639298953116,0.0032982053235173225,-0.005201931577175856,0.016498645767569542,-0.004415908828377724,-0.1933690905570984,0.006067098118364811,-0.0035790763795375824,0.002441724995151162,-0.0021971703972667456,0.0,0.0,0.0,0.006377216428518295,0.003117711516097188,-0.0,0.0,0.0,0.0,0.0013476122403517365,0.057606905698776245,0.0005454921629279852,17246.0,7991.0,8992.0,17057.0,0.6813446879386902,0.13019657135009766,0.16910362243652344,0.6657242178916931,0.0,0.0,0.0,0.0,17269.0,7965.0,9031.0,17025.0,1.689590334892273,0.00045542246502914066,0.1908564629276702,-0.03534025250522939,-0.012692865915596485,0.019971733912825584,0.0
88,6,7.271798676811159e-05,0.00014252304390538484,-0.00038615232915617526,0.0029716005083173513,-0.009060083888471127,0.02054206281900406,-0.004415908828377724,-0.1933690905570984,0.006067098118364811,-0.0035790763795375824,0.002441724995151162,-0.0021971703972667456,0.0,0.0,0.0,0.006377216428518295,0.003117711516097188,-0.0,0.0,0.0,0.0,0.0013476122403517365,0.057606905698776245,0.0005454921629279852,17246.0,7991.0,8992.0,17057.0,0.6813446879386902,0.13019657135009766,0.16910362243652344,0.6657242178916931,0.0,0.0,0.0,0.0,17269.0,7965.0,9031.0,17025.0,1.689590334892273,0.001851919070453765,0.19272860045641535,-0.03462121847485904,-0.012692865915596485,0.019971733912825584,0.0
93,5,0.00010473863949300721,0.00018902828742284328,-0.0005320482887327671,0.005031118169426918,-0.009204662404954433,0.025724342092871666,-0.004430782049894333,-0.19338908791542053,0.006062623579055071,0.002831525169312954,-0.0053315917029976845,0.0009679939248599112,0.0,0.0,0.0,0.006377216428518295,0.003117711516097188,-0.0,0.0,0.0,0.0,0.0016288106562569737,0.05920591950416565,0.0006422035512514412,17406.0,7845.0,9029.0,17189.0,0.6946375966072083,0.12494907528162003,0.1706075370311737,0.6765831708908081,0.0,0.0,0.0,0.0,17390.0,7890.0,9018.0,17191.0,1.689590334892273,0.001365860507707075,0.19315878845174056,-0.033347413361507226,-0.012692865915596485,0.019971733912825584,0.0
100,6,0.00012786370643880218,0.00029685813933610916,-0.0006614974699914455,0.0022085648961365223,-0.009828131645917892,0.01479564979672432,-0.004430782049894333,-0.19338908791542053,0.006062623579055071,0.002831525169312954,-0.0053315917029976845,0.0009679939248599112,0.0,0.0,0.0,0.011234959587454796,0.004678635857999325,-0.0,0.0,0.0,0.0,0.0016288106562569737,0.05920591950416565,0.0006422035512514412,17406.0,7845.0,9029.0,17189.0,0.6946375966072083,0.12494907528162003,0.1706075370311737,0.6765831708908081,0.0,0.0,0.0,0.0,17390.0,7890.0,9018.0,17191.0,1.736064076423645,0.0010654539635312273,0.19449735619522399,-0.0308937141409956,-0.019570769742131233,0.036151740700006485,0.0
105,5,0.00014473639021161944,0.00034042049082927406,-0.0007243454456329346,0.002908147405833006,-0.009158734232187271,0.013460022397339344,-0.004430417437106371,-0.19336527585983276,0.006060974206775427,-0.0020329486578702927,0.0065576061606407166,3.359814945724793e-05,0.0,0.0,0.0,0.011234959587454796,0.004678635857999325,-0.0,0.0,0.0,0.0,0.0028324148152023554,0.058358341455459595,0.0006012338562868536,17290.0,7813.0,9205.0,17225.0,0.6849661469459534,0.12383164465427399,0.17802895605564117,0.6795578002929688,0.0,0.0,0.0,0.0,17390.0,7890.0,9018.0,17191.0,1.736064076423645,0.001538239055643643,0.1952278964231144,-0.030011179453965017,-0.019570769742131233,0.036151740700006485,0.0
110,5,0.00014589735656045377,0.00036719543277285993,-0.0007290297071449459,0.0013025752268731594,-0.006876489147543907,0.005946116987615824,-0.004430417437106371,-0.19336527585983276,0.006060974206775427,-0.0020329486578702927,0.0065576061606407166,3.359814945724793e-05,0.0,0.0,0.0,0.011308829300105572,0.0028107918333262205,-0.0,0.0,0.0,0.0,0.0028324148152023554,0.058358341455459595,0.0006012338562868536,17290.0,7813.0,9205.0,17225.0,0.6849661469459534,0.12383164465427399,0.17802895605564117,0.6795578002929688,0.0,0.0,0.0,0.0,17390.0,7890.0,9018.0,17191.0,1.7279953956604004,0.0006066521030730446,0.1955765899168969,-0.029230188146443896,-0.011702935211360455,0.03622029349207878,0.0
115,5,0.00013447352102957666,0.0003957701555918902,-0.0007683616713620722,-0.000849829229991883,-0.006179561372846365,0.007098282687366009,-0.004430962260812521,-0.19339267909526825,0.006050888914614916,0.00033207485103048384,0.003910219296813011,-0.0007484412635676563,0.0,0.0,0.0,0.011308829300105572,0.0028107918333262205,-0.0,0.0,0.0,0.0,0.0031998951453715563,0.05925224721431732,0.000643521489109844,17396.0,7799.0,9312.0,17349.0,0.6938052773475647,0.12332386523485184,0.18258261680603027,0.6898785829544067,0.0,0.0,0.0,0.0,17356.0,7863.0,9250.0,17394.0,1.7279953956604004,0.0008019931692891961,0.1961620502853979,-0.029067681193835678,-0.011702935211360455,0.03622029349207878,0.0
120,5,0.00013161989045329392,0.00039970758371055126,-0.0007997717475518584,-0.000682368001434952,-0.0029443164821714163,0.006608525291085243,-0.004430962260812521,-0.19339267909526825,0.006050888914614916,0.00033207485103048384,0.003910219296813011,-0.0007484412635676563,0.0,0.0,0.0,0.011308829300105572,0.0028107918333262205,-0.0,0.0,0.0,0.0,0.0031998951453715563,0.05925224721431732,0.000643521489109844,17396.0,7799.0,9312.0,17349.0,0.6938052773475647,0.12332386523485184,0.18258261680603027,0.6898785829544067,0.0,0.0,0.0,0.0,17356.0,7863.0,9250.0,17394.0,1.7279953956604004,2.9019471290674087e-05,0.19528093499647006,-0.028102178282797333,-0.011702935211360455,0.03622029349207878,0.0
125,5,0.0001285272737732157,0.0004290810029488057,-0.0008345030364580452,-0.0006440618308261037,-0.0047025373205542564,0.006811161059886217,-0.0044464063830673695,-0.19339728355407715,0.006066928151994944,0.0022102168295532465,-0.0039505925960838795,0.0035926848649978638,0.0,0.0,0.0,0.004299222957342863,-0.00045776579645462334,-0.0,0.0,0.0,0.0,0.004727663937956095,0.05910146236419678,0.0006453318055719137,17499.0,7855.0,9732.0,17556.0,0.7024485468864441,0.12532004714012146,0.20105865597724915,0.7072368860244751,0.0,0.0,0.0,0.0,17490.0,7870.0,9712.0,17571.0,1.6619327068328857,0.0010300484696733453,0.19587453483182668,-0.028134892888268426,0.0018331779865548015,0.013243705965578556,0.0
130,5,0.0001336263958364725,0.00043059076415374875,-0.0008520844276063144,0.0003542712365742773,-0.0020621842704713345,0.004834234714508057,-0.0044464063830673695,-0.19339728355407715,0.006066928151994944,0.0022102168295532465,-0.0039505925960838795,0.0035926848649978638,0.0,0.0,0.0,0.004299222957342863,-0.00045776579645462334,-0.0,0.0,0.0,0.0,0.004727663937956095,0.05910146236419678,0.0006453318055719137,17499.0,7855.0,9732.0,17556.0,0.7024485468864441,0.12532004714012146,0.20105865597724915,0.7072368860244751,0.0,0.0,0.0,0.0,17490.0,7870.0,9712.0,17571.0,1.6619327068328857,0.0023085039614889045,0.196394709935772,-0.02848971449098687,0.0018331779865548015,0.013243705965578556,0.0
135,5,0.0001362008770229295,0.00045570588554255664,-0.0008848008583299816,0.00045064539881423116,-0.0038386902306228876,0.005859666038304567,-0.004443327896296978,-0.19338132441043854,0.006095880642533302,-0.0011035481002181768,-0.0020348727703094482,-0.0038513350300490856,0.0,0.0,0.0,0.003297339892014861,0.0005184034234844148,-0.0,0.0,0.0,0.0,0.0025802776217460632,0.0581723116338253,0.0005873784539289773,17286.0,7827.0,9204.0,17170.0,0.6846202611923218,0.12429799884557724,0.17794856429100037,0.675065815448761,0.0,0.0,0.0,0.0,17373.0,8007.0,9605.0,17589.0,1.6536920070648193,0.0022374452881323142,0.19665182929711422,-0.02794605770598683,-0.0020657225977629423,0.010107074864208698,0.0
140,5,0.00014729581016581506,0.00045666450751014054,-0.0008682440966367722,0.0015116494614630938,-0.0016505096573382616,0.00035705167101696134,-0.004443327896296978,-0.19338132441043854,0.006095880642533302,-0.0011035481002181768,-0.0020348727703094482,-0.0038513350300490856,0.0,0.0,0.0,0.003297339892014861,0.0005184034234844148,-0.0,0.0,0.0,0.0,0.0025802776217460632,0.0581723116338253,0.0005873784539289773,17286.0,7827.0,9204.0,17170.0,0.6846202611923218,0.12429799884557724,0.17794856429100037,0.675065815448761,0.0,0.0,0.0,0.0,17373.0,8007.0,9605.0,17589.0,1.6536920070648193,0.0010986854255255491,0.19638246593368888,-0.027762651467001468,-0.0020657225977629423,0.010107074864208698,0.0
145,5,0.00015730803715996444,0.000444836012320593,-0.0008574024541303515,0.0018061274895444512,0.0007592163165099919,-0.0011581742437556386,-0.00445546256378293,-0.1933707445859909,0.006053529679775238,0.004142063669860363,-0.0023153561633080244,0.0023787550162523985,0.0,0.0,0.0,0.002838500775396824,0.001625154516659677,-0.0,0.0,0.0,0.0,0.00239559356123209,0.058689046651124954,0.0005137266707606614,17276.0,7777.0,9041.0,17185.0,0.6837933659553528,0.12254443019628525,0.1711246371269226,0.6762295961380005,0.0,0.0,0.0,0.0,17290.0,7799.0,9220.0,17169.0,1.655147910118103,0.0018898614895620407,0.19707229396926057,-0.02788570025202834,-0.00648158835247159,0.00870829913765192,0.0
150,5,0.00015296689525712281,0.00044935394544154406,-0.0008567835902795196,0.00020151477656327188,-0.00023846724070608616,-0.0005375333712436259,-0.00445546256378293,-0.1933707445859909,0.006053529679775238,0.004142063669860363,-0.0023153561633080244,0.0023787550162523985,0.0,0.0,0.0,0.002838500775396824,0.001625154516659677,-0.0,0.0,0.0,0.0,0.00239559356123209,0.058689046651124954,0.0005137266707606614,17276.0,7777.0,9041.0,17185.0,0.6837933659553528,0.12254443019628525,0.1711246371269226,0.6762295961380005,0.0,0.0,0.0,0.0,17290.0,7799.0,9220.0,17169.0,1.655147910118103,0.0010582495629345016,0.19680936203544958,-0.027596875380808534,-0.00648158835247159,0.00870829913765192,0.0
155,5,0.00015431540668942034,0.0004464863450266421,-0.0008644418558105826,0.00024242603103630245,0.00024872631183825433,0.0007039752090349793,-0.004477731883525848,-0.19337597489356995,0.006009953562170267,5.148945274413563e-05,-0.008111998438835144,-0.008948039263486862,0.0,0.0,0.0,0.0011128835612908006,0.0004059761413373053,-0.0,0.0,0.0,0.0,0.0022443393245339394,0.058765608817338943,0.00048200367018580437,17245.0,7901.0,8939.0,17231.0,0.6812329888343811,0.12696126103401184,0.1669217050075531,0.6800318956375122,0.0,0.0,0.0,0.0,17315.0,7698.0,9109.0,17145.0,1.6358816623687744,0.0010045811514722963,0.19641934315393433,-0.027253918487296254,-0.00160030962433666,0.003374504391103983,0.0
161,5,0.0001656461536185816,0.0004402350459713489,-0.000857795006595552,0.0014566612662747502,0.0008496457594446838,-0.0005160276195965707,-0.004477731883525848,-0.19337597489356995,0.006009953562170267,5.148945274413563e-05,-0.008111998438835144,-0.008948039263486862,0.0,0.0,0.0,0.0011128835612908006,0.0004059761413373053,-0.0,0.0,0.0,0.0,0.0022443393245339394,0.058765608817338943,0.00048200367018580437,17245.0,7901.0,8939.0,17231.0,0.6812329888343811,0.12696126103401184,0.1669217050075531,0.6800318956375122,0.0,0.0,0.0,0.0,17315.0,7698.0,9109.0,17145.0,1.6358816623687744,0.001100030171902021,0.19602173524642408,-0.027689186187228855,-0.00160030962433666,0.003374504391103983,0.0
166,5,0.00013568659778684378,0.00044972082832828164,-0.0008798180497251451,-0.0030124823097139597,-0.0007984334952197969,0.0024363521952182055,-0.004477731883525848,-0.19337597489356995,0.006009953562170267,5.148945274413563e-05,-0.008111998438835144,-0.008948039263486862,0.0,0.0,0.0,-0.0002477361122146249,0.0016106957336887717,-0.0,0.0,0.0,0.0,0.0014086421579122543,0.0585516020655632,-0.00028653815388679504,17245.0,7901.0,8939.0,17231.0,0.6812329888343811,0.12696126103401184,0.1669217050075531,0.6800318956375122,0.0,0.0,0.0,0.0,17270.0,7896.0,8936.0,17209.0,1.6431609392166138,0.001752476093958227,0.19723227136679403,-0.027581100255787982,-0.006377424579113722,-0.0007545325206592679,0.0
171,5,0.00014013693726155907,0.00044627487659454346,-0.0008869558805599809,-0.0006709517328999937,9.413946099812165e-05,0.0018310764571651816,-0.004477731883525848,-0.19337597489356995,0.006009953562170267,5.148945274413563e-05,-0.008111998438835144,-0.008948039263486862,0.0,0.0,0.0,-0.0002477361122146249,0.0016106957336887717,-0.0,0.0,0.0,0.0,0.0014086421579122543,0.0585516020655632,-0.00028653815388679504,17245.0,7901.0,8939.0,17231.0,0.6812329888343811,0.12696126103401184,0.1669217050075531,0.6800318956375122,0.0,0.0,0.0,0.0,17270.0,7896.0,8936.0,17209.0,1.6431609392166138,0.0020561654237478454,0.1970750187453886,-0.027446935759194303,-0.006377424579113722,-0.0007545325206592679,0.0
176,5,0.0001483755768276751,0.00045444449642673135,-0.0008776193135417998,0.0007202557171694934,-0.0009426976903341711,-0.0003879561845678836,-0.004385811742395163,-0.19332623481750488,0.005859470926225185,0.009458636865019798,0.004016309045255184,-0.010603838600218296,0.0,0.0,0.0,0.0006981343613006175,-0.0004423815116751939,-0.0,0.0,0.0,0.0,0.0016572099411860108,0.05824628844857216,0.0003174130688421428,16812.0,8696.0,7975.0,17510.0,0.6458649635314941,0.1570819467306137,0.1296176165342331,0.7033171653747559,0.0,0.0,0.0,0.0,17691.0,6668.0,9654.0,16653.0,1.6331783533096313,0.0015261031022099074,0.19664742735764415,-0.027788351139724714,0.0017409343272447586,0.0021133972331881523,0.0
181,5,0.0001483755768276751,0.00045444449642673135,-0.0008776193135417998,0.0007202557171694934,-0.0009426976903341711,-0.0003879561845678836,-0.004385811742395163,-0.19332623481750488,0.005859470926225185,0.009458636865019798,0.004016309045255184,-0.010603838600218296,0.0,0.0,0.0,0.0006981343613006175,-0.0004423815116751939,-0.0,0.0,0.0,0.0,0.0016572099411860108,0.05824628844857216,0.0003174130688421428,16812.0,8696.0,7975.0,17510.0,0.6458649635314941,0.1570819467306137,0.1296176165342331,0.7033171653747559,0.0,0.0,0.0,0.0,17691.0,6668.0,9654.0,16653.0,1.6331783533096313,0.0015261031022099074,0.19664742735764415,-0.027788351139724714,0.0017409343272447586,0.0021133972331881523,0.0
186,5,0.0001319539442192763,0.0004605543799698353,-0.0008367971167899668,-0.0003188197151757777,-0.00013174937339499593,-0.0024543963372707367,-0.004385811742395163,-0.19332623481750488,0.005859470926225185,0.009458636865019798,0.004016309045255184,-0.010603838600218296,0.0,0.0,0.0,0.0019838789012283087,0.0008886613650247455,-0.0,0.0,0.0,0.0,0.0016572099411860108,0.05824628844857216,0.0003174130688421428,16812.0,8696.0,7975.0,17510.0,0.6458649635314941,0.1570819467306137,0.1296176165342331,0.7033171653747559,0.0,0.0,0.0,0.0,17691.0,6668.0,9654.0,16653.0,1.6447234153747559,0.0007932415737508519,0.19707950209223382,-0.02723148562517953,-0.00352192553691566,0.006048060022294521,0.0
191,5,0.0001515601179562509,0.0004565394774544984,-0.0008537067333236337,0.002225213684141636,0.00042908775503747165,0.0010473973816260695,-0.00429932726547122,-0.1932913064956665,0.006117142271250486,-0.00799461267888546,0.0006296642823144794,-0.09215132147073746,0.0,0.0,0.0,0.0019838789012283087,0.0008886613650247455,-0.0,0.0,0.0,0.0,0.0013750242069363594,0.05822886899113655,0.003183524589985609,18239.0,5019.0,10705.0,16045.0,0.7659939527511597,0.044360123574733734,0.24730399250984192,0.5855028629302979,0.0,0.0,0.0,0.0,16457.0,9505.0,6874.0,17963.0,1.6447234153747559,0.002007502170419423,0.19778347632045692,-0.028170699302442873,-0.00352192553691566,0.006048060022294521,0.0
196,5,0.00015314434131141752,0.00045034463983029127,-0.0008748315740376711,0.001080192276276648,0.0009150147088803351,0.0029539414681494236,-0.00429932726547122,-0.1932913064956665,0.006117142271250486,-0.00799461267888546,0.0006296642823144794,-0.09215132147073746,0.0,0.0,0.0,0.00029968947637826204,0.0023087537847459316,-0.0,0.0,0.0,0.0,0.0013750242069363594,0.05822886899113655,0.003183524589985609,18239.0,5019.0,10705.0,16045.0,0.7659939527511597,0.044360123574733734,0.24730399250984192,0.5855028629302979,0.0,0.0,0.0,0.0,16457.0,9505.0,6874.0,17963.0,1.6507530212402344,0.0016898489460729176,0.19696854883743473,-0.0276517373837497,-0.00918356329202652,0.0009169848053716123,0.0
201,5,0.00019329825590830296,0.00035308883525431156,-0.000913402356673032,0.005250546149909496,0.012036701664328575,0.005810071248561144,-0.004500256385654211,-0.1932367980480194,0.005564250983297825,-0.005022213328629732,-0.01577400416135788,-0.0576958991587162,0.0,0.0,0.0,0.00029968947637826204,0.0023087537847459316,-0.0,0.0,0.0,0.0,0.0015987650258466601,0.05883711948990822,-0.0029677744023501873,16453.0,9425.0,7099.0,17943.0,0.6172597408294678,0.18748493492603302,0.0997840017080307,0.7401946783065796,0.0,0.0,0.0,0.0,17811.0,6269.0,9967.0,16456.0,1.6507530212402344,-0.005444106641689669,0.1938603360860737,-0.029062774661163707,-0.00918356329202652,0.0009169848053716123,0.0
206,5,0.00015140649338718504,0.00044249193160794675,-0.0008587418706156313,-0.0029267931822687387,-0.005913689266890287,-0.004235229920595884,-0.004500256385654211,-0.1932367980480194,0.005564250983297825,-0.005022213328629732,-0.01577400416135788,-0.0576958991587162,0.0,0.0,0.0,-0.013281567953526974,0.004911897704005241,-0.0,0.0,0.0,0.0,0.0015987650258466601,0.05883711948990822,-0.0029677744023501873,16453.0,9425.0,7099.0,17943.0,0.6172597408294678,0.18748493492603302,0.0997840017080307,0.7401946783065796,0.0,0.0,0.0,0.0,17811.0,6269.0,9967.0,16456.0,1.754046082496643,0.0020034645409286946,0.19686910650791684,-0.02838687779721925,-0.020758796483278275,-0.043179310858249664,0.0
212,5,-0.0002518213295843452,-1.3440674592857249e-05,0.00031570796272717416,-0.04955805838108063,0.05234643816947937,-0.14262807369232178,-0.004574337508529425,-0.19287168979644775,0.006024292670190334,-0.004600356798619032,0.015125414356589317,-0.08075013011693954,0.0,0.0,0.0,-0.013281567953526974,0.004911897704005241,-0.0,0.0,0.0,0.0,0.002347367350012064,0.058428432792425156,0.00042608901276253164,16905.0,8515.0,8181.0,17520.0,0.6533820629119873,0.1499333679676056,0.1372051239013672,0.7042028903961182,0.0,0.0,0.0,0.0,17505.0,7133.0,9715.0,16747.0,1.754046082496643,-7.301077857036067e-05,0.19167109799957793,-0.038663981549096116,-0.020758796483278275,-0.043179310858249664,0.0
217,5,-4.865246410190593e-07,5.401647285907529e-06,5.080733899376355e-05,0.010336955077946186,0.018677495419979095,-0.02526315487921238,-0.004574337508529425,-0.19287168979644775,0.006024292670190334,-0.004600356798619032,0.015125414356589317,-0.08075013011693954,0.0,0.0,0.0,-0.046084944158792496,-0.033821482211351395,-0.0,0.0,0.0,0.0,0.002347367350012064,0.058428432792425156,0.00042608901276253164,16905.0,8515.0,8181.0,17520.0,0.6533820629119873,0.1499333679676056,0.1372051239013672,0.7042028903961182,0.0,0.0,0.0,0.0,17505.0,7133.0,9715.0,16747.0,2.3001580238342285,0.0027100879292366086,0.18971020506241398,-0.038179534599169625,0.18722251057624817,-0.19635678827762604,0.0
222,5,-9.654682799009606e-06,-1.2921344932692591e-05,9.434347157366574e-05,0.0030346030835062265,0.009669757448136806,-0.015329597517848015,-0.004739897791296244,-0.19271355867385864,0.00603242963552475,-0.02316230908036232,-0.045262087136507034,0.054201822727918625,0.0,0.0,0.0,-0.046084944158792496,-0.033821482211351395,-0.0,0.0,0.0,0.0,0.002058418933302164,0.0579436793923378,0.00285141309723258,17852.0,6289.0,10225.0,16473.0,0.7323954105377197,0.07563705742359161,0.22388149797916412,0.6188390254974365,0.0,0.0,0.0,0.0,16712.0,9132.0,7316.0,17838.0,2.3001580238342285,0.001749960125560748,0.18911708612328584,-0.0382936410024636,0.18722251057624817,-0.19635678827762604,0.0
227,5,-0.00016916364256758243,4.829758472624235e-05,-7.626959268236533e-05,-0.01792723499238491,-0.0034783685114234686,0.014341727830469608,-0.004739897791296244,-0.19271355867385864,0.00603242963552475,-0.02316230908036232,-0.045262087136507034,0.054201822727918625,0.0,0.0,0.0,-0.011339202523231506,0.0027217527385801077,-0.0,0.0,0.0,0.0,0.002058418933302164,0.0579436793923378,0.00285141309723258,17852.0,6289.0,10225.0,16473.0,0.7323954105377197,0.07563705742359161,0.22388149797916412,0.6188390254974365,0.0,0.0,0.0,0.0,16712.0,9132.0,7316.0,17838.0,1.7279406785964966,0.005883700425575528,0.20319405464149268,-0.039235690656050516,-0.011331853456795216,-0.036316417157649994,0.0
232,5,-0.00017438505892641842,4.636260564438999e-05,-9.441208385396749e-05,-0.007797462400048971,-0.001159150036983192,0.00791379064321518,-0.005158792715519667,-0.19231118261814117,0.005334097892045975,-0.09882444143295288,-0.10877609997987747,0.012801716104149818,0.0,0.0,0.0,-0.011339202523231506,0.0027217527385801077,-0.0,0.0,0.0,0.0,-0.001199045218527317,0.058035921305418015,-0.0012888641795143485,17441.0,9424.0,8952.0,17490.0,0.69754558801651,0.18742738664150238,0.1674206405878067,0.7016525268554688,0.0,0.0,0.0,0.0,17606.0,9323.0,8821.0,17440.0,1.7279406785964966,0.005240271312522916,0.20282526669657278,-0.03917474030906653,-0.011331853456795216,-0.036316417157649994,0.0
237,5,-0.00022507997346110642,5.168095594854094e-05,2.8372392989695072e-05,-0.009202375076711178,-0.0011018621735274792,-0.011568620800971985,-0.005158792715519667,-0.19231118261814117,0.005334097892045975,-0.09882444143295288,-0.10877609997987747,0.012801716104149818,0.0,0.0,0.0,0.0014587714103981853,-0.00733685027807951,-0.0,0.0,0.0,0.0,-0.001199045218527317,0.058035921305418015,-0.0012888641795143485,17441.0,9424.0,8952.0,17490.0,0.69754558801651,0.18742738664150238,0.1674206405878067,0.7016525268554688,0.0,0.0,0.0,0.0,17606.0,9323.0,8821.0,17440.0,1.7079616785049438,0.005118678532358766,0.20109570640266528,-0.0401749310459392,0.030195020139217377,0.004618209321051836,0.0
242,5,-0.0002935341908596456,0.00010081868822453544,0.00015112588880583644,-0.011895458213984966,-0.006337272934615612,-0.019357867538928986,-0.006699228659272194,-0.18954028189182281,0.005771023686975241,-0.12337245792150497,-0.38423624634742737,-0.10549656301736832,0.0,0.0,0.0,0.0014587714103981853,-0.00733685027807951,-0.0,0.0,0.0,0.0,-0.009469768963754177,0.03853267803788185,0.0006101384642533958,18222.0,14403.0,12523.0,17742.0,0.7644829750061035,0.4662787914276123,0.3463859558105469,0.7230103015899658,0.0,0.0,0.0,0.0,19325.0,12906.0,13103.0,17291.0,1.7079616785049438,0.005403212007491077,0.19836115758551334,-0.03913524534657431,0.030195020139217377,0.004618209321051836,0.0
247,5,-0.00039391941390931606,0.00015691576118115336,0.000375229719793424,-0.01680440828204155,-0.009266558103263378,-0.03463560715317726,-0.006699228659272194,-0.18954028189182281,0.005771023686975241,-0.12337245792150497,-0.38423624634742737,-0.10549656301736832,0.0,0.0,0.0,0.007437202148139477,-0.010865478776395321,-0.0,0.0,0.0,0.0,-0.009469768963754177,0.03853267803788185,0.0006101384642533958,18222.0,14403.0,12523.0,17742.0,0.7644829750061035,0.4662787914276123,0.3463859558105469,0.7230103015899658,0.0,0.0,0.0,0.0,19325.0,12906.0,13103.0,17291.0,1.7653828859329224,0.005836550639158033,0.19479527819654194,-0.03845730993524009,0.04621884971857071,0.024336032569408417,0.0
252,5,-0.00044364784844219685,0.00013666592712979764,0.00046779736294411123,-0.01268917415291071,-0.0012766428990289569,-0.02496236190199852,-0.008043057285249233,-0.1847517341375351,0.005457940977066755,-0.18081039190292358,-0.9118160009384155,0.0672021135687828,0.0,0.0,0.0,0.007437202148139477,-0.010865478776395321,-0.0,0.0,0.0,0.0,0.002308663446456194,0.032832060009241104,0.002086981199681759,16521.0,10184.0,12710.0,15246.0,0.6226599216461182,0.22196170687675476,0.357525497674942,0.5257935523986816,0.0,0.0,0.0,0.0,15621.0,11690.0,8724.0,17677.0,1.7653828859329224,0.0036119491967289245,0.18948104579314554,-0.03836225990556081,0.04621884971857071,0.024336032569408417,0.0
257,5,-0.0005750008276663721,0.00017127826868090779,0.0006743347039446235,-0.02083802968263626,-0.004664138425141573,-0.03476942703127861,-0.008043057285249233,-0.1847517341375351,0.005457940977066755,-0.18081039190292358,-0.9118160009384155,0.0672021135687828,0.0,0.0,0.0,0.0017028540605679154,-0.011792970821261406,-0.0,0.0,0.0,0.0,0.002308663446456194,0.032832060009241104,0.002086981199681759,16521.0,10184.0,12710.0,15246.0,0.6226599216461182,0.22196170687675476,0.357525497674942,0.5257935523986816,0.0,0.0,0.0,0.0,15621.0,11690.0,8724.0,17677.0,1.7603566646575928,0.0011696450572168738,0.18257897077699026,-0.03741705984277914,0.050022464245557785,0.005556307267397642,0.0
262,5,-0.0007676014211028814,0.00012087429786333814,0.0010179879609495401,-0.031447283923625946,0.004182822071015835,-0.05514616519212723,-0.010241580195724964,-0.17138034105300903,0.0053269644267857075,-0.14205209910869598,-1.4239414930343628,-0.09762933850288391,0.0,0.0,0.0,0.0017028540605679154,-0.011792970821261406,-0.0,0.0,0.0,0.0,0.006705768872052431,0.013141022995114326,-0.0018102697795256972,13229.0,13507.0,12726.0,15617.0,0.3893490731716156,0.40695348381996155,0.35847315192222595,0.5531859397888184,0.0,0.0,0.0,0.0,13488.0,13495.0,14219.0,14882.0,1.7603566646575928,-0.005462640708998274,0.172479453382365,-0.038191862172284555,0.050022464245557785,0.005556307267397642,0.0
267,5,-0.0012050439836457372,-2.249108365504071e-05,0.0016936962492763996,-0.06507201492786407,0.018876973539590836,-0.10314346104860306,-0.010241580195724964,-0.17138034105300903,0.0053269644267857075,-0.14205209910869598,-1.4239414930343628,-0.09762933850288391,0.0,0.0,0.0,-0.0041569313034415245,-0.026037022471427917,-0.0,0.0,0.0,0.0,0.006705768872052431,0.013141022995114326,-0.0018102697795256972,13229.0,13507.0,12726.0,15617.0,0.3893490731716156,0.40695348381996155,0.35847315192222595,0.5531859397888184,0.0,0.0,0.0,0.0,13488.0,13495.0,14219.0,14882.0,1.9471633434295654,-0.010861354898023281,0.16213958975513482,-0.041294582104867326,0.12214981019496918,-0.015003117732703686,0.0
272,5,-0.0012511068489402533,1.4071402802073862e-05,0.0016783926403149962,-0.031556349247694016,0.003163291374221444,-0.039420947432518005,-0.011101951822638512,-0.1579645872116089,0.005540103651583195,0.009063362143933773,-1.9828635454177856,0.03256522864103317,0.0,0.0,0.0,-0.0041569313034415245,-0.026037022471427917,-0.0,0.0,0.0,0.0,0.006172287277877331,-0.0108262924477458,0.0015608328394591808,13407.0,13918.0,15728.0,12912.0,0.40053826570510864,0.43366146087646484,0.5614520907402039,0.369731068611145,0.0,0.0,0.0,0.0,12769.0,14580.0,15818.0,12711.0,1.9471633434295654,-0.004882180397853798,0.15265414079378978,-0.03997521639151547,0.12214981019496918,-0.015003117732703686,0.0
277,5,-0.0014238388976082206,-1.2873771083832253e-05,0.0019226089352741838,-0.0333503857254982,0.004498737398535013,-0.045074332505464554,-0.011101951822638512,-0.1579645872116089,0.005540103651583195,0.009063362143933773,-1.9828635454177856,0.03256522864103317,0.0,0.0,0.0,-0.0032490610610693693,-0.026599539443850517,-0.0,0.0,0.0,0.0,0.006172287277877331,-0.0108262924477458,0.0015608328394591808,13407.0,13918.0,15728.0,12912.0,0.40053826570510864,0.43366146087646484,0.5614520907402039,0.369731068611145,0.0,0.0,0.0,0.0,12769.0,14580.0,15818.0,12711.0,1.9539332389831543,-0.004166854329879332,0.1393238709098237,-0.038937879248848055,0.12522245943546295,-0.011767243966460228,0.0
282,5,-0.0015793729107826948,-6.320208922261372e-05,0.002135544316843152,-0.03200424462556839,0.007838892750442028,-0.04358198493719101,-0.010189359076321125,-0.13233420252799988,0.005416034255176783,0.16320781409740448,-2.339557647705078,-0.03299344331026077,0.0,0.0,0.0,-0.0032490610610693693,-0.026599539443850517,-0.0,0.0,0.0,0.0,0.0008914803038351238,-0.027929307892918587,-0.0008919256506487727,11259.0,16225.0,15833.0,11994.0,0.2757284641265869,0.5993927717208862,0.5693842172622681,0.31585127115249634,0.0,0.0,0.0,0.0,11802.0,15893.0,16358.0,11179.0,1.9539332389831543,-0.005102970794504759,0.12747767793781806,-0.03900075700322767,0.12522245943546295,-0.011767243966460228,0.0
288,5,-0.0017384469974786043,-0.00011205350165255368,0.0022831170354038477,-0.03189058229327202,0.008997726254165173,-0.035141509026288986,-0.010189359076321125,-0.13233420252799988,0.005416034255176783,0.16320781409740448,-2.339557647705078,-0.03299344331026077,0.0,0.0,0.0,-0.008141937665641308,-0.027122508734464645,-0.0,0.0,0.0,0.0,0.0008914803038351238,-0.027929307892918587,-0.0008919256506487727,11259.0,16225.0,15833.0,11994.0,0.2757284641265869,0.5993927717208862,0.5693842172622681,0.31585127115249634,0.0,0.0,0.0,0.0,11802.0,15893.0,16358.0,11179.0,1.9697381258010864,-0.008233102221444404,0.11642366656857116,-0.03875465361979087,0.12871305644512177,-0.029725974425673485,0.0
293,5,-0.001842350116930902,-0.00021763987024314702,0.0024191613774746656,-0.02522461675107479,0.01626945473253727,-0.030381930992007256,-0.010189359076321125,-0.13233420252799988,0.005416034255176783,0.16320781409740448,-2.339557647705078,-0.03299344331026077,0.0,0.0,0.0,-0.008141937665641308,-0.027122508734464645,-0.0,0.0,0.0,0.0,0.0008914803038351238,-0.027929307892918587,-0.0008919256506487727,11259.0,16225.0,15833.0,11994.0,0.2757284641265869,0.5993927717208862,0.5693842172622681,0.31585127115249634,0.0,0.0,0.0,0.0,11802.0,15893.0,16358.0,11179.0,1.9697381258010864,-0.010151878769564845,0.10634075519190672,-0.03980552426901722,0.12871305644512177,-0.029725974425673485,0.0
298,5,-0.0019431485561653972,-0.00024730071891099215,0.002599250292405486,-0.02218564972281456,0.01006708387285471,-0.03376345336437225,-0.00851123221218586,-0.11347679793834686,0.005719325039535761,0.2566196322441101,-2.3080549240112305,0.004234760534018278,0.0,0.0,0.0,-0.017259590327739716,-0.022363772615790367,-0.0,0.0,0.0,0.0,-0.00334165059030056,-0.03710562735795975,3.924771226593293e-05,12292.0,17148.0,17269.0,10914.0,0.3328678011894226,0.6732216477394104,0.683228611946106,0.2578452527523041,0.0,0.0,0.0,0.0,12128.0,17274.0,17306.0,10834.0,1.9441328048706055,-0.006708994305415395,0.09642928373484404,-0.03947321639431882,0.10474228113889694,-0.06219075247645378,0.0
303,5,-0.002097978023812175,-0.0003401057329028845,0.002631545066833496,-0.027453796938061714,0.015163433738052845,-0.017380734905600548,-0.00851123221218586,-0.11347679793834686,0.005719325039535761,0.2566196322441101,-2.3080549240112305,0.004234760534018278,0.0,0.0,0.0,-0.017259590327739716,-0.022363772615790367,-0.0,0.0,0.0,0.0,-0.00334165059030056,-0.03710562735795975,3.924771226593293e-05,12292.0,17148.0,17269.0,10914.0,0.3328678011894226,0.6732216477394104,0.683228611946106,0.2578452527523041,0.0,0.0,0.0,0.0,12128.0,17274.0,17306.0,10834.0,1.9441328048706055,-0.010475492114175594,0.09439961817019278,-0.040906976066312946,0.10474228113889694,-0.06219075247645378,0.0
308,5,-0.0020170165225863457,-0.00035874792956747115,0.002584099769592285,-0.0012661416549235582,0.008302438072860241,-0.0012588797835633159,-0.005553993862122297,-0.08792062848806381,0.005724332761019468,0.21985594928264618,-1.8511518239974976,-0.02588094025850296,0.0,0.0,0.0,-0.01615281216800213,-0.02423602156341076,-0.0,0.0,0.0,0.0,-0.003899245522916317,-0.02121688798069954,-0.00049883674364537,12268.0,17183.0,16778.0,11768.0,0.33147427439689636,0.676103949546814,0.6431155800819397,0.3032393455505371,0.0,0.0,0.0,0.0,12744.0,16786.0,16514.0,12217.0,1.9613193273544312,-0.008510113117886728,0.08716491654889569,-0.039232195246331036,0.11451499909162521,-0.05871792510151863,0.0
313,5,-0.0025517530739307404,-0.0006493678665719926,0.003924084361642599,-0.06467485427856445,0.03819537162780762,-0.16130170226097107,-0.005553993862122297,-0.08792062848806381,0.005724332761019468,0.21985594928264618,-1.8511518239974976,-0.02588094025850296,0.0,0.0,0.0,-0.01615281216800213,-0.02423602156341076,-0.0,0.0,0.0,0.0,-0.003899245522916317,-0.02121688798069954,-0.00049883674364537,12268.0,17183.0,16778.0,11768.0,0.33147427439689636,0.676103949546814,0.6431155800819397,0.3032393455505371,0.0,0.0,0.0,0.0,12744.0,16786.0,16514.0,12217.0,1.9613193273544312,-0.0070477505398725705,0.09173119871279994,-0.034742842175335534,0.11451499909162521,-0.05871792510151863,0.0
318,5,-0.002071444410830736,-0.0006579395849257708,0.003267873777076602,0.0317671000957489,0.01630675233900547,0.014224598184227943,-0.00422198511660099,-0.07559150457382202,0.0055337101221084595,0.14784517884254456,-1.0576503276824951,-0.05438169836997986,0.0,0.0,0.0,-0.03365758806467056,-0.04528353735804558,-0.0,0.0,0.0,0.0,-0.005658730864524841,0.0015091963578015566,-0.00010762263991637155,15254.0,14747.0,13950.0,14769.0,0.526441752910614,0.490182101726532,0.4357956647872925,0.491713285446167,0.0,0.0,0.0,0.0,13862.0,16095.0,15252.0,13773.0,2.353729724884033,-0.007905834218973864,0.08838020551912099,-0.03466614255649083,0.25659865140914917,-0.14679090678691864,0.0
323,5,-0.0019929406698793173,-0.0007050916901789606,0.003261081874370575,0.022127287462353706,0.012180950492620468,0.0065048811957240105,-0.00422198511660099,-0.07559150457382202,0.0055337101221084595,0.14784517884254456,-1.0576503276824951,-0.05438169836997986,0.0,0.0,0.0,-0.03365758806467056,-0.04528353735804558,-0.0,0.0,0.0,0.0,-0.005658730864524841,0.0015091963578015566,-0.00010762263991637155,15254.0,14747.0,13950.0,14769.0,0.526441752910614,0.490182101726532,0.4357956647872925,0.491713285446167,0.0,0.0,0.0,0.0,13862.0,16095.0,15252.0,13773.0,2.353729724884033,-0.00921468809863455,0.08866948090276262,-0.034866993701116185,0.25659865140914917,-0.14679090678691864,0.0
328,5,-0.002109335269778967,-0.0007966803386807442,0.003668353892862797,-0.005116429179906845,0.015863021835684776,-0.046270694583654404,-0.003086560172960162,-0.06699860841035843,0.005109112709760666,0.03799450397491455,-0.231742262840271,-0.03149302676320076,0.0,0.0,0.0,-0.018990956246852875,-0.007053039036691189,-0.0,0.0,0.0,0.0,-0.0028212356846779585,0.020922988653182983,8.408904250245541e-05,16493.0,13032.0,13250.0,15883.0,0.6204116344451904,0.37711599469184875,0.390632301568985,0.5731593370437622,0.0,0.0,0.0,0.0,15629.0,14291.0,13451.0,15277.0,1.8142722845077515,-0.014060692388876452,0.08780244154677462,-0.03514154907336294,0.030828241258859634,-0.06385727971792221,0.0
333,5,-0.002083395840600133,-0.0008078786195255816,0.0036790112499147654,0.0010661518899723887,0.007689003366976976,-0.01978716254234314,-0.003086560172960162,-0.06699860841035843,0.005109112709760666,0.03799450397491455,-0.231742262840271,-0.03149302676320076,0.0,0.0,0.0,-0.018990956246852875,-0.007053039036691189,-0.0,0.0,0.0,0.0,-0.0028212356846779585,0.020922988653182983,8.408904250245541e-05,16493.0,13032.0,13250.0,15883.0,0.6204116344451904,0.37711599469184875,0.390632301568985,0.5731593370437622,0.0,0.0,0.0,0.0,15629.0,14291.0,13451.0,15277.0,1.8142722845077515,-0.013277090242169115,0.09488520965182555,-0.03425294603361037,0.030828241258859634,-0.06385727971792221,0.0
338,5,-0.0018310078885406256,-0.0008162704762071371,0.0035454072058200836,0.030713029205799103,0.004082623403519392,0.008117621764540672,-0.0031364450696855783,-0.06752560287714005,0.004912670701742172,-0.12176667898893356,0.36473339796066284,0.01116978470236063,0.0,0.0,0.0,-0.018990956246852875,-0.007053039036691189,-0.0,0.0,0.0,0.0,-0.004606034606695175,0.023401916027069092,0.0003433110541664064,17724.0,14785.0,14486.0,17078.0,0.7214339971542358,0.4928283393383026,0.47197678685188293,0.6674906015396118,0.0,0.0,0.0,0.0,16672.0,12679.0,13164.0,16047.0,1.906455397605896,-0.01204570516390539,0.09694026190473819,-0.03477592910658202,-0.10505662113428116,-0.019791390746831894,-0.0
343,5,-0.0018431826028972864,-0.0008552835788577795,0.003833482274785638,0.010824241675436497,0.00631462037563324,-0.03132196143269539,-0.0031364450696855783,-0.06752560287714005,0.004912670701742172,-0.12176667898893356,0.36473339796066284,0.01116978470236063,0.0,0.0,0.0,-0.0056007374078035355,0.02287123166024685,-0.0,0.0,0.0,0.0,-0.004606034606695175,0.023401916027069092,0.0003433110541664064,17724.0,14785.0,14486.0,17078.0,0.7214339971542358,0.4928283393383026,0.47197678685188293,0.6674906015396118,0.0,0.0,0.0,0.0,16672.0,12679.0,13164.0,16047.0,1.906455397605896,-0.012756961244695105,0.09907799382849418,-0.03492623537862277,-0.10505662113428116,-0.019791390746831894,-0.0
348,5,-0.0016299101989716291,-0.0008800662471912801,0.003825246123597026,0.029922377318143845,0.005499771796166897,-0.011540445499122143,-0.007507494185119867,-0.07568468898534775,0.004932869225740433,-0.3437391221523285,0.19652575254440308,-0.001466283923946321,0.0,0.0,0.0,-0.0056007374078035355,0.02287123166024685,-0.0,0.0,0.0,0.0,-0.0016198785742744803,0.01804441399872303,0.0003809513000305742,15984.0,11718.0,12558.0,16031.0,0.5808674097061157,0.30046844482421875,0.3484402894973755,0.5844960808753967,0.0,0.0,0.0,0.0,17653.0,14749.0,14594.0,17091.0,1.906455397605896,-0.01725502969927182,0.09512005221118897,-0.034915228390092784,-0.10319200903177261,-0.02545965276658535,0.0
353,5,-0.0014146392932161689,-0.0008257820154540241,0.003646843833848834,0.03780146688222885,-0.004314201883971691,0.01679210551083088,-0.007507494185119867,-0.07568468898534775,0.004932869225740433,-0.3437391221523285,0.19652575254440308,-0.001466283923946321,0.0,0.0,0.0,-0.007210730109363794,0.022483842447400093,-0.0,0.0,0.0,0.0,-0.0016198785742744803,0.01804441399872303,0.0003809513000305742,15984.0,11718.0,12558.0,16031.0,0.5808674097061157,0.30046844482421875,0.3484402894973755,0.5844960808753967,0.0,0.0,0.0,0.0,17653.0,14749.0,14594.0,17091.0,1.9048970937728882,-0.016547279015347156,0.09634289571463991,-0.03480401120842737,-0.10319200903177261,-0.02545965276658535,0.0
359,5,-0.0014263654593378305,-0.0007878846954554319,0.0038315560668706894,0.013713443651795387,-0.006273360922932625,-0.015448648482561111,-0.011864403262734413,-0.07544645667076111,0.004527533892542124,-0.4079158306121826,-0.22702103853225708,-0.050056640058755875,0.0,0.0,0.0,-0.007210730109363794,0.022483842447400093,-0.0,0.0,0.0,0.0,0.005087889730930328,0.017701976001262665,-0.000847285205963999,15305.0,12475.0,13091.0,16889.0,0.5300942659378052,0.34353816509246826,0.3807237148284912,0.6520993113517761,0.0,0.0,0.0,0.0,15607.0,12136.0,12663.0,16015.0,1.9048970937728882,-0.016946330152304387,0.09515507561982066,-0.03481927849907466,-0.10319200903177261,-0.02545965276658535,0.0
364,5,-0.0012803931022062898,-0.0007869614055380225,0.0037007322534918785,0.023002060130238533,-0.002620139392092824,0.009519408456981182,-0.011864403262734413,-0.07544645667076111,0.004527533892542124,-0.4079158306121826,-0.22702103853225708,-0.050056640058755875,0.0,0.0,0.0,0.005906811449676752,0.01030332874506712,-0.0,0.0,0.0,0.0,0.005087889730930328,0.017701976001262665,-0.000847285205963999,15305.0,12475.0,13091.0,16889.0,0.5300942659378052,0.34353816509246826,0.3807237148284912,0.6520993113517761,0.0,0.0,0.0,0.0,15607.0,12136.0,12663.0,16015.0,1.7530920505523682,-0.022409103537942045,0.09178136886420299,-0.03546642535873929,-0.04352300986647606,0.01919383555650711,0.0
369,5,-0.0015385426813736558,-0.0007973441970534623,0.004183004144579172,-0.02177712507545948,0.0001978788641281426,-0.05406484007835388,-0.01509877573698759,-0.07181846350431442,0.004167987499386072,-0.39638081192970276,-0.6275675892829895,-0.05207439139485359,0.0,0.0,0.0,0.005906811449676752,0.01030332874506712,-0.0,0.0,0.0,0.0,0.010697689838707447,0.012516357004642487,-0.0008581706206314266,14306.0,13474.0,14096.0,16166.0,0.45968717336654663,0.4048488736152649,0.44549429416656494,0.5948667526245117,0.0,0.0,0.0,0.0,15000.0,12773.0,13399.0,16702.0,1.7530920505523682,-0.02576623357358874,0.08846274180150959,-0.035236108230550234,-0.04352300986647606,0.01919383555650711,0.0
374,5,-0.001270991750061512,-0.0007229291368275881,0.003833368420600891,0.023395264521241188,-0.00885065272450447,0.020330335944890976,-0.01509877573698759,-0.07181846350431442,0.004167987499386072,-0.39638081192970276,-0.6275675892829895,-0.05207439139485359,0.0,0.0,0.0,-0.0014840576332062483,-0.020078489556908607,-0.0,0.0,0.0,0.0,0.010697689838707447,0.012516357004642487,-0.0008581706206314266,14306.0,13474.0,14096.0,16166.0,0.45968717336654663,0.4048488736152649,0.44549429416656494,0.5948667526245117,0.0,0.0,0.0,0.0,15000.0,12773.0,13399.0,16702.0,1.8642330169677734,-0.026919807210703195,0.08303954587190011,-0.03537895596761068,0.09018898010253906,-0.005128132179379463,0.0
379,5,-0.0013042498612776399,-0.0006969289970584214,0.0038838351611047983,0.005367130972445011,-0.006660277023911476,0.0020761096384376287,-0.018787769600749016,-0.06225871294736862,0.003977241460233927,-0.24086880683898926,-0.9707767963409424,-0.02762191742658615,0.0,0.0,0.0,-0.0014840576332062483,-0.020078489556908607,-0.0,0.0,0.0,0.0,0.008504911325871944,0.0005321976495906711,-0.00021326358546502888,13872.0,14175.0,14993.0,15108.0,0.43065398931503296,0.4508228302001953,0.5076179504394531,0.5158023834228516,0.0,0.0,0.0,0.0,14204.0,13588.0,14389.0,15902.0,1.8642330169677734,-0.027949137311441833,0.07731790536301343,-0.03560593127622945,0.09018898010253906,-0.005128132179379463,0.0
384,5,-0.0015586181543767452,-0.0006854549865238369,0.004302698187530041,-0.02655217796564102,-0.0006830028141848743,-0.04490410163998604,-0.018787769600749016,-0.06225871294736862,0.003977241460233927,-0.24086880683898926,-0.9707767963409424,-0.02762191742658615,0.0,0.0,0.0,0.006738521624356508,0.0031596864573657513,-0.0,0.0,0.0,0.0,0.008504911325871944,0.0005321976495906711,-0.00021326358546502888,13872.0,14175.0,14993.0,15108.0,0.43065398931503296,0.4508228302001953,0.5076179504394531,0.5158023834228516,0.0,0.0,0.0,0.0,14204.0,13588.0,14389.0,15902.0,1.692519187927246,-0.029329592763326893,0.06726834548678017,-0.036036656549334814,-0.01288602314889431,0.02113979682326317,-0.0
389,5,-0.001570538035593927,-0.0006791361374780536,0.004392499569803476,-0.01205124706029892,-0.0010314580285921693,-0.02873780019581318,-0.019735019654035568,-0.053561240434646606,0.003682245733216405,-0.01797170378267765,-1.1842200756072998,-0.05119199678301811,0.0,0.0,0.0,0.006738521624356508,0.0031596864573657513,-0.0,0.0,0.0,0.0,0.009229096584022045,-0.014146639034152031,-0.0011196777923032641,11818.0,14820.0,15109.0,13952.0,0.3059934973716736,0.49530965089797974,0.5158860087394714,0.43590283393859863,0.0,0.0,0.0,0.0,12449.0,13953.0,15018.0,14395.0,1.692519187927246,-0.03155321481348185,0.05878596316346057,-0.036217155324257976,-0.01288602314889431,0.02113979682326317,-0.0
394,5,-0.001550611574202776,-0.0006598291220143437,0.004363084211945534,-0.0024293314199894667,-0.0027294273022562265,-0.00796530395746231,-0.019735019654035568,-0.053561240434646606,0.003682245733216405,-0.01797170378267765,-1.1842200756072998,-0.05119199678301811,0.0,0.0,0.0,3.877924245898612e-05,-0.01264041755348444,-0.0,0.0,0.0,0.0,0.009229096584022045,-0.014146639034152031,-0.0011196777923032641,11818.0,14820.0,15109.0,13952.0,0.3059934973716736,0.49530965089797974,0.5158860087394714,0.43590283393859863,0.0,0.0,0.0,0.0,12449.0,13953.0,15018.0,14395.0,1.76974618434906,-0.030625465839349636,0.05198082587898934,-0.03683654143287185,0.05390297621488571,0.0001272092922590673,0.0
399,5,-0.0016512112924829125,-0.0006562513299286366,0.00449960445985198,-0.013043696992099285,-0.0015211084391921759,-0.019568542018532753,-0.01859329640865326,-0.03953147307038307,0.003569524036720395,0.1775212436914444,-1.1668462753295898,-0.046439655125141144,0.0,0.0,0.0,3.877924245898612e-05,-0.01264041755348444,-0.0,0.0,0.0,0.0,0.0027588247321546078,-0.027247365564107895,-0.0002844111586455256,12037.0,16144.0,16040.0,12877.0,0.3182579278945923,0.5931934118270874,0.5851682424545288,0.36761343479156494,0.0,0.0,0.0,0.0,11956.0,15900.0,16141.0,13129.0,1.76974618434906,-0.030164000698003353,0.048371364001879476,-0.03741150440223358,0.05390297621488571,0.0001272092922590673,0.0
404,5,-0.0015329610323533416,-0.0006134778959676623,0.004242163151502609,0.00897255726158619,-0.005741254426538944,0.023065581917762756,-0.01859329640865326,-0.03953147307038307,0.003569524036720395,0.1775212436914444,-1.1668462753295898,-0.046439655125141144,0.0,0.0,0.0,0.0006322623230516911,-0.013534254394471645,-0.0,0.0,0.0,0.0,0.0027588247321546078,-0.027247365564107895,-0.0002844111586455256,12037.0,16144.0,16040.0,12877.0,0.3182579278945923,0.5931934118270874,0.5851682424545288,0.36761343479156494,0.0,0.0,0.0,0.0,11956.0,15900.0,16141.0,13129.0,1.7807787656784058,-0.026369353989219368,0.046286494565353914,-0.03730745898362,0.05807414650917053,0.0020869679283350706,0.0
409,5,-0.001427935087122023,-0.000571876997128129,0.004119467455893755,0.016192132607102394,-0.0072886100970208645,0.023949678987264633,-0.01859329640865326,-0.03953147307038307,0.003569524036720395,0.1775212436914444,-1.1668462753295898,-0.046439655125141144,0.0,0.0,0.0,0.0006322623230516911,-0.013534254394471645,-0.0,0.0,0.0,0.0,0.0027588247321546078,-0.027247365564107895,-0.0002844111586455256,12037.0,16144.0,16040.0,12877.0,0.3182579278945923,0.5931934118270874,0.5851682424545288,0.36761343479156494,0.0,0.0,0.0,0.0,11956.0,15900.0,16141.0,13129.0,1.7807787656784058,-0.023799324682874486,0.04067315831106798,-0.03759537084522965,0.05807414650917053,0.0020869679283350706,0.0
414,5,-0.0013178709195926785,-0.0005271569243632257,0.003850681474432349,0.019684549421072006,-0.008281851187348366,0.041834212839603424,-0.0166261475533247,-0.031365908682346344,0.0029539610259234905,0.29230475425720215,-0.8665142059326172,-0.07113855332136154,0.0,0.0,0.0,0.007325275801122189,0.012302318587899208,-0.0,0.0,0.0,0.0,0.0019533035811036825,-0.016232678666710854,-0.0020085759460926056,11693.0,15327.0,14259.0,13480.0,0.29909148812294006,0.5317291021347046,0.4564976096153259,0.4052009880542755,0.0,0.0,0.0,0.0,12628.0,15495.0,14843.0,13016.0,1.780654788017273,-0.018779502425456604,0.03943996918581151,-0.036979714584066826,-0.052783235907554626,0.024177156388759613,-0.0
419,5,-0.0012350348988547921,-0.0004893872537650168,0.0036992907989770174,0.017814144492149353,-0.007845099084079266,0.034900564700365067,-0.0166261475533247,-0.031365908682346344,0.0029539610259234905,0.29230475425720215,-0.8665142059326172,-0.07113855332136154,0.0,0.0,0.0,0.007325275801122189,0.012302318587899208,-0.0,0.0,0.0,0.0,0.0019533035811036825,-0.016232678666710854,-0.0020085759460926056,11693.0,15327.0,14259.0,13480.0,0.29909148812294006,0.5317291021347046,0.4564976096153259,0.4052009880542755,0.0,0.0,0.0,0.0,12628.0,15495.0,14843.0,13016.0,1.780654788017273,-0.014882456724637406,0.03855479579399712,-0.03716778260109885,-0.052783235907554626,0.024177156388759613,-0.0
425,5,-0.0011677569709718227,-0.00042723017395474017,0.0035823211073875427,0.015199004672467709,-0.010596890933811665,0.027996579185128212,-0.012510699220001698,-0.023739909753203392,0.002479974180459976,0.36656132340431213,-0.4684033691883087,-0.07610969245433807,0.0,0.0,0.0,0.008005843497812748,0.013813424855470657,-0.0,0.0,0.0,0.0,-0.0027396075893193483,-0.010888057760894299,-0.0010112002491950989,12992.0,15352.0,14088.0,13656.0,0.3746688663959503,0.5335741639137268,0.4449513852596283,0.416551798582077,0.0,0.0,0.0,0.0,13006.0,15457.0,13388.0,14216.0,1.8003780841827393,-0.011206298520092802,0.03887125818006077,-0.037071112192171476,-0.05992240831255913,0.026715971529483795,-0.0
430,5,-0.0010865699732676148,-0.0004063386586494744,0.0034816849511116743,0.015822051092982292,-0.0067457398399710655,0.02327495813369751,-0.012510699220001698,-0.023739909753203392,0.002479974180459976,0.36656132340431213,-0.4684033691883087,-0.07610969245433807,0.0,0.0,0.0,0.008005843497812748,0.013813424855470657,-0.0,0.0,0.0,0.0,-0.0027396075893193483,-0.010888057760894299,-0.0010112002491950989,12992.0,15352.0,14088.0,13656.0,0.3746688663959503,0.5335741639137268,0.4449513852596283,0.416551798582077,0.0,0.0,0.0,0.0,13006.0,15457.0,13388.0,14216.0,1.8003780841827393,-0.009069975755247723,0.039167792027440564,-0.036855334588534745,-0.05992240831255913,0.026715971529483795,-0.0
435,5,-0.0010249682236462831,-0.0003872048982884735,0.0034399875439703465,0.013721021823585033,-0.004994346760213375,0.014313680119812489,-0.009246881119906902,-0.021953469142317772,0.0018124196212738752,0.3922165632247925,-0.044904209673404694,-0.030729178339242935,0.0,0.0,0.0,0.006983571220189333,0.012414897792041302,-0.0,0.0,0.0,0.0,-0.0018133155535906553,0.017758456990122795,-0.0014013393083587289,14089.0,14704.0,13307.0,14228.0,0.44505712389945984,0.48712220788002014,0.39423510432243347,0.4543643295764923,0.0,0.0,0.0,0.0,14635.0,14167.0,13354.0,14177.0,1.7806029319763184,-0.008601328397498562,0.03911439600660299,-0.03721880075561918,-0.053264811635017395,0.02304871939122677,-0.0
440,5,-0.0009898776188492775,-0.00038128430605866015,0.0034495671279728413,0.009699280373752117,-0.002708208980038762,0.004575917962938547,-0.009246881119906902,-0.021953469142317772,0.0018124196212738752,0.3922165632247925,-0.044904209673404694,-0.030729178339242935,0.0,0.0,0.0,0.006983571220189333,0.012414897792041302,-0.0,0.0,0.0,0.0,-0.0018133155535906553,0.017758456990122795,-0.0014013393083587289,14089.0,14704.0,13307.0,14228.0,0.44505712389945984,0.48712220788002014,0.39423510432243347,0.4543643295764923,0.0,0.0,0.0,0.0,14635.0,14167.0,13354.0,14177.0,1.7806029319763184,-0.008169305828426366,0.04005902668989847,-0.03754468504283284,-0.053264811635017395,0.02304871939122677,-0.0
445,5,-0.00094244146021083,-0.0003527284716255963,0.003391164354979992,0.009572054259479046,-0.004509984981268644,0.008838698267936707,-0.00509992428123951,-0.023509034886956215,0.0013201694237068295,0.28591424226760864,0.2461007535457611,-0.07303021103143692,0.0,0.0,0.0,0.002535813022404909,0.0074764434248209,-0.0,0.0,0.0,0.0,-6.972368282731622e-05,0.019445855170488358,-0.0008484210120514035,14910.0,13577.0,12083.0,15793.0,0.5016812682151794,0.4114139676094055,0.3209042549133301,0.566378653049469,0.0,0.0,0.0,0.0,14859.0,13604.0,11806.0,16022.0,1.7114766836166382,-0.006442803787777813,0.04091116555571172,-0.037715859616874826,-0.030832765623927116,0.008044442161917686,-0.0
450,5,-0.0008848834550008178,-0.0003351084887981415,0.0032956416253000498,0.01073578279465437,-0.0039183902554214,0.014998217113316059,-0.00509992428123951,-0.023509034886956215,0.0013201694237068295,0.28591424226760864,0.2461007535457611,-0.07303021103143692,0.0,0.0,0.0,0.002535813022404909,0.0074764434248209,-0.0,0.0,0.0,0.0,-6.972368282731622e-05,0.019445855170488358,-0.0008484210120514035,14910.0,13577.0,12083.0,15793.0,0.5016812682151794,0.4114139676094055,0.3209042549133301,0.566378653049469,0.0,0.0,0.0,0.0,14859.0,13604.0,11806.0,16022.0,1.7114766836166382,-0.005246284691841273,0.04194274965596854,-0.03819604682477398,-0.030832765623927116,0.008044442161917686,-0.0
455,5,-0.0008846881682984531,-0.00032302705221809447,0.0032433243468403816,0.004317746497690678,-0.003017129609361291,0.012277360074222088,-0.0034383691381663084,-0.025605913251638412,0.0008573305676691234,0.14788818359375,0.21577094495296478,-0.023618005216121674,0.0,0.0,0.0,0.004010606091469526,0.00848329346626997,-0.0,0.0,0.0,0.0,0.0007776077254675329,0.01115557923913002,-0.0027681186329573393,13341.0,14171.0,11930.0,15606.0,0.39637184143066406,0.45053309202194214,0.31222373247146606,0.5523480176925659,0.0,0.0,0.0,0.0,14941.0,13107.0,12561.0,15525.0,1.7266069650650024,-0.003062083871125782,0.04148290914780261,-0.038208498270724096,-0.03529402241110802,0.01283541601151228,-0.0
460,5,-0.0009080859017558396,-0.00031392386881634593,0.003254345851019025,-0.0010806287173181772,-0.002299233339726925,0.003588350024074316,-0.0034383691381663084,-0.025605913251638412,0.0008573305676691234,0.14788818359375,0.21577094495296478,-0.023618005216121674,0.0,0.0,0.0,0.004010606091469526,0.00848329346626997,-0.0,0.0,0.0,0.0,0.0007776077254675329,0.01115557923913002,-0.0027681186329573393,13341.0,14171.0,11930.0,15606.0,0.39637184143066406,0.45053309202194214,0.31222373247146606,0.5523480176925659,0.0,0.0,0.0,0.0,14941.0,13107.0,12561.0,15525.0,1.7266069650650024,-0.003530575352681369,0.0397410969693714,-0.03843202755285634,-0.03529402241110802,0.01283541601151228,-0.0
465,5,-0.0009494342375546694,-0.0003102249465882778,0.003280287142843008,-0.00539404945448041,-0.0013635650975629687,-0.0016776047414168715,-0.00286333286203444,-0.024913474917411804,-0.0006301541579887271,-0.058910634368658066,-0.36457559466362,-0.05501716583967209,0.0,0.0,0.0,0.002240075496956706,-0.002291586250066757,-0.0,0.0,0.0,0.0,0.0031421040184795856,0.0014458376681432128,-0.0012671912554651499,13197.0,14142.0,13501.0,14661.0,0.38733962178230286,0.4485916793346405,0.40655890107154846,0.4841167628765106,0.0,0.0,0.0,0.0,13184.0,14221.0,12395.0,15333.0,1.6567401885986328,-0.003573367909137579,0.03783973555892361,-0.0385609401543926,0.009148313663899899,0.006878994405269623,-0.0
