timestamp,dt,pos_x,pos_y,pos_z,vel_x,vel_y,vel_z,roll,pitch,yaw,agv_x,agv_y,agv_z,x_ref,y_ref,z_ref,roll_ref,pitch_ref,yaw_ref,x_vel_ref,y_vel_ref,z_vel_ref,x_torque,y_torque,z_torque,w0,w1,w2,w3,u0,u1,u2,u3,m0req,m1req,m2req,m3req,thrust0,thrust1,thrust2,thrust3,thrust_ref,roll_vicon,pitch_vicon,yaw_vicon,acc_x,acc_y,acc_z
5,5,0.0,0.0,0.0,0.0011642685858532786,0.0013950933935120702,0.0007393481791950762,-0.016628099605441093,-0.038778312504291534,-0.009924733079969883,0.0016908652614802122,-0.0018657541368156672,0.0008818096248432994,0.0,0.0,0.0,-0.0017165860626846552,0.0011019768426194787,-0.0,0.0,0.0,0.0,0.004953691735863686,0.011551223695278168,-0.0009098458103835583,1495.0,1495.0,1495.0,1495.0,0.0,0.0,0.0,0.0,0.0,0.0,0.0,0.0,1495.0,1495.0,1495.0,1495.0,1.6442233324050903,-0.019905617897244314,0.06065222913827811,-0.13860176946265024,-0.004366007167845964,-0.005231600254774094,0.0
28,23,0.0,0.0,0.0,-0.0006354776560328901,-0.001053623273037374,-0.0007702978327870369,-0.016628099605441093,-0.038778312504291534,-0.009924733079969883,0.0016908652614802122,-0.0018657541368156672,0.0008818096248432994,0.0,0.0,0.0,-0.0017165860626846552,0.0011019768426194787,-0.0,0.0,0.0,0.0,0.004953691735863686,0.011551223695278168,-0.0009098458103835583,1495.0,1495.0,1495.0,1495.0,0.0,0.0,0.0,0.0,0.0,0.0,0.0,0.0,1495.0,1495.0,1495.0,1495.0,1.6442233324050903,-0.02212162046252883,0.06066525572521185,-0.1380464126028061,-0.004366007167845964,-0.005231600254774094,0.0
33,5,0.0,0.0,0.0,0.0008464399143122137,0.000826045114081353,0.0018031662330031395,-0.016628112643957138,-0.038753919303417206,-0.009909085929393768,0.0007725527975708246,0.002328969072550535,-0.0004622971755452454,0.0,0.0,0.0,-0.0010204012505710125,0.000804303796030581,-0.0,0.0,0.0,0.0,0.004487805534154177,0.011834188364446163,-0.0009291660389862955,1495.0,1495.0,1495.0,1495.0,0.0,0.0,0.0,0.0,0.0,0.0,0.0,0.0,1495.0,1495.0,1495.0,1495.0,1.6377803087234497,-0.020696757549975322,0.06094041947196252,-0.1381979276843588,-0.003174149664118886,-0.0030976692214608192,0.0
46,13,0.0,0.0,0.0,0.0006497123395092785,-0.00041534737101756036,0.0021867670584470034,-0.016628112643957138,-0.038753919303417206,-0.009909085929393768,0.0007725527975708246,0.002328969072550535,-0.0004622971755452454,0.0,0.0,0.0,-0.0010204012505710125,0.000804303796030581,-0.0,0.0,0.0,0.0,0.004487805534154177,0.011834188364446163,-0.0009291660389862955,1495.0,1495.0,1495.0,1495.0,0.0,0.0,0.0,0.0,0.0,0.0,0.0,0.0,1495.0,1495.0,1495.0,1495.0,1.6377803087234497,-0.019992652603081175,0.06053128785480862,-0.13848908235626856,-0.003174149664118886,-0.0030976692214608192,0.0
51,5,0.0,0.0,0.0,0.0012998318998143077,0.00011601982259890065,0.0009874292882159352,-0.016615478321909904,-0.038765475153923035,-0.009925255551934242,-0.0027690704446285963,0.0018918687710538507,-3.957104854634963e-05,0.0,0.0,0.0,-0.000143208890222013,0.0012341891415417194,-0.0,0.0,0.0,0.0,0.004450438544154167,0.011933579109609127,-0.0010723122395575047,13713.0,12805.0,12585.0,15036.0,0.42025625705718994,0.363241970539093,0.3500862717628479,0.5106388330459595,0.0,0.0,0.0,0.0,1495.0,1495.0,1495.0,1495.0,1.6390225887298584,-0.020446896325278886,0.06067750276200689,-0.13827461964524076,-0.004874369595199823,-0.0004350743256509304,0.0
56,5,0.0,0.0,0.0,-0.0008522967109456658,-0.000656234915368259,-0.0015363245038315654,-0.016615478321909904,-0.038765475153923035,-0.009925255551934242,-0.0027690704446285963,0.0018918687710538507,-3.957104854634963e-05,0.0,0.0,0.0,-0.000143208890222013,0.0012341891415417194,-0.0,0.0,0.0,0.0,0.004450438544154167,0.011933579109609127,-0.0010723122395575047,13713.0,12805.0,12585.0,15036.0,0.42025625705718994,0.363241970539093,0.3500862717628479,0.5106388330459595,0.0,0.0,0.0,0.0,1495.0,1495.0,1495.0,1495.0,1.6390225887298584,-0.020689375037672354,0.06074373594571051,-0.13829369363563415,-0.004874369595199823,-0.0004350743256509304,0.0
61,5,1.0147710781893693e-05,-4.379303845780669e-06,-2.9725945296377176e-06,0.000876806618180126,0.0002630225208122283,-0.00025781846488825977,-0.016615478321909904,-0.038765475153923035,-0.009925255551934242,-0.0027690704446285963,0.0018918687710538507,-3.957104854634963e-05,0.0,0.0,0.0,-0.000143208890222013,0.0012341891415417194,-0.0,0.0,0.0,0.0,0.004450438544154167,0.011933579109609127,-0.0010723122395575047,13713.0,12805.0,12585.0,15036.0,0.42025625705718994,0.363241970539093,0.3500862717628479,0.5106388330459595,0.0,0.0,0.0,0.0,1495.0,1495.0,1495.0,1495.0,1.6390225887298584,-0.02125170254817174,0.06091912834229878,-0.13807070524111745,-0.004874369595199823,-0.0004350743256509304,0.0
67,5,4.269280452717794e-06,-6.1197761169751175e-06,-4.368396275822306e-06,-0.00035468899295665324,0.00031406566267833114,6.436883268179372e-05,-0.01661224476993084,-0.03877687826752663,-0.009931160137057304,0.0011535058729350567,0.002027794485911727,-0.0039036599919199944,0.0,0.0,0.0,-0.00033336682827211916,0.000848633237183094,-0.0,0.0,0.0,0.0,0.004474294371902943,0.012103415094316006,-0.0010504747042432427,13720.0,12799.0,12568.0,15050.0,0.4206816554069519,0.36285650730133057,0.3490492105484009,0.511635959148407,0.0,0.0,0.0,0.0,13657.0,12784.0,12577.0,15021.0,1.6352263689041138,-0.02073676014180846,0.06104211461992795,-0.13830064760511276,-0.0033438727259635925,-0.001010435982607305,0.0
72,5,-6.65149673295673e-06,-2.449367821100168e-05,-2.723474835875095e-06,-0.0014523689169436693,0.0023304943460971117,-0.00017164304153993726,-0.01661224476993084,-0.03877687826752663,-0.009931160137057304,0.0011535058729350567,0.002027794485911727,-0.0039036599919199944,0.0,0.0,0.0,-0.00033336682827211916,0.000848633237183094,-0.0,0.0,0.0,0.0,0.004474294371902943,0.012103415094316006,-0.0010504747042432427,13720.0,12799.0,12568.0,15050.0,0.4206816554069519,0.36285650730133057,0.3490492105484009,0.511635959148407,0.0,0.0,0.0,0.0,13657.0,12784.0,12577.0,15021.0,1.6352263689041138,-0.020758410821180146,0.06056437006132065,-0.1382777333872763,-0.0033438727259635925,-0.001010435982607305,0.0
77,5,-2.167270940844901e-05,-1.696903200354427e-05,4.9756290536606684e-06,-0.0023834931198507547,2.9240323783596978e-05,-0.0009925496997311711,-0.016614675521850586,-0.03874434903264046,-0.009939353913068771,-0.0022217179648578167,0.0014190406072884798,-0.0014437445206567645,0.0,0.0,0.0,-0.002894570352509618,-0.0013757150154560804,-0.0,0.0,0.0,0.0,0.004706950392574072,0.01177078578621149,-0.0010193799389526248,13676.0,12759.0,12610.0,14998.0,0.41783618927001953,0.36044061183929443,0.35154634714126587,0.5079571604728699,0.0,0.0,0.0,0.0,13649.0,12786.0,12562.0,15040.0,1.6540026664733887,-0.020691256217733805,0.060595747061666566,-0.13853419449179627,0.005482954438775778,-0.008874170482158661,0.0
82,5,-8.84300061443355e-06,-1.9366960259503685e-05,8.418354809691664e-06,0.000586167850997299,0.00029944759444333613,-0.0008101470302790403,-0.016614675521850586,-0.03874434903264046,-0.009939353913068771,-0.0022217179648578167,0.0014190406072884798,-0.0014437445206567645,0.0,0.0,0.0,-0.002894570352509618,-0.0013757150154560804,-0.0,0.0,0.0,0.0,0.004706950392574072,0.01177078578621149,-0.0010193799389526248,13676.0,12759.0,12610.0,14998.0,0.41783618927001953,0.36044061183929443,0.35154634714126587,0.5079571604728699,0.0,0.0,0.0,0.0,13649.0,12786.0,12562.0,15040.0,1.6540026664733887,-0.020144598627061694,0.06066097250391015,-0.13849061081494715,0.005482954438775778,-0.008874170482158661,0.0
87,5,-1.681407775322441e-05,-3.060889142147971e-08,-4.8154279284062795e-06,-0.0007220621919259429,-0.002200583228841424,0.0012639951892197132,-0.016622712835669518,-0.03871465474367142,-0.00995886791497469,-0.0017852578312158585,-0.002729011932387948,0.0018963452894240618,0.0,0.0,0.0,-0.0004063648812007159,0.0005464314599521458,-0.0,0.0,0.0,0.0,0.004945756867527962,0.012152486480772495,-0.0010721967555582523,13663.0,12745.0,12575.0,15067.0,0.4169778823852539,0.3596534729003906,0.3494853377342224,0.5129058957099915,0.0,0.0,0.0,0.0,13713.0,12692.0,12645.0,15009.0,1.6324679851531982,-0.02078970419116188,0.06065052093343967,-0.1382845144626462,-0.0021494741085916758,-0.0012296156492084265,0.0
92,5,-1.5538596926489845e-05,2.7552159735932946e-06,-5.666135621140711e-06,-0.00013576701167039573,-0.0012145322980359197,0.0006076830322854221,-0.016622712835669518,-0.03871465474367142,-0.00995886791497469,-0.0017852578312158585,-0.002729011932387948,0.0018963452894240618,0.0,0.0,0.0,-0.0004063648812007159,0.0005464314599521458,-0.0,0.0,0.0,0.0,0.004945756867527962,0.012152486480772495,-0.0010721967555582523,13663.0,12745.0,12575.0,15067.0,0.4169778823852539,0.3596534729003906,0.3494853377342224,0.5129058957099915,0.0,0.0,0.0,0.0,13713.0,12692.0,12645.0,15009.0,1.6324679851531982,-0.021305343322864243,0.06048350685661511,-0.1380109408245522,-0.0021494741085916758,-0.0012296156492084265,0.0
97,6,7.176301437539223e-07,4.390660706121707e-06,1.3385607417149004e-05,0.0018964404007419944,-0.0006820662529207766,-0.002043135929852724,-0.016625866293907166,-0.03873071074485779,-0.009963324293494225,-0.003464184235781431,0.0030585648491978645,-0.0032050046138465405,0.0,0.0,0.0,0.0015048027271404862,-0.0001506394037278369,-0.0,0.0,0.0,0.0,0.004912124015390873,0.011901019141077995,-0.0010554426116868854,13657.0,12730.0,12587.0,15023.0,0.41661858558654785,0.35874319076538086,0.3501487970352173,0.5097157955169678,0.0,0.0,0.0,0.0,13636.0,12747.0,12571.0,15040.0,1.638249158859253,-0.021452143958716287,0.060590980303314244,-0.13774873695419088,0.0005946616875007749,0.004569490440189838,0.0
103,5,1.4501581972581334e-05,2.9231605367385782e-06,1.4663359252153896e-05,0.002412650268524885,-9.67264932114631e-05,-0.0009705845732241869,-0.01663464866578579,-0.038724351674318314,-0.009981264360249043,-0.0010117711499333382,0.004690220113843679,0.002479633316397667,0.0,0.0,0.0,0.00012377058737911284,0.002294931560754776,-0.0,0.0,0.0,0.0,0.004107802174985409,0.01114578451961279,-0.0009658642229624093,13657.0,12730.0,12587.0,15023.0,0.41661858558654785,0.35874319076538086,0.3501487970352173,0.5097157955169678,0.0,0.0,0.0,0.0,13793.0,12843.0,12716.0,14958.0,1.650498390197754,-0.020723771133713074,0.06117267247378167,-0.13830454924916966,-0.009127174504101276,0.00037865276681259274,0.0
108,6,1.0655534424586222e-05,-2.4769926767476136e-06,1.2006650649709627e-05,0.0005035343929193914,0.0006093278061598539,-6.942878098925576e-05,-0.01663464866578579,-0.038724351674318314,-0.009981264360249043,-0.0010117711499333382,0.004690220113843679,0.002479633316397667,0.0,0.0,0.0,0.00012377058737911284,0.002294931560754776,-0.0,0.0,0.0,0.0,0.004107802174985409,0.01114578451961279,-0.0009658642229624093,13657.0,12730.0,12587.0,15023.0,0.41661858558654785,0.35874319076538086,0.3501487970352173,0.5097157955169678,0.0,0.0,0.0,0.0,13793.0,12843.0,12716.0,14958.0,1.650498390197754,-0.02069883556504915,0.0606534966664104,-0.1380442681199765,-0.009127174504101276,0.00037865276681259274,0.0
113,5,4.407005235407269e-06,-8.31922261568252e-06,-1.7056661860692657e-08,-0.0005908909370191395,6.662194937234744e-05,-5.8751316828420386e-05,-0.01663464866578579,-0.038724351674318314,-0.009981264360249043,-0.0010117711499333382,0.004690220113843679,0.002479633316397667,0.0,0.0,0.0,0.00012377058737911284,0.002294931560754776,-0.0,0.0,0.0,0.0,0.004107802174985409,0.01114578451961279,-0.0009658642229624093,13657.0,12730.0,12587.0,15023.0,0.41661858558654785,0.35874319076538086,0.3501487970352173,0.5097157955169678,0.0,0.0,0.0,0.0,13793.0,12843.0,12716.0,14958.0,1.650498390197754,-0.020749652590275447,0.06059234714381646,-0.13826787169907961,-0.009127174504101276,0.00037865276681259274,0.0
118,5,4.407005235407269e-06,-8.31922261568252e-06,-1.7056661860692657e-08,-0.0005908909370191395,6.662194937234744e-05,-5.8751316828420386e-05,-0.016631266102194786,-0.03871243819594383,-0.009955747053027153,-0.0005513376672752202,-0.002543197013437748,-0.0013604842824861407,0.0,0.0,0.0,-9.778820094652474e-05,-0.0005573883536271751,-0.0,0.0,0.0,0.0,0.004926580470055342,0.011863697320222855,-0.0009953007102012634,13645.0,12718.0,12589.0,15004.0,0.4158157706260681,0.3580123782157898,0.35030317306518555,0.5083366632461548,0.0,0.0,0.0,0.0,13718.0,12923.0,12648.0,15015.0,1.631749153137207,-0.020749652590275447,0.06059234714381646,-0.13826787169907961,0.0021916094701737165,-0.0002957661054097116,0.0
123,5,-9.540794962958898e-06,-1.614968823560048e-05,1.4186707630869932e-05,-0.0003682761453092098,3.267699412390357e-06,-0.0016949231503531337,-0.016631266102194786,-0.03871243819594383,-0.009955747053027153,-0.0005513376672752202,-0.002543197013437748,-0.0013604842824861407,0.0,0.0,0.0,-9.778820094652474e-05,-0.0005573883536271751,-0.0,0.0,0.0,0.0,0.004926580470055342,0.011863697320222855,-0.0009953007102012634,13645.0,12718.0,12589.0,15004.0,0.4158157706260681,0.3580123782157898,0.35030317306518555,0.5083366632461548,0.0,0.0,0.0,0.0,13718.0,12923.0,12648.0,15015.0,1.631749153137207,-0.02106079423808529,0.060452587395496124,-0.13799591698620378,0.0021916094701737165,-0.0002957661054097116,0.0
129,5,-1.2296377462917008e-05,-1.3632175068778452e-05,3.228308571578964e-07,-0.0004779803566634655,-0.00030079440330155194,0.0009856958640739322,-0.016617827117443085,-0.03874897584319115,-0.009944825433194637,0.0002531651989556849,-0.0008010081364773214,-0.0014551470521837473,0.0,0.0,0.0,-9.778820094652474e-05,-0.0005573883536271751,-0.0,0.0,0.0,0.0,0.0054925247095525265,0.011713659390807152,-0.0010175220668315887,13602.0,12731.0,12654.0,15058.0,0.41307133436203003,0.35876530408859253,0.35416358709335327,0.5122489333152771,0.0,0.0,0.0,0.0,13662.0,12681.0,12699.0,15008.0,1.631749153137207,-0.02085163902606778,0.06067744895754932,-0.13831823764548806,0.0021916094701737165,-0.0002957661054097116,0.0
134,5,-1.5138734852371272e-05,-1.1838767022709362e-05,1.756166420818772e-05,-0.000532275065779686,-0.00033552682725712657,-0.001674381666816771,-0.016617827117443085,-0.03874897584319115,-0.009944825433194637,0.0002531651989556849,-0.0008010081364773214,-0.0014551470521837473,0.0,0.0,0.0,0.0003481189487501979,-0.00047313605318777263,-0.0,0.0,0.0,0.0,0.0054925247095525265,0.011713659390807152,-0.0010175220668315887,13602.0,12731.0,12654.0,15058.0,0.41307133436203003,0.35876530408859253,0.35416358709335327,0.5122489333152771,0.0,0.0,0.0,0.0,13662.0,12681.0,12699.0,15008.0,1.6315480470657349,-0.020994422094573077,0.06057247608316348,-0.13825688472840877,0.0018601063638925552,0.0010527762351557612,-0.0
139,5,-1.8427326722303405e-05,-4.225876637065085e-06,4.946555804963282e-07,-0.000607541122008115,-0.0010477574542164803,0.0013782883761450648,-0.01663130894303322,-0.03875609114766121,-0.009956441819667816,-0.0027964271139353514,0.0029377886094152927,-0.0028186782728880644,0.0,0.0,0.0,0.0003481189487501979,-0.00047313605318777263,-0.0,0.0,0.0,0.0,0.005092002917081118,0.012467963621020317,-0.0010276517132297158,13735.0,12747.0,12618.0,15126.0,0.4216287434101105,0.35975363850593567,0.35200926661491394,0.5171067714691162,0.0,0.0,0.0,0.0,13716.0,12768.0,12617.0,15125.0,1.6315480470657349,-0.021012110318018407,0.060649298073755686,-0.13823318843387097,0.0018601063638925552,0.0010527762351557612,-0.0
144,5,-7.237364343382069e-07,5.253994913800852e-06,-3.7572663131868467e-06,0.0018814144423231483,-0.0015566876390948892,0.001061545917764306,-0.01663130894303322,-0.03875609114766121,-0.009956441819667816,-0.0027964271139353514,0.0029377886094152927,-0.0028186782728880644,0.0,0.0,0.0,0.0012862493749707937,-0.0006028698990121484,-0.0,0.0,0.0,0.0,0.005092002917081118,0.012467963621020317,-0.0010276517132297158,13735.0,12747.0,12618.0,15126.0,0.4216287434101105,0.35975363850593567,0.35200926661491394,0.5171067714691162,0.0,0.0,0.0,0.0,13716.0,12768.0,12617.0,15125.0,1.638155460357666,-0.02072192481759864,0.06053664265973284,-0.13825454295908035,0.0023797438479959965,0.003905607620254159,-0.0
149,5,1.14549675345188e-06,6.547694283653982e-06,-1.9375234842300415e-05,0.0009768737945705652,-0.0007779190200380981,0.0022987746633589268,-0.01665254309773445,-0.03875746950507164,-0.009941857308149338,-0.0009024776518344879,0.00016130422591231763,0.005057430360466242,0.0,0.0,0.0,0.0012862493749707937,-0.0006028698990121484,-0.0,0.0,0.0,0.0,0.005081755109131336,0.011512666009366512,-0.0009264015825465322,13646.0,12689.0,12667.0,14952.0,0.41585153341293335,0.356281578540802,0.3549456000328064,0.5046704411506653,0.0,0.0,0.0,0.0,13579.0,12766.0,12581.0,15019.0,1.638155460357666,-0.01961322715647837,0.060860189941247644,-0.13860998280845843,0.0023797438479959965,0.003905607620254159,-0.0
154,5,2.108783519361168e-05,1.005815647658892e-05,-2.841362584149465e-05,0.0027838300447911024,-0.0007324230973608792,0.0020041167736053467,-0.01665254309773445,-0.03875746950507164,-0.009941857308149338,-0.0009024776518344879,0.00016130422591231763,0.005057430360466242,0.0,0.0,0.0,0.0009723005932755768,0.000929390313103795,-0.0,0.0,0.0,0.0,0.005081755109131336,0.011512666009366512,-0.0009264015825465322,13646.0,12689.0,12667.0,14952.0,0.41585153341293335,0.356281578540802,0.3549456000328064,0.5046704411506653,0.0,0.0,0.0,0.0,13579.0,12766.0,12581.0,15019.0,1.638525366783142,-0.020957034982153715,0.060900314802642436,-0.13809308780909824,-0.0036694665905088186,0.0029529910534620285,0.0
159,5,-6.610382001781545e-07,2.030528918339769e-07,-8.296160558529664e-06,-0.001496332697570324,0.0008896432118490338,-0.001612449181266129,-0.0166621096432209,-0.038808852434158325,-0.00993703119456768,-0.021981647238135338,-0.010415860451757908,0.02688632532954216,0.0,0.0,0.0,0.0009723005932755768,0.000929390313103795,-0.0,0.0,0.0,0.0,0.005167732946574688,0.011836597695946693,-0.0008926996961236,13707.0,12590.0,12739.0,14915.0,0.4198620319366455,0.35036855936050415,0.35925787687301636,0.5020595788955688,0.0,0.0,0.0,0.0,13617.0,12729.0,12612.0,14990.0,1.638525366783142,-0.02077979717133344,0.06038444145276731,-0.13850838806456772,-0.0036694665905088186,0.0029529910534620285,0.0
164,5,6.130499514256371e-06,-1.479089291933633e-06,-2.421336102997884e-05,0.00021645142987836152,0.0005577143747359514,0.001265084370970726,-0.0166621096432209,-0.038808852434158325,-0.00993703119456768,-0.021981647238135338,-0.010415860451757908,0.02688632532954216,0.0,0.0,0.0,-0.0010948722483590245,-0.0014178811106830835,-0.0,0.0,0.0,0.0,0.005167732946574688,0.011836597695946693,-0.0008926996961236,13707.0,12590.0,12739.0,14915.0,0.4198620319366455,0.35036855936050415,0.35925787687301636,0.5020595788955688,0.0,0.0,0.0,0.0,13617.0,12729.0,12612.0,14990.0,1.643456220626831,-0.021339204231953925,0.06060902666093526,-0.13790623805457372,0.0056149959564208984,-0.003335262183099985,0.0
169,5,6.173134352138732e-06,6.548344231305236e-07,1.2679015526373405e-06,9.169675468001515e-05,-3.2985099096549675e-05,-0.002551717683672905,-0.016689913347363472,-0.038838569074869156,-0.010340067557990551,-0.009587782435119152,0.007306226994842291,-0.15656130015850067,0.0,0.0,0.0,-0.0010948722483590245,-0.0014178811106830835,-0.0,0.0,0.0,0.0,0.005167567636817694,0.01194740366190672,-0.0030334889888763428,12354.0,13962.0,11217.0,16124.0,0.3364671766757965,0.4365483820438385,0.27354034781455994,0.5915995240211487,0.0,0.0,0.0,0.0,14040.0,12196.0,13171.0,14554.0,1.643456220626831,-0.021010682381537582,0.06089591950329013,-0.13735092941025812,0.0056149959564208984,-0.003335262183099985,0.0
174,5,-9.7762585937744e-06,-3.493038093438372e-05,3.9026988815749064e-05,-0.0018772484036162496,0.004257032182067633,-0.005551777780056,-0.016689913347363472,-0.038838569074869156,-0.010340067557990551,-0.009587782435119152,0.007306226994842291,-0.15656130015850067,0.0,0.0,0.0,4.191388507024385e-05,9.583149949321523e-05,-0.0,0.0,0.0,0.0,0.005167567636817694,0.01194740366190672,-0.0030334889888763428,12354.0,13962.0,11217.0,16124.0,0.3364671766757965,0.4365483820438385,0.27354034781455994,0.5915995240211487,0.0,0.0,0.0,0.0,14040.0,12196.0,13171.0,14554.0,1.6357401609420776,-0.02120863189942263,0.060451695650039904,-0.1387812110584841,-0.0003777239180635661,0.0001270810462301597,0.0
179,5,-9.645709724281915e-06,-3.5242337617091835e-05,4.751439337269403e-05,-0.0007352335378527641,0.0017402475932613015,-0.0032391995191574097,-0.016793737187981606,-0.038592979311943054,-0.009609467349946499,-0.00289839762263,-0.022456925362348557,0.11593412607908249,0.0,0.0,0.0,4.191388507024385e-05,9.583149949321523e-05,-0.0,0.0,0.0,0.0,0.005728958174586296,0.010298863053321838,0.003983453847467899,15357.0,10492.0,14705.0,13090.0,0.5339144468307495,0.23675429821014404,0.4871806502342224,0.3806759715080261,0.0,0.0,0.0,0.0,12755.0,13547.0,11847.0,15720.0,1.6357401609420776,-0.019782463479504686,0.060534268100766335,-0.1390131238687013,-0.0003777239180635661,0.0001270810462301597,0.0
185,5,-2.1651294446201064e-05,-2.6859133868128993e-05,4.642509884433821e-05,-0.0017347635002806783,-0.00030988562502898276,-0.0011649644002318382,-0.016793737187981606,-0.038592979311943054,-0.009609467349946499,-0.00289839762263,-0.022456925362348557,0.11593412607908249,0.0,0.0,0.0,-0.0022032868582755327,-0.000708770239725709,-0.0,0.0,0.0,0.0,0.005728958174586296,0.010298863053321838,0.003983453847467899,15357.0,10492.0,14705.0,13090.0,0.5339144468307495,0.23675429821014404,0.4871806502342224,0.3806759715080261,0.0,0.0,0.0,0.0,12755.0,13547.0,11847.0,15720.0,1.6454955339431763,-0.020267453793817204,0.0600474657418511,-0.1385222460440367,0.0028103021904826164,-0.0067200991325080395,0.0
190,5,-2.563240923336707e-05,-2.422967372694984e-05,1.6970750948530622e-05,-0.0011716391891241074,-0.0004394894640427083,0.0030685358215123415,-0.016763608902692795,-0.03862623870372772,-0.010445954278111458,0.008474089205265045,-0.03780744597315788,0.025987448170781136,0.0,0.0,0.0,-0.0022032868582755327,-0.000708770239725709,-0.0,0.0,0.0,0.0,0.004703491926193237,0.011597715318202972,-0.005017372313886881,12657.0,13812.0,11589.0,15828.0,0.35434943437576294,0.4266830086708069,0.2934250831604004,0.5689986944198608,0.0,0.0,0.0,0.0,13166.0,13211.0,12051.0,15519.0,1.6454955339431763,-0.02049094598524994,0.05965502654973771,-0.1384638941967109,0.0028103021904826164,-0.0067200991325080395,0.0
195,5,-0.00010765219485620037,7.961549272295088e-06,0.0001469140115659684,-0.010311029851436615,-0.004038742743432522,-0.01436577644199133,-0.016763608902692795,-0.03862623870372772,-0.010445954278111458,0.008474089205265045,-0.03780744597315788,0.025987448170781136,0.0,0.0,0.0,0.0004985720152035356,-0.001148434355854988,-0.0,0.0,0.0,0.0,0.004703491926193237,0.011597715318202972,-0.005017372313886881,12657.0,13812.0,11589.0,15828.0,0.35434943437576294,0.4266830086708069,0.2934250831604004,0.5689986944198608,0.0,0.0,0.0,0.0,13166.0,13211.0,12051.0,15519.0,1.6387172937393188,-0.019553822388069225,0.060649503944836355,-0.13889073726426582,0.004534839652478695,0.0015143994241952896,-0.0
200,5,-2.8125896278652363e-05,5.257101292954758e-06,3.8982419937383384e-05,0.005418743938207626,-0.00129096326418221,0.007205480244010687,-0.017128048464655876,-0.038130421191453934,-0.009906313382089138,-0.05747327581048012,-0.015952223911881447,-0.10741949826478958,0.0,0.0,0.0,0.0004985720152035356,-0.001148434355854988,-0.0,0.0,0.0,0.0,0.006849393714219332,0.009909377433359623,-0.0007880653138272464,13032.0,13109.0,12437.0,15378.0,0.3771168887615204,0.381864458322525,0.341299444437027,0.5354593992233276,0.0,0.0,0.0,0.0,12374.0,13816.0,11621.0,15921.0,1.6387172937393188,-0.020523426921594826,0.059616356758613195,-0.1381651094596763,0.004534839652478695,0.0015143994241952896,-0.0
205,5,-2.9661605367437005e-05,1.8258115233038552e-05,3.5227276384830475e-05,0.0019832125399261713,-0.0020765068475157022,0.003332809079438448,-0.017128048464655876,-0.038130421191453934,-0.009906313382089138,-0.05747327581048012,-0.015952223911881447,-0.10741949826478958,0.0,0.0,0.0,0.0015621554339304566,0.0049761333502829075,-0.0,0.0,0.0,0.0,0.006849393714219332,0.009909377433359623,-0.0007880653138272464,13032.0,13109.0,12437.0,15378.0,0.3771168887615204,0.381864458322525,0.341299444437027,0.5354593992233276,0.0,0.0,0.0,0.0,12374.0,13816.0,11621.0,15921.0,1.6817551851272583,-0.021255123084419403,0.0592696469990861,-0.13809222524833478,-0.02016528509557247,0.004869621712714434,-0.0
210,5,-5.135479659656994e-05,2.102416692650877e-05,7.169511081883684e-05,-0.0018098980654031038,-0.001162528875283897,-0.003043016418814659,-0.017128048464655876,-0.038130421191453934,-0.009906313382089138,-0.05747327581048012,-0.015952223911881447,-0.10741949826478958,0.0,0.0,0.0,0.0015621554339304566,0.0049761333502829075,-0.0,0.0,0.0,0.0,0.006849393714219332,0.009909377433359623,-0.0007880653138272464,13032.0,13109.0,12437.0,15378.0,0.3771168887615204,0.381864458322525,0.341299444437027,0.5354593992233276,0.0,0.0,0.0,0.0,12374.0,13816.0,11621.0,15921.0,1.6817551851272583,-0.021149519149441708,0.05897314917685422,-0.1384171280542196,-0.02016528509557247,0.004869621712714434,-0.0
215,5,-4.638852988136932e-05,8.552511644666083e-06,7.398443267447874e-05,-0.0001280072028748691,0.0010315869003534317,-0.0014919248642399907,-0.017281580716371536,-0.03738732263445854,-0.009926920756697655,0.0358378104865551,-0.08535005152225494,0.07050579786300659,0.0,0.0,0.0,0.0014645191840827465,-0.0017799308989197016,-0.0,0.0,0.0,0.0,0.007006213068962097,0.008577780798077583,-0.0027376003563404083,14457.0,12040.0,13812.0,13867.0,0.47003239393234253,0.3184640407562256,0.42670416831970215,0.430294930934906,0.0,0.0,0.0,0.0,13489.0,13067.0,12802.0,14850.0,1.6484237909317017,-0.021007066385858027,0.05830690804696246,-0.13840609869666928,0.0070700617507100105,0.004474785178899765,0.0
220,5,-5.59151558263693e-05,5.889904514333466e-06,0.0001370450045214966,-0.0011943981517106295,0.0007321476587094367,-0.008164039812982082,-0.017281580716371536,-0.03738732263445854,-0.009926920756697655,0.0358378104865551,-0.08535005152225494,0.07050579786300659,0.0,0.0,0.0,0.0014645191840827465,-0.0017799308989197016,-0.0,0.0,0.0,0.0,0.007006213068962097,0.008577780798077583,-0.0027376003563404083,14457.0,12040.0,13812.0,13867.0,0.47003239393234253,0.3184640407562256,0.42670416831970215,0.430294930934906,0.0,0.0,0.0,0.0,13489.0,13067.0,12802.0,14850.0,1.6484237909317017,-0.020535896602192388,0.05848066103738464,-0.13864668997359963,0.0070700617507100105,0.004474785178899765,0.0
225,5,-6.6401444200892e-05,7.148304575821385e-06,0.00023498023801948875,-0.0017361139180138707,0.00014185105101205409,-0.015017843805253506,-0.017606044188141823,-0.0368424728512764,-0.010327382944524288,-0.06419824808835983,-0.11353861540555954,-0.0016627174336463213,0.0,0.0,0.0,-0.000892266514711082,-0.001210903050377965,-0.0,0.0,0.0,0.0,0.005520546808838844,0.01016269065439701,-0.0007406575605273247,13695.0,12973.0,12971.0,15108.0,0.4190734326839447,0.37347373366355896,0.3733638823032379,0.5158441066741943,0.0,0.0,0.0,0.0,13588.0,12696.0,13339.0,14511.0,1.6406725645065308,-0.02094105656518507,0.05780980055655941,-0.1386883873877155,0.004787215031683445,-0.0027134695556014776,0.0
230,5,-0.0001227487373398617,-1.4812835615884978e-05,0.0003765265573747456,-0.007456120569258928,0.0026920773088932037,-0.0229926947504282,-0.017606044188141823,-0.0368424728512764,-0.010327382944524288,-0.06419824808835983,-0.11353861540555954,-0.0016627174336463213,0.0,0.0,0.0,-0.000892266514711082,-0.001210903050377965,-0.0,0.0,0.0,0.0,0.005520546808838844,0.01016269065439701,-0.0007406575605273247,13695.0,12973.0,12971.0,15108.0,0.4190734326839447,0.37347373366355896,0.3733638823032379,0.5158441066741943,0.0,0.0,0.0,0.0,13588.0,12696.0,13339.0,14511.0,1.6406725645065308,-0.024425258593157594,0.056848180273777874,-0.13868208473883267,0.004787215031683445,-0.0027134695556014776,0.0
235,5,-0.00011850128066726029,9.914490874507464e-06,0.00039612085674889386,-0.0024727529380470514,-0.0018904482712969184,-0.011548393405973911,-0.017586492002010345,-0.0357334241271019,-0.010105983354151249,0.003808262525126338,-0.07719223201274872,-0.0020177075639367104,0.0,0.0,0.0,-0.0032154659274965525,-0.006959895603358746,-0.0,0.0,0.0,0.0,0.007207029033452272,0.006598006933927536,-0.0014766459353268147,13312.0,12899.0,13291.0,14770.0,0.39452385902404785,0.36892831325531006,0.3932010531425476,0.49177056550979614,0.0,0.0,0.0,0.0,13578.0,13004.0,13066.0,15105.0,1.7075518369674683,-0.023613840916292036,0.056162709134297426,-0.13857741464090026,0.028636688366532326,-0.010177122429013252,0.0
240,5,-0.00014034150808583945,4.445800186658744e-06,0.00046010201913304627,-0.003609927836805582,-9.993638377636671e-05,-0.012297098524868488,-0.017586492002010345,-0.0357334241271019,-0.010105983354151249,0.003808262525126338,-0.07719223201274872,-0.0020177075639367104,0.0,0.0,0.0,-0.0032154659274965525,-0.006959895603358746,-0.0,0.0,0.0,0.0,0.007207029033452272,0.006598006933927536,-0.0014766459353268147,13312.0,12899.0,13291.0,14770.0,0.39452385902404785,0.36892831325531006,0.3932010531425476,0.49177056550979614,0.0,0.0,0.0,0.0,13578.0,13004.0,13066.0,15105.0,1.7075518369674683,-0.023069004723550654,0.05581553720022529,-0.13862086927280018,0.028636688366532326,-0.010177122429013252,0.0
245,5,-0.00033054137020371854,2.9092818294884637e-05,0.0008105220040306449,-0.024267954751849174,-0.002997616771608591,-0.04696923494338989,-0.017998462542891502,-0.03486311435699463,-0.010172524489462376,-0.0383179746568203,-0.10276666283607483,0.07497157901525497,0.0,0.0,0.0,0.00012928314390592277,-0.003568066284060478,-0.0,0.0,0.0,0.0,0.005683869123458862,0.006424632854759693,-0.0012077447026968002,13334.0,13067.0,13118.0,14645.0,0.3959406018257141,0.3792807459831238,0.3823971748352051,0.4830540418624878,0.0,0.0,0.0,0.0,13992.0,12225.0,13944.0,14095.0,1.6644757986068726,-0.02315770312895831,0.05518523670274583,-0.1382184007649272,0.014310716651380062,0.00039886683225631714,0.0
250,5,-0.00019069096015300602,1.984939899557503e-06,0.0006005195318721235,0.007074866909533739,0.002053898759186268,0.006412600167095661,-0.017998462542891502,-0.03486311435699463,-0.010172524489462376,-0.0383179746568203,-0.10276666283607483,0.07497157901525497,0.0,0.0,0.0,0.00012928314390592277,-0.003568066284060478,-0.0,0.0,0.0,0.0,0.005683869123458862,0.006424632854759693,-0.0012077447026968002,13334.0,13067.0,13118.0,14645.0,0.3959406018257141,0.3792807459831238,0.3823971748352051,0.4830540418624878,0.0,0.0,0.0,0.0,13992.0,12225.0,13944.0,14095.0,1.6644757986068726,-0.023278990080269447,0.053712553868295404,-0.1376749664116611,0.014310716651380062,0.00039886683225631714,0.0
256,5,-0.00017637561541050673,-0.00013896501332055777,0.0006987243541516364,0.004547787830233574,0.01773555390536785,-0.009219539351761341,-0.018279047682881355,-0.03340848907828331,-0.009862919338047504,0.03085179068148136,-0.14964213967323303,0.018072588369250298,0.0,0.0,0.0,-0.0024445727467536926,0.006229358725249767,-0.0,0.0,0.0,0.0,0.002072287257760763,0.001883201184682548,0.00017786852549761534,13334.0,13067.0,13118.0,14645.0,0.3959406018257141,0.3792807459831238,0.3823971748352051,0.4830540418624878,0.0,0.0,0.0,0.0,13533.0,12930.0,13541.0,14193.0,1.6974724531173706,-0.030561886369654276,0.04785100581490607,-0.14019925375449,-0.025479674339294434,-0.0076915426179766655,-0.0
261,5,-0.00023809964477550238,-5.967349716229364e-05,0.0007614719797857106,-0.0055877696722745895,-0.0024207604583352804,-0.011217527091503143,-0.018279047682881355,-0.03340848907828331,-0.009862919338047504,0.03085179068148136,-0.14964213967323303,0.018072588369250298,0.0,0.0,0.0,-0.0024445727467536926,0.006229358725249767,-0.0,0.0,0.0,0.0,0.002072287257760763,0.001883201184682548,0.00017786852549761534,13334.0,13067.0,13118.0,14645.0,0.3959406018257141,0.3792807459831238,0.3823971748352051,0.4830540418624878,0.0,0.0,0.0,0.0,13533.0,12930.0,13541.0,14193.0,1.6974724531173706,-0.020065261388309972,0.05128574179360968,-0.13847054532709097,-0.025479674339294434,-0.0076915426179766655,-0.0
266,5,-0.0002526802709326148,-7.586602441733703e-05,0.0008068055030889809,-0.003984782844781876,0.0009747990407049656,-0.009927033446729183,-0.01571342721581459,-0.029349932447075844,-0.009015262126922607,0.19359137117862701,-0.2748720943927765,0.058023449033498764,0.0,0.0,0.0,0.0027925334870815277,-0.005467039532959461,-0.0,0.0,0.0,0.0,1.9743110897252336e-05,0.00014981193817220628,6.864795432193205e-05,13700.0,13443.0,13776.0,13678.0,0.4193756580352783,0.4028330445289612,0.42431581020355225,0.4179512858390808,0.0,0.0,0.0,0.0,13743.0,13700.0,13712.0,14101.0,1.6902753114700317,-0.01980737149951449,0.04984300761156922,-0.13768064160172522,0.022266793996095657,0.00874909944832325,0.0
271,5,-0.0003133970603812486,-0.00016298606351483613,0.0008829188300296664,-0.008879926055669785,0.01084432378411293,-0.01310441829264164,-0.01571342721581459,-0.029349932447075844,-0.009015262126922607,0.19359137117862701,-0.2748720943927765,0.058023449033498764,0.0,0.0,0.0,0.0027925334870815277,-0.005467039532959461,-0.0,0.0,0.0,0.0,1.9743110897252336e-05,0.00014981193817220628,6.864795432193205e-05,13700.0,13443.0,13776.0,13678.0,0.4193756580352783,0.4028330445289612,0.42431581020355225,0.4179512858390808,0.0,0.0,0.0,0.0,13743.0,13700.0,13712.0,14101.0,1.6902753114700317,-0.022338886393908873,0.04806389764972635,-0.13858730432980068,0.022266793996095657,0.00874909944832325,0.0
276,5,-0.00044224943849258125,-0.00016954040620476007,0.001037723384797573,-0.019014257937669754,0.0051242513582110405,-0.023818304762244225,-0.013949833810329437,-0.027431808412075043,-0.00855970848351717,0.25480401515960693,-0.2507823705673218,0.03560241311788559,0.0,0.0,0.0,-0.012662256136536598,-0.008208845742046833,-0.0,0.0,0.0,0.0,-0.00033226123196072876,-0.00010601929534459487,0.00024333960027433932,13742.0,13612.0,13656.0,13589.0,0.4221300780773163,0.41365399956703186,0.41651293635368347,0.41217878460884094,0.0,0.0,0.0,0.0,13891.0,13291.0,13964.0,13441.0,1.7709904909133911,-0.018099892457109152,0.04772921070077638,-0.13702004611057578,0.03502761200070381,-0.04156375676393509,0.0
281,5,-0.0003583476063795388,-0.0002220654278062284,0.0009234052849933505,0.002462515840306878,0.008352703414857388,0.0041908458806574345,-0.013949833810329437,-0.027431808412075043,-0.00855970848351717,0.25480401515960693,-0.2507823705673218,0.03560241311788559,0.0,0.0,0.0,-0.012662256136536598,-0.008208845742046833,-0.0,0.0,0.0,0.0,-0.00033226123196072876,-0.00010601929534459487,0.00024333960027433932,13742.0,13612.0,13656.0,13589.0,0.4221300780773163,0.41365399956703186,0.41651293635368347,0.41217878460884094,0.0,0.0,0.0,0.0,13891.0,13291.0,13964.0,13441.0,1.7709904909133911,-0.017433953558218567,0.04562754679335391,-0.13677786116615842,0.03502761200070381,-0.04156375676393509,0.0
286,5,-0.00041782925836741924,-0.00026847058325074613,0.0009315662318840623,-0.006152791436761618,0.008909698575735092,0.0006970260292291641,-0.011268362402915955,-0.02439236268401146,-0.007838362827897072,0.19343702495098114,-0.23162855207920074,0.05822283402085304,0.0,0.0,0.0,-0.010235825553536415,0.001755954115651548,-0.0,0.0,0.0,0.0,-0.0014423038810491562,0.0019356819102540612,0.0008447353029623628,14339.0,13373.0,13865.0,13508.0,0.46193844079971313,0.3983806371688843,0.43016886711120605,0.40698450803756714,0.0,0.0,0.0,0.0,14100.0,13663.0,13600.0,13737.0,1.715451955795288,-0.018071863130124807,0.04462775222695559,-0.1364427175607628,-0.007258061319589615,-0.032545894384384155,-0.0
291,5,-0.00047737895511090755,-0.00035774422576650977,0.0009722457034513354,-0.009607077576220036,0.01427671778947115,-0.004602726548910141,-0.011268362402915955,-0.02439236268401146,-0.007838362827897072,0.19343702495098114,-0.23162855207920074,0.05822283402085304,0.0,0.0,0.0,-0.010235825553536415,0.001755954115651548,-0.0,0.0,0.0,0.0,-0.0014423038810491562,0.0019356819102540612,0.0008447353029623628,14339.0,13373.0,13865.0,13508.0,0.46193844079971313,0.3983806371688843,0.43016886711120605,0.40698450803756714,0.0,0.0,0.0,0.0,14100.0,13663.0,13600.0,13737.0,1.715451955795288,-0.02087874522017622,0.04267032407169515,-0.1371098601103965,-0.007258061319589615,-0.032545894384384155,-0.0
296,5,-0.000661986880004406,-0.00033113881363533437,0.001219062483869493,-0.025995781645178795,0.0025180387310683727,-0.03145911172032356,-0.011268362402915955,-0.02439236268401146,-0.007838362827897072,0.19343702495098114,-0.23162855207920074,0.05822283402085304,0.0,0.0,0.0,-0.016585465520620346,-0.008886036463081837,-0.0,0.0,0.0,0.0,-0.0014423038810491562,0.0019356819102540612,0.0008447353029623628,14339.0,13373.0,13865.0,13508.0,0.46193844079971313,0.3983806371688843,0.43016886711120605,0.40698450803756714,0.0,0.0,0.0,0.0,14100.0,13663.0,13600.0,13737.0,1.8057554960250854,-0.016926547154210388,0.04194294054461777,-0.13615717351078258,0.03865925595164299,-0.055508434772491455,0.0
301,5,-0.0005252941627986729,-0.000348093977663666,0.0009502526954747736,0.006004814058542252,0.0030418336391448975,0.019673537462949753,-0.010004851967096329,-0.022838180884718895,-0.007496973033994436,0.07021405547857285,-0.1664406806230545,0.046795833855867386,0.0,0.0,0.0,-0.016585465520620346,-0.008886036463081837,-0.0,0.0,0.0,0.0,0.001219585188664496,1.1616264600888826e-05,8.815306500764564e-05,13712.0,13561.0,13960.0,13760.0,0.42017123103141785,0.4103887975215912,0.43642905354499817,0.42328622937202454,0.0,0.0,0.0,0.0,14260.0,13609.0,13707.0,13794.0,1.8057554960250854,-0.017176849523874008,0.04139309030031729,-0.1358291951804628,0.03865925595164299,-0.055508434772491455,0.0
307,5,-0.0005492806085385382,-0.0003463614557404071,0.0009358884999528527,-0.000476449349662289,0.0010088320123031735,0.0095931151881814,-0.010004851967096329,-0.022838180884718895,-0.007496973033994436,0.07021405547857285,-0.1664406806230545,0.046795833855867386,0.0,0.0,0.0,-0.004254705272614956,0.004818763583898544,-0.0,0.0,0.0,0.0,0.001219585188664496,1.1616264600888826e-05,8.815306500764564e-05,13712.0,13561.0,13960.0,13760.0,0.42017123103141785,0.4103887975215912,0.43642905354499817,0.42328622937202454,0.0,0.0,0.0,0.0,14260.0,13609.0,13707.0,13794.0,1.6897259950637817,-0.016997309201023273,0.040957336579151446,-0.13545698279765084,-0.019619964063167572,-0.013325759209692478,-0.0
312,5,-0.0005662816693075001,-0.0003482456668280065,0.0009647260303609073,-0.0022307068575173616,0.0006296372739598155,0.0003767391899600625,-0.009407677687704563,-0.021071134135127068,-0.0071074217557907104,-0.00846449751406908,-0.1086207926273346,0.009992695413529873,0.0,0.0,0.0,-0.004254705272614956,0.004818763583898544,-0.0,0.0,0.0,0.0,-0.0002822921087499708,0.002586658578366041,-0.00030200491892173886,13890.0,13808.0,13494.0,14179.0,0.431826651096344,0.4264312982559204,0.4060957431793213,0.4510982632637024,0.0,0.0,0.0,0.0,13935.0,13768.0,13349.0,14310.0,1.6897259950637817,-0.017354555464406035,0.04032452294470809,-0.1350445753628366,-0.019619964063167572,-0.013325759209692478,-0.0
317,5,-0.0006009972421452403,-0.00037391166551969945,0.001021121279336512,-0.005058150738477707,0.0033317734487354755,-0.006616727914661169,-0.009407677687704563,-0.021071134135127068,-0.0071074217557907104,-0.00846449751406908,-0.1086207926273346,0.009992695413529873,0.0,0.0,0.0,-0.0013925633393228054,-0.0028745022136718035,-0.0,0.0,0.0,0.0,-0.0002822921087499708,0.002586658578366041,-0.00030200491892173886,13890.0,13808.0,13494.0,14179.0,0.431826651096344,0.4264312982559204,0.4060957431793213,0.4510982632637024,0.0,0.0,0.0,0.0,13935.0,13768.0,13349.0,14310.0,1.6589417457580566,-0.01911200484178656,0.03981449167876039,-0.13554735908076299,0.011490652337670326,-0.0042820763774216175,-0.0
322,5,-0.0006162151112221181,-0.00043613644083961844,0.001052278559654951,-0.003849406959488988,0.00879968237131834,-0.00638557318598032,-0.009646263904869556,-0.02023947797715664,-0.006909226067364216,-0.05735944211483002,-0.10216692090034485,0.025912771001458168,0.0,0.0,0.0,-0.0013925633393228054,-0.0028745022136718035,-0.0,0.0,0.0,0.0,-0.0006528138183057308,0.000685440725646913,5.397469431045465e-05,14293.0,14174.0,14114.0,14156.0,0.45882561802864075,0.4507173001766205,0.4467003047466278,0.4495122730731964,0.0,0.0,0.0,0.0,14170.0,14298.0,13991.0,14276.0,1.6589417457580566,-0.023034069504608123,0.03881043182092104,-0.13664838476505992,0.011490652337670326,-0.0042820763774216175,-0.0
327,5,-0.0006525070639327168,-0.0004914643941447139,0.0012022526934742928,-0.005894797388464212,0.01015922985970974,-0.020551122725009918,-0.009646263904869556,-0.02023947797715664,-0.006909226067364216,-0.05735944211483002,-0.10216692090034485,0.025912771001458168,0.0,0.0,0.0,-0.0013925633393228054,-0.0028745022136718035,-0.0,0.0,0.0,0.0,-0.0006528138183057308,0.000685440725646913,5.397469431045465e-05,14293.0,14174.0,14114.0,14156.0,0.45882561802864075,0.4507173001766205,0.4467003047466278,0.4495122730731964,0.0,0.0,0.0,0.0,14170.0,14298.0,13991.0,14276.0,1.6589417457580566,-0.028064883533488242,0.033688376808051666,-0.13754524378312832,0.011490652337670326,-0.0042820763774216175,-0.0
332,5,-0.0008120830752886832,-0.00038835976738482714,0.0013937671901658177,-0.02150704152882099,-0.008308863267302513,-0.031202182173728943,-0.010389803908765316,-0.019124003127217293,-0.006798561196774244,-0.07662166655063629,-0.08534491062164307,0.017561959102749825,0.0,0.0,0.0,-0.012545960023999214,-0.0060799093917012215,-0.0,0.0,0.0,0.0,0.003310441505163908,0.005457544699311256,-0.0008916071965359151,13569.0,13483.0,13237.0,14652.0,0.41094350814819336,0.4053812026977539,0.38986772298812866,0.4835335612297058,0.0,0.0,0.0,0.0,13883.0,13124.0,13631.0,14320.0,1.7548819780349731,-0.018097359898726163,0.03954254294588434,-0.136071410246082,0.025707514956593513,-0.04080747067928314,0.0
337,5,-0.0007246627938002348,-0.0003924071788787842,0.0012356096412986517,0.001887619262561202,-0.002837858162820339,0.006498025264590979,-0.010389803908765316,-0.019124003127217293,-0.006798561196774244,-0.07662166655063629,-0.08534491062164307,0.017561959102749825,0.0,0.0,0.0,-0.012545960023999214,-0.0060799093917012215,-0.0,0.0,0.0,0.0,0.003310441505163908,0.005457544699311256,-0.0008916071965359151,13569.0,13483.0,13237.0,14652.0,0.41094350814819336,0.4053812026977539,0.38986772298812866,0.4835335612297058,0.0,0.0,0.0,0.0,13883.0,13124.0,13631.0,14320.0,1.7548819780349731,-0.01775007054644829,0.039244920874233084,-0.13551314974917342,0.025707514956593513,-0.04080747067928314,0.0
342,5,-0.0007180487154982984,-0.00040995050221681595,0.0011829260038211942,0.001548737520352006,0.0009700549999251962,0.008921245113015175,-0.011005088686943054,-0.018566833809018135,-0.006632313597947359,-0.04119684919714928,-0.09966743737459183,-0.01149741280823946,0.0,0.0,0.0,0.0027707878034561872,0.0007738693384453654,-0.0,0.0,0.0,0.0,0.00024352979380637407,0.00011562114377738908,-0.0006877903360873461,13326.0,13341.0,13541.0,14282.0,0.3954358696937561,0.39639365673065186,0.40909576416015625,0.45801645517349243,0.0,0.0,0.0,0.0,13067.0,13659.0,13307.0,14438.0,1.650180459022522,-0.01953412556255056,0.03847194413349036,-0.13532100081822968,-0.003077154280617833,0.008475049398839474,-0.0
347,5,-0.0007460571941919625,-0.00041898086783476174,0.0011918091913685203,-0.0027415261138230562,0.0014716677833348513,0.0025025159120559692,-0.011005088686943054,-0.018566833809018135,-0.006632313597947359,-0.04119684919714928,-0.09966743737459183,-0.01149741280823946,0.0,0.0,0.0,0.0027707878034561872,0.0007738693384453654,-0.0,0.0,0.0,0.0,0.00024352979380637407,0.00011562114377738908,-0.0006877903360873461,13326.0,13341.0,13541.0,14282.0,0.3954358696937561,0.39639365673065186,0.40909576416015625,0.45801645517349243,0.0,0.0,0.0,0.0,13067.0,13659.0,13307.0,14438.0,1.650180459022522,-0.02027740711076392,0.03762620727351529,-0.13513572232590212,-0.003077154280617833,0.008475049398839474,-0.0
352,5,-0.0007942969095893204,-0.0004363873740658164,0.0011845666449517012,-0.00688537210226059,0.0026774469297379255,0.0018701095832511783,-0.011392132379114628,-0.01726716198027134,-0.006663583219051361,-0.013824203051626682,-0.13648492097854614,0.010663592256605625,0.0,0.0,0.0,-0.0025304716546088457,-0.0035789089743047953,-0.0,0.0,0.0,0.0,0.00024352979380637407,0.00011562114377738908,-0.0006877903360873461,13778.0,14184.0,13781.0,14227.0,0.4244811534881592,0.45142948627471924,0.4246332049369812,0.4543381333351135,0.0,0.0,0.0,0.0,13733.0,14268.0,13850.0,14118.0,1.670072317123413,-0.020855413233693595,0.03669432292381501,-0.13534363367307448,0.014402421191334724,-0.007833294570446014,-0.0
357,5,-0.0008302213973365724,-0.00045643351040780544,0.0011909987078979611,-0.007065088488161564,0.003476514248177409,-2.3801399947842583e-05,-0.011392132379114628,-0.01726716198027134,-0.006663583219051361,-0.013824203051626682,-0.13648492097854614,0.010663592256605625,0.0,0.0,0.0,-0.004882656037807465,-0.00750306760892272,-0.0,0.0,0.0,0.0,0.00024352979380637407,0.00011562114377738908,-0.0006877903360873461,13778.0,14184.0,13781.0,14227.0,0.4244811534881592,0.45142948627471924,0.4246332049369812,0.4543381333351135,0.0,0.0,0.0,0.0,13733.0,14268.0,13850.0,14118.0,1.7191814184188843,-0.020005221128789715,0.036251272587675715,-0.1356480501062275,0.031081588938832283,-0.015559055842459202,0.0
363,5,-0.0008710509282536805,-0.00047275578253902495,0.0011622339952737093,-0.0077255782671272755,0.003349279286339879,0.003442249959334731,-0.011195912957191467,-0.016092222183942795,-0.006852064281702042,0.05306074768304825,-0.16367989778518677,-0.0464431457221508,0.0,0.0,0.0,-0.004882656037807465,-0.00750306760892272,-0.0,0.0,0.0,0.0,0.0034471123944967985,0.00019768442143686116,-0.0015691994922235608,12643.0,14042.0,13111.0,14496.0,0.3535284996032715,0.4419177770614624,0.38201045989990234,0.47272372245788574,0.0,0.0,0.0,0.0,12732.0,13986.0,13233.0,14363.0,1.7191814184188843,-0.01952964541286836,0.03568053897914038,-0.13609284683041395,0.031081588938832283,-0.015559055842459202,0.0
368,5,-0.0009203717345371842,-0.00047887381515465677,0.0011672094697132707,-0.009008727967739105,0.002073876326903701,0.0007798401638865471,-0.011195912957191467,-0.016092222183942795,-0.006852064281702042,0.05306074768304825,-0.16367989778518677,-0.0464431457221508,0.0,0.0,0.0,-0.0032438209746032953,-0.009304262697696686,-0.0,0.0,0.0,0.0,0.0034471123944967985,0.00019768442143686116,-0.0015691994922235608,12643.0,14042.0,13111.0,14496.0,0.3535284996032715,0.4419177770614624,0.38201045989990234,0.47272372245788574,0.0,0.0,0.0,0.0,12732.0,13986.0,13233.0,14363.0,1.7337291240692139,-0.019340333398300883,0.03541318247941023,-0.1366405946562991,0.038869284093379974,-0.01042426098138094,-0.0
373,5,-0.0009507409995421767,-0.00047690756036899984,0.0011585565516725183,-0.007247803267091513,0.0005936013767495751,0.0013502849033102393,-0.010584638454020023,-0.014114009216427803,-0.007100088056176901,0.058491118252277374,-0.15505121648311615,-0.02359260432422161,0.0,0.0,0.0,-0.0032438209746032953,-0.009304262697696686,-0.0,0.0,0.0,0.0,0.0004809782840311527,-0.0017028985312208533,-0.0021312045864760876,13042.0,14064.0,13513.0,14038.0,0.3777381479740143,0.44335463643074036,0.40732499957084656,0.4416545331478119,0.0,0.0,0.0,0.0,12793.0,14316.0,13163.0,14340.0,1.7337291240692139,-0.019380566248054787,0.03498331692338366,-0.13669739866155964,0.038869284093379974,-0.01042426098138094,-0.0
378,5,-0.0009770060423761606,-0.0004745802143588662,0.0011427226709201932,-0.006050929892808199,-4.184121644357219e-05,0.0024401864502578974,-0.010584638454020023,-0.014114009216427803,-0.007100088056176901,0.058491118252277374,-0.15505121648311615,-0.02359260432422161,0.0,0.0,0.0,-0.0032438209746032953,-0.009304262697696686,-0.0,0.0,0.0,0.0,0.0004809782840311527,-0.0017028985312208533,-0.0021312045864760876,13042.0,14064.0,13513.0,14038.0,0.3777381479740143,0.44335463643074036,0.40732499957084656,0.4416545331478119,0.0,0.0,0.0,0.0,12793.0,14316.0,13163.0,14340.0,1.7337291240692139,-0.018940043922021563,0.03480955629776206,-0.13680081305276698,0.038869284093379974,-0.01042426098138094,-0.0
383,5,-0.0010224204743281007,-0.0004781327734235674,0.001181064872071147,-0.007870095781981945,0.00040956996963359416,-0.003624999662861228,-0.010149258188903332,-0.013097983784973621,-0.007487019989639521,0.019327064976096153,-0.12416265159845352,-0.02996772900223732,0.0,0.0,0.0,-0.0007825587526895106,-0.006851048208773136,-0.0,0.0,0.0,0.0,0.0014510911423712969,-0.0020771529525518417,-0.0019336218247190118,12807.0,14723.0,13365.0,14660.0,0.36334964632987976,0.4884577691555023,0.3978789150714874,0.48404279351234436,0.0,0.0,0.0,0.0,13161.0,14379.0,13537.0,14319.0,1.7017048597335815,-0.019763590963735183,0.033964366698457184,-0.1369387567186183,0.02809245139360428,-0.002468366641551256,-0.0
388,5,-0.0010504450183361769,-0.00047389374230988324,0.0012230215361341834,-0.006510984152555466,-0.0003448565548751503,-0.006484792102128267,-0.010149258188903332,-0.013097983784973621,-0.007487019989639521,0.019327064976096153,-0.12416265159845352,-0.02996772900223732,0.0,0.0,0.0,-0.0007825587526895106,-0.006851048208773136,-0.0,0.0,0.0,0.0,0.0014510911423712969,-0.0020771529525518417,-0.0019336218247190118,12807.0,14723.0,13365.0,14660.0,0.36334964632987976,0.4884577691555023,0.3978789150714874,0.48404279351234436,0.0,0.0,0.0,0.0,13161.0,14379.0,13537.0,14319.0,1.7017048597335815,-0.0187568602227543,0.033923758159967385,-0.13762896306427444,0.02809245139360428,-0.002468366641551256,-0.0
393,5,-0.0011019493686035275,-0.0004954393953084946,0.0012818261748179793,-0.00878491997718811,0.0024475378450006247,-0.009650476276874542,-0.009870307520031929,-0.01192967128008604,-0.007940956391394138,-0.003933788742870092,-0.07772377133369446,-0.06272852420806885,0.0,0.0,0.0,-0.0004202851268928498,-0.007347534876316786,-0.0,0.0,0.0,0.0,0.002146868035197258,0.0006372646312229335,-0.001478741061873734,13163.0,14176.0,13279.0,14502.0,0.3852046728134155,0.45089608430862427,0.3924691677093506,0.47313493490219116,0.0,0.0,0.0,0.0,12769.0,14750.0,13109.0,14892.0,1.7071834802627563,-0.020052173063266635,0.033140069334732736,-0.13754164287816673,0.030225245282053947,-0.0013299421407282352,0.0
398,5,-0.001160510815680027,-0.0005171222146600485,0.0013166738208383322,-0.010541337542235851,0.0035809525288641453,-0.00804190430790186,-0.009870307520031929,-0.01192967128008604,-0.007940956391394138,-0.003933788742870092,-0.07772377133369446,-0.06272852420806885,0.0,0.0,0.0,-0.0004202851268928498,-0.007347534876316786,-0.0,0.0,0.0,0.0,0.002146868035197258,0.0006372646312229335,-0.001478741061873734,13163.0,14176.0,13279.0,14502.0,0.3852046728134155,0.45089608430862427,0.3924691677093506,0.47313493490219116,0.0,0.0,0.0,0.0,12769.0,14750.0,13109.0,14892.0,1.7071834802627563,-0.019704967714157973,0.033067791978702236,-0.13823752369992726,0.030225245282053947,-0.0013299421407282352,0.0
403,5,-0.0012123927008360624,-0.0005202711909078062,0.0013076988980174065,-0.010442364029586315,0.0018102594185620546,-0.0021397704258561134,-0.008684394881129265,-0.011391179636120796,-0.008640625514090061,0.059262700378894806,-0.009125194512307644,-0.022010857239365578,0.0,0.0,0.0,-0.005004658363759518,-0.010858191177248955,-0.0,0.0,0.0,0.0,0.0012956870486959815,0.001541071804240346,-0.002157308626919985,13011.0,14407.0,12987.0,14752.0,0.37580808997154236,0.46654918789863586,0.37435051798820496,0.49047568440437317,0.0,0.0,0.0,0.0,13071.0,14363.0,13082.0,14580.0,1.7562075853347778,-0.019178122144665924,0.03349407853453401,-0.13887003518442761,0.04594849422574043,-0.016291292384266853,0.0
408,5,-0.0012451816583052278,-0.000525008887052536,0.001310243853367865,-0.008111624047160149,0.0012926269555464387,-0.0011613107053562999,-0.008684394881129265,-0.011391179636120796,-0.008640625514090061,0.059262700378894806,-0.009125194512307644,-0.022010857239365578,0.0,0.0,0.0,-0.005004658363759518,-0.010858191177248955,-0.0,0.0,0.0,0.0,0.0012956870486959815,0.001541071804240346,-0.002157308626919985,13011.0,14407.0,12987.0,14752.0,0.37580808997154236,0.46654918789863586,0.37435051798820496,0.49047568440437317,0.0,0.0,0.0,0.0,13071.0,14363.0,13082.0,14580.0,1.7562075853347778,-0.019500439579077444,0.033076222219053875,-0.1387340536955731,0.04594849422574043,-0.016291292384266853,0.0
413,5,-0.0012557918671518564,-0.0005132563528604805,0.0013074134476482868,-0.004517866764217615,-0.0008932588389143348,-0.00012487171625252813,-0.008684394881129265,-0.011391179636120796,-0.008640625514090061,0.059262700378894806,-0.009125194512307644,-0.022010857239365578,0.0,0.0,0.0,-0.0024212028365582228,-0.008959587663412094,-0.0,0.0,0.0,0.0,0.0012893410166725516,0.0002594531688373536,-0.0013143938267603517,13085.0,14337.0,13248.0,14522.0,0.3803442418575287,0.46181216835975647,0.39054539799690247,0.4744816720485687,0.0,0.0,0.0,0.0,13370.0,14043.0,13451.0,14364.0,1.7280601263046265,-0.019796972631549975,0.03288376657515688,-0.13897831748923176,0.03730711713433266,-0.007755286060273647,0.0
418,5,-0.0012676874175667763,-0.0005100829293951392,0.0012893715174868703,-0.003234621835872531,-0.000738109287340194,0.0021150901447981596,-0.008684394881129265,-0.011391179636120796,-0.008640625514090061,0.059262700378894806,-0.009125194512307644,-0.022010857239365578,0.0,0.0,0.0,-0.0024212028365582228,-0.008959587663412094,-0.0,0.0,0.0,0.0,0.0012893410166725516,0.0002594531688373536,-0.0013143938267603517,13085.0,14337.0,13248.0,14522.0,0.3803442418575287,0.46181216835975647,0.39054539799690247,0.4744816720485687,0.0,0.0,0.0,0.0,13370.0,14043.0,13451.0,14364.0,1.7280601263046265,-0.02054595822736361,0.03267109972957511,-0.13908013537413097,0.03730711713433266,-0.007755286060273647,0.0
424,5,-0.0012555330758914351,-0.0005127766053192317,0.0012343204580247402,0.0002062291605398059,0.00026473237085156143,0.0044034793972969055,-0.008161835372447968,-0.010622577741742134,-0.00895950011909008,-0.024141311645507812,-0.044476382434368134,-0.0019736180547624826,0.0,0.0,0.0,-1.920616159623023e-05,-0.0047368248924613,-0.0,0.0,0.0,0.0,0.0012829906772822142,-0.001496997894719243,-0.0008480617543682456,13500.0,14300.0,13887.0,14293.0,0.40649834275245667,0.45925554633140564,0.4316268265247345,0.45882686972618103,0.0,0.0,0.0,0.0,13195.0,14707.0,13395.0,14629.0,1.6774652004241943,-0.022698166368552472,0.03079650023313054,-0.1392528999334174,0.019146576523780823,-5.9717640397138894e-05,-0.0
429,5,-0.0012555330758914351,-0.0005127766053192317,0.0012343204580247402,0.0002062291605398059,0.00026473237085156143,0.0044034793972969055,-0.008161835372447968,-0.010622577741742134,-0.00895950011909008,-0.024141311645507812,-0.044476382434368134,-0.0019736180547624826,0.0,0.0,0.0,-1.920616159623023e-05,-0.0047368248924613,-0.0,0.0,0.0,0.0,0.0012829906772822142,-0.001496997894719243,-0.0008480617543682456,13500.0,14300.0,13887.0,14293.0,0.40649834275245667,0.45925554633140564,0.4316268265247345,0.45882686972618103,0.0,0.0,0.0,0.0,13195.0,14707.0,13395.0,14629.0,1.6774652004241943,-0.022698166368552472,0.03079650023313054,-0.1392528999334174,0.019146576523780823,-5.9717640397138894e-05,-0.0
434,5,-0.0012554074637591839,-0.0005091529455967247,0.0011810940923169255,9.755647624842823e-05,-0.0003289457818027586,0.00814854633063078,-0.00827761273831129,-0.010202324017882347,-0.009184666909277439,-0.023057952523231506,-0.06576476246118546,-0.017009126022458076,0.0,0.0,0.0,-0.0012580318143591285,-0.0015588793903589249,-0.0,0.0,0.0,0.0,0.002140206517651677,-0.00102190300822258,-0.001894517568871379,12982.0,14484.0,13456.0,14579.0,0.3740352392196655,0.47186368703842163,0.4037058353424072,0.4784553647041321,0.0,0.0,0.0,0.0,13268.0,14220.0,13681.0,14373.0,1.645470142364502,-0.023158852062376525,0.02912005503926068,-0.13981610283716647,0.006180930882692337,-0.0038369838148355484,-0.0
439,5,-0.001267609535716474,-0.0005171362427063286,0.0011900312965735793,-0.0014252167893573642,0.0008264122880063951,0.0021869512274861336,-0.00827761273831129,-0.010202324017882347,-0.009184666909277439,-0.023057952523231506,-0.06576476246118546,-0.017009126022458076,0.0,0.0,0.0,-0.0012580318143591285,-0.0015588793903589249,-0.0,0.0,0.0,0.0,0.002140206517651677,-0.00102190300822258,-0.001894517568871379,12982.0,14484.0,13456.0,14579.0,0.3740352392196655,0.47186368703842163,0.4037058353424072,0.4784553647041321,0.0,0.0,0.0,0.0,13268.0,14220.0,13681.0,14373.0,1.645470142364502,-0.024758615626542923,0.028335476843884173,-0.14016545759157503,0.006180930882692337,-0.0038369838148355484,-0.0
444,5,-0.001314611523412168,-0.0005282896454446018,0.001258869655430317,-0.006210337392985821,0.0016689735930413008,-0.007385813165456057,-0.00827761273831129,-0.010202324017882347,-0.009184666909277439,-0.023057952523231506,-0.06576476246118546,-0.017009126022458076,0.0,0.0,0.0,-0.0019365553744137287,-0.003087026299908757,-0.0,0.0,0.0,0.0,0.002140206517651677,-0.00102190300822258,-0.001894517568871379,12982.0,14484.0,13456.0,14579.0,0.3740352392196655,0.47186368703842163,0.4037058353424072,0.4784553647041321,0.0,0.0,0.0,0.0,13268.0,14220.0,13681.0,14373.0,1.6629102230072021,-0.02603987846695391,0.02760005334449298,-0.14056218876750637,0.012369710020720959,-0.0059690712951123714,-0.0
449,5,-0.0014513442292809486,-0.0005051747430115938,0.001437098952010274,-0.013280551880598068,-0.0031169981230050325,-0.01747467741370201,-0.008465930819511414,-0.009711578488349915,-0.009253275580704212,-0.01348020602017641,-0.015836548060178757,-0.023141365498304367,0.0,0.0,0.0,-0.0019365553744137287,-0.003087026299908757,-0.0,0.0,0.0,0.0,0.002662698971107602,0.0008839793154038489,-0.0010297655826434493,13147.0,13896.0,13371.0,14351.0,0.38421449065208435,0.43219324946403503,0.3983064591884613,0.46275100111961365,0.0,0.0,0.0,0.0,13093.0,13871.0,13598.0,14211.0,1.6629102230072021,-0.027696345873996532,0.025579351311743263,-0.1398462432682939,0.012369710020720959,-0.0059690712951123714,-0.0
454,5,-0.0015198350884020329,-0.0004970767186023295,0.0015260207001119852,-0.01353111956268549,-0.002218565670773387,-0.017660485580563545,-0.008465930819511414,-0.009711578488349915,-0.009253275580704212,-0.01348020602017641,-0.015836548060178757,-0.023141365498304367,0.0,0.0,0.0,0.0026894749607890844,-0.013472265563905239,-0.0,0.0,0.0,0.0,0.002662698971107602,0.0008839793154038489,-0.0010297655826434493,13147.0,13896.0,13371.0,14351.0,0.38421449065208435,0.43219324946403503,0.3983064591884613,0.46275100111961365,0.0,0.0,0.0,0.0,13093.0,13871.0,13598.0,14211.0,1.7818524837493896,-0.0256017766719113,0.026542082023618664,-0.1395488345689837,0.057842835783958435,0.008882737718522549,0.0
459,5,-0.0016122082015499473,-0.0004565010021906346,0.0015756437787786126,-0.01649721898138523,-0.005756509955972433,-0.013018959201872349,-0.008570067584514618,-0.009480450302362442,-0.0092842448502779,0.013796379789710045,-0.01930767484009266,0.017223259434103966,0.0,0.0,0.0,0.0026894749607890844,-0.013472265563905239,-0.0,0.0,0.0,0.0,0.0024179229512810707,0.0017719360766932368,-0.0009000247227959335,13299.0,13561.0,13345.0,14084.0,0.3937055468559265,0.41042113304138184,0.39663273096084595,0.44471073150634766,0.0,0.0,0.0,0.0,12794.0,13953.0,12893.0,14577.0,1.7818524837493896,-0.020657467505611076,0.02855032596601407,-0.1383357584792567,0.057842835783958435,0.008882737718522549,0.0
464,5,-0.001587154809385538,-0.0004168650193605572,0.0014763607177883387,-0.0035924820695072412,-0.007058920804411173,0.0067063900642097,-0.008570067584514618,-0.009480450302362442,-0.0092842448502779,0.013796379789710045,-0.01930767484009266,0.017223259434103966,0.0,0.0,0.0,0.005644939374178648,-0.0161405261605978,-0.0,0.0,0.0,0.0,0.0024179229512810707,0.0017719360766932368,-0.0009000247227959335,13299.0,13561.0,13345.0,14084.0,0.3937055468559265,0.41042113304138184,0.39663273096084595,0.44471073150634766,0.0,0.0,0.0,0.0,12794.0,13953.0,12893.0,14577.0,1.8203850984573364,-0.015344665279808448,0.03012144672288381,-0.13839001733884082,0.07079573720693588,0.01904701441526413,0.0
