timestamp,dt,pos_x,pos_y,pos_z,vel_x,vel_y,vel_z,roll,pitch,yaw,agv_x,agv_y,agv_z,x_ref,y_ref,z_ref,roll_ref,pitch_ref,yaw_ref,x_vel_ref,y_vel_ref,z_vel_ref,x_torque,y_torque,z_torque,w0,w1,w2,w3,u0,u1,u2,u3,m0req,m1req,m2req,m3req,thrust0,thrust1,thrust2,thrust3,thrust_ref,roll_vicon,pitch_vicon,yaw_vicon,acc_x,acc_y,acc_z,roll_received,pitch_received,yaw_received
5,5,0.0,0.0,0.0,0.0006010537035763264,-0.0001712947996566072,0.0010197906522080302,-0.010618912056088448,-0.014922247268259525,0.0021265957038849592,0.0,0.0,0.0,0.0,0.0,0.0,0.0002123332378687337,0.0005731176934204996,-0.0,0.0,0.0,0.0,0.011651773937046528,0.004513648338615894,0.0002524469746276736,1495.0,1495.0,1495.0,1495.0,0.0,0.0,0.0,0.0,0.0,0.0,0.0,0.0,0.0,0.0,0.0,0.0,1.6321079730987549,0.05830178805989421,0.29480416115926444,0.06254298865813046,-0.0022539515048265457,0.0006423554732464254,0.0,-0.0,-0.0,0.0
32,27,0.0,0.0,0.0,-0.0009620634373277426,0.0006104083149693906,0.005204378627240658,-0.010618912056088448,-0.014922247268259525,0.0021265957038849592,0.0,0.0,0.0,0.0,0.0,0.0,0.0002123332378687337,0.0005731176934204996,-0.0,0.0,0.0,0.0,0.011651773937046528,0.004513648338615894,0.0002524469746276736,1495.0,1495.0,1495.0,1495.0,0.0,0.0,0.0,0.0,0.0,0.0,0.0,0.0,0.0,0.0,0.0,0.0,1.6321079730987549,0.05702330757654722,0.29240877079406735,0.06288340940483098,-0.0022539515048265457,0.0006423554732464254,0.0,-0.0,-0.0,0.0
37,5,0.0,0.0,0.0,0.002276468789204955,-0.0013526437105610967,-0.006569716613739729,-0.010620126500725746,-0.01492007914930582,0.002139871474355459,0.0,0.0,0.0,0.0,0.0,0.0,-0.000754231121391058,-0.0009144173818640411,-0.0,0.0,0.0,0.0,0.01186512690037489,0.004619572777301073,0.00023564946604892612,1495.0,1495.0,1495.0,1495.0,0.0,0.0,0.0,0.0,0.0,0.0,0.0,0.0,0.0,0.0,0.0,0.0,1.6373395919799805,0.058476480477891314,0.2951244954171268,0.06261143909143642,0.0036077378317713737,-0.0022890311665832996,0.0,0.0002123332378687337,0.0005731176934204996,0.0
55,18,0.0,0.0,0.0,0.0035559411626309156,-0.0004704405437223613,-0.008096915669739246,-0.01062201987951994,-0.014950583688914776,0.002143538324162364,0.0,0.0,0.0,0.0,0.0,0.0,0.0005726096569560468,0.0033293997403234243,-0.0,0.0,0.0,0.0,0.010914144106209278,0.00407286174595356,6.664208194706589e-05,1495.0,1495.0,1495.0,1495.0,0.0,0.0,0.0,0.0,0.0,0.0,0.0,0.0,0.0,0.0,0.0,0.0,1.6621447801589966,0.05916951683677385,0.29638628843241893,0.06275464575996612,-0.013334779068827629,0.0017641520826146007,0.0,-0.000754231121391058,-0.0009144173818640411,0.0
64,9,0.0,0.0,0.0,-0.0006918762228451669,-0.00010066176037071273,0.0017987116007134318,-0.01062201987951994,-0.014950583688914776,0.002143538324162364,0.0,0.0,0.0,0.0,0.0,0.0,0.0005726096569560468,0.0033293997403234243,-0.0,0.0,0.0,0.0,0.010914144106209278,0.00407286174595356,6.664208194706589e-05,1495.0,1495.0,1495.0,1495.0,0.0,0.0,0.0,0.0,0.0,0.0,0.0,0.0,0.0,0.0,0.0,0.0,1.6621447801589966,0.05814933200402099,0.29393581705856503,0.06267014332828877,-0.013334779068827629,0.0017641520826146007,0.0,-0.000754231121391058,-0.0009144173818640411,0.0
70,5,0.0,0.0,0.0,-0.0036209640093147755,0.002347683534026146,-0.003900680923834443,-0.010609952732920647,-0.014897948130965233,0.002140333643183112,0.0,0.0,0.0,0.0,0.0,0.0,-0.0028449599631130695,-0.0033753514289855957,-0.0,0.0,0.0,0.0,0.013477499596774578,0.005071715451776981,0.00021219874906819314,13127.0,12198.0,14200.0,14741.0,0.3829619586467743,0.3274429142475128,0.45249953866004944,0.48974260687828064,0.0,0.0,0.0,0.0,0.0,0.0,0.0,0.0,1.669502854347229,0.05946391035795094,0.29476731381268595,0.0630481707645617,0.01357861515134573,-0.00880381278693676,0.0,0.001655870582908392,0.0021436894312500954,0.0
76,7,0.0,0.0,0.0,-0.002010210882872343,-0.0005474808276630938,0.0030554411932826042,-0.010609952732920647,-0.014897948130965233,0.002140333643183112,0.0,0.0,0.0,0.0,0.0,0.0,-0.0028449599631130695,-0.0033753514289855957,-0.0,0.0,0.0,0.0,0.013477499596774578,0.005071715451776981,0.00021219874906819314,13127.0,12198.0,14200.0,14741.0,0.3829619586467743,0.3274429142475128,0.45249953866004944,0.48974260687828064,0.0,0.0,0.0,0.0,0.0,0.0,0.0,0.0,1.669502854347229,0.057552774677104616,0.2932926387005489,0.06294741527023018,0.01357861515134573,-0.00880381278693676,0.0,0.001655870582908392,0.0021436894312500954,0.0
81,5,0.00013567153655458242,-4.7633391659474e-05,0.0003416521940380335,0.015476500615477562,0.005497014615684748,-0.03977608680725098,-0.010609952732920647,-0.014897948130965233,0.002140333643183112,0.0,0.0,0.0,0.0,0.0,0.0,-0.0028449599631130695,-0.0033753514289855957,-0.0,0.0,0.0,0.0,0.013477499596774578,0.005071715451776981,0.00021219874906819314,13127.0,12198.0,14200.0,14741.0,0.3829619586467743,0.3274429142475128,0.45249953866004944,0.48974260687828064,0.0,0.0,0.0,0.0,0.0,0.0,0.0,0.0,1.669502854347229,0.06754073886701982,0.30887953570633164,0.06084206517930052,0.01357861515134573,-0.00880381278693676,0.0,0.001655870582908392,0.0021436894312500954,0.0
90,8,0.00013567153655458242,-4.7633391659474e-05,0.0003416521940380335,0.015476500615477562,0.005497014615684748,-0.03977608680725098,-0.010624249465763569,-0.01489262655377388,0.0021276434417814016,0.0,0.0,0.0,0.0,0.0,0.0,-0.006285164039582014,0.013614431023597717,-0.0,0.0,0.0,0.0,0.012285473756492138,0.00535000953823328,0.0001662461436353624,13261.0,12310.0,14145.0,14717.0,0.3913441300392151,0.3338966369628906,0.44881922006607056,0.4880847930908203,0.0,0.0,0.0,0.0,0.0,0.0,0.0,0.0,1.7919520139694214,0.06754073886701982,0.30887953570633164,0.06084206517930052,-0.05878354609012604,-0.020875955000519753,0.0,0.0005726096569560468,0.0033293997403234243,0.0
95,5,1.91196559171658e-05,2.8685560664598597e-06,1.940589390869718e-05,-0.002583377528935671,-0.0012872444931417704,0.010563850402832031,-0.010624249465763569,-0.01489262655377388,0.0021276434417814016,0.0,0.0,0.0,0.0,0.0,0.0,-0.0062852101400494576,0.013614530675113201,-0.0,0.0,0.0,0.0,0.0055151754058897495,0.008436189964413643,0.00012660225911531597,13261.0,12310.0,14145.0,14717.0,0.3913441300392151,0.3338966369628906,0.44881922006607056,0.4880847930908203,0.0,0.0,0.0,0.0,0.0,0.0,0.0,0.0,1.7919533252716064,0.056642619986932104,0.2910716764594968,0.06329990487897195,-0.05878401920199394,-0.020876122638583183,0.0,-0.006285164039582014,0.013614431023597717,0.0
100,5,4.4712218368658796e-05,-5.47547733731335e-06,6.6149361373391e-05,0.0020377563778311014,0.00048638624139130116,-0.0013836761936545372,-0.010624249465763569,-0.01489262655377388,0.0021276434417814016,0.0,0.0,0.0,0.0,0.0,0.0,-0.0062852101400494576,0.013614530675113201,-0.0,0.0,0.0,0.0,0.0055151754058897495,0.008436189964413643,0.00012660225911531597,13261.0,12310.0,14145.0,14717.0,0.3913441300392151,0.3338966369628906,0.44881922006607056,0.4880847930908203,0.0,0.0,0.0,0.0,0.0,0.0,0.0,0.0,1.7919533252716064,0.05897993550957614,0.29530783426188156,0.06272584011294487,-0.05878401920199394,-0.020876122638583183,0.0,-0.006285164039582014,0.013614431023597717,0.0
105,5,3.896143607562408e-05,-5.4450761126645375e-06,4.464570156414993e-05,0.00012500848970375955,0.0001909063576022163,0.002026969101279974,-0.010624249465763569,-0.01489262655377388,0.0021276434417814016,0.0,0.0,0.0,0.0,0.0,0.0,-0.0006071803509257734,0.0019868630915880203,-0.0,0.0,0.0,0.0,0.0055151754058897495,0.008436189964413643,0.00012660225911531597,13261.0,12310.0,14145.0,14717.0,0.3913441300392151,0.3338966369628906,0.44881922006607056,0.4880847930908203,0.0,0.0,0.0,0.0,0.0,0.0,0.0,0.0,1.6477106809616089,0.05840206998791945,0.2944574654837231,0.06287899625716584,-0.007888609543442726,-0.0018544160993769765,0.0,-0.006285164039582014,0.013614431023597717,0.0
110,5,3.6025874578626826e-05,-9.538298400002532e-07,3.3631215046625584e-05,-0.00030226362287066877,-0.000462587020592764,0.0021325259003788233,-0.010624249465763569,-0.01489262655377388,0.0021276434417814016,0.0,0.0,0.0,0.0,0.0,0.0,-0.0006071803509257734,0.0019868630915880203,-0.0,0.0,0.0,0.0,0.0055151754058897495,0.008436189964413643,0.00012660225911531597,13261.0,12310.0,14145.0,14717.0,0.3913441300392151,0.3338966369628906,0.44881922006607056,0.4880847930908203,0.0,0.0,0.0,0.0,0.0,0.0,0.0,0.0,1.6477106809616089,0.058571402304867196,0.29575492509811185,0.06272796296971146,-0.007888609543442726,-0.0018544160993769765,0.0,-0.006285164039582014,0.013614431023597717,0.0
115,5,5.9129939472768456e-05,-1.4418959835893475e-05,-5.427230917121051e-06,0.002651582006365061,0.0014307807432487607,0.005540023557841778,-0.010631573386490345,-0.0148507384583354,0.00211082911118865,0.0,0.0,0.0,0.0,0.0,0.0,0.0005719207692891359,-0.00023766896629240364,-0.0,0.0,0.0,0.0,0.005528947338461876,0.00858551450073719,0.00019265701121184975,14427.0,13083.0,13981.0,14969.0,0.4679373800754547,0.38026759028434753,0.4378686845302582,0.5058796405792236,0.0,0.0,0.0,0.0,0.0,0.0,0.0,0.0,1.6310811042785645,0.057710328452857645,0.29483403021348653,0.06267510938287191,0.0009341139812022448,0.0017290993127971888,-0.0,-0.0062852101400494576,0.013614530675113201,0.0
122,7,1.3853643395123072e-05,-9.934174158843234e-06,3.6913890653522685e-05,-0.001522580860182643,-0.0001156584985437803,-0.0036001664120703936,-0.010631573386490345,-0.0148507384583354,0.00211082911118865,0.0,0.0,0.0,0.0,0.0,0.0,0.0005719207692891359,-0.00023766896629240364,-0.0,0.0,0.0,0.0,0.005528947338461876,0.00858551450073719,0.00019265701121184975,14427.0,13083.0,13981.0,14969.0,0.4679373800754547,0.38026759028434753,0.4378686845302582,0.5058796405792236,0.0,0.0,0.0,0.0,0.0,0.0,0.0,0.0,1.6310811042785645,0.058930717141544034,0.2963985222614245,0.06287829810297851,0.0009341139812022448,0.0017290993127971888,-0.0,-0.0062852101400494576,0.013614530675113201,0.0
127,5,1.3355846704143914e-06,-1.7346317690680735e-05,4.185448051430285e-05,-0.0021111995447427034,0.0008431937894783914,-0.00203293701633811,-0.010639477521181107,-0.014880337752401829,0.0021058665588498116,0.0,0.0,0.0,0.0,0.0,0.0,0.00012449512723833323,-0.0014243042096495628,-0.0,0.0,0.0,0.0,0.01128475647419691,0.005186480935662985,0.00019469665130600333,13272.0,12320.0,14047.0,14587.0,0.3920108675956726,0.33448874950408936,0.4422284960746765,0.4789825677871704,0.0,0.0,0.0,0.0,0.0,0.0,0.0,0.0,1.6410573720932007,0.05887556242483841,0.2957262453553341,0.06328498676630337,0.005632202606648207,0.0003786907182075083,0.0,-0.0006071803509257734,0.0019868630915880203,0.0
132,5,1.0132615898328368e-05,-1.8969059965456836e-05,1.61883272085106e-05,0.00021116400603204966,0.000532006670255214,0.002266763476654887,-0.010639477521181107,-0.014880337752401829,0.0021058665588498116,0.0,0.0,0.0,0.0,0.0,0.0,0.00012449512723833323,-0.0014243042096495628,-0.0,0.0,0.0,0.0,0.01128475647419691,0.005186480935662985,0.00019469665130600333,13272.0,12320.0,14047.0,14587.0,0.3920108675956726,0.33448874950408936,0.4422284960746765,0.4789825677871704,0.0,0.0,0.0,0.0,0.0,0.0,0.0,0.0,1.6410573720932007,0.057726652402143065,0.2940479009016492,0.0631914444343983,0.005632202606648207,0.0003786907182075083,0.0,-0.0006071803509257734,0.0019868630915880203,0.0
137,5,1.441873155272333e-05,-1.6904663425520994e-05,6.741068500559777e-05,0.0005987994372844696,-3.492494943202473e-05,-0.005239977966994047,-0.010630135424435139,-0.014913437888026237,0.002099865349009633,0.0,0.0,0.0,0.0,0.0,0.0,-0.0006941924220882356,0.00021588284289464355,-0.0,0.0,0.0,0.0,0.01119146030396223,0.005145936738699675,0.000185684475582093,13071.0,12230.0,14095.0,14556.0,0.37952154874801636,0.3292806148529053,0.4454156756401062,0.4768632650375366,0.0,0.0,0.0,0.0,0.0,0.0,0.0,0.0,1.6318943500518799,0.05883566884446488,0.29441524435699795,0.06287422954125038,-0.0008489106548950076,-0.0020998120307922363,-0.0,-0.0006071803509257734,0.0019868630915880203,0.0
142,5,3.607188773457892e-05,-1.0468936125107575e-05,5.4495540098287165e-05,0.0028378984425216913,-0.0007862572674639523,-0.0005461734835989773,-0.010630135424435139,-0.014913437888026237,0.002099865349009633,0.0,0.0,0.0,0.0,0.0,0.0,-0.0006941924220882356,0.00021588284289464355,-0.0,0.0,0.0,0.0,0.01119146030396223,0.005145936738699675,0.000185684475582093,13071.0,12230.0,14095.0,14556.0,0.37952154874801636,0.3292806148529053,0.4454156756401062,0.4768632650375366,0.0,0.0,0.0,0.0,0.0,0.0,0.0,0.0,1.6318943500518799,0.058400567448163423,0.2946348832846535,0.06301480836281491,-0.0008489106548950076,-0.0020998120307922363,-0.0,-0.0006071803509257734,0.0019868630915880203,0.0
147,5,4.8758334742160514e-05,-2.1117779397172853e-05,0.00013119193317834288,0.0026575331576168537,0.0009633582667447627,-0.009422036819159985,-0.010633133351802826,-0.014905985444784164,0.0020904806442558765,0.0,0.0,0.0,0.0,0.0,0.0,0.0009415724780410528,0.0027168267406523228,-0.0,0.0,0.0,0.0,0.012436313554644585,0.004413687624037266,0.00021318375365808606,13172.0,12310.0,14021.0,14482.0,0.38577553629875183,0.333943635225296,0.44046899676322937,0.47170618176460266,0.0,0.0,0.0,0.0,0.0,0.0,0.0,0.0,1.6561305522918701,0.060772530657022275,0.29720585438448155,0.06294400772253236,-0.010841957293450832,0.0028903919737786055,0.0,0.0005719207692891359,-0.00023766896629240364,0.0
152,5,3.683269824250601e-05,-2.1579549866146408e-05,3.7305610021576285e-05,-0.00036806301795877516,0.0004407558881212026,0.007497544400393963,-0.010633133351802826,-0.014905985444784164,0.0020904806442558765,0.0,0.0,0.0,0.0,0.0,0.0,0.0009415724780410528,0.0027168267406523228,-0.0,0.0,0.0,0.0,0.012436313554644585,0.004413687624037266,0.00021318375365808606,13172.0,12310.0,14021.0,14482.0,0.38577553629875183,0.333943635225296,0.44046899676322937,0.47170618176460266,0.0,0.0,0.0,0.0,0.0,0.0,0.0,0.0,1.6561305522918701,0.05828559962679008,0.2935034006045544,0.06339346557904098,-0.010841957293450832,0.0028903919737786055,0.0,0.0005719207692891359,-0.00023766896629240364,0.0
157,5,3.667092096293345e-05,-1.2785640137735754e-05,9.252867312170565e-05,-0.00016663862334098667,-0.0008789668790996075,-0.0036277498584240675,-0.010699798353016376,-0.014800775796175003,0.0021356726065278053,0.0,0.0,0.0,0.0,0.0,0.0,-0.0005859833909198642,-0.00029915387858636677,-0.0,0.0,0.0,0.0,0.01128087006509304,0.0043768142350018024,0.00022416605497710407,13187.0,12254.0,14120.0,14418.0,0.3867321014404297,0.33070701360702515,0.44712209701538086,0.4673331379890442,0.0,0.0,0.0,0.0,0.0,0.0,0.0,0.0,1.6315196752548218,0.05970035979708346,0.296259576193073,0.06356349945889597,0.001176085090264678,-0.001772091374732554,-0.0,-0.0006941924220882356,0.00021588284289464355,0.0
162,5,4.139372686040588e-05,7.4152644629066344e-06,-0.0001404587528668344,0.0005000812816433609,-0.0027756954077631235,0.026507390663027763,-0.010699798353016376,-0.014800775796175003,0.0021356726065278053,0.0,0.0,0.0,0.0,0.0,0.0,-0.0005859833909198642,-0.00029915387858636677,-0.0,0.0,0.0,0.0,0.01128087006509304,0.0043768142350018024,0.00022416605497710407,13187.0,12254.0,14120.0,14418.0,0.3867321014404297,0.33070701360702515,0.44712209701538086,0.4673331379890442,0.0,0.0,0.0,0.0,0.0,0.0,0.0,0.0,1.6315196752548218,0.054012248629495704,0.29024188981224575,0.06345607387620167,0.001176085090264678,-0.001772091374732554,-0.0,-0.0006941924220882356,0.00021588284289464355,0.0
167,5,4.2167299397988245e-05,6.771178050257731e-06,-0.00010786819620989263,0.0002928611065726727,-0.0010329877259209752,0.006692090071737766,-0.010799931362271309,-0.014642592519521713,0.0022404659539461136,0.0,0.0,0.0,0.0,0.0,0.0,0.0034070147667080164,0.0005278861499391496,-0.0,0.0,0.0,0.0,0.013110834173858166,0.004884867928922176,0.0004766589554492384,13353.0,12054.0,14401.0,14510.0,0.3971210718154907,0.3192121386528015,0.4661383032798767,0.47365903854370117,0.0,0.0,0.0,0.0,0.0,0.0,0.0,0.0,1.6546181440353394,0.055113214847467076,0.29222125211572986,0.06250579286381662,-0.0021046865731477737,0.01044909842312336,0.0,0.0009415724780410528,0.0027168267406523228,0.0
172,5,1.717887607810553e-05,4.207656274957117e-06,-5.819697253173217e-05,-0.0028814664110541344,-0.00010557244240771979,-0.003283710917457938,-0.010799931362271309,-0.014642592519521713,0.0022404659539461136,0.0,0.0,0.0,0.0,0.0,0.0,0.0034070147667080164,0.0005278861499391496,-0.0,0.0,0.0,0.0,0.013110834173858166,0.004884867928922176,0.0004766589554492384,13353.0,12054.0,14401.0,14510.0,0.3971210718154907,0.3192121386528015,0.4661383032798767,0.47365903854370117,0.0,0.0,0.0,0.0,0.0,0.0,0.0,0.0,1.6546181440353394,0.055979690918064574,0.293058366219,0.06348496474439234,-0.0021046865731477737,0.01044909842312336,0.0,0.0009415724780410528,0.0027168267406523228,0.0
177,5,4.0188097045756876e-05,8.266225677289185e-07,-1.1731618542398792e-05,0.00160852016415447,0.0003634950262494385,-0.006889326963573694,-0.010795927606523037,-0.014592339284718037,0.0020857590716332197,0.0,0.0,0.0,0.0,0.0,0.0,0.0001364455238217488,-0.002685771556571126,-0.0,0.0,0.0,0.0,0.013038313016295433,0.005355000961571932,-0.001052870531566441,13039.0,12376.0,14042.0,14871.0,0.37754207849502563,0.33778464794158936,0.44187766313552856,0.49892616271972656,0.0,0.0,0.0,0.0,0.0,0.0,0.0,0.0,1.6547720432281494,0.05742828074979394,0.29550574585456224,0.06226355082505978,0.010709239169955254,0.000418510171584785,0.0,0.0009415724780410528,0.0027168267406523228,0.0
183,5,1.5900153812253848e-05,3.631797153502703e-05,-6.217850022949278e-05,-0.002271145349368453,-0.0041135638020932674,0.003297894960269332,-0.010795927606523037,-0.014592339284718037,0.0020857590716332197,0.0,0.0,0.0,0.0,0.0,0.0,0.0001364455238217488,-0.002685771556571126,-0.0,0.0,0.0,0.0,0.013038313016295433,0.005355000961571932,-0.001052870531566441,13039.0,12376.0,14042.0,14871.0,0.37754207849502563,0.33778464794158936,0.44187766313552856,0.49892616271972656,0.0,0.0,0.0,0.0,0.0,0.0,0.0,0.0,1.6547720432281494,0.05487618186092955,0.2927202209205854,0.06263433947159777,0.010709239169955254,0.000418510171584785,0.0,0.0009415724780410528,0.0027168267406523228,0.0
188,5,2.8810221920139156e-05,3.9693091821391135e-05,-6.590680277440697e-05,0.0006407499895431101,-0.002050439827144146,0.0017665545456111431,-0.010789684019982815,-0.014455917291343212,0.0021138391457498074,0.0,0.0,0.0,0.0,0.0,0.0,0.0050365738570690155,-0.0020896224305033684,-0.0,0.0,0.0,0.0,0.011450331658124924,0.003953113220632076,-0.0009829713962972164,12583.0,12873.0,13578.0,14925.0,0.34991294145584106,0.36737215518951416,0.4115140438079834,0.5027205348014832,0.0,0.0,0.0,0.0,0.0,0.0,0.0,0.0,1.6737303733825684,0.05445269498954559,0.2918889715903417,0.06274460667565655,0.008427511900663376,0.015625212341547012,0.0,-0.0005859833909198642,-0.00029915387858636677,0.0
193,5,4.36792652180884e-05,1.6804251572466455e-05,-1.463744501961628e-05,0.0020405855029821396,0.0019264847505837679,-0.005445701535791159,-0.010789684019982815,-0.014455917291343212,0.0021138391457498074,0.0,0.0,0.0,0.0,0.0,0.0,0.0050365738570690155,-0.0020896224305033684,-0.0,0.0,0.0,0.0,0.011450331658124924,0.003953113220632076,-0.0009829713962972164,12583.0,12873.0,13578.0,14925.0,0.34991294145584106,0.36737215518951416,0.4115140438079834,0.5027205348014832,0.0,0.0,0.0,0.0,0.0,0.0,0.0,0.0,1.6737303733825684,0.056073338105203825,0.29281727916464384,0.06267120766058337,0.008427511900663376,0.015625212341547012,0.0,-0.0005859833909198642,-0.00029915387858636677,0.0
198,5,-4.143258775002323e-05,-5.24729912285693e-05,0.00018304666446056217,-0.009397188201546669,0.009083863347768784,-0.025900375097990036,-0.010641952976584435,-0.014316770248115063,0.0023001269437372684,0.0,0.0,0.0,0.0,0.0,0.0,-0.002325598616153002,0.0019800968002527952,-0.0,0.0,0.0,0.0,0.01503271609544754,0.0042420136742293835,0.0010603320552036166,13372.0,11714.0,14722.0,14423.0,0.3983452022075653,0.3002345860004425,0.48838844895362854,0.467649906873703,0.0,0.0,0.0,0.0,0.0,0.0,0.0,0.0,1.6545624732971191,0.06191650774030689,0.29492393163132335,0.0646591792507695,-0.007894416339695454,-0.007132237311452627,0.0,0.0034070147667080164,0.0005278861499391496,0.0
203,5,0.00017483178817201406,4.714401802630164e-05,-1.8082744645653293e-05,0.022192848846316338,-0.00832049548625946,0.013775380328297615,-0.010641952976584435,-0.014316770248115063,0.0023001269437372684,0.0,0.0,0.0,0.0,0.0,0.0,-0.002325598616153002,0.0019800968002527952,-0.0,0.0,0.0,0.0,0.01503271609544754,0.0042420136742293835,0.0010603320552036166,13372.0,11714.0,14722.0,14423.0,0.3983452022075653,0.3002345860004425,0.48838844895362854,0.467649906873703,0.0,0.0,0.0,0.0,0.0,0.0,0.0,0.0,1.6545624732971191,0.057312963169838436,0.2984858536361195,0.059603786480247195,-0.007894416339695454,-0.007132237311452627,0.0,0.0034070147667080164,0.0005278861499391496,0.0
208,5,4.75727574666962e-05,1.432548560842406e-05,-0.00017148948973044753,-0.006393943447619677,0.0006100255413912237,0.023918962106108665,-0.010457477532327175,-0.014758081175386906,0.001840718206949532,0.0,0.0,0.0,0.0,0.0,0.0,0.009110502898693085,0.01875453256070614,-0.0,0.0,0.0,0.0,0.01080723013728857,0.005419209133833647,-0.001569500775076449,13074.0,12669.0,13753.0,14847.0,0.3796765208244324,0.3550642728805542,0.422812819480896,0.49721843004226685,0.0,0.0,0.0,0.0,0.0,0.0,0.0,0.0,1.8630828857421875,0.05260698448553354,0.2896676008394036,0.06284849321504353,-0.084187351167202,0.031460974365472794,0.0,0.0001364455238217488,-0.002685771556571126,0.0
213,5,3.556318915798329e-05,4.23739074904006e-05,-0.0001921781076816842,-0.003998725675046444,-0.0031218002550303936,0.01205021794885397,-0.010457477532327175,-0.014758081175386906,0.001840718206949532,0.0,0.0,0.0,0.0,0.0,0.0,0.009110502898693085,0.01875453256070614,-0.0,0.0,0.0,0.0,0.01080723013728857,0.005419209133833647,-0.001569500775076449,13074.0,12669.0,13753.0,14847.0,0.3796765208244324,0.3550642728805542,0.422812819480896,0.49721843004226685,0.0,0.0,0.0,0.0,0.0,0.0,0.0,0.0,1.8630828857421875,0.049867670448629525,0.2896736889045668,0.062474947588253935,-0.084187351167202,0.031460974365472794,0.0,0.0001364455238217488,-0.002685771556571126,0.0
218,5,6.268741708481684e-05,0.00013430950639303774,0.00012545321078505367,0.0016554172616451979,-0.012280991300940514,-0.03329566866159439,-0.010437318123877048,-0.015160512179136276,0.002125339349731803,0.0,0.0,0.0,0.0,0.0,0.0,0.003840851364657283,-0.00366151612251997,-0.0,0.0,0.0,0.0,0.01680481992661953,0.004734491929411888,-0.00105748709756881,12623.0,12409.0,14202.0,15291.0,0.3523132801055908,0.3396661877632141,0.4526318907737732,0.5291190147399902,0.0,0.0,0.0,0.0,0.0,0.0,0.0,0.0,1.6771122217178345,0.0492601255023329,0.30369286968633136,0.0567489221221469,0.014796902425587177,0.011939777992665768,0.0,0.0050365738570690155,-0.0020896224305033684,0.0
223,5,7.4645402492024e-05,0.00013981906522531062,0.00012233141751494259,0.0020971246995031834,-0.005573544651269913,-0.01294365432113409,-0.010437318123877048,-0.015160512179136276,0.002125339349731803,0.0,0.0,0.0,0.0,0.0,0.0,0.003840851364657283,-0.00366151612251997,-0.0,0.0,0.0,0.0,0.01680481992661953,0.004734491929411888,-0.00105748709756881,12623.0,12409.0,14202.0,15291.0,0.3523132801055908,0.3396661877632141,0.4526318907737732,0.5291190147399902,0.0,0.0,0.0,0.0,0.0,0.0,0.0,0.0,1.6771122217178345,0.04951662540535692,0.30551683140994973,0.05743592468170858,0.014796902425587177,0.011939777992665768,0.0,0.0050365738570690155,-0.0020896224305033684,0.0
228,5,0.0003039190196432173,0.00012093576515326276,0.0004260822315700352,0.028351685032248497,3.657831621239893e-05,-0.041627559810876846,-0.010405484586954117,-0.01521941926330328,0.002484718570485711,0.0,0.0,0.0,0.0,0.0,0.0,0.006924699526280165,0.002034745877608657,-0.0,0.0,0.0,0.0,0.009209253825247288,0.005599197465926409,0.00022674039064440876,13512.0,12487.0,13800.0,14561.0,0.4072652757167816,0.344258576631546,0.4258821904659271,0.4771564304828644,0.0,0.0,0.0,0.0,0.0,0.0,0.0,0.0,1.68834388256073,0.06032403002453167,0.3237607756426226,0.04770434667725823,-0.00827774964272976,0.021670257672667503,0.0,-0.002325598616153002,0.0019800968002527952,0.0
233,5,0.00031845818739384413,6.512177060358226e-05,0.0005634005065076053,0.013085374608635902,0.00671231048181653,-0.033129218965768814,-0.010405484586954117,-0.01521941926330328,0.002484718570485711,0.0,0.0,0.0,0.0,0.0,0.0,0.006924699526280165,0.002034745877608657,-0.0,0.0,0.0,0.0,0.009209253825247288,0.005599197465926409,0.00022674039064440876,13512.0,12487.0,13800.0,14561.0,0.4072652757167816,0.344258576631546,0.4258821904659271,0.4771564304828644,0.0,0.0,0.0,0.0,0.0,0.0,0.0,0.0,1.68834388256073,0.06384142525295976,0.3279398315014681,0.04893669140121608,-0.00827774964272976,0.021670257672667503,0.0,-0.002325598616153002,0.0019800968002527952,0.0
239,5,0.0002715340815484524,6.492604006780311e-05,0.00034858848084695637,-0.00039674382423982024,0.0027084127068519592,0.01252575870603323,-0.010405484586954117,-0.01521941926330328,0.002484718570485711,0.0,0.0,0.0,0.0,0.0,0.0,-0.007534320000559092,0.011872238479554653,-0.0,0.0,0.0,0.0,0.009209253825247288,0.005599197465926409,0.00022674039064440876,13512.0,12487.0,13800.0,14561.0,0.4072652757167816,0.344258576631546,0.4258821904659271,0.4771564304828644,0.0,0.0,0.0,0.0,0.0,0.0,0.0,0.0,1.776732325553894,0.05853883801192654,0.31728485927975664,0.0527182291343307,-0.05082577094435692,-0.024812307208776474,0.0,-0.002325598616153002,0.0019800968002527952,0.0
244,5,0.00042991535156033933,0.00015373408677987754,0.0008470270549878478,0.01884705387055874,-0.009573601186275482,-0.05480232834815979,-0.009207487106323242,-0.01714055985212326,0.0027707426343113184,0.0,0.0,0.0,0.0,0.0,0.0,-0.007534320000559092,0.011872238479554653,-0.0,0.0,0.0,0.0,0.006771206855773926,0.014032541774213314,0.0013120677322149277,13901.0,11725.0,14439.0,14529.0,0.4325462877750397,0.30083325505256653,0.46876242756843567,0.474970281124115,0.0,0.0,0.0,0.0,0.0,0.0,0.0,0.0,1.776732325553894,0.06545072694379225,0.3411548161575003,0.04404836824201172,-0.05082577094435692,-0.024812307208776474,0.0,0.006924699526280165,0.002034745877608657,0.0
249,5,0.00040876056300476193,3.8626225432381034e-05,0.0005385401309467852,0.005000249017030001,0.009983503259718418,0.015097501687705517,-0.009207487106323242,-0.01714055985212326,0.0027707426343113184,0.0,0.0,0.0,0.0,0.0,0.0,0.010761796496808529,0.016456592828035355,-0.0,0.0,0.0,0.0,0.006771206855773926,0.014032541774213314,0.0013120677322149277,13901.0,11725.0,14439.0,14529.0,0.4325462877750397,0.30083325505256653,0.46876242756843567,0.474970281124115,0.0,0.0,0.0,0.0,0.0,0.0,0.0,0.0,1.8422682285308838,0.06498950610603736,0.32815423536568816,0.04966153716499252,-0.07304658740758896,0.0367477685213089,0.0,0.006924699526280165,0.002034745877608657,0.0
254,5,0.0004512381856329739,1.699458334769588e-05,0.0006998229655437171,0.0070974151603877544,0.006589198485016823,-0.013314937241375446,-0.007190832402557135,-0.019576262682676315,0.0027837229426950216,0.0,0.0,0.0,0.0,0.0,0.0,0.010761796496808529,0.016456592828035355,-0.0,0.0,0.0,0.0,-0.007046868093311787,0.015682712197303772,-0.0002592556702438742,15502.0,13515.0,12422.0,14662.0,0.5445863008499146,0.4074500799179077,0.34045642614364624,0.4842395782470703,0.0,0.0,0.0,0.0,0.0,0.0,0.0,0.0,1.8422682285308838,0.07101827385062338,0.33372285957421277,0.04959236157793668,-0.07304658740758896,0.0367477685213089,0.0,-0.007534320000559092,0.011872238479554653,0.0
259,5,0.0005381966475397348,-1.7500260582892224e-05,0.0006968272500671446,0.013273978605866432,0.006775060668587685,-0.00496649369597435,-0.007190832402557135,-0.019576262682676315,0.0027837229426950216,0.0,0.0,0.0,0.0,0.0,0.0,-0.007684618234634399,0.0069895535707473755,-0.0,0.0,0.0,0.0,-0.007046868093311787,0.015682712197303772,-0.0002592556702438742,15502.0,13515.0,12422.0,14662.0,0.5445863008499146,0.4074500799179077,0.34045642614364624,0.4842395782470703,0.0,0.0,0.0,0.0,0.0,0.0,0.0,0.0,1.728113055229187,0.07128965193023602,0.33618083963690715,0.04727852787889589,-0.02910429798066616,-0.024614738300442696,0.0,-0.007534320000559092,0.011872238479554653,0.0
264,5,0.0004403268685564399,-4.728581916424446e-05,0.0005734366714023054,-0.006434781942516565,0.006284291390329599,0.012820272706449032,-0.0042166439816355705,-0.02347111888229847,0.0025624269619584084,0.0,0.0,0.0,0.0,0.0,0.0,-0.007684618234634399,0.0069895535707473755,-0.0,0.0,0.0,0.0,0.003025874262675643,0.01741621643304825,-0.000993667053990066,15502.0,13515.0,12422.0,14662.0,0.5445863008499146,0.4074500799179077,0.34045642614364624,0.4842395782470703,0.0,0.0,0.0,0.0,0.0,0.0,0.0,0.0,1.728113055229187,0.06793087742092939,0.32313285211700776,0.05230856651673875,-0.02910429798066616,-0.024614738300442696,0.0,0.010761796496808529,0.016456592828035355,0.0
269,5,-0.0010253803338855505,0.0009044967009685934,-0.0033768878784030676,-0.006434781942516565,0.006284291390329599,0.012820272706449032,-0.0042166439816355705,-0.02347111888229847,0.0025624269619584084,0.0,0.0,0.0,0.0,0.0,0.0,-0.007506079971790314,-0.0052589732222259045,-0.0,0.0,0.0,0.0,0.003025874262675643,0.01741621643304825,-0.000993667053990066,15502.0,13515.0,12422.0,14662.0,0.5445863008499146,0.4074500799179077,0.34045642614364624,0.4842395782470703,0.0,0.0,0.0,0.0,0.0,0.0,0.0,0.0,1.7124557495117188,0.008733552979621351,0.11866494049019038,0.006837881844345845,0.02169991284608841,-0.023825043812394142,-0.0,0.010761796496808529,0.016456592828035355,0.0
274,5,-0.001404601731337607,0.0010348778450861573,-0.004918462596833706,-0.006434781942516565,0.006284291390329599,0.012820272706449032,-0.0010960884392261505,-0.025452692061662674,0.0023024375550448895,0.0,0.0,0.0,0.0,0.0,0.0,-0.007506079971790314,-0.0052589732222259045,-0.0,0.0,0.0,0.0,-0.012651500292122364,0.008867258206009865,-0.0009991024853661656,14841.0,13217.0,13033.0,15970.0,0.49675965309143066,0.3885652720928192,0.3771655261516571,0.579777717590332,0.0,0.0,0.0,0.0,0.0,0.0,0.0,0.0,1.7124557495117188,0.0341580082023904,0.05103595726454243,0.0022538905764770646,0.02169991284608841,-0.023825043812394142,-0.0,-0.007684618234634399,0.0069895535707473755,0.0
279,5,-0.001282156677916646,0.0012172057759016752,-0.005071372725069523,0.01211948785930872,-0.019365640357136726,0.023477306589484215,-0.0010960884392261505,-0.025452692061662674,0.0023024375550448895,0.0,0.0,0.0,0.0,0.0,0.0,-0.007506079971790314,-0.0052589732222259045,-0.0,0.0,0.0,0.0,-0.012651500292122364,0.008867258206009865,-0.0009991024853661656,14841.0,13217.0,13033.0,15970.0,0.49675965309143066,0.3885652720928192,0.3771655261516571,0.579777717590332,0.0,0.0,0.0,0.0,0.0,0.0,0.0,0.0,1.7124557495117188,0.030352235200168318,0.0451048594000234,-0.008878289857816203,0.02169991284608841,-0.023825043812394142,-0.0,-0.007684618234634399,0.0069895535707473755,0.0
284,5,-0.0011984892189502716,0.0009919054573401809,-0.004152107983827591,0.014887897297739983,0.019289789721369743,-0.10092082619667053,0.0013071183348074555,-0.025607068091630936,0.0017759316833689809,0.0,0.0,0.0,0.0,0.0,0.0,0.02302626706659794,0.008575870655477047,-0.0,0.0,0.0,0.0,-0.010539140552282333,-0.0015256479382514954,-0.0018291001906618476,13700.0,15205.0,12595.0,13703.0,0.4194149971008301,0.5228455066680908,0.35064762830734253,0.4195476174354553,0.0,0.0,0.0,0.0,0.0,0.0,0.0,0.0,1.8587744235992432,0.031057379437900143,0.07704825775504794,-0.0026673807130546457,-0.038400452584028244,0.07932116091251373,0.0,-0.007506079971790314,-0.0052589732222259045,0.0
289,5,-0.0013318097917363048,0.0010745242470875382,-0.004592018201947212,-0.010043318383395672,-0.0021983464248478413,0.012420883402228355,0.0013071183348074555,-0.025607068091630936,0.0017759316833689809,0.0,0.0,0.0,0.0,0.0,0.0,0.02302626706659794,0.008575870655477047,-0.0,0.0,0.0,0.0,-0.010539140552282333,-0.0015256479382514954,-0.0018291001906618476,13700.0,15205.0,12595.0,13703.0,0.4194149971008301,0.5228455066680908,0.35064762830734253,0.4195476174354553,0.0,0.0,0.0,0.0,0.0,0.0,0.0,0.0,1.8587744235992432,0.03565263428034382,0.04715212477925649,-0.0033459134771172904,-0.038400452584028244,0.07932116091251373,0.0,-0.007506079971790314,-0.0052589732222259045,0.0
294,5,-0.0012903116876259446,0.001008038641884923,-0.004422616679221392,0.0009624537779018283,0.007098932284861803,-0.015359798446297646,0.0008175009279511869,-0.017582865431904793,0.0004916359903290868,0.0,0.0,0.0,0.0,0.0,0.0,0.004361176863312721,-0.01065651886165142,-0.0,0.0,0.0,0.0,0.02526702545583248,-0.002194839995354414,-0.0008712572162039578,12116.0,13089.0,15875.0,16010.0,0.32274994254112244,0.38060709834098816,0.5725959539413452,0.5828214883804321,0.0,0.0,0.0,0.0,0.0,0.0,0.0,0.0,1.7520241737365723,0.03335746116362649,0.049654148863653894,-0.0005742162226755204,0.04498782381415367,0.014162823557853699,0.0,0.02302626706659794,0.008575870655477047,0.0
299,5,0.0004989149747416377,-0.00013758220302406698,0.002854473888874054,0.0009624537779018283,0.007098932284861803,-0.015359798446297646,0.0008175009279511869,-0.017582865431904793,0.0004916359903290868,0.0,0.0,0.0,0.0,0.0,0.0,0.004361176863312721,-0.01065651886165142,-0.0,0.0,0.0,0.0,0.02526702545583248,-0.002194839995354414,-0.0008712572162039578,12116.0,13089.0,15875.0,16010.0,0.32274994254112244,0.38060709834098816,0.5725959539413452,0.5828214883804321,0.0,0.0,0.0,0.0,0.0,0.0,0.0,0.0,1.7520241737365723,0.06030524177463931,0.38203889407774494,0.028867219850740485,0.04498782381415367,0.014162823557853699,0.0,0.02302626706659794,0.008575870655477047,0.0
305,5,0.0004981153178960085,-0.00019023750792257488,0.0029382677748799324,0.0002890226896852255,0.009158208034932613,-0.016199197620153427,0.0008175009279511869,-0.017582865431904793,0.0004916359903290868,0.0,0.0,0.0,0.0,0.0,0.0,-0.008678419515490532,0.0015499918954446912,-0.0,0.0,0.0,0.0,0.013537942431867123,-0.011176557280123234,-0.0017698302399367094,11531.0,14588.0,14877.0,14650.0,0.29024726152420044,0.47906529903411865,0.4993510842323303,0.48336052894592285,0.0,0.0,0.0,0.0,0.0,0.0,0.0,0.0,1.7014541625976562,0.06100634603472652,0.3821236497951609,0.024092271063445123,-0.006354553624987602,-0.02736903913319111,0.0,0.004361176863312721,-0.01065651886165142,0.0
310,5,0.0004199882969260216,-0.00019679298566188663,0.00298748048953712,-0.009259631857275963,0.00444994168356061,-0.012385206297039986,0.0008175009279511869,-0.017582865431904793,0.0004916359903290868,0.0,0.0,0.0,0.0,0.0,0.0,-0.008678419515490532,0.0015499918954446912,-0.0,0.0,0.0,0.0,0.013537942431867123,-0.011176557280123234,-0.0017698302399367094,11531.0,14588.0,14877.0,14650.0,0.29024726152420044,0.47906529903411865,0.4993510842323303,0.48336052894592285,0.0,0.0,0.0,0.0,0.0,0.0,0.0,0.0,1.7014541625976562,0.05781829584312975,0.37492347697675366,0.03119185465505892,-0.006354553624987602,-0.02736903913319111,0.0,0.004361176863312721,-0.01065651886165142,0.0
315,5,-0.0012124537024646997,0.0008596403640694916,-0.00441815797239542,-0.009259631857275963,0.00444994168356061,-0.012385206297039986,-0.0018889475613832474,-0.006789749022573233,-0.00048168751527555287,0.0,0.0,0.0,0.0,0.0,0.0,-0.005554988048970699,-0.0077974749729037285,-0.0,0.0,0.0,0.0,-0.006862019654363394,-0.006197588052600622,-0.0009436631808057427,13355.0,15078.0,13298.0,13347.0,0.3972970247268677,0.5137016773223877,0.3936987519264221,0.39675670862197876,0.0,0.0,0.0,0.0,0.0,0.0,0.0,0.0,1.7250282764434814,0.02720456052641132,0.022679843571286246,0.004623124338206682,0.032410893589258194,-0.017761671915650368,0.0,-0.008678419515490532,0.0015499918954446912,0.0
320,5,-0.0013543159002438188,0.0009316622745245695,-0.004654200281947851,-0.020727315917611122,-0.006862654350697994,0.023370983079075813,-0.0018889475613832474,-0.006789749022573233,-0.00048168751527555287,0.0,0.0,0.0,0.0,0.0,0.0,-0.005554988048970699,-0.0077974749729037285,-0.0,0.0,0.0,0.0,-0.006862019654363394,-0.006197588052600622,-0.0009436631808057427,13355.0,15078.0,13298.0,13347.0,0.3972970247268677,0.5137016773223877,0.3936987519264221,0.39675670862197876,0.0,0.0,0.0,0.0,0.0,0.0,0.0,0.0,1.7250282764434814,0.028668521546344843,0.010180899015586628,0.001892070197300861,0.032410893589258194,-0.017761671915650368,0.0,-0.008678419515490532,0.0015499918954446912,0.0
325,5,-0.0013962279772385955,0.0009873100789263844,-0.004347146954387426,-0.013320378959178925,-0.009422793053090572,-0.027497997507452965,-0.0012956273276358843,-0.003975054249167442,-0.0008628290379419923,0.0,0.0,0.0,0.0,0.0,0.0,0.00893054623156786,-0.01895633339881897,-0.0,0.0,0.0,0.0,-0.005884686950594187,-0.006878007669001818,-0.0009980772156268358,13587.0,15017.0,13596.0,13256.0,0.4120582640171051,0.5092674493789673,0.4126717150211334,0.39103081822395325,0.0,0.0,0.0,0.0,0.0,0.0,0.0,0.0,1.8649412393569946,0.030169821681531782,0.0214140454129485,-0.0008862363055880798,0.08517812192440033,0.030870327726006508,0.0,-0.005554988048970699,-0.0077974749729037285,0.0
330,5,-0.0013274704106152058,0.0009273621253669262,-0.004152841866016388,0.0029227593913674355,0.0034246332943439484,-0.034315843135118484,-0.0012956273276358843,-0.003975054249167442,-0.0008628290379419923,0.0,0.0,0.0,0.0,0.0,0.0,0.00893054623156786,-0.01895633339881897,-0.0,0.0,0.0,0.0,-0.005884686950594187,-0.006878007669001818,-0.0009980772156268358,13587.0,15017.0,13596.0,13256.0,0.4120582640171051,0.5092674493789673,0.4126717150211334,0.39103081822395325,0.0,0.0,0.0,0.0,0.0,0.0,0.0,0.0,1.8649412393569946,0.023150081735127236,0.02522669270384864,0.0009732085519523282,0.08517812192440033,0.030870327726006508,0.0,-0.005554988048970699,-0.0077974749729037285,0.0
335,5,2.5150178771582432e-05,-0.00036913546500727534,0.0018670414574444294,0.0029227593913674355,0.0034246332943439484,-0.034315843135118484,-0.0011536432430148125,-0.0018760908860713243,-0.0009599918266758323,0.0,0.0,0.0,0.0,0.0,0.0,-0.0025282998103648424,0.0009193096193484962,-0.0,0.0,0.0,0.0,-8.120205893646926e-05,-0.004137701820582151,-0.00032885867403820157,13541.0,14204.0,14033.0,13738.0,0.4091169238090515,0.45274198055267334,0.441280722618103,0.42188864946365356,0.0,0.0,0.0,0.0,0.0,0.0,0.0,0.0,1.648911952972412,0.051230724279696896,0.31587851630724767,0.040069616063168986,-0.00365266390144825,-0.007727405987679958,0.0,-0.005554988048970699,-0.0077974749729037285,0.0
340,5,-0.0013777721906080842,0.0010083469096571207,-0.004328042268753052,0.0029227593913674355,0.0034246332943439484,-0.034315843135118484,-0.0011536432430148125,-0.0018760908860713243,-0.0009599918266758323,0.0,0.0,0.0,0.0,0.0,0.0,-0.0025282998103648424,0.0009193096193484962,-0.0,0.0,0.0,0.0,-8.120205893646926e-05,-0.004137701820582151,-0.00032885867403820157,13541.0,14204.0,14033.0,13738.0,0.4091169238090515,0.45274198055267334,0.441280722618103,0.42188864946365356,0.0,0.0,0.0,0.0,0.0,0.0,0.0,0.0,1.648911952972412,0.028841644365097386,0.01909828949823746,-0.0075281524519843985,-0.00365266390144825,-0.007727405987679958,0.0,-0.005554988048970699,-0.0077974749729037285,0.0
345,5,-0.0014490580651909113,0.0009993735002353787,-0.004126578103750944,-0.007385198958218098,0.0024466747418045998,-0.03790207579731941,-0.0011536432430148125,-0.0018760908860713243,-0.0009599918266758323,0.0,0.0,0.0,0.0,0.0,0.0,-0.002383466111496091,0.0008491977932862937,-0.0,0.0,0.0,0.0,-8.120205893646926e-05,-0.004137701820582151,-0.00032885867403820157,13541.0,14204.0,14033.0,13738.0,0.4091169238090515,0.45274198055267334,0.441280722618103,0.42188864946365356,0.0,0.0,0.0,0.0,0.0,0.0,0.0,0.0,1.6474897861480713,0.02876259104280483,0.02314579249529344,-0.00042240146698253677,-0.003371181897819042,-0.007278460543602705,0.0,-0.005554988048970699,-0.0077974749729037285,0.0
350,5,-0.0013756772968918085,0.0009703256655484438,-0.0032411140855401754,0.005851613823324442,0.004464400000870228,-0.12141650170087814,-0.0004602637782227248,-0.0022445297800004482,-0.0007075958419591188,0.0,0.0,0.0,0.0,0.0,0.0,-0.002383466111496091,0.0008491977932862937,-0.0,0.0,0.0,0.0,-0.006662468425929546,-7.070435003697639e-06,0.0008285515359602869,14554.0,13921.0,13789.0,13228.0,0.47671592235565186,0.43384110927581787,0.425190269947052,0.3892809748649597,0.0,0.0,0.0,0.0,0.0,0.0,0.0,0.0,1.6474897861480713,0.015225802253636048,0.061020220005011894,0.0022728207457334785,-0.003371181897819042,-0.007278460543602705,0.0,-0.005554988048970699,-0.0077974749729037285,0.0
355,5,-0.000311738665914163,-0.0003890475200023502,0.00045502546709030867,0.005851613823324442,0.004464400000870228,-0.12141650170087814,-0.0004602637782227248,-0.0022445297800004482,-0.0007075958419591188,0.0,0.0,0.0,0.0,0.0,0.0,-0.0036658807657659054,0.003557591699063778,-0.0,0.0,0.0,0.0,-0.006662468425929546,-7.070435003697639e-06,0.0008285515359602869,14554.0,13921.0,13789.0,13228.0,0.47671592235565186,0.43384110927581787,0.425190269947052,0.3892809748649597,0.0,0.0,0.0,0.0,0.0,0.0,0.0,0.0,1.6752642393112183,0.06148186717285232,0.24683757065703038,0.047340824197348357,-0.014361092820763588,-0.011383306235074997,0.0,-0.005554988048970699,-0.0077974749729037285,0.0
360,5,-0.00022783013992011547,-0.0004766539204865694,0.0006712803151458502,0.012409668415784836,0.012298529967665672,-0.07451718300580978,-0.0022580521181225777,-0.003396051237359643,-0.00040775525849312544,0.0,0.0,0.0,0.0,0.0,0.0,-0.0036658807657659054,0.003557591699063778,-0.0,0.0,0.0,0.0,0.004958716221153736,0.003005413105711341,0.0005618704599328339,13710.0,12813.0,13890.0,13913.0,0.42003390192985535,0.3637215197086334,0.4318048655986786,0.43335166573524475,0.0,0.0,0.0,0.0,0.0,0.0,0.0,0.0,1.6752642393112183,0.06854223796733527,0.26367008390816504,0.0513250869995788,-0.014361092820763588,-0.011383306235074997,0.0,-0.0025282998103648424,0.0009193096193484962,0.0
365,5,-0.00021405826555565,-0.00043214778997935355,0.00022447830997407436,0.006616490893065929,-0.000421324250055477,0.023809364065527916,-0.0022580521181225777,-0.003396051237359643,-0.00040775525849312544,0.0,0.0,0.0,0.0,0.0,0.0,-0.014581406489014626,0.010421649552881718,-0.0,0.0,0.0,0.0,0.004958716221153736,0.003005413105711341,0.0005618704599328339,13710.0,12813.0,13890.0,13913.0,0.42003390192985535,0.3637215197086334,0.4318048655986786,0.43335166573524475,0.0,0.0,0.0,0.0,0.0,0.0,0.0,0.0,1.8027657270431519,0.06079695707619101,0.25161050094706655,0.048664876799213413,-0.04526615887880325,-0.048721350729465485,0.0,-0.0025282998103648424,0.0009193096193484962,0.0
371,5,-0.0005395154585130513,-0.0004930365830659866,0.0004740307049360126,-0.03640826791524887,0.007138127461075783,-0.020422540605068207,-0.002839572262018919,-0.0041758413426578045,-0.00029330907273106277,0.0,0.0,0.0,0.0,0.0,0.0,-0.014581406489014626,0.010421649552881718,-0.0,0.0,0.0,0.0,0.0024975615087896585,0.003385351737961173,0.00017632878734730184,13778.0,13071.0,13661.0,13811.0,0.42446643114089966,0.37952733039855957,0.4168456792831421,0.42665034532546997,0.0,0.0,0.0,0.0,0.0,0.0,0.0,0.0,1.8027657270431519,0.07406127388316655,0.2439175328280387,0.05454959305711716,-0.04526615887880325,-0.048721350729465485,0.0,-0.002383466111496091,0.0008491977932862937,0.0
376,5,-0.001503637759014964,0.001232682727277279,-0.004317213781177998,-0.03640826791524887,0.007138127461075783,-0.020422540605068207,-0.002839572262018919,-0.0041758413426578045,-0.00029330907273106277,0.0,0.0,0.0,0.0,0.0,0.0,-0.007964331656694412,-0.029016360640525818,-0.0,0.0,0.0,0.0,0.0024975615087896585,0.003385351737961173,0.00017632878734730184,13778.0,13071.0,13661.0,13811.0,0.42446643114089966,0.37952733039855957,0.4168456792831421,0.42665034532546997,0.0,0.0,0.0,0.0,0.0,0.0,0.0,0.0,1.9957576990127563,0.018531656654840984,0.020920169928058625,-0.00063776579351874,0.13951726257801056,-0.02946167066693306,0.0,-0.002383466111496091,0.0008491977932862937,0.0
381,5,-0.00144491798710078,0.0012647034600377083,-0.0033296591136604548,-0.007516932673752308,-0.000987243838608265,-0.12667560577392578,-0.0022624421399086714,-0.004124353639781475,-0.00010124182881554589,0.0,0.0,0.0,0.0,0.0,0.0,-0.007964331656694412,-0.029016360640525818,-0.0,0.0,0.0,0.0,-0.002594239776954055,0.001993653131648898,0.0002214589767390862,14037.0,13699.0,13411.0,13611.0,0.4415426552295685,0.41930708289146423,0.4007933437824249,0.4136211574077606,0.0,0.0,0.0,0.0,0.0,0.0,0.0,0.0,1.9957576990127563,0.014222615754448723,0.06006300113280996,-0.002973199895133503,0.13951726257801056,-0.02946167066693306,0.0,-0.0036658807657659054,0.003557591699063778,0.0
386,5,-0.0014712773263454437,0.0009192670113407075,-0.003135398495942354,-0.006169892381876707,0.04105747863650322,-0.07398149371147156,-0.0022624421399086714,-0.004124353639781475,-0.00010124182881554589,0.0,0.0,0.0,0.0,0.0,0.0,0.0033365003764629364,-0.008689336478710175,-0.0,0.0,0.0,0.0,-0.002594239776954055,0.001993653131648898,0.0002214589767390862,14037.0,13699.0,13411.0,13611.0,0.4415426552295685,0.41930708289146423,0.4007933437824249,0.4136211574077606,0.0,0.0,0.0,0.0,0.0,0.0,0.0,0.0,1.7269989252090454,0.01138527884173006,0.06848907273042062,0.0046662288944592555,0.03615952283143997,0.010680468752980232,0.0,-0.0036658807657659054,0.003557591699063778,0.0
391,5,-0.0012649609707295895,0.0006186835234984756,-0.002941943472251296,0.02229001186788082,0.052493005990982056,-0.05280721187591553,-0.001788221183232963,-0.0032834422308951616,-6.246892735362053e-05,0.0,0.0,0.0,0.0,0.0,0.0,0.0033365003764629364,-0.008689336478710175,-0.0,0.0,0.0,0.0,-0.01281607523560524,0.0013932082802057266,0.0003950881655327976,15174.0,14713.0,13467.0,13240.0,0.5205731391906738,0.4877558946609497,0.40439876914024353,0.39003798365592957,0.0,0.0,0.0,0.0,0.0,0.0,0.0,0.0,1.7269989252090454,0.014997357893648302,0.0812629130844061,0.016313755212593383,0.03615952283143997,0.010680468752980232,0.0,-0.014581406489014626,0.010421649552881718,0.0
396,5,-0.0005269957473501563,-0.0002093709772452712,0.00017943614511750638,0.02795194648206234,0.0013758338754996657,0.03962172195315361,-0.001788221183232963,-0.0032834422308951616,-6.246892735362053e-05,0.0,0.0,0.0,0.0,0.0,0.0,0.0033365003764629364,-0.008689336478710175,-0.0,0.0,0.0,0.0,-0.01281607523560524,0.0013932082802057266,0.0003950881655327976,15174.0,14713.0,13467.0,13240.0,0.5205731391906738,0.4877558946609497,0.40439876914024353,0.39003798365592957,0.0,0.0,0.0,0.0,0.0,0.0,0.0,0.0,1.7269989252090454,0.06148551834689121,0.2237109259089565,0.0482752544855612,0.03615952283143997,0.010680468752980232,0.0,-0.014581406489014626,0.010421649552881718,0.0
401,5,-0.000563285721000284,-0.00027603423222899437,0.0003874488756991923,0.006825982592999935,0.008549923077225685,-0.009112837724387646,-0.002423388184979558,-0.0006177921313792467,0.00016926333773881197,0.0,0.0,0.0,0.0,0.0,0.0,-0.0017912499606609344,0.02232583798468113,-0.0,0.0,0.0,0.0,-0.003876729868352413,-0.013218745589256287,0.0004926882102154195,14362.0,15784.0,15615.0,13610.0,0.4635235071182251,0.5656533241271973,0.5529971718788147,0.4135836958885193,0.0,0.0,0.0,0.0,0.0,0.0,0.0,0.0,1.894227385520935,0.06132032900448037,0.23665611128988293,0.05448471281041605,-0.10189550369977951,-0.006289214827120304,0.0,-0.007964331656694412,-0.029016360640525818,0.0
406,5,-0.0005737999454140663,-0.00028213084442541003,0.0005273264832794666,0.0014686875510960817,0.004151563625782728,-0.020430443808436394,-0.002423388184979558,-0.0006177921313792467,0.00016926333773881197,0.0,0.0,0.0,0.0,0.0,0.0,-0.0017912499606609344,0.02232583798468113,-0.0,0.0,0.0,0.0,-0.003876729868352413,-0.013218745589256287,0.0004926882102154195,14362.0,15784.0,15615.0,13610.0,0.4635235071182251,0.5656533241271973,0.5529971718788147,0.4135836958885193,0.0,0.0,0.0,0.0,0.0,0.0,0.0,0.0,1.894227385520935,0.06315968805934281,0.2412995610600998,0.05378338552063168,-0.10189550369977951,-0.006289214827120304,0.0,-0.007964331656694412,-0.029016360640525818,0.0
411,5,-0.0006478494615294039,-0.00029724909109063447,0.0002385002007940784,-0.008298464119434357,0.003474815981462598,0.026486974209547043,-0.0034854908008128405,0.0013186424039304256,0.000318848411552608,0.0,0.0,0.0,0.0,0.0,0.0,-0.005516148637980223,0.000576664344407618,-0.0,0.0,0.0,0.0,0.00937474425882101,0.0024692502338439226,0.00043164839735254645,12638.0,13533.0,15131.0,14128.0,0.3531937003135681,0.4086261987686157,0.517503023147583,0.44767600297927856,0.0,0.0,0.0,0.0,0.0,0.0,0.0,0.0,1.6723976135253906,0.054681386874941666,0.23352598978933592,0.053760315777625516,-0.0023238491266965866,-0.017099367454648018,0.0,-0.0017912499606609344,0.02232583798468113,0.0
416,5,-0.000672681606374681,-0.000252385507337749,0.0003033589746337384,-0.0062992456369102,-0.003993705380707979,0.002811737358570099,-0.0034854908008128405,0.0013186424039304256,0.000318848411552608,0.0,0.0,0.0,0.0,0.0,0.0,-0.005516148637980223,0.000576664344407618,-0.0,0.0,0.0,0.0,0.00937474425882101,0.0024692502338439226,0.00043164839735254645,12638.0,13533.0,15131.0,14128.0,0.3531937003135681,0.4086261987686157,0.517503023147583,0.44767600297927856,0.0,0.0,0.0,0.0,0.0,0.0,0.0,0.0,1.6723976135253906,0.06485662382583146,0.22920220529360563,0.04598284000047919,-0.0023238491266965866,-0.017099367454648018,0.0,-0.0017912499606609344,0.02232583798468113,0.0
422,5,-0.0008241797331720591,-0.0002917600213550031,0.0007664697477594018,-0.02069947123527527,0.003127462463453412,-0.05444859713315964,-0.005918551702052355,0.003385211108252406,0.00043690711027011275,0.0,0.0,0.0,0.0,0.0,0.0,0.004298423882573843,-0.006646051537245512,-0.0,0.0,0.0,0.0,0.003533681621775031,-0.0015155243454501033,0.0002489793405402452,14221.0,13644.0,14970.0,15146.0,0.45392340421676636,0.4157266616821289,0.5059787631034851,0.5185984969139099,0.0,0.0,0.0,0.0,0.0,0.0,0.0,0.0,1.7079782485961914,0.06662631587107275,0.24391982430676895,0.056206130117206876,0.0273521039634943,0.013608106411993504,0.0,-0.005516148637980223,0.000576664344407618,0.0
427,5,-0.000590221956372261,-7.355602974712383e-06,0.002200113143771887,-0.02069947123527527,0.003127462463453412,-0.05444859713315964,-0.005918551702052355,0.003385211108252406,0.00043690711027011275,0.0,0.0,0.0,0.0,0.0,0.0,0.004298423882573843,-0.006646051537245512,-0.0,0.0,0.0,0.0,0.003533681621775031,-0.0015155243454501033,0.0002489793405402452,14221.0,13644.0,14970.0,15146.0,0.45392340421676636,0.4157266616821289,0.5059787631034851,0.5185984969139099,0.0,0.0,0.0,0.0,0.0,0.0,0.0,0.0,1.7079782485961914,0.04846068521191393,0.3097862672882875,0.04153906957078505,0.0273521039634943,0.013608106411993504,0.0,-0.005516148637980223,0.000576664344407618,0.0
432,5,-0.0004958621575497091,0.00012191883433843032,0.0025454419665038586,0.003043384989723563,-0.014261947013437748,-0.06321890652179718,-0.006570778787136078,0.0038054503966122866,0.0005042657139711082,0.0,0.0,0.0,0.0,0.0,0.0,-0.0034407121129333973,-0.018226327374577522,-0.0,0.0,0.0,0.0,0.013539004139602184,-0.0025350875221192837,0.0005532298819161952,12947.0,12855.0,15061.0,14272.0,0.3718875050544739,0.36629700660705566,0.5124421715736389,0.45735156536102295,0.0,0.0,0.0,0.0,0.0,0.0,0.0,0.0,1.8421798944473267,0.044642022049708054,0.32590381623912956,0.037425042694491345,0.08090148866176605,-0.011748634278774261,0.0,0.004298423882573843,-0.006646051537245512,0.0
437,5,-0.0005181898595765233,7.724157330812886e-05,0.002455907640978694,-0.0014619703870266676,-0.00034350791247561574,-0.014543449506163597,-0.006570778787136078,0.0038054503966122866,0.0005042657139711082,0.0,0.0,0.0,0.0,0.0,0.0,-0.0034407121129333973,-0.018226327374577522,-0.0,0.0,0.0,0.0,0.013539004139602184,-0.0025350875221192837,0.0005532298819161952,12947.0,12855.0,15061.0,14272.0,0.3718875050544739,0.36629700660705566,0.5124421715736389,0.45735156536102295,0.0,0.0,0.0,0.0,0.0,0.0,0.0,0.0,1.8421798944473267,0.04586254193248225,0.32188834424442814,0.040862047812281976,0.08090148866176605,-0.011748634278774261,0.0,0.004298423882573843,-0.006646051537245512,0.0
442,5,-0.0005270913825370371,6.459686119342223e-05,0.002398713259026408,-0.0016529677668586373,0.0013799621956422925,0.001045953598804772,-0.007201853208243847,0.003733745776116848,0.0007002909551374614,0.0,0.0,0.0,0.0,0.0,0.0,0.0005670355167239904,-0.002105704275891185,-0.0,0.0,0.0,0.0,0.0036089459899812937,-0.009135015308856964,0.0004551823949441314,12947.0,12855.0,15061.0,14272.0,0.3718875050544739,0.36629700660705566,0.5124421715736389,0.45735156536102295,0.0,0.0,0.0,0.0,0.0,0.0,0.0,0.0,1.6489014625549316,0.04631506360800184,0.3172560559330112,0.04330004600026116,0.008366496302187443,0.0017330595292150974,0.0,-0.0034407121129333973,-0.018226327374577522,0.0
447,5,-0.0005578576237894595,2.4213271899498068e-05,0.0023757133167237043,-0.0043531376868486404,0.005398015957325697,0.003178354585543275,-0.007201853208243847,0.003733745776116848,0.0007002909551374614,0.0,0.0,0.0,0.0,0.0,0.0,0.0005670355167239904,-0.002105704275891185,-0.0,0.0,0.0,0.0,0.0036089459899812937,-0.009135015308856964,0.0004551823949441314,12947.0,12855.0,15061.0,14272.0,0.3718875050544739,0.36629700660705566,0.5124421715736389,0.45735156536102295,0.0,0.0,0.0,0.0,0.0,0.0,0.0,0.0,1.6489014625549316,0.047833775316019886,0.3140969118709577,0.04607073806712303,0.008366496302187443,0.0017330595292150974,0.0,-0.0034407121129333973,-0.018226327374577522,0.0
452,5,-0.0004975745687261224,-5.347233673091978e-05,0.0023151994682848454,0.005492708180099726,0.011481479741632938,0.008533009327948093,-0.00517874164506793,0.006020428612828255,0.0012992438860237598,0.0,0.0,0.0,0.0,0.0,0.0,-0.0063715483993291855,-0.004740048665553331,-0.0,0.0,0.0,0.0,0.0031323754228651524,-0.0041207983158528805,0.0012515428243204951,13443.0,13189.0,14496.0,13184.0,0.40286293625831604,0.3868211805820465,0.472699910402298,0.3865174353122711,0.0,0.0,0.0,0.0,0.0,0.0,0.0,0.0,1.7010419368743896,0.053754978792872686,0.312540670164203,0.04718126784283041,0.019428499042987823,-0.020089225843548775,0.0,0.0005670355167239904,-0.002105704275891185,0.0
458,5,-0.0020099894609302282,0.0011670275125652552,-0.0037407197523862123,0.005492708180099726,0.011481479741632938,0.008533009327948093,-0.00517874164506793,0.006020428612828255,0.0012992438860237598,0.0,0.0,0.0,0.0,0.0,0.0,-0.0063715483993291855,-0.004740048665553331,-0.0,0.0,0.0,0.0,0.0031323754228651524,-0.0041207983158528805,0.0012515428243204951,13443.0,13189.0,14496.0,13184.0,0.40286293625831604,0.3868211805820465,0.472699910402298,0.3865174353122711,0.0,0.0,0.0,0.0,0.0,0.0,0.0,0.0,1.7010419368743896,0.007427944619645003,0.03184967737861854,-0.0022485128921400253,0.019428499042987823,-0.020089225843548775,0.0,0.0005670355167239904,-0.002105704275891185,0.0
463,5,-0.0022252611815929413,0.0008583423914387822,-0.003655337728559971,-0.023635517805814743,0.041634801775217056,-0.006832639221101999,-0.00517874164506793,0.006020428612828255,0.0012992438860237598,0.0,0.0,0.0,0.0,0.0,0.0,-0.01143553201109171,0.0022824518382549286,-0.0,0.0,0.0,0.0,0.0031323754228651524,-0.0041207983158528805,0.0012515428243204951,13443.0,13189.0,14496.0,13184.0,0.40286293625831604,0.3868211805820465,0.472699910402298,0.3865174353122711,0.0,0.0,0.0,0.0,0.0,0.0,0.0,0.0,1.7273623943328857,0.030443449180064214,0.02015168767307358,0.012519461631407299,-0.009499662555754185,-0.036612652242183685,0.0,0.0005670355167239904,-0.002105704275891185,0.0
468,5,-0.0022784024477005005,0.0011297047603875399,-0.0037644251715391874,-0.01583116501569748,-0.015909569337964058,0.010357414372265339,-0.005613445304334164,0.006654811091721058,0.0013201074907556176,0.0,0.0,0.0,0.0,0.0,0.0,-0.01143553201109171,0.0022824518382549286,-0.0,0.0,0.0,0.0,0.0023627576883882284,-0.005961943417787552,0.00039044112781994045,13296.0,13950.0,14543.0,13332.0,0.3935184180736542,0.43577489256858826,0.47594812512397766,0.39580050110816956,0.0,0.0,0.0,0.0,0.0,0.0,0.0,0.0,1.7273623943328857,0.022511084561471707,0.022676293281530726,0.0016322366559168675,-0.009499662555754185,-0.036612652242183685,0.0,-0.0063715483993291855,-0.004740048665553331,0.0
473,5,-0.0022863384801894426,0.0009700036607682705,-0.0036079445853829384,-0.007284798193722963,0.012800309807062149,-0.014634697698056698,-0.005613445304334164,0.006654811091721058,0.0013201074907556176,0.0,0.0,0.0,0.0,0.0,0.0,0.018885230645537376,-0.015861764550209045,-0.0,0.0,0.0,0.0,0.0023627576883882284,-0.005961943417787552,0.00039044112781994045,13296.0,13950.0,14543.0,13332.0,0.3935184180736542,0.43577489256858826,0.47594812512397766,0.39580050110816956,0.0,0.0,0.0,0.0,0.0,0.0,0.0,0.0,1.8828585147857666,0.01665948695979346,0.030250438246843512,0.010095441132504655,0.07194910943508148,0.0659024640917778,0.0,-0.0063715483993291855,-0.004740048665553331,0.0
478,5,-0.002381219994276762,0.0011122514260932803,-0.0037490087561309338,-0.014299691654741764,-0.011949609033763409,0.011073828674852848,-0.006046083755791187,0.008462824858725071,0.0011488974560052156,0.0,0.0,0.0,0.0,0.0,0.0,0.018885230645537376,-0.015861764550209045,-0.0,0.0,0.0,0.0,-0.0043143038637936115,-0.0038051498122513294,-0.0004292997473385185,13779.0,14549.0,13696.0,13514.0,0.42454811930656433,0.476346880197525,0.41909393668174744,0.40737345814704895,0.0,0.0,0.0,0.0,0.0,0.0,0.0,0.0,1.8828585147857666,0.01649174538544003,0.022315663944472812,0.0048583402882884244,0.07194910943508148,0.0659024640917778,0.0,-0.01143553201109171,0.0022824518382549286,0.0
483,5,-0.0024052888620644808,0.0010540420189499855,-0.002977876691147685,-0.008608151227235794,0.0022052815183997154,-0.08810631185770035,-0.006046083755791187,0.008462824858725071,0.0011488974560052156,0.0,0.0,0.0,0.0,0.0,0.0,0.014877782203257084,-0.014998304657638073,-0.0,0.0,0.0,0.0,-0.0043143038637936115,-0.0038051498122513294,-0.0004292997473385185,13779.0,14549.0,13696.0,13514.0,0.42454811930656433,0.476346880197525,0.41909393668174744,0.40737345814704895,0.0,0.0,0.0,0.0,0.0,0.0,0.0,0.0,1.8480602502822876,0.003208426798939668,0.056871179118381916,0.004917175837744748,0.06677991151809692,0.05096051096916199,0.0,-0.01143553201109171,0.0022824518382549286,0.0
488,5,-0.0023860514629632235,0.0011601900914683938,-0.0038967507425695658,-0.001134752295911312,-0.011855648830533028,0.07502234727144241,-0.0063217016868293285,0.008779323659837246,0.0011274376884102821,0.0,0.0,0.0,0.0,0.0,0.0,0.014877782203257084,-0.014998304657638073,-0.0,0.0,0.0,0.0,0.027263972908258438,-0.008134576492011547,-5.951746425125748e-05,11931.0,13317.0,16504.0,15633.0,0.3122960925102234,0.3948901891708374,0.6213133335113525,0.5543588399887085,0.0,0.0,0.0,0.0,0.0,0.0,0.0,0.0,1.8480602502822876,0.015041974231910983,0.02199908258732727,-0.004898616318062947,0.06677991151809692,0.05096051096916199,0.0,0.018885230645537376,-0.015861764550209045,0.0
493,5,-0.0025703217834234238,0.0011774301528930664,-0.003684688126668334,-0.022566355764865875,-0.006811067927628756,0.004561436362564564,-0.0063217016868293285,0.008779323659837246,0.0011274376884102821,0.0,0.0,0.0,0.0,0.0,0.0,0.015512415207922459,-0.004092132207006216,-0.0,0.0,0.0,0.0,0.027263972908258438,-0.008134576492011547,-5.951746425125748e-05,11931.0,13317.0,16504.0,15633.0,0.3122960925102234,0.3948901891708374,0.6213133335113525,0.5543588399887085,0.0,0.0,0.0,0.0,0.0,0.0,0.0,0.0,1.76952064037323,0.023645133218014595,0.02184196911360733,-0.0024073783528308895,0.01744631491601467,0.05087588354945183,0.0,0.018885230645537376,-0.015861764550209045,0.0
498,5,-0.002802841830998659,0.0015149646205827594,-0.0036322488449513912,-0.0369289331138134,-0.04322856292128563,-0.004468140192329884,-0.006073154043406248,0.00978684052824974,0.001193341100588441,0.0,0.0,0.0,0.0,0.0,0.0,0.015512415207922459,-0.004092132207006216,-0.0,0.0,0.0,0.0,0.024954410269856453,-0.00955429021269083,0.0004297472187317908,12395.0,13501.0,16226.0,14930.0,0.33885782957077026,0.4065632224082947,0.5995209813117981,0.5031182169914246,0.0,0.0,0.0,0.0,0.0,0.0,0.0,0.0,1.76952064037323,0.03250347247685011,0.01276584707536733,-0.006467656426760952,0.01744631491601467,0.05087588354945183,0.0,0.018885230645537376,-0.015861764550209045,0.0
503,5,-0.0028721082489937544,0.0013652801280841231,-0.0035843842197209597,-0.02308354340493679,0.0006707074935548007,-0.007531012408435345,-0.006073154043406248,0.00978684052824974,0.001193341100588441,0.0,0.0,0.0,0.0,0.0,0.0,0.04173177108168602,-0.029007665812969208,-0.0,0.0,0.0,0.0,0.024954410269856453,-0.00955429021269083,0.0004297472187317908,12395.0,13501.0,16226.0,14930.0,0.33885782957077026,0.4065632224082947,0.5995209813117981,0.5031182169914246,0.0,0.0,0.0,0.0,0.0,0.0,0.0,0.0,2.2051055431365967,0.025366026362455628,0.016441182054619204,-0.005169636160368442,0.1539766490459442,0.170480877161026,0.0,0.018885230645537376,-0.015861764550209045,0.0
