timestamp,dt,pos_x,pos_y,pos_z,vel_x,vel_y,vel_z,roll,pitch,yaw,agv_x,agv_y,agv_z,x_ref,y_ref,z_ref,roll_ref,pitch_ref,yaw_ref,x_vel_ref,y_vel_ref,z_vel_ref,x_torque,y_torque,z_torque,w0,w1,w2,w3,u0,u1,u2,u3,m0req,m1req,m2req,m3req,thrust0,thrust1,thrust2,thrust3,thrust_ref,roll_vicon,pitch_vicon,yaw_vicon,acc_x,acc_y,acc_z,roll_received,pitch_received,yaw_received
5,5,0.0,0.0,0.0,0.0004725432372651994,0.00011538834223756567,0.0013718537520617247,-0.005004548002034426,-0.10251814126968384,0.004113378468900919,-7.862802158342674e-05,0.0012204732047393918,-0.0019798038993030787,0.0,0.0,0.0,-0.00014315653243102133,0.0004509697901085019,-0.0,0.0,0.0,0.0,0.0009560106554999948,0.030928360298275948,0.0003886721679009497,1495.0,1495.0,1495.0,1495.0,0.0,0.0,0.0,0.0,0.0,0.0,0.0,0.0,1495.0,1495.0,1495.0,1495.0,1.6306977272033691,0.043710047251788495,-0.052765591625766814,0.04562999972050447,-0.0017720371251925826,-0.00043270629248581827,0.0,-0.00014315653243102133,0.0004509697901085019,0.0
35,30,0.0,0.0,0.0,-0.0005735532031394541,-0.00036274181911721826,0.0004749314393848181,-0.005004548002034426,-0.10251814126968384,0.004113378468900919,-7.862802158342674e-05,0.0012204732047393918,-0.0019798038993030787,0.0,0.0,0.0,-0.00014315653243102133,0.0004509697901085019,-0.0,0.0,0.0,0.0,0.0009560106554999948,0.030928360298275948,0.0003886721679009497,1495.0,1495.0,1495.0,1495.0,0.0,0.0,0.0,0.0,0.0,0.0,0.0,0.0,1495.0,1495.0,1495.0,1495.0,1.6306977272033691,0.04335851033692186,-0.05261429171606941,0.04540894574402331,-0.0017720371251925826,-0.00043270629248581827,0.0,-0.00014315653243102133,0.0004509697901085019,0.0
41,5,0.0,0.0,0.0,0.0005156100960448384,0.0009243501699529588,0.0036055620294064283,-0.005004548002034426,-0.10251814126968384,0.004113378468900919,-7.862802158342674e-05,0.0012204732047393918,-0.0019798038993030787,0.0,0.0,0.0,-0.001142717432230711,0.0004903210210613906,-0.0,0.0,0.0,0.0,0.0009560106554999948,0.030928360298275948,0.0003886721679009497,1495.0,1495.0,1495.0,1495.0,0.0,0.0,0.0,0.0,0.0,0.0,0.0,0.0,1495.0,1495.0,1495.0,1495.0,1.6365171670913696,0.04332866461071985,-0.05274216485499528,0.04563139598448826,-0.0019335378892719746,-0.003466313239187002,0.0,-0.00014315653243102133,0.0004509697901085019,0.0
46,5,0.0,0.0,0.0,-0.0006718116346746683,-0.00010156755161006004,-0.0007566430140286684,-0.00500503508374095,-0.10256718099117279,0.004093779716640711,-0.0017649485962465405,0.0011521303094923496,0.00013343655155040324,0.0,0.0,0.0,-0.001142717432230711,0.0004903210210613906,-0.0,0.0,0.0,0.0,0.000962085323408246,0.03094761073589325,0.00040246755816042423,1495.0,1495.0,1495.0,1495.0,0.0,0.0,0.0,0.0,0.0,0.0,0.0,0.0,1495.0,1495.0,1495.0,1495.0,1.6365171670913696,0.043334589743050884,-0.052798757805530235,0.04555489298512311,-0.0019335378892719746,-0.003466313239187002,0.0,-0.00014315653243102133,0.0004509697901085019,0.0
51,5,-9.589064120518742e-07,-3.5600462524598697e-06,4.659824298869353e-06,-0.00019914530275855213,0.00026515257195569575,-0.0008568039629608393,-0.00500503508374095,-0.10256718099117279,0.004093779716640711,-0.0017649485962465405,0.0011521303094923496,0.00013343655155040324,0.0,0.0,0.0,-0.00033575756242498755,-0.00019157574570272118,-0.0,0.0,0.0,0.0,0.000962085323408246,0.03094761073589325,0.00040246755816042423,1495.0,1495.0,1495.0,1495.0,0.0,0.0,0.0,0.0,0.0,0.0,0.0,0.0,1495.0,1495.0,1495.0,1495.0,1.629172682762146,0.04337891047712325,-0.05276284474905816,0.04559910591845619,0.0007520721992477775,-0.0010139148216694593,0.0,-0.00014315653243102133,0.0004509697901085019,0.0
62,11,1.3876460798201151e-06,-1.3584226508100983e-05,-3.957824446843006e-06,0.00014693108096253127,0.0006025424809195101,0.0002743292134255171,-0.00500503508374095,-0.10256718099117279,0.004093779716640711,-0.0017649485962465405,0.0011521303094923496,0.00013343655155040324,0.0,0.0,0.0,-0.00033575756242498755,-0.00019157574570272118,-0.0,0.0,0.0,0.0,0.000962085323408246,0.03094761073589325,0.00040246755816042423,1495.0,1495.0,1495.0,1495.0,0.0,0.0,0.0,0.0,0.0,0.0,0.0,0.0,1495.0,1495.0,1495.0,1495.0,1.629172682762146,0.04314428549842179,-0.05292531832621601,0.045522286527633335,0.0007520721992477775,-0.0010139148216694593,0.0,-0.00014315653243102133,0.0004509697901085019,0.0
67,5,-1.7590062952876906e-06,-6.752754302397079e-07,-1.1703611562552396e-05,-0.00031882585608400404,-0.001308057107962668,0.0010392260737717152,-0.005011805798858404,-0.10254348814487457,0.004129020031541586,-0.0017738055903464556,-0.0003107445954810828,0.002131514251232147,0.0,0.0,0.0,-0.0007715424872003496,0.00014202961756382138,-0.0,0.0,0.0,0.0,0.0009827015455812216,0.03089512325823307,0.000520801346283406,15680.0,10830.0,11407.0,15460.0,0.5578809380531311,0.2535640299320221,0.2836019694805145,0.5414701700210571,0.0,0.0,0.0,0.0,1495.0,1495.0,1495.0,1495.0,1.6322616338729858,0.04321296511292461,-0.05230673073053816,0.04540774706220052,-0.0005586250917986035,-0.0023343076463788748,0.0,-0.00014315653243102133,0.0004509697901085019,0.0
72,5,-7.515416200476466e-06,-7.171195193222957e-07,-9.36465585255064e-06,-0.0008182995370589197,-0.0005182015593163669,0.00013501584180630744,-0.005011805798858404,-0.10254348814487457,0.004129020031541586,-0.0017738055903464556,-0.0003107445954810828,0.002131514251232147,0.0,0.0,0.0,0.0006396220996975899,-0.0007890501292422414,-0.0,0.0,0.0,0.0,0.0009827015455812216,0.03089512325823307,0.000520801346283406,15680.0,10830.0,11407.0,15460.0,0.5578809380531311,0.2535640299320221,0.2836019694805145,0.5414701700210571,0.0,0.0,0.0,0.0,1495.0,1495.0,1495.0,1495.0,1.6356924772262573,0.043462790551802875,-0.05252901061560666,0.0453463228545715,0.0031099829357117414,0.001939249224960804,0.0,-0.00014315653243102133,0.0004509697901085019,0.0
77,5,-3.8082193896116223e-06,-2.0438169485714752e-06,-9.324577149527613e-06,0.00011754382285289466,-4.8076919483719394e-05,4.91968312417157e-05,-0.005011302884668112,-0.10253950953483582,0.0041366638615727425,-0.002239841502159834,0.005245623644441366,-0.0018644005758687854,0.0,0.0,0.0,0.0006396220996975899,-0.0007890501292422414,-0.0,0.0,0.0,0.0,0.0007750616641715169,0.03095296211540699,0.00041764951311051846,15653.0,10871.0,11358.0,15495.0,0.5558078289031982,0.2556605339050293,0.2809508442878723,0.5440979599952698,0.0,0.0,0.0,0.0,15623.0,10815.0,11372.0,15454.0,1.6356924772262573,0.04317449330569154,-0.05262382165762422,0.04561047200707077,0.0031099829357117414,0.001939249224960804,0.0,-0.001142717432230711,0.0004903210210613906,0.0
83,5,2.9174013889132766e-06,-4.393069502839353e-06,2.761789573924034e-06,0.0008540920098312199,0.0002626795321702957,-0.0014306852826848626,-0.005011302884668112,-0.10253950953483582,0.0041366638615727425,-0.002239841502159834,0.005245623644441366,-0.0018644005758687854,0.0,0.0,0.0,0.0006396220996975899,-0.0007890501292422414,-0.0,0.0,0.0,0.0,0.0007750616641715169,0.03095296211540699,0.00041764951311051846,15653.0,10871.0,11358.0,15495.0,0.5558078289031982,0.2556605339050293,0.2809508442878723,0.5440979599952698,0.0,0.0,0.0,0.0,15623.0,10815.0,11372.0,15454.0,1.6356924772262573,0.0431025442038811,-0.053141439291522555,0.045641863086288266,0.0031099829357117414,0.001939249224960804,0.0,-0.001142717432230711,0.0004903210210613906,0.0
88,5,2.1793769064970547e-06,-2.641783339640824e-06,1.6630865502520464e-05,0.00025307387113571167,-0.00010508251580176875,-0.0022365632466971874,-0.005011302884668112,-0.10253950953483582,0.0041366638615727425,-0.002239841502159834,0.005245623644441366,-0.0018644005758687854,0.0,0.0,0.0,-0.00033305425313301384,0.0008170729852281511,-0.0,0.0,0.0,0.0,0.0009235519682988524,0.030818767845630646,0.00046366453170776367,15649.0,10782.0,11408.0,15424.0,0.5555390119552612,0.251138299703598,0.2836286127567291,0.5388667583465576,0.0,0.0,0.0,0.0,15623.0,10815.0,11372.0,15454.0,1.634901523590088,0.04312594536289553,-0.052836085809513454,0.04532482228723952,-0.0032188761979341507,-0.0010092880111187696,0.0,-0.00033575756242498755,-0.00019157574570272118,0.0
93,5,7.3777064244495705e-06,-3.314592959213769e-06,-3.770832961436099e-07,0.0007250290946103632,3.870413638651371e-05,0.0011463285190984607,-0.005011302884668112,-0.10253950953483582,0.0041366638615727425,-0.002239841502159834,0.005245623644441366,-0.0018644005758687854,0.0,0.0,0.0,-0.00033305425313301384,0.0008170729852281511,-0.0,0.0,0.0,0.0,0.0009235519682988524,0.030818767845630646,0.00046366453170776367,15649.0,10782.0,11408.0,15424.0,0.5555390119552612,0.251138299703598,0.2836286127567291,0.5388667583465576,0.0,0.0,0.0,0.0,15623.0,10815.0,11372.0,15454.0,1.634901523590088,0.04347129397502547,-0.05229464092228632,0.04549757702895139,-0.0032188761979341507,-0.0010092880111187696,0.0,-0.00033575756242498755,-0.00019157574570272118,0.0
98,5,1.5795165381859988e-05,-1.497393623139942e-05,-7.787527465552557e-06,0.0013001066399738193,0.001414602855220437,0.0013477846514433622,-0.005011302884668112,-0.10253950953483582,0.0041366638615727425,-0.002239841502159834,0.005245623644441366,-0.0018644005758687854,0.0,0.0,0.0,-5.399470683187246e-05,0.0007011611596681178,-0.0,0.0,0.0,0.0,0.0009235519682988524,0.030818767845630646,0.00046366453170776367,15649.0,10782.0,11408.0,15424.0,0.5555390119552612,0.251138299703598,0.2836286127567291,0.5388667583465576,0.0,0.0,0.0,0.0,15623.0,10815.0,11372.0,15454.0,1.633249282836914,0.04336355796338433,-0.05276886049844562,0.04564386109683022,-0.0027594477869570255,-0.00016346026677638292,0.0,-0.00033575756242498755,-0.00019157574570272118,0.0
103,5,1.2680292456934694e-05,-1.3885896805732045e-05,-8.697102202859242e-06,0.00014625802577938884,0.0004352764517534524,0.0006482628523372114,-0.005011982750147581,-0.10258032381534576,0.004146088846027851,-0.002138249110430479,-0.0037289573810994625,-6.504597695311531e-05,0.0,0.0,0.0,-0.0005653449334204197,0.00015734545013401657,-0.0,0.0,0.0,0.0,0.0008637759601697326,0.03088122233748436,0.0004479631606955081,15617.0,10854.0,11435.0,15475.0,0.5531689524650574,0.2548014521598816,0.2850891351699829,0.5426328778266907,0.0,0.0,0.0,0.0,15617.0,10871.0,11330.0,15494.0,1.6306791305541992,0.04313360654312745,-0.05313160119865914,0.045815821453294096,-0.000618264835793525,-0.0017087971791625023,0.0,-0.0007715424872003496,0.00014202961756382138,0.0
108,5,-0.0006950410315766931,-0.00021023530280217528,-0.0003444828907959163,-0.08486805856227875,0.02373603917658329,0.04055359959602356,-0.005011982750147581,-0.10258032381534576,0.004146088846027851,-0.002138249110430479,-0.0037289573810994625,-6.504597695311531e-05,0.0,0.0,0.0,-0.0005653449334204197,0.00015734545013401657,-0.0,0.0,0.0,0.0,0.0008637759601697326,0.03088122233748436,0.0004479631606955081,15617.0,10854.0,11435.0,15475.0,0.5531689524650574,0.2548014521598816,0.2850891351699829,0.5426328778266907,0.0,0.0,0.0,0.0,15617.0,10871.0,11330.0,15494.0,1.6306791305541992,0.057657719527156266,-0.0850719408842906,0.04086206386239657,-0.000618264835793525,-0.0017087971791625023,0.0,-0.0007715424872003496,0.00014202961756382138,0.0
113,5,-0.0007040937780402601,-0.0001989019219763577,-0.00031740174745209515,-0.03503355383872986,0.008134409785270691,0.012971702963113785,-0.005018369760364294,-0.10255523025989532,0.004160727374255657,0.0006114409770816565,-0.0005720470799133182,0.00323926261626184,0.0,0.0,0.0,-0.008581445552408695,-0.02825854904949665,-0.0,0.0,0.0,0.0,0.001142027205787599,0.030612925067543983,0.0004385267093311995,15637.0,10828.0,11453.0,15461.0,0.5546318292617798,0.2534595727920532,0.28605562448501587,0.5415454506874084,0.0,0.0,0.0,0.0,15695.0,10765.0,11427.0,15453.0,1.9866058826446533,0.05774029631714652,-0.0849258798769973,0.041421446240487526,0.1352507472038269,-0.031598832458257675,0.0,0.0006396220996975899,-0.0007890501292422414,0.0
118,5,-0.0007089883438311517,-0.00021213956642895937,-0.0003295830392744392,-0.01460077054798603,0.004842281341552734,0.006650433875620365,-0.005017475225031376,-0.10256479680538177,0.004177662078291178,-0.001387344324029982,0.008088783361017704,0.0005291025736369193,0.0,0.0,0.0,-0.008581445552408695,-0.02825854904949665,-0.0,0.0,0.0,0.0,0.0009943183977156878,0.03115197643637657,0.00029907270800322294,15661.0,10815.0,11358.0,15503.0,0.5564670562744141,0.25279879570007324,0.28099024295806885,0.5446454286575317,0.0,0.0,0.0,0.0,15666.0,10784.0,11378.0,15483.0,1.9866058826446533,0.05781657911800449,-0.08486451689313992,0.041409880156405086,0.1352507472038269,-0.031598832458257675,0.0,-5.399470683187246e-05,0.0007011611596681178,0.0
123,5,-0.0007111372542567551,-0.00019569382129702717,-0.0003279892262071371,-0.006098175887018442,-3.657538763945922e-05,0.0024689161218702793,-0.005017475225031376,-0.10256479680538177,0.004177662078291178,-0.001387344324029982,0.008088783361017704,0.0005291025736369193,0.0,0.0,0.0,-0.008581445552408695,-0.02825854904949665,-0.0,0.0,0.0,0.0,0.0009943183977156878,0.03115197643637657,0.00029907270800322294,15661.0,10815.0,11358.0,15503.0,0.5564670562744141,0.25279879570007324,0.28099024295806885,0.5446454286575317,0.0,0.0,0.0,0.0,15666.0,10784.0,11378.0,15483.0,1.9866058826446533,0.05773104551728141,-0.08439676153570115,0.04134761994119183,0.1352507472038269,-0.031598832458257675,0.0,-5.399470683187246e-05,0.0007011611596681178,0.0
128,5,-0.0007154970080591738,-0.00018874458328355104,-0.00031528505496680737,-0.002962440950796008,-0.0008485392318107188,-0.0005369335412979126,-0.005017475225031376,-0.10256479680538177,0.004177662078291178,-0.001387344324029982,0.008088783361017704,0.0005291025736369193,0.0,0.0,0.0,-0.00029888434801250696,-0.006546402350068092,-0.0,0.0,0.0,0.0,0.0009943183977156878,0.03115197643637657,0.00029907270800322294,15661.0,10815.0,11358.0,15503.0,0.5564670562744141,0.25279879570007324,0.28099024295806885,0.5446454286575317,0.0,0.0,0.0,0.0,15666.0,10784.0,11378.0,15483.0,1.6979660987854004,0.05748613573255405,-0.08452470114299797,0.041289505125558734,0.02678431198000908,-0.0009406774770468473,0.0,-5.399470683187246e-05,0.0007011611596681178,0.0
133,5,-0.0007013661088421941,-0.0001809764507925138,-0.00033662404166534543,0.0005107307224534452,-0.0012715925695374608,0.0023459058720618486,-0.005035899579524994,-0.10257263481616974,0.00415280694141984,-0.0013536775950342417,-0.0024009174667298794,-0.00093877874314785,0.0,0.0,0.0,-0.00029888434801250696,-0.006546402350068092,-0.0,0.0,0.0,0.0,0.0009166418458335102,0.030942417681217194,0.0004961859085597098,15642.0,10807.0,11370.0,15461.0,0.5550498962402344,0.25242751836776733,0.2816321849822998,0.5415695309638977,0.0,0.0,0.0,0.0,15616.0,10849.0,11328.0,15490.0,1.6979660987854004,0.05736966641863093,-0.0845277216923818,0.04145244331446321,0.02678431198000908,-0.0009406774770468473,0.0,-0.0005653449334204197,0.00015734545013401657,0.0
138,5,-0.0006959788734093308,-0.00018454356177244335,-0.0003320680116303265,0.0008507617167197168,-8.058227103902027e-05,0.00039163845940493047,-0.005042339209467173,-0.10255395621061325,0.004141749814152718,-0.00010555673361523077,0.00539568904787302,0.003559401724487543,0.0,0.0,0.0,0.0012425767490640283,-0.0004941748920828104,-0.0,0.0,0.0,0.0,-0.0006890557706356049,0.02246987074613571,0.0003995156439486891,16406.0,13171.0,13446.0,16029.0,0.6135861277580261,0.38571488857269287,0.40301913022994995,0.5842857360839844,0.0,0.0,0.0,0.0,16427.0,13146.0,13468.0,16009.0,1.6372654438018799,0.057408481862194986,-0.08400610093602671,0.04189377293623327,0.0019496259046718478,0.003770949086174369,0.0,-0.008581445552408695,-0.02825854904949665,0.0
144,5,-0.0006952431285753846,-0.00018273161549586803,-0.0003271740861237049,0.0004285938339307904,-0.00024966715136542916,-0.0004306165501475334,-0.005042339209467173,-0.10255395621061325,0.004141749814152718,-0.00010555673361523077,0.00539568904787302,0.003559401724487543,0.0,0.0,0.0,0.0012425767490640283,-0.0004941748920828104,-0.0,0.0,0.0,0.0,-0.0006890557706356049,0.02246987074613571,0.0003995156439486891,16406.0,13171.0,13446.0,16029.0,0.6135861277580261,0.38571488857269287,0.40301913022994995,0.5842857360839844,0.0,0.0,0.0,0.0,16427.0,13146.0,13468.0,16009.0,1.6372654438018799,0.05727740655651129,-0.08421895725096361,0.04176699196867955,0.0019496259046718478,0.003770949086174369,0.0,-0.008581445552408695,-0.02825854904949665,0.0
149,5,-0.0006855013780295849,-0.00018285357509739697,-0.00033220151090063155,0.00134045141749084,-8.523104770574719e-05,0.0004310437070671469,-0.005042339209467173,-0.10255395621061325,0.004141749814152718,-0.00010555673361523077,0.00539568904787302,0.003559401724487543,0.0,0.0,0.0,-2.3660417355131358e-05,-0.0005662204930558801,-0.0,0.0,0.0,0.0,-0.0006890557706356049,0.02246987074613571,0.0003995156439486891,16406.0,13171.0,13446.0,16029.0,0.6135861277580261,0.38571488857269287,0.40301913022994995,0.5842857360839844,0.0,0.0,0.0,0.0,16427.0,13146.0,13468.0,16009.0,1.6317927837371826,0.0571798051576584,-0.08469819012283047,0.04163659984060176,0.002226396230980754,-7.156422361731529e-05,0.0,-0.008581445552408695,-0.02825854904949665,0.0
154,5,-0.0006834319792687893,-0.00018153835844714195,-0.00031686766305938363,0.000784503121394664,-0.0001919190544867888,-0.0016676436644047499,-0.005010485183447599,-0.10256867855787277,0.004163503181189299,0.004837705288082361,-0.002627622103318572,0.0011703060008585453,0.0,0.0,0.0,-2.3660417355131358e-05,-0.0005662204930558801,-0.0,0.0,0.0,0.0,0.0009291532915085554,0.02898082509636879,0.00040334477671422064,15744.0,11309.0,11842.0,15569.0,0.5626805424690247,0.27838587760925293,0.3073465824127197,0.5495531558990479,0.0,0.0,0.0,0.0,15784.0,11253.0,11889.0,15533.0,1.6317927837371826,0.057038127393650065,-0.0848607540362837,0.041634317217461386,0.002226396230980754,-7.156422361731529e-05,0.0,-0.00029888434801250696,-0.006546402350068092,0.0
159,5,-0.0006825015880167484,-0.00019037083256989717,-0.0003076986176893115,0.0004254531813785434,0.0009831293718889356,-0.0017673427937552333,-0.005010485183447599,-0.10256867855787277,0.004163503181189299,0.004837705288082361,-0.002627622103318572,0.0011703060008585453,0.0,0.0,0.0,-2.3660417355131358e-05,-0.0005662204930558801,-0.0,0.0,0.0,0.0,0.0009291532915085554,0.02898082509636879,0.00040334477671422064,15744.0,11309.0,11842.0,15569.0,0.5626805424690247,0.27838587760925293,0.3073465824127197,0.5495531558990479,0.0,0.0,0.0,0.0,15784.0,11253.0,11889.0,15533.0,1.6317927837371826,0.05734238576614571,-0.08428821603780552,0.04204518452557996,0.002226396230980754,-7.156422361731529e-05,0.0,-0.00029888434801250696,-0.006546402350068092,0.0
164,5,-0.0006874432438053191,-0.00020983026479370892,-0.00030455051455646753,-0.0004228191974107176,0.0027283828239887953,-0.0010847095400094986,-0.00499736750498414,-0.10257977992296219,0.004190464504063129,-0.0005605537444353104,0.0026174720842391253,3.9645496144657955e-05,0.0,0.0,0.0,-0.0015584893990308046,-0.0005492783966474235,-0.0,0.0,0.0,0.0,0.0012735911877825856,0.030841248109936714,0.00043609848944470286,15634.0,10825.0,11431.0,15503.0,0.5544097423553467,0.2533034384250641,0.2848912179470062,0.5446609854698181,0.0,0.0,0.0,0.0,15648.0,10804.0,11449.0,15489.0,1.6398823261260986,0.056472048511472556,-0.08491093592640239,0.04147515667175039,0.0021704838145524263,-0.004737233277410269,0.0,0.0012425767490640283,-0.0004941748920828104,0.0
169,5,-0.0006796849775128067,-0.0001843292557168752,-0.00033143535256385803,0.0007618654053658247,-0.0019687667954713106,0.0027922969311475754,-0.00499736750498414,-0.10257977992296219,0.004190464504063129,-0.0005605537444353104,0.0026174720842391253,3.9645496144657955e-05,0.0,0.0,0.0,-0.0015584893990308046,-0.0005492783966474235,-0.0,0.0,0.0,0.0,0.0012735911877825856,0.030841248109936714,0.00043609848944470286,15634.0,10825.0,11431.0,15503.0,0.5544097423553467,0.2533034384250641,0.2848912179470062,0.5446609854698181,0.0,0.0,0.0,0.0,15648.0,10804.0,11449.0,15489.0,1.6398823261260986,0.05670368505259212,-0.08504434524550132,0.04145410600941768,0.0021704838145524263,-0.004737233277410269,0.0,0.0012425767490640283,-0.0004941748920828104,0.0
174,5,-0.0006821001879870892,-0.0001853014255175367,-0.000311301089823246,1.491670172981685e-05,-0.0006708466680720448,-0.001299190567806363,-0.004981484264135361,-0.1025998592376709,0.004147098865360022,0.009180593304336071,0.004980384837836027,-0.021130908280611038,0.0,0.0,0.0,0.0020897923968732357,-0.0002262496273033321,-0.0,0.0,0.0,0.0,0.0009963345946744084,0.030866073444485664,0.0003800161648541689,15495.0,11026.0,11181.0,15609.0,0.5440561771392822,0.2635625898838043,0.271643728017807,0.5525302886962891,0.0,0.0,0.0,0.0,15538.0,10970.0,11228.0,15570.0,1.643178105354309,0.05654391465756572,-0.08462568006052469,0.04213004693427551,0.000895825563929975,0.00636496115475893,0.0,-2.3660417355131358e-05,-0.0005662204930558801,0.0
179,5,-0.0006901430897414684,-0.00020469677110668272,-0.0003007577615790069,-0.0009591815760359168,0.0020591015927493572,-0.0017848786665126681,-0.004981484264135361,-0.1025998592376709,0.004147098865360022,0.009180593304336071,0.004980384837836027,-0.021130908280611038,0.0,0.0,0.0,0.0020897923968732357,-0.0002262496273033321,-0.0,0.0,0.0,0.0,0.0009963345946744084,0.030866073444485664,0.0003800161648541689,15495.0,11026.0,11181.0,15609.0,0.5440561771392822,0.2635625898838043,0.271643728017807,0.5525302886962891,0.0,0.0,0.0,0.0,15538.0,10970.0,11228.0,15570.0,1.643178105354309,0.056476650187953725,-0.08467286623460807,0.04119321118773431,0.000895825563929975,0.00636496115475893,0.0,-2.3660417355131358e-05,-0.0005662204930558801,0.0
184,5,-0.000685729319229722,-0.00019447403610683978,-0.0003059067530557513,0.0001459808408981189,-0.0004030868294648826,-9.606998355593532e-05,-0.004888596944510937,-0.10265454649925232,0.004453735426068306,-0.01168045774102211,0.018934231251478195,0.04106714576482773,0.0,0.0,0.0,-0.002882197964936495,-0.0018557776929810643,-0.0,0.0,0.0,0.0,0.001355206361040473,0.030932359397411346,-0.0032235048711299896,16225.0,10019.0,12130.0,14924.0,0.5994565486907959,0.21421584486961365,0.3235644996166229,0.5026453733444214,0.0,0.0,0.0,0.0,15419.0,11235.0,11014.0,15761.0,1.6570059061050415,0.055071773198605546,-0.08604757380968793,0.04088914277601938,0.00740968668833375,-0.008852283470332623,0.0,0.0020897923968732357,-0.0002262496273033321,0.0
189,5,-0.0006773200584575534,-0.00016767301713116467,-0.00031396112171933055,0.0010675088269636035,-0.003377357730641961,0.0009280946105718613,-0.004888596944510937,-0.10265454649925232,0.004453735426068306,-0.01168045774102211,0.018934231251478195,0.04106714576482773,0.0,0.0,0.0,-0.002882197964936495,-0.0018557776929810643,-0.0,0.0,0.0,0.0,0.001355206361040473,0.030932359397411346,-0.0032235048711299896,16225.0,10019.0,12130.0,14924.0,0.5994565486907959,0.21421584486961365,0.3235644996166229,0.5026453733444214,0.0,0.0,0.0,0.0,15419.0,11235.0,11014.0,15761.0,1.6570059061050415,0.05692388255254581,-0.0841115119837235,0.0430823711709449,0.00740968668833375,-0.008852283470332623,0.0,0.0020897923968732357,-0.0002262496273033321,0.0
194,5,-0.0006547802477143705,-0.00018252564768772572,-0.0003153985016979277,0.003131774952635169,0.0004313727840781212,0.0005437235231511295,-0.004921800456941128,-0.10265948623418808,0.0037386640906333923,0.01885080337524414,-0.01434965617954731,0.02884526737034321,0.0,0.0,0.0,0.0038203662261366844,6.473605026258156e-05,-0.0,0.0,0.0,0.0,0.000494771811645478,0.030638370662927628,0.0024274608585983515,15239.0,11436.0,10876.0,15931.0,0.525317907333374,0.2851696014404297,0.2558993101119995,0.5767912268638611,0.0,0.0,0.0,0.0,17060.0,8360.0,13345.0,13961.0,1.6575373411178589,0.0572543142175904,-0.08357328955299778,0.0416984733773799,-0.0002585581678431481,0.011737482622265816,0.0,-0.002882197964936495,-0.0018557776929810643,0.0
199,5,-0.0006741551915183663,-0.00018953562539536506,-0.0003064422926399857,-0.0010722811566665769,0.0010137464851140976,-0.0008572543738409877,-0.004921800456941128,-0.10265948623418808,0.0037386640906333923,0.01885080337524414,-0.01434965617954731,0.02884526737034321,0.0,0.0,0.0,0.0038203662261366844,6.473605026258156e-05,-0.0,0.0,0.0,0.0,0.000494771811645478,0.030638370662927628,0.0024274608585983515,15239.0,11436.0,10876.0,15931.0,0.525317907333374,0.2851696014404297,0.2558993101119995,0.5767912268638611,0.0,0.0,0.0,0.0,17060.0,8360.0,13345.0,13961.0,1.6575373411178589,0.05664988029422532,-0.0838798999283795,0.041310849140187254,-0.0002585581678431481,0.011737482622265816,0.0,-0.002882197964936495,-0.0018557776929810643,0.0
204,5,-0.0006628654664382339,-0.00017396296607330441,-0.00029134933720342815,0.0009258530335500836,-0.001463219872675836,-0.002154057379812002,-0.004808379802852869,-0.10265092551708221,0.004933477379381657,-0.015971489250659943,0.03736194968223572,-0.15931537747383118,0.0,0.0,0.0,-0.0015853251097723842,-0.00194878363981843,-0.0,0.0,0.0,0.0,0.0018052700906991959,0.030949780717492104,0.0005514814401976764,14967.0,12039.0,10355.0,16268.0,0.5057302117347717,0.3183772563934326,0.23012852668762207,0.6027699112892151,0.0,0.0,0.0,0.0,13874.0,13302.0,8573.0,17232.0,1.650520920753479,0.05658480787014956,-0.08310677669575407,0.04271880957911783,0.007750607095658779,-0.0048500653356313705,0.0,0.0038203662261366844,6.473605026258156e-05,0.0
210,5,-0.0006420795107260346,-0.00017944849969353527,-0.0002678098971955478,0.002864657901227474,7.2976436058525e-05,-0.003686355659738183,-0.004808379802852869,-0.10265092551708221,0.004933477379381657,-0.015971489250659943,0.03736194968223572,-0.15931537747383118,0.0,0.0,0.0,-0.0015853251097723842,-0.00194878363981843,-0.0,0.0,0.0,0.0,0.0018052700906991959,0.030949780717492104,0.0005514814401976764,14967.0,12039.0,10355.0,16268.0,0.5057302117347717,0.3183772563934326,0.23012852668762207,0.6027699112892151,0.0,0.0,0.0,0.0,13874.0,13302.0,8573.0,17232.0,1.650520920753479,0.05656811318342953,-0.08237031849316477,0.042645181946399977,0.007750607095658779,-0.0048500653356313705,0.0,0.0038203662261366844,6.473605026258156e-05,0.0
215,5,-0.0006193669978529215,-0.00017790895071811974,-0.00023312869598157704,0.003871361957862973,-0.0001555561029817909,-0.005636286456137896,-0.0048716263845562935,-0.10281742364168167,0.004185006953775883,0.022919034585356712,-0.01459953561425209,0.1764676570892334,0.0,0.0,0.0,-0.00041550269816070795,0.0018125701462849975,-0.0,0.0,0.0,0.0,0.0005004615522921085,0.030458489432930946,-0.003167918883264065,13850.0,13272.0,8744.0,17112.0,0.4291899800300598,0.39203327894210815,0.1590036153793335,0.6702940464019775,0.0,0.0,0.0,0.0,17223.0,8144.0,13531.0,13921.0,1.6455316543579102,0.05560422353791809,-0.08071953909604762,0.042339120735921165,-0.00718708336353302,-0.0012673267628997564,0.0,-0.0015853251097723842,-0.00194878363981843,0.0
220,5,-0.0005844859988428652,-0.000172119471244514,-0.00021828105673193932,0.005734270438551903,-0.0007569593726657331,-0.004036231432110071,-0.0048716263845562935,-0.10281742364168167,0.004185006953775883,0.022919034585356712,-0.01459953561425209,0.1764676570892334,0.0,0.0,0.0,-0.00041550269816070795,0.0018125701462849975,-0.0,0.0,0.0,0.0,0.0005004615522921085,0.030458489432930946,-0.003167918883264065,13850.0,13272.0,8744.0,17112.0,0.4291899800300598,0.39203327894210815,0.1590036153793335,0.6702940464019775,0.0,0.0,0.0,0.0,17223.0,8144.0,13531.0,13921.0,1.6455316543579102,0.05509807754854465,-0.07947983240430292,0.043330508903176,-0.00718708336353302,-0.0012673267628997564,0.0,-0.0015853251097723842,-0.00194878363981843,0.0
225,5,-0.0005418873624876142,-0.00013804963964503258,-0.00013189339370001107,0.007405541371554136,-0.004391164053231478,-0.011981012299656868,-0.0048716263845562935,-0.10281742364168167,0.004185006953775883,0.022919034585356712,-0.01459953561425209,0.1764676570892334,0.0,0.0,0.0,0.0006068952498026192,0.004523890092968941,-0.0,0.0,0.0,0.0,0.0005004615522921085,0.030458489432930946,-0.003167918883264065,13850.0,13272.0,8744.0,17112.0,0.4291899800300598,0.39203327894210815,0.1590036153793335,0.6702940464019775,0.0,0.0,0.0,0.0,17223.0,8144.0,13531.0,13921.0,1.6753522157669067,0.05341311591526254,-0.07688483684974014,0.04395602983283556,-0.018262848258018494,0.0018846398452296853,0.0,-0.0015853251097723842,-0.00194878363981843,0.0
230,5,-0.0004820265749003738,-0.00013492976722773165,-3.5823391954181716e-05,0.010145510546863079,-0.0021308492869138718,-0.01632080413401127,-0.0047023724764585495,-0.10283476114273071,0.0042159948498010635,0.030209463089704514,-0.060678593814373016,-0.1934622973203659,0.0,0.0,0.0,0.0006068952498026192,0.004523890092968941,-0.0,0.0,0.0,0.0,0.00032386250677518547,0.02924363873898983,0.004005890805274248,16739.0,9208.0,12912.0,14276.0,0.6400235295295715,0.17813771963119507,0.3697574734687805,0.45761293172836304,0.0,0.0,0.0,0.0,14796.0,12197.0,10337.0,16236.0,1.6753522157669067,0.05169155257500875,-0.0744109977730088,0.043827675742384144,-0.018262848258018494,0.0018846398452296853,0.0,-0.0015853251097723842,-0.00194878363981843,0.0
235,5,-0.00044204830192029476,-9.550078539177775e-05,8.519583934685215e-05,0.008855598047375679,-0.005583818536251783,-0.021050628274679184,-0.004309127572923899,-0.101686492562294,0.004463071934878826,0.02655601128935814,-0.1263115555047989,0.09878669679164886,0.0,0.0,0.0,0.0022675595246255398,0.00851982831954956,-0.0,0.0,0.0,0.0,0.0010206496808677912,0.027411306276917458,-0.004944533575326204,16739.0,9208.0,12912.0,14276.0,0.6400235295295715,0.17813771963119507,0.3697574734687805,0.45761293172836304,0.0,0.0,0.0,0.0,15620.0,11014.0,11504.0,15444.0,1.7227405309677124,0.05004870336849099,-0.07251796271247689,0.04430913819565797,-0.03536684066057205,0.007240797858685255,0.0,-0.00041550269816070795,0.0018125701462849975,0.0
240,5,-0.0004329269577283412,-4.8664667701814324e-05,0.0002575912221800536,0.004636801313608885,-0.007853860966861248,-0.029107699170708656,-0.004309127572923899,-0.101686492562294,0.004463071934878826,0.02655601128935814,-0.1263115555047989,0.09878669679164886,0.0,0.0,0.0,0.0022675595246255398,0.00851982831954956,-0.0,0.0,0.0,0.0,0.0010206496808677912,0.027411306276917458,-0.004944533575326204,16739.0,9208.0,12912.0,14276.0,0.6400235295295715,0.17813771963119507,0.3697574734687805,0.45761293172836304,0.0,0.0,0.0,0.0,15620.0,11014.0,11504.0,15444.0,1.7227405309677124,0.048903575973033034,-0.07274960325591984,0.04597457344981718,-0.03536684066057205,0.007240797858685255,0.0,-0.00041550269816070795,0.0018125701462849975,0.0
245,5,-0.00047679906128905714,-3.176089012413286e-05,0.0004390606191009283,-0.003409932367503643,-0.005169997923076153,-0.0334194041788578,-0.004309127572923899,-0.101686492562294,0.004463071934878826,0.02655601128935814,-0.1263115555047989,0.09878669679164886,0.0,0.0,0.0,0.009183904156088829,0.0036266548559069633,-0.0,0.0,0.0,0.0,0.0010206496808677912,0.027411306276917458,-0.004944533575326204,16739.0,9208.0,12912.0,14276.0,0.6400235295295715,0.17813771963119507,0.3697574734687805,0.45761293172836304,0.0,0.0,0.0,0.0,15620.0,11014.0,11504.0,15444.0,1.713983416557312,0.047876151165902416,-0.07442440349817012,0.04541461802747953,-0.01497771218419075,0.02917638048529625,0.0,-0.00041550269816070795,0.0018125701462849975,0.0
250,5,-0.0005493859644047916,-3.124712748103775e-05,0.0006204566452652216,-0.010074400343000889,-0.0021296509075909853,-0.035135284066200256,-0.004428069107234478,-0.09968215972185135,0.0033829177264124155,0.007412954233586788,-0.46324673295021057,-0.05770433694124222,0.0,0.0,0.0,0.009183904156088829,0.0036266548559069633,-0.0,0.0,0.0,0.0,0.0003850815410260111,0.02294810116291046,0.003978107590228319,14375.0,12811.0,10250.0,16516.0,0.464407742023468,0.3636135458946228,0.22509229183197021,0.6222386360168457,0.0,0.0,0.0,0.0,16320.0,10214.0,13089.0,14377.0,1.713983416557312,0.047426254282949505,-0.07837023897352358,0.04487751001536938,-0.01497771218419075,0.02917638048529625,0.0,0.0006068952498026192,0.004523890092968941,0.0
255,5,-0.0007041069911792874,1.9965362298535183e-05,0.0008880100795067847,-0.02259628288447857,-0.006997358985245228,-0.04616052657365799,-0.004428069107234478,-0.09968215972185135,0.0033829177264124155,0.007412954233586788,-0.46324673295021057,-0.05770433694124222,0.0,0.0,0.0,0.002424238482490182,-0.009754234924912453,-0.0,0.0,0.0,0.0,0.0003850815410260111,0.02294810116291046,0.003978107590228319,14375.0,12811.0,10250.0,16516.0,0.464407742023468,0.3636135458946228,0.22509229183197021,0.6222386360168457,0.0,0.0,0.0,0.0,13497.0,14060.0,10493.0,16695.0,1.7372444868087769,0.04697164582583587,-0.08527508674183626,0.04623796809457361,0.04083174094557762,0.007806278765201569,0.0,0.009183904156088829,0.0036266548559069633,0.0
260,5,-0.0008794868481345475,2.9751763577223755e-05,0.0011675579007714987,-0.030084095895290375,-0.003973311744630337,-0.052009955048561096,-0.003916081506758928,-0.09211502224206924,0.004332204349339008,0.06104069948196411,-0.898135244846344,-0.08747903257608414,0.0,0.0,0.0,0.002424238482490182,-0.009754234924912453,-0.0,0.0,0.0,0.0,0.002225518226623535,0.01151354145258665,-0.0015704133547842503,15906.0,12070.0,12384.0,15311.0,0.5338284969329834,0.3201476037502289,0.33822396397590637,0.530540406703949,0.0,0.0,0.0,0.0,13497.0,14060.0,10493.0,16695.0,1.7372444868087769,0.04789730090512236,-0.09321267342066604,0.04651510924785874,0.04083174094557762,0.007806278765201569,0.0,0.009183904156088829,0.0036266548559069633,0.0
265,5,-0.0011189986253157258,2.8523772925836965e-05,0.0014892747858539224,-0.04077504947781563,-0.0014419659273698926,-0.05940999835729599,-0.003916081506758928,-0.09211502224206924,0.004332204349339008,0.06104069948196411,-0.898135244846344,-0.08747903257608414,0.0,0.0,0.0,0.004195375367999077,-0.02522924914956093,-0.0,0.0,0.0,0.0,0.002225518226623535,0.01151354145258665,-0.0015704133547842503,15906.0,12070.0,12384.0,15311.0,0.5338284969329834,0.3201476037502289,0.33822396397590637,0.530540406703949,0.0,0.0,0.0,0.0,13497.0,14060.0,10493.0,16695.0,1.9360705614089966,0.04842232310987386,-0.10371763095051556,0.04547415762496139,0.11768673360347748,0.015055605210363865,0.0,0.009183904156088829,0.0036266548559069633,0.0
271,5,-0.0013953017769381404,5.2852832595817745e-05,0.0017653292743489146,-0.04946639761328697,-0.0034962736535817385,-0.056890543550252914,-0.003388699609786272,-0.08213752508163452,0.0032424319069832563,0.07927779853343964,-1.6856367588043213,0.12004534900188446,0.0,0.0,0.0,0.004195375367999077,-0.02522924914956093,-0.0,0.0,0.0,0.0,0.001690839184448123,0.001550252316519618,-0.0008938226965256035,12789.0,14560.0,12964.0,14911.0,0.36226388812065125,0.4770808517932892,0.3729310929775238,0.5017075538635254,0.0,0.0,0.0,0.0,16044.0,11004.0,15395.0,12230.0,1.9360705614089966,0.05016826370900738,-0.11675638430063846,0.046494426494583393,0.11768673360347748,0.015055605210363865,0.0,0.009183904156088829,0.0036266548559069633,0.0
276,5,-0.0017075958894565701,5.5123091442510486e-05,0.002070044633001089,-0.05726185813546181,-0.0016709406627342105,-0.05932207033038139,-0.003388699609786272,-0.08213752508163452,0.0032424319069832563,0.07927779853343964,-1.6856367588043213,0.12004534900188446,0.0,0.0,0.0,0.0034090846311300993,-0.037837713956832886,-0.0,0.0,0.0,0.0,0.001690839184448123,0.001550252316519618,-0.0008938226965256035,12789.0,14560.0,12964.0,14911.0,0.36226388812065125,0.4770808517932892,0.3729310929775238,0.5017075538635254,0.0,0.0,0.0,0.0,16044.0,11004.0,15395.0,12230.0,2.1196491718292236,0.0514324168798054,-0.13112338513275976,0.0487275346238136,0.19321222603321075,0.013393953442573547,0.0,0.009183904156088829,0.0036266548559069633,0.0
281,5,-0.0023903774563223124,4.893009827355854e-05,0.002688327105715871,-0.06851085275411606,0.0010008092503994703,-0.06024788320064545,-0.0019312583608552814,-0.05935627594590187,0.0037551121786236763,0.13904687762260437,-2.257631540298462,-0.1717655509710312,0.0,0.0,0.0,0.0034090846311300993,-0.037837713956832886,-0.0,0.0,0.0,0.0,-0.0006355157238431275,-0.014033643528819084,0.002566415350884199,12789.0,14560.0,12964.0,14911.0,0.36226388812065125,0.4770808517932892,0.3729310929775238,0.5017075538635254,0.0,0.0,0.0,0.0,11974.0,15542.0,13340.0,14583.0,2.1196491718292236,0.052971482229671796,-0.15940941239166334,0.048436774510460204,0.19321222603321075,0.013393953442573547,0.0,0.002424238482490182,-0.009754234924912453,0.0
286,5,-0.0027946741320192814,8.281901682494208e-05,0.0030329518485814333,-0.07591993361711502,-0.003666346427053213,-0.06545411795377731,-0.0019312583608552814,-0.05935627594590187,0.0037551121786236763,0.13904687762260437,-2.257631540298462,-0.1717655509710312,0.0,0.0,0.0,-0.0008202277822420001,-0.04883051663637161,-0.0,0.0,0.0,0.0,-0.0006355157238431275,-0.014033643528819084,0.002566415350884199,12789.0,14560.0,12964.0,14911.0,0.36226388812065125,0.4770808517932892,0.3729310929775238,0.5017075538635254,0.0,0.0,0.0,0.0,11974.0,15542.0,13340.0,14583.0,2.2965216636657715,0.05462037911808194,-0.1751289851241519,0.05001529211696885,0.27011021971702576,-0.003491511568427086,0.0,0.002424238482490182,-0.009754234924912453,0.0
291,5,-0.003157592611387372,0.00010304807801730931,0.003298818599432707,-0.07391819357872009,-0.003894026158377528,-0.058085668832063675,-0.0008006795542314649,-0.039201680570840836,0.003935814369469881,0.12148414552211761,-2.803586483001709,0.18054895102977753,0.0,0.0,0.0,-0.0008202277822420001,-0.04883051663637161,-0.0,0.0,0.0,0.0,0.0014716102741658688,-0.03230419382452965,-0.004089675843715668,9669.0,18098.0,15068.0,14475.0,0.1982499063014984,0.7536213994026184,0.5129249691963196,0.4712742269039154,0.0,0.0,0.0,0.0,14408.0,15009.0,17560.0,10821.0,2.2965216636657715,0.05572938929592676,-0.19070576910434597,0.051852213527927744,0.27011021971702576,-0.003491511568427086,0.0,0.004195375367999077,-0.02522924914956093,0.0
296,5,-0.003157592611387372,0.00010304807801730931,0.003298818599432707,-0.07391819357872009,-0.003894026158377528,-0.058085668832063675,-0.0008006795542314649,-0.039201680570840836,0.003935814369469881,0.12148414552211761,-2.803586483001709,0.18054895102977753,0.0,0.0,0.0,0.0034781163558363914,-0.05201125890016556,-0.0,0.0,0.0,0.0,0.0014716102741658688,-0.03230419382452965,-0.004089675843715668,9669.0,18098.0,15068.0,14475.0,0.1982499063014984,0.7536213994026184,0.5129249691963196,0.4712742269039154,0.0,0.0,0.0,0.0,14408.0,15009.0,17560.0,10821.0,2.3518476486206055,0.05572938929592676,-0.19070576910434597,0.051852213527927744,0.29461848735809326,0.015162130817770958,0.0,0.004195375367999077,-0.02522924914956093,0.0
301,5,-0.0038593236822634935,0.0001335878623649478,0.0037687430158257484,-0.07074825465679169,-0.003493552329018712,-0.05065307766199112,0.0005489386385306716,-0.003988608252257109,0.00315871462225914,0.09540759772062302,-3.09430193901062,-0.21860887110233307,0.0,0.0,0.0,0.0034781163558363914,-0.05201125890016556,-0.0,0.0,0.0,0.0,-0.000954145158175379,-0.04517462104558945,0.004145508166402578,9669.0,18098.0,15068.0,14475.0,0.1982499063014984,0.7536213994026184,0.5129249691963196,0.4712742269039154,0.0,0.0,0.0,0.0,10771.0,18609.0,16665.0,13957.0,2.3518476486206055,0.057247493960785864,-0.21774500472033986,0.052661054147059794,0.28660422563552856,0.013828790746629238,0.0,0.0034090846311300993,-0.037837713956832886,0.0
306,5,-0.004170279949903488,0.00017108987958636135,0.003953248728066683,-0.06561406701803207,-0.00589766213670373,-0.04240192100405693,0.0005489386385306716,-0.003988608252257109,0.00315871462225914,0.09540759772062302,-3.09430193901062,-0.21860887110233307,0.0,0.0,0.0,0.003196485573425889,-0.05098199099302292,-0.0,0.0,0.0,0.0,-0.000954145158175379,-0.04517462104558945,0.004145508166402578,9669.0,18098.0,15068.0,14475.0,0.1982499063014984,0.7536213994026184,0.5129249691963196,0.4712742269039154,0.0,0.0,0.0,0.0,10771.0,18609.0,16665.0,13957.0,2.3340182304382324,0.05720447251331312,-0.230404119618326,0.05380810209872419,0.28660422563552856,0.013828790746629238,0.0,0.0034090846311300993,-0.037837713956832886,0.0
311,5,-0.004493031185120344,0.00020084965217392892,0.0041588242165744305,-0.06497573107481003,-0.0059302374720573425,-0.04162979498505592,0.0010489828418940306,0.021178778260946274,0.0038166074082255363,0.04111899808049202,-3.1126413345336914,0.17215991020202637,0.0,0.0,0.0,0.003196485573425889,-0.05098199099302292,-0.0,0.0,0.0,0.0,0.00020568018953781575,-0.05632762610912323,-0.0030157563742250204,10827.0,19631.0,18210.0,13188.0,0.25340208411216736,0.8929527401924133,0.7634102702140808,0.38675662875175476,0.0,0.0,0.0,0.0,12789.0,17487.0,18877.0,10415.0,2.3340182304382324,0.05744229183151057,-0.24051258626095554,0.05366542474606271,0.28660422563552856,0.013828790746629238,0.0,-0.0008202277822420001,-0.04883051663637161,0.0
317,5,-0.004780680872499943,0.0002422301477054134,0.004316770005971193,-0.06050829216837883,-0.007337755523622036,-0.035605430603027344,0.0010489828418940306,0.021178778260946274,0.0038166074082255363,0.04111899808049202,-3.1126413345336914,0.17215991020202637,0.0,0.0,0.0,0.005485909525305033,-0.04856355860829353,-0.0,0.0,0.0,0.0,0.00020568018953781575,-0.05632762610912323,-0.0030157563742250204,10827.0,19631.0,18210.0,13188.0,0.25340208411216736,0.8929527401924133,0.7634102702140808,0.38675662875175476,0.0,0.0,0.0,0.0,12789.0,17487.0,18877.0,10415.0,2.295048236846924,0.056312008370904706,-0.24886737153765792,0.05329194731612458,0.26845839619636536,0.023337002843618393,0.0,-0.0008202277822420001,-0.04883051663637161,0.0
322,5,-0.005003670230507851,0.0003104387142229825,0.004430108238011599,-0.050961993634700775,-0.011120130307972431,-0.02784278802573681,0.0011577433906495571,0.07653775066137314,0.0041632745414972305,-0.07207968086004257,-2.2106943130493164,0.06084698438644409,0.0,0.0,0.0,0.005485909525305033,-0.04856355860829353,-0.0,0.0,0.0,0.0,-4.9702426622388884e-05,-0.05960264056921005,0.003643553704023361,13147.0,18498.0,20131.0,10512.0,0.38423794507980347,0.7888913750648499,0.9409806132316589,0.2377377152442932,0.0,0.0,0.0,0.0,12111.0,19159.0,19327.0,11999.0,2.295048236846924,0.054597001951477604,-0.2546438162187743,0.05458045049301565,0.26845839619636536,0.023337002843618393,0.0,0.0034781163558363914,-0.05201125890016556,0.0
327,5,-0.005173961631953716,0.0003808560431934893,0.004537004046142101,-0.04081977531313896,-0.01289813220500946,-0.023964598774909973,0.0011577433906495571,0.07653775066137314,0.0041632745414972305,-0.07207968086004257,-2.2106943130493164,0.06084698438644409,0.0,0.0,0.0,0.010698667727410793,-0.04148736596107483,-0.0,0.0,0.0,0.0,-4.9702426622388884e-05,-0.05960264056921005,0.003643553704023361,13147.0,18498.0,20131.0,10512.0,0.38423794507980347,0.7888913750648499,0.9409806132316589,0.2377377152442932,0.0,0.0,0.0,0.0,12111.0,19159.0,19327.0,11999.0,2.1887481212615967,0.053031795807222046,-0.2584303338775025,0.055821257017243484,0.21873290836811066,0.04340292513370514,0.0,0.0034781163558363914,-0.05201125890016556,0.0
332,5,-0.005299597978591919,0.0004196222289465368,0.0046141124330461025,-0.03140430897474289,-0.009811191819608212,-0.018838830292224884,0.00011586157779674977,0.09711039066314697,0.003371891099959612,-0.13899247348308563,-1.340774416923523,0.025774016976356506,0.0,0.0,0.0,0.010698667727410793,-0.04148736596107483,-0.0,0.0,0.0,0.0,0.0017450239975005388,-0.05821588262915611,-0.002891773823648691,12079.0,19000.0,19140.0,12278.0,0.320674329996109,0.8341812491416931,0.8470906615257263,0.332071989774704,0.0,0.0,0.0,0.0,11238.0,19592.0,19057.0,12560.0,2.1887481212615967,0.0522362526494221,-0.2592594717583505,0.05532972350058389,0.21873290836811066,0.04340292513370514,0.0,0.003196485573425889,-0.05098199099302292,0.0
337,5,-0.00537208653986454,0.0004351114621385932,0.004640277475118637,-0.0212603360414505,-0.0057831876911222935,-0.010675358586013317,0.00011586157779674977,0.09711039066314697,0.003371891099959612,-0.13899247348308563,-1.340774416923523,0.025774016976356506,0.0,0.0,0.0,0.010445808991789818,-0.030225006863474846,-0.0,0.0,0.0,0.0,0.0017450239975005388,-0.05821588262915611,-0.002891773823648691,12079.0,19000.0,19140.0,12278.0,0.320674329996109,0.8341812491416931,0.8470906615257263,0.332071989774704,0.0,0.0,0.0,0.0,11238.0,19592.0,19057.0,12560.0,2.0192975997924805,0.05203598842478285,-0.2574314617671716,0.05344132303073322,0.14703774452209473,0.03909638524055481,0.0,0.003196485573425889,-0.05098199099302292,0.0
342,5,-0.0053842077031731606,0.0005020444514229894,0.0046149129047989845,-0.009958689101040363,-0.010345233604311943,-0.001226402586326003,-0.0013949575368314981,0.10361519455909729,0.004119632299989462,-0.20082926750183105,-0.3143123984336853,-0.10346274077892303,0.0,0.0,0.0,0.010445808991789818,-0.030225006863474846,-0.0,0.0,0.0,0.0,0.004135303199291229,-0.03890744969248772,-0.0030589275993406773,12097.0,18651.0,18561.0,13019.0,0.32166823744773865,0.8025476336479187,0.794516384601593,0.37631604075431824,0.0,0.0,0.0,0.0,10889.0,19344.0,17527.0,14424.0,2.0192975997924805,0.05042073886281796,-0.2526825139952441,0.05207760429159389,0.14703774452209473,0.03909638524055481,0.0,0.010698667727410793,-0.04148736596107483,0.0
347,5,-0.005308123305439949,0.0006294172490015626,0.0045322575606405735,0.005146685987710953,-0.019422831013798714,0.009428119286894798,-0.0013949575368314981,0.10361519455909729,0.004119632299989462,-0.20082926750183105,-0.3143123984336853,-0.10346274077892303,0.0,0.0,0.0,0.012218046933412552,-0.015177556313574314,-0.0,0.0,0.0,0.0,0.004135303199291229,-0.03890744969248772,-0.0030589275993406773,12097.0,18651.0,18561.0,13019.0,0.32166823744773865,0.8025476336479187,0.794516384601593,0.37631604075431824,0.0,0.0,0.0,0.0,10889.0,19344.0,17527.0,14424.0,1.8349465131759644,0.046589512603105586,-0.24545728564357622,0.05197916420477928,0.06710086017847061,0.04155412316322327,0.0,0.010698667727410793,-0.04148736596107483,0.0
352,5,-0.0052050077356398106,0.0007294249953702092,0.0044170585460960865,0.01443253830075264,-0.019770056009292603,0.017595110461115837,-0.0013949575368314981,0.10361519455909729,0.004119632299989462,-0.20082926750183105,-0.3143123984336853,-0.10346274077892303,0.0,0.0,0.0,0.012218046933412552,-0.015177556313574314,-0.0,0.0,0.0,0.0,0.004135303199291229,-0.03890744969248772,-0.0030589275993406773,12097.0,18651.0,18561.0,13019.0,0.32166823744773865,0.8025476336479187,0.794516384601593,0.37631604075431824,0.0,0.0,0.0,0.0,10889.0,19344.0,17527.0,14424.0,1.8349465131759644,0.04381945768660081,-0.23658935108076964,0.051604975613444765,0.06710086017847061,0.04155412316322327,0.0,0.010698667727410793,-0.04148736596107483,0.0
357,5,-0.005097141023725271,0.0007957140333019197,0.004284489434212446,0.018717031925916672,-0.015862707048654556,0.022946367040276527,-0.003995293285697699,0.10091594606637955,0.0027752642054110765,-0.26737692952156067,0.7508674263954163,-0.004302312154322863,0.0,0.0,0.0,0.018843891099095345,0.009532482363283634,-0.0,0.0,0.0,0.0,0.00571646960452199,-0.023783491924405098,0.003914735745638609,12319.0,17736.0,17535.0,13807.0,0.33443182706832886,0.7224641442298889,0.7054615616798401,0.42639052867889404,0.0,0.0,0.0,0.0,13697.0,16651.0,18200.0,12982.0,1.8285812139511108,0.04254783118201629,-0.22709218421624863,0.050242734501590565,-0.0419941172003746,0.06386261433362961,-0.0,0.010445808991789818,-0.030225006863474846,0.0
362,5,-0.004937675781548023,0.0008690995164215565,0.004131116904318333,0.026622602716088295,-0.015151344239711761,0.027583202347159386,-0.003995293285697699,0.10091594606637955,0.0027752642054110765,-0.26737692952156067,0.7508674263954163,-0.004302312154322863,0.0,0.0,0.0,0.018843891099095345,0.009532482363283634,-0.0,0.0,0.0,0.0,0.00571646960452199,-0.023783491924405098,0.003914735745638609,12319.0,17736.0,17535.0,13807.0,0.33443182706832886,0.7224641442298889,0.7054615616798401,0.42639052867889404,0.0,0.0,0.0,0.0,13697.0,16651.0,18200.0,12982.0,1.8285812139511108,0.040311490440016425,-0.21509637222520664,0.049489852458634014,-0.0419941172003746,0.06386261433362961,-0.0,0.010445808991789818,-0.030225006863474846,0.0
367,5,-0.004739335738122463,0.0009753218037076294,0.003933140076696873,0.03444985672831535,-0.018807213753461838,0.03479054197669029,-0.0063873836770653725,0.09100982546806335,0.0037885524798184633,-0.2944910228252411,1.722970724105835,0.04758720472455025,0.0,0.0,0.0,0.018843891099095345,0.009532482363283634,-0.0,0.0,0.0,0.0,0.004918069578707218,-0.005003625527024269,-0.00529925711452961,14343.0,14861.0,17393.0,12840.0,0.462220162153244,0.4982066750526428,0.6935182809829712,0.3653523921966553,0.0,0.0,0.0,0.0,13094.0,16007.0,15771.0,14760.0,1.8285812139511108,0.038401573824465254,-0.2011523405910306,0.048026514709983176,-0.0419941172003746,0.06386261433362961,-0.0,0.012218046933412552,-0.015177556313574314,0.0
373,5,-0.004519325215369463,0.0010858405148610473,0.0037097970489412546,0.040181197226047516,-0.02078513242304325,0.040717363357543945,-0.0063873836770653725,0.09100982546806335,0.0037885524798184633,-0.2944910228252411,1.722970724105835,0.04758720472455025,0.0,0.0,0.0,0.02089979499578476,0.02180982008576393,-0.0,0.0,0.0,0.0,0.004918069578707218,-0.005003625527024269,-0.00529925711452961,14343.0,14861.0,17393.0,12840.0,0.462220162153244,0.4982066750526428,0.6935182809829712,0.3653523921966553,0.0,0.0,0.0,0.0,13094.0,16007.0,15771.0,14760.0,1.9594060182571411,0.03574803659982194,-0.1868382125078608,0.04766424595262025,-0.102943554520607,0.0758957713842392,-0.0,0.012218046933412552,-0.015177556313574314,0.0
378,5,-0.004247375763952732,0.0011664906051009893,0.0033843223936855793,0.04870643466711044,-0.017992064356803894,0.05534389242529869,-0.0097251757979393,0.06624051183462143,0.0018038887064903975,-0.27166640758514404,2.4467504024505615,-0.15174414217472076,0.0,0.0,0.0,0.02089979499578476,0.02180982008576393,-0.0,0.0,0.0,0.0,0.004918069578707218,-0.005003625527024269,-0.00529925711452961,11832.0,15822.0,13092.0,15958.0,0.30677056312561035,0.568512499332428,0.3808094263076782,0.5788540244102478,0.0,0.0,0.0,0.0,13524.0,14306.0,14045.0,15237.0,1.9594060182571411,0.033923377389440165,-0.17095456838902304,0.04723587790858038,-0.102943554520607,0.0758957713842392,-0.0,0.012218046933412552,-0.015177556313574314,0.0
383,5,-0.004004563670605421,0.0012318016961216927,0.0031230712775141,0.04862004891037941,-0.015034152194857597,0.05348770320415497,-0.0097251757979393,0.06624051183462143,0.0018038887064903975,-0.27166640758514404,2.4467504024505615,-0.15174414217472076,0.0,0.0,0.0,0.019205061718821526,0.031814586371183395,-0.0,0.0,0.0,0.0,0.004918069578707218,-0.005003625527024269,-0.00529925711452961,11832.0,15822.0,13092.0,15958.0,0.30677056312561035,0.568512499332428,0.3808094263076782,0.5788540244102478,0.0,0.0,0.0,0.0,13524.0,14306.0,14045.0,15237.0,2.0760421752929688,0.03256376370765339,-0.15692571480216294,0.048117058031158316,-0.1590966284275055,0.07389447093009949,-0.0,0.012218046933412552,-0.015177556313574314,0.0
388,5,-0.0037613960448652506,0.0012786041479557753,0.0028005316853523254,0.04862811416387558,-0.011629956774413586,0.06009984388947487,-0.012212719768285751,0.04404357448220253,0.0021613736171275377,-0.313508003950119,2.9861044883728027,0.13894279301166534,0.0,0.0,0.0,0.019205061718821526,0.031814586371183395,-0.0,0.0,0.0,0.0,0.007482025772333145,0.007608287502080202,0.0030339101795107126,16217.0,10459.0,14955.0,14742.0,0.5987824201583862,0.23513345420360565,0.504848062992096,0.4898172616958618,0.0,0.0,0.0,0.0,16239.0,10410.0,14386.0,15306.0,2.0760421752929688,0.03030424130401761,-0.14161312950256189,0.04805012886334807,-0.1590966284275055,0.07389447093009949,-0.0,0.012218046933412552,-0.015177556313574314,0.0
393,5,-0.003542075166478753,0.00132171215955168,0.0025085476227104664,0.04576972872018814,-0.009824943728744984,0.05907803028821945,-0.012212719768285751,0.04404357448220253,0.0021613736171275377,-0.313508003950119,2.9861044883728027,0.13894279301166534,0.0,0.0,0.0,0.013261341489851475,0.03252090513706207,-0.0,0.0,0.0,0.0,0.007482025772333145,0.007608287502080202,0.0030339101795107126,16217.0,10459.0,14955.0,14742.0,0.5987824201583862,0.23513345420360565,0.504848062992096,0.4898172616958618,0.0,0.0,0.0,0.0,16239.0,10410.0,14386.0,15306.0,2.0609729290008545,0.02897322858833885,-0.12665993316289467,0.047643612146655016,-0.16146264970302582,0.050657667219638824,-0.0,0.012218046933412552,-0.015177556313574314,0.0
398,5,-0.0033416259102523327,0.0013177599757909775,0.0022128436248749495,0.04236181080341339,-0.003455710131675005,0.05911567062139511,-0.01607988402247429,0.00707545131444931,0.002448074519634247,-0.2840209901332855,3.203333616256714,0.023398609831929207,0.0,0.0,0.0,0.013261341489851475,0.03252090513706207,-0.0,0.0,0.0,0.0,0.009333176538348198,0.028635874390602112,0.001848708838224411,16663.0,11031.0,13694.0,16772.0,0.6339293718338013,0.2638259828090668,0.4190189838409424,0.6426316499710083,0.0,0.0,0.0,0.0,16711.0,10976.0,13180.0,17162.0,2.0609729290008545,0.02800293142938101,-0.11317078592126266,0.04671507423730318,-0.16146264970302582,0.050657667219638824,-0.0,0.018843891099095345,0.009532482363283634,0.0
403,5,-0.0031876126304268837,0.0013339597498998046,0.0019705689046531916,0.035426318645477295,-0.003326267236843705,0.05271923542022705,-0.01607988402247429,0.00707545131444931,0.002448074519634247,-0.2840209901332855,3.203333616256714,0.023398609831929207,0.0,0.0,0.0,0.005473145749419928,0.02920272760093212,-0.0,0.0,0.0,0.0,0.009333176538348198,0.028635874390602112,0.001848708838224411,16663.0,11031.0,13694.0,16772.0,0.6339293718338013,0.2638259828090668,0.4190189838409424,0.6426316499710083,0.0,0.0,0.0,0.0,16711.0,10976.0,13180.0,17162.0,1.9935632944107056,0.027131152035265328,-0.10108964740073338,0.04619568427803903,-0.14026105403900146,0.02022421360015869,-0.0,0.018843891099095345,0.009532482363283634,0.0
408,5,-0.0030920524150133133,0.0013626905856654048,0.0017366905231028795,0.02563774399459362,-0.004778202623128891,0.04915310814976692,-0.0180125180631876,-0.018389511853456497,0.0021437944378703833,-0.14063844084739685,3.115525484085083,0.016508078202605247,0.0,0.0,0.0,0.005473145749419928,0.02920272760093212,-0.0,0.0,0.0,0.0,0.009126486256718636,0.04012564942240715,0.0008984916494227946,17558.0,10877.0,12712.0,18115.0,0.7073546051979065,0.2559390068054199,0.3576262891292572,0.7551223039627075,0.0,0.0,0.0,0.0,16711.0,10976.0,13180.0,17162.0,1.9935632944107056,0.0297168303072892,-0.08878675124270588,0.045780389197186674,-0.14026105403900146,0.02022421360015869,-0.0,0.02089979499578476,0.02180982008576393,0.0
413,5,-0.0030236963648349047,0.0013627917505800724,0.0015504858456552029,0.01845783367753029,-0.0019234162755310535,0.04200580343604088,-0.0180125180631876,-0.018389511853456497,0.0021437944378703833,-0.14063844084739685,3.115525484085083,0.016508078202605247,0.0,0.0,0.0,0.0074370545335114,0.017748629674315453,-0.0,0.0,0.0,0.0,0.009126486256718636,0.04012564942240715,0.0008984916494227946,17558.0,10877.0,12712.0,18115.0,0.7073546051979065,0.2559390068054199,0.3576262891292572,0.7551223039627075,0.0,0.0,0.0,0.0,16711.0,10976.0,13180.0,17162.0,1.8451732397079468,0.031664899934214875,-0.07901119999126205,0.04510717171119216,-0.07890763878822327,0.025435447692871094,-0.0,0.02089979499578476,0.02180982008576393,0.0
418,5,-0.0030113307293504477,0.0013340902514755726,0.0014405847759917378,0.008867007680237293,0.0026748108211904764,0.029990455135703087,-0.018486078828573227,-0.05243272706866264,0.002367651090025902,0.03723038360476494,2.5782246589660645,0.07001134008169174,0.0,0.0,0.0,0.0074370545335114,0.017748629674315453,-0.0,0.0,0.0,0.0,0.008177061565220356,0.04989403858780861,0.0024807483423501253,18022.0,10222.0,12933.0,17874.0,0.7470372319221497,0.22373053431510925,0.3710261583328247,0.7342483401298523,0.0,0.0,0.0,0.0,18049.0,9999.0,13051.0,17884.0,1.8451732397079468,0.03378179100144096,-0.07270680212801474,0.04410715284403683,-0.07890763878822327,0.025435447692871094,-0.0,0.019205061718821526,0.031814586371183395,0.0
423,5,-0.003056270070374012,0.0012869827914983034,0.0013982165837660432,-0.0018459213897585869,0.006722820457071066,0.017080357298254967,-0.018486078828573227,-0.05243272706866264,0.002367651090025902,0.03723038360476494,2.5782246589660645,0.07001134008169174,0.0,0.0,0.0,-0.0008608457865193486,0.00408613495528698,-0.0,0.0,0.0,0.0,0.008177061565220356,0.04989403858780861,0.0024807483423501253,18022.0,10222.0,12933.0,17874.0,0.7470372319221497,0.22373053431510925,0.3710261583328247,0.7342483401298523,0.0,0.0,0.0,0.0,18049.0,9999.0,13051.0,17884.0,1.6707981824874878,0.036189338189503185,-0.06984943765202752,0.04364619330055665,-0.016450807452201843,-0.00266598560847342,-0.0,0.019205061718821526,0.031814586371183395,0.0
428,5,-0.003149990923702717,0.001233873306773603,0.0013888132525607944,-0.011984849348664284,0.009062270633876324,0.007960548624396324,-0.018486078828573227,-0.05243272706866264,0.002367651090025902,0.03723038360476494,2.5782246589660645,0.07001134008169174,0.0,0.0,0.0,-0.0008608457865193486,0.00408613495528698,-0.0,0.0,0.0,0.0,0.008177061565220356,0.04989403858780861,0.0024807483423501253,18022.0,10222.0,12933.0,17874.0,0.7470372319221497,0.22373053431510925,0.3710261583328247,0.7342483401298523,0.0,0.0,0.0,0.0,18049.0,9999.0,13051.0,17884.0,1.6707981824874878,0.03865348904907048,-0.06929327108829761,0.04350006947794681,-0.016450807452201843,-0.00266598560847342,-0.0,0.019205061718821526,0.031814586371183395,0.0
433,5,-0.0032792554702609777,0.0011973708169534802,0.0014506090665236115,-0.0203056912869215,0.008005197159945965,-0.004231284372508526,-0.017367316409945488,-0.0700242891907692,0.0023360797204077244,0.23415601253509521,1.7664508819580078,0.01266967598348856,0.0,0.0,0.0,-0.008110681548714638,-0.01435859128832817,-0.0,0.0,0.0,0.0,0.005483821965754032,0.04862319305539131,0.0013523008674383163,17861.0,10867.0,12173.0,18014.0,0.7331621646881104,0.2554578483104706,0.3260055184364319,0.7463474869728088,0.0,0.0,0.0,0.0,17799.0,11053.0,12025.0,18062.0,1.8070318698883057,0.04052855422992481,-0.0723604521436068,0.04375166846148006,0.06251731514930725,-0.027165833860635757,-0.0,0.013261341489851475,0.03252090513706207,0.0
439,5,-0.0034517867024987936,0.0011690253159031272,0.0015641796635463834,-0.028826037421822548,0.006603541783988476,-0.015320975333452225,-0.017367316409945488,-0.0700242891907692,0.0023360797204077244,0.23415601253509521,1.7664508819580078,0.01266967598348856,0.0,0.0,0.0,-0.008110681548714638,-0.01435859128832817,-0.0,0.0,0.0,0.0,0.005483821965754032,0.04862319305539131,0.0013523008674383163,17861.0,10867.0,12173.0,18014.0,0.7331621646881104,0.2554578483104706,0.3260055184364319,0.7463474869728088,0.0,0.0,0.0,0.0,17799.0,11053.0,12025.0,18062.0,1.8070318698883057,0.04181366126430656,-0.0774395368013144,0.04361967817251893,0.06251731514930725,-0.027165833860635757,-0.0,0.013261341489851475,0.03252090513706207,0.0
444,5,-0.0036723108496516943,0.0011435325723141432,0.0016933074221014977,-0.03799329325556755,0.005700542591512203,-0.021623721346259117,-0.01375827006995678,-0.08584224432706833,0.0021068050991743803,0.37865349650382996,0.8110431432723999,0.014104737900197506,0.0,0.0,0.0,-0.005033812951296568,-0.02695121057331562,-0.0,0.0,0.0,0.0,0.0013285849709063768,0.032191794365644455,-0.0010594208724796772,15752.0,12582.0,11737.0,16621.0,0.5632510185241699,0.34986889362335205,0.3014834523200989,0.6305698156356812,0.0,0.0,0.0,0.0,16433.0,11570.0,11558.0,16806.0,1.9611258506774902,0.04406376602884527,-0.08409360728536415,0.043554576209503114,0.12734372913837433,-0.01829817332327366,0.0,0.0074370545335114,0.017748629674315453,0.0
449,5,-0.0039354669861495495,0.0011160457506775856,0.0018921998562291265,-0.04677607864141464,0.005578638520091772,-0.032516587525606155,-0.01375827006995678,-0.08584224432706833,0.0021068050991743803,0.37865349650382996,0.8110431432723999,0.014104737900197506,0.0,0.0,0.0,-0.005033812951296568,-0.02695121057331562,-0.0,0.0,0.0,0.0,0.0013285849709063768,0.032191794365644455,-0.0010594208724796772,15752.0,12582.0,11737.0,16621.0,0.5632510185241699,0.34986889362335205,0.3014834523200989,0.6305698156356812,0.0,0.0,0.0,0.0,16433.0,11570.0,11558.0,16806.0,1.9611258506774902,0.04557930908078075,-0.09313476194093503,0.04271938141569207,0.12734372913837433,-0.01829817332327366,0.0,0.0074370545335114,0.017748629674315453,0.0
